{"type":"Topology","objects":{"snowdepth_geo":{"type":"GeometryCollection","name":"snowdepth","crs":{"type":"name","properties":{"name":"urn:ogc:def:crs:OGC:1.3:CRS84"}},"geometries":[{"type":"Point","properties":{"Station_ID":"PRKM4","Station_Nam":"MUNISING EAST","Latitude":"46.42580","Longitude":"-86.62000","Snowdepth":"76.500","Units":"in","Rept_Date":"2021-01-15 06"},"coordinates":[2492,6783]},{"type":"Point","properties":{"Station_ID":"QLB","Station_Nam":"QLB","Latitude":"50.72360","Longitude":"-75.10000","Snowdepth":"20.591","Units":"in","Rept_Date":"2021-01-14 12"},"coordinates":[5196,9390]},{"type":"Point","properties":{"Station_ID":"QCO","Station_Nam":"QCO","Latitude":"51.45280","Longitude":"-72.20110","Snowdepth":"20.315","Units":"in","Rept_Date":"2021-01-14 12"},"coordinates":[5876,9833]},{"type":"Point","properties":{"Station_ID":"QGO","Station_Nam":"QGO","Latitude":"48.85500","Longitude":"-74.20640","Snowdepth":"20.039","Units":"in","Rept_Date":"2021-01-14 12"},"coordinates":[5405,8257]},{"type":"Point","properties":{"Station_ID":"QTM","Station_Nam":"QTM","Latitude":"51.05780","Longitude":"-72.57190","Snowdepth":"19.291","Units":"in","Rept_Date":"2021-01-14 12"},"coordinates":[5789,9593]},{"type":"Point","properties":{"Station_ID":"TRIQ6","Station_Nam":"TRIO LAKE","Latitude":"49.22880","Longitude":"-87.22920","Snowdepth":"19.210","Units":"in","Rept_Date":"2021-01-15 06"},"coordinates":[2349,8483]},{"type":"Point","properties":{"Station_ID":"PTLQ6","Station_Nam":"PORTAGE LAKE","Latitude":"49.06950","Longitude":"-86.65940","Snowdepth":"18.700","Units":"in","Rept_Date":"2021-01-15 06"},"coordinates":[2483,8387]},{"type":"Point","properties":{"Station_ID":"AUDQ6","Station_Nam":"AUDEN","Latitude":"48.52600","Longitude":"-82.57570","Snowdepth":"17.950","Units":"in","Rept_Date":"2021-01-15 06"},"coordinates":[3441,8057]},{"type":"Point","properties":{"Station_ID":"DVLQ6","Station_Nam":"DEVIOUS LAKE","Latitude":"49.19890","Longitude":"-87.76440","Snowdepth":"16.610","Units":"in","Rept_Date":"2021-01-15 06"},"coordinates":[2224,8465]},{"type":"Point","properties":{"Station_ID":"PDLM4","Station_Nam":"PAINESDALE","Latitude":"47.04160","Longitude":"-88.67170","Snowdepth":"16.000","Units":"in","Rept_Date":"2021-01-14 13"},"coordinates":[2011,7157]},{"type":"Point","properties":{"Station_ID":"HTLN3","Station_Nam":"HERMIT LAKE SNOWPLOT","Latitude":"44.26130","Longitude":"-71.28330","Snowdepth":"15.000","Units":"in","Rept_Date":"2021-01-14 10"},"coordinates":[6092,5470]},{"type":"Point","properties":{"Station_ID":"QOU","Station_Nam":"QOU","Latitude":"50.79250","Longitude":"-69.67470","Snowdepth":"14.291","Units":"in","Rept_Date":"2021-01-14 12"},"coordinates":[6469,9432]},{"type":"Point","properties":{"Station_ID":"MMNV1","Station_Nam":"MT. MANSFIELD","Latitude":"44.52480","Longitude":"-72.81540","Snowdepth":"14.000","Units":"in","Rept_Date":"2021-01-14 21"},"coordinates":[5732,5630]},{"type":"Point","properties":{"Station_ID":"IWOM4","Station_Nam":"IRONWOOD#2","Latitude":"46.46520","Longitude":"-90.13820","Snowdepth":"14.000","Units":"in","Rept_Date":"2021-01-14 13"},"coordinates":[1666,6807]},{"type":"Point","properties":{"Station_ID":"HURW3","Station_Nam":"HURLEY","Latitude":"46.46250","Longitude":"-90.19550","Snowdepth":"14.000","Units":"in","Rept_Date":"2021-01-14 14"},"coordinates":[1653,6805]},{"type":"Point","properties":{"Station_ID":"WLFM5","Station_Nam":"WOLF RIDGE ENVIRON LEARNING CENTER","Latitude":"47.38240","Longitude":"-91.19730","Snowdepth":"13.000","Units":"in","Rept_Date":"2021-01-14 13"},"coordinates":[1418,7363]},{"type":"Point","properties":{"Station_ID":"OGIQ6","Station_Nam":"OGOKI CAMP","Latitude":"50.76680","Longitude":"-87.85820","Snowdepth":"12.760","Units":"in","Rept_Date":"2021-01-15 06"},"coordinates":[2202,9417]},{"type":"Point","properties":{"Station_ID":"HLSN3","Station_Nam":"HERMIT LAKE SNOTEL","Latitude":"44.26130","Longitude":"-71.28320","Snowdepth":"12.280","Units":"in","Rept_Date":"2021-01-15 06"},"coordinates":[6092,5470]},{"type":"Point","properties":{"Station_ID":"QMD","Station_Nam":"QMD","Latitude":"49.29060","Longitude":"-75.84500","Snowdepth":"12.205","Units":"in","Rept_Date":"2021-01-14 12"},"coordinates":[5021,8521]},{"type":"Point","properties":{"Station_ID":"MN-IS-18","Station_Nam":"BRAHAM 0.7 SW, MN","Latitude":"45.71379","Longitude":"-93.18095","Snowdepth":"12.000","Units":"in","Rept_Date":"2021-01-14 14"},"coordinates":[952,6351]},{"type":"Point","properties":{"Station_ID":"LNCM1","Station_Nam":"LINCOLN WATER DISTRICT","Latitude":"45.32410","Longitude":"-68.58300","Snowdepth":"12.000","Units":"in","Rept_Date":"2021-01-14 12"},"coordinates":[6725,6115]},{"type":"Point","properties":{"Station_ID":"HGHN6","Station_Nam":"HIGHMARKET","Latitude":"43.60510","Longitude":"-75.55430","Snowdepth":"12.000","Units":"in","Rept_Date":"2021-01-14 11"},"coordinates":[5089,5072]},{"type":"Point","properties":{"Station_ID":"HERM4","Station_Nam":"HERMAN,MI","Latitude":"46.65000","Longitude":"-88.33330","Snowdepth":"12.000","Units":"in","Rept_Date":"2021-01-14 14"},"coordinates":[2090,6919]},{"type":"Point","properties":{"Station_ID":"QWE","Station_Nam":"QWE","Latitude":"47.84610","Longitude":"-73.80670","Snowdepth":"11.968","Units":"in","Rept_Date":"2021-01-14 12"},"coordinates":[5499,7645]},{"type":"Point","properties":{"Station_ID":"MLZ","Station_Nam":"MLZ","Latitude":"50.66170","Longitude":"-68.82360","Snowdepth":"11.535","Units":"in","Rept_Date":"2021-01-14 12"},"coordinates":[6669,9353]},{"type":"Point","properties":{"Station_ID":"KABQ6","Station_Nam":"CAB LAKE","Latitude":"49.59950","Longitude":"-89.17990","Snowdepth":"11.420","Units":"in","Rept_Date":"2021-01-15 06"},"coordinates":[1891,8708]},{"type":"Point","properties":{"Station_ID":"QLI","Station_Nam":"QLI","Latitude":"50.27080","Longitude":"-73.92280","Snowdepth":"11.417","Units":"in","Rept_Date":"2021-01-14 12"},"coordinates":[5472,9116]},{"type":"Point","properties":{"Station_ID":"QNCM4","Station_Nam":"QUINCY HILL","Latitude":"47.13640","Longitude":"-88.57950","Snowdepth":"11.000","Units":"in","Rept_Date":"2021-01-14 12"},"coordinates":[2032,7214]},{"type":"Point","properties":{"Station_ID":"KSGM4","Station_Nam":"KEARSARGE","Latitude":"47.27520","Longitude":"-88.41700","Snowdepth":"11.000","Units":"in","Rept_Date":"2021-01-14 13"},"coordinates":[2070,7298]},{"type":"Point","properties":{"Station_ID":"KABM5","Station_Nam":"KABETOGAMA LAKE VISITOR CTR","Latitude":"48.40880","Longitude":"-93.04840","Snowdepth":"11.000","Units":"in","Rept_Date":"2021-01-14 13"},"coordinates":[983,7986]},{"type":"Point","properties":{"Station_ID":"BRSW3","Station_Nam":"BRULE,WI","Latitude":"46.53780","Longitude":"-91.59190","Snowdepth":"11.000","Units":"in","Rept_Date":"2021-01-14 16"},"coordinates":[1325,6851]},{"type":"Point","properties":{"Station_ID":"SVBQ6","Station_Nam":"SAVANT BASE","Latitude":"50.28730","Longitude":"-90.65670","Snowdepth":"10.870","Units":"in","Rept_Date":"2021-01-15 06"},"coordinates":[1545,9126]},{"type":"Point","properties":{"Station_ID":"SOCQ6","Station_Nam":"SOCKET LAKE","Latitude":"50.77870","Longitude":"-91.79300","Snowdepth":"10.750","Units":"in","Rept_Date":"2021-01-15 06"},"coordinates":[1278,9424]},{"type":"Point","properties":{"Station_ID":"MN-SL-15","Station_Nam":"CHISHOLM 0.4 WSW, MN","Latitude":"47.48557","Longitude":"-92.88690","Snowdepth":"10.500","Units":"in","Rept_Date":"2021-01-14 13"},"coordinates":[1021,7426]},{"type":"Point","properties":{"Station_ID":"WRSM5","Station_Nam":"WRENSHALL","Latitude":"46.61550","Longitude":"-92.38380","Snowdepth":"10.000","Units":"in","Rept_Date":"2021-01-14 14"},"coordinates":[1139,6898]},{"type":"Point","properties":{"Station_ID":"MWN","Station_Nam":"MOUNT WASHINGTON","Latitude":"44.26670","Longitude":"-71.30000","Snowdepth":"10.000","Units":"in","Rept_Date":"2021-01-14 12"},"coordinates":[6088,5473]},{"type":"Point","properties":{"Station_ID":"MN-SL-18","Station_Nam":"DULUTH 1.4 NNW, MN","Latitude":"46.80321","Longitude":"-92.11240","Snowdepth":"10.000","Units":"in","Rept_Date":"2021-01-14 14"},"coordinates":[1203,7012]},{"type":"Point","properties":{"Station_ID":"LEIM5","Station_Nam":"ORR 3E","Latitude":"48.05810","Longitude":"-92.75220","Snowdepth":"10.000","Units":"in","Rept_Date":"2021-01-14 12"},"coordinates":[1053,7773]},{"type":"Point","properties":{"Station_ID":"KMWN","Station_Nam":"MOUNT WASHINGTON","Latitude":"44.26666","Longitude":"-71.30000","Snowdepth":"10.000","Units":"in","Rept_Date":"2021-01-15 06"},"coordinates":[6088,5473]},{"type":"Point","properties":{"Station_ID":"IFSM5","Station_Nam":"INTERNATIONAL FALLS SNOW","Latitude":"48.57780","Longitude":"-93.39640","Snowdepth":"10.000","Units":"in","Rept_Date":"2021-01-15 06"},"coordinates":[902,8089]},{"type":"Point","properties":{"Station_ID":"FLDM5","Station_Nam":"FLOODWOOD,MN","Latitude":"47.00000","Longitude":"-92.91670","Snowdepth":"10.000","Units":"in","Rept_Date":"2021-01-14 14"},"coordinates":[1014,7131]},{"type":"Point","properties":{"Station_ID":"COTM5","Station_Nam":"COTTON","Latitude":"47.16870","Longitude":"-92.46290","Snowdepth":"10.000","Units":"in","Rept_Date":"2021-01-14 13"},"coordinates":[1121,7234]},{"type":"Point","properties":{"Station_ID":"BNDM5","Station_Nam":"ELY 25E","Latitude":"47.97190","Longitude":"-91.44860","Snowdepth":"10.000","Units":"in","Rept_Date":"2021-01-14 13"},"coordinates":[1359,7721]},{"type":"Point","properties":{"Station_ID":"MI-BG-3","Station_Nam":"THREE LAKES, MI","Latitude":"46.55730","Longitude":"-88.20770","Snowdepth":"9.900","Units":"in","Rept_Date":"2021-01-14 13"},"coordinates":[2119,6863]},{"type":"Point","properties":{"Station_ID":"MN-CK-18","Station_Nam":"GRAND MARAIS 4.4 WSW, MN","Latitude":"47.74462","Longitude":"-90.43796","Snowdepth":"9.500","Units":"in","Rept_Date":"2021-01-14 13"},"coordinates":[1596,7583]},{"type":"Point","properties":{"Station_ID":"WI-WB-2","Station_Nam":"STONE LAKE 2.0 NW, WI","Latitude":"45.85960","Longitude":"-91.57710","Snowdepth":"9.000","Units":"in","Rept_Date":"2021-01-14 13"},"coordinates":[1329,6439]},{"type":"Point","properties":{"Station_ID":"WI-IR-4","Station_Nam":"MERCER 7.0 NNE, WI","Latitude":"46.26677","Longitude":"-90.03360","Snowdepth":"9.000","Units":"in","Rept_Date":"2021-01-14 13"},"coordinates":[1691,6686]},{"type":"Point","properties":{"Station_ID":"VT-OL-12","Station_Nam":"GREENSBORO 3.9 NNE, VT","Latitude":"44.63100","Longitude":"-72.28000","Snowdepth":"9.000","Units":"in","Rept_Date":"2021-01-14 14"},"coordinates":[5858,5694]},{"type":"Point","properties":{"Station_ID":"STOI2","Station_Nam":"STOCKTON 3 NNE","Latitude":"42.40050","Longitude":"-89.99580","Snowdepth":"9.000","Units":"in","Rept_Date":"2021-01-15 03"},"coordinates":[1700,4341]},{"type":"Point","properties":{"Station_ID":"NY-FK-9","Station_Nam":"GABRIELS 1.3 SE, NY","Latitude":"44.41934","Longitude":"-74.16194","Snowdepth":"9.000","Units":"in","Rept_Date":"2021-01-14 12"},"coordinates":[5416,5566]},{"type":"Point","properties":{"Station_ID":"MN-SL-108","Station_Nam":"IRON JUNCTION 3.4 NNW, MN","Latitude":"47.46150","Longitude":"-92.63130","Snowdepth":"9.000","Units":"in","Rept_Date":"2021-01-14 13"},"coordinates":[1081,7411]},{"type":"Point","properties":{"Station_ID":"MN-CN-36","Station_Nam":"CLOQUET 3.4 ENE, MN","Latitude":"46.74146","Longitude":"-92.42698","Snowdepth":"9.000","Units":"in","Rept_Date":"2021-01-14 13"},"coordinates":[1129,6974]},{"type":"Point","properties":{"Station_ID":"KMSP","Station_Nam":"MINNEAPOLIS-ST PAUL INTERNATIONAL","Latitude":"44.86666","Longitude":"-93.21666","Snowdepth":"9.000","Units":"in","Rept_Date":"2021-01-15 06"},"coordinates":[944,5837]},{"type":"Point","properties":{"Station_ID":"INL","Station_Nam":"FALLS INTERNATIONAL ARPT","Latitude":"48.56640","Longitude":"-93.40310","Snowdepth":"9.000","Units":"in","Rept_Date":"2021-01-15 00"},"coordinates":[900,8082]},{"type":"Point","properties":{"Station_ID":"CAN-MB-32","Station_Nam":"PINAWA 1.0 SW, CA","Latitude":"50.14747","Longitude":"-95.89020","Snowdepth":"9.000","Units":"in","Rept_Date":"2021-01-14 13"},"coordinates":[316,9041]},{"type":"Point","properties":{"Station_ID":"BRUM5","Station_Nam":"BRUNO,MN","Latitude":"46.28330","Longitude":"-92.50000","Snowdepth":"9.000","Units":"in","Rept_Date":"2021-01-14 14"},"coordinates":[1112,6696]},{"type":"Point","properties":{"Station_ID":"BBEM4","Station_Nam":"BIG BAY 9SW","Latitude":"46.74620","Longitude":"-87.88160","Snowdepth":"9.000","Units":"in","Rept_Date":"2021-01-14 13"},"coordinates":[2196,6977]},{"type":"Point","properties":{"Station_ID":"CATQ6","Station_Nam":"CAT LAKE","Latitude":"51.72690","Longitude":"-91.82210","Snowdepth":"8.780","Units":"in","Rept_Date":"2021-01-15 06"},"coordinates":[1271,9999]},{"type":"Point","properties":{"Station_ID":"QLP","Station_Nam":"QLP","Latitude":"48.13920","Longitude":"-72.63830","Snowdepth":"8.504","Units":"in","Rept_Date":"2021-01-14 12"},"coordinates":[5774,7822]},{"type":"Point","properties":{"Station_ID":"NY-SR-22","Station_Nam":"GREENFIELD CENTER 1.6 W, NY","Latitude":"43.12684","Longitude":"-73.87860","Snowdepth":"8.500","Units":"in","Rept_Date":"2021-01-14 12"},"coordinates":[5482,4782]},{"type":"Point","properties":{"Station_ID":"NY-ES-11","Station_Nam":"VERMONTVILLE 2.8 S, NY","Latitude":"44.41205","Longitude":"-74.06760","Snowdepth":"8.500","Units":"in","Rept_Date":"2021-01-14 12"},"coordinates":[5438,5561]},{"type":"Point","properties":{"Station_ID":"NH-MR-60","Station_Nam":"SOUTH SUTTON 1.3 SE, NH","Latitude":"43.29531","Longitude":"-71.90238","Snowdepth":"8.500","Units":"in","Rept_Date":"2021-01-14 13"},"coordinates":[5946,4884]},{"type":"Point","properties":{"Station_ID":"MN-SL-139","Station_Nam":"DULUTH 1.2 SE, MN","Latitude":"46.77000","Longitude":"-92.08826","Snowdepth":"8.500","Units":"in","Rept_Date":"2021-01-14 12"},"coordinates":[1209,6992]},{"type":"Point","properties":{"Station_ID":"MI-HG-1","Station_Nam":"HOUGHTON 1.6 ESE, MI","Latitude":"47.10774","Longitude":"-88.52940","Snowdepth":"8.500","Units":"in","Rept_Date":"2021-01-14 13"},"coordinates":[2044,7197]},{"type":"Point","properties":{"Station_ID":"VT-WS-23","Station_Nam":"CABOT 2.3 E, VT","Latitude":"44.39807","Longitude":"-72.26570","Snowdepth":"8.100","Units":"in","Rept_Date":"2021-01-14 12"},"coordinates":[5861,5553]},{"type":"Point","properties":{"Station_ID":"QCX","Station_Nam":"QCX","Latitude":"51.32830","Longitude":"-70.08060","Snowdepth":"8.071","Units":"in","Rept_Date":"2021-01-14 12"},"coordinates":[6374,9757]},{"type":"Point","properties":{"Station_ID":"WTNM4","Station_Nam":"WATTON 2WSW","Latitude":"46.52660","Longitude":"-88.64240","Snowdepth":"8.000","Units":"in","Rept_Date":"2021-01-14 13"},"coordinates":[2017,6844]},{"type":"Point","properties":{"Station_ID":"WLDM5","Station_Nam":"WILD RIVER STATE PARK","Latitude":"45.52310","Longitude":"-92.74890","Snowdepth":"8.000","Units":"in","Rept_Date":"2021-01-14 14"},"coordinates":[1054,6235]},{"type":"Point","properties":{"Station_ID":"WI-PR-2","Station_Nam":"BUTTERNUT 5.9 SW, WI","Latitude":"45.96501","Longitude":"-90.59750","Snowdepth":"8.000","Units":"in","Rept_Date":"2021-01-14 12"},"coordinates":[1559,6503]},{"type":"Point","properties":{"Station_ID":"WI-BY-14","Station_Nam":"ASHLAND 9.8 W, WI","Latitude":"46.59742","Longitude":"-91.07856","Snowdepth":"8.000","Units":"in","Rept_Date":"2021-01-14 12"},"coordinates":[1446,6887]},{"type":"Point","properties":{"Station_ID":"VT-OL-1","Station_Nam":"WESTFIELD 0.7 WNW, VT","Latitude":"44.89160","Longitude":"-72.44350","Snowdepth":"8.000","Units":"in","Rept_Date":"2021-01-14 12"},"coordinates":[5819,5852]},{"type":"Point","properties":{"Station_ID":"TOHM5","Station_Nam":"TWO HARBORS WWTP","Latitude":"47.01760","Longitude":"-91.66480","Snowdepth":"8.000","Units":"in","Rept_Date":"2021-01-14 13"},"coordinates":[1308,7142]},{"type":"Point","properties":{"Station_ID":"SUTV1","Station_Nam":"SUTTON","Latitude":"44.61220","Longitude":"-72.04810","Snowdepth":"8.000","Units":"in","Rept_Date":"2021-01-14 13"},"coordinates":[5912,5683]},{"type":"Point","properties":{"Station_ID":"RGNM1","Station_Nam":"RANGELEY 2NW","Latitude":"44.98940","Longitude":"-70.67220","Snowdepth":"8.000","Units":"in","Rept_Date":"2021-01-14 11"},"coordinates":[6235,5911]},{"type":"Point","properties":{"Station_ID":"RANM1","Station_Nam":"RANGELEY","Latitude":"44.98910","Longitude":"-70.67190","Snowdepth":"8.000","Units":"in","Rept_Date":"2021-01-14 11"},"coordinates":[6235,5911]},{"type":"Point","properties":{"Station_ID":"PTBN3","Station_Nam":"PITTSBURG RESERVOIR","Latitude":"45.04690","Longitude":"-71.38300","Snowdepth":"8.000","Units":"in","Rept_Date":"2021-01-14 12"},"coordinates":[6068,5946]},{"type":"Point","properties":{"Station_ID":"NCBN6","Station_Nam":"NEWCOMB","Latitude":"43.97070","Longitude":"-74.22200","Snowdepth":"8.000","Units":"in","Rept_Date":"2021-01-14 12"},"coordinates":[5402,5293]},{"type":"Point","properties":{"Station_ID":"MQT","Station_Nam":"MARQUETTE, MI","Latitude":"46.53140","Longitude":"-87.54920","Snowdepth":"8.000","Units":"in","Rept_Date":"2021-01-15 06"},"coordinates":[2274,6847]},{"type":"Point","properties":{"Station_ID":"MPXM5","Station_Nam":"CHANHASSEN WSFO","Latitude":"44.84960","Longitude":"-93.56440","Snowdepth":"8.000","Units":"in","Rept_Date":"2021-01-15 06"},"coordinates":[862,5827]},{"type":"Point","properties":{"Station_ID":"MN-SL-115","Station_Nam":"COTTON 5.7 ESE, MN","Latitude":"47.15142","Longitude":"-92.35772","Snowdepth":"8.000","Units":"in","Rept_Date":"2021-01-14 14"},"coordinates":[1146,7223]},{"type":"Point","properties":{"Station_ID":"LPLN6","Station_Nam":"LAKE PLACID 2 S","Latitude":"44.30420","Longitude":"-73.98390","Snowdepth":"8.000","Units":"in","Rept_Date":"2021-01-14 12"},"coordinates":[5458,5496]},{"type":"Point","properties":{"Station_ID":"INDM5","Station_Nam":"INDUS,MN","Latitude":"48.61670","Longitude":"-93.90000","Snowdepth":"8.000","Units":"in","Rept_Date":"2021-01-14 14"},"coordinates":[784,8112]},{"type":"Point","properties":{"Station_ID":"IL-SP-27","Station_Nam":"DAVIS 2.7 N, IL","Latitude":"42.46110","Longitude":"-89.40890","Snowdepth":"8.000","Units":"in","Rept_Date":"2021-01-14 13"},"coordinates":[1838,4378]},{"type":"Point","properties":{"Station_ID":"HUBN3","Station_Nam":"HUBBARD BROOK","Latitude":"43.93330","Longitude":"-71.71670","Snowdepth":"8.000","Units":"in","Rept_Date":"2021-01-15 05"},"coordinates":[5990,5271]},{"type":"Point","properties":{"Station_ID":"FORM5","Station_Nam":"FOREST LAKE 5NE","Latitude":"45.33170","Longitude":"-92.89820","Snowdepth":"8.000","Units":"in","Rept_Date":"2021-01-14 13"},"coordinates":[1019,6119]},{"type":"Point","properties":{"Station_ID":"ELKM5","Station_Nam":"ELK RIVER","Latitude":"45.30470","Longitude":"-93.58420","Snowdepth":"8.000","Units":"in","Rept_Date":"2021-01-14 13"},"coordinates":[858,6103]},{"type":"Point","properties":{"Station_ID":"DUBI4","Station_Nam":"DUBUQUE #3","Latitude":"42.40870","Longitude":"-90.73250","Snowdepth":"8.000","Units":"in","Rept_Date":"2021-01-15 06"},"coordinates":[1527,4346]},{"type":"Point","properties":{"Station_ID":"DLHM5","Station_Nam":"DULUTH NWS","Latitude":"46.83680","Longitude":"-92.21080","Snowdepth":"8.000","Units":"in","Rept_Date":"2021-01-15 06"},"coordinates":[1180,7032]},{"type":"Point","properties":{"Station_ID":"DLH","Station_Nam":"DULUTH, MN","Latitude":"46.83690","Longitude":"-92.21030","Snowdepth":"8.000","Units":"in","Rept_Date":"2021-01-15 00"},"coordinates":[1180,7032]},{"type":"Point","properties":{"Station_ID":"DGVW3","Station_Nam":"DODGEVILLE","Latitude":"42.96670","Longitude":"-90.11670","Snowdepth":"8.000","Units":"in","Rept_Date":"2021-01-14 13"},"coordinates":[1671,4684]},{"type":"Point","properties":{"Station_ID":"COKM5","Station_Nam":"COOK","Latitude":"47.85060","Longitude":"-92.69250","Snowdepth":"8.000","Units":"in","Rept_Date":"2021-01-14 11"},"coordinates":[1067,7647]},{"type":"Point","properties":{"Station_ID":"CAN-PE-3","Station_Nam":"WELLINGTON 1.6 NE, CA","Latitude":"46.46672","Longitude":"-63.98920","Snowdepth":"8.000","Units":"in","Rept_Date":"2021-01-14 11"},"coordinates":[7803,6808]},{"type":"Point","properties":{"Station_ID":"CAN-NS-103","Station_Nam":"TRAFALGAR 4.9 WSW, CAN","Latitude":"45.26217","Longitude":"-62.72285","Snowdepth":"8.000","Units":"in","Rept_Date":"2021-01-14 12"},"coordinates":[8101,6077]},{"type":"Point","properties":{"Station_ID":"CAN-NB-18","Station_Nam":"MCLEOD HILL 1.1 ENE, CA","Latitude":"46.02725","Longitude":"-66.67460","Snowdepth":"8.000","Units":"in","Rept_Date":"2021-01-14 12"},"coordinates":[7173,6541]},{"type":"Point","properties":{"Station_ID":"CAN-NB-11","Station_Nam":"MIRAMICHI 3.3 S, CAN","Latitude":"46.99343","Longitude":"-65.50690","Snowdepth":"8.000","Units":"in","Rept_Date":"2021-01-14 10"},"coordinates":[7447,7127]},{"type":"Point","properties":{"Station_ID":"BABM5","Station_Nam":"BABBITT","Latitude":"47.71210","Longitude":"-91.95330","Snowdepth":"8.000","Units":"in","Rept_Date":"2021-01-14 13"},"coordinates":[1240,7563]},{"type":"Point","properties":{"Station_ID":"AVLV1","Station_Nam":"AVERILL","Latitude":"45.00570","Longitude":"-71.69030","Snowdepth":"8.000","Units":"in","Rept_Date":"2021-01-14 13"},"coordinates":[5996,5921]},{"type":"Point","properties":{"Station_ID":"FTHQ6","Station_Nam":"FORT HOPE","Latitude":"51.55820","Longitude":"-87.90510","Snowdepth":"7.990","Units":"in","Rept_Date":"2021-01-15 06"},"coordinates":[2191,9897]},{"type":"Point","properties":{"Station_ID":"CAN-QC-56","Station_Nam":"SUTTON 2.6 N, CAN","Latitude":"45.13119","Longitude":"-72.61218","Snowdepth":"7.900","Units":"in","Rept_Date":"2021-01-14 12"},"coordinates":[5780,5998]},{"type":"Point","properties":{"Station_ID":"QLM","Station_Nam":"QLM","Latitude":"48.92030","Longitude":"-70.25280","Snowdepth":"7.835","Units":"in","Rept_Date":"2021-01-14 12"},"coordinates":[6333,8296]},{"type":"Point","properties":{"Station_ID":"WI-SR-1","Station_Nam":"HAYWARD 9.2 NNE, WI","Latitude":"46.13255","Longitude":"-91.40500","Snowdepth":"7.800","Units":"in","Rept_Date":"2021-01-14 12"},"coordinates":[1369,6605]},{"type":"Point","properties":{"Station_ID":"HPN04_MADIS","Station_Nam":"HANOVER","Latitude":"45.16770","Longitude":"-93.63430","Snowdepth":"7.800","Units":"in","Rept_Date":"2021-01-15 06"},"coordinates":[846,6020]},{"type":"Point","properties":{"Station_ID":"CAN-MB-368","Station_Nam":"WHITESHELL 1.3 NE, CAN","Latitude":"49.74405","Longitude":"-95.19123","Snowdepth":"7.800","Units":"in","Rept_Date":"2021-01-14 14"},"coordinates":[481,8796]},{"type":"Point","properties":{"Station_ID":"WI-BY-29","Station_Nam":"BAYFIELD 5.1 NNW, WI","Latitude":"46.88063","Longitude":"-90.85854","Snowdepth":"7.500","Units":"in","Rept_Date":"2021-01-14 13"},"coordinates":[1497,7059]},{"type":"Point","properties":{"Station_ID":"VT-WS-30","Station_Nam":"WOODBURY 3.4 NNW, VT","Latitude":"44.48825","Longitude":"-72.43258","Snowdepth":"7.500","Units":"in","Rept_Date":"2021-01-14 12"},"coordinates":[5822,5607]},{"type":"Point","properties":{"Station_ID":"MN-CW-22","Station_Nam":"FORT RIPLEY 0.8 N, MN","Latitude":"46.18089","Longitude":"-94.36510","Snowdepth":"7.500","Units":"in","Rept_Date":"2021-01-14 13"},"coordinates":[674,6634]},{"type":"Point","properties":{"Station_ID":"MN-AA-76","Station_Nam":"NOWTHEN 2.9 SSE, MN","Latitude":"45.30360","Longitude":"-93.42620","Snowdepth":"7.500","Units":"in","Rept_Date":"2021-01-14 13"},"coordinates":[895,6102]},{"type":"Point","properties":{"Station_ID":"MI-OG-6","Station_Nam":"WEST BRANCH 2.1 SSW, MI","Latitude":"44.24814","Longitude":"-84.25089","Snowdepth":"7.500","Units":"in","Rept_Date":"2021-01-14 12"},"coordinates":[3048,5462]},{"type":"Point","properties":{"Station_ID":"CAN-QC-47","Station_Nam":"SAINTE-FOY 1.8 ENE, CAN","Latitude":"46.76934","Longitude":"-71.27124","Snowdepth":"7.500","Units":"in","Rept_Date":"2021-01-14 12"},"coordinates":[6094,6991]},{"type":"Point","properties":{"Station_ID":"CAN-ON-5","Station_Nam":"OWEN SOUND 1.5 NW - GSCA, CAN","Latitude":"44.57837","Longitude":"-80.95461","Snowdepth":"7.500","Units":"in","Rept_Date":"2021-01-14 13"},"coordinates":[3822,5662]},{"type":"Point","properties":{"Station_ID":"HPN08_MADIS","Station_Nam":"ORONO","Latitude":"44.93630","Longitude":"-93.62000","Snowdepth":"7.400","Units":"in","Rept_Date":"2021-01-15 06"},"coordinates":[849,5879]},{"type":"Point","properties":{"Station_ID":"CAN-NB-98","Station_Nam":"HOYT 4.2 S, CAN","Latitude":"45.54763","Longitude":"-66.55440","Snowdepth":"7.100","Units":"in","Rept_Date":"2021-01-14 11"},"coordinates":[7201,6250]},{"type":"Point","properties":{"Station_ID":"WI-RK-12","Station_Nam":"JANESVILLE 3.1 W, WI","Latitude":"42.67576","Longitude":"-89.07614","Snowdepth":"7.000","Units":"in","Rept_Date":"2021-01-14 13"},"coordinates":[1916,4508]},{"type":"Point","properties":{"Station_ID":"WI-PK-33","Station_Nam":"FREDERIC 4.8 NE, WI","Latitude":"45.70970","Longitude":"-92.39950","Snowdepth":"7.000","Units":"in","Rept_Date":"2021-01-14 13"},"coordinates":[1136,6348]},{"type":"Point","properties":{"Station_ID":"WI-BY-2","Station_Nam":"MELLEN 18.6 SW, WI","Latitude":"46.16937","Longitude":"-90.98090","Snowdepth":"7.000","Units":"in","Rept_Date":"2021-01-14 13"},"coordinates":[1469,6627]},{"type":"Point","properties":{"Station_ID":"WI-BT-14","Station_Nam":"OAKLAND 9.0 ENE, WI","Latitude":"45.95184","Longitude":"-92.21653","Snowdepth":"7.000","Units":"in","Rept_Date":"2021-01-14 13"},"coordinates":[1179,6495]},{"type":"Point","properties":{"Station_ID":"WHFN6","Station_Nam":"WILMINGTON 2W","Latitude":"44.39310","Longitude":"-73.85890","Snowdepth":"7.000","Units":"in","Rept_Date":"2021-01-14 13"},"coordinates":[5487,5550]},{"type":"Point","properties":{"Station_ID":"VT-ES-3","Station_Nam":"LUNENBURG 2.3 NNW, VT","Latitude":"44.49324","Longitude":"-71.70446","Snowdepth":"7.000","Units":"in","Rept_Date":"2021-01-14 11"},"coordinates":[5993,5610]},{"type":"Point","properties":{"Station_ID":"UPSW3","Station_Nam":"UPSON,WI","Latitude":"46.36780","Longitude":"-90.41220","Snowdepth":"7.000","Units":"in","Rept_Date":"2021-01-15 00"},"coordinates":[1602,6748]},{"type":"Point","properties":{"Station_ID":"TOPM1","Station_Nam":"TOPSFIELD","Latitude":"45.43470","Longitude":"-67.72020","Snowdepth":"7.000","Units":"in","Rept_Date":"2021-01-14 12"},"coordinates":[6928,6182]},{"type":"Point","properties":{"Station_ID":"TOGM5","Station_Nam":"CELINA 2E","Latitude":"47.86630","Longitude":"-93.02660","Snowdepth":"7.000","Units":"in","Rept_Date":"2021-01-14 15"},"coordinates":[989,7657]},{"type":"Point","properties":{"Station_ID":"SUAW3","Station_Nam":"SUAMICO","Latitude":"44.60190","Longitude":"-88.09780","Snowdepth":"7.000","Units":"in","Rept_Date":"2021-01-14 12"},"coordinates":[2145,5676]},{"type":"Point","properties":{"Station_ID":"RLKW3","Station_Nam":"REST LAKE","Latitude":"46.12220","Longitude":"-89.87720","Snowdepth":"7.000","Units":"in","Rept_Date":"2021-01-14 14"},"coordinates":[1728,6599]},{"type":"Point","properties":{"Station_ID":"PKFW3","Station_Nam":"PARK FALLS,WI","Latitude":"45.93360","Longitude":"-90.45060","Snowdepth":"7.000","Units":"in","Rept_Date":"2021-01-14 14"},"coordinates":[1593,6484]},{"type":"Point","properties":{"Station_ID":"PDGM4","Station_Nam":"PAULDING","Latitude":"46.39760","Longitude":"-89.17940","Snowdepth":"7.000","Units":"in","Rept_Date":"2021-01-14 14"},"coordinates":[1891,6766]},{"type":"Point","properties":{"Station_ID":"NY-HR-18","Station_Nam":"SALISBURY CENTER 1.8 NW, NY","Latitude":"43.16260","Longitude":"-74.80880","Snowdepth":"7.000","Units":"in","Rept_Date":"2021-01-14 10"},"coordinates":[5264,4803]},{"type":"Point","properties":{"Station_ID":"NH-CS-4","Station_Nam":"PITTSBURG 6.1 NE, NH","Latitude":"45.11060","Longitude":"-71.29760","Snowdepth":"7.000","Units":"in","Rept_Date":"2021-01-14 12"},"coordinates":[6088,5985]},{"type":"Point","properties":{"Station_ID":"MN-RM-15","Station_Nam":"ROSEVILLE 2.1 NW, MN","Latitude":"45.03502","Longitude":"-93.18620","Snowdepth":"7.000","Units":"in","Rept_Date":"2021-01-14 12"},"coordinates":[951,5939]},{"type":"Point","properties":{"Station_ID":"MN-IT-7","Station_Nam":"GRAND RAPIDS 6.2 SSW, MN","Latitude":"47.13687","Longitude":"-93.56660","Snowdepth":"7.000","Units":"in","Rept_Date":"2021-01-14 12"},"coordinates":[862,7214]},{"type":"Point","properties":{"Station_ID":"MN-HN-31","Station_Nam":"MAPLE GROVE 1.0 NNE, MN","Latitude":"45.12261","Longitude":"-93.45790","Snowdepth":"7.000","Units":"in","Rept_Date":"2021-01-14 16"},"coordinates":[887,5992]},{"type":"Point","properties":{"Station_ID":"MN-CW-8","Station_Nam":"BRAINERD 11.5 E, MN","Latitude":"46.38556","Longitude":"-93.95720","Snowdepth":"7.000","Units":"in","Rept_Date":"2021-01-14 14"},"coordinates":[770,6759]},{"type":"Point","properties":{"Station_ID":"MN-CW-44","Station_Nam":"CROSBY 1.1 SW, MN","Latitude":"46.47772","Longitude":"-93.97293","Snowdepth":"7.000","Units":"in","Rept_Date":"2021-01-14 13"},"coordinates":[766,6814]},{"type":"Point","properties":{"Station_ID":"MN-CV-22","Station_Nam":"VICTORIA 1.6 WSW, MN","Latitude":"44.85670","Longitude":"-93.68640","Snowdepth":"7.000","Units":"in","Rept_Date":"2021-01-14 13"},"coordinates":[834,5831]},{"type":"Point","properties":{"Station_ID":"MN-CK-6","Station_Nam":"GRAND MARAIS 4.4 W, MN","Latitude":"47.74865","Longitude":"-90.43760","Snowdepth":"7.000","Units":"in","Rept_Date":"2021-01-14 13"},"coordinates":[1596,7585]},{"type":"Point","properties":{"Station_ID":"MN-CG-16","Station_Nam":"NORTH BRANCH 1.3 NNW, MN","Latitude":"45.53121","Longitude":"-92.97110","Snowdepth":"7.000","Units":"in","Rept_Date":"2021-01-14 12"},"coordinates":[1002,6240]},{"type":"Point","properties":{"Station_ID":"MN-BK-6","Station_Nam":"LAKE PARK 6.0 S, MN","Latitude":"46.79850","Longitude":"-96.12180","Snowdepth":"7.000","Units":"in","Rept_Date":"2021-01-14 13"},"coordinates":[262,7009]},{"type":"Point","properties":{"Station_ID":"MKX","Station_Nam":"MILWAUKEE, WI","Latitude":"42.96810","Longitude":"-88.54920","Snowdepth":"7.000","Units":"in","Rept_Date":"2021-01-15 06"},"coordinates":[2039,4685]},{"type":"Point","properties":{"Station_ID":"MIEM4","Station_Nam":"MICHIGAMME 3WNW","Latitude":"46.54530","Longitude":"-88.18000","Snowdepth":"7.000","Units":"in","Rept_Date":"2021-01-14 13"},"coordinates":[2126,6855]},{"type":"Point","properties":{"Station_ID":"LUCW3","Station_Nam":"LUCK","Latitude":"45.57330","Longitude":"-92.48520","Snowdepth":"7.000","Units":"in","Rept_Date":"2021-01-14 22"},"coordinates":[1116,6266]},{"type":"Point","properties":{"Station_ID":"LNOW3","Station_Nam":"LAND O LAKES","Latitude":"46.19000","Longitude":"-89.45700","Snowdepth":"7.000","Units":"in","Rept_Date":"2021-01-14 13"},"coordinates":[1826,6640]},{"type":"Point","properties":{"Station_ID":"JOHV1","Station_Nam":"JOHNSON 2 N","Latitude":"44.65790","Longitude":"-72.67850","Snowdepth":"7.000","Units":"in","Rept_Date":"2021-01-14 12"},"coordinates":[5764,5710]},{"type":"Point","properties":{"Station_ID":"JCBM4","Station_Nam":"JACOBSVILLE","Latitude":"47.00830","Longitude":"-88.43180","Snowdepth":"7.000","Units":"in","Rept_Date":"2021-01-14 12"},"coordinates":[2067,7136]},{"type":"Point","properties":{"Station_ID":"ISLV1","Station_Nam":"ISLAND POND","Latitude":"44.81280","Longitude":"-71.89020","Snowdepth":"7.000","Units":"in","Rept_Date":"2021-01-14 14"},"coordinates":[5949,5804]},{"type":"Point","properties":{"Station_ID":"IL-SP-7","Station_Nam":"DAVIS 0.5 N, IL","Latitude":"42.42919","Longitude":"-89.41730","Snowdepth":"7.000","Units":"in","Rept_Date":"2021-01-14 13"},"coordinates":[1836,4358]},{"type":"Point","properties":{"Station_ID":"IL-SP-6","Station_Nam":"FREEPORT 2.0 NW, IL","Latitude":"42.30955","Longitude":"-89.66370","Snowdepth":"7.000","Units":"in","Rept_Date":"2021-01-14 13"},"coordinates":[1778,4286]},{"type":"Point","properties":{"Station_ID":"IL-JD-8","Station_Nam":"STOCKTON 3.4 NNE, IL","Latitude":"42.39960","Longitude":"-89.99020","Snowdepth":"7.000","Units":"in","Rept_Date":"2021-01-14 13"},"coordinates":[1701,4340]},{"type":"Point","properties":{"Station_ID":"HTLM4","Station_Nam":"SNOW PAID OBSERVER FOR KHTL","Latitude":"44.34470","Longitude":"-84.67730","Snowdepth":"7.000","Units":"in","Rept_Date":"2021-01-14 18"},"coordinates":[2948,5520]},{"type":"Point","properties":{"Station_ID":"HTL","Station_Nam":"ROSCOMMON COUNTY AIRPORT","Latitude":"44.35000","Longitude":"-84.66670","Snowdepth":"7.000","Units":"in","Rept_Date":"2021-01-15 00"},"coordinates":[2951,5524]},{"type":"Point","properties":{"Station_ID":"HPN20_MADIS","Station_Nam":"HOPKINS","Latitude":"44.95556","Longitude":"-93.41140","Snowdepth":"7.000","Units":"in","Rept_Date":"2021-01-15 06"},"coordinates":[898,5891]},{"type":"Point","properties":{"Station_ID":"HPN11_MADIS","Station_Nam":"SAINT BONIFACIUS","Latitude":"44.89792","Longitude":"-93.73460","Snowdepth":"7.000","Units":"in","Rept_Date":"2021-01-15 06"},"coordinates":[822,5856]},{"type":"Point","properties":{"Station_ID":"HPN02_MADIS","Station_Nam":"MAPLE GROVE","Latitude":"45.11820","Longitude":"-93.42830","Snowdepth":"7.000","Units":"in","Rept_Date":"2021-01-15 03"},"coordinates":[894,5990]},{"type":"Point","properties":{"Station_ID":"GHMN3","Station_Nam":"PINKHAM NOTCH","Latitude":"44.25800","Longitude":"-71.25250","Snowdepth":"7.000","Units":"in","Rept_Date":"2021-01-14 09"},"coordinates":[6099,5468]},{"type":"Point","properties":{"Station_ID":"CSLM5","Station_Nam":"CASS LAKE,MN","Latitude":"47.38470","Longitude":"-94.61470","Snowdepth":"7.000","Units":"in","Rept_Date":"2021-01-14 14"},"coordinates":[616,7365]},{"type":"Point","properties":{"Station_ID":"CRLM5","Station_Nam":"CROSS LAKE DAM","Latitude":"46.66930","Longitude":"-94.11060","Snowdepth":"7.000","Units":"in","Rept_Date":"2021-01-14 14"},"coordinates":[734,6931]},{"type":"Point","properties":{"Station_ID":"CMKW3","Station_Nam":"CLAM LAKE 4W","Latitude":"46.16940","Longitude":"-90.98080","Snowdepth":"7.000","Units":"in","Rept_Date":"2021-01-14 13"},"coordinates":[1469,6627]},{"type":"Point","properties":{"Station_ID":"CLKM4","Station_Nam":"CLARKSBURG","Latitude":"46.49910","Longitude":"-87.84500","Snowdepth":"7.000","Units":"in","Rept_Date":"2021-01-14 12"},"coordinates":[2205,6827]},{"type":"Point","properties":{"Station_ID":"CBLW3","Station_Nam":"CUMBERLAND","Latitude":"45.53310","Longitude":"-92.02260","Snowdepth":"7.000","Units":"in","Rept_Date":"2021-01-14 13"},"coordinates":[1224,6241]},{"type":"Point","properties":{"Station_ID":"CARM1","Station_Nam":"CARIBOU WFO","Latitude":"46.86810","Longitude":"-68.01250","Snowdepth":"7.000","Units":"in","Rept_Date":"2021-01-15 05"},"coordinates":[6859,7051]},{"type":"Point","properties":{"Station_ID":"CAR","Station_Nam":"CARIBOU, ME","Latitude":"46.86830","Longitude":"-68.01360","Snowdepth":"7.000","Units":"in","Rept_Date":"2021-01-14 12"},"coordinates":[6859,7051]},{"type":"Point","properties":{"Station_ID":"BLVI4","Station_Nam":"MISSISSIPPI RIVER","Latitude":"42.26670","Longitude":"-90.41670","Snowdepth":"7.000","Units":"in","Rept_Date":"2021-01-14 12"},"coordinates":[1601,4260]},{"type":"Point","properties":{"Station_ID":"BLGW3","Station_Nam":"BELGIUM WWTP","Latitude":"43.51310","Longitude":"-87.85440","Snowdepth":"7.000","Units":"in","Rept_Date":"2021-01-14 13"},"coordinates":[2202,5016]},{"type":"Point","properties":{"Station_ID":"ANJ","Station_Nam":"SAULT STE MARIE","Latitude":"46.46670","Longitude":"-84.36670","Snowdepth":"7.000","Units":"in","Rept_Date":"2021-01-15 00"},"coordinates":[3021,6808]},{"type":"Point","properties":{"Station_ID":"CAN-NB-97","Station_Nam":"NEW MARYLAND 0.6 NW, CAN","Latitude":"45.90112","Longitude":"-66.68739","Snowdepth":"6.900","Units":"in","Rept_Date":"2021-01-14 12"},"coordinates":[7170,6465]},{"type":"Point","properties":{"Station_ID":"QIQ","Station_Nam":"QIQ","Latitude":"49.82390","Longitude":"-68.54310","Snowdepth":"6.811","Units":"in","Rept_Date":"2021-01-14 12"},"coordinates":[6735,8844]},{"type":"Point","properties":{"Station_ID":"CAN-NB-64","Station_Nam":"KESWICK RIDGE 4.0 SE, CAN","Latitude":"45.97014","Longitude":"-66.85538","Snowdepth":"6.700","Units":"in","Rept_Date":"2021-01-14 13"},"coordinates":[7131,6506]},{"type":"Point","properties":{"Station_ID":"QGA","Station_Nam":"QGA","Latitude":"47.25640","Longitude":"-73.73810","Snowdepth":"6.693","Units":"in","Rept_Date":"2021-01-14 12"},"coordinates":[5515,7287]},{"type":"Point","properties":{"Station_ID":"VT-OL-9","Station_Nam":"GREENSBORO 2.1 NNW, VT","Latitude":"44.60528","Longitude":"-72.30940","Snowdepth":"6.500","Units":"in","Rept_Date":"2021-01-14 12"},"coordinates":[5851,5678]},{"type":"Point","properties":{"Station_ID":"VT-OL-25","Station_Nam":"NEWPORT 1.5 WSW, VT","Latitude":"44.93059","Longitude":"-72.23731","Snowdepth":"6.500","Units":"in","Rept_Date":"2021-01-14 12"},"coordinates":[5868,5876]},{"type":"Point","properties":{"Station_ID":"VT-CL-14","Station_Nam":"LYNDONVILLE 1.1 W, VT","Latitude":"44.53582","Longitude":"-72.02867","Snowdepth":"6.500","Units":"in","Rept_Date":"2021-01-14 13"},"coordinates":[5917,5636]},{"type":"Point","properties":{"Station_ID":"NY-ES-6","Station_Nam":"OLMSTEDVILLE 4.6 NNE, NY","Latitude":"43.83350","Longitude":"-73.89780","Snowdepth":"6.500","Units":"in","Rept_Date":"2021-01-14 13"},"coordinates":[5478,5210]},{"type":"Point","properties":{"Station_ID":"MN-IT-23","Station_Nam":"BOVEY 13.4 N, MN","Latitude":"47.48855","Longitude":"-93.43497","Snowdepth":"6.500","Units":"in","Rept_Date":"2021-01-14 13"},"coordinates":[893,7428]},{"type":"Point","properties":{"Station_ID":"MI-GL-4","Station_Nam":"GLADWIN 10.4 NNW, MI","Latitude":"44.11865","Longitude":"-84.58470","Snowdepth":"6.500","Units":"in","Rept_Date":"2021-01-14 14"},"coordinates":[2970,5383]},{"type":"Point","properties":{"Station_ID":"ME-AR-18","Station_Nam":"NEW SWEDEN 4.9 NNW, ME","Latitude":"47.01080","Longitude":"-68.14390","Snowdepth":"6.500","Units":"in","Rept_Date":"2021-01-14 12"},"coordinates":[6828,7138]},{"type":"Point","properties":{"Station_ID":"IL-SP-25","Station_Nam":"FREEPORT 1.7 NW, IL","Latitude":"42.30427","Longitude":"-89.66285","Snowdepth":"6.500","Units":"in","Rept_Date":"2021-01-14 13"},"coordinates":[1778,4282]},{"type":"Point","properties":{"Station_ID":"CAN-PE-19","Station_Nam":"CHARLOTTETOWN 6.5 NNW, CAN","Latitude":"46.29235","Longitude":"-63.17271","Snowdepth":"6.500","Units":"in","Rept_Date":"2021-01-14 12"},"coordinates":[7995,6702]},{"type":"Point","properties":{"Station_ID":"CAN-MB-56","Station_Nam":"WINNIPEG 7.6 ENE, CAN","Latitude":"49.93264","Longitude":"-97.04752","Snowdepth":"6.500","Units":"in","Rept_Date":"2021-01-14 14"},"coordinates":[45,8910]},{"type":"Point","properties":{"Station_ID":"MFU","Station_Nam":"MFU","Latitude":"51.52170","Longitude":"-66.91110","Snowdepth":"6.378","Units":"in","Rept_Date":"2021-01-14 12"},"coordinates":[7118,9875]},{"type":"Point","properties":{"Station_ID":"CAN-QC-51","Station_Nam":"BELOEIL 0.7 NW, CAN","Latitude":"45.58049","Longitude":"-73.21218","Snowdepth":"6.300","Units":"in","Rept_Date":"2021-01-14 12"},"coordinates":[5639,6270]},{"type":"Point","properties":{"Station_ID":"CAN-ON-771","Station_Nam":"KENORA 8.7 NNE - CANWARN, CAN","Latitude":"49.84171","Longitude":"-94.44386","Snowdepth":"6.300","Units":"in","Rept_Date":"2021-01-14 13"},"coordinates":[656,8855]},{"type":"Point","properties":{"Station_ID":"CAN-NB-29","Station_Nam":"SUSSEX 1.0 WNW - KWRC, CAN","Latitude":"45.72670","Longitude":"-65.52858","Snowdepth":"6.300","Units":"in","Rept_Date":"2021-01-14 12"},"coordinates":[7442,6359]},{"type":"Point","properties":{"Station_ID":"CAN-NB-105","Station_Nam":"SISSON BROOK 3.8 E, CAN","Latitude":"46.98305","Longitude":"-67.32532","Snowdepth":"6.300","Units":"in","Rept_Date":"2021-01-14 12"},"coordinates":[7020,7121]},{"type":"Point","properties":{"Station_ID":"WTBW3","Station_Nam":"WEST BEND PUBLIC WORKS","Latitude":"43.41110","Longitude":"-88.19380","Snowdepth":"6.000","Units":"in","Rept_Date":"2021-01-14 15"},"coordinates":[2123,4954]},{"type":"Point","properties":{"Station_ID":"WRUM5","Station_Nam":"WARROAD 4W","Latitude":"48.89600","Longitude":"-95.40700","Snowdepth":"6.000","Units":"in","Rept_Date":"2021-01-15 04"},"coordinates":[430,8282]},{"type":"Point","properties":{"Station_ID":"WRIM5","Station_Nam":"WRIGHT 3E","Latitude":"46.68040","Longitude":"-92.95420","Snowdepth":"6.000","Units":"in","Rept_Date":"2021-01-14 12"},"coordinates":[1006,6937]},{"type":"Point","properties":{"Station_ID":"WNDP1","Station_Nam":"WINDBER COUNTY CLUB","Latitude":"40.28780","Longitude":"-78.77530","Snowdepth":"6.000","Units":"in","Rept_Date":"2021-01-14 12"},"coordinates":[4333,3059]},{"type":"Point","properties":{"Station_ID":"WI-SC-21","Station_Nam":"CLEAR LAKE 4.0 S, WI","Latitude":"45.19250","Longitude":"-92.27860","Snowdepth":"6.000","Units":"in","Rept_Date":"2021-01-14 14"},"coordinates":[1164,6035]},{"type":"Point","properties":{"Station_ID":"WI-RC-3","Station_Nam":"RACINE 2.3 WSW, WI","Latitude":"42.71124","Longitude":"-87.84570","Snowdepth":"6.000","Units":"in","Rept_Date":"2021-01-14 13"},"coordinates":[2204,4529]},{"type":"Point","properties":{"Station_ID":"WI-PK-4","Station_Nam":"DRESSER 6.1 ESE, WI","Latitude":"45.32436","Longitude":"-92.52080","Snowdepth":"6.000","Units":"in","Rept_Date":"2021-01-14 14"},"coordinates":[1107,6115]},{"type":"Point","properties":{"Station_ID":"WI-OZ-17","Station_Nam":"WEST BEND 7.3 E, WI","Latitude":"43.42860","Longitude":"-88.03870","Snowdepth":"6.000","Units":"in","Rept_Date":"2021-01-14 13"},"coordinates":[2159,4965]},{"type":"Point","properties":{"Station_ID":"WI-JF-10","Station_Nam":"PALMYRA 1.5 N, WI","Latitude":"42.90084","Longitude":"-88.58620","Snowdepth":"6.000","Units":"in","Rept_Date":"2021-01-14 14"},"coordinates":[2031,4644]},{"type":"Point","properties":{"Station_ID":"WI-BY-6","Station_Nam":"BARNES 2.2 S, WI","Latitude":"46.30264","Longitude":"-91.50320","Snowdepth":"6.000","Units":"in","Rept_Date":"2021-01-14 13"},"coordinates":[1346,6708]},{"type":"Point","properties":{"Station_ID":"WI-BR-2","Station_Nam":"CHETEK 2.0 SE, WI","Latitude":"45.29427","Longitude":"-91.62470","Snowdepth":"6.000","Units":"in","Rept_Date":"2021-01-14 13"},"coordinates":[1318,6096]},{"type":"Point","properties":{"Station_ID":"WHTW3","Station_Nam":"WHITEWATER,WI","Latitude":"42.85670","Longitude":"-88.72940","Snowdepth":"6.000","Units":"in","Rept_Date":"2021-01-14 14"},"coordinates":[1997,4618]},{"type":"Point","properties":{"Station_ID":"VT-WS-19","Station_Nam":"WATERBURY 3.0 NW, VT","Latitude":"44.36060","Longitude":"-72.80770","Snowdepth":"6.000","Units":"in","Rept_Date":"2021-01-14 11"},"coordinates":[5734,5530]},{"type":"Point","properties":{"Station_ID":"VT-WS-10","Station_Nam":"NORTHFIELD 1.5 N, VT","Latitude":"44.16986","Longitude":"-72.65200","Snowdepth":"6.000","Units":"in","Rept_Date":"2021-01-14 12"},"coordinates":[5770,5414]},{"type":"Point","properties":{"Station_ID":"VT-OG-14","Station_Nam":"BRADFORD 2.2 NNW, VT","Latitude":"44.02268","Longitude":"-72.14756","Snowdepth":"6.000","Units":"in","Rept_Date":"2021-01-14 13"},"coordinates":[5889,5325]},{"type":"Point","properties":{"Station_ID":"VT-CL-18","Station_Nam":"WHEELOCK 1.6 S, VT","Latitude":"44.56491","Longitude":"-72.08830","Snowdepth":"6.000","Units":"in","Rept_Date":"2021-01-14 12"},"coordinates":[5903,5654]},{"type":"Point","properties":{"Station_ID":"VT-BN-3","Station_Nam":"LANDGROVE 1.1 NNE, VT","Latitude":"43.29092","Longitude":"-72.83260","Snowdepth":"6.000","Units":"in","Rept_Date":"2021-01-14 12"},"coordinates":[5728,4881]},{"type":"Point","properties":{"Station_ID":"STOW3","Station_Nam":"STOUGHTON,WI","Latitude":"42.91670","Longitude":"-89.21670","Snowdepth":"6.000","Units":"in","Rept_Date":"2021-01-14 13"},"coordinates":[1883,4654]},{"type":"Point","properties":{"Station_ID":"RKWM1","Station_Nam":"MOOSEHEAD LAKE","Latitude":"45.58330","Longitude":"-69.71670","Snowdepth":"6.000","Units":"in","Rept_Date":"2021-01-14 12"},"coordinates":[6459,6272]},{"type":"Point","properties":{"Station_ID":"PLEP1","Station_Nam":"PLEASANT MOUNT 1 W","Latitude":"41.73940","Longitude":"-75.44650","Snowdepth":"6.000","Units":"in","Rept_Date":"2021-01-14 12"},"coordinates":[5114,3940]},{"type":"Point","properties":{"Station_ID":"PHEW3","Station_Nam":"PHELPS","Latitude":"46.06630","Longitude":"-89.07520","Snowdepth":"6.000","Units":"in","Rept_Date":"2021-01-14 13"},"coordinates":[1916,6565]},{"type":"Point","properties":{"Station_ID":"PERV1","Station_Nam":"PERU","Latitude":"43.26670","Longitude":"-72.90000","Snowdepth":"6.000","Units":"in","Rept_Date":"2021-01-14 12"},"coordinates":[5712,4866]},{"type":"Point","properties":{"Station_ID":"PEKN6","Station_Nam":"PECK LAKE","Latitude":"43.11500","Longitude":"-74.42360","Snowdepth":"6.000","Units":"in","Rept_Date":"2021-01-14 12"},"coordinates":[5355,4774]},{"type":"Point","properties":{"Station_ID":"PA-CR-1","Station_Nam":"EMPORIUM 2.6 S, PA","Latitude":"41.47342","Longitude":"-78.24330","Snowdepth":"6.000","Units":"in","Rept_Date":"2021-01-14 13"},"coordinates":[4458,3778]},{"type":"Point","properties":{"Station_ID":"NY-LW-12","Station_Nam":"CHASES LAKE COOP, NY","Latitude":"43.75924","Longitude":"-75.29982","Snowdepth":"6.000","Units":"in","Rept_Date":"2021-01-14 11"},"coordinates":[5149,5165]},{"type":"Point","properties":{"Station_ID":"NY-HM-10","Station_Nam":"LAKE PLEASANT 2.3 WSW, NY","Latitude":"43.45490","Longitude":"-74.45287","Snowdepth":"6.000","Units":"in","Rept_Date":"2021-01-14 12"},"coordinates":[5348,4981]},{"type":"Point","properties":{"Station_ID":"NY-CR-5","Station_Nam":"MARATHON 1.0 NW, NY","Latitude":"42.45161","Longitude":"-76.04370","Snowdepth":"6.000","Units":"in","Rept_Date":"2021-01-14 12"},"coordinates":[4974,4372]},{"type":"Point","properties":{"Station_ID":"NY-BM-21","Station_Nam":"WINDSOR 8.0 SE, NY","Latitude":"42.00992","Longitude":"-75.51420","Snowdepth":"6.000","Units":"in","Rept_Date":"2021-01-14 13"},"coordinates":[5099,4104]},{"type":"Point","properties":{"Station_ID":"NH-MR-4","Station_Nam":"BOW 1.6 NW, NH","Latitude":"43.14994","Longitude":"-71.55650","Snowdepth":"6.000","Units":"in","Rept_Date":"2021-01-14 13"},"coordinates":[6027,4796]},{"type":"Point","properties":{"Station_ID":"NH-GR-47","Station_Nam":"LITTLETON 7.3 W, NH","Latitude":"44.31847","Longitude":"-71.91086","Snowdepth":"6.000","Units":"in","Rept_Date":"2021-01-14 13"},"coordinates":[5944,5504]},{"type":"Point","properties":{"Station_ID":"NGLW3","Station_Nam":"NEW GLARUS","Latitude":"42.83500","Longitude":"-89.62080","Snowdepth":"6.000","Units":"in","Rept_Date":"2021-01-14 13"},"coordinates":[1788,4604]},{"type":"Point","properties":{"Station_ID":"MTLT1","Station_Nam":"GATLINBURG,TN","Latitude":"35.65500","Longitude":"-83.44110","Snowdepth":"6.000","Units":"in","Rept_Date":"2021-01-14 13"},"coordinates":[3238,248]},{"type":"Point","properties":{"Station_ID":"MSTI4","Station_Nam":"MUSCATINE 2N","Latitude":"41.47130","Longitude":"-91.04630","Snowdepth":"6.000","Units":"in","Rept_Date":"2021-01-14 13"},"coordinates":[1453,3777]},{"type":"Point","properties":{"Station_ID":"MRAM5","Station_Nam":"MORA","Latitude":"45.87760","Longitude":"-93.31470","Snowdepth":"6.000","Units":"in","Rept_Date":"2021-01-14 13"},"coordinates":[921,6450]},{"type":"Point","properties":{"Station_ID":"MN-WR-25","Station_Nam":"SAINT MICHAEL 2.0 ENE, MN","Latitude":"45.20820","Longitude":"-93.65280","Snowdepth":"6.000","Units":"in","Rept_Date":"2021-01-14 12"},"coordinates":[842,6044]},{"type":"Point","properties":{"Station_ID":"MN-RM-56","Station_Nam":"ROSEVILLE 1.6 NW, MN","Latitude":"45.03303","Longitude":"-93.17523","Snowdepth":"6.000","Units":"in","Rept_Date":"2021-01-14 13"},"coordinates":[954,5938]},{"type":"Point","properties":{"Station_ID":"MN-IS-21","Station_Nam":"ISANTI 5.0 SW, MN","Latitude":"45.43360","Longitude":"-93.30200","Snowdepth":"6.000","Units":"in","Rept_Date":"2021-01-14 14"},"coordinates":[924,6181]},{"type":"Point","properties":{"Station_ID":"MN-HN-298","Station_Nam":"EXCELSIOR 1.8 W, MN","Latitude":"44.89722","Longitude":"-93.60286","Snowdepth":"6.000","Units":"in","Rept_Date":"2021-01-14 13"},"coordinates":[853,5856]},{"type":"Point","properties":{"Station_ID":"MN-HN-241","Station_Nam":"MAPLE GROVE 1.4 WSW, MN","Latitude":"45.10451","Longitude":"-93.48950","Snowdepth":"6.000","Units":"in","Rept_Date":"2021-01-14 14"},"coordinates":[880,5981]},{"type":"Point","properties":{"Station_ID":"MN-GH-28","Station_Nam":"CANNON FALLS 0.5 SE, MN","Latitude":"44.50866","Longitude":"-92.89526","Snowdepth":"6.000","Units":"in","Rept_Date":"2021-01-14 14"},"coordinates":[1019,5620]},{"type":"Point","properties":{"Station_ID":"MN-CV-1","Station_Nam":"CARVER 0.7 W, MN","Latitude":"44.75728","Longitude":"-93.64160","Snowdepth":"6.000","Units":"in","Rept_Date":"2021-01-14 13"},"coordinates":[844,5771]},{"type":"Point","properties":{"Station_ID":"MN-AT-5","Station_Nam":"TAMARACK 1.4 SW, MN","Latitude":"46.63760","Longitude":"-93.14554","Snowdepth":"6.000","Units":"in","Rept_Date":"2021-01-14 13"},"coordinates":[961,6911]},{"type":"Point","properties":{"Station_ID":"MI-OT-4","Station_Nam":"GAYLORD 1.7 WNW, MI","Latitude":"45.03280","Longitude":"-84.71090","Snowdepth":"6.000","Units":"in","Rept_Date":"2021-01-14 13"},"coordinates":[2940,5938]},{"type":"Point","properties":{"Station_ID":"MI-OT-17","Station_Nam":"GAYLORD 4.1 S, MI","Latitude":"44.96388","Longitude":"-84.68467","Snowdepth":"6.000","Units":"in","Rept_Date":"2021-01-14 12"},"coordinates":[2946,5896]},{"type":"Point","properties":{"Station_ID":"ME-OX-34","Station_Nam":"ANDOVER 3.8 W, ME","Latitude":"44.64156","Longitude":"-70.82782","Snowdepth":"6.000","Units":"in","Rept_Date":"2021-01-14 12"},"coordinates":[6198,5700]},{"type":"Point","properties":{"Station_ID":"ME-FR-2","Station_Nam":"TEMPLE 1.8 W, ME","Latitude":"44.68329","Longitude":"-70.26420","Snowdepth":"6.000","Units":"in","Rept_Date":"2021-01-14 11"},"coordinates":[6331,5726]},{"type":"Point","properties":{"Station_ID":"KMSN","Station_Nam":"MADISON DANE COUNTY RGNL","Latitude":"43.13333","Longitude":"-89.35000","Snowdepth":"6.000","Units":"in","Rept_Date":"2021-01-15 06"},"coordinates":[1851,4785]},{"type":"Point","properties":{"Station_ID":"KGTB","Station_Nam":"FORT DRUM / WHEELER-SACK U. S. ARMY AIRFIELD","Latitude":"44.05000","Longitude":"-75.73333","Snowdepth":"6.000","Units":"in","Rept_Date":"2021-01-15 06"},"coordinates":[5047,5342]},{"type":"Point","properties":{"Station_ID":"JEFV1","Station_Nam":"JEFFERSONVILLE","Latitude":"44.58430","Longitude":"-72.78700","Snowdepth":"6.000","Units":"in","Rept_Date":"2021-01-14 12"},"coordinates":[5739,5666]},{"type":"Point","properties":{"Station_ID":"IA-ST-3","Station_Nam":"PARK VIEW 0.2 WSW, IA","Latitude":"41.68855","Longitude":"-90.54380","Snowdepth":"6.000","Units":"in","Rept_Date":"2021-01-14 13"},"coordinates":[1571,3909]},{"type":"Point","properties":{"Station_ID":"HSTM5","Station_Nam":"HASTINGS DAM 2","Latitude":"44.75970","Longitude":"-92.86890","Snowdepth":"6.000","Units":"in","Rept_Date":"2021-01-14 12"},"coordinates":[1026,5772]},{"type":"Point","properties":{"Station_ID":"HMYM1","Station_Nam":"HARMONY","Latitude":"44.94660","Longitude":"-69.54560","Snowdepth":"6.000","Units":"in","Rept_Date":"2021-01-14 12"},"coordinates":[6499,5886]},{"type":"Point","properties":{"Station_ID":"GFDN6","Station_Nam":"CHASES LAKE","Latitude":"43.75920","Longitude":"-75.29980","Snowdepth":"6.000","Units":"in","Rept_Date":"2021-01-14 11"},"coordinates":[5149,5165]},{"type":"Point","properties":{"Station_ID":"GAYM4","Station_Nam":"GAYLORD","Latitude":"45.03320","Longitude":"-84.71130","Snowdepth":"6.000","Units":"in","Rept_Date":"2021-01-14 13"},"coordinates":[2940,5938]},{"type":"Point","properties":{"Station_ID":"FEEI2","Station_Nam":"PECATONICA RIVER","Latitude":"42.30000","Longitude":"-89.61670","Snowdepth":"6.000","Units":"in","Rept_Date":"2021-01-14 13"},"coordinates":[1789,4280]},{"type":"Point","properties":{"Station_ID":"FEDM5","Station_Nam":"LEECH LAKE DAM","Latitude":"47.24670","Longitude":"-94.22280","Snowdepth":"6.000","Units":"in","Rept_Date":"2021-01-14 14"},"coordinates":[708,7281]},{"type":"Point","properties":{"Station_ID":"FARM1","Station_Nam":"FARMINGTON","Latitude":"44.68930","Longitude":"-70.15640","Snowdepth":"6.000","Units":"in","Rept_Date":"2021-01-14 12"},"coordinates":[6356,5729]},{"type":"Point","properties":{"Station_ID":"EVRW3","Station_Nam":"EAGLE RIVER-4 E","Latitude":"45.91890","Longitude":"-89.15280","Snowdepth":"6.000","Units":"in","Rept_Date":"2021-01-14 13"},"coordinates":[1898,6475]},{"type":"Point","properties":{"Station_ID":"ESGM1","Station_Nam":"EAST SANGERVILLE","Latitude":"45.13690","Longitude":"-69.28060","Snowdepth":"6.000","Units":"in","Rept_Date":"2021-01-14 12"},"coordinates":[6562,6001]},{"type":"Point","properties":{"Station_ID":"ENFV1","Station_Nam":"ENOSBURG FALLS 2","Latitude":"44.90960","Longitude":"-72.81370","Snowdepth":"6.000","Units":"in","Rept_Date":"2021-01-14 10"},"coordinates":[5732,5863]},{"type":"Point","properties":{"Station_ID":"EMBM5","Station_Nam":"EMBARASS,MN","Latitude":"47.65810","Longitude":"-92.19580","Snowdepth":"6.000","Units":"in","Rept_Date":"2021-01-14 12"},"coordinates":[1184,7531]},{"type":"Point","properties":{"Station_ID":"DFXM1","Station_Nam":"DOVER-FOXCROFT","Latitude":"45.18720","Longitude":"-69.18350","Snowdepth":"6.000","Units":"in","Rept_Date":"2021-01-14 12"},"coordinates":[6584,6031]},{"type":"Point","properties":{"Station_ID":"COUW3","Station_Nam":"COUDERAY,WI","Latitude":"45.86670","Longitude":"-91.45000","Snowdepth":"6.000","Units":"in","Rept_Date":"2021-01-14 22"},"coordinates":[1359,6444]},{"type":"Point","properties":{"Station_ID":"CORV1","Station_Nam":"CORINTH","Latitude":"44.00690","Longitude":"-72.31940","Snowdepth":"6.000","Units":"in","Rept_Date":"2021-01-14 12"},"coordinates":[5848,5315]},{"type":"Point","properties":{"Station_ID":"CORM1","Station_Nam":"CORINNA","Latitude":"44.91980","Longitude":"-69.24180","Snowdepth":"6.000","Units":"in","Rept_Date":"2021-01-14 15"},"coordinates":[6571,5869]},{"type":"Point","properties":{"Station_ID":"CAN-ON-451","Station_Nam":"OWEN SOUND 1.2 N - GSCA, CAN","Latitude":"44.58092","Longitude":"-80.93025","Snowdepth":"6.000","Units":"in","Rept_Date":"2021-01-14 13"},"coordinates":[3827,5664]},{"type":"Point","properties":{"Station_ID":"BRAM5","Station_Nam":"BRAINERD","Latitude":"46.34320","Longitude":"-94.20900","Snowdepth":"6.000","Units":"in","Rept_Date":"2021-01-14 13"},"coordinates":[711,6733]},{"type":"Point","properties":{"Station_ID":"BRAM1","Station_Nam":"BRASSUA DAM","Latitude":"45.66020","Longitude":"-69.81190","Snowdepth":"6.000","Units":"in","Rept_Date":"2021-01-14 12"},"coordinates":[6437,6318]},{"type":"Point","properties":{"Station_ID":"BOON6","Station_Nam":"BOONVILLE 4 SSW","Latitude":"43.43610","Longitude":"-75.36970","Snowdepth":"6.000","Units":"in","Rept_Date":"2021-01-14 12"},"coordinates":[5132,4969]},{"type":"Point","properties":{"Station_ID":"ARX","Station_Nam":"LA CROSSE, WI","Latitude":"43.82280","Longitude":"-91.19190","Snowdepth":"6.000","Units":"in","Rept_Date":"2021-01-15 06"},"coordinates":[1419,5204]},{"type":"Point","properties":{"Station_ID":"CAN-MB-298","Station_Nam":"GARDENTON 4.2 W - SRRCD, CAN","Latitude":"49.09480","Longitude":"-96.75446","Snowdepth":"5.900","Units":"in","Rept_Date":"2021-01-14 14"},"coordinates":[114,8402]},{"type":"Point","properties":{"Station_ID":"QWG","Station_Nam":"QWG","Latitude":"48.48890","Longitude":"-73.45940","Snowdepth":"5.827","Units":"in","Rept_Date":"2021-01-14 12"},"coordinates":[5581,8035]},{"type":"Point","properties":{"Station_ID":"QTV","Station_Nam":"QTV","Latitude":"49.66000","Longitude":"-69.35690","Snowdepth":"5.748","Units":"in","Rept_Date":"2021-01-14 12"},"coordinates":[6544,8745]},{"type":"Point","properties":{"Station_ID":"HPN07_MADIS","Station_Nam":"MSP AIRPORT","Latitude":"44.89519","Longitude":"-93.23170","Snowdepth":"5.600","Units":"in","Rept_Date":"2021-01-15 06"},"coordinates":[940,5854]},{"type":"Point","properties":{"Station_ID":"CAN-NB-5","Station_Nam":"OAK POINT 0.9 SSW, CA","Latitude":"45.50752","Longitude":"-66.09860","Snowdepth":"5.600","Units":"in","Rept_Date":"2021-01-14 12"},"coordinates":[7308,6226]},{"type":"Point","properties":{"Station_ID":"QMA","Station_Nam":"QMA","Latitude":"50.10330","Longitude":"-70.47190","Snowdepth":"5.591","Units":"in","Rept_Date":"2021-01-14 12"},"coordinates":[6282,9014]},{"type":"Point","properties":{"Station_ID":"WI-OZ-22","Station_Nam":"SAUKVILLE 0.9 SSW, WI","Latitude":"43.37254","Longitude":"-87.95009","Snowdepth":"5.500","Units":"in","Rept_Date":"2021-01-14 13"},"coordinates":[2180,4931]},{"type":"Point","properties":{"Station_ID":"WI-DA-99","Station_Nam":"FITCHBURG 1.1 NW, WI","Latitude":"42.99740","Longitude":"-89.44046","Snowdepth":"5.500","Units":"in","Rept_Date":"2021-01-14 13"},"coordinates":[1830,4703]},{"type":"Point","properties":{"Station_ID":"VT-WR-2","Station_Nam":"POMFRET 2.6 N, VT","Latitude":"43.74230","Longitude":"-72.52550","Snowdepth":"5.500","Units":"in","Rept_Date":"2021-01-14 12"},"coordinates":[5800,5155]},{"type":"Point","properties":{"Station_ID":"NY-DL-23","Station_Nam":"LONG EDDY 6.5 NNE, NY","Latitude":"41.93510","Longitude":"-75.07840","Snowdepth":"5.500","Units":"in","Rept_Date":"2021-01-14 13"},"coordinates":[5201,4059]},{"type":"Point","properties":{"Station_ID":"MN-IT-17","Station_Nam":"GRAND RAPIDS 6.1 N, MN","Latitude":"47.31165","Longitude":"-93.55036","Snowdepth":"5.500","Units":"in","Rept_Date":"2021-01-14 13"},"coordinates":[866,7320]},{"type":"Point","properties":{"Station_ID":"MN-IT-1","Station_Nam":"GRAND RAPIDS 2.0 E, MN","Latitude":"47.22266","Longitude":"-93.49600","Snowdepth":"5.500","Units":"in","Rept_Date":"2021-01-14 13"},"coordinates":[878,7266]},{"type":"Point","properties":{"Station_ID":"MN-HN-267","Station_Nam":"MINNEAPOLIS 2.5 SE, MN","Latitude":"44.93331","Longitude":"-93.23680","Snowdepth":"5.500","Units":"in","Rept_Date":"2021-01-14 13"},"coordinates":[939,5877]},{"type":"Point","properties":{"Station_ID":"MI-CP-14","Station_Nam":"SAULT STE. MARIE 2.2 E, MI","Latitude":"46.48933","Longitude":"-84.31971","Snowdepth":"5.500","Units":"in","Rept_Date":"2021-01-14 14"},"coordinates":[3032,6821]},{"type":"Point","properties":{"Station_ID":"ME-WL-8","Station_Nam":"WINTERPORT 2.9 N, ME","Latitude":"44.69369","Longitude":"-68.84800","Snowdepth":"5.500","Units":"in","Rept_Date":"2021-01-14 12"},"coordinates":[6663,5732]},{"type":"Point","properties":{"Station_ID":"ME-SM-45","Station_Nam":"BRIGHTON PLANTATION 2.1 N, ME","Latitude":"45.07098","Longitude":"-69.69860","Snowdepth":"5.500","Units":"in","Rept_Date":"2021-01-14 12"},"coordinates":[6463,5961]},{"type":"Point","properties":{"Station_ID":"IL-WN-32","Station_Nam":"ROCKFORD 5.5 S, IL","Latitude":"42.19058","Longitude":"-89.06040","Snowdepth":"5.500","Units":"in","Rept_Date":"2021-01-14 14"},"coordinates":[1919,4214]},{"type":"Point","properties":{"Station_ID":"IA-JH-20","Station_Nam":"CORALVILLE 1.4 S, IA","Latitude":"41.67016","Longitude":"-91.60296","Snowdepth":"5.500","Units":"in","Rept_Date":"2021-01-14 14"},"coordinates":[1323,3898]},{"type":"Point","properties":{"Station_ID":"HPN09_MADIS","Station_Nam":"PLYMOUTH","Latitude":"44.98992","Longitude":"-93.47910","Snowdepth":"5.500","Units":"in","Rept_Date":"2021-01-15 02"},"coordinates":[882,5912]},{"type":"Point","properties":{"Station_ID":"CAN-NS-159","Station_Nam":"NORTHPORT 0.1 NE, CAN","Latitude":"45.93299","Longitude":"-63.86711","Snowdepth":"5.500","Units":"in","Rept_Date":"2021-01-14 11"},"coordinates":[7832,6484]},{"type":"Point","properties":{"Station_ID":"CAN-NB-84","Station_Nam":"NORTON 7.1 WNW - KWRC, CAN","Latitude":"45.66195","Longitude":"-65.78279","Snowdepth":"5.500","Units":"in","Rept_Date":"2021-01-14 11"},"coordinates":[7382,6320]},{"type":"Point","properties":{"Station_ID":"CAN-NB-13","Station_Nam":"BATHURST 3.8 NW, CAN","Latitude":"47.64212","Longitude":"-65.68756","Snowdepth":"5.500","Units":"in","Rept_Date":"2021-01-14 11"},"coordinates":[7405,7521]},{"type":"Point","properties":{"Station_ID":"NFGT1","Station_Nam":"NEW FOUND GAP","Latitude":"35.61080","Longitude":"-83.42890","Snowdepth":"5.470","Units":"in","Rept_Date":"2021-01-15 06"},"coordinates":[3241,222]},{"type":"Point","properties":{"Station_ID":"CAN-NB-1","Station_Nam":"FREDERICTON 4.0 SSE, CA","Latitude":"45.92897","Longitude":"-66.62830","Snowdepth":"5.300","Units":"in","Rept_Date":"2021-01-14 12"},"coordinates":[7184,6482]},{"type":"Point","properties":{"Station_ID":"CAN-QC-57","Station_Nam":"ACTON VALE 1.3 N, CAN","Latitude":"45.65868","Longitude":"-72.56645","Snowdepth":"5.100","Units":"in","Rept_Date":"2021-01-14 13"},"coordinates":[5790,6318]},{"type":"Point","properties":{"Station_ID":"CAN-PE-47","Station_Nam":"LONG CREEK 0.3 NNW, CAN","Latitude":"46.17420","Longitude":"-63.27320","Snowdepth":"5.100","Units":"in","Rept_Date":"2021-01-14 13"},"coordinates":[7971,6630]},{"type":"Point","properties":{"Station_ID":"CAN-ON-804","Station_Nam":"KEMBLE 1.6 S - GSCA, CAN","Latitude":"44.71013","Longitude":"-80.92735","Snowdepth":"5.100","Units":"in","Rept_Date":"2021-01-14 13"},"coordinates":[3828,5742]},{"type":"Point","properties":{"Station_ID":"CAN-NS-13","Station_Nam":"TRURO 5.0 ENE, CA","Latitude":"45.38252","Longitude":"-63.22810","Snowdepth":"5.100","Units":"in","Rept_Date":"2021-01-14 11"},"coordinates":[7982,6150]},{"type":"Point","properties":{"Station_ID":"CAN-NB-96","Station_Nam":"SAINT-IGNACE 2.6 NE, CAN","Latitude":"46.71424","Longitude":"-65.05609","Snowdepth":"5.100","Units":"in","Rept_Date":"2021-01-14 11"},"coordinates":[7553,6958]},{"type":"Point","properties":{"Station_ID":"CAN-NB-57","Station_Nam":"JOLICURE 2.8 NE, CAN","Latitude":"45.96081","Longitude":"-64.18848","Snowdepth":"5.100","Units":"in","Rept_Date":"2021-01-14 12"},"coordinates":[7757,6501]},{"type":"Point","properties":{"Station_ID":"WODI2","Station_Nam":"WOODSTOCK","Latitude":"42.36280","Longitude":"-88.53140","Snowdepth":"5.000","Units":"in","Rept_Date":"2021-01-14 13"},"coordinates":[2044,4318]},{"type":"Point","properties":{"Station_ID":"WLLP1","Station_Nam":"WELLSBORO 4 SW","Latitude":"41.70030","Longitude":"-77.38940","Snowdepth":"5.000","Units":"in","Rept_Date":"2021-01-14 12"},"coordinates":[4658,3916]},{"type":"Point","properties":{"Station_ID":"WI-WS-5","Station_Nam":"JACKSON 0.2 WSW, WI","Latitude":"43.32007","Longitude":"-88.16820","Snowdepth":"5.000","Units":"in","Rept_Date":"2021-01-14 12"},"coordinates":[2129,4899]},{"type":"Point","properties":{"Station_ID":"WI-WK-68","Station_Nam":"OCONOMOWOC 1.0 S, WI","Latitude":"43.09530","Longitude":"-88.48590","Snowdepth":"5.000","Units":"in","Rept_Date":"2021-01-14 14"},"coordinates":[2054,4762]},{"type":"Point","properties":{"Station_ID":"WI-WK-61","Station_Nam":"HARTLAND 5.0 NNE, WI","Latitude":"43.16351","Longitude":"-88.30400","Snowdepth":"5.000","Units":"in","Rept_Date":"2021-01-14 13"},"coordinates":[2097,4804]},{"type":"Point","properties":{"Station_ID":"WI-WK-34","Station_Nam":"MUKWONAGO 5.3 W, WI","Latitude":"42.85380","Longitude":"-88.43550","Snowdepth":"5.000","Units":"in","Rept_Date":"2021-01-14 13"},"coordinates":[2066,4616]},{"type":"Point","properties":{"Station_ID":"WI-WK-29","Station_Nam":"OCONOMOWOC 4.6 NE, WI","Latitude":"43.14621","Longitude":"-88.42860","Snowdepth":"5.000","Units":"in","Rept_Date":"2021-01-14 15"},"coordinates":[2068,4793]},{"type":"Point","properties":{"Station_ID":"WI-VL-14","Station_Nam":"BOULDER JUNCTION 1.4 NE, WI","Latitude":"46.12840","Longitude":"-89.62470","Snowdepth":"5.000","Units":"in","Rept_Date":"2021-01-14 13"},"coordinates":[1787,6603]},{"type":"Point","properties":{"Station_ID":"WI-PR-8","Station_Nam":"PHILLIPS 0.4 SSW, WI","Latitude":"45.69086","Longitude":"-90.40200","Snowdepth":"5.000","Units":"in","Rept_Date":"2021-01-14 13"},"coordinates":[1605,6337]},{"type":"Point","properties":{"Station_ID":"WI-PC-5","Station_Nam":"RIVER FALLS 1.2 SSW, WI","Latitude":"44.84032","Longitude":"-92.63500","Snowdepth":"5.000","Units":"in","Rept_Date":"2021-01-14 13"},"coordinates":[1080,5821]},{"type":"Point","properties":{"Station_ID":"WI-OZ-12","Station_Nam":"PORT WASHINGTON 0.5 S, WI","Latitude":"43.38610","Longitude":"-87.87900","Snowdepth":"5.000","Units":"in","Rept_Date":"2021-01-14 13"},"coordinates":[2197,4939]},{"type":"Point","properties":{"Station_ID":"WI-DA-45","Station_Nam":"MADISON 6.1 W, WI","Latitude":"43.06948","Longitude":"-89.50788","Snowdepth":"5.000","Units":"in","Rept_Date":"2021-01-14 13"},"coordinates":[1814,4747]},{"type":"Point","properties":{"Station_ID":"WI-AS-4","Station_Nam":"ASHLAND 0.5 WNW, WI","Latitude":"46.58240","Longitude":"-90.88390","Snowdepth":"5.000","Units":"in","Rept_Date":"2021-01-14 13"},"coordinates":[1491,6878]},{"type":"Point","properties":{"Station_ID":"WBRM4","Station_Nam":"WEST BRANCH 3SE","Latitude":"44.25410","Longitude":"-84.20110","Snowdepth":"5.000","Units":"in","Rept_Date":"2021-01-14 13"},"coordinates":[3060,5465]},{"type":"Point","properties":{"Station_ID":"WAIV1","Station_Nam":"WAITSFIELD","Latitude":"44.17560","Longitude":"-72.79610","Snowdepth":"5.000","Units":"in","Rept_Date":"2021-01-14 12"},"coordinates":[5736,5418]},{"type":"Point","properties":{"Station_ID":"VT-WS-33","Station_Nam":"WAITSFIELD 3.5 WNW, VT","Latitude":"44.20052","Longitude":"-72.89421","Snowdepth":"5.000","Units":"in","Rept_Date":"2021-01-14 13"},"coordinates":[5713,5433]},{"type":"Point","properties":{"Station_ID":"VT-WS-11","Station_Nam":"WAITSFIELD 1.8 SE, VT","Latitude":"44.17551","Longitude":"-72.79540","Snowdepth":"5.000","Units":"in","Rept_Date":"2021-01-14 12"},"coordinates":[5737,5418]},{"type":"Point","properties":{"Station_ID":"VT-BN-12","Station_Nam":"STAMFORD 5.0 NNE, VT","Latitude":"42.82000","Longitude":"-73.02000","Snowdepth":"5.000","Units":"in","Rept_Date":"2021-01-14 21"},"coordinates":[5684,4595]},{"type":"Point","properties":{"Station_ID":"VT-AD-20","Station_Nam":"HANCOCK 0.3 S, VT","Latitude":"43.92166","Longitude":"-72.84042","Snowdepth":"5.000","Units":"in","Rept_Date":"2021-01-14 12"},"coordinates":[5726,5264]},{"type":"Point","properties":{"Station_ID":"VADM5","Station_Nam":"VADNAIS LAKE","Latitude":"45.04820","Longitude":"-93.09590","Snowdepth":"5.000","Units":"in","Rept_Date":"2021-01-14 20"},"coordinates":[972,5947]},{"type":"Point","properties":{"Station_ID":"UVDV1","Station_Nam":"NERON SITE AT UNION VILLAGE DAM","Latitude":"43.79140","Longitude":"-72.25720","Snowdepth":"5.000","Units":"in","Rept_Date":"2021-01-14 12"},"coordinates":[5863,5185]},{"type":"Point","properties":{"Station_ID":"UGRW3","Station_Nam":"UNION GROVE,WI","Latitude":"42.70000","Longitude":"-88.03220","Snowdepth":"5.000","Units":"in","Rept_Date":"2021-01-14 13"},"coordinates":[2161,4523]},{"type":"Point","properties":{"Station_ID":"SWHI4","Station_Nam":"SWISHER #2","Latitude":"41.84970","Longitude":"-91.67650","Snowdepth":"5.000","Units":"in","Rept_Date":"2021-01-14 14"},"coordinates":[1305,4007]},{"type":"Point","properties":{"Station_ID":"STMM4","Station_Nam":"STAMBAUGH 2SSE","Latitude":"46.05550","Longitude":"-88.62780","Snowdepth":"5.000","Units":"in","Rept_Date":"2021-01-14 13"},"coordinates":[2021,6558]},{"type":"Point","properties":{"Station_ID":"STGW3","Station_Nam":"ST GERMAIN","Latitude":"45.91550","Longitude":"-89.48940","Snowdepth":"5.000","Units":"in","Rept_Date":"2021-01-14 12"},"coordinates":[1819,6473]},{"type":"Point","properties":{"Station_ID":"SLRW3","Station_Nam":"SLINGER","Latitude":"43.33390","Longitude":"-88.29780","Snowdepth":"5.000","Units":"in","Rept_Date":"2021-01-14 13"},"coordinates":[2098,4907]},{"type":"Point","properties":{"Station_ID":"SJBV1","Station_Nam":"SAINT JOHNSBURY","Latitude":"44.42000","Longitude":"-72.01940","Snowdepth":"5.000","Units":"in","Rept_Date":"2021-01-14 21"},"coordinates":[5919,5566]},{"type":"Point","properties":{"Station_ID":"SAVW3","Station_Nam":"SAUKVILLE WWTP","Latitude":"43.37470","Longitude":"-87.93940","Snowdepth":"5.000","Units":"in","Rept_Date":"2021-01-14 12"},"coordinates":[2182,4932]},{"type":"Point","properties":{"Station_ID":"ROCW3","Station_Nam":"ROCHESTER WWTP","Latitude":"42.72690","Longitude":"-88.22580","Snowdepth":"5.000","Units":"in","Rept_Date":"2021-01-14 11"},"coordinates":[2115,4539]},{"type":"Point","properties":{"Station_ID":"PRNW3","Station_Nam":"PRENTICE,WI","Latitude":"45.54780","Longitude":"-90.30000","Snowdepth":"5.000","Units":"in","Rept_Date":"2021-01-14 14"},"coordinates":[1628,6250]},{"type":"Point","properties":{"Station_ID":"ONCW3","Station_Nam":"SOUTH","Latitude":"43.11170","Longitude":"-88.49970","Snowdepth":"5.000","Units":"in","Rept_Date":"2021-01-14 14"},"coordinates":[2051,4772]},{"type":"Point","properties":{"Station_ID":"OLNI4","Station_Nam":"OELWEIN 1E","Latitude":"42.68010","Longitude":"-91.87510","Snowdepth":"5.000","Units":"in","Rept_Date":"2021-01-14 12"},"coordinates":[1259,4510]},{"type":"Point","properties":{"Station_ID":"OCON6","Station_Nam":"OSCEOLA","Latitude":"43.50370","Longitude":"-75.72170","Snowdepth":"5.000","Units":"in","Rept_Date":"2021-01-14 13"},"coordinates":[5050,5010]},{"type":"Point","properties":{"Station_ID":"NYMM5","Station_Nam":"NEW YORK MILLS","Latitude":"46.50920","Longitude":"-95.37990","Snowdepth":"5.000","Units":"in","Rept_Date":"2021-01-14 13"},"coordinates":[436,6834]},{"type":"Point","properties":{"Station_ID":"NY-OD-2","Station_Nam":"POINT ROCK 0.6 SE, NY","Latitude":"43.37335","Longitude":"-75.53840","Snowdepth":"5.000","Units":"in","Rept_Date":"2021-01-14 12"},"coordinates":[5093,4931]},{"type":"Point","properties":{"Station_ID":"NY-BM-14","Station_Nam":"WHITNEY POINT 1.7 SSE, NY","Latitude":"42.30837","Longitude":"-75.95690","Snowdepth":"5.000","Units":"in","Rept_Date":"2021-01-14 12"},"coordinates":[4995,4285]},{"type":"Point","properties":{"Station_ID":"NWSM1","Station_Nam":"NEW SHARON","Latitude":"44.63520","Longitude":"-70.00020","Snowdepth":"5.000","Units":"in","Rept_Date":"2021-01-14 12"},"coordinates":[6393,5697]},{"type":"Point","properties":{"Station_ID":"NUMN3","Station_Nam":"NORTHUMBERLAND","Latitude":"44.52830","Longitude":"-71.50440","Snowdepth":"5.000","Units":"in","Rept_Date":"2021-01-14 12"},"coordinates":[6040,5632]},{"type":"Point","properties":{"Station_ID":"NPTV1","Station_Nam":"NEWPORT","Latitude":"44.94900","Longitude":"-72.19120","Snowdepth":"5.000","Units":"in","Rept_Date":"2021-01-14 12"},"coordinates":[5878,5887]},{"type":"Point","properties":{"Station_ID":"NH-GR-49","Station_Nam":"PLYMOUTH 3.7 N, NH","Latitude":"43.79048","Longitude":"-71.68413","Snowdepth":"5.000","Units":"in","Rept_Date":"2021-01-14 12"},"coordinates":[5997,5184]},{"type":"Point","properties":{"Station_ID":"NH-CS-7","Station_Nam":"LANCASTER 0.5 N, NH","Latitude":"44.49611","Longitude":"-71.57640","Snowdepth":"5.000","Units":"in","Rept_Date":"2021-01-14 11"},"coordinates":[6023,5612]},{"type":"Point","properties":{"Station_ID":"NH-CS-10","Station_Nam":"RANDOLPH 1.4 NE, NH","Latitude":"44.38824","Longitude":"-71.26950","Snowdepth":"5.000","Units":"in","Rept_Date":"2021-01-14 12"},"coordinates":[6095,5547]},{"type":"Point","properties":{"Station_ID":"NH-CR-11","Station_Nam":"NORTH CONWAY 1.4 SSW, NH","Latitude":"44.03556","Longitude":"-71.14010","Snowdepth":"5.000","Units":"in","Rept_Date":"2021-01-14 12"},"coordinates":[6125,5333]},{"type":"Point","properties":{"Station_ID":"ND-CS-45","Station_Nam":"FARGO 3.6 NNE, ND","Latitude":"46.92599","Longitude":"-96.79321","Snowdepth":"5.000","Units":"in","Rept_Date":"2021-01-14 13"},"coordinates":[105,7086]},{"type":"Point","properties":{"Station_ID":"NCON3","Station_Nam":"NORTH CONWAY","Latitude":"44.05620","Longitude":"-71.12970","Snowdepth":"5.000","Units":"in","Rept_Date":"2021-01-14 13"},"coordinates":[6128,5345]},{"type":"Point","properties":{"Station_ID":"MYOM4","Station_Nam":"MIO WWTP","Latitude":"44.64660","Longitude":"-84.11580","Snowdepth":"5.000","Units":"in","Rept_Date":"2021-01-14 13"},"coordinates":[3080,5704]},{"type":"Point","properties":{"Station_ID":"MWTM1","Station_Nam":"MILLINOCKET WWTP","Latitude":"45.64030","Longitude":"-68.67480","Snowdepth":"5.000","Units":"in","Rept_Date":"2021-01-14 11"},"coordinates":[6704,6306]},{"type":"Point","properties":{"Station_ID":"MWOW3","Station_Nam":"MUKWONAGO","Latitude":"42.85380","Longitude":"-88.43550","Snowdepth":"5.000","Units":"in","Rept_Date":"2021-01-14 13"},"coordinates":[2066,4616]},{"type":"Point","properties":{"Station_ID":"MTCI2","Station_Nam":"MOUNT CARROLL","Latitude":"42.09800","Longitude":"-89.98410","Snowdepth":"5.000","Units":"in","Rept_Date":"2021-01-14 14"},"coordinates":[1703,4157]},{"type":"Point","properties":{"Station_ID":"MSN","Station_Nam":"MADISON DANE COUNTY RGNL","Latitude":"43.13970","Longitude":"-89.33750","Snowdepth":"5.000","Units":"in","Rept_Date":"2021-01-15 00"},"coordinates":[1854,4789]},{"type":"Point","properties":{"Station_ID":"MONW3","Station_Nam":"MONROE,WI","Latitude":"42.60000","Longitude":"-89.66670","Snowdepth":"5.000","Units":"in","Rept_Date":"2021-01-14 13"},"coordinates":[1777,4462]},{"type":"Point","properties":{"Station_ID":"MNPV1","Station_Nam":"MONTPELIER 2","Latitude":"44.25530","Longitude":"-72.60060","Snowdepth":"5.000","Units":"in","Rept_Date":"2021-01-14 12"},"coordinates":[5782,5466]},{"type":"Point","properties":{"Station_ID":"MN-SH-10","Station_Nam":"BIG LAKE 5.6 NNE, MN","Latitude":"45.41409","Longitude":"-93.69190","Snowdepth":"5.000","Units":"in","Rept_Date":"2021-01-14 13"},"coordinates":[832,6169]},{"type":"Point","properties":{"Station_ID":"MN-SE-2","Station_Nam":"OWATONNA 0.8 E, MN","Latitude":"44.09170","Longitude":"-93.21380","Snowdepth":"5.000","Units":"in","Rept_Date":"2021-01-14 13"},"coordinates":[945,5367]},{"type":"Point","properties":{"Station_ID":"MN-IT-19","Station_Nam":"COHASSET 7.6 NNW, MN","Latitude":"47.34204","Longitude":"-93.69765","Snowdepth":"5.000","Units":"in","Rept_Date":"2021-01-14 13"},"coordinates":[831,7339]},{"type":"Point","properties":{"Station_ID":"MN-HN-78","Station_Nam":"RICHFIELD 1.9 WNW, MN","Latitude":"44.89129","Longitude":"-93.31410","Snowdepth":"5.000","Units":"in","Rept_Date":"2021-01-14 11"},"coordinates":[921,5852]},{"type":"Point","properties":{"Station_ID":"MN-HN-6","Station_Nam":"LONG LAKE 0.2 WSW, MN","Latitude":"44.98290","Longitude":"-93.57360","Snowdepth":"5.000","Units":"in","Rept_Date":"2021-01-14 13"},"coordinates":[860,5908]},{"type":"Point","properties":{"Station_ID":"MN-HN-240","Station_Nam":"BLOOMINGTON 3.1 E, MN","Latitude":"44.83704","Longitude":"-93.25318","Snowdepth":"5.000","Units":"in","Rept_Date":"2021-01-14 14"},"coordinates":[935,5819]},{"type":"Point","properties":{"Station_ID":"MN-CW-29","Station_Nam":"BRAINERD 7.7 SSE, MN","Latitude":"46.24996","Longitude":"-94.14576","Snowdepth":"5.000","Units":"in","Rept_Date":"2021-01-14 13"},"coordinates":[726,6676]},{"type":"Point","properties":{"Station_ID":"MN-BM-15","Station_Nam":"BEMIDJI 7.8 ENE, MN","Latitude":"47.52043","Longitude":"-94.72121","Snowdepth":"5.000","Units":"in","Rept_Date":"2021-01-14 13"},"coordinates":[591,7447]},{"type":"Point","properties":{"Station_ID":"MN-BK-10","Station_Nam":"DETROIT LAKES 5.7 N, MN","Latitude":"46.88666","Longitude":"-95.84444","Snowdepth":"5.000","Units":"in","Rept_Date":"2021-01-14 10"},"coordinates":[327,7063]},{"type":"Point","properties":{"Station_ID":"MLCM5","Station_Nam":"MILACA","Latitude":"45.75320","Longitude":"-93.66170","Snowdepth":"5.000","Units":"in","Rept_Date":"2021-01-14 13"},"coordinates":[839,6375]},{"type":"Point","properties":{"Station_ID":"MKTI4","Station_Nam":"MAQUOKETA","Latitude":"42.07710","Longitude":"-90.66470","Snowdepth":"5.000","Units":"in","Rept_Date":"2021-01-14 13"},"coordinates":[1543,4145]},{"type":"Point","properties":{"Station_ID":"MI-OT-16","Station_Nam":"GAYLORD 2.2 SSE, MI","Latitude":"44.99441","Longitude":"-84.65820","Snowdepth":"5.000","Units":"in","Rept_Date":"2021-01-14 14"},"coordinates":[2953,5915]},{"type":"Point","properties":{"Station_ID":"MI-MQ-19","Station_Nam":"ISHPEMING 7.2 SW, MI","Latitude":"46.40550","Longitude":"-87.75670","Snowdepth":"5.000","Units":"in","Rept_Date":"2021-01-14 11"},"coordinates":[2225,6771]},{"type":"Point","properties":{"Station_ID":"MI-EM-8","Station_Nam":"PETOSKEY 1.7 SSW, MI","Latitude":"45.34209","Longitude":"-84.96530","Snowdepth":"5.000","Units":"in","Rept_Date":"2021-01-14 10"},"coordinates":[2880,6125]},{"type":"Point","properties":{"Station_ID":"MI-AG-6","Station_Nam":"MUNISING 11.1 SSW, MI","Latitude":"46.27805","Longitude":"-86.75747","Snowdepth":"5.000","Units":"in","Rept_Date":"2021-01-14 12"},"coordinates":[2460,6693]},{"type":"Point","properties":{"Station_ID":"ME-WL-27","Station_Nam":"PROSPECT 2.6 W, ME","Latitude":"44.55719","Longitude":"-68.91732","Snowdepth":"5.000","Units":"in","Rept_Date":"2021-01-14 11"},"coordinates":[6647,5649]},{"type":"Point","properties":{"Station_ID":"ME-SM-4","Station_Nam":"SOLON 3.9 ESE, ME","Latitude":"44.94705","Longitude":"-69.77790","Snowdepth":"5.000","Units":"in","Rept_Date":"2021-01-14 12"},"coordinates":[6445,5886]},{"type":"Point","properties":{"Station_ID":"ME-SM-10","Station_Nam":"NORTH NEW PORTLAND 0.3 WSW, ME","Latitude":"44.92353","Longitude":"-70.02788","Snowdepth":"5.000","Units":"in","Rept_Date":"2021-01-14 12"},"coordinates":[6386,5872]},{"type":"Point","properties":{"Station_ID":"ME-PN-47","Station_Nam":"MILFORD 0.8 SSW, ME","Latitude":"44.94108","Longitude":"-68.64154","Snowdepth":"5.000","Units":"in","Rept_Date":"2021-01-14 11"},"coordinates":[6712,5882]},{"type":"Point","properties":{"Station_ID":"ME-PN-43","Station_Nam":"ORONO 0.9 NE, ME","Latitude":"44.89261","Longitude":"-68.66903","Snowdepth":"5.000","Units":"in","Rept_Date":"2021-01-14 11"},"coordinates":[6705,5853]},{"type":"Point","properties":{"Station_ID":"ME-OX-2","Station_Nam":"HARTFORD 1.4 N, ME","Latitude":"44.39318","Longitude":"-70.34760","Snowdepth":"5.000","Units":"in","Rept_Date":"2021-01-14 12"},"coordinates":[6311,5550]},{"type":"Point","properties":{"Station_ID":"ME-KB-53","Station_Nam":"READFIELD 2.0 NNE, ME","Latitude":"44.41620","Longitude":"-69.95190","Snowdepth":"5.000","Units":"in","Rept_Date":"2021-01-14 12"},"coordinates":[6404,5564]},{"type":"Point","properties":{"Station_ID":"ME-FR-4","Station_Nam":"NEW SHARON 2.0 NW, ME","Latitude":"44.66582","Longitude":"-70.02720","Snowdepth":"5.000","Units":"in","Rept_Date":"2021-01-14 12"},"coordinates":[6386,5715]},{"type":"Point","properties":{"Station_ID":"ME-AR-15","Station_Nam":"PRESQUE ISLE 1.3 WSW, ME","Latitude":"46.67960","Longitude":"-68.01270","Snowdepth":"5.000","Units":"in","Rept_Date":"2021-01-14 12"},"coordinates":[6859,6937]},{"type":"Point","properties":{"Station_ID":"ME-AN-32","Station_Nam":"WINTHROP 9.4 W, ME","Latitude":"44.30476","Longitude":"-70.15835","Snowdepth":"5.000","Units":"in","Rept_Date":"2021-01-14 10"},"coordinates":[6356,5496]},{"type":"Point","properties":{"Station_ID":"MALN6","Station_Nam":"MALONE","Latitude":"44.84180","Longitude":"-74.30600","Snowdepth":"5.000","Units":"in","Rept_Date":"2021-01-14 12"},"coordinates":[5382,5822]},{"type":"Point","properties":{"Station_ID":"LVDW3","Station_Nam":"LAC VIEUX DESERT","Latitude":"46.12110","Longitude":"-89.07580","Snowdepth":"5.000","Units":"in","Rept_Date":"2021-01-14 14"},"coordinates":[1916,6598]},{"type":"Point","properties":{"Station_ID":"LOWN6","Station_Nam":"LOWVILLE","Latitude":"43.79280","Longitude":"-75.48290","Snowdepth":"5.000","Units":"in","Rept_Date":"2021-01-14 12"},"coordinates":[5106,5186]},{"type":"Point","properties":{"Station_ID":"LODW3","Station_Nam":"LODI","Latitude":"43.32170","Longitude":"-89.53110","Snowdepth":"5.000","Units":"in","Rept_Date":"2021-01-14 13"},"coordinates":[1809,4900]},{"type":"Point","properties":{"Station_ID":"LBRM5","Station_Nam":"LAKE BRONSON DAM","Latitude":"48.72410","Longitude":"-96.62180","Snowdepth":"5.000","Units":"in","Rept_Date":"2021-01-14 14"},"coordinates":[145,8177]},{"type":"Point","properties":{"Station_ID":"LBKV1","Station_Nam":"LYE BROOK","Latitude":"43.05000","Longitude":"-73.03330","Snowdepth":"5.000","Units":"in","Rept_Date":"2021-01-15 05"},"coordinates":[5681,4735]},{"type":"Point","properties":{"Station_ID":"KINM1","Station_Nam":"KINGFIELD","Latitude":"44.95950","Longitude":"-70.17530","Snowdepth":"5.000","Units":"in","Rept_Date":"2021-01-14 13"},"coordinates":[6352,5893]},{"type":"Point","properties":{"Station_ID":"JKMM1","Station_Nam":"JACKMAN","Latitude":"45.62600","Longitude":"-70.24600","Snowdepth":"5.000","Units":"in","Rept_Date":"2021-01-14 12"},"coordinates":[6335,6298]},{"type":"Point","properties":{"Station_ID":"JEFN3","Station_Nam":"JEFFERSON","Latitude":"44.41690","Longitude":"-71.50080","Snowdepth":"5.000","Units":"in","Rept_Date":"2021-01-14 12"},"coordinates":[6040,5564]},{"type":"Point","properties":{"Station_ID":"JACW3","Station_Nam":"JACKSON","Latitude":"43.31940","Longitude":"-88.16810","Snowdepth":"5.000","Units":"in","Rept_Date":"2021-01-14 12"},"coordinates":[2129,4898]},{"type":"Point","properties":{"Station_ID":"ISEM5","Station_Nam":"ISLE 12N","Latitude":"46.31970","Longitude":"-93.50140","Snowdepth":"5.000","Units":"in","Rept_Date":"2021-01-14 14"},"coordinates":[877,6719]},{"type":"Point","properties":{"Station_ID":"INDN6","Station_Nam":"INDIAN LAKE","Latitude":"43.75500","Longitude":"-74.27560","Snowdepth":"5.000","Units":"in","Rept_Date":"2021-01-14 14"},"coordinates":[5389,5163]},{"type":"Point","properties":{"Station_ID":"IL-WN-26","Station_Nam":"ROCKFORD 1.5 ENE, IL","Latitude":"42.27775","Longitude":"-89.03590","Snowdepth":"5.000","Units":"in","Rept_Date":"2021-01-14 15"},"coordinates":[1925,4266]},{"type":"Point","properties":{"Station_ID":"IL-MCH-13","Station_Nam":"BULL VALLEY 2.5 WNW, IL","Latitude":"42.32455","Longitude":"-88.39460","Snowdepth":"5.000","Units":"in","Rept_Date":"2021-01-14 14"},"coordinates":[2076,4295]},{"type":"Point","properties":{"Station_ID":"IL-JD-6","Station_Nam":"HANOVER 0.2 NW, IL","Latitude":"42.25640","Longitude":"-90.28109","Snowdepth":"5.000","Units":"in","Rept_Date":"2021-01-14 13"},"coordinates":[1633,4253]},{"type":"Point","properties":{"Station_ID":"IL-BN-19","Station_Nam":"BELVIDERE 5.0 NNW, IL","Latitude":"42.32071","Longitude":"-88.88282","Snowdepth":"5.000","Units":"in","Rept_Date":"2021-01-14 13"},"coordinates":[1961,4292]},{"type":"Point","properties":{"Station_ID":"HRTM1","Station_Nam":"HARTFORD","Latitude":"44.37440","Longitude":"-70.31620","Snowdepth":"5.000","Units":"in","Rept_Date":"2021-01-14 12"},"coordinates":[6318,5538]},{"type":"Point","properties":{"Station_ID":"HPN19_MADIS","Station_Nam":"GREENFIELD","Latitude":"45.20343","Longitude":"-93.69130","Snowdepth":"5.000","Units":"in","Rept_Date":"2021-01-14 23"},"coordinates":[833,6041]},{"type":"Point","properties":{"Station_ID":"GNEN6","Station_Nam":"GREENE","Latitude":"42.32440","Longitude":"-75.77170","Snowdepth":"5.000","Units":"in","Rept_Date":"2021-01-14 16"},"coordinates":[5038,4295]},{"type":"Point","properties":{"Station_ID":"GLLM5","Station_Nam":"GULL LAKE DAM","Latitude":"46.41190","Longitude":"-94.35000","Snowdepth":"5.000","Units":"in","Rept_Date":"2021-01-14 14"},"coordinates":[678,6774]},{"type":"Point","properties":{"Station_ID":"GDPM5","Station_Nam":"PIGEON RIVER AT MIDDLE FALLS","Latitude":"48.01220","Longitude":"-89.61610","Snowdepth":"5.000","Units":"in","Rept_Date":"2021-01-14 13"},"coordinates":[1789,7745]},{"type":"Point","properties":{"Station_ID":"EZBI2","Station_Nam":"ELIZABETH","Latitude":"42.31620","Longitude":"-90.22690","Snowdepth":"5.000","Units":"in","Rept_Date":"2021-01-14 12"},"coordinates":[1646,4290]},{"type":"Point","properties":{"Station_ID":"EGRW3","Station_Nam":"EAGLE RIVER-SOUTH","Latitude":"45.91360","Longitude":"-89.24360","Snowdepth":"5.000","Units":"in","Rept_Date":"2021-01-14 13"},"coordinates":[1876,6472]},{"type":"Point","properties":{"Station_ID":"DVNI4","Station_Nam":"DAVENPORT WFO","Latitude":"41.61170","Longitude":"-90.58160","Snowdepth":"5.000","Units":"in","Rept_Date":"2021-01-15 06"},"coordinates":[1562,3862]},{"type":"Point","properties":{"Station_ID":"DVN","Station_Nam":"QUAD CITIES, IA","Latitude":"41.61030","Longitude":"-90.58830","Snowdepth":"5.000","Units":"in","Rept_Date":"2021-01-15 00"},"coordinates":[1561,3861]},{"type":"Point","properties":{"Station_ID":"DMX","Station_Nam":"DES MOINES, IA","Latitude":"41.73610","Longitude":"-93.72330","Snowdepth":"5.000","Units":"in","Rept_Date":"2021-01-15 06"},"coordinates":[825,3938]},{"type":"Point","properties":{"Station_ID":"DLNW3","Station_Nam":"WALWORTH COUNTYMETROPOLITAN SEWERAGE DISTRICT (DELEVAN)","Latitude":"42.63440","Longitude":"-88.66280","Snowdepth":"5.000","Units":"in","Rept_Date":"2021-01-14 13"},"coordinates":[2013,4483]},{"type":"Point","properties":{"Station_ID":"DHMM1","Station_Nam":"DEDHAM","Latitude":"44.67880","Longitude":"-68.63560","Snowdepth":"5.000","Units":"in","Rept_Date":"2021-01-14 12"},"coordinates":[6713,5723]},{"type":"Point","properties":{"Station_ID":"DBQ","Station_Nam":"DUBUQUE REGIONAL AIRPORT","Latitude":"42.40310","Longitude":"-90.70920","Snowdepth":"5.000","Units":"in","Rept_Date":"2021-01-15 00"},"coordinates":[1532,4342]},{"type":"Point","properties":{"Station_ID":"CLNI4","Station_Nam":"CLINTON NO 1","Latitude":"41.79470","Longitude":"-90.26390","Snowdepth":"5.000","Units":"in","Rept_Date":"2021-01-15 00"},"coordinates":[1637,3973]},{"type":"Point","properties":{"Station_ID":"CLGM5","Station_Nam":"COLLEGEVILLE ST JOHN","Latitude":"45.57940","Longitude":"-94.39200","Snowdepth":"5.000","Units":"in","Rept_Date":"2021-01-15 00"},"coordinates":[668,6269]},{"type":"Point","properties":{"Station_ID":"CCTI4","Station_Nam":"CENTRAL CITY","Latitude":"42.21480","Longitude":"-91.52230","Snowdepth":"5.000","Units":"in","Rept_Date":"2021-01-14 14"},"coordinates":[1342,4228]},{"type":"Point","properties":{"Station_ID":"CCON6","Station_Nam":"CALLICOON CENTER","Latitude":"41.82750","Longitude":"-74.95060","Snowdepth":"5.000","Units":"in","Rept_Date":"2021-01-14 12"},"coordinates":[5231,3993]},{"type":"Point","properties":{"Station_ID":"CAN-PE-20","Station_Nam":"BONSHAW 6.6 NNE, CAN","Latitude":"46.25082","Longitude":"-63.33409","Snowdepth":"5.000","Units":"in","Rept_Date":"2021-01-14 12"},"coordinates":[7957,6677]},{"type":"Point","properties":{"Station_ID":"BROW3","Station_Nam":"BRODHEAD,WI","Latitude":"42.61720","Longitude":"-89.38970","Snowdepth":"5.000","Units":"in","Rept_Date":"2021-01-14 13"},"coordinates":[1842,4472]},{"type":"Point","properties":{"Station_ID":"BKEM5","Station_Nam":"BRECKENRIDGE 4NE","Latitude":"46.30470","Longitude":"-96.52170","Snowdepth":"5.000","Units":"in","Rept_Date":"2021-01-14 13"},"coordinates":[168,6709]},{"type":"Point","properties":{"Station_ID":"BENN6","Station_Nam":"BENNETTS BRIDGE","Latitude":"43.53180","Longitude":"-75.95260","Snowdepth":"5.000","Units":"in","Rept_Date":"2021-01-14 12"},"coordinates":[4996,5027]},{"type":"Point","properties":{"Station_ID":"AWXW3","Station_Nam":"ASHLAND","Latitude":"46.58240","Longitude":"-90.88390","Snowdepth":"5.000","Units":"in","Rept_Date":"2021-01-14 13"},"coordinates":[1491,6878]},{"type":"Point","properties":{"Station_ID":"AVTW3","Station_Nam":"ARBOR VITAE-JOHNSON LAKE","Latitude":"45.89940","Longitude":"-89.72670","Snowdepth":"5.000","Units":"in","Rept_Date":"2021-01-14 12"},"coordinates":[1763,6464]},{"type":"Point","properties":{"Station_ID":"AMAM4","Station_Nam":"AMASA 1W","Latitude":"46.23470","Longitude":"-88.45440","Snowdepth":"5.000","Units":"in","Rept_Date":"2021-01-14 14"},"coordinates":[2062,6667]},{"type":"Point","properties":{"Station_ID":"ALXI4","Station_Nam":"WATERLOO SNOW","Latitude":"42.53130","Longitude":"-92.37550","Snowdepth":"5.000","Units":"in","Rept_Date":"2021-01-15 06"},"coordinates":[1141,4420]},{"type":"Point","properties":{"Station_ID":"AFTW3","Station_Nam":"ROCK RIVER","Latitude":"42.61670","Longitude":"-89.06670","Snowdepth":"5.000","Units":"in","Rept_Date":"2021-01-14 13"},"coordinates":[1918,4472]},{"type":"Point","properties":{"Station_ID":"WI-DA-87","Station_Nam":"DUNKIRK 0.1 NW, WI","Latitude":"42.88356","Longitude":"-89.21056","Snowdepth":"4.800","Units":"in","Rept_Date":"2021-01-14 12"},"coordinates":[1884,4634]},{"type":"Point","properties":{"Station_ID":"ME-FR-22","Station_Nam":"FARMINGTON 4.8 NNW, ME","Latitude":"44.73396","Longitude":"-70.18007","Snowdepth":"4.800","Units":"in","Rept_Date":"2021-01-14 14"},"coordinates":[6350,5757]},{"type":"Point","properties":{"Station_ID":"CAN-QC-16","Station_Nam":"SAINT-ARMAND 3.6 W, CAN","Latitude":"45.02631","Longitude":"-73.08795","Snowdepth":"4.800","Units":"in","Rept_Date":"2021-01-14 12"},"coordinates":[5668,5934]},{"type":"Point","properties":{"Station_ID":"CAN-PE-7","Station_Nam":"MORELL 1.4 NNW, CA","Latitude":"46.42741","Longitude":"-62.70870","Snowdepth":"4.800","Units":"in","Rept_Date":"2021-01-14 12"},"coordinates":[8104,6784]},{"type":"Point","properties":{"Station_ID":"CAN-NB-28","Station_Nam":"SUSSEX CORNER 1.4 NE - KWRC, CAN","Latitude":"45.71691","Longitude":"-65.46217","Snowdepth":"4.700","Units":"in","Rept_Date":"2021-01-14 10"},"coordinates":[7458,6353]},{"type":"Point","properties":{"Station_ID":"CAN-NB-16","Station_Nam":"DORCHESTER 1.0 SSE, CAN","Latitude":"45.89160","Longitude":"-64.51269","Snowdepth":"4.700","Units":"in","Rept_Date":"2021-01-14 12"},"coordinates":[7681,6459]},{"type":"Point","properties":{"Station_ID":"WI-PR-6","Station_Nam":"PHILLIPS 1.3 S, WI","Latitude":"45.67677","Longitude":"-90.39543","Snowdepth":"4.500","Units":"in","Rept_Date":"2021-01-14 12"},"coordinates":[1606,6329]},{"type":"Point","properties":{"Station_ID":"WI-MW-14","Station_Nam":"MILWAUKEE 3.6 NNW, WI","Latitude":"43.11300","Longitude":"-87.98730","Snowdepth":"4.500","Units":"in","Rept_Date":"2021-01-14 11"},"coordinates":[2171,4773]},{"type":"Point","properties":{"Station_ID":"VT-WR-17","Station_Nam":"ROCHESTER 2.3 NE, VT","Latitude":"43.89418","Longitude":"-72.76992","Snowdepth":"4.500","Units":"in","Rept_Date":"2021-01-14 12"},"coordinates":[5743,5247]},{"type":"Point","properties":{"Station_ID":"VT-OG-13","Station_Nam":"WEST FAIRLEE 1.8 ENE, VT","Latitude":"43.92138","Longitude":"-72.23051","Snowdepth":"4.500","Units":"in","Rept_Date":"2021-01-14 13"},"coordinates":[5869,5264]},{"type":"Point","properties":{"Station_ID":"NH-CR-41","Station_Nam":"ALBANY 2.8 SW, NH","Latitude":"43.92648","Longitude":"-71.21556","Snowdepth":"4.500","Units":"in","Rept_Date":"2021-01-14 13"},"coordinates":[6107,5267]},{"type":"Point","properties":{"Station_ID":"MN-PK-2","Station_Nam":"ERSKINE 7.6 SW, MN","Latitude":"47.58559","Longitude":"-96.12790","Snowdepth":"4.500","Units":"in","Rept_Date":"2021-01-14 14"},"coordinates":[261,7487]},{"type":"Point","properties":{"Station_ID":"MI-NW-8","Station_Nam":"WHITE CLOUD 7.5 ENE, MI","Latitude":"43.60630","Longitude":"-85.64190","Snowdepth":"4.500","Units":"in","Rept_Date":"2021-01-14 12"},"coordinates":[2722,5072]},{"type":"Point","properties":{"Station_ID":"IL-LE-23","Station_Nam":"SUBLETTE 3.1 WNW, IL","Latitude":"41.65939","Longitude":"-89.28867","Snowdepth":"4.500","Units":"in","Rept_Date":"2021-01-14 13"},"coordinates":[1866,3891]},{"type":"Point","properties":{"Station_ID":"IA-JH-14","Station_Nam":"SWISHER 0.4 NNE, IA","Latitude":"41.84830","Longitude":"-91.69210","Snowdepth":"4.500","Units":"in","Rept_Date":"2021-01-14 14"},"coordinates":[1302,4006]},{"type":"Point","properties":{"Station_ID":"CAN-NB-104","Station_Nam":"PENNFIELD RIDGE 2.7 SSW, CAN","Latitude":"45.09355","Longitude":"-66.71389","Snowdepth":"4.300","Units":"in","Rept_Date":"2021-01-14 11"},"coordinates":[7164,5975]},{"type":"Point","properties":{"Station_ID":"WI-WW-2","Station_Nam":"LAKE GENEVA 0.6 ENE, WI","Latitude":"42.59169","Longitude":"-88.41770","Snowdepth":"4.200","Units":"in","Rept_Date":"2021-01-14 13"},"coordinates":[2070,4457]},{"type":"Point","properties":{"Station_ID":"MRL","Station_Nam":"MRL","Latitude":"51.28330","Longitude":"-68.84060","Snowdepth":"4.055","Units":"in","Rept_Date":"2021-01-14 12"},"coordinates":[6665,9730]},{"type":"Point","properties":{"Station_ID":"ZNOM4","Station_Nam":"NORWAY","Latitude":"45.77810","Longitude":"-87.89560","Snowdepth":"4.000","Units":"in","Rept_Date":"2021-01-14 13"},"coordinates":[2193,6390]},{"type":"Point","properties":{"Station_ID":"WTHM1","Station_Nam":"WINTHROP","Latitude":"44.30650","Longitude":"-69.97010","Snowdepth":"4.000","Units":"in","Rept_Date":"2021-01-14 13"},"coordinates":[6400,5497]},{"type":"Point","properties":{"Station_ID":"WSFW3","Station_Nam":"TOWN OF WESTFORD","Latitude":"43.47190","Longitude":"-88.88250","Snowdepth":"4.000","Units":"in","Rept_Date":"2021-01-14 13"},"coordinates":[1961,4991]},{"type":"Point","properties":{"Station_ID":"WRTS2","Station_Nam":"WATERTOWN,SD","Latitude":"44.90280","Longitude":"-97.11360","Snowdepth":"4.000","Units":"in","Rept_Date":"2021-01-14 15"},"coordinates":[29,5859]},{"type":"Point","properties":{"Station_ID":"WPKW3","Station_Nam":"SW-WHITNAL PARK","Latitude":"42.91670","Longitude":"-88.03330","Snowdepth":"4.000","Units":"in","Rept_Date":"2021-01-14 13"},"coordinates":[2160,4654]},{"type":"Point","properties":{"Station_ID":"WORV1","Station_Nam":"WORCESTER 2 W","Latitude":"44.37470","Longitude":"-72.58220","Snowdepth":"4.000","Units":"in","Rept_Date":"2021-01-14 12"},"coordinates":[5787,5539]},{"type":"Point","properties":{"Station_ID":"WNBM5","Station_Nam":"DAM","Latitude":"47.43060","Longitude":"-94.05000","Snowdepth":"4.000","Units":"in","Rept_Date":"2021-01-14 14"},"coordinates":[748,7393]},{"type":"Point","properties":{"Station_ID":"WILW3","Station_Nam":"RESERVOIR","Latitude":"45.70000","Longitude":"-89.83330","Snowdepth":"4.000","Units":"in","Rept_Date":"2021-01-14 12"},"coordinates":[1738,6343]},{"type":"Point","properties":{"Station_ID":"WI-WS-30","Station_Nam":"HARTFORD 2.9 ENE, WI","Latitude":"43.34256","Longitude":"-88.33687","Snowdepth":"4.000","Units":"in","Rept_Date":"2021-01-14 13"},"coordinates":[2089,4912]},{"type":"Point","properties":{"Station_ID":"WI-WK-20","Station_Nam":"MUKWONAGO 0.5 N, WI","Latitude":"42.87385","Longitude":"-88.33180","Snowdepth":"4.000","Units":"in","Rept_Date":"2021-01-14 13"},"coordinates":[2090,4628]},{"type":"Point","properties":{"Station_ID":"WI-WD-2","Station_Nam":"WISCONSIN RAPIDS 4.6 SSE, WI","Latitude":"44.33823","Longitude":"-89.78200","Snowdepth":"4.000","Units":"in","Rept_Date":"2021-01-14 12"},"coordinates":[1750,5516]},{"type":"Point","properties":{"Station_ID":"WI-RS-1","Station_Nam":"LADYSMITH 2.8 WNW, WI","Latitude":"45.48180","Longitude":"-91.14680","Snowdepth":"4.000","Units":"in","Rept_Date":"2021-01-14 13"},"coordinates":[1430,6210]},{"type":"Point","properties":{"Station_ID":"WI-PC-10","Station_Nam":"RIVER FALLS 1.4 S, WI","Latitude":"44.83580","Longitude":"-92.62100","Snowdepth":"4.000","Units":"in","Rept_Date":"2021-01-14 13"},"coordinates":[1084,5818]},{"type":"Point","properties":{"Station_ID":"WI-MW-43","Station_Nam":"BROWN DEER 0.8 NW, WI","Latitude":"43.18438","Longitude":"-87.98401","Snowdepth":"4.000","Units":"in","Rept_Date":"2021-01-14 13"},"coordinates":[2172,4816]},{"type":"Point","properties":{"Station_ID":"WI-MW-18","Station_Nam":"WEST ALLIS 0.7 SSE, WI","Latitude":"42.99802","Longitude":"-88.02380","Snowdepth":"4.000","Units":"in","Rept_Date":"2021-01-14 14"},"coordinates":[2163,4703]},{"type":"Point","properties":{"Station_ID":"WI-JF-24","Station_Nam":"LAC LABELLE 1.2 SW, WI","Latitude":"43.13126","Longitude":"-88.53959","Snowdepth":"4.000","Units":"in","Rept_Date":"2021-01-14 12"},"coordinates":[2042,4784]},{"type":"Point","properties":{"Station_ID":"WI-JF-22","Station_Nam":"SULLIVAN 2.6 SW, WI","Latitude":"42.98562","Longitude":"-88.62498","Snowdepth":"4.000","Units":"in","Rept_Date":"2021-01-14 13"},"coordinates":[2022,4696]},{"type":"Point","properties":{"Station_ID":"WI-JF-2","Station_Nam":"WATERTOWN 1.6 ESE, WI","Latitude":"43.17916","Longitude":"-88.69720","Snowdepth":"4.000","Units":"in","Rept_Date":"2021-01-14 14"},"coordinates":[2005,4813]},{"type":"Point","properties":{"Station_ID":"WI-JF-17","Station_Nam":"JOHNSON CREEK 2.7 SSW, WI","Latitude":"43.04559","Longitude":"-88.79925","Snowdepth":"4.000","Units":"in","Rept_Date":"2021-01-14 12"},"coordinates":[1981,4732]},{"type":"Point","properties":{"Station_ID":"WI-DD-16","Station_Nam":"BEAVER DAM 2.4 WNW, WI","Latitude":"43.47210","Longitude":"-88.88280","Snowdepth":"4.000","Units":"in","Rept_Date":"2021-01-14 13"},"coordinates":[1961,4991]},{"type":"Point","properties":{"Station_ID":"WI-DA-33","Station_Nam":"OREGON 0.4 SSW, WI","Latitude":"42.92080","Longitude":"-89.38540","Snowdepth":"4.000","Units":"in","Rept_Date":"2021-01-14 13"},"coordinates":[1843,4657]},{"type":"Point","properties":{"Station_ID":"WI-DA-31","Station_Nam":"DEERFIELD 0.6 N, WI","Latitude":"43.05958","Longitude":"-89.07340","Snowdepth":"4.000","Units":"in","Rept_Date":"2021-01-14 14"},"coordinates":[1916,4741]},{"type":"Point","properties":{"Station_ID":"WDOM5","Station_Nam":"WINDOM","Latitude":"43.87700","Longitude":"-95.11590","Snowdepth":"4.000","Units":"in","Rept_Date":"2021-01-14 14"},"coordinates":[498,5237]},{"type":"Point","properties":{"Station_ID":"VT-LM-1","Station_Nam":"STOWE 0.2 SW, VT","Latitude":"44.46399","Longitude":"-72.69070","Snowdepth":"4.000","Units":"in","Rept_Date":"2021-01-14 12"},"coordinates":[5761,5593]},{"type":"Point","properties":{"Station_ID":"VT-CH-7","Station_Nam":"HUNTINGTON 1.1 E, VT","Latitude":"44.32488","Longitude":"-72.96570","Snowdepth":"4.000","Units":"in","Rept_Date":"2021-01-14 12"},"coordinates":[5697,5508]},{"type":"Point","properties":{"Station_ID":"VT-CH-38","Station_Nam":"WILLISTON 0.2 WSW, VT","Latitude":"44.43669","Longitude":"-73.07154","Snowdepth":"4.000","Units":"in","Rept_Date":"2021-01-14 12"},"coordinates":[5672,5576]},{"type":"Point","properties":{"Station_ID":"VRGV1","Station_Nam":"VERGENNES","Latitude":"44.17190","Longitude":"-73.24720","Snowdepth":"4.000","Units":"in","Rept_Date":"2021-01-14 11"},"coordinates":[5631,5416]},{"type":"Point","properties":{"Station_ID":"VQAW3","Station_Nam":"VIROQUA","Latitude":"43.55970","Longitude":"-90.87560","Snowdepth":"4.000","Units":"in","Rept_Date":"2021-01-14 13"},"coordinates":[1493,5044]},{"type":"Point","properties":{"Station_ID":"VNTI4","Station_Nam":"VINTON","Latitude":"42.17020","Longitude":"-92.00770","Snowdepth":"4.000","Units":"in","Rept_Date":"2021-01-14 13"},"coordinates":[1228,4201]},{"type":"Point","properties":{"Station_ID":"TAKW3","Station_Nam":"RICE RESERVOIR NO. 2","Latitude":"45.53770","Longitude":"-89.73220","Snowdepth":"4.000","Units":"in","Rept_Date":"2021-01-14 13"},"coordinates":[1762,6244]},{"type":"Point","properties":{"Station_ID":"STIM5","Station_Nam":"STILLWATER 2SW","Latitude":"45.04540","Longitude":"-92.85220","Snowdepth":"4.000","Units":"in","Rept_Date":"2021-01-14 14"},"coordinates":[1029,5945]},{"type":"Point","properties":{"Station_ID":"SLNV1","Station_Nam":"SOUTH LINCOLN","Latitude":"44.07460","Longitude":"-72.97180","Snowdepth":"4.000","Units":"in","Rept_Date":"2021-01-14 12"},"coordinates":[5695,5357]},{"type":"Point","properties":{"Station_ID":"SHIW3","Station_Nam":"SHIOCTON","Latitude":"44.43890","Longitude":"-88.58390","Snowdepth":"4.000","Units":"in","Rept_Date":"2021-01-14 13"},"coordinates":[2031,5578]},{"type":"Point","properties":{"Station_ID":"SCSM5","Station_Nam":"ST CLOUD STATE","Latitude":"45.55100","Longitude":"-94.14950","Snowdepth":"4.000","Units":"in","Rept_Date":"2021-01-14 12"},"coordinates":[725,6252]},{"type":"Point","properties":{"Station_ID":"SCRW3","Station_Nam":"ST CROIX FALLS","Latitude":"45.41170","Longitude":"-92.64660","Snowdepth":"4.000","Units":"in","Rept_Date":"2021-01-14 13"},"coordinates":[1078,6168]},