{"type":"Topology","objects":{"snowdepth_geo":{"type":"GeometryCollection","name":"snowdepth","crs":{"type":"name","properties":{"name":"urn:ogc:def:crs:OGC:1.3:CRS84"}},"geometries":[{"type":"Point","properties":{"Station_ID":"PRKM4","Station_Nam":"MUNISING EAST","Latitude":"46.42580","Longitude":"-86.62000","Snowdepth":"76.500","Units":"in","Rept_Date":"2020-11-16 06"},"coordinates":[2388,6881]},{"type":"Point","properties":{"Station_ID":"MN-CN-19","Station_Nam":"ESKO 1.1 NE, MN","Latitude":"46.71861","Longitude":"-92.34760","Snowdepth":"14.000","Units":"in","Rept_Date":"2020-11-15 13"},"coordinates":[1099,7053]},{"type":"Point","properties":{"Station_ID":"NC-CR-149","Station_Nam":"NEWPORT 5.6 SW, NC","Latitude":"34.72625","Longitude":"-76.92495","Snowdepth":"9.000","Units":"in","Rept_Date":"2020-11-15 12"},"coordinates":[4570,0]},{"type":"Point","properties":{"Station_ID":"MN-CN-36","Station_Nam":"CLOQUET 3.4 ENE, MN","Latitude":"46.74146","Longitude":"-92.42698","Snowdepth":"8.500","Units":"in","Rept_Date":"2020-11-15 13"},"coordinates":[1082,7067]},{"type":"Point","properties":{"Station_ID":"TWOM5","Station_Nam":"TWO HARBORS,MN","Latitude":"47.12580","Longitude":"-91.70750","Snowdepth":"8.000","Units":"in","Rept_Date":"2020-11-16 01"},"coordinates":[1243,7293]},{"type":"Point","properties":{"Station_ID":"FLDM5","Station_Nam":"FLOODWOOD,MN","Latitude":"47.00000","Longitude":"-92.91670","Snowdepth":"8.000","Units":"in","Rept_Date":"2020-11-15 14"},"coordinates":[971,7219]},{"type":"Point","properties":{"Station_ID":"DLHM5","Station_Nam":"DULUTH NWS","Latitude":"46.83680","Longitude":"-92.21080","Snowdepth":"8.000","Units":"in","Rept_Date":"2020-11-16 06"},"coordinates":[1130,7123]},{"type":"Point","properties":{"Station_ID":"DLH","Station_Nam":"DULUTH, MN","Latitude":"46.83690","Longitude":"-92.21030","Snowdepth":"8.000","Units":"in","Rept_Date":"2020-11-16 00"},"coordinates":[1130,7123]},{"type":"Point","properties":{"Station_ID":"TRIQ6","Station_Nam":"TRIO LAKE","Latitude":"49.22880","Longitude":"-87.22920","Snowdepth":"7.680","Units":"in","Rept_Date":"2020-11-16 06"},"coordinates":[2251,8530]},{"type":"Point","properties":{"Station_ID":"MN-CN-33","Station_Nam":"BARNUM 4.3 W, MN","Latitude":"46.50393","Longitude":"-92.77943","Snowdepth":"7.300","Units":"in","Rept_Date":"2020-11-15 12"},"coordinates":[1002,6927]},{"type":"Point","properties":{"Station_ID":"WRSM5","Station_Nam":"WRENSHALL","Latitude":"46.61550","Longitude":"-92.38380","Snowdepth":"7.000","Units":"in","Rept_Date":"2020-11-15 14"},"coordinates":[1091,6993]},{"type":"Point","properties":{"Station_ID":"WLFM5","Station_Nam":"WOLF RIDGE ENVIRON LEARNING CENTER","Latitude":"47.38240","Longitude":"-91.19730","Snowdepth":"7.000","Units":"in","Rept_Date":"2020-11-15 13"},"coordinates":[1358,7444]},{"type":"Point","properties":{"Station_ID":"UPSW3","Station_Nam":"UPSON,WI","Latitude":"46.36780","Longitude":"-90.41220","Snowdepth":"7.000","Units":"in","Rept_Date":"2020-11-16 00"},"coordinates":[1535,6847]},{"type":"Point","properties":{"Station_ID":"WI-WB-2","Station_Nam":"STONE LAKE 2.0 NW, WI","Latitude":"45.85960","Longitude":"-91.57710","Snowdepth":"6.000","Units":"in","Rept_Date":"2020-11-15 13"},"coordinates":[1273,6548]},{"type":"Point","properties":{"Station_ID":"BRMM5","Station_Nam":"BRIMSON 2S","Latitude":"47.24720","Longitude":"-91.86240","Snowdepth":"6.000","Units":"in","Rept_Date":"2020-11-16 01"},"coordinates":[1209,7364]},{"type":"Point","properties":{"Station_ID":"BABM5","Station_Nam":"BABBITT","Latitude":"47.71210","Longitude":"-91.95330","Snowdepth":"6.000","Units":"in","Rept_Date":"2020-11-15 13"},"coordinates":[1188,7638]},{"type":"Point","properties":{"Station_ID":"MN-SL-175","Station_Nam":"DULUTH 4.6 NE, MN","Latitude":"46.83860","Longitude":"-92.05140","Snowdepth":"5.500","Units":"in","Rept_Date":"2020-11-15 13"},"coordinates":[1166,7124]},{"type":"Point","properties":{"Station_ID":"DVLQ6","Station_Nam":"DEVIOUS LAKE","Latitude":"49.19890","Longitude":"-87.76440","Snowdepth":"5.200","Units":"in","Rept_Date":"2020-11-16 06"},"coordinates":[2131,8512]},{"type":"Point","properties":{"Station_ID":"WTRW3","Station_Nam":"WINTER","Latitude":"45.79920","Longitude":"-90.99470","Snowdepth":"5.000","Units":"in","Rept_Date":"2020-11-15 15"},"coordinates":[1404,6513]},{"type":"Point","properties":{"Station_ID":"WI-DG-20","Station_Nam":"SOLON SPRINGS 1.2 W, WI","Latitude":"46.35217","Longitude":"-91.84405","Snowdepth":"5.000","Units":"in","Rept_Date":"2020-11-15 13"},"coordinates":[1213,6838]},{"type":"Point","properties":{"Station_ID":"COTM5","Station_Nam":"COTTON","Latitude":"47.16870","Longitude":"-92.46290","Snowdepth":"5.000","Units":"in","Rept_Date":"2020-11-15 12"},"coordinates":[1073,7318]},{"type":"Point","properties":{"Station_ID":"WRIM5","Station_Nam":"WRIGHT 3E","Latitude":"46.68040","Longitude":"-92.95420","Snowdepth":"4.000","Units":"in","Rept_Date":"2020-11-15 12"},"coordinates":[963,7031]},{"type":"Point","properties":{"Station_ID":"WI-BY-6","Station_Nam":"BARNES 2.2 S, WI","Latitude":"46.30264","Longitude":"-91.50320","Snowdepth":"4.000","Units":"in","Rept_Date":"2020-11-15 13"},"coordinates":[1289,6809]},{"type":"Point","properties":{"Station_ID":"MN-SL-15","Station_Nam":"CHISHOLM 0.4 WSW, MN","Latitude":"47.48557","Longitude":"-92.88690","Snowdepth":"4.000","Units":"in","Rept_Date":"2020-11-15 13"},"coordinates":[978,7504]},{"type":"Point","properties":{"Station_ID":"LUCW3","Station_Nam":"LUCK","Latitude":"45.57330","Longitude":"-92.48520","Snowdepth":"4.000","Units":"in","Rept_Date":"2020-11-15 13"},"coordinates":[1068,6380]},{"type":"Point","properties":{"Station_ID":"GNFM5","Station_Nam":"GUNFLINT LAKE","Latitude":"48.16670","Longitude":"-90.88750","Snowdepth":"4.000","Units":"in","Rept_Date":"2020-11-15 13"},"coordinates":[1428,7905]},{"type":"Point","properties":{"Station_ID":"BNDM5","Station_Nam":"ELY 25E","Latitude":"47.97190","Longitude":"-91.44860","Snowdepth":"4.000","Units":"in","Rept_Date":"2020-11-15 13"},"coordinates":[1302,7790]},{"type":"Point","properties":{"Station_ID":"AUDQ6","Station_Nam":"AUDEN","Latitude":"48.52600","Longitude":"-82.57570","Snowdepth":"3.940","Units":"in","Rept_Date":"2020-11-16 06"},"coordinates":[3298,8116]},{"type":"Point","properties":{"Station_ID":"PTLQ6","Station_Nam":"PORTAGE LAKE","Latitude":"49.06950","Longitude":"-86.65940","Snowdepth":"3.900","Units":"in","Rept_Date":"2020-11-16 06"},"coordinates":[2379,8436]},{"type":"Point","properties":{"Station_ID":"CAN-NL-79","Station_Nam":"MOUNT PEARL 1.3 WNW, CAN","Latitude":"47.51955","Longitude":"-52.82838","Snowdepth":"3.900","Units":"in","Rept_Date":"2020-11-15 10"},"coordinates":[9992,7524]},{"type":"Point","properties":{"Station_ID":"MFU","Station_Nam":"MFU","Latitude":"51.52170","Longitude":"-66.91110","Snowdepth":"3.622","Units":"in","Rept_Date":"2020-11-15 12"},"coordinates":[6823,9878]},{"type":"Point","properties":{"Station_ID":"WI-BY-14","Station_Nam":"ASHLAND 9.8 W, WI","Latitude":"46.59742","Longitude":"-91.07856","Snowdepth":"3.500","Units":"in","Rept_Date":"2020-11-15 13"},"coordinates":[1385,6982]},{"type":"Point","properties":{"Station_ID":"MN-SL-108","Station_Nam":"IRON JUNCTION 3.4 NNW, MN","Latitude":"47.46150","Longitude":"-92.63130","Snowdepth":"3.500","Units":"in","Rept_Date":"2020-11-15 14"},"coordinates":[1036,7490]},{"type":"Point","properties":{"Station_ID":"WI-SR-1","Station_Nam":"HAYWARD 9.2 NNE, WI","Latitude":"46.13255","Longitude":"-91.40500","Snowdepth":"3.400","Units":"in","Rept_Date":"2020-11-15 12"},"coordinates":[1311,6709]},{"type":"Point","properties":{"Station_ID":"MN-KB-17","Station_Nam":"MORA 2.5 S, MN","Latitude":"45.84100","Longitude":"-93.29700","Snowdepth":"3.400","Units":"in","Rept_Date":"2020-11-15 13"},"coordinates":[886,6537]},{"type":"Point","properties":{"Station_ID":"WI-BY-2","Station_Nam":"MELLEN 18.6 SW, WI","Latitude":"46.16937","Longitude":"-90.98090","Snowdepth":"3.000","Units":"in","Rept_Date":"2020-11-15 13"},"coordinates":[1407,6730]},{"type":"Point","properties":{"Station_ID":"WI-BT-14","Station_Nam":"OAKLAND 9.0 ENE, WI","Latitude":"45.95184","Longitude":"-92.21653","Snowdepth":"3.000","Units":"in","Rept_Date":"2020-11-15 13"},"coordinates":[1129,6602]},{"type":"Point","properties":{"Station_ID":"SRAW3","Station_Nam":"SARONA","Latitude":"45.80250","Longitude":"-91.86700","Snowdepth":"3.000","Units":"in","Rept_Date":"2020-11-15 14"},"coordinates":[1208,6515]},{"type":"Point","properties":{"Station_ID":"SD-UN-2","Station_Nam":"ELK POINT 5.6 NNE, SD","Latitude":"42.76126","Longitude":"-96.65320","Snowdepth":"3.000","Units":"in","Rept_Date":"2020-11-15 15"},"coordinates":[131,4726]},{"type":"Point","properties":{"Station_ID":"MRAM5","Station_Nam":"MORA","Latitude":"45.87760","Longitude":"-93.31470","Snowdepth":"3.000","Units":"in","Rept_Date":"2020-11-15 13"},"coordinates":[882,6559]},{"type":"Point","properties":{"Station_ID":"MN-HN-298","Station_Nam":"EXCELSIOR 1.8 W, MN","Latitude":"44.89722","Longitude":"-93.60286","Snowdepth":"3.000","Units":"in","Rept_Date":"2020-11-15 13"},"coordinates":[817,5982]},{"type":"Point","properties":{"Station_ID":"MLCM5","Station_Nam":"MILACA","Latitude":"45.75320","Longitude":"-93.66170","Snowdepth":"3.000","Units":"in","Rept_Date":"2020-11-15 13"},"coordinates":[804,6486]},{"type":"Point","properties":{"Station_ID":"LNGM5","Station_Nam":"LONG PRAIRIE","Latitude":"45.96460","Longitude":"-94.88920","Snowdepth":"3.000","Units":"in","Rept_Date":"2020-11-15 12"},"coordinates":[527,6610]},{"type":"Point","properties":{"Station_ID":"FORM5","Station_Nam":"FOREST LAKE 5NE","Latitude":"45.33170","Longitude":"-92.89820","Snowdepth":"3.000","Units":"in","Rept_Date":"2020-11-15 13"},"coordinates":[975,6238]},{"type":"Point","properties":{"Station_ID":"ELYM5","Station_Nam":"ELY","Latitude":"47.90560","Longitude":"-91.82830","Snowdepth":"3.000","Units":"in","Rept_Date":"2020-11-15 14"},"coordinates":[1216,7751]},{"type":"Point","properties":{"Station_ID":"COUW3","Station_Nam":"COUDERAY,WI","Latitude":"45.86670","Longitude":"-91.45000","Snowdepth":"3.000","Units":"in","Rept_Date":"2020-11-15 22"},"coordinates":[1301,6552]},{"type":"Point","properties":{"Station_ID":"COKM5","Station_Nam":"COOK","Latitude":"47.85060","Longitude":"-92.69250","Snowdepth":"3.000","Units":"in","Rept_Date":"2020-11-15 12"},"coordinates":[1022,7719]},{"type":"Point","properties":{"Station_ID":"CMKW3","Station_Nam":"CLAM LAKE 4W","Latitude":"46.16940","Longitude":"-90.98080","Snowdepth":"3.000","Units":"in","Rept_Date":"2020-11-15 13"},"coordinates":[1407,6730]},{"type":"Point","properties":{"Station_ID":"CLGM5","Station_Nam":"COLLEGEVILLE ST JOHN","Latitude":"45.57940","Longitude":"-94.39200","Snowdepth":"3.000","Units":"in","Rept_Date":"2020-11-16 00"},"coordinates":[639,6383]},{"type":"Point","properties":{"Station_ID":"CDLM4","Station_Nam":"CADILLAC 9&10 NEWS","Latitude":"44.21130","Longitude":"-85.40860","Snowdepth":"3.000","Units":"in","Rept_Date":"2020-11-15 12"},"coordinates":[2661,5579]},{"type":"Point","properties":{"Station_ID":"BSNM5","Station_Nam":"BENSON","Latitude":"45.31670","Longitude":"-95.61660","Snowdepth":"3.000","Units":"in","Rept_Date":"2020-11-15 14"},"coordinates":[364,6229]},{"type":"Point","properties":{"Station_ID":"BROS2","Station_Nam":"BROOKINGS,SD","Latitude":"44.31670","Longitude":"-96.76670","Snowdepth":"3.000","Units":"in","Rept_Date":"2020-11-15 14"},"coordinates":[105,5641]},{"type":"Point","properties":{"Station_ID":"BRAM5","Station_Nam":"BRAINERD","Latitude":"46.34320","Longitude":"-94.20900","Snowdepth":"3.000","Units":"in","Rept_Date":"2020-11-15 13"},"coordinates":[681,6833]},{"type":"Point","properties":{"Station_ID":"FTHQ6","Station_Nam":"FORT HOPE","Latitude":"51.55820","Longitude":"-87.90510","Snowdepth":"2.800","Units":"in","Rept_Date":"2020-11-16 06"},"coordinates":[2099,9900]},{"type":"Point","properties":{"Station_ID":"CAN-NL-82","Station_Nam":"GANDER 2.7 NW, CAN","Latitude":"48.97737","Longitude":"-54.63396","Snowdepth":"2.800","Units":"in","Rept_Date":"2020-11-15 10"},"coordinates":[9586,8382]},{"type":"Point","properties":{"Station_ID":"CAN-NL-11","Station_Nam":"MOUNT PEARL 2.1 SSE, CA","Latitude":"47.50347","Longitude":"-52.79730","Snowdepth":"2.800","Units":"in","Rept_Date":"2020-11-15 10"},"coordinates":[9999,7515]},{"type":"Point","properties":{"Station_ID":"KABQ6","Station_Nam":"CAB LAKE","Latitude":"49.59950","Longitude":"-89.17990","Snowdepth":"2.760","Units":"in","Rept_Date":"2020-11-16 06"},"coordinates":[1812,8748]},{"type":"Point","properties":{"Station_ID":"WI-WB-15","Station_Nam":"SARONA 3.6 NE, WI","Latitude":"45.74290","Longitude":"-91.74887","Snowdepth":"2.500","Units":"in","Rept_Date":"2020-11-15 15"},"coordinates":[1234,6479]},{"type":"Point","properties":{"Station_ID":"WI-BY-1","Station_Nam":"BAYFIELD 8.8 N, WI","Latitude":"46.93855","Longitude":"-90.83490","Snowdepth":"2.500","Units":"in","Rept_Date":"2020-11-15 13"},"coordinates":[1440,7183]},{"type":"Point","properties":{"Station_ID":"MN-WR-49","Station_Nam":"MONTICELLO 1.4 E, MN","Latitude":"45.29717","Longitude":"-93.77050","Snowdepth":"2.500","Units":"in","Rept_Date":"2020-11-15 14"},"coordinates":[779,6217]},{"type":"Point","properties":{"Station_ID":"MN-SL-124","Station_Nam":"BABBITT 4.4 N, MN","Latitude":"47.70744","Longitude":"-91.93062","Snowdepth":"2.500","Units":"in","Rept_Date":"2020-11-15 13"},"coordinates":[1193,7635]},{"type":"Point","properties":{"Station_ID":"MN-SL-115","Station_Nam":"COTTON 5.7 ESE, MN","Latitude":"47.15142","Longitude":"-92.35772","Snowdepth":"2.500","Units":"in","Rept_Date":"2020-11-15 14"},"coordinates":[1097,7308]},{"type":"Point","properties":{"Station_ID":"MN-RK-5","Station_Nam":"HILLS 0.2 NW, MN","Latitude":"43.52960","Longitude":"-96.36146","Snowdepth":"2.500","Units":"in","Rept_Date":"2020-11-15 14"},"coordinates":[196,5178]},{"type":"Point","properties":{"Station_ID":"MN-IT-1","Station_Nam":"GRAND RAPIDS 2.0 E, MN","Latitude":"47.22266","Longitude":"-93.49600","Snowdepth":"2.500","Units":"in","Rept_Date":"2020-11-15 14"},"coordinates":[841,7350]},{"type":"Point","properties":{"Station_ID":"MN-CW-8","Station_Nam":"BRAINERD 11.5 E, MN","Latitude":"46.38556","Longitude":"-93.95720","Snowdepth":"2.500","Units":"in","Rept_Date":"2020-11-15 14"},"coordinates":[737,6857]},{"type":"Point","properties":{"Station_ID":"MN-AT-5","Station_Nam":"TAMARACK 1.4 SW, MN","Latitude":"46.63760","Longitude":"-93.14554","Snowdepth":"2.500","Units":"in","Rept_Date":"2020-11-15 13"},"coordinates":[920,7006]},{"type":"Point","properties":{"Station_ID":"QGD","Station_Nam":"QGD","Latitude":"51.11140","Longitude":"-67.13940","Snowdepth":"2.047","Units":"in","Rept_Date":"2020-11-15 12"},"coordinates":[6772,9637]},{"type":"Point","properties":{"Station_ID":"MRL","Station_Nam":"MRL","Latitude":"51.28330","Longitude":"-68.84060","Snowdepth":"2.047","Units":"in","Rept_Date":"2020-11-15 12"},"coordinates":[6389,9738]},{"type":"Point","properties":{"Station_ID":"WRNM5","Station_Nam":"WORTHINGTON,MN","Latitude":"43.65440","Longitude":"-95.57920","Snowdepth":"2.000","Units":"in","Rept_Date":"2020-11-15 13"},"coordinates":[372,5251]},{"type":"Point","properties":{"Station_ID":"WMRM5","Station_Nam":"WILLMAR 5N","Latitude":"45.19010","Longitude":"-95.05860","Snowdepth":"2.000","Units":"in","Rept_Date":"2020-11-15 12"},"coordinates":[489,6154]},{"type":"Point","properties":{"Station_ID":"WI-WB-16","Station_Nam":"SARONA 4.5 NNE, WI","Latitude":"45.77030","Longitude":"-91.76890","Snowdepth":"2.000","Units":"in","Rept_Date":"2020-11-15 13"},"coordinates":[1230,6496]},{"type":"Point","properties":{"Station_ID":"WDOM5","Station_Nam":"WINDOM","Latitude":"43.87700","Longitude":"-95.11590","Snowdepth":"2.000","Units":"in","Rept_Date":"2020-11-15 14"},"coordinates":[476,5382]},{"type":"Point","properties":{"Station_ID":"VADM5","Station_Nam":"VADNAIS LAKE","Latitude":"45.04820","Longitude":"-93.09590","Snowdepth":"2.000","Units":"in","Rept_Date":"2020-11-15 20"},"coordinates":[931,6071]},{"type":"Point","properties":{"Station_ID":"TOHM5","Station_Nam":"TWO HARBORS WWTP","Latitude":"47.01760","Longitude":"-91.66480","Snowdepth":"2.000","Units":"in","Rept_Date":"2020-11-15 13"},"coordinates":[1253,7229]},{"type":"Point","properties":{"Station_ID":"SWTW3","Station_Nam":"SUPERIOR WWTP","Latitude":"46.72700","Longitude":"-92.07200","Snowdepth":"2.000","Units":"in","Rept_Date":"2020-11-16 06"},"coordinates":[1161,7058]},{"type":"Point","properties":{"Station_ID":"SIXI4","Station_Nam":"SIOUX CENTER,IA","Latitude":"43.05000","Longitude":"-96.15000","Snowdepth":"2.000","Units":"in","Rept_Date":"2020-11-15 14"},"coordinates":[244,4896]},{"type":"Point","properties":{"Station_ID":"SIBI4","Station_Nam":"SIBLEY","Latitude":"43.40470","Longitude":"-95.74830","Snowdepth":"2.000","Units":"in","Rept_Date":"2020-11-15 13"},"coordinates":[334,5104]},{"type":"Point","properties":{"Station_ID":"SD-BK-9","Station_Nam":"BRUCE 4.1 NE, SD","Latitude":"44.48479","Longitude":"-96.83750","Snowdepth":"2.000","Units":"in","Rept_Date":"2020-11-15 13"},"coordinates":[89,5740]},{"type":"Point","properties":{"Station_ID":"SD-BK-7","Station_Nam":"BROOKINGS 0.2 SSW, SD","Latitude":"44.30389","Longitude":"-96.78780","Snowdepth":"2.000","Units":"in","Rept_Date":"2020-11-15 13"},"coordinates":[100,5633]},{"type":"Point","properties":{"Station_ID":"PIPM5","Station_Nam":"PIPESTONE,MN","Latitude":"44.01390","Longitude":"-96.32580","Snowdepth":"2.000","Units":"in","Rept_Date":"2020-11-15 14"},"coordinates":[204,5463]},{"type":"Point","properties":{"Station_ID":"MN-TD-12","Station_Nam":"LONG PRAIRIE 2.1 NNE, MN","Latitude":"46.00588","Longitude":"-94.84649","Snowdepth":"2.000","Units":"in","Rept_Date":"2020-11-15 14"},"coordinates":[537,6634]},{"type":"Point","properties":{"Station_ID":"MN-SH-985","Station_Nam":"PRINCETON 3.3 WSW, MN","Latitude":"45.55211","Longitude":"-93.64481","Snowdepth":"2.000","Units":"in","Rept_Date":"2020-11-15 21"},"coordinates":[807,6367]},{"type":"Point","properties":{"Station_ID":"MN-RM-15","Station_Nam":"ROSEVILLE 2.1 NW, MN","Latitude":"45.03502","Longitude":"-93.18620","Snowdepth":"2.000","Units":"in","Rept_Date":"2020-11-15 12"},"coordinates":[911,6063]},{"type":"Point","properties":{"Station_ID":"MN-NB-8","Station_Nam":"WORTHINGTON 4.0 S, MN","Latitude":"43.57180","Longitude":"-95.61310","Snowdepth":"2.000","Units":"in","Rept_Date":"2020-11-15 13"},"coordinates":[365,5203]},{"type":"Point","properties":{"Station_ID":"MN-MR-4","Station_Nam":"LITTLE FALLS 1.2 SW, MN","Latitude":"45.96886","Longitude":"-94.37720","Snowdepth":"2.000","Units":"in","Rept_Date":"2020-11-15 13"},"coordinates":[643,6612]},{"type":"Point","properties":{"Station_ID":"MN-HN-22","Station_Nam":"MINNEAPOLIS 3.3 SW, MN","Latitude":"44.92886","Longitude":"-93.31632","Snowdepth":"2.000","Units":"in","Rept_Date":"2020-11-15 15"},"coordinates":[881,6001]},{"type":"Point","properties":{"Station_ID":"MN-DS-9","Station_Nam":"ALEXANDRIA 0.5 W, MN","Latitude":"45.87828","Longitude":"-95.38273","Snowdepth":"2.000","Units":"in","Rept_Date":"2020-11-15 14"},"coordinates":[416,6559]},{"type":"Point","properties":{"Station_ID":"MN-CW-44","Station_Nam":"CROSBY 1.1 SW, MN","Latitude":"46.47772","Longitude":"-93.97293","Snowdepth":"2.000","Units":"in","Rept_Date":"2020-11-15 13"},"coordinates":[734,6912]},{"type":"Point","properties":{"Station_ID":"MN-CW-29","Station_Nam":"BRAINERD 7.7 SSE, MN","Latitude":"46.24996","Longitude":"-94.14576","Snowdepth":"2.000","Units":"in","Rept_Date":"2020-11-15 13"},"coordinates":[695,6778]},{"type":"Point","properties":{"Station_ID":"MN-CW-22","Station_Nam":"FORT RIPLEY 0.8 N, MN","Latitude":"46.18089","Longitude":"-94.36510","Snowdepth":"2.000","Units":"in","Rept_Date":"2020-11-15 13"},"coordinates":[645,6737]},{"type":"Point","properties":{"Station_ID":"MN-CK-6","Station_Nam":"GRAND MARAIS 4.4 W, MN","Latitude":"47.74865","Longitude":"-90.43760","Snowdepth":"2.000","Units":"in","Rept_Date":"2020-11-15 12"},"coordinates":[1529,7659]},{"type":"Point","properties":{"Station_ID":"MN-CK-3","Station_Nam":"TOFTE 4.9 NE, MN","Latitude":"47.62394","Longitude":"-90.76100","Snowdepth":"2.000","Units":"in","Rept_Date":"2020-11-15 13"},"coordinates":[1456,7586]},{"type":"Point","properties":{"Station_ID":"ISEM5","Station_Nam":"ISLE 12N","Latitude":"46.31970","Longitude":"-93.50140","Snowdepth":"2.000","Units":"in","Rept_Date":"2020-11-15 14"},"coordinates":[840,6819]},{"type":"Point","properties":{"Station_ID":"IRMM4","Station_Nam":"WWTP","Latitude":"46.46670","Longitude":"-90.18330","Snowdepth":"2.000","Units":"in","Rept_Date":"2020-11-15 13"},"coordinates":[1586,6905]},{"type":"Point","properties":{"Station_ID":"HURW3","Station_Nam":"HURLEY","Latitude":"46.46250","Longitude":"-90.19550","Snowdepth":"2.000","Units":"in","Rept_Date":"2020-11-15 14"},"coordinates":[1584,6903]},{"type":"Point","properties":{"Station_ID":"CHES2","Station_Nam":"CHESTER 2N","Latitude":"43.92830","Longitude":"-96.93160","Snowdepth":"2.000","Units":"in","Rept_Date":"2020-11-15 13"},"coordinates":[68,5412]},{"type":"Point","properties":{"Station_ID":"APXM4","Station_Nam":"GAYLORD 9SSW","Latitude":"44.90720","Longitude":"-84.71880","Snowdepth":"2.000","Units":"in","Rept_Date":"2020-11-16 06"},"coordinates":[2816,5988]},{"type":"Point","properties":{"Station_ID":"ALXM5","Station_Nam":"ALEXANDRIA","Latitude":"45.87820","Longitude":"-95.38270","Snowdepth":"2.000","Units":"in","Rept_Date":"2020-11-15 13"},"coordinates":[416,6559]},{"type":"Point","properties":{"Station_ID":"OGIQ6","Station_Nam":"OGOKI CAMP","Latitude":"50.76680","Longitude":"-87.85820","Snowdepth":"1.810","Units":"in","Rept_Date":"2020-11-16 06"},"coordinates":[2110,9434]},{"type":"Point","properties":{"Station_ID":"SOCQ6","Station_Nam":"SOCKET LAKE","Latitude":"50.77870","Longitude":"-91.79300","Snowdepth":"1.690","Units":"in","Rept_Date":"2020-11-16 06"},"coordinates":[1224,9441]},{"type":"Point","properties":{"Station_ID":"WI-PR-2","Station_Nam":"BUTTERNUT 5.9 SW, WI","Latitude":"45.96501","Longitude":"-90.59750","Snowdepth":"1.500","Units":"in","Rept_Date":"2020-11-15 12"},"coordinates":[1493,6610]},{"type":"Point","properties":{"Station_ID":"WI-IR-3","Station_Nam":"PENCE 0.1 E, WI","Latitude":"46.41555","Longitude":"-90.27013","Snowdepth":"1.500","Units":"in","Rept_Date":"2020-11-15 13"},"coordinates":[1567,6875]},{"type":"Point","properties":{"Station_ID":"SD-MH-8","Station_Nam":"HARTFORD 6.4 S, SD","Latitude":"43.53128","Longitude":"-96.95020","Snowdepth":"1.500","Units":"in","Rept_Date":"2020-11-15 14"},"coordinates":[64,5179]},{"type":"Point","properties":{"Station_ID":"MN-SR-48","Station_Nam":"SAINT AUGUSTA 2.1 S, MN","Latitude":"45.41950","Longitude":"-94.19737","Snowdepth":"1.500","Units":"in","Rept_Date":"2020-11-15 13"},"coordinates":[683,6289]},{"type":"Point","properties":{"Station_ID":"MN-MR-13","Station_Nam":"LITTLE FALLS 8.0 NE, MN","Latitude":"46.06785","Longitude":"-94.24789","Snowdepth":"1.500","Units":"in","Rept_Date":"2020-11-15 13"},"coordinates":[672,6671]},{"type":"Point","properties":{"Station_ID":"MN-IT-7","Station_Nam":"GRAND RAPIDS 6.2 SSW, MN","Latitude":"47.13687","Longitude":"-93.56660","Snowdepth":"1.500","Units":"in","Rept_Date":"2020-11-15 12"},"coordinates":[825,7299]},{"type":"Point","properties":{"Station_ID":"MN-IS-18","Station_Nam":"BRAHAM 0.7 SW, MN","Latitude":"45.71379","Longitude":"-93.18095","Snowdepth":"1.500","Units":"in","Rept_Date":"2020-11-15 14"},"coordinates":[912,6462]},{"type":"Point","properties":{"Station_ID":"MN-HN-30","Station_Nam":"PLYMOUTH 2.4 ENE, MN","Latitude":"45.04063","Longitude":"-93.41950","Snowdepth":"1.500","Units":"in","Rept_Date":"2020-11-15 13"},"coordinates":[858,6066]},{"type":"Point","properties":{"Station_ID":"MN-AA-76","Station_Nam":"NOWTHEN 2.9 SSE, MN","Latitude":"45.30360","Longitude":"-93.42620","Snowdepth":"1.500","Units":"in","Rept_Date":"2020-11-15 13"},"coordinates":[857,6221]},{"type":"Point","properties":{"Station_ID":"CAN-NL-65","Station_Nam":"KIPPENS 0.7 NE, CA","Latitude":"48.55436","Longitude":"-58.61850","Snowdepth":"1.500","Units":"in","Rept_Date":"2020-11-15 11"},"coordinates":[8689,8133]},{"type":"Point","properties":{"Station_ID":"QOU","Station_Nam":"QOU","Latitude":"50.79250","Longitude":"-69.67470","Snowdepth":"1.496","Units":"in","Rept_Date":"2020-11-15 12"},"coordinates":[6201,9449]},{"type":"Point","properties":{"Station_ID":"QIQ","Station_Nam":"QIQ","Latitude":"49.82390","Longitude":"-68.54310","Snowdepth":"1.457","Units":"in","Rept_Date":"2020-11-15 12"},"coordinates":[6456,8880]},{"type":"Point","properties":{"Station_ID":"QTV","Station_Nam":"QTV","Latitude":"49.66000","Longitude":"-69.35690","Snowdepth":"1.339","Units":"in","Rept_Date":"2020-11-15 12"},"coordinates":[6273,8783]},{"type":"Point","properties":{"Station_ID":"QMA","Station_Nam":"QMA","Latitude":"50.10330","Longitude":"-70.47190","Snowdepth":"1.339","Units":"in","Rept_Date":"2020-11-15 12"},"coordinates":[6022,9044]},{"type":"Point","properties":{"Station_ID":"SVBQ6","Station_Nam":"SAVANT BASE","Latitude":"50.28730","Longitude":"-90.65670","Snowdepth":"1.300","Units":"in","Rept_Date":"2020-11-16 06"},"coordinates":[1480,9152]},{"type":"Point","properties":{"Station_ID":"MN-MC-16","Station_Nam":"HUTCHINSON 0.1 ENE, MN","Latitude":"44.88633","Longitude":"-94.37503","Snowdepth":"1.300","Units":"in","Rept_Date":"2020-11-15 13"},"coordinates":[643,5976]},{"type":"Point","properties":{"Station_ID":"QGT","Station_Nam":"QGT","Latitude":"49.64720","Longitude":"-67.62640","Snowdepth":"1.299","Units":"in","Rept_Date":"2020-11-15 12"},"coordinates":[6662,8776]},{"type":"Point","properties":{"Station_ID":"QCX","Station_Nam":"QCX","Latitude":"51.32830","Longitude":"-70.08060","Snowdepth":"1.260","Units":"in","Rept_Date":"2020-11-15 12"},"coordinates":[6110,9765]},{"type":"Point","properties":{"Station_ID":"CATQ6","Station_Nam":"CAT LAKE","Latitude":"51.72690","Longitude":"-91.82210","Snowdepth":"1.260","Units":"in","Rept_Date":"2020-11-16 06"},"coordinates":[1218,9999]},{"type":"Point","properties":{"Station_ID":"MLZ","Station_Nam":"MLZ","Latitude":"50.66170","Longitude":"-68.82360","Snowdepth":"1.181","Units":"in","Rept_Date":"2020-11-15 12"},"coordinates":[6393,9373]},{"type":"Point","properties":{"Station_ID":"WI-AS-6","Station_Nam":"ODANAH 1.6 E, WI","Latitude":"46.60462","Longitude":"-90.64920","Snowdepth":"1.100","Units":"in","Rept_Date":"2020-11-15 13"},"coordinates":[1482,6986]},{"type":"Point","properties":{"Station_ID":"MN-RM-2","Station_Nam":"NORTH SAINT PAUL 1.0 NNW, MN","Latitude":"45.02629","Longitude":"-93.00790","Snowdepth":"1.100","Units":"in","Rept_Date":"2020-11-15 13"},"coordinates":[951,6058]},{"type":"Point","properties":{"Station_ID":"WRUM5","Station_Nam":"WARROAD 4W","Latitude":"48.89600","Longitude":"-95.40700","Snowdepth":"1.000","Units":"in","Rept_Date":"2020-11-16 04"},"coordinates":[411,8334]},{"type":"Point","properties":{"Station_ID":"WLDM5","Station_Nam":"WILD RIVER STATE PARK","Latitude":"45.52310","Longitude":"-92.74890","Snowdepth":"1.000","Units":"in","Rept_Date":"2020-11-15 14"},"coordinates":[1009,6350]},{"type":"Point","properties":{"Station_ID":"WI-WB-17","Station_Nam":"SARONA 4.9 E, WI","Latitude":"45.71720","Longitude":"-91.70610","Snowdepth":"1.000","Units":"in","Rept_Date":"2020-11-15 13"},"coordinates":[1244,6464]},{"type":"Point","properties":{"Station_ID":"VRMS2","Station_Nam":"VERMILLION,SD","Latitude":"42.76250","Longitude":"-96.91940","Snowdepth":"1.000","Units":"in","Rept_Date":"2020-11-15 17"},"coordinates":[71,4727]},{"type":"Point","properties":{"Station_ID":"SUAW3","Station_Nam":"SUAMICO","Latitude":"44.60190","Longitude":"-88.09780","Snowdepth":"1.000","Units":"in","Rept_Date":"2020-11-15 12"},"coordinates":[2056,5808]},{"type":"Point","properties":{"Station_ID":"STON1","Station_Nam":"STANTON 7NE","Latitude":"42.04130","Longitude":"-97.17470","Snowdepth":"1.000","Units":"in","Rept_Date":"2020-11-15 13"},"coordinates":[13,4302]},{"type":"Point","properties":{"Station_ID":"STC","Station_Nam":"ST. CLOUD REGIONAL AIRPORT","Latitude":"45.54330","Longitude":"-94.05140","Snowdepth":"1.000","Units":"in","Rept_Date":"2020-11-16 00"},"coordinates":[716,6362]},{"type":"Point","properties":{"Station_ID":"SCSM5","Station_Nam":"ST CLOUD STATE","Latitude":"45.55100","Longitude":"-94.14950","Snowdepth":"1.000","Units":"in","Rept_Date":"2020-11-15 12"},"coordinates":[694,6367]},{"type":"Point","properties":{"Station_ID":"QNCM4","Station_Nam":"QUINCY HILL","Latitude":"47.13640","Longitude":"-88.57950","Snowdepth":"1.000","Units":"in","Rept_Date":"2020-11-15 15"},"coordinates":[1947,7299]},{"type":"Point","properties":{"Station_ID":"PHEW3","Station_Nam":"PHELPS","Latitude":"46.06630","Longitude":"-89.07520","Snowdepth":"1.000","Units":"in","Rept_Date":"2020-11-15 13"},"coordinates":[1836,6670]},{"type":"Point","properties":{"Station_ID":"ORCI4","Station_Nam":"ORANGE CITY","Latitude":"43.00080","Longitude":"-96.05390","Snowdepth":"1.000","Units":"in","Rept_Date":"2020-11-15 13"},"coordinates":[265,4867]},{"type":"Point","properties":{"Station_ID":"MSP","Station_Nam":"MINNEAPOLIS-ST PAUL INTL AP","Latitude":"44.88310","Longitude":"-93.22890","Snowdepth":"1.000","Units":"in","Rept_Date":"2020-11-16 00"},"coordinates":[901,5974]},{"type":"Point","properties":{"Station_ID":"MRFS2","Station_Nam":"MADISON,SD","Latitude":"44.00000","Longitude":"-97.23330","Snowdepth":"1.000","Units":"in","Rept_Date":"2020-11-15 15"},"coordinates":[0,5454]},{"type":"Point","properties":{"Station_ID":"MQT","Station_Nam":"MARQUETTE, MI","Latitude":"46.53140","Longitude":"-87.54920","Snowdepth":"1.000","Units":"in","Rept_Date":"2020-11-16 06"},"coordinates":[2179,6943]},{"type":"Point","properties":{"Station_ID":"MONS2","Station_Nam":"MONTROSE","Latitude":"43.70500","Longitude":"-97.18780","Snowdepth":"1.000","Units":"in","Rept_Date":"2020-11-15 13"},"coordinates":[10,5281]},{"type":"Point","properties":{"Station_ID":"MN-SR-24","Station_Nam":"PAYNESVILLE 1.9 SSW, MN","Latitude":"45.35170","Longitude":"-94.73120","Snowdepth":"1.000","Units":"in","Rept_Date":"2020-11-15 13"},"coordinates":[563,6249]},{"type":"Point","properties":{"Station_ID":"MN-SL-139","Station_Nam":"DULUTH 1.2 SE, MN","Latitude":"46.77000","Longitude":"-92.08826","Snowdepth":"1.000","Units":"in","Rept_Date":"2020-11-15 12"},"coordinates":[1158,7084]},{"type":"Point","properties":{"Station_ID":"MN-SH-10","Station_Nam":"BIG LAKE 5.6 NNE, MN","Latitude":"45.41409","Longitude":"-93.69190","Snowdepth":"1.000","Units":"in","Rept_Date":"2020-11-15 13"},"coordinates":[797,6286]},{"type":"Point","properties":{"Station_ID":"MN-SC-2","Station_Nam":"PRIOR LAKE 2.0 W, MN","Latitude":"44.71250","Longitude":"-93.46360","Snowdepth":"1.000","Units":"in","Rept_Date":"2020-11-15 13"},"coordinates":[848,5873]},{"type":"Point","properties":{"Station_ID":"MN-RM-63","Station_Nam":"NORTH SAINT PAUL 1.0 NW, MN","Latitude":"45.02410","Longitude":"-93.01400","Snowdepth":"1.000","Units":"in","Rept_Date":"2020-11-15 13"},"coordinates":[949,6057]},{"type":"Point","properties":{"Station_ID":"MN-RM-54","Station_Nam":"SAINT PAUL 5.1 SW, MN","Latitude":"44.90390","Longitude":"-93.18820","Snowdepth":"1.000","Units":"in","Rept_Date":"2020-11-15 13"},"coordinates":[910,5986]},{"type":"Point","properties":{"Station_ID":"MN-PS-6","Station_Nam":"EDGERTON 0.2 WSW, MN","Latitude":"43.87444","Longitude":"-96.13328","Snowdepth":"1.000","Units":"in","Rept_Date":"2020-11-15 12"},"coordinates":[248,5381]},{"type":"Point","properties":{"Station_ID":"MN-MT-6","Station_Nam":"FAIRMONT 0.7 E, MN","Latitude":"43.64501","Longitude":"-94.44860","Snowdepth":"1.000","Units":"in","Rept_Date":"2020-11-15 13"},"coordinates":[627,5246]},{"type":"Point","properties":{"Station_ID":"MN-MS-8","Station_Nam":"NEWFOLDEN 0.2 W, MN","Latitude":"48.35613","Longitude":"-96.33460","Snowdepth":"1.000","Units":"in","Rept_Date":"2020-11-15 14"},"coordinates":[202,8016]},{"type":"Point","properties":{"Station_ID":"MN-MK-11","Station_Nam":"DASSEL 0.4 S, MN","Latitude":"45.07765","Longitude":"-94.31567","Snowdepth":"1.000","Units":"in","Rept_Date":"2020-11-15 13"},"coordinates":[657,6088]},{"type":"Point","properties":{"Station_ID":"MN-IT-17","Station_Nam":"GRAND RAPIDS 6.1 N, MN","Latitude":"47.31165","Longitude":"-93.55036","Snowdepth":"1.000","Units":"in","Rept_Date":"2020-11-15 13"},"coordinates":[829,7402]},{"type":"Point","properties":{"Station_ID":"MN-HN-272","Station_Nam":"RICHFIELD 1.1 WSW, MN","Latitude":"44.87052","Longitude":"-93.30394","Snowdepth":"1.000","Units":"in","Rept_Date":"2020-11-15 13"},"coordinates":[884,5966]},{"type":"Point","properties":{"Station_ID":"MN-HN-241","Station_Nam":"MAPLE GROVE 1.4 WSW, MN","Latitude":"45.10451","Longitude":"-93.48950","Snowdepth":"1.000","Units":"in","Rept_Date":"2020-11-15 13"},"coordinates":[842,6104]},{"type":"Point","properties":{"Station_ID":"MN-DK-73","Station_Nam":"LAKEVILLE 2.6 NNE, MN","Latitude":"44.71250","Longitude":"-93.23043","Snowdepth":"1.000","Units":"in","Rept_Date":"2020-11-15 13"},"coordinates":[901,5873]},{"type":"Point","properties":{"Station_ID":"MN-CK-22","Station_Nam":"GRAND MARAIS 1.8 NE, MN","Latitude":"47.77630","Longitude":"-90.31508","Snowdepth":"1.000","Units":"in","Rept_Date":"2020-11-15 13"},"coordinates":[1557,7675]},{"type":"Point","properties":{"Station_ID":"MN-CK-18","Station_Nam":"GRAND MARAIS 4.4 WSW, MN","Latitude":"47.74462","Longitude":"-90.43796","Snowdepth":"1.000","Units":"in","Rept_Date":"2020-11-15 13"},"coordinates":[1529,7657]},{"type":"Point","properties":{"Station_ID":"MN-CG-16","Station_Nam":"NORTH BRANCH 1.3 NNW, MN","Latitude":"45.53121","Longitude":"-92.97110","Snowdepth":"1.000","Units":"in","Rept_Date":"2020-11-15 12"},"coordinates":[959,6355]},{"type":"Point","properties":{"Station_ID":"MN-BN-13","Station_Nam":"RICE 3.6 E, MN","Latitude":"45.74769","Longitude":"-94.15996","Snowdepth":"1.000","Units":"in","Rept_Date":"2020-11-15 13"},"coordinates":[692,6482]},{"type":"Point","properties":{"Station_ID":"MMLM5","Station_Nam":"DIVERSION","Latitude":"44.47060","Longitude":"-95.80000","Snowdepth":"1.000","Units":"in","Rept_Date":"2020-11-15 14"},"coordinates":[323,5731]},{"type":"Point","properties":{"Station_ID":"MLRM5","Station_Nam":"MELROSE","Latitude":"45.67710","Longitude":"-94.80200","Snowdepth":"1.000","Units":"in","Rept_Date":"2020-11-15 13"},"coordinates":[547,6441]},{"type":"Point","properties":{"Station_ID":"MIAM5","Station_Nam":"MILAN 1NW","Latitude":"45.12190","Longitude":"-95.92690","Snowdepth":"1.000","Units":"in","Rept_Date":"2020-11-16 00"},"coordinates":[294,6114]},{"type":"Point","properties":{"Station_ID":"LBRM5","Station_Nam":"LAKE BRONSON DAM","Latitude":"48.72410","Longitude":"-96.62180","Snowdepth":"1.000","Units":"in","Rept_Date":"2020-11-15 14"},"coordinates":[138,8233]},{"type":"Point","properties":{"Station_ID":"KMWN","Station_Nam":"MOUNT WASHINGTON","Latitude":"44.26666","Longitude":"-71.30000","Snowdepth":"1.000","Units":"in","Rept_Date":"2020-11-16 06"},"coordinates":[5836,5611]},{"type":"Point","properties":{"Station_ID":"KMSP","Station_Nam":"MINNEAPOLIS-ST PAUL INTERNATIONAL","Latitude":"44.86666","Longitude":"-93.21666","Snowdepth":"1.000","Units":"in","Rept_Date":"2020-11-16 06"},"coordinates":[904,5964]},{"type":"Point","properties":{"Station_ID":"KIMM5","Station_Nam":"KIMBALL 3N","Latitude":"45.35330","Longitude":"-94.30560","Snowdepth":"1.000","Units":"in","Rept_Date":"2020-11-15 12"},"coordinates":[659,6250]},{"type":"Point","properties":{"Station_ID":"HUBN3","Station_Nam":"HUBBARD BROOK","Latitude":"43.93330","Longitude":"-71.71670","Snowdepth":"1.000","Units":"in","Rept_Date":"2020-11-16 06"},"coordinates":[5742,5415]},{"type":"Point","properties":{"Station_ID":"HSTM5","Station_Nam":"HASTINGS DAM 2","Latitude":"44.75970","Longitude":"-92.86890","Snowdepth":"1.000","Units":"in","Rept_Date":"2020-11-15 11"},"coordinates":[982,5901]},{"type":"Point","properties":{"Station_ID":"HPN07_MADIS","Station_Nam":"MSP AIRPORT","Latitude":"44.89519","Longitude":"-93.23170","Snowdepth":"1.000","Units":"in","Rept_Date":"2020-11-16 06"},"coordinates":[900,5981]},{"type":"Point","properties":{"Station_ID":"EVYI4","Station_Nam":"EVERLY,IA","Latitude":"43.18330","Longitude":"-95.36670","Snowdepth":"1.000","Units":"in","Rept_Date":"2020-11-15 13"},"coordinates":[420,4974]},{"type":"Point","properties":{"Station_ID":"DWSM5","Station_Nam":"DAWSON","Latitude":"44.93180","Longitude":"-96.04500","Snowdepth":"1.000","Units":"in","Rept_Date":"2020-11-15 13"},"coordinates":[267,6002]},{"type":"Point","properties":{"Station_ID":"CNNS2","Station_Nam":"CANTON","Latitude":"43.31120","Longitude":"-96.58770","Snowdepth":"1.000","Units":"in","Rept_Date":"2020-11-15 13"},"coordinates":[145,5049]}]}},"arcs":[],"transform":{"scale":[0.004444044404440444,0.0017002350235023503],"translate":[-97.2333,34.72625]}}