{"type":"Topology","objects":{"snowdepth_geo":{"type":"GeometryCollection","name":"snowdepth","crs":{"type":"name","properties":{"name":"urn:ogc:def:crs:OGC:1.3:CRS84"}},"geometries":[{"type":"Point","properties":{"Station_ID":"PRKM4","Station_Nam":"MUNISING EAST","Latitude":"46.42580","Longitude":"-86.62000","Snowdepth":"76.500","Units":"in","Rept_Date":"2019-11-13 06"},"coordinates":[3173,6712]},{"type":"Point","properties":{"Station_ID":"OGIQ6","Station_Nam":"OGOKI CAMP","Latitude":"50.76680","Longitude":"-87.85820","Snowdepth":"61.100","Units":"in","Rept_Date":"2019-11-13 06"},"coordinates":[2799,9404]},{"type":"Point","properties":{"Station_ID":"AUDQ6","Station_Nam":"AUDEN","Latitude":"48.52600","Longitude":"-82.57570","Snowdepth":"47.640","Units":"in","Rept_Date":"2019-11-13 06"},"coordinates":[4394,8014]},{"type":"Point","properties":{"Station_ID":"DVLQ6","Station_Nam":"DEVIOUS LAKE","Latitude":"49.19890","Longitude":"-87.76440","Snowdepth":"43.460","Units":"in","Rept_Date":"2019-11-13 06"},"coordinates":[2827,8431]},{"type":"Point","properties":{"Station_ID":"IN-MR-83","Station_Nam":"INDIANAPOLIS 10.9 NW, IN","Latitude":"39.89386","Longitude":"-86.28060","Snowdepth":"33.000","Units":"in","Rept_Date":"2019-11-12 13"},"coordinates":[3275,2661]},{"type":"Point","properties":{"Station_ID":"RANM1","Station_Nam":"RANGELEY,ME","Latitude":"44.96670","Longitude":"-70.65000","Snowdepth":"30.000","Units":"in","Rept_Date":"2019-11-12 11"},"coordinates":[7996,5807]},{"type":"Point","properties":{"Station_ID":"IL-DP-16","Station_Nam":"AURORA 3.6 SE, IL","Latitude":"41.73455","Longitude":"-88.23910","Snowdepth":"30.000","Units":"in","Rept_Date":"2019-11-12 13"},"coordinates":[2684,3802]},{"type":"Point","properties":{"Station_ID":"NPTM4","Station_Nam":"NORTHPORT 2W","Latitude":"45.13220","Longitude":"-85.64720","Snowdepth":"23.000","Units":"in","Rept_Date":"2019-11-12 13"},"coordinates":[3467,5909]},{"type":"Point","properties":{"Station_ID":"PRDM4","Station_Nam":"PARADISE","Latitude":"46.60380","Longitude":"-85.03960","Snowdepth":"21.000","Units":"in","Rept_Date":"2019-11-12 11"},"coordinates":[3650,6822]},{"type":"Point","properties":{"Station_ID":"MAPM4","Station_Nam":"MAPLE CITY 1E","Latitude":"44.85500","Longitude":"-85.83520","Snowdepth":"21.000","Units":"in","Rept_Date":"2019-11-12 23"},"coordinates":[3410,5737]},{"type":"Point","properties":{"Station_ID":"GMSM4","Station_Nam":"GRAND MARAIS 10S","Latitude":"46.50940","Longitude":"-85.96310","Snowdepth":"21.000","Units":"in","Rept_Date":"2019-11-12 12"},"coordinates":[3371,6763]},{"type":"Point","properties":{"Station_ID":"NWFM4","Station_Nam":"NW MICHIGAN RESEARCH FARM","Latitude":"44.88300","Longitude":"-85.67520","Snowdepth":"20.000","Units":"in","Rept_Date":"2019-11-12 13"},"coordinates":[3458,5755]},{"type":"Point","properties":{"Station_ID":"NY-JF-30","Station_Nam":"WEST CARTHAGE 0.3 ENE, NY","Latitude":"43.97493","Longitude":"-75.61640","Snowdepth":"19.000","Units":"in","Rept_Date":"2019-11-12 12"},"coordinates":[6496,5192]},{"type":"Point","properties":{"Station_ID":"IWOM4","Station_Nam":"IRONWOOD#2","Latitude":"46.46520","Longitude":"-90.13820","Snowdepth":"17.000","Units":"in","Rept_Date":"2019-11-12 13"},"coordinates":[2110,6736]},{"type":"Point","properties":{"Station_ID":"41.6972_080.9056","Station_Nam":"3 ENE Trumbull  Trained Spotter (CLE1480)","Latitude":"41.69720","Longitude":"-80.90557","Snowdepth":"16.000","Units":"in","Rept_Date":"2019-11-12 22"},"coordinates":[4899,3779]},{"type":"Point","properties":{"Station_ID":"MFU","Station_Nam":"MFU","Latitude":"51.52170","Longitude":"-66.91110","Snowdepth":"15.354","Units":"in","Rept_Date":"2019-11-12 12"},"coordinates":[9125,9872]},{"type":"Point","properties":{"Station_ID":"QGD","Station_Nam":"QGD","Latitude":"51.11140","Longitude":"-67.13940","Snowdepth":"15.118","Units":"in","Rept_Date":"2019-11-12 12"},"coordinates":[9056,9617]},{"type":"Point","properties":{"Station_ID":"IN-JH-26","Station_Nam":"FRANKLIN 2.0 NW, IN","Latitude":"39.51595","Longitude":"-86.07718","Snowdepth":"15.000","Units":"in","Rept_Date":"2019-11-12 13"},"coordinates":[3337,2427]},{"type":"Point","properties":{"Station_ID":"GMMM4","Station_Nam":"GRAND MARAIS #2","Latitude":"46.66090","Longitude":"-85.95760","Snowdepth":"15.000","Units":"in","Rept_Date":"2019-11-12 12"},"coordinates":[3373,6857]},{"type":"Point","properties":{"Station_ID":"QOU","Station_Nam":"QOU","Latitude":"50.79250","Longitude":"-69.67470","Snowdepth":"14.331","Units":"in","Rept_Date":"2019-11-12 12"},"coordinates":[8291,9420]},{"type":"Point","properties":{"Station_ID":"LEXM4","Station_Nam":"LEXINGTON WATER PLANT","Latitude":"43.26310","Longitude":"-82.53280","Snowdepth":"14.000","Units":"in","Rept_Date":"2019-11-12 13"},"coordinates":[4407,4750]},{"type":"Point","properties":{"Station_ID":"41.6346_080.6614","Station_Nam":"1 E DORSET  SNOW SPOTTER (CLE1453)","Latitude":"41.63460","Longitude":"-80.66140","Snowdepth":"14.000","Units":"in","Rept_Date":"2019-11-12 23"},"coordinates":[4972,3740]},{"type":"Point","properties":{"Station_ID":"IN-EL-57","Station_Nam":"GOSHEN 2.8 NW, IN","Latitude":"41.60298","Longitude":"-85.87781","Snowdepth":"13.700","Units":"in","Rept_Date":"2019-11-12 14"},"coordinates":[3397,3721]},{"type":"Point","properties":{"Station_ID":"41.7413_080.7594","Station_Nam":"JEFFERSON  SNOW SPOTTER (X4170808)","Latitude":"41.74130","Longitude":"-80.75940","Snowdepth":"13.000","Units":"in","Rept_Date":"2019-11-12 22"},"coordinates":[4943,3807]},{"type":"Point","properties":{"Station_ID":"MI-OK-121","Station_Nam":"LAKE ORION 1.1 ENE, MI","Latitude":"42.78680","Longitude":"-83.22323","Snowdepth":"12.600","Units":"in","Rept_Date":"2019-11-12 11"},"coordinates":[4199,4455]},{"type":"Point","properties":{"Station_ID":"QMA","Station_Nam":"QMA","Latitude":"50.10330","Longitude":"-70.47190","Snowdepth":"12.598","Units":"in","Rept_Date":"2019-11-12 12"},"coordinates":[8050,8992]},{"type":"Point","properties":{"Station_ID":"QGO","Station_Nam":"QGO","Latitude":"48.85500","Longitude":"-74.20640","Snowdepth":"12.008","Units":"in","Rept_Date":"2019-11-12 12"},"coordinates":[6922,8218]},{"type":"Point","properties":{"Station_ID":"SCOM4","Station_Nam":"SCOTTVILLE 2 SE","Latitude":"43.93310","Longitude":"-86.24530","Snowdepth":"12.000","Units":"in","Rept_Date":"2019-11-12 12"},"coordinates":[3286,5166]},{"type":"Point","properties":{"Station_ID":"NY-ER-164","Station_Nam":"AKRON 0.9 NE, NY","Latitude":"43.02860","Longitude":"-78.48360","Snowdepth":"12.000","Units":"in","Rept_Date":"2019-11-12 13"},"coordinates":[5630,4605]},{"type":"Point","properties":{"Station_ID":"MI-BZ-1","Station_Nam":"BENZONIA 5.3 S, MI","Latitude":"44.53976","Longitude":"-86.10650","Snowdepth":"12.000","Units":"in","Rept_Date":"2019-11-12 13"},"coordinates":[3328,5542]},{"type":"Point","properties":{"Station_ID":"KSGM4","Station_Nam":"KEARSARGE","Latitude":"47.27520","Longitude":"-88.41700","Snowdepth":"12.000","Units":"in","Rept_Date":"2019-11-12 13"},"coordinates":[2630,7238]},{"type":"Point","properties":{"Station_ID":"CEFM4","Station_Nam":"EXPERIMENT FARM #2","Latitude":"46.33330","Longitude":"-86.91670","Snowdepth":"12.000","Units":"in","Rept_Date":"2019-11-12 13"},"coordinates":[3083,6654]},{"type":"Point","properties":{"Station_ID":"41.7300_080.9476","Station_Nam":"GENEVA 7S  SNOW SPOTTER (X4170809)","Latitude":"41.73000","Longitude":"-80.94760","Snowdepth":"12.000","Units":"in","Rept_Date":"2019-11-12 23"},"coordinates":[4886,3800]},{"type":"Point","properties":{"Station_ID":"41.7115_081.0271","Station_Nam":"SOUTH MADISON (CLE1233)","Latitude":"41.71150","Longitude":"-81.02710","Snowdepth":"12.000","Units":"in","Rept_Date":"2019-11-12 22"},"coordinates":[4862,3788]},{"type":"Point","properties":{"Station_ID":"41.6440_081.0900","Station_Nam":"THOMPSON 5SW  SNOW SPOTTER (CLE1329)","Latitude":"41.64400","Longitude":"-81.09000","Snowdepth":"12.000","Units":"in","Rept_Date":"2019-11-12 23"},"coordinates":[4843,3746]},{"type":"Point","properties":{"Station_ID":"41.5909_081.0473","Station_Nam":"MONTVILLE (CLE1322)","Latitude":"41.59090","Longitude":"-81.04730","Snowdepth":"12.000","Units":"in","Rept_Date":"2019-11-12 23"},"coordinates":[4856,3713]},{"type":"Point","properties":{"Station_ID":"MI-OK-87","Station_Nam":"ORTONVILLE 2.3 S, MI","Latitude":"42.81873","Longitude":"-83.44310","Snowdepth":"11.900","Units":"in","Rept_Date":"2019-11-12 12"},"coordinates":[4132,4475]},{"type":"Point","properties":{"Station_ID":"QMD","Station_Nam":"QMD","Latitude":"49.29060","Longitude":"-75.84500","Snowdepth":"11.063","Units":"in","Rept_Date":"2019-11-12 12"},"coordinates":[6427,8488]},{"type":"Point","properties":{"Station_ID":"NY-NG-12","Station_Nam":"LOCKPORT 0.8 NE, NY","Latitude":"43.17645","Longitude":"-78.68340","Snowdepth":"11.000","Units":"in","Rept_Date":"2019-11-12 12"},"coordinates":[5570,4697]},{"type":"Point","properties":{"Station_ID":"MNSM4","Station_Nam":"MUNISING","Latitude":"46.41210","Longitude":"-86.66250","Snowdepth":"11.000","Units":"in","Rept_Date":"2019-11-12 11"},"coordinates":[3160,6703]},{"type":"Point","properties":{"Station_ID":"MI-OK-94","Station_Nam":"FARMINGTON HILLS 1.4 N, MI","Latitude":"42.50660","Longitude":"-83.37910","Snowdepth":"11.000","Units":"in","Rept_Date":"2019-11-12 12"},"coordinates":[4152,4281]},{"type":"Point","properties":{"Station_ID":"MI-OK-119","Station_Nam":"WIXOM 2.0 NNW, MI","Latitude":"42.55078","Longitude":"-83.55132","Snowdepth":"11.000","Units":"in","Rept_Date":"2019-11-12 12"},"coordinates":[4100,4309]},{"type":"Point","properties":{"Station_ID":"MI-HG-18","Station_Nam":"CALUMET 0.7 W (TAMARACK), MI","Latitude":"47.24560","Longitude":"-88.46791","Snowdepth":"11.000","Units":"in","Rept_Date":"2019-11-12 13"},"coordinates":[2615,7220]},{"type":"Point","properties":{"Station_ID":"KTVC","Station_Nam":"CHERRY CAPITAL AIRPORT","Latitude":"44.73333","Longitude":"-85.56666","Snowdepth":"11.000","Units":"in","Rept_Date":"2019-11-13 00"},"coordinates":[3491,5662]},{"type":"Point","properties":{"Station_ID":"KROC","Station_Nam":"GREATER ROCHESTER INTERNATIONAL","Latitude":"43.11666","Longitude":"-77.68333","Snowdepth":"11.000","Units":"in","Rept_Date":"2019-11-13 06"},"coordinates":[5872,4659]},{"type":"Point","properties":{"Station_ID":"IRMM4","Station_Nam":"WWTP","Latitude":"46.46670","Longitude":"-90.18330","Snowdepth":"11.000","Units":"in","Rept_Date":"2019-11-12 13"},"coordinates":[2096,6737]},{"type":"Point","properties":{"Station_ID":"HRSM4","Station_Nam":"HARRISVILLE 2NNE","Latitude":"44.68190","Longitude":"-83.28080","Snowdepth":"11.000","Units":"in","Rept_Date":"2019-11-12 13"},"coordinates":[4181,5630]},{"type":"Point","properties":{"Station_ID":"BDAM4","Station_Nam":"BAD AXE,MI","Latitude":"43.81670","Longitude":"-83.00000","Snowdepth":"11.000","Units":"in","Rept_Date":"2019-11-12 12"},"coordinates":[4266,5094]},{"type":"Point","properties":{"Station_ID":"AVLV1","Station_Nam":"AVERILL","Latitude":"45.00570","Longitude":"-71.69030","Snowdepth":"11.000","Units":"in","Rept_Date":"2019-11-12 13"},"coordinates":[7682,5831]},{"type":"Point","properties":{"Station_ID":"41.7396_080.5416","Station_Nam":"PIERPONT 2SE (CLE1412)","Latitude":"41.73960","Longitude":"-80.54160","Snowdepth":"11.000","Units":"in","Rept_Date":"2019-11-13 01"},"coordinates":[5009,3805]},{"type":"Point","properties":{"Station_ID":"41.7260_080.9910","Station_Nam":"3 E South Madison  Trained Spotter (CLE1474)","Latitude":"41.72602","Longitude":"-80.99102","Snowdepth":"11.000","Units":"in","Rept_Date":"2019-11-13 01"},"coordinates":[4873,3797]},{"type":"Point","properties":{"Station_ID":"41.3151_081.1434","Station_Nam":"HIRAM (CLE2220)","Latitude":"41.31510","Longitude":"-81.14340","Snowdepth":"11.000","Units":"in","Rept_Date":"2019-11-13 02"},"coordinates":[4827,3542]},{"type":"Point","properties":{"Station_ID":"NY-SL-6","Station_Nam":"HANNAWA FALLS 0.1 SW, NY","Latitude":"44.61154","Longitude":"-74.97190","Snowdepth":"10.500","Units":"in","Rept_Date":"2019-11-12 12"},"coordinates":[6691,5586]},{"type":"Point","properties":{"Station_ID":"NY-ER-177","Station_Nam":"CLARENCE 3.8 SSW, NY","Latitude":"42.96084","Longitude":"-78.66569","Snowdepth":"10.500","Units":"in","Rept_Date":"2019-11-12 12"},"coordinates":[5575,4563]},{"type":"Point","properties":{"Station_ID":"MI-HR-1","Station_Nam":"BAD AXE 6.3 SSW, MI","Latitude":"43.72262","Longitude":"-83.05730","Snowdepth":"10.500","Units":"in","Rept_Date":"2019-11-12 12"},"coordinates":[4249,5035]},{"type":"Point","properties":{"Station_ID":"NY-ER-123","Station_Nam":"CLARENCE CENTER 5.2 WNW, NY","Latitude":"43.04554","Longitude":"-78.72150","Snowdepth":"10.100","Units":"in","Rept_Date":"2019-11-12 12"},"coordinates":[5558,4615]},{"type":"Point","properties":{"Station_ID":"PRGN6","Station_Nam":"PERRYSBURG","Latitude":"42.46470","Longitude":"-79.00310","Snowdepth":"10.000","Units":"in","Rept_Date":"2019-11-12 12"},"coordinates":[5473,4255]},{"type":"Point","properties":{"Station_ID":"PDLM4","Station_Nam":"PAINESDALE","Latitude":"47.04160","Longitude":"-88.67170","Snowdepth":"10.000","Units":"in","Rept_Date":"2019-11-12 13"},"coordinates":[2553,7093]},{"type":"Point","properties":{"Station_ID":"NY-ER-66","Station_Nam":"EAST AURORA 1.0 ESE, NY","Latitude":"42.76450","Longitude":"-78.59800","Snowdepth":"10.000","Units":"in","Rept_Date":"2019-11-12 12"},"coordinates":[5596,4441]},{"type":"Point","properties":{"Station_ID":"NY-ER-59","Station_Nam":"KENMORE 0.3 ESE, NY","Latitude":"42.96316","Longitude":"-78.86690","Snowdepth":"10.000","Units":"in","Rept_Date":"2019-11-12 12"},"coordinates":[5514,4564]},{"type":"Point","properties":{"Station_ID":"NY-ER-178","Station_Nam":"WEST SENECA 2.5 SE, NY","Latitude":"42.81374","Longitude":"-78.71399","Snowdepth":"10.000","Units":"in","Rept_Date":"2019-11-12 12"},"coordinates":[5561,4472]},{"type":"Point","properties":{"Station_ID":"NY-ER-102","Station_Nam":"CHEEKTOWAGA 2.7 NE, NY","Latitude":"42.94119","Longitude":"-78.71933","Snowdepth":"10.000","Units":"in","Rept_Date":"2019-11-12 12"},"coordinates":[5559,4551]},{"type":"Point","properties":{"Station_ID":"MI-SC-3","Station_Nam":"PORT HURON 1.6 W, MI","Latitude":"42.99617","Longitude":"-82.46430","Snowdepth":"10.000","Units":"in","Rept_Date":"2019-11-12 12"},"coordinates":[4428,4585]},{"type":"Point","properties":{"Station_ID":"MI-OK-46","Station_Nam":"ORCHARD LAKE VILLAGE 0.9 WSW, MI","Latitude":"42.57735","Longitude":"-83.39420","Snowdepth":"10.000","Units":"in","Rept_Date":"2019-11-12 13"},"coordinates":[4147,4325]},{"type":"Point","properties":{"Station_ID":"MI-JC-24","Station_Nam":"GRASS LAKE 1.7 NNE, MI","Latitude":"42.27360","Longitude":"-84.20119","Snowdepth":"10.000","Units":"in","Rept_Date":"2019-11-12 12"},"coordinates":[3903,4137]},{"type":"Point","properties":{"Station_ID":"MI-HG-11","Station_Nam":"HOUGHTON 3.0 SSW, MI","Latitude":"47.07704","Longitude":"-88.59680","Snowdepth":"10.000","Units":"in","Rept_Date":"2019-11-12 13"},"coordinates":[2576,7115]},{"type":"Point","properties":{"Station_ID":"MALN6","Station_Nam":"MALONE","Latitude":"44.84180","Longitude":"-74.30600","Snowdepth":"10.000","Units":"in","Rept_Date":"2019-11-12 12"},"coordinates":[6892,5729]},{"type":"Point","properties":{"Station_ID":"IN-EL-59","Station_Nam":"GOSHEN 1.2 SW, IN","Latitude":"41.56898","Longitude":"-85.85356","Snowdepth":"10.000","Units":"in","Rept_Date":"2019-11-12 12"},"coordinates":[3404,3700]},{"type":"Point","properties":{"Station_ID":"HURW3","Station_Nam":"HURLEY","Latitude":"46.46250","Longitude":"-90.19550","Snowdepth":"10.000","Units":"in","Rept_Date":"2019-11-12 14"},"coordinates":[2093,6734]},{"type":"Point","properties":{"Station_ID":"FLAM4","Station_Nam":"FIFE LAKE 2WNW","Latitude":"44.58480","Longitude":"-85.36530","Snowdepth":"10.000","Units":"in","Rept_Date":"2019-11-12 12"},"coordinates":[3552,5570]},{"type":"Point","properties":{"Station_ID":"BRKN6","Station_Nam":"BROCKPORT","Latitude":"43.21600","Longitude":"-77.95290","Snowdepth":"10.000","Units":"in","Rept_Date":"2019-11-12 14"},"coordinates":[5790,4721]},{"type":"Point","properties":{"Station_ID":"ARBM4","Station_Nam":"UNIV OF MICH","Latitude":"42.30000","Longitude":"-83.71670","Snowdepth":"10.000","Units":"in","Rept_Date":"2019-11-12 23"},"coordinates":[4050,4153]},{"type":"Point","properties":{"Station_ID":"41.4659_081.0677","Station_Nam":"1 NE Middlefield  Trained Spotter (X4150811)","Latitude":"41.46585","Longitude":"-81.06772","Snowdepth":"10.000","Units":"in","Rept_Date":"2019-11-12 23"},"coordinates":[4850,3636]},{"type":"Point","properties":{"Station_ID":"MI-MB-54","Station_Nam":"UTICA 2.9 E, MI","Latitude":"42.63518","Longitude":"-82.96528","Snowdepth":"9.900","Units":"in","Rept_Date":"2019-11-12 12"},"coordinates":[4277,4361]},{"type":"Point","properties":{"Station_ID":"NY-ER-138","Station_Nam":"EAST AURORA 3.4 NNE, NY","Latitude":"42.81400","Longitude":"-78.59670","Snowdepth":"9.800","Units":"in","Rept_Date":"2019-11-12 12"},"coordinates":[5596,4472]},{"type":"Point","properties":{"Station_ID":"NY-ER-96","Station_Nam":"ELMA 2.7 WSW, NY","Latitude":"42.81004","Longitude":"-78.68130","Snowdepth":"9.600","Units":"in","Rept_Date":"2019-11-12 12"},"coordinates":[5570,4469]},{"type":"Point","properties":{"Station_ID":"MI-WS-3","Station_Nam":"PLYMOUTH 5.4 W, MI","Latitude":"42.38279","Longitude":"-83.57120","Snowdepth":"9.600","Units":"in","Rept_Date":"2019-11-12 12"},"coordinates":[4094,4204]},{"type":"Point","properties":{"Station_ID":"WI-IR-3","Station_Nam":"PENCE 0.1 E, WI","Latitude":"46.41555","Longitude":"-90.27013","Snowdepth":"9.500","Units":"in","Rept_Date":"2019-11-12 13"},"coordinates":[2070,6705]},{"type":"Point","properties":{"Station_ID":"NY-MR-23","Station_Nam":"ROCHESTER 5.0 WNW, NY","Latitude":"43.20356","Longitude":"-77.70310","Snowdepth":"9.500","Units":"in","Rept_Date":"2019-11-12 12"},"coordinates":[5866,4713]},{"type":"Point","properties":{"Station_ID":"MI-WS-41","Station_Nam":"ANN ARBOR 7.1 W, MI","Latitude":"42.26390","Longitude":"-83.86940","Snowdepth":"9.500","Units":"in","Rept_Date":"2019-11-12 12"},"coordinates":[4003,4131]},{"type":"Point","properties":{"Station_ID":"MI-VB-13","Station_Nam":"PAW PAW 2.0 NE, MI","Latitude":"42.23743","Longitude":"-85.86171","Snowdepth":"9.500","Units":"in","Rept_Date":"2019-11-12 12"},"coordinates":[3402,4114]},{"type":"Point","properties":{"Station_ID":"MI-MB-55","Station_Nam":"FRASER 1.2 N, MI","Latitude":"42.55697","Longitude":"-82.94938","Snowdepth":"9.500","Units":"in","Rept_Date":"2019-11-12 12"},"coordinates":[4281,4312]},{"type":"Point","properties":{"Station_ID":"MI-AN-20","Station_Nam":"HOLLAND 5.3 WSW, MI","Latitude":"42.74900","Longitude":"-86.20200","Snowdepth":"9.500","Units":"in","Rept_Date":"2019-11-12 13"},"coordinates":[3299,4431]},{"type":"Point","properties":{"Station_ID":"NY-ER-54","Station_Nam":"EAST AMHERST 1.2 WNW, NY","Latitude":"43.02250","Longitude":"-78.71900","Snowdepth":"9.200","Units":"in","Rept_Date":"2019-11-12 12"},"coordinates":[5559,4601]},{"type":"Point","properties":{"Station_ID":"NY-ER-158","Station_Nam":"EAST AURORA 2.7 SSE, NY","Latitude":"42.72936","Longitude":"-78.60561","Snowdepth":"9.200","Units":"in","Rept_Date":"2019-11-12 15"},"coordinates":[5593,4419]},{"type":"Point","properties":{"Station_ID":"CAN-ON-9","Station_Nam":"WINDSOR 1.7 SE, CAN","Latitude":"42.28448","Longitude":"-83.03456","Snowdepth":"9.100","Units":"in","Rept_Date":"2019-11-12 12"},"coordinates":[4256,4143]},{"type":"Point","properties":{"Station_ID":"SBNN6","Station_Nam":"SANBORN","Latitude":"43.17050","Longitude":"-78.81810","Snowdepth":"9.000","Units":"in","Rept_Date":"2019-11-12 12"},"coordinates":[5529,4693]},{"type":"Point","properties":{"Station_ID":"RICM4","Station_Nam":"RICHMOND 4 NNW","Latitude":"42.87830","Longitude":"-82.79580","Snowdepth":"9.000","Units":"in","Rept_Date":"2019-11-12 10"},"coordinates":[4328,4512]},{"type":"Point","properties":{"Station_ID":"NY-GN-6","Station_Nam":"STAFFORD 1.8 NE, NY","Latitude":"42.99890","Longitude":"-78.04830","Snowdepth":"9.000","Units":"in","Rept_Date":"2019-11-12 10"},"coordinates":[5762,4586]},{"type":"Point","properties":{"Station_ID":"NY-ER-72","Station_Nam":"TONAWANDA 3.1 NE, NY","Latitude":"43.01368","Longitude":"-78.82960","Snowdepth":"9.000","Units":"in","Rept_Date":"2019-11-12 13"},"coordinates":[5526,4596]},{"type":"Point","properties":{"Station_ID":"NY-CQ-9","Station_Nam":"DUNKIRK 0.7 SW, NY","Latitude":"42.47167","Longitude":"-79.33360","Snowdepth":"9.000","Units":"in","Rept_Date":"2019-11-12 12"},"coordinates":[5373,4259]},{"type":"Point","properties":{"Station_ID":"MI-WS-42","Station_Nam":"ANN ARBOR 4.5 W, MI","Latitude":"42.27814","Longitude":"-83.81884","Snowdepth":"9.000","Units":"in","Rept_Date":"2019-11-12 12"},"coordinates":[4019,4139]},{"type":"Point","properties":{"Station_ID":"MI-OK-112","Station_Nam":"TROY 2.8 W, MI","Latitude":"42.57358","Longitude":"-83.19643","Snowdepth":"9.000","Units":"in","Rept_Date":"2019-11-12 12"},"coordinates":[4207,4323]},{"type":"Point","properties":{"Station_ID":"MI-OK-109","Station_Nam":"HIGHLAND 1.3 NE, MI","Latitude":"42.67877","Longitude":"-83.59361","Snowdepth":"9.000","Units":"in","Rept_Date":"2019-11-12 12"},"coordinates":[4087,4388]},{"type":"Point","properties":{"Station_ID":"MI-JC-10","Station_Nam":"HANOVER 4.1 E, MI","Latitude":"42.09263","Longitude":"-84.47292","Snowdepth":"9.000","Units":"in","Rept_Date":"2019-11-12 14"},"coordinates":[3821,4024]},{"type":"Point","properties":{"Station_ID":"MEDN6","Station_Nam":"MEDINA","Latitude":"43.20930","Longitude":"-78.38940","Snowdepth":"9.000","Units":"in","Rept_Date":"2019-11-12 11"},"coordinates":[5659,4717]},{"type":"Point","properties":{"Station_ID":"MCHM4","Station_Nam":"MANCHESTER,MI","Latitude":"42.15000","Longitude":"-84.01670","Snowdepth":"9.000","Units":"in","Rept_Date":"2019-11-12 12"},"coordinates":[3959,4060]},{"type":"Point","properties":{"Station_ID":"LPTN6","Station_Nam":"LOCKPORT","Latitude":"43.18760","Longitude":"-78.60910","Snowdepth":"9.000","Units":"in","Rept_Date":"2019-11-13 00"},"coordinates":[5592,4703]},{"type":"Point","properties":{"Station_ID":"LERN6","Station_Nam":"LE ROY 1E","Latitude":"42.97360","Longitude":"-77.96710","Snowdepth":"9.000","Units":"in","Rept_Date":"2019-11-12 12"},"coordinates":[5786,4571]},{"type":"Point","properties":{"Station_ID":"KBUF","Station_Nam":"GREATER BUFFALO INTERNATIONAL  AIRPORT","Latitude":"42.93333","Longitude":"-78.73333","Snowdepth":"9.000","Units":"in","Rept_Date":"2019-11-13 06"},"coordinates":[5555,4546]},{"type":"Point","properties":{"Station_ID":"GPFM4","Station_Nam":"GROSSE POINTE FARMS,MI","Latitude":"42.38330","Longitude":"-82.90000","Snowdepth":"9.000","Units":"in","Rept_Date":"2019-11-12 13"},"coordinates":[4296,4205]},{"type":"Point","properties":{"Station_ID":"GNLM4","Station_Nam":"GREENLAND 6N","Latitude":"46.87360","Longitude":"-89.10060","Snowdepth":"9.000","Units":"in","Rept_Date":"2019-11-12 13"},"coordinates":[2423,6989]},{"type":"Point","properties":{"Station_ID":"DKKN6","Station_Nam":"DUNKIRK 1S","Latitude":"42.47170","Longitude":"-79.33360","Snowdepth":"9.000","Units":"in","Rept_Date":"2019-11-12 12"},"coordinates":[5373,4259]},{"type":"Point","properties":{"Station_ID":"CHLM4","Station_Nam":"CHELSEA,MI","Latitude":"42.31670","Longitude":"-84.01670","Snowdepth":"9.000","Units":"in","Rept_Date":"2019-11-12 14"},"coordinates":[3959,4163]},{"type":"Point","properties":{"Station_ID":"BUNM4","Station_Nam":"BURTON 4N","Latitude":"43.06750","Longitude":"-83.59190","Snowdepth":"9.000","Units":"in","Rept_Date":"2019-11-12 12"},"coordinates":[4087,4629]},{"type":"Point","properties":{"Station_ID":"BUF","Station_Nam":"BUFFALO, NY","Latitude":"42.94140","Longitude":"-78.71920","Snowdepth":"9.000","Units":"in","Rept_Date":"2019-11-13 00"},"coordinates":[5559,4551]},{"type":"Point","properties":{"Station_ID":"BEUM4","Station_Nam":"BEULAH 7SSW","Latitude":"44.53160","Longitude":"-86.13110","Snowdepth":"9.000","Units":"in","Rept_Date":"2019-11-12 13"},"coordinates":[3320,5537]},{"type":"Point","properties":{"Station_ID":"ATAN6","Station_Nam":"ATTICA 7 SW","Latitude":"42.81070","Longitude":"-78.39790","Snowdepth":"9.000","Units":"in","Rept_Date":"2019-11-12 11"},"coordinates":[5656,4470]},{"type":"Point","properties":{"Station_ID":"AASM4","Station_Nam":"ANN ARBOR SE","Latitude":"42.24160","Longitude":"-83.69330","Snowdepth":"9.000","Units":"in","Rept_Date":"2019-11-12 12"},"coordinates":[4057,4117]},{"type":"Point","properties":{"Station_ID":"42.1284_079.8945","Station_Nam":"NORTHEAST 6SW (CLE0249)","Latitude":"42.12840","Longitude":"-79.89450","Snowdepth":"9.000","Units":"in","Rept_Date":"2019-11-13 00"},"coordinates":[5204,4047]},{"type":"Point","properties":{"Station_ID":"NY-MR-71","Station_Nam":"ROCHESTER 4.7 NE, NY","Latitude":"43.21668","Longitude":"-77.55016","Snowdepth":"8.900","Units":"in","Rept_Date":"2019-11-12 12"},"coordinates":[5912,4721]},{"type":"Point","properties":{"Station_ID":"CAN-ON-613","Station_Nam":"WINDSOR 6.5 E, CAN","Latitude":"42.29988","Longitude":"-82.97274","Snowdepth":"8.900","Units":"in","Rept_Date":"2019-11-12 13"},"coordinates":[4274,4153]},{"type":"Point","properties":{"Station_ID":"CAN-ON-452","Station_Nam":"CHATSWORTH 1.8 ENE - GSCA, CAN","Latitude":"44.46118","Longitude":"-80.87506","Snowdepth":"8.900","Units":"in","Rept_Date":"2019-11-12 12"},"coordinates":[4908,5493]},{"type":"Point","properties":{"Station_ID":"MI-WY-43","Station_Nam":"DEARBORN HEIGHTS 1.8 NW, MI","Latitude":"42.34196","Longitude":"-83.30210","Snowdepth":"8.800","Units":"in","Rept_Date":"2019-11-12 12"},"coordinates":[4175,4179]},{"type":"Point","properties":{"Station_ID":"CAN-QC-16","Station_Nam":"SAINT-ARMAND 3.6 W, CAN","Latitude":"45.02631","Longitude":"-73.08795","Snowdepth":"8.700","Units":"in","Rept_Date":"2019-11-12 12"},"coordinates":[7260,5844]},{"type":"Point","properties":{"Station_ID":"QCX","Station_Nam":"QCX","Latitude":"51.32830","Longitude":"-70.08060","Snowdepth":"8.661","Units":"in","Rept_Date":"2019-11-12 12"},"coordinates":[8168,9752]},{"type":"Point","properties":{"Station_ID":"MLZ","Station_Nam":"MLZ","Latitude":"50.66170","Longitude":"-68.82360","Snowdepth":"8.543","Units":"in","Rept_Date":"2019-11-12 12"},"coordinates":[8548,9338]},{"type":"Point","properties":{"Station_ID":"QCU","Station_Nam":"QCU","Latitude":"47.82750","Longitude":"-76.59830","Snowdepth":"8.504","Units":"in","Rept_Date":"2019-11-12 12"},"coordinates":[6200,7581]},{"type":"Point","properties":{"Station_ID":"VT-CH-3","Station_Nam":"CHARLOTTE 2.9 NNE, VT","Latitude":"44.34919","Longitude":"-73.24440","Snowdepth":"8.500","Units":"in","Rept_Date":"2019-11-12 15"},"coordinates":[7213,5424]},{"type":"Point","properties":{"Station_ID":"NY-ES-7","Station_Nam":"KEESEVILLE 0.8 SE, NY","Latitude":"44.49504","Longitude":"-73.47109","Snowdepth":"8.500","Units":"in","Rept_Date":"2019-11-12 12"},"coordinates":[7144,5514]},{"type":"Point","properties":{"Station_ID":"NY-ER-77","Station_Nam":"COLDEN 2.4 ENE, NY","Latitude":"42.65088","Longitude":"-78.61060","Snowdepth":"8.500","Units":"in","Rept_Date":"2019-11-12 13"},"coordinates":[5592,4371]},{"type":"Point","properties":{"Station_ID":"NY-ER-60","Station_Nam":"BLASDELL 1.5 SSW, NY","Latitude":"42.77657","Longitude":"-78.84440","Snowdepth":"8.500","Units":"in","Rept_Date":"2019-11-12 12"},"coordinates":[5521,4449]},{"type":"Point","properties":{"Station_ID":"NY-ER-50","Station_Nam":"EAST AURORA 0.1 ENE, NY","Latitude":"42.76750","Longitude":"-78.61580","Snowdepth":"8.500","Units":"in","Rept_Date":"2019-11-12 13"},"coordinates":[5590,4443]},{"type":"Point","properties":{"Station_ID":"MI-VB-4","Station_Nam":"PAW PAW 3.6 NNE, MI","Latitude":"42.26582","Longitude":"-85.86190","Snowdepth":"8.500","Units":"in","Rept_Date":"2019-11-12 12"},"coordinates":[3402,4132]},{"type":"Point","properties":{"Station_ID":"MI-OK-77","Station_Nam":"WHITE LAKE 0.5 E, MI","Latitude":"42.69242","Longitude":"-83.54550","Snowdepth":"8.500","Units":"in","Rept_Date":"2019-11-12 13"},"coordinates":[4101,4396]},{"type":"Point","properties":{"Station_ID":"MI-MB-7","Station_Nam":"SHELBY 0.4 SSE, MI","Latitude":"42.66594","Longitude":"-83.02870","Snowdepth":"8.500","Units":"in","Rept_Date":"2019-11-12 12"},"coordinates":[4257,4380]},{"type":"Point","properties":{"Station_ID":"MI-LV-26","Station_Nam":"FENTON 6.2 WSW, MI","Latitude":"42.76832","Longitude":"-83.82928","Snowdepth":"8.500","Units":"in","Rept_Date":"2019-11-12 13"},"coordinates":[4016,4443]},{"type":"Point","properties":{"Station_ID":"MI-JC-13","Station_Nam":"HANOVER 3.8 W, MI","Latitude":"42.10700","Longitude":"-84.62600","Snowdepth":"8.500","Units":"in","Rept_Date":"2019-11-12 13"},"coordinates":[3775,4033]},{"type":"Point","properties":{"Station_ID":"MI-HL-1","Station_Nam":"LITCHFIELD 0.3 ENE, MI","Latitude":"42.04528","Longitude":"-84.75310","Snowdepth":"8.500","Units":"in","Rept_Date":"2019-11-12 12"},"coordinates":[3737,3995]},{"type":"Point","properties":{"Station_ID":"MI-BN-5","Station_Nam":"BUCHANAN 1.3 WNW, MI","Latitude":"41.83634","Longitude":"-86.38900","Snowdepth":"8.500","Units":"in","Rept_Date":"2019-11-12 13"},"coordinates":[3242,3865]},{"type":"Point","properties":{"Station_ID":"CAN-ON-322","Station_Nam":"WINDSOR 4.0 NE, CAN","Latitude":"42.31785","Longitude":"-83.01522","Snowdepth":"8.500","Units":"in","Rept_Date":"2019-11-12 12"},"coordinates":[4261,4164]},{"type":"Point","properties":{"Station_ID":"41.5891_081.2067","Station_Nam":"CHARDON  SNOW SPOTTER (CLE1332)","Latitude":"41.58910","Longitude":"-81.20670","Snowdepth":"8.500","Units":"in","Rept_Date":"2019-11-12 14"},"coordinates":[4808,3712]},{"type":"Point","properties":{"Station_ID":"QTM","Station_Nam":"QTM","Latitude":"51.05780","Longitude":"-72.57190","Snowdepth":"8.071","Units":"in","Rept_Date":"2019-11-12 12"},"coordinates":[7416,9584]},{"type":"Point","properties":{"Station_ID":"YGTN6","Station_Nam":"YOUNGSTOWN 2NE","Latitude":"43.26820","Longitude":"-79.01020","Snowdepth":"8.000","Units":"in","Rept_Date":"2019-11-12 12"},"coordinates":[5471,4753]},{"type":"Point","properties":{"Station_ID":"YALM4","Station_Nam":"YALE,MI","Latitude":"43.15000","Longitude":"-82.80000","Snowdepth":"8.000","Units":"in","Rept_Date":"2019-11-12 12"},"coordinates":[4326,4680]},{"type":"Point","properties":{"Station_ID":"WYTM4","Station_Nam":"WYANDOTTE","Latitude":"42.20110","Longitude":"-83.16830","Snowdepth":"8.000","Units":"in","Rept_Date":"2019-11-12 13"},"coordinates":[4215,4092]},{"type":"Point","properties":{"Station_ID":"WYON6","Station_Nam":"WYOMING 3W","Latitude":"42.81750","Longitude":"-78.14810","Snowdepth":"8.000","Units":"in","Rept_Date":"2019-11-12 12"},"coordinates":[5731,4474]},{"type":"Point","properties":{"Station_ID":"WLSN6","Station_Nam":"WALES","Latitude":"42.73920","Longitude":"-78.58780","Snowdepth":"8.000","Units":"in","Rept_Date":"2019-11-12 12"},"coordinates":[5599,4425]},{"type":"Point","properties":{"Station_ID":"WHKM4","Station_Nam":"WHITE LAKE,MI","Latitude":"42.69750","Longitude":"-83.47220","Snowdepth":"8.000","Units":"in","Rept_Date":"2019-11-13 06"},"coordinates":[4123,4400]},{"type":"Point","properties":{"Station_ID":"WBSN6","Station_Nam":"WEBSTER 2 NE","Latitude":"43.24190","Longitude":"-77.38810","Snowdepth":"8.000","Units":"in","Rept_Date":"2019-11-13 01"},"coordinates":[5961,4737]},{"type":"Point","properties":{"Station_ID":"TCMM4","Station_Nam":"TRAVERSE CITY MUNSON","Latitude":"44.76070","Longitude":"-85.64430","Snowdepth":"8.000","Units":"in","Rept_Date":"2019-11-12 11"},"coordinates":[3467,5679]},{"type":"Point","properties":{"Station_ID":"SILN6","Station_Nam":"SILVER CREEK","Latitude":"42.53800","Longitude":"-79.16990","Snowdepth":"8.000","Units":"in","Rept_Date":"2019-11-12 12"},"coordinates":[5423,4301]},{"type":"Point","properties":{"Station_ID":"ROC","Station_Nam":"GREATER ROCHESTER INTL","Latitude":"43.11890","Longitude":"-77.67280","Snowdepth":"8.000","Units":"in","Rept_Date":"2019-11-13 00"},"coordinates":[5875,4661]},{"type":"Point","properties":{"Station_ID":"PONM4","Station_Nam":"STATE HOSPITAL","Latitude":"42.65000","Longitude":"-83.30000","Snowdepth":"8.000","Units":"in","Rept_Date":"2019-11-12 12"},"coordinates":[4175,4370]},{"type":"Point","properties":{"Station_ID":"PA-ER-5","Station_Nam":"NORTH EAST 1.2 WNW, PA","Latitude":"42.22058","Longitude":"-79.85510","Snowdepth":"8.000","Units":"in","Rept_Date":"2019-11-12 13"},"coordinates":[5216,4104]},{"type":"Point","properties":{"Station_ID":"NY-WY-10","Station_Nam":"WYOMING COOP, NY","Latitude":"42.82060","Longitude":"-78.14810","Snowdepth":"8.000","Units":"in","Rept_Date":"2019-11-12 12"},"coordinates":[5731,4476]},{"type":"Point","properties":{"Station_ID":"NY-MR-26","Station_Nam":"WEBSTER 3.2 W, NY","Latitude":"43.20992","Longitude":"-77.48510","Snowdepth":"8.000","Units":"in","Rept_Date":"2019-11-13 05"},"coordinates":[5932,4717]},{"type":"Point","properties":{"Station_ID":"NY-ER-86","Station_Nam":"TONAWANDA 1.5 NNE, NY","Latitude":"43.00507","Longitude":"-78.86600","Snowdepth":"8.000","Units":"in","Rept_Date":"2019-11-12 16"},"coordinates":[5515,4590]},{"type":"Point","properties":{"Station_ID":"NY-ER-75","Station_Nam":"ELMA CENTER 0.7 SE, NY","Latitude":"42.81936","Longitude":"-78.62140","Snowdepth":"8.000","Units":"in","Rept_Date":"2019-11-12 14"},"coordinates":[5589,4475]},{"type":"Point","properties":{"Station_ID":"NY-ER-70","Station_Nam":"ALDEN 3.9 NW, NY","Latitude":"42.93713","Longitude":"-78.54950","Snowdepth":"8.000","Units":"in","Rept_Date":"2019-11-12 12"},"coordinates":[5610,4548]},{"type":"Point","properties":{"Station_ID":"NY-ER-65","Station_Nam":"BOSTON 1.5 NE, NY","Latitude":"42.65470","Longitude":"-78.72010","Snowdepth":"8.000","Units":"in","Rept_Date":"2019-11-12 12"},"coordinates":[5559,4373]},{"type":"Point","properties":{"Station_ID":"NY-ER-39","Station_Nam":"HAMBURG 0.4 WSW, NY","Latitude":"42.72253","Longitude":"-78.84330","Snowdepth":"8.000","Units":"in","Rept_Date":"2019-11-12 12"},"coordinates":[5522,4415]},{"type":"Point","properties":{"Station_ID":"NY-ER-166","Station_Nam":"BOSTON 2.5 NE, NY","Latitude":"42.65480","Longitude":"-78.70300","Snowdepth":"8.000","Units":"in","Rept_Date":"2019-11-12 12"},"coordinates":[5564,4373]},{"type":"Point","properties":{"Station_ID":"NY-CL-7","Station_Nam":"PERU 4.1 ESE, NY","Latitude":"44.56461","Longitude":"-73.45390","Snowdepth":"8.000","Units":"in","Rept_Date":"2019-11-12 11"},"coordinates":[7149,5557]},{"type":"Point","properties":{"Station_ID":"MI-WY-7","Station_Nam":"DEARBORN 3.5 NE, MI","Latitude":"42.35000","Longitude":"-83.17000","Snowdepth":"8.000","Units":"in","Rept_Date":"2019-11-12 12"},"coordinates":[4215,4184]},{"type":"Point","properties":{"Station_ID":"MI-WY-33","Station_Nam":"LIVONIA 2.3 NNW, MI","Latitude":"42.43100","Longitude":"-83.38190","Snowdepth":"8.000","Units":"in","Rept_Date":"2019-11-12 13"},"coordinates":[4151,4234]},{"type":"Point","properties":{"Station_ID":"MI-WS-11","Station_Nam":"ANN ARBOR 2.1 WNW, MI","Latitude":"42.28323","Longitude":"-83.77150","Snowdepth":"8.000","Units":"in","Rept_Date":"2019-11-12 13"},"coordinates":[4033,4143]},{"type":"Point","properties":{"Station_ID":"MI-OK-66","Station_Nam":"DAVISBURG 1.3 ESE, MI","Latitude":"42.74434","Longitude":"-83.51740","Snowdepth":"8.000","Units":"in","Rept_Date":"2019-11-12 13"},"coordinates":[4110,4429]},{"type":"Point","properties":{"Station_ID":"MI-MB-9","Station_Nam":"NEW BALTIMORE 0.4 SSE, MI","Latitude":"42.67702","Longitude":"-82.73570","Snowdepth":"8.000","Units":"in","Rept_Date":"2019-11-12 13"},"coordinates":[4346,4387]},{"type":"Point","properties":{"Station_ID":"MI-KW-2","Station_Nam":"DELAWARE 5.2 SW, MI","Latitude":"47.36928","Longitude":"-88.17919","Snowdepth":"8.000","Units":"in","Rept_Date":"2019-11-12 09"},"coordinates":[2702,7297]},{"type":"Point","properties":{"Station_ID":"MI-JC-11","Station_Nam":"JACKSON 3.2 W, MI","Latitude":"42.24061","Longitude":"-84.46690","Snowdepth":"8.000","Units":"in","Rept_Date":"2019-11-12 10"},"coordinates":[3823,4116]},{"type":"Point","properties":{"Station_ID":"MI-HG-6","Station_Nam":"CALUMET 5.8 ENE, MI","Latitude":"47.27200","Longitude":"-88.33400","Snowdepth":"8.000","Units":"in","Rept_Date":"2019-11-12 11"},"coordinates":[2655,7236]},{"type":"Point","properties":{"Station_ID":"MI-HG-17","Station_Nam":"CALUMET 0.5 NE (CALUMET LAKE), MI","Latitude":"47.25300","Longitude":"-88.44652","Snowdepth":"8.000","Units":"in","Rept_Date":"2019-11-12 13"},"coordinates":[2621,7225]},{"type":"Point","properties":{"Station_ID":"MI-GN-22","Station_Nam":"GRAND BLANC 2.9 SE, MI","Latitude":"42.89087","Longitude":"-83.58580","Snowdepth":"8.000","Units":"in","Rept_Date":"2019-11-12 12"},"coordinates":[4089,4519]},{"type":"Point","properties":{"Station_ID":"MI-CT-18","Station_Nam":"LAINGSBURG 2.1 NNW, MI","Latitude":"42.91661","Longitude":"-84.36803","Snowdepth":"8.000","Units":"in","Rept_Date":"2019-11-12 14"},"coordinates":[3853,4535]},{"type":"Point","properties":{"Station_ID":"LPRM4","Station_Nam":"OAKDALE REGIONAL CENTER","Latitude":"43.05000","Longitude":"-83.35000","Snowdepth":"8.000","Units":"in","Rept_Date":"2019-11-12 12"},"coordinates":[4160,4618]},{"type":"Point","properties":{"Station_ID":"LPEM4","Station_Nam":"LAPEER,MI","Latitude":"43.06280","Longitude":"-83.33330","Snowdepth":"8.000","Units":"in","Rept_Date":"2019-11-12 15"},"coordinates":[4165,4626]},{"type":"Point","properties":{"Station_ID":"LKVN6","Station_Nam":"LAKE VIEW","Latitude":"42.73180","Longitude":"-78.92400","Snowdepth":"8.000","Units":"in","Rept_Date":"2019-11-12 13"},"coordinates":[5497,4421]},{"type":"Point","properties":{"Station_ID":"IN-SJ-17","Station_Nam":"WALKERTON 5.7 ENE, IN","Latitude":"41.50190","Longitude":"-86.38510","Snowdepth":"8.000","Units":"in","Rept_Date":"2019-11-12 12"},"coordinates":[3244,3658]},{"type":"Point","properties":{"Station_ID":"IN-LG-5","Station_Nam":"LAGRANGE 1.3 ENE, IN","Latitude":"41.65270","Longitude":"-85.39630","Snowdepth":"8.000","Units":"in","Rept_Date":"2019-11-12 10"},"coordinates":[3542,3752]},{"type":"Point","properties":{"Station_ID":"IN-EL-39","Station_Nam":"GOSHEN 3.0 WSW, IN","Latitude":"41.55775","Longitude":"-85.88342","Snowdepth":"8.000","Units":"in","Rept_Date":"2019-11-12 12"},"coordinates":[3395,3693]},{"type":"Point","properties":{"Station_ID":"HERM4","Station_Nam":"HERMAN,MI","Latitude":"46.65000","Longitude":"-88.33330","Snowdepth":"8.000","Units":"in","Rept_Date":"2019-11-12 13"},"coordinates":[2655,6851]},{"type":"Point","properties":{"Station_ID":"FLNM4","Station_Nam":"CASE DRAIN-BOARTMAN CRK","Latitude":"43.92670","Longitude":"-83.09360","Snowdepth":"8.000","Units":"in","Rept_Date":"2019-11-12 11"},"coordinates":[4238,5162]},{"type":"Point","properties":{"Station_ID":"FARM4","Station_Nam":"FARMINGTON,MI","Latitude":"42.46670","Longitude":"-83.36670","Snowdepth":"8.000","Units":"in","Rept_Date":"2019-11-12 12"},"coordinates":[4155,4256]},{"type":"Point","properties":{"Station_ID":"DBNM4","Station_Nam":"DEARBORN NO.2","Latitude":"42.34670","Longitude":"-83.17420","Snowdepth":"8.000","Units":"in","Rept_Date":"2019-11-12 12"},"coordinates":[4213,4182]},{"type":"Point","properties":{"Station_ID":"CARM4","Station_Nam":"REGIONAL CENTER","Latitude":"43.45000","Longitude":"-83.40000","Snowdepth":"8.000","Units":"in","Rept_Date":"2019-11-12 13"},"coordinates":[4145,4866]},{"type":"Point","properties":{"Station_ID":"42.2002_079.8021","Station_Nam":"2 ESE North East  Trained Spotter (CLE0183)","Latitude":"42.20018","Longitude":"-79.80210","Snowdepth":"8.000","Units":"in","Rept_Date":"2019-11-13 00"},"coordinates":[5232,4091]},{"type":"Point","properties":{"Station_ID":"42.0800_080.0143","Station_Nam":"ERIE 5SE  SNOW SPOTTER (X4210800)","Latitude":"42.08000","Longitude":"-80.01430","Snowdepth":"8.000","Units":"in","Rept_Date":"2019-11-13 00"},"coordinates":[5168,4017]},{"type":"Point","properties":{"Station_ID":"41.8034_080.9389","Station_Nam":"GENEVA  SNOW SPOTTER (CLE1467)","Latitude":"41.80340","Longitude":"-80.93890","Snowdepth":"8.000","Units":"in","Rept_Date":"2019-11-13 01"},"coordinates":[4889,3845]},{"type":"Point","properties":{"Station_ID":"41.4727_081.1835","Station_Nam":"2 W Burton  Trained Spotter (CLE1337)","Latitude":"41.47271","Longitude":"-81.18346","Snowdepth":"8.000","Units":"in","Rept_Date":"2019-11-13 00"},"coordinates":[4815,3640]},{"type":"Point","properties":{"Station_ID":"41.4716_081.1803","Station_Nam":"BURTON (CLE1314)","Latitude":"41.47160","Longitude":"-81.18030","Snowdepth":"8.000","Units":"in","Rept_Date":"2019-11-13 02"},"coordinates":[4816,3639]},{"type":"Point","properties":{"Station_ID":"41.1970_080.9871","Station_Nam":"NEWTON FALLS (CLE2322)","Latitude":"41.19700","Longitude":"-80.98710","Snowdepth":"8.000","Units":"in","Rept_Date":"2019-11-13 00"},"coordinates":[4874,3469]},{"type":"Point","properties":{"Station_ID":"NY-ER-151","Station_Nam":"CLARENCE CENTER 0.2 ESE, NY","Latitude":"43.00742","Longitude":"-78.62917","Snowdepth":"7.900","Units":"in","Rept_Date":"2019-11-12 12"},"coordinates":[5586,4592]},{"type":"Point","properties":{"Station_ID":"CAN-QC-51","Station_Nam":"BELOEIL 0.7 NW, CAN","Latitude":"45.58049","Longitude":"-73.21218","Snowdepth":"7.900","Units":"in","Rept_Date":"2019-11-12 12"},"coordinates":[7222,6187]},{"type":"Point","properties":{"Station_ID":"CAN-ON-86","Station_Nam":"GUELPH 5.1 S - CANWARN, CAN","Latitude":"43.49691","Longitude":"-80.24385","Snowdepth":"7.900","Units":"in","Rept_Date":"2019-11-12 12"},"coordinates":[5099,4895]},{"type":"Point","properties":{"Station_ID":"CAN-NB-50","Station_Nam":"DOYLEVILLE 2.4 WNW, CAN","Latitude":"47.90803","Longitude":"-66.13279","Snowdepth":"7.900","Units":"in","Rept_Date":"2019-11-12 13"},"coordinates":[9361,7631]},{"type":"Point","properties":{"Station_ID":"MI-WY-125","Station_Nam":"CANTON 2.7 N, MI","Latitude":"42.34732","Longitude":"-83.47286","Snowdepth":"7.600","Units":"in","Rept_Date":"2019-11-12 12"},"coordinates":[4123,4182]},{"type":"Point","properties":{"Station_ID":"NY-NG-32","Station_Nam":"RAPIDS 1.0 SW, NY","Latitude":"43.09180","Longitude":"-78.65680","Snowdepth":"7.500","Units":"in","Rept_Date":"2019-11-12 13"},"coordinates":[5578,4644]},{"type":"Point","properties":{"Station_ID":"NY-NG-22","Station_Nam":"NIAGARA FALLS 5.7 E, NY","Latitude":"43.08297","Longitude":"-78.90460","Snowdepth":"7.500","Units":"in","Rept_Date":"2019-11-12 13"},"coordinates":[5503,4639]},{"type":"Point","properties":{"Station_ID":"NY-MR-20","Station_Nam":"ROCHESTER 5.8 ESE, NY","Latitude":"43.14788","Longitude":"-77.50450","Snowdepth":"7.500","Units":"in","Rept_Date":"2019-11-12 13"},"coordinates":[5926,4679]},{"type":"Point","properties":{"Station_ID":"NY-CQ-22","Station_Nam":"FREDONIA 0.8 WNW, NY","Latitude":"42.44414","Longitude":"-79.34610","Snowdepth":"7.500","Units":"in","Rept_Date":"2019-11-12 10"},"coordinates":[5370,4242]},{"type":"Point","properties":{"Station_ID":"MI-OK-13","Station_Nam":"PLEASANT RIDGE 0.5 WNW, MI","Latitude":"42.47247","Longitude":"-83.15360","Snowdepth":"7.500","Units":"in","Rept_Date":"2019-11-12 13"},"coordinates":[4220,4260]},{"type":"Point","properties":{"Station_ID":"MI-MB-33","Station_Nam":"ROSEVILLE 1.7 ENE, MI","Latitude":"42.51477","Longitude":"-82.90420","Snowdepth":"7.500","Units":"in","Rept_Date":"2019-11-12 12"},"coordinates":[4295,4286]},{"type":"Point","properties":{"Station_ID":"MI-HL-4","Station_Nam":"JONESVILLE 5.9 ENE, MI","Latitude":"42.01472","Longitude":"-84.56190","Snowdepth":"7.500","Units":"in","Rept_Date":"2019-11-12 13"},"coordinates":[3794,3976]},{"type":"Point","properties":{"Station_ID":"NY-NG-2","Station_Nam":"NORTH TONAWANDA 1.0 NNE, NY","Latitude":"43.05725","Longitude":"-78.86170","Snowdepth":"7.300","Units":"in","Rept_Date":"2019-11-12 12"},"coordinates":[5516,4623]},{"type":"Point","properties":{"Station_ID":"CAN-QC-34","Station_Nam":"SAINT-JEAN-SUR-RICHELIEU 4.8 NNW, CAN","Latitude":"45.34868","Longitude":"-73.30298","Snowdepth":"7.300","Units":"in","Rept_Date":"2019-11-12 11"},"coordinates":[7195,6044]},{"type":"Point","properties":{"Station_ID":"MI-AT-6","Station_Nam":"MANCELONA 0.5 ESE, MI","Latitude":"44.89981","Longitude":"-85.05100","Snowdepth":"7.200","Units":"in","Rept_Date":"2019-11-12 13"},"coordinates":[3647,5765]},{"type":"Point","properties":{"Station_ID":"WRSN6","Station_Nam":"WARSAW 6SW","Latitude":"42.68550","Longitude":"-78.22020","Snowdepth":"7.000","Units":"in","Rept_Date":"2019-11-12 12"},"coordinates":[5710,4392]},{"type":"Point","properties":{"Station_ID":"WLNM4","Station_Nam":"WELLSTON 1N","Latitude":"44.22940","Longitude":"-85.95690","Snowdepth":"7.000","Units":"in","Rept_Date":"2019-11-12 12"},"coordinates":[3373,5350]},{"type":"Point","properties":{"Station_ID":"WHFN6","Station_Nam":"WILMINGTON 2W","Latitude":"44.39310","Longitude":"-73.85890","Snowdepth":"7.000","Units":"in","Rept_Date":"2019-11-12 13"},"coordinates":[7027,5451]},{"type":"Point","properties":{"Station_ID":"VT-GI-3","Station_Nam":"ALBURGH 4.6 SSE, VT","Latitude":"44.91280","Longitude":"-73.26890","Snowdepth":"7.000","Units":"in","Rept_Date":"2019-11-12 16"},"coordinates":[7205,5773]},{"type":"Point","properties":{"Station_ID":"VSSM4","Station_Nam":"VASSAR,MI","Latitude":"43.36670","Longitude":"-83.58330","Snowdepth":"7.000","Units":"in","Rept_Date":"2019-11-12 12"},"coordinates":[4090,4815]},{"type":"Point","properties":{"Station_ID":"TIPM4","Station_Nam":"TIPTON,MI","Latitude":"42.03330","Longitude":"-84.10000","Snowdepth":"7.000","Units":"in","Rept_Date":"2019-11-12 13"},"coordinates":[3934,3988]},{"type":"Point","properties":{"Station_ID":"SLNM4","Station_Nam":"SALINE,MI","Latitude":"42.13330","Longitude":"-83.81670","Snowdepth":"7.000","Units":"in","Rept_Date":"2019-11-12 13"},"coordinates":[4019,4050]},{"type":"Point","properties":{"Station_ID":"SALM4","Station_Nam":"SALINE,MI","Latitude":"42.16670","Longitude":"-83.78330","Snowdepth":"7.000","Units":"in","Rept_Date":"2019-11-12 14"},"coordinates":[4029,4070]},{"type":"Point","properties":{"Station_ID":"QNCM4","Station_Nam":"QUINCY HILL","Latitude":"47.13640","Longitude":"-88.57950","Snowdepth":"7.000","Units":"in","Rept_Date":"2019-11-12 12"},"coordinates":[2581,7152]},{"type":"Point","properties":{"Station_ID":"PA-CW-8","Station_Nam":"SPRINGBORO 3.0 WNW, PA","Latitude":"41.81654","Longitude":"-80.42540","Snowdepth":"7.000","Units":"in","Rept_Date":"2019-11-12 12"},"coordinates":[5044,3853]},{"type":"Point","properties":{"Station_ID":"OH-GG-7","Station_Nam":"MIDDLEFIELD 0.6 NE, OH","Latitude":"41.46438","Longitude":"-81.06520","Snowdepth":"7.000","Units":"in","Rept_Date":"2019-11-12 13"},"coordinates":[4850,3635]},{"type":"Point","properties":{"Station_ID":"OH-CW-1","Station_Nam":"GALION 1.1 W, OH","Latitude":"40.73024","Longitude":"-82.81170","Snowdepth":"7.000","Units":"in","Rept_Date":"2019-11-12 12"},"coordinates":[4323,3180]},{"type":"Point","properties":{"Station_ID":"NY-WN-10","Station_Nam":"WALWORTH 1.7 SW, NY","Latitude":"43.12500","Longitude":"-77.29900","Snowdepth":"7.000","Units":"in","Rept_Date":"2019-11-12 12"},"coordinates":[5988,4665]},{"type":"Point","properties":{"Station_ID":"NY-MR-57","Station_Nam":"CHURCHVILLE 3.5 N, NY","Latitude":"43.15209","Longitude":"-77.87846","Snowdepth":"7.000","Units":"in","Rept_Date":"2019-11-12 13"},"coordinates":[5813,4681]},{"type":"Point","properties":{"Station_ID":"NY-JF-32","Station_Nam":"WATERTOWN 1.0 ESE, NY","Latitude":"43.96693","Longitude":"-75.89204","Snowdepth":"7.000","Units":"in","Rept_Date":"2019-11-12 12"},"coordinates":[6413,5187]},{"type":"Point","properties":{"Station_ID":"NY-ES-6","Station_Nam":"OLMSTEDVILLE 4.6 NNE, NY","Latitude":"43.83350","Longitude":"-73.89780","Snowdepth":"7.000","Units":"in","Rept_Date":"2019-11-12 13"},"coordinates":[7015,5104]},{"type":"Point","properties":{"Station_ID":"NY-ER-98","Station_Nam":"AMHERST 5.4 NNE, NY","Latitude":"43.05207","Longitude":"-78.76430","Snowdepth":"7.000","Units":"in","Rept_Date":"2019-11-12 13"},"coordinates":[5545,4619]},{"type":"Point","properties":{"Station_ID":"NY-ER-51","Station_Nam":"CLARENCE CENTER 0.9 N, NY","Latitude":"43.02096","Longitude":"-78.62890","Snowdepth":"7.000","Units":"in","Rept_Date":"2019-11-12 12"},"coordinates":[5586,4600]},{"type":"Point","properties":{"Station_ID":"NY-ER-122","Station_Nam":"CHEEKTOWAGA 2.4 NW, NY","Latitude":"42.93457","Longitude":"-78.78295","Snowdepth":"7.000","Units":"in","Rept_Date":"2019-11-12 12"},"coordinates":[5540,4547]},{"type":"Point","properties":{"Station_ID":"NTON6","Station_Nam":"NORTH TONAWANDA","Latitude":"43.05730","Longitude":"-78.86170","Snowdepth":"7.000","Units":"in","Rept_Date":"2019-11-12 12"},"coordinates":[5516,4623]},{"type":"Point","properties":{"Station_ID":"MTQM4","Station_Nam":"MANISTIQUE WWTP","Latitude":"45.95120","Longitude":"-86.25130","Snowdepth":"7.000","Units":"in","Rept_Date":"2019-11-12 12"},"coordinates":[3284,6417]},{"type":"Point","properties":{"Station_ID":"MILM4","Station_Nam":"GM PROVING GD","Latitude":"42.58330","Longitude":"-83.70000","Snowdepth":"7.000","Units":"in","Rept_Date":"2019-11-13 05"},"coordinates":[4055,4329]},{"type":"Point","properties":{"Station_ID":"MI-SJ-4","Station_Nam":"CONSTANTINE 1.9 E, MI","Latitude":"41.83974","Longitude":"-85.62790","Snowdepth":"7.000","Units":"in","Rept_Date":"2019-11-12 12"},"coordinates":[3472,3868]},{"type":"Point","properties":{"Station_ID":"MI-OK-51","Station_Nam":"FARMINGTON HILLS 2.3 WNW, MI","Latitude":"42.49350","Longitude":"-83.41950","Snowdepth":"7.000","Units":"in","Rept_Date":"2019-11-12 12"},"coordinates":[4139,4273]},{"type":"Point","properties":{"Station_ID":"MI-OK-35","Station_Nam":"WATERFORD 2.1 NW, MI","Latitude":"42.68742","Longitude":"-83.41320","Snowdepth":"7.000","Units":"in","Rept_Date":"2019-11-12 12"},"coordinates":[4141,4393]},{"type":"Point","properties":{"Station_ID":"MI-LN-16","Station_Nam":"CLINTON 0.5 NE, MI","Latitude":"42.07710","Longitude":"-83.96530","Snowdepth":"7.000","Units":"in","Rept_Date":"2019-11-12 12"},"coordinates":[3975,4015]},{"type":"Point","properties":{"Station_ID":"MI-GN-29","Station_Nam":"DAVISON 5.2 N, MI","Latitude":"43.10778","Longitude":"-83.51137","Snowdepth":"7.000","Units":"in","Rept_Date":"2019-11-12 14"},"coordinates":[4112,4654]},{"type":"Point","properties":{"Station_ID":"MI-BH-6","Station_Nam":"COLON 3.5 SE, MI","Latitude":"41.91935","Longitude":"-85.28211","Snowdepth":"7.000","Units":"in","Rept_Date":"2019-11-12 10"},"coordinates":[3577,3917]},{"type":"Point","properties":{"Station_ID":"LPLN6","Station_Nam":"LAKE PLACID 2 S","Latitude":"44.30420","Longitude":"-73.98390","Snowdepth":"7.000","Units":"in","Rept_Date":"2019-11-12 13"},"coordinates":[6989,5396]},{"type":"Point","properties":{"Station_ID":"KBTV","Station_Nam":"BURLINGTON INTERNATIONAL","Latitude":"44.46666","Longitude":"-73.15000","Snowdepth":"7.000","Units":"in","Rept_Date":"2019-11-13 00"},"coordinates":[7241,5497]},{"type":"Point","properties":{"Station_ID":"JEFV1","Station_Nam":"JEFFERSONVILLE","Latitude":"44.58430","Longitude":"-72.78700","Snowdepth":"7.000","Units":"in","Rept_Date":"2019-11-12 12"},"coordinates":[7351,5570]},{"type":"Point","properties":{"Station_ID":"HWLM4","Station_Nam":"HALFWAY LAKE","Latitude":"46.47480","Longitude":"-85.59250","Snowdepth":"7.000","Units":"in","Rept_Date":"2019-11-12 14"},"coordinates":[3483,6742]},{"type":"Point","properties":{"Station_ID":"GSNI3","Station_Nam":"GOSHEN 3SW","Latitude":"41.55750","Longitude":"-85.88250","Snowdepth":"7.000","Units":"in","Rept_Date":"2019-11-13 00"},"coordinates":[3395,3693]},{"type":"Point","properties":{"Station_ID":"GODM4","Station_Nam":"GOODRICH","Latitude":"42.91640","Longitude":"-83.50970","Snowdepth":"7.000","Units":"in","Rept_Date":"2019-11-12 12"},"coordinates":[4112,4535]},{"type":"Point","properties":{"Station_ID":"FNT","Station_Nam":"FLINT BISHOP INTL AIRPORT","Latitude":"42.96560","Longitude":"-83.74360","Snowdepth":"7.000","Units":"in","Rept_Date":"2019-11-13 06"},"coordinates":[4041,4566]},{"type":"Point","properties":{"Station_ID":"FKMM4","Station_Nam":"FRANKENMUTH 1SE","Latitude":"43.31940","Longitude":"-83.71610","Snowdepth":"7.000","Units":"in","Rept_Date":"2019-11-12 15"},"coordinates":[4050,4785]},{"type":"Point","properties":{"Station_ID":"FISM1","Station_Nam":"FORT KENT COOP","Latitude":"47.23850","Longitude":"-68.61240","Snowdepth":"7.000","Units":"in","Rept_Date":"2019-11-12 12"},"coordinates":[8612,7216]},{"type":"Point","properties":{"Station_ID":"EKMI3","Station_Nam":"ELKHART PUBLIC WORKS & UT","Latitude":"41.67740","Longitude":"-86.00250","Snowdepth":"7.000","Units":"in","Rept_Date":"2019-11-13 05"},"coordinates":[3359,3767]},{"type":"Point","properties":{"Station_ID":"DTW","Station_Nam":"DETROIT METROPOLITAN","Latitude":"42.21220","Longitude":"-83.35330","Snowdepth":"7.000","Units":"in","Rept_Date":"2019-11-13 06"},"coordinates":[4159,4099]},{"type":"Point","properties":{"Station_ID":"DRBM4","Station_Nam":"DEARBORN,MI","Latitude":"42.31670","Longitude":"-83.23330","Snowdepth":"7.000","Units":"in","Rept_Date":"2019-11-12 14"},"coordinates":[4196,4163]},{"type":"Point","properties":{"Station_ID":"CODN6","Station_Nam":"COLDEN 1W","Latitude":"42.64720","Longitude":"-78.71110","Snowdepth":"7.000","Units":"in","Rept_Date":"2019-11-12 12"},"coordinates":[5561,4368]},{"type":"Point","properties":{"Station_ID":"BTV","Station_Nam":"BURLINGTON, VT","Latitude":"44.47140","Longitude":"-73.15330","Snowdepth":"7.000","Units":"in","Rept_Date":"2019-11-13 01"},"coordinates":[7240,5500]},{"type":"Point","properties":{"Station_ID":"BGBM4","Station_Nam":"BIG BAY 1NW","Latitude":"46.83250","Longitude":"-87.75040","Snowdepth":"7.000","Units":"in","Rept_Date":"2019-11-12 13"},"coordinates":[2831,6964]},{"type":"Point","properties":{"Station_ID":"AGCM4","Station_Nam":"ALGONAC","Latitude":"42.62550","Longitude":"-82.53440","Snowdepth":"7.000","Units":"in","Rept_Date":"2019-11-12 13"},"coordinates":[4407,4355]},{"type":"Point","properties":{"Station_ID":"ABNN6","Station_Nam":"ALBION","Latitude":"43.26330","Longitude":"-78.21520","Snowdepth":"7.000","Units":"in","Rept_Date":"2019-11-12 23"},"coordinates":[5711,4750]},{"type":"Point","properties":{"Station_ID":"41.5847_081.2519","Station_Nam":"CHARDON 2N  SNOW SPOTTER (X4160813)","Latitude":"41.58470","Longitude":"-81.25190","Snowdepth":"7.000","Units":"in","Rept_Date":"2019-11-12 23"},"coordinates":[4794,3709]},{"type":"Point","properties":{"Station_ID":"41.5363_080.8353","Station_Nam":"ORWELL 1E  SNOW SPOTTER (CLE1445)","Latitude":"41.53630","Longitude":"-80.83530","Snowdepth":"7.000","Units":"in","Rept_Date":"2019-11-13 01"},"coordinates":[4920,3679]},{"type":"Point","properties":{"Station_ID":"41.5155_081.4926","Station_Nam":"Lyndhurst  Trained Spotter (X4150815)","Latitude":"41.51550","Longitude":"-81.49260","Snowdepth":"7.000","Units":"in","Rept_Date":"2019-11-12 22"},"coordinates":[4721,3667]},{"type":"Point","properties":{"Station_ID":"41.4330_081.4097","Station_Nam":"CHAGRIN FALLS  SNOW SPOTTER (CLE1172)","Latitude":"41.43300","Longitude":"-81.40970","Snowdepth":"7.000","Units":"in","Rept_Date":"2019-11-13 03"},"coordinates":[4746,3615]},{"type":"Point","properties":{"Station_ID":"41.3691_081.4520","Station_Nam":"SOLON (CLE1123)","Latitude":"41.36910","Longitude":"-81.45200","Snowdepth":"7.000","Units":"in","Rept_Date":"2019-11-13 03"},"coordinates":[4734,3576]},{"type":"Point","properties":{"Station_ID":"41.2010_081.4292","Station_Nam":"2 NNE Stow  Trained Spotter (CLE2144)","Latitude":"41.20104","Longitude":"-81.42924","Snowdepth":"7.000","Units":"in","Rept_Date":"2019-11-13 02"},"coordinates":[4740,3472]},{"type":"Point","properties":{"Station_ID":"40.7301_082.8116","Station_Nam":"GALION (CLE2801)","Latitude":"40.73010","Longitude":"-82.81160","Snowdepth":"7.000","Units":"in","Rept_Date":"2019-11-12 11"},"coordinates":[4323,3179]},{"type":"Point","properties":{"Station_ID":"QFT","Station_Nam":"QFT","Latitude":"50.83280","Longitude":"-74.40390","Snowdepth":"6.968","Units":"in","Rept_Date":"2019-11-12 12"},"coordinates":[6862,9445]},{"type":"Point","properties":{"Station_ID":"NY-NG-30","Station_Nam":"LOCKPORT 2.5 ESE, NY","Latitude":"43.15207","Longitude":"-78.65338","Snowdepth":"6.800","Units":"in","Rept_Date":"2019-11-12 12"},"coordinates":[5579,4681]},{"type":"Point","properties":{"Station_ID":"NY-WN-9","Station_Nam":"MARION 2.0 NE, NY","Latitude":"43.16668","Longitude":"-77.16750","Snowdepth":"6.700","Units":"in","Rept_Date":"2019-11-12 14"},"coordinates":[6028,4690]},{"type":"Point","properties":{"Station_ID":"QCO","Station_Nam":"QCO","Latitude":"51.45280","Longitude":"-72.20110","Snowdepth":"6.575","Units":"in","Rept_Date":"2019-11-12 12"},"coordinates":[7528,9829]},{"type":"Point","properties":{"Station_ID":"WI-IR-4","Station_Nam":"MERCER 7.0 NNE, WI","Latitude":"46.26677","Longitude":"-90.03360","Snowdepth":"6.500","Units":"in","Rept_Date":"2019-11-12 13"},"coordinates":[2142,6613]},{"type":"Point","properties":{"Station_ID":"VT-OL-12","Station_Nam":"GREENSBORO 3.9 NNE, VT","Latitude":"44.63100","Longitude":"-72.28000","Snowdepth":"6.500","Units":"in","Rept_Date":"2019-11-12 12"},"coordinates":[7504,5599]},{"type":"Point","properties":{"Station_ID":"VT-CH-38","Station_Nam":"WILLISTON 0.2 WSW, VT","Latitude":"44.43669","Longitude":"-73.07154","Snowdepth":"6.500","Units":"in","Rept_Date":"2019-11-12 12"},"coordinates":[7265,5478]},{"type":"Point","properties":{"Station_ID":"VT-CH-11","Station_Nam":"UNDERHILL 5.1 NNE, VT","Latitude":"44.59811","Longitude":"-72.91880","Snowdepth":"6.500","Units":"in","Rept_Date":"2019-11-12 13"},"coordinates":[7311,5578]},{"type":"Point","properties":{"Station_ID":"NY-ER-63","Station_Nam":"GLENWOOD 1.5 SE, NY","Latitude":"42.60195","Longitude":"-78.63910","Snowdepth":"6.500","Units":"in","Rept_Date":"2019-11-12 13"},"coordinates":[5583,4340]},{"type":"Point","properties":{"Station_ID":"MI-WS-28","Station_Nam":"DEXTER 0.3 ENE, MI","Latitude":"42.33367","Longitude":"-83.87510","Snowdepth":"6.500","Units":"in","Rept_Date":"2019-11-12 12"},"coordinates":[4002,4174]},{"type":"Point","properties":{"Station_ID":"MI-WS-25","Station_Nam":"SALINE 3.8 SSW, MI","Latitude":"42.12618","Longitude":"-83.81090","Snowdepth":"6.500","Units":"in","Rept_Date":"2019-11-12 12"},"coordinates":[4021,4045]},{"type":"Point","properties":{"Station_ID":"MI-SW-5","Station_Nam":"DURAND 6.2 WNW, MI","Latitude":"42.92995","Longitude":"-84.10460","Snowdepth":"6.500","Units":"in","Rept_Date":"2019-11-12 13"},"coordinates":[3932,4544]},{"type":"Point","properties":{"Station_ID":"MI-KN-93","Station_Nam":"GRANDVILLE 0.6 SSW, MI","Latitude":"42.89531","Longitude":"-85.76006","Snowdepth":"6.500","Units":"in","Rept_Date":"2019-11-12 12"},"coordinates":[3432,4522]},{"type":"Point","properties":{"Station_ID":"MI-IH-34","Station_Nam":"MASON 5.8 ENE, MI","Latitude":"42.61430","Longitude":"-84.33813","Snowdepth":"6.500","Units":"in","Rept_Date":"2019-11-12 13"},"coordinates":[3862,4348]},{"type":"Point","properties":{"Station_ID":"MI-CT-1","Station_Nam":"LAINGSBURG 5.0 SW, MI","Latitude":"42.84028","Longitude":"-84.41970","Snowdepth":"6.500","Units":"in","Rept_Date":"2019-11-12 11"},"coordinates":[3837,4488]},{"type":"Point","properties":{"Station_ID":"MI-AN-25","Station_Nam":"PLAINWELL 0.5 WSW, MI","Latitude":"42.44318","Longitude":"-85.65374","Snowdepth":"6.500","Units":"in","Rept_Date":"2019-11-12 12"},"coordinates":[3465,4242]},{"type":"Point","properties":{"Station_ID":"CAN-ON-173","Station_Nam":"DRESDEN 0.8 NNE, CAN","Latitude":"42.59703","Longitude":"-82.17812","Snowdepth":"6.500","Units":"in","Rept_Date":"2019-11-12 11"},"coordinates":[4514,4337]},{"type":"Point","properties":{"Station_ID":"QLM","Station_Nam":"QLM","Latitude":"48.92030","Longitude":"-70.25280","Snowdepth":"6.417","Units":"in","Rept_Date":"2019-11-12 12"},"coordinates":[8116,8259]},{"type":"Point","properties":{"Station_ID":"NY-OL-5","Station_Nam":"MEDINA 0.4 WNW, NY","Latitude":"43.22300","Longitude":"-78.39539","Snowdepth":"6.300","Units":"in","Rept_Date":"2019-11-12 13"},"coordinates":[5657,4725]},{"type":"Point","properties":{"Station_ID":"CAN-ON-646","Station_Nam":"MISSISSAUGA 6.4 SSE - CANWARN, CAN","Latitude":"43.53417","Longitude":"-79.62089","Snowdepth":"6.300","Units":"in","Rept_Date":"2019-11-12 13"},"coordinates":[5287,4918]},{"type":"Point","properties":{"Station_ID":"NY-FK-9","Station_Nam":"GABRIELS 1.3 SE, NY","Latitude":"44.41934","Longitude":"-74.16194","Snowdepth":"6.200","Units":"in","Rept_Date":"2019-11-12 12"},"coordinates":[6935,5467]},{"type":"Point","properties":{"Station_ID":"MI-OW-51","Station_Nam":"ALLENDALE 1.7 SE, MI","Latitude":"42.97100","Longitude":"-85.92540","Snowdepth":"6.200","Units":"in","Rept_Date":"2019-11-12 12"},"coordinates":[3382,4569]},{"type":"Point","properties":{"Station_ID":"CAN-ON-491","Station_Nam":"MILVERTON 1.1 ESE- CANWARN, CAN","Latitude":"43.56074","Longitude":"-80.90887","Snowdepth":"6.200","Units":"in","Rept_Date":"2019-11-12 11"},"coordinates":[4898,4935]},{"type":"Point","properties":{"Station_ID":"PA-ER-2","Station_Nam":"ERIE 5.6 SW, PA","Latitude":"42.06086","Longitude":"-80.15260","Snowdepth":"6.100","Units":"in","Rept_Date":"2019-11-12 12"},"coordinates":[5126,4005]},{"type":"Point","properties":{"Station_ID":"MI-WS-7","Station_Nam":"ANN ARBOR 3.1 SE, MI","Latitude":"42.23914","Longitude":"-83.69580","Snowdepth":"6.100","Units":"in","Rept_Date":"2019-11-12 12"},"coordinates":[4056,4115]},{"type":"Point","properties":{"Station_ID":"IL-CR-12","Station_Nam":"MOUNT CARROLL 6.8 NNW, IL","Latitude":"42.18735","Longitude":"-90.02185","Snowdepth":"6.100","Units":"in","Rept_Date":"2019-11-12 13"},"coordinates":[2145,4083]},{"type":"Point","properties":{"Station_ID":"42.0609_080.1526","Station_Nam":"6 SW Erie  CoCoRaHS (PA-ER-2)","Latitude":"42.06090","Longitude":"-80.15260","Snowdepth":"6.100","Units":"in","Rept_Date":"2019-11-12 11"},"coordinates":[5126,4005]},{"type":"Point","properties":{"Station_ID":"QWE","Station_Nam":"QWE","Latitude":"47.84610","Longitude":"-73.80670","Snowdepth":"6.063","Units":"in","Rept_Date":"2019-11-12 12"},"coordinates":[7043,7592]},{"type":"Point","properties":{"Station_ID":"MRL","Station_Nam":"MRL","Latitude":"51.28330","Longitude":"-68.84060","Snowdepth":"6.063","Units":"in","Rept_Date":"2019-11-12 12"},"coordinates":[8543,9724]},{"type":"Point","properties":{"Station_ID":"VT-OL-1","Station_Nam":"WESTFIELD 0.7 WNW, VT","Latitude":"44.89160","Longitude":"-72.44350","Snowdepth":"6.000","Units":"in","Rept_Date":"2019-11-12 11"},"coordinates":[7454,5760]},{"type":"Point","properties":{"Station_ID":"VT-CH-4","Station_Nam":"UNDERHILL 4.4 NNE, VT","Latitude":"44.58774","Longitude":"-72.92250","Snowdepth":"6.000","Units":"in","Rept_Date":"2019-11-12 12"},"coordinates":[7310,5572]},{"type":"Point","properties":{"Station_ID":"VANM1","Station_Nam":"VAN BUREN","Latitude":"47.16600","Longitude":"-67.93900","Snowdepth":"6.000","Units":"in","Rept_Date":"2019-11-12 12"},"coordinates":[8815,7171]},{"type":"Point","properties":{"Station_ID":"UPSW3","Station_Nam":"UPSON,WI","Latitude":"46.36780","Longitude":"-90.41220","Snowdepth":"6.000","Units":"in","Rept_Date":"2019-11-13 00"},"coordinates":[2027,6676]},{"type":"Point","properties":{"Station_ID":"SVSN6","Station_Nam":"SILVER SPRINGS 3N","Latitude":"42.70580","Longitude":"-78.09370","Snowdepth":"6.000","Units":"in","Rept_Date":"2019-11-12 12"},"coordinates":[5748,4405]},{"type":"Point","properties":{"Station_ID":"SSMM4","Station_Nam":"SAULT STE MARIE","Latitude":"46.48660","Longitude":"-84.40250","Snowdepth":"6.000","Units":"in","Rept_Date":"2019-11-12 13"},"coordinates":[3842,6749]},{"type":"Point","properties":{"Station_ID":"PRQM1","Station_Nam":"PRESQUE ISLE HILLTOP","Latitude":"46.68630","Longitude":"-67.99470","Snowdepth":"6.000","Units":"in","Rept_Date":"2019-11-12 12"},"coordinates":[8798,6873]},{"type":"Point","properties":{"Station_ID":"PGVN6","Station_Nam":"PORTAGEVILLE","Latitude":"42.57580","Longitude":"-78.06720","Snowdepth":"6.000","Units":"in","Rept_Date":"2019-11-12 12"},"coordinates":[5756,4324]},{"type":"Point","properties":{"Station_ID":"PENN6","Station_Nam":"PENDLETON 1 NE","Latitude":"43.10100","Longitude":"-78.71380","Snowdepth":"6.000","Units":"in","Rept_Date":"2019-11-12 13"},"coordinates":[5561,4650]},{"type":"Point","properties":{"Station_ID":"OWSM4","Station_Nam":"OWOSSO,MI","Latitude":"42.96670","Longitude":"-84.20000","Snowdepth":"6.000","Units":"in","Rept_Date":"2019-11-12 12"},"coordinates":[3904,4566]},{"type":"Point","properties":{"Station_ID":"OH-GG-4","Station_Nam":"MONTVILLE 1.2 SSE, OH","Latitude":"41.59030","Longitude":"-81.04800","Snowdepth":"6.000","Units":"in","Rept_Date":"2019-11-12 12"},"coordinates":[4856,3713]},{"type":"Point","properties":{"Station_ID":"OH-GG-11","Station_Nam":"MADISON 4.2 S, OH","Latitude":"41.71238","Longitude":"-81.03871","Snowdepth":"6.000","Units":"in","Rept_Date":"2019-11-12 12"},"coordinates":[4858,3789]},{"type":"Point","properties":{"Station_ID":"OH-AL-5","Station_Nam":"LIMA 2.7 NE, OH","Latitude":"40.77390","Longitude":"-84.08000","Snowdepth":"6.000","Units":"in","Rept_Date":"2019-11-12 12"},"coordinates":[3940,3207]},{"type":"Point","properties":{"Station_ID":"OBEO1","Station_Nam":"OBERLIN,OH","Latitude":"41.26670","Longitude":"-82.21670","Snowdepth":"6.000","Units":"in","Rept_Date":"2019-11-12 13"},"coordinates":[4503,3512]},{"type":"Point","properties":{"Station_ID":"NY-ER-85","Station_Nam":"AKRON 2.4 S, NY","Latitude":"42.98523","Longitude":"-78.48630","Snowdepth":"6.000","Units":"in","Rept_Date":"2019-11-12 13"},"coordinates":[5629,4578]},{"type":"Point","properties":{"Station_ID":"NY-CQ-27","Station_Nam":"SILVER CREEK 1.0 SSE, NY","Latitude":"42.53088","Longitude":"-79.15986","Snowdepth":"6.000","Units":"in","Rept_Date":"2019-11-12 12"},"coordinates":[5426,4296]},{"type":"Point","properties":{"Station_ID":"NY-CL-12","Station_Nam":"SARANAC 0.8 SSE, NY","Latitude":"44.63980","Longitude":"-73.73848","Snowdepth":"6.000","Units":"in","Rept_Date":"2019-11-12 12"},"coordinates":[7063,5604]},{"type":"Point","properties":{"Station_ID":"NUNV1","Station_Nam":"NORTH UNDERHILL","Latitude":"44.58760","Longitude":"-72.92150","Snowdepth":"6.000","Units":"in","Rept_Date":"2019-11-12 12"},"coordinates":[7310,5572]},{"type":"Point","properties":{"Station_ID":"NPTV1","Station_Nam":"NEWPORT","Latitude":"44.94900","Longitude":"-72.19120","Snowdepth":"6.000","Units":"in","Rept_Date":"2019-11-12 12"},"coordinates":[7531,5796]},{"type":"Point","properties":{"Station_ID":"NCBN6","Station_Nam":"NEWCOMB","Latitude":"43.97070","Longitude":"-74.22200","Snowdepth":"6.000","Units":"in","Rept_Date":"2019-11-12 13"},"coordinates":[6917,5189]},{"type":"Point","properties":{"Station_ID":"MI-IH-32","Station_Nam":"WILLIAMSTON 4.0 ESE, MI","Latitude":"42.65859","Longitude":"-84.21630","Snowdepth":"6.000","Units":"in","Rept_Date":"2019-11-12 13"},"coordinates":[3899,4375]},{"type":"Point","properties":{"Station_ID":"MI-HG-14","Station_Nam":"HOUGHTON 0.6 SE, MI","Latitude":"47.10847","Longitude":"-88.55235","Snowdepth":"6.000","Units":"in","Rept_Date":"2019-11-12 13"},"coordinates":[2589,7135]},{"type":"Point","properties":{"Station_ID":"MI-GT-21","Station_Nam":"KINGSLEY 2.7 ENE, MI","Latitude":"44.59871","Longitude":"-85.48426","Snowdepth":"6.000","Units":"in","Rept_Date":"2019-11-12 11"},"coordinates":[3516,5579]},{"type":"Point","properties":{"Station_ID":"MI-CT-2","Station_Nam":"HASLETT 1.2 N, MI","Latitude":"42.76997","Longitude":"-84.40310","Snowdepth":"6.000","Units":"in","Rept_Date":"2019-11-12 12"},"coordinates":[3842,4444]},{"type":"Point","properties":{"Station_ID":"MI-BG-3","Station_Nam":"L'ANSE 17.8 SE, MI","Latitude":"46.55730","Longitude":"-88.20770","Snowdepth":"6.000","Units":"in","Rept_Date":"2019-11-12 13"},"coordinates":[2693,6793]},{"type":"Point","properties":{"Station_ID":"MI-AN-11","Station_Nam":"HOPKINS 0.6 NNE, MI","Latitude":"42.63430","Longitude":"-85.76120","Snowdepth":"6.000","Units":"in","Rept_Date":"2019-11-12 12"},"coordinates":[3432,4360]},{"type":"Point","properties":{"Station_ID":"KUKN6","Station_Nam":"LAKESIDE","Latitude":"43.37140","Longitude":"-78.26630","Snowdepth":"6.000","Units":"in","Rept_Date":"2019-11-12 11"},"coordinates":[5696,4817]},{"type":"Point","properties":{"Station_ID":"KGTB","Station_Nam":"FORT DRUM / WHEELER-SACK U. S. ARMY AIRFIELD","Latitude":"44.05000","Longitude":"-75.73333","Snowdepth":"6.000","Units":"in","Rept_Date":"2019-11-13 00"},"coordinates":[6461,5238]},{"type":"Point","properties":{"Station_ID":"JOHV1","Station_Nam":"JOHNSON 2 N","Latitude":"44.65790","Longitude":"-72.67850","Snowdepth":"6.000","Units":"in","Rept_Date":"2019-11-12 12"},"coordinates":[7383,5615]},{"type":"Point","properties":{"Station_ID":"IWX","Station_Nam":"NORTHERN INDIANA, IN","Latitude":"41.35890","Longitude":"-85.70000","Snowdepth":"6.000","Units":"in","Rept_Date":"2019-11-13 00"},"coordinates":[3451,3569]},{"type":"Point","properties":{"Station_ID":"INDN6","Station_Nam":"INDIAN LAKE","Latitude":"43.75500","Longitude":"-74.27560","Snowdepth":"6.000","Units":"in","Rept_Date":"2019-11-12 13"},"coordinates":[6901,5055]},{"type":"Point","properties":{"Station_ID":"IN-SJ-58","Station_Nam":"SOUTH BEND 4.5 SE, IN","Latitude":"41.62246","Longitude":"-86.21630","Snowdepth":"6.000","Units":"in","Rept_Date":"2019-11-12 12"},"coordinates":[3295,3733]},{"type":"Point","properties":{"Station_ID":"IN-SJ-28","Station_Nam":"SOUTH BEND 4.6 SE, IN","Latitude":"41.62090","Longitude":"-86.21520","Snowdepth":"6.000","Units":"in","Rept_Date":"2019-11-12 12"},"coordinates":[3295,3732]},{"type":"Point","properties":{"Station_ID":"IN-SJ-26","Station_Nam":"MISHAWAKA 3.9 ENE, IN","Latitude":"41.68329","Longitude":"-86.09540","Snowdepth":"6.000","Units":"in","Rept_Date":"2019-11-12 12"},"coordinates":[3331,3771]},{"type":"Point","properties":{"Station_ID":"IN-KS-41","Station_Nam":"NORTH WEBSTER 2.3 N, IN","Latitude":"41.35866","Longitude":"-85.70060","Snowdepth":"6.000","Units":"in","Rept_Date":"2019-11-12 12"},"coordinates":[3450,3569]},{"type":"Point","properties":{"Station_ID":"IN-EL-8","Station_Nam":"WAKARUSA 2.4 NNE, IN","Latitude":"41.56551","Longitude":"-85.99330","Snowdepth":"6.000","Units":"in","Rept_Date":"2019-11-12 12"},"coordinates":[3362,3698]},{"type":"Point","properties":{"Station_ID":"IA-DB-21","Station_Nam":"RICKARDSVILLE 0.2 W, IA","Latitude":"42.58345","Longitude":"-90.87825","Snowdepth":"6.000","Units":"in","Rept_Date":"2019-11-12 13"},"coordinates":[1887,4329]},{"type":"Point","properties":{"Station_ID":"HPKM4","Station_Nam":"HOPKINS 1 N","Latitude":"42.63520","Longitude":"-85.76100","Snowdepth":"6.000","Units":"in","Rept_Date":"2019-11-12 12"},"coordinates":[3432,4361]},{"type":"Point","properties":{"Station_ID":"HOLM4","Station_Nam":"HOLLAND,MI","Latitude":"42.80000","Longitude":"-86.11670","Snowdepth":"6.000","Units":"in","Rept_Date":"2019-11-12 12"},"coordinates":[3325,4463]},{"type":"Point","properties":{"Station_ID":"HGHN6","Station_Nam":"HIGHMARKET","Latitude":"43.57520","Longitude":"-75.52070","Snowdepth":"6.000","Units":"in","Rept_Date":"2019-11-12 10"},"coordinates":[6525,4944]},{"type":"Point","properties":{"Station_ID":"GDLM4","Station_Nam":"GRAND LEDGE,MI","Latitude":"42.76670","Longitude":"-84.76670","Snowdepth":"6.000","Units":"in","Rept_Date":"2019-11-12 12"},"coordinates":[3732,4442]},{"type":"Point","properties":{"Station_ID":"ENFV1","Station_Nam":"ENOSBURG FALLS 2","Latitude":"44.90960","Longitude":"-72.81370","Snowdepth":"6.000","Units":"in","Rept_Date":"2019-11-12 11"},"coordinates":[7343,5771]},{"type":"Point","properties":{"Station_ID":"CSSM4","Station_Nam":"CASS CITY,MI","Latitude":"43.58330","Longitude":"-83.18330","Snowdepth":"6.000","Units":"in","Rept_Date":"2019-11-12 11"},"coordinates":[4211,4949]},{"type":"Point","properties":{"Station_ID":"CHRO1","Station_Nam":"CHARDON,OH","Latitude":"41.58330","Longitude":"-81.18330","Snowdepth":"6.000","Units":"in","Rept_Date":"2019-11-12 13"},"coordinates":[4815,3709]},{"type":"Point","properties":{"Station_ID":"CARM1","Station_Nam":"CARIBOU WFO","Latitude":"46.86810","Longitude":"-68.01250","Snowdepth":"6.000","Units":"in","Rept_Date":"2019-11-13 05"},"coordinates":[8793,6986]},{"type":"Point","properties":{"Station_ID":"CAR","Station_Nam":"CARIBOU, ME","Latitude":"46.86830","Longitude":"-68.01360","Snowdepth":"6.000","Units":"in","Rept_Date":"2019-11-12 12"},"coordinates":[8792,6986]},{"type":"Point","properties":{"Station_ID":"CAN-ON-33","Station_Nam":"BURLINGTON 1.7 W, CA","Latitude":"43.37134","Longitude":"-79.83550","Snowdepth":"6.000","Units":"in","Rept_Date":"2019-11-12 12"},"coordinates":[5222,4817]},{"type":"Point","properties":{"Station_ID":"CAN-NB-13","Station_Nam":"BATHURST 3.8 NW, CAN","Latitude":"47.64212","Longitude":"-65.68756","Snowdepth":"6.000","Units":"in","Rept_Date":"2019-11-12 11"},"coordinates":[9495,7466]},{"type":"Point","properties":{"Station_ID":"BOON6","Station_Nam":"BOONVILLE 4 SSW","Latitude":"43.43610","Longitude":"-75.36970","Snowdepth":"6.000","Units":"in","Rept_Date":"2019-11-12 12"},"coordinates":[6571,4858]},{"type":"Point","properties":{"Station_ID":"AVON6","Station_Nam":"AVON","Latitude":"42.92030","Longitude":"-77.75580","Snowdepth":"6.000","Units":"in","Rept_Date":"2019-11-12 12"},"coordinates":[5850,4538]},{"type":"Point","properties":{"Station_ID":"APXM4","Station_Nam":"GAYLORD 9SSW","Latitude":"44.90720","Longitude":"-84.71880","Snowdepth":"6.000","Units":"in","Rept_Date":"2019-11-13 06"},"coordinates":[3747,5770]},{"type":"Point","properties":{"Station_ID":"ANJM4","Station_Nam":"SNOW PAID OBSERVER FOR KANJ","Latitude":"46.48670","Longitude":"-84.40260","Snowdepth":"6.000","Units":"in","Rept_Date":"2019-11-13 06"},"coordinates":[3842,6749]},{"type":"Point","properties":{"Station_ID":"ALMM4","Station_Nam":"ALMA,MI","Latitude":"43.38330","Longitude":"-84.66670","Snowdepth":"6.000","Units":"in","Rept_Date":"2019-11-12 12"},"coordinates":[3763,4825]},{"type":"Point","properties":{"Station_ID":"42.1154_080.1310","Station_Nam":"ERIE  SNOW SPOTTER (CLE0161)","Latitude":"42.11540","Longitude":"-80.13100","Snowdepth":"6.000","Units":"in","Rept_Date":"2019-11-12 23"},"coordinates":[5133,4039]},{"type":"Point","properties":{"Station_ID":"42.0452_080.3039","Station_Nam":"LAKE CITY  SNOW SPOTTER (CLE0157)","Latitude":"42.04520","Longitude":"-80.30390","Snowdepth":"6.000","Units":"in","Rept_Date":"2019-11-12 14"},"coordinates":[5080,3995]},{"type":"Point","properties":{"Station_ID":"42.0037_079.8102","Station_Nam":"WATTSBURG  SNOW SPOTTER (X4200798)","Latitude":"42.00370","Longitude":"-79.81020","Snowdepth":"6.000","Units":"in","Rept_Date":"2019-11-13 00"},"coordinates":[5229,3969]},{"type":"Point","properties":{"Station_ID":"41.9034_079.6523","Station_Nam":"CORRY (CLE0230)","Latitude":"41.90340","Longitude":"-79.65230","Snowdepth":"6.000","Units":"in","Rept_Date":"2019-11-12 14"},"coordinates":[5277,3907]},{"type":"Point","properties":{"Station_ID":"41.8478_080.6111","Station_Nam":"4 SSW CONNEAUT I-90  TRAINED SPOTTER (CLE1457)","Latitude":"41.84780","Longitude":"-80.61110","Snowdepth":"6.000","Units":"in","Rept_Date":"2019-11-13 00"},"coordinates":[4988,3873]},{"type":"Point","properties":{"Station_ID":"41.8275_080.5321","Station_Nam":"MONROE TWP  SNOW SPOTTER (X4180805)","Latitude":"41.82750","Longitude":"-80.53210","Snowdepth":"6.000","Units":"in","Rept_Date":"2019-11-13 02"},"coordinates":[5011,3860]},{"type":"Point","properties":{"Station_ID":"41.7685_081.0699","Station_Nam":"1 WSW Madison  Trained Spotter (CLE1252)","Latitude":"41.76851","Longitude":"-81.06988","Snowdepth":"6.000","Units":"in","Rept_Date":"2019-11-13 00"},"coordinates":[4849,3823]},{"type":"Point","properties":{"Station_ID":"41.5903_081.0480","Station_Nam":"1 SSE Montville  CoCoRaHS (OH-GG-4)","Latitude":"41.59030","Longitude":"-81.04800","Snowdepth":"6.000","Units":"in","Rept_Date":"2019-11-12 12"},"coordinates":[4856,3713]},{"type":"Point","properties":{"Station_ID":"41.5833_081.1833","Station_Nam":"1 NE CHARDON  CO-OP OBSERVER (CHRO1)","Latitude":"41.58330","Longitude":"-81.18330","Snowdepth":"6.000","Units":"in","Rept_Date":"2019-11-12 13"},"coordinates":[4815,3709]},{"type":"Point","properties":{"Station_ID":"41.5183_081.4792","Station_Nam":"1 ENE Lyndhurst  Trained Spotter (CLE1177)","Latitude":"41.51834","Longitude":"-81.47919","Snowdepth":"6.000","Units":"in","Rept_Date":"2019-11-13 03"},"coordinates":[4725,3668]},{"type":"Point","properties":{"Station_ID":"41.3674_081.7018","Station_Nam":"PARMA (CLE1154)","Latitude":"41.36740","Longitude":"-81.70180","Snowdepth":"6.000","Units":"in","Rept_Date":"2019-11-12 15"},"coordinates":[4658,3575]},{"type":"Point","properties":{"Station_ID":"41.3041_081.5599","Station_Nam":"SAGAMORE HILLS (CLE2123)","Latitude":"41.30410","Longitude":"-81.55990","Snowdepth":"6.000","Units":"in","Rept_Date":"2019-11-13 01"},"coordinates":[4701,3535]},{"type":"Point","properties":{"Station_ID":"QWG","Station_Nam":"QWG","Latitude":"48.48890","Longitude":"-73.45940","Snowdepth":"5.827","Units":"in","Rept_Date":"2019-11-12 12"},"coordinates":[7148,7991]},{"type":"Point","properties":{"Station_ID":"VT-OL-5","Station_Nam":"DERBY CENTER 1.8 NW, VT","Latitude":"44.97200","Longitude":"-72.14780","Snowdepth":"5.800","Units":"in","Rept_Date":"2019-11-12 12"},"coordinates":[7544,5810]},{"type":"Point","properties":{"Station_ID":"MI-LV-8","Station_Nam":"FENTON 5.6 WSW, MI","Latitude":"42.77287","Longitude":"-83.81870","Snowdepth":"5.800","Units":"in","Rept_Date":"2019-11-12 13"},"coordinates":[4019,4446]},{"type":"Point","properties":{"Station_ID":"IL-MCH-13","Station_Nam":"BULL VALLEY 2.5 WNW, IL","Latitude":"42.32455","Longitude":"-88.39460","Snowdepth":"5.700","Units":"in","Rept_Date":"2019-11-12 14"},"coordinates":[2637,4168]},{"type":"Point","properties":{"Station_ID":"CAN-ON-723","Station_Nam":"BOLTON 7.9 NW, CAN","Latitude":"43.93216","Longitude":"-79.80325","Snowdepth":"5.700","Units":"in","Rept_Date":"2019-11-12 12"},"coordinates":[5232,5165]},{"type":"Point","properties":{"Station_ID":"IN-KS-7","Station_Nam":"SYRACUSE 3.0 ESE, IN","Latitude":"41.40677","Longitude":"-85.69520","Snowdepth":"5.600","Units":"in","Rept_Date":"2019-11-12 13"},"coordinates":[3452,3599]},{"type":"Point","properties":{"Station_ID":"CAN-ON-748","Station_Nam":"WHITBY 2.4 SW, CAN","Latitude":"43.88036","Longitude":"-78.95664","Snowdepth":"5.600","Units":"in","Rept_Date":"2019-11-12 12"},"coordinates":[5487,5133]},{"type":"Point","properties":{"Station_ID":"SVBQ6","Station_Nam":"SAVANT BASE","Latitude":"50.28730","Longitude":"-90.65670","Snowdepth":"5.550","Units":"in","Rept_Date":"2019-11-13 06"},"coordinates":[1953,9106]},{"type":"Point","properties":{"Station_ID":"OH-SN-3","Station_Nam":"TIFFIN 5.2 SE, OH","Latitude":"41.05894","Longitude":"-83.11270","Snowdepth":"5.500","Units":"in","Rept_Date":"2019-11-12 12"},"coordinates":[4232,3383]},{"type":"Point","properties":{"Station_ID":"OH-PT-17","Station_Nam":"KENT 1.5 W, OH","Latitude":"41.14718","Longitude":"-81.39079","Snowdepth":"5.500","Units":"in","Rept_Date":"2019-11-12 12"},"coordinates":[4752,3438]},{"type":"Point","properties":{"Station_ID":"OH-PT-10","Station_Nam":"KENT 3.6 NE, OH","Latitude":"41.20083","Longitude":"-81.33890","Snowdepth":"5.500","Units":"in","Rept_Date":"2019-11-12 13"},"coordinates":[4768,3471]},{"type":"Point","properties":{"Station_ID":"OH-ER-5","Station_Nam":"WAKEMAN 4.6 NNE, OH","Latitude":"41.31902","Longitude":"-82.37730","Snowdepth":"5.500","Units":"in","Rept_Date":"2019-11-12 12"},"coordinates":[4454,3545]},{"type":"Point","properties":{"Station_ID":"OH-CW-3","Station_Nam":"BUCYRUS 1.0 NW, OH","Latitude":"40.81455","Longitude":"-82.98480","Snowdepth":"5.500","Units":"in","Rept_Date":"2019-11-12 12"},"coordinates":[4271,3232]},{"type":"Point","properties":{"Station_ID":"OH-AL-8","Station_Nam":"DELPHOS 2.3 ESE, OH","Latitude":"40.83350","Longitude":"-84.29820","Snowdepth":"5.500","Units":"in","Rept_Date":"2019-11-12 11"},"coordinates":[3874,3244]},{"type":"Point","properties":{"Station_ID":"NY-WY-11","Station_Nam":"SILVER SPRINGS COOP, NY","Latitude":"42.70580","Longitude":"-78.09370","Snowdepth":"5.500","Units":"in","Rept_Date":"2019-11-12 12"},"coordinates":[5748,4405]},{"type":"Point","properties":{"Station_ID":"NH-GR-47","Station_Nam":"LITTLETON 7.3 W, NH","Latitude":"44.31847","Longitude":"-71.91086","Snowdepth":"5.500","Units":"in","Rept_Date":"2019-11-12 13"},"coordinates":[7615,5405]},{"type":"Point","properties":{"Station_ID":"NH-CS-4","Station_Nam":"PITTSBURG 6.1 NE, NH","Latitude":"45.11060","Longitude":"-71.29760","Snowdepth":"5.500","Units":"in","Rept_Date":"2019-11-12 12"},"coordinates":[7801,5896]},{"type":"Point","properties":{"Station_ID":"MI-MT-9","Station_Nam":"FENWICK 3.3 E, MI","Latitude":"43.15067","Longitude":"-85.01435","Snowdepth":"5.500","Units":"in","Rept_Date":"2019-11-12 12"},"coordinates":[3658,4681]},{"type":"Point","properties":{"Station_ID":"MI-MD-10","Station_Nam":"MIDLAND 1.5 NNE, MI","Latitude":"43.64412","Longitude":"-84.21729","Snowdepth":"5.500","Units":"in","Rept_Date":"2019-11-12 11"},"coordinates":[3898,4987]},{"type":"Point","properties":{"Station_ID":"MI-KN-16","Station_Nam":"GRAND RAPIDS 2.5 ENE, MI","Latitude":"42.96970","Longitude":"-85.60750","Snowdepth":"5.500","Units":"in","Rept_Date":"2019-11-12 13"},"coordinates":[3479,4568]},{"type":"Point","properties":{"Station_ID":"MI-HR-10","Station_Nam":"BAY PORT 3.2 SSW, MI","Latitude":"43.80746","Longitude":"-83.40013","Snowdepth":"5.500","Units":"in","Rept_Date":"2019-11-12 13"},"coordinates":[4145,5088]},{"type":"Point","properties":{"Station_ID":"MI-BN-3","Station_Nam":"BUCHANAN 1.4 ESE, MI","Latitude":"41.81829","Longitude":"-86.34230","Snowdepth":"5.500","Units":"in","Rept_Date":"2019-11-12 12"},"coordinates":[3257,3854]},{"type":"Point","properties":{"Station_ID":"IN-LP-7","Station_Nam":"LA PORTE 1.6 SW, IN","Latitude":"41.59040","Longitude":"-86.73430","Snowdepth":"5.500","Units":"in","Rept_Date":"2019-11-12 13"},"coordinates":[3138,3713]},{"type":"Point","properties":{"Station_ID":"IL-MCH-93","Station_Nam":"MARENGO 0.8 S, IL","Latitude":"42.23612","Longitude":"-88.60322","Snowdepth":"5.500","Units":"in","Rept_Date":"2019-11-12 13"},"coordinates":[2574,4113]},{"type":"Point","properties":{"Station_ID":"CAN-ON-5","Station_Nam":"OWEN SOUND 1.5 NW - GSCA, CAN","Latitude":"44.57837","Longitude":"-80.95461","Snowdepth":"5.500","Units":"in","Rept_Date":"2019-11-12 13"},"coordinates":[4884,5566]},{"type":"Point","properties":{"Station_ID":"CAN-ON-466","Station_Nam":"PICTON 12.7 NNE, CAN","Latitude":"44.11197","Longitude":"-77.08426","Snowdepth":"5.500","Units":"in","Rept_Date":"2019-11-12 11"},"coordinates":[6053,5277]},{"type":"Point","properties":{"Station_ID":"CAN-ON-42","Station_Nam":"VANKLEEK HILL 3.4 S, CA","Latitude":"45.48987","Longitude":"-74.64570","Snowdepth":"5.500","Units":"in","Rept_Date":"2019-11-12 12"},"coordinates":[6789,6131]},{"type":"Point","properties":{"Station_ID":"CAN-ON-285","Station_Nam":"LEAMINGTON 3.0 N, CAN","Latitude":"42.07693","Longitude":"-82.59744","Snowdepth":"5.500","Units":"in","Rept_Date":"2019-11-12 11"},"coordinates":[4388,4015]},{"type":"Point","properties":{"Station_ID":"41.2008_081.3389","Station_Nam":"4 NE Kent  CoCoRaHS (OH-PT-10)","Latitude":"41.20080","Longitude":"-81.33890","Snowdepth":"5.500","Units":"in","Rept_Date":"2019-11-12 13"},"coordinates":[4768,3471]},{"type":"Point","properties":{"Station_ID":"41.0589_083.1127","Station_Nam":"5 SE Tiffin  CoCoRaHS (OH-SN-3)","Latitude":"41.05890","Longitude":"-83.11270","Snowdepth":"5.500","Units":"in","Rept_Date":"2019-11-12 12"},"coordinates":[4232,3383]},{"type":"Point","properties":{"Station_ID":"41.0211_083.2042","Station_Nam":"2 NNW Mexico  Trained Spotter (CLE1803)","Latitude":"41.02114","Longitude":"-83.20421","Snowdepth":"5.500","Units":"in","Rept_Date":"2019-11-12 08"},"coordinates":[4204,3360]},{"type":"Point","properties":{"Station_ID":"40.8146_082.9848","Station_Nam":"1 NW Bucyrus  CoCoRaHS (OH-CW-3)","Latitude":"40.81460","Longitude":"-82.98480","Snowdepth":"5.500","Units":"in","Rept_Date":"2019-11-12 10"},"coordinates":[4271,3232]},{"type":"Point","properties":{"Station_ID":"CAN-QC-45","Station_Nam":"DEUX-MONTAGNES 3.7 ESE, CAN","Latitude":"45.52832","Longitude":"-73.84913","Snowdepth":"5.300","Units":"in","Rept_Date":"2019-11-12 14"},"coordinates":[7030,6155]},{"type":"Point","properties":{"Station_ID":"CAN-ON-324","Station_Nam":"AMHERSTBURG 4.0 NNE, CAN","Latitude":"42.13151","Longitude":"-83.08810","Snowdepth":"5.300","Units":"in","Rept_Date":"2019-11-12 12"},"coordinates":[4239,4049]},{"type":"Point","properties":{"Station_ID":"QYR","Station_Nam":"QYR","Latitude":"48.87220","Longitude":"-75.61470","Snowdepth":"5.276","Units":"in","Rept_Date":"2019-11-12 12"},"coordinates":[6497,8229]},{"type":"Point","properties":{"Station_ID":"CAN-ON-92","Station_Nam":"DUNROBIN 1.9 W - MVCA, CAN","Latitude":"45.42318","Longitude":"-76.04525","Snowdepth":"5.200","Units":"in","Rept_Date":"2019-11-12 12"},"coordinates":[6367,6090]},{"type":"Point","properties":{"Station_ID":"QLP","Station_Nam":"QLP","Latitude":"48.13920","Longitude":"-72.63830","Snowdepth":"5.079","Units":"in","Rept_Date":"2019-11-12 12"},"coordinates":[7396,7774]},{"type":"Point","properties":{"Station_ID":"QGA","Station_Nam":"QGA","Latitude":"47.25640","Longitude":"-73.73810","Snowdepth":"5.039","Units":"in","Rept_Date":"2019-11-12 12"},"coordinates":[7063,7227]},{"type":"Point","properties":{"Station_ID":"WTRM4","Station_Nam":"WATERSMEET 12WSW","Latitude":"46.22310","Longitude":"-89.40850","Snowdepth":"5.000","Units":"in","Rept_Date":"2019-11-12 12"},"coordinates":[2330,6586]},{"type":"Point","properties":{"Station_ID":"WI-VL-10","Station_Nam":"LAND O LAKES 4.3 WNW, WI","Latitude":"46.17440","Longitude":"-89.30380","Snowdepth":"5.000","Units":"in","Rept_Date":"2019-11-12 13"},"coordinates":[2362,6556]},{"type":"Point","properties":{"Station_ID":"WI-KN-16","Station_Nam":"SALEM 0.9 ESE, WI","Latitude":"42.55160","Longitude":"-88.09374","Snowdepth":"5.000","Units":"in","Rept_Date":"2019-11-12 13"},"coordinates":[2728,4309]},{"type":"Point","properties":{"Station_ID":"WI-GN-8","Station_Nam":"BRODHEAD 0.7 NNW, WI","Latitude":"42.62658","Longitude":"-89.38124","Snowdepth":"5.000","Units":"in","Rept_Date":"2019-11-12 14"},"coordinates":[2339,4356]},{"type":"Point","properties":{"Station_ID":"WAIV1","Station_Nam":"WAITSFIELD","Latitude":"44.17560","Longitude":"-72.79610","Snowdepth":"5.000","Units":"in","Rept_Date":"2019-11-12 12"},"coordinates":[7348,5316]},{"type":"Point","properties":{"Station_ID":"VT-WS-30","Station_Nam":"WOODBURY 3.4 NNW, VT","Latitude":"44.48825","Longitude":"-72.43258","Snowdepth":"5.000","Units":"in","Rept_Date":"2019-11-12 12"},"coordinates":[7458,5510]},{"type":"Point","properties":{"Station_ID":"VT-WS-11","Station_Nam":"WAITSFIELD 1.8 SE, VT","Latitude":"44.17551","Longitude":"-72.79540","Snowdepth":"5.000","Units":"in","Rept_Date":"2019-11-12 12"},"coordinates":[7348,5316]},{"type":"Point","properties":{"Station_ID":"VT-OL-2","Station_Nam":"BARTON 3.0 ENE, VT","Latitude":"44.75863","Longitude":"-72.11680","Snowdepth":"5.000","Units":"in","Rept_Date":"2019-11-12 12"},"coordinates":[7553,5678]},{"type":"Point","properties":{"Station_ID":"VT-LM-7","Station_Nam":"HYDE PARK 2.9 NE, VT","Latitude":"44.62080","Longitude":"-72.57250","Snowdepth":"5.000","Units":"in","Rept_Date":"2019-11-12 12"},"coordinates":[7416,5592]},{"type":"Point","properties":{"Station_ID":"TRVM4","Station_Nam":"THREE RIVERS,MI","Latitude":"41.93330","Longitude":"-85.63330","Snowdepth":"5.000","Units":"in","Rept_Date":"2019-11-12 12"},"coordinates":[3471,3926]},{"type":"Point","properties":{"Station_ID":"TECM4","Station_Nam":"TECUMSEH,MI","Latitude":"42.00000","Longitude":"-83.95000","Snowdepth":"5.000","Units":"in","Rept_Date":"2019-11-12 11"},"coordinates":[3979,3967]},{"type":"Point","properties":{"Station_ID":"TCEM4","Station_Nam":"TRAVERSE CITY 5ESE","Latitude":"44.73370","Longitude":"-85.51180","Snowdepth":"5.000","Units":"in","Rept_Date":"2019-11-12 12"},"coordinates":[3507,5662]},{"type":"Point","properties":{"Station_ID":"SJBV1","Station_Nam":"SAINT JOHNSBURY","Latitude":"44.42000","Longitude":"-72.01940","Snowdepth":"5.000","Units":"in","Rept_Date":"2019-11-12 21"},"coordinates":[7583,5468]},{"type":"Point","properties":{"Station_ID":"SGVN6","Station_Nam":"SPRINGVILLE","Latitude":"42.54970","Longitude":"-78.57670","Snowdepth":"5.000","Units":"in","Rept_Date":"2019-11-13 00"},"coordinates":[5602,4308]},{"type":"Point","properties":{"Station_ID":"PYMI3","Station_Nam":"PLYMOUTH","Latitude":"41.33920","Longitude":"-86.33580","Snowdepth":"5.000","Units":"in","Rept_Date":"2019-11-12 11"},"coordinates":[3259,3557]},{"type":"Point","properties":{"Station_ID":"PDGM4","Station_Nam":"PAULDING","Latitude":"46.39760","Longitude":"-89.17940","Snowdepth":"5.000","Units":"in","Rept_Date":"2019-11-12 13"},"coordinates":[2400,6694]},{"type":"Point","properties":{"Station_ID":"PA-WT-42","Station_Nam":"LIGONIER 0.1 SE, PA","Latitude":"40.24319","Longitude":"-79.23526","Snowdepth":"5.000","Units":"in","Rept_Date":"2019-11-12 12"},"coordinates":[5403,2878]},{"type":"Point","properties":{"Station_ID":"OH-SD-2","Station_Nam":"FREMONT 2.2 ENE, OH","Latitude":"41.36582","Longitude":"-83.07538","Snowdepth":"5.000","Units":"in","Rept_Date":"2019-11-12 11"},"coordinates":[4243,3574]},{"type":"Point","properties":{"Station_ID":"OH-PT-9","Station_Nam":"HIRAM 0.4 N, OH","Latitude":"41.31595","Longitude":"-81.14340","Snowdepth":"5.000","Units":"in","Rept_Date":"2019-11-12 12"},"coordinates":[4827,3543]},{"type":"Point","properties":{"Station_ID":"OH-MM-1","Station_Nam":"PIQUA 0.8 SSE, OH","Latitude":"40.13584","Longitude":"-84.24760","Snowdepth":"5.000","Units":"in","Rept_Date":"2019-11-12 12"},"coordinates":[3889,2811]},{"type":"Point","properties":{"Station_ID":"OH-ER-11","Station_Nam":"BERLIN HEIGHTS 0.4 N, OH","Latitude":"41.32624","Longitude":"-82.49200","Snowdepth":"5.000","Units":"in","Rept_Date":"2019-11-12 12"},"coordinates":[4419,3549]},{"type":"Point","properties":{"Station_ID":"OH-AZ-18","Station_Nam":"WAPAKONETA 0.9 E, OH","Latitude":"40.56780","Longitude":"-84.17544","Snowdepth":"5.000","Units":"in","Rept_Date":"2019-11-12 12"},"coordinates":[3911,3079]},{"type":"Point","properties":{"Station_ID":"OH-AL-10","Station_Nam":"LIMA 3.0 SSE, OH","Latitude":"40.70090","Longitude":"-84.09660","Snowdepth":"5.000","Units":"in","Rept_Date":"2019-11-12 11"},"coordinates":[3935,3161]},{"type":"Point","properties":{"Station_ID":"NY-WN-6","Station_Nam":"PALMYRA 1.6 NW, NY","Latitude":"43.07950","Longitude":"-77.25260","Snowdepth":"5.000","Units":"in","Rept_Date":"2019-11-12 13"},"coordinates":[6002,4636]},{"type":"Point","properties":{"Station_ID":"NWPM4","Station_Nam":"NEWPORT 4SSE","Latitude":"41.94970","Longitude":"-83.28000","Snowdepth":"5.000","Units":"in","Rept_Date":"2019-11-12 12"},"coordinates":[4181,3936]},{"type":"Point","properties":{"Station_ID":"NVLV1","Station_Nam":"NASHVILLE","Latitude":"44.44970","Longitude":"-72.92640","Snowdepth":"5.000","Units":"in","Rept_Date":"2019-11-12 12"},"coordinates":[7309,5486]},{"type":"Point","properties":{"Station_ID":"NCKN6","Station_Nam":"NORTH CREEK 5 SE","Latitude":"43.66110","Longitude":"-73.89690","Snowdepth":"5.000","Units":"in","Rept_Date":"2019-11-12 12"},"coordinates":[7015,4997]},{"type":"Point","properties":{"Station_ID":"NALN6","Station_Nam":"CATTARAUGUS","Latitude":"42.32450","Longitude":"-78.86700","Snowdepth":"5.000","Units":"in","Rept_Date":"2019-11-12 13"},"coordinates":[5514,4168]},{"type":"Point","properties":{"Station_ID":"MXON6","Station_Nam":"MEXICO","Latitude":"43.43830","Longitude":"-76.26560","Snowdepth":"5.000","Units":"in","Rept_Date":"2019-11-12 12"},"coordinates":[6300,4859]},{"type":"Point","properties":{"Station_ID":"MRQM4","Station_Nam":"MARQUETTE WFP","Latitude":"46.54580","Longitude":"-87.37950","Snowdepth":"5.000","Units":"in","Rept_Date":"2019-11-12 13"},"coordinates":[2943,6786]},{"type":"Point","properties":{"Station_ID":"MNRM4","Station_Nam":"MONROE WWTP","Latitude":"41.90240","Longitude":"-83.36970","Snowdepth":"5.000","Units":"in","Rept_Date":"2019-11-12 14"},"coordinates":[4154,3906]},{"type":"Point","properties":{"Station_ID":"MMRN6","Station_Nam":"MOUNT MORRIS 2 W","Latitude":"42.73130","Longitude":"-77.90540","Snowdepth":"5.000","Units":"in","Rept_Date":"2019-11-12 13"},"coordinates":[5805,4420]},{"type":"Point","properties":{"Station_ID":"MI-MR-1","Station_Nam":"NEWPORT 3.1 SE, MI","Latitude":"41.94960","Longitude":"-83.28010","Snowdepth":"5.000","Units":"in","Rept_Date":"2019-11-12 12"},"coordinates":[4181,3936]},{"type":"Point","properties":{"Station_ID":"MI-KZ-1","Station_Nam":"KALAMAZOO 6.0 SW, MI","Latitude":"42.20613","Longitude":"-85.65900","Snowdepth":"5.000","Units":"in","Rept_Date":"2019-11-12 13"},"coordinates":[3463,4095]},{"type":"Point","properties":{"Station_ID":"MI-KN-7","Station_Nam":"EAST GRAND RAPIDS 0.7 SSW, MI","Latitude":"42.93801","Longitude":"-85.61340","Snowdepth":"5.000","Units":"in","Rept_Date":"2019-11-12 12"},"coordinates":[3477,4549]},{"type":"Point","properties":{"Station_ID":"MI-KN-43","Station_Nam":"CALEDONIA 4.4 WNW, MI","Latitude":"42.82526","Longitude":"-85.58940","Snowdepth":"5.000","Units":"in","Rept_Date":"2019-11-12 11"},"coordinates":[3484,4479]},{"type":"Point","properties":{"Station_ID":"MI-KN-33","Station_Nam":"GRAND RAPIDS 3.0 NW, MI","Latitude":"42.99502","Longitude":"-85.69218","Snowdepth":"5.000","Units":"in","Rept_Date":"2019-11-12 12"},"coordinates":[3453,4584]},{"type":"Point","properties":{"Station_ID":"MI-KN-14","Station_Nam":"GRANDVILLE 1.3 WSW, MI","Latitude":"42.89716","Longitude":"-85.77910","Snowdepth":"5.000","Units":"in","Rept_Date":"2019-11-12 12"},"coordinates":[3427,4523]},{"type":"Point","properties":{"Station_ID":"MI-IN-1","Station_Nam":"SARANAC 2.6 NE, MI","Latitude":"42.95764","Longitude":"-85.17380","Snowdepth":"5.000","Units":"in","Rept_Date":"2019-11-12 11"},"coordinates":[3610,4561]},{"type":"Point","properties":{"Station_ID":"MI-HL-9","Station_Nam":"MONTGOMERY 1.9 SSE, MI","Latitude":"41.75167","Longitude":"-84.78952","Snowdepth":"5.000","Units":"in","Rept_Date":"2019-11-12 13"},"coordinates":[3726,3813]},{"type":"Point","properties":{"Station_ID":"MI-HG-12","Station_Nam":"DOLLAR BAY 0.2 ENE, MI","Latitude":"47.12067","Longitude":"-88.49895","Snowdepth":"5.000","Units":"in","Rept_Date":"2019-11-12 13"},"coordinates":[2605,7143]},{"type":"Point","properties":{"Station_ID":"MI-HG-1","Station_Nam":"HOUGHTON 1.6 ESE, MI","Latitude":"47.10774","Longitude":"-88.52940","Snowdepth":"5.000","Units":"in","Rept_Date":"2019-11-12 13"},"coordinates":[2596,7134]},{"type":"Point","properties":{"Station_ID":"MI-GT-25","Station_Nam":"TRAVERSE CITY 4.7 ESE, MI","Latitude":"44.73370","Longitude":"-85.51189","Snowdepth":"5.000","Units":"in","Rept_Date":"2019-11-12 12"},"coordinates":[3507,5662]},{"type":"Point","properties":{"Station_ID":"MI-BR-13","Station_Nam":"HASTINGS 4.3 SSW, MI","Latitude":"42.59178","Longitude":"-85.31610","Snowdepth":"5.000","Units":"in","Rept_Date":"2019-11-12 11"},"coordinates":[3567,4334]},{"type":"Point","properties":{"Station_ID":"MI-BN-4","Station_Nam":"NILES 2.7 W, MI","Latitude":"41.83705","Longitude":"-86.30050","Snowdepth":"5.000","Units":"in","Rept_Date":"2019-11-12 13"},"coordinates":[3269,3866]},{"type":"Point","properties":{"Station_ID":"MI-AN-1","Station_Nam":"WAYLAND 2.0 W, MI","Latitude":"42.67323","Longitude":"-85.68010","Snowdepth":"5.000","Units":"in","Rept_Date":"2019-11-12 12"},"coordinates":[3457,4384]},{"type":"Point","properties":{"Station_ID":"LOWN6","Station_Nam":"LOWVILLE","Latitude":"43.79280","Longitude":"-75.48290","Snowdepth":"5.000","Units":"in","Rept_Date":"2019-11-12 12"},"coordinates":[6536,5079]},{"type":"Point","properties":{"Station_ID":"LILM1","Station_Nam":"LILLE","Latitude":"47.27770","Longitude":"-68.10520","Snowdepth":"5.000","Units":"in","Rept_Date":"2019-11-12 12"},"coordinates":[8765,7240]},{"type":"Point","properties":{"Station_ID":"LAPI3","Station_Nam":"LAPORTE","Latitude":"41.61160","Longitude":"-86.72970","Snowdepth":"5.000","Units":"in","Rept_Date":"2019-11-13 06"},"coordinates":[3140,3726]},{"type":"Point","properties":{"Station_ID":"LAN","Station_Nam":"CAPITAL CITY AIRPORT","Latitude":"42.77860","Longitude":"-84.58720","Snowdepth":"5.000","Units":"in","Rept_Date":"2019-11-13 00"},"coordinates":[3787,4450]},{"type":"Point","properties":{"Station_ID":"KMTC","Station_Nam":"SELFRIDGE AIR NATIONAL GUARD BASE","Latitude":"42.61666","Longitude":"-82.83333","Snowdepth":"5.000","Units":"in","Rept_Date":"2019-11-13 00"},"coordinates":[4316,4349]},{"type":"Point","properties":{"Station_ID":"KLKM4","Station_Nam":"KALKASKA","Latitude":"44.72800","Longitude":"-85.17270","Snowdepth":"5.000","Units":"in","Rept_Date":"2019-11-12 13"},"coordinates":[3610,5659]},{"type":"Point","properties":{"Station_ID":"KIMO1","Station_Nam":"KINGS MILLS","Latitude":"39.35310","Longitude":"-84.26020","Snowdepth":"5.000","Units":"in","Rept_Date":"2019-11-12 12"},"coordinates":[3885,2326]},{"type":"Point","properties":{"Station_ID":"IWXI3","Station_Nam":"NORTHERN INDIANA WFO","Latitude":"41.35880","Longitude":"-85.69970","Snowdepth":"5.000","Units":"in","Rept_Date":"2019-11-13 06"},"coordinates":[3451,3569]},{"type":"Point","properties":{"Station_ID":"ISLV1","Station_Nam":"ISLAND POND","Latitude":"44.81280","Longitude":"-71.89020","Snowdepth":"5.000","Units":"in","Rept_Date":"2019-11-12 15"},"coordinates":[7622,5711]},{"type":"Point","properties":{"Station_ID":"IN-SN-9","Station_Nam":"ANGOLA 4.1 N, IN","Latitude":"41.70100","Longitude":"-84.98670","Snowdepth":"5.000","Units":"in","Rept_Date":"2019-11-12 11"},"coordinates":[3666,3782]},{"type":"Point","properties":{"Station_ID":"IN-KS-32","Station_Nam":"LEESBURG 6.7 ESE, IN","Latitude":"41.31009","Longitude":"-85.72290","Snowdepth":"5.000","Units":"in","Rept_Date":"2019-11-12 12"},"coordinates":[3444,3539]},{"type":"Point","properties":{"Station_ID":"IN-BN-2","Station_Nam":"NEW ROSS 2.0 E, IN","Latitude":"39.96088","Longitude":"-86.67620","Snowdepth":"5.000","Units":"in","Rept_Date":"2019-11-12 12"},"coordinates":[3156,2702]},{"type":"Point","properties":{"Station_ID":"IL-SP-7","Station_Nam":"DAVIS 0.5 N, IL","Latitude":"42.42919","Longitude":"-89.41730","Snowdepth":"5.000","Units":"in","Rept_Date":"2019-11-12 13"},"coordinates":[2328,4233]},{"type":"Point","properties":{"Station_ID":"IL-MCH-43","Station_Nam":"ALGONQUIN 0.7 N, IL","Latitude":"42.17392","Longitude":"-88.29930","Snowdepth":"5.000","Units":"in","Rept_Date":"2019-11-12 11"},"coordinates":[2666,4075]},{"type":"Point","properties":{"Station_ID":"IL-MCH-33","Station_Nam":"WOODSTOCK 3.8 SW, IL","Latitude":"42.27554","Longitude":"-88.49500","Snowdepth":"5.000","Units":"in","Rept_Date":"2019-11-12 14"},"coordinates":[2606,4138]},{"type":"Point","properties":{"Station_ID":"IL-MCH-30","Station_Nam":"WONDER LAKE 0.8 WNW, IL","Latitude":"42.38354","Longitude":"-88.37090","Snowdepth":"5.000","Units":"in","Rept_Date":"2019-11-12 13"},"coordinates":[2644,4205]},{"type":"Point","properties":{"Station_ID":"IL-KN-118","Station_Nam":"SLEEPY HOLLOW 0.7 W, IL","Latitude":"42.09500","Longitude":"-88.32790","Snowdepth":"5.000","Units":"in","Rept_Date":"2019-11-12 13"},"coordinates":[2657,4026]},{"type":"Point","properties":{"Station_ID":"IL-JD-2","Station_Nam":"GALENA 5.7 E, IL","Latitude":"42.40627","Longitude":"-90.31810","Snowdepth":"5.000","Units":"in","Rept_Date":"2019-11-12 13"},"coordinates":[2056,4219]},{"type":"Point","properties":{"Station_ID":"HBHM4","Station_Nam":"HARBOR BEACH,MI","Latitude":"43.83330","Longitude":"-82.63330","Snowdepth":"5.000","Units":"in","Rept_Date":"2019-11-12 13"},"coordinates":[4377,5104]},