{"type":"Topology","objects":{"snowdepth_geo":{"type":"GeometryCollection","name":"snowdepth","crs":{"type":"name","properties":{"name":"urn:ogc:def:crs:OGC:1.3:CRS84"}},"geometries":[{"type":"Point","properties":{"Station_ID":"PRKM4","Station_Nam":"MUNISING EAST","Latitude":"46.42580","Longitude":"-86.62000","Snowdepth":"76.500","Units":"in","Rept_Date":"2020-12-01 06"},"coordinates":[3460,6764]},{"type":"Point","properties":{"Station_ID":"QOU","Station_Nam":"QOU","Latitude":"50.79250","Longitude":"-69.67470","Snowdepth":"11.693","Units":"in","Rept_Date":"2020-11-30 12"},"coordinates":[9082,9429]},{"type":"Point","properties":{"Station_ID":"QGD","Station_Nam":"QGD","Latitude":"51.11140","Longitude":"-67.13940","Snowdepth":"10.394","Units":"in","Rept_Date":"2020-11-30 12"},"coordinates":[9923,9623]},{"type":"Point","properties":{"Station_ID":"MLZ","Station_Nam":"MLZ","Latitude":"50.66170","Longitude":"-68.82360","Snowdepth":"10.157","Units":"in","Rept_Date":"2020-11-30 12"},"coordinates":[9364,9349]},{"type":"Point","properties":{"Station_ID":"MFU","Station_Nam":"MFU","Latitude":"51.52170","Longitude":"-66.91110","Snowdepth":"10.157","Units":"in","Rept_Date":"2020-11-30 12"},"coordinates":[9999,9874]},{"type":"Point","properties":{"Station_ID":"QTV","Station_Nam":"QTV","Latitude":"49.66000","Longitude":"-69.35690","Snowdepth":"10.118","Units":"in","Rept_Date":"2020-11-30 12"},"coordinates":[9188,8738]},{"type":"Point","properties":{"Station_ID":"TRIQ6","Station_Nam":"TRIO LAKE","Latitude":"49.22880","Longitude":"-87.22920","Snowdepth":"8.980","Units":"in","Rept_Date":"2020-12-01 06"},"coordinates":[3258,8475]},{"type":"Point","properties":{"Station_ID":"DVLQ6","Station_Nam":"DEVIOUS LAKE","Latitude":"49.19890","Longitude":"-87.76440","Snowdepth":"7.990","Units":"in","Rept_Date":"2020-12-01 06"},"coordinates":[3080,8456]},{"type":"Point","properties":{"Station_ID":"AUDQ6","Station_Nam":"AUDEN","Latitude":"48.52600","Longitude":"-82.57570","Snowdepth":"7.950","Units":"in","Rept_Date":"2020-12-01 06"},"coordinates":[4802,8046]},{"type":"Point","properties":{"Station_ID":"QLM","Station_Nam":"QLM","Latitude":"48.92030","Longitude":"-70.25280","Snowdepth":"7.047","Units":"in","Rept_Date":"2020-11-30 12"},"coordinates":[8890,8286]},{"type":"Point","properties":{"Station_ID":"PTLQ6","Station_Nam":"PORTAGE LAKE","Latitude":"49.06950","Longitude":"-86.65940","Snowdepth":"7.010","Units":"in","Rept_Date":"2020-12-01 06"},"coordinates":[3447,8377]},{"type":"Point","properties":{"Station_ID":"QLB","Station_Nam":"QLB","Latitude":"50.72360","Longitude":"-75.10000","Snowdepth":"7.008","Units":"in","Rept_Date":"2020-11-30 12"},"coordinates":[7282,9387]},{"type":"Point","properties":{"Station_ID":"QCO","Station_Nam":"QCO","Latitude":"51.45280","Longitude":"-72.20110","Snowdepth":"6.575","Units":"in","Rept_Date":"2020-11-30 12"},"coordinates":[8244,9832]},{"type":"Point","properties":{"Station_ID":"CLQM5","Station_Nam":"CLOQUET","Latitude":"46.70470","Longitude":"-92.52530","Snowdepth":"6.000","Units":"in","Rept_Date":"2020-11-30 14"},"coordinates":[1500,6934]},{"type":"Point","properties":{"Station_ID":"QCX","Station_Nam":"QCX","Latitude":"51.32830","Longitude":"-70.08060","Snowdepth":"5.984","Units":"in","Rept_Date":"2020-11-30 12"},"coordinates":[8947,9756]},{"type":"Point","properties":{"Station_ID":"QMA","Station_Nam":"QMA","Latitude":"50.10330","Longitude":"-70.47190","Snowdepth":"5.905","Units":"in","Rept_Date":"2020-11-30 12"},"coordinates":[8818,9008]},{"type":"Point","properties":{"Station_ID":"OGIQ6","Station_Nam":"OGOKI CAMP","Latitude":"50.76680","Longitude":"-87.85820","Snowdepth":"5.790","Units":"in","Rept_Date":"2020-12-01 06"},"coordinates":[3049,9413]},{"type":"Point","properties":{"Station_ID":"SOCQ6","Station_Nam":"SOCKET LAKE","Latitude":"50.77870","Longitude":"-91.79300","Snowdepth":"5.350","Units":"in","Rept_Date":"2020-12-01 06"},"coordinates":[1743,9420]},{"type":"Point","properties":{"Station_ID":"CATQ6","Station_Nam":"CAT LAKE","Latitude":"51.72690","Longitude":"-91.82210","Snowdepth":"5.310","Units":"in","Rept_Date":"2020-12-01 06"},"coordinates":[1734,9999]},{"type":"Point","properties":{"Station_ID":"QTM","Station_Nam":"QTM","Latitude":"51.05780","Longitude":"-72.57190","Snowdepth":"5.276","Units":"in","Rept_Date":"2020-11-30 12"},"coordinates":[8121,9591]},{"type":"Point","properties":{"Station_ID":"QGO","Station_Nam":"QGO","Latitude":"48.85500","Longitude":"-74.20640","Snowdepth":"5.197","Units":"in","Rept_Date":"2020-11-30 12"},"coordinates":[7578,8246]},{"type":"Point","properties":{"Station_ID":"KABQ6","Station_Nam":"CAB LAKE","Latitude":"49.59950","Longitude":"-89.17990","Snowdepth":"5.080","Units":"in","Rept_Date":"2020-12-01 06"},"coordinates":[2610,8701]},{"type":"Point","properties":{"Station_ID":"FTHQ6","Station_Nam":"FORT HOPE","Latitude":"51.55820","Longitude":"-87.90510","Snowdepth":"5.080","Units":"in","Rept_Date":"2020-12-01 06"},"coordinates":[3033,9896]},{"type":"Point","properties":{"Station_ID":"QIQ","Station_Nam":"QIQ","Latitude":"49.82390","Longitude":"-68.54310","Snowdepth":"5.000","Units":"in","Rept_Date":"2020-11-30 12"},"coordinates":[9458,8838]},{"type":"Point","properties":{"Station_ID":"MMNV1","Station_Nam":"MT. MANSFIELD","Latitude":"44.52480","Longitude":"-72.81540","Snowdepth":"5.000","Units":"in","Rept_Date":"2020-11-30 21"},"coordinates":[8040,5604]},{"type":"Point","properties":{"Station_ID":"MI-HG-20","Station_Nam":"CALUMET 1.1 SSW, MI","Latitude":"47.23165","Longitude":"-88.45823","Snowdepth":"5.000","Units":"in","Rept_Date":"2020-11-30 11"},"coordinates":[2850,7256]},{"type":"Point","properties":{"Station_ID":"QGT","Station_Nam":"QGT","Latitude":"49.64720","Longitude":"-67.62640","Snowdepth":"4.882","Units":"in","Rept_Date":"2020-11-30 12"},"coordinates":[9762,8730]},{"type":"Point","properties":{"Station_ID":"MI-BG-3","Station_Nam":"THREE LAKES, MI","Latitude":"46.55730","Longitude":"-88.20770","Snowdepth":"4.800","Units":"in","Rept_Date":"2020-11-30 13"},"coordinates":[2933,6844]},{"type":"Point","properties":{"Station_ID":"QWG","Station_Nam":"QWG","Latitude":"48.48890","Longitude":"-73.45940","Snowdepth":"4.567","Units":"in","Rept_Date":"2020-11-30 12"},"coordinates":[7826,8023]},{"type":"Point","properties":{"Station_ID":"QLP","Station_Nam":"QLP","Latitude":"48.13920","Longitude":"-72.63830","Snowdepth":"4.567","Units":"in","Rept_Date":"2020-11-30 12"},"coordinates":[8099,7810]},{"type":"Point","properties":{"Station_ID":"MRL","Station_Nam":"MRL","Latitude":"51.28330","Longitude":"-68.84060","Snowdepth":"4.173","Units":"in","Rept_Date":"2020-11-30 12"},"coordinates":[9359,9728]},{"type":"Point","properties":{"Station_ID":"WLFM5","Station_Nam":"WOLF RIDGE ENVIRON LEARNING CENTER","Latitude":"47.38240","Longitude":"-91.19730","Snowdepth":"4.000","Units":"in","Rept_Date":"2020-11-30 13"},"coordinates":[1941,7348]},{"type":"Point","properties":{"Station_ID":"TIPM4","Station_Nam":"TIPTON,MI","Latitude":"42.03330","Longitude":"-84.10000","Snowdepth":"4.000","Units":"in","Rept_Date":"2020-11-30 13"},"coordinates":[4296,4083]},{"type":"Point","properties":{"Station_ID":"PDRO1","Station_Nam":"PANDORA","Latitude":"40.95410","Longitude":"-83.96160","Snowdepth":"4.000","Units":"in","Rept_Date":"2020-12-01 05"},"coordinates":[4342,3425]},{"type":"Point","properties":{"Station_ID":"LEIM5","Station_Nam":"ORR 3E","Latitude":"48.05810","Longitude":"-92.75220","Snowdepth":"4.000","Units":"in","Rept_Date":"2020-11-30 12"},"coordinates":[1425,7760]},{"type":"Point","properties":{"Station_ID":"HERM4","Station_Nam":"HERMAN,MI","Latitude":"46.65000","Longitude":"-88.33330","Snowdepth":"4.000","Units":"in","Rept_Date":"2020-11-30 13"},"coordinates":[2891,6901]},{"type":"Point","properties":{"Station_ID":"SVBQ6","Station_Nam":"SAVANT BASE","Latitude":"50.28730","Longitude":"-90.65670","Snowdepth":"3.940","Units":"in","Rept_Date":"2020-12-01 06"},"coordinates":[2120,9120]},{"type":"Point","properties":{"Station_ID":"QWE","Station_Nam":"QWE","Latitude":"47.84610","Longitude":"-73.80670","Snowdepth":"3.937","Units":"in","Rept_Date":"2020-11-30 12"},"coordinates":[7711,7631]},{"type":"Point","properties":{"Station_ID":"MN-LK-4","Station_Nam":"TWO HARBORS 3.6 WNW, MN","Latitude":"47.04118","Longitude":"-91.75280","Snowdepth":"3.500","Units":"in","Rept_Date":"2020-11-30 13"},"coordinates":[1757,7139]},{"type":"Point","properties":{"Station_ID":"CAN-ON-771","Station_Nam":"KENORA 8.7 NNE - CANWARN, CAN","Latitude":"49.84171","Longitude":"-94.44386","Snowdepth":"3.200","Units":"in","Rept_Date":"2020-11-30 13"},"coordinates":[864,8849]},{"type":"Point","properties":{"Station_ID":"QLI","Station_Nam":"QLI","Latitude":"50.27080","Longitude":"-73.92280","Snowdepth":"3.189","Units":"in","Rept_Date":"2020-11-30 12"},"coordinates":[7673,9110]},{"type":"Point","properties":{"Station_ID":"CAN-MB-368","Station_Nam":"WHITESHELL 1.3 NE, CAN","Latitude":"49.74405","Longitude":"-95.19123","Snowdepth":"3.100","Units":"in","Rept_Date":"2020-11-30 14"},"coordinates":[616,8789]},{"type":"Point","properties":{"Station_ID":"QNCM4","Station_Nam":"QUINCY HILL","Latitude":"47.13640","Longitude":"-88.57950","Snowdepth":"3.000","Units":"in","Rept_Date":"2020-11-30 12"},"coordinates":[2810,7198]},{"type":"Point","properties":{"Station_ID":"OH-CN-6","Station_Nam":"WILMINGTON 3.6 W, OH","Latitude":"39.44200","Longitude":"-83.89880","Snowdepth":"3.000","Units":"in","Rept_Date":"2020-12-01 00"},"coordinates":[4363,2502]},{"type":"Point","properties":{"Station_ID":"MWN","Station_Nam":"MOUNT WASHINGTON","Latitude":"44.26670","Longitude":"-71.30000","Snowdepth":"3.000","Units":"in","Rept_Date":"2020-11-30 12"},"coordinates":[8543,5446]},{"type":"Point","properties":{"Station_ID":"MN-SL-18","Station_Nam":"DULUTH 1.4 NNW, MN","Latitude":"46.80321","Longitude":"-92.11240","Snowdepth":"3.000","Units":"in","Rept_Date":"2020-11-30 14"},"coordinates":[1637,6994]},{"type":"Point","properties":{"Station_ID":"MN-CN-36","Station_Nam":"CLOQUET 3.4 ENE, MN","Latitude":"46.74146","Longitude":"-92.42698","Snowdepth":"3.000","Units":"in","Rept_Date":"2020-11-30 13"},"coordinates":[1533,6957]},{"type":"Point","properties":{"Station_ID":"MN-CK-18","Station_Nam":"GRAND MARAIS 4.4 WSW, MN","Latitude":"47.74462","Longitude":"-90.43796","Snowdepth":"3.000","Units":"in","Rept_Date":"2020-11-30 13"},"coordinates":[2193,7569]},{"type":"Point","properties":{"Station_ID":"ME-AR-18","Station_Nam":"NEW SWEDEN 4.9 NNW, ME","Latitude":"47.01080","Longitude":"-68.14390","Snowdepth":"3.000","Units":"in","Rept_Date":"2020-11-30 12"},"coordinates":[9590,7121]},{"type":"Point","properties":{"Station_ID":"ILNO1","Station_Nam":"WFO WILMINGTON","Latitude":"39.42150","Longitude":"-83.82220","Snowdepth":"3.000","Units":"in","Rept_Date":"2020-12-01 05"},"coordinates":[4388,2489]},{"type":"Point","properties":{"Station_ID":"FISM1","Station_Nam":"FORT KENT COOP","Latitude":"47.23850","Longitude":"-68.61240","Snowdepth":"3.000","Units":"in","Rept_Date":"2020-11-30 12"},"coordinates":[9435,7260]},{"type":"Point","properties":{"Station_ID":"ELMO1","Station_Nam":"ELMORE,OH","Latitude":"41.48330","Longitude":"-83.21670","Snowdepth":"3.000","Units":"in","Rept_Date":"2020-12-01 05"},"coordinates":[4589,3748]},{"type":"Point","properties":{"Station_ID":"DLHM5","Station_Nam":"DULUTH NWS","Latitude":"46.83680","Longitude":"-92.21080","Snowdepth":"3.000","Units":"in","Rept_Date":"2020-12-01 06"},"coordinates":[1605,7015]},{"type":"Point","properties":{"Station_ID":"DLH","Station_Nam":"DULUTH, MN","Latitude":"46.83690","Longitude":"-92.21030","Snowdepth":"3.000","Units":"in","Rept_Date":"2020-12-01 00"},"coordinates":[1605,7015]},{"type":"Point","properties":{"Station_ID":"COKM5","Station_Nam":"COOK","Latitude":"47.85060","Longitude":"-92.69250","Snowdepth":"3.000","Units":"in","Rept_Date":"2020-11-30 12"},"coordinates":[1445,7633]},{"type":"Point","properties":{"Station_ID":"CAN-MB-32","Station_Nam":"PINAWA 1.0 SW, CA","Latitude":"50.14747","Longitude":"-95.89020","Snowdepth":"3.000","Units":"in","Rept_Date":"2020-11-30 13"},"coordinates":[384,9035]},{"type":"Point","properties":{"Station_ID":"BNDM5","Station_Nam":"ELY 25E","Latitude":"47.97190","Longitude":"-91.44860","Snowdepth":"3.000","Units":"in","Rept_Date":"2020-11-30 13"},"coordinates":[1858,7707]},{"type":"Point","properties":{"Station_ID":"BABM5","Station_Nam":"BABBITT","Latitude":"47.71210","Longitude":"-91.95330","Snowdepth":"3.000","Units":"in","Rept_Date":"2020-11-30 13"},"coordinates":[1690,7549]},{"type":"Point","properties":{"Station_ID":"41.0288_083.6492","Station_Nam":"1 SSW Findlay  Trained Spotter (CLE1708)","Latitude":"41.02877","Longitude":"-83.64925","Snowdepth":"3.000","Units":"in","Rept_Date":"2020-12-01 01"},"coordinates":[4445,3470]},{"type":"Point","properties":{"Station_ID":"40.5795_083.1233","Station_Nam":"Marion  Trained Spotter (CLE3606)","Latitude":"40.57951","Longitude":"-83.12329","Snowdepth":"3.000","Units":"in","Rept_Date":"2020-12-01 02"},"coordinates":[4620,3196]},{"type":"Point","properties":{"Station_ID":"NFGT1","Station_Nam":"NEW FOUND GAP","Latitude":"35.61080","Longitude":"-83.42890","Snowdepth":"2.990","Units":"in","Rept_Date":"2020-12-01 06"},"coordinates":[4519,164]},{"type":"Point","properties":{"Station_ID":"QMD","Station_Nam":"QMD","Latitude":"49.29060","Longitude":"-75.84500","Snowdepth":"2.598","Units":"in","Rept_Date":"2020-11-30 12"},"coordinates":[7035,8512]},{"type":"Point","properties":{"Station_ID":"MN-SL-143","Station_Nam":"CANYON 4.6 NNE, MN","Latitude":"47.09800","Longitude":"-92.42170","Snowdepth":"2.500","Units":"in","Rept_Date":"2020-11-30 13"},"coordinates":[1535,7174]},{"type":"Point","properties":{"Station_ID":"MN-SL-108","Station_Nam":"IRON JUNCTION 3.4 NNW, MN","Latitude":"47.46150","Longitude":"-92.63130","Snowdepth":"2.500","Units":"in","Rept_Date":"2020-11-30 13"},"coordinates":[1465,7396]},{"type":"Point","properties":{"Station_ID":"QGA","Station_Nam":"QGA","Latitude":"47.25640","Longitude":"-73.73810","Snowdepth":"2.402","Units":"in","Rept_Date":"2020-11-30 12"},"coordinates":[7734,7271]},{"type":"Point","properties":{"Station_ID":"QCU","Station_Nam":"QCU","Latitude":"47.82750","Longitude":"-76.59830","Snowdepth":"2.047","Units":"in","Rept_Date":"2020-11-30 12"},"coordinates":[6785,7619]},{"type":"Point","properties":{"Station_ID":"WI-VL-9","Station_Nam":"LAND O' LAKES 11.7 W, WI","Latitude":"46.19023","Longitude":"-89.45790","Snowdepth":"2.000","Units":"in","Rept_Date":"2020-11-30 13"},"coordinates":[2518,6620]},{"type":"Point","properties":{"Station_ID":"WHKM4","Station_Nam":"WHITE LAKE,MI","Latitude":"42.69750","Longitude":"-83.47220","Snowdepth":"2.000","Units":"in","Rept_Date":"2020-12-01 06"},"coordinates":[4504,4489]},{"type":"Point","properties":{"Station_ID":"TOGM5","Station_Nam":"CELINA 2E","Latitude":"47.86630","Longitude":"-93.02660","Snowdepth":"2.000","Units":"in","Rept_Date":"2020-11-30 14"},"coordinates":[1334,7643]},{"type":"Point","properties":{"Station_ID":"SUAW3","Station_Nam":"SUAMICO","Latitude":"44.60190","Longitude":"-88.09780","Snowdepth":"2.000","Units":"in","Rept_Date":"2020-11-30 12"},"coordinates":[2969,5651]},{"type":"Point","properties":{"Station_ID":"PDGM4","Station_Nam":"PAULDING","Latitude":"46.39760","Longitude":"-89.17940","Snowdepth":"2.000","Units":"in","Rept_Date":"2020-11-30 14"},"coordinates":[2611,6747]},{"type":"Point","properties":{"Station_ID":"OH-CM-7","Station_Nam":"AMELIA 0.3 SSW, OH","Latitude":"39.02119","Longitude":"-84.21860","Snowdepth":"2.000","Units":"in","Rept_Date":"2020-12-01 05"},"coordinates":[4257,2245]},{"type":"Point","properties":{"Station_ID":"MN-SL-15","Station_Nam":"CHISHOLM 0.4 WSW, MN","Latitude":"47.48557","Longitude":"-92.88690","Snowdepth":"2.000","Units":"in","Rept_Date":"2020-11-30 13"},"coordinates":[1380,7411]},{"type":"Point","properties":{"Station_ID":"MN-SL-14","Station_Nam":"DULUTH 4.1 NNE, MN","Latitude":"46.83569","Longitude":"-92.06600","Snowdepth":"2.000","Units":"in","Rept_Date":"2020-11-30 12"},"coordinates":[1653,7014]},{"type":"Point","properties":{"Station_ID":"MN-CK-6","Station_Nam":"GRAND MARAIS 4.4 W, MN","Latitude":"47.74865","Longitude":"-90.43760","Snowdepth":"2.000","Units":"in","Rept_Date":"2020-11-30 13"},"coordinates":[2193,7571]},{"type":"Point","properties":{"Station_ID":"MIEM4","Station_Nam":"MICHIGAMME 3WNW","Latitude":"46.54530","Longitude":"-88.18000","Snowdepth":"2.000","Units":"in","Rept_Date":"2020-11-30 13"},"coordinates":[2942,6837]},{"type":"Point","properties":{"Station_ID":"LTMW3","Station_Nam":"LAKE TOMAHAWK 2 SE","Latitude":"45.80750","Longitude":"-89.55830","Snowdepth":"2.000","Units":"in","Rept_Date":"2020-11-30 12"},"coordinates":[2485,6387]},{"type":"Point","properties":{"Station_ID":"LNOW3","Station_Nam":"LAND O LAKES","Latitude":"46.19000","Longitude":"-89.45700","Snowdepth":"2.000","Units":"in","Rept_Date":"2020-11-30 13"},"coordinates":[2518,6620]},{"type":"Point","properties":{"Station_ID":"LILM1","Station_Nam":"LILLE","Latitude":"47.27770","Longitude":"-68.10520","Snowdepth":"2.000","Units":"in","Rept_Date":"2020-11-30 12"},"coordinates":[9603,7284]},{"type":"Point","properties":{"Station_ID":"KSGM4","Station_Nam":"KEARSARGE","Latitude":"47.27520","Longitude":"-88.41700","Snowdepth":"2.000","Units":"in","Rept_Date":"2020-11-30 13"},"coordinates":[2864,7282]},{"type":"Point","properties":{"Station_ID":"KABM5","Station_Nam":"KABETOGAMA LAKE VISITOR CTR","Latitude":"48.40880","Longitude":"-93.04840","Snowdepth":"2.000","Units":"in","Rept_Date":"2020-11-30 13"},"coordinates":[1327,7974]},{"type":"Point","properties":{"Station_ID":"INL","Station_Nam":"FALLS INTERNATIONAL ARPT","Latitude":"48.56640","Longitude":"-93.40310","Snowdepth":"2.000","Units":"in","Rept_Date":"2020-12-01 00"},"coordinates":[1209,8070]},{"type":"Point","properties":{"Station_ID":"IFSM5","Station_Nam":"INTERNATIONAL FALLS SNOW","Latitude":"48.57780","Longitude":"-93.39640","Snowdepth":"2.000","Units":"in","Rept_Date":"2020-11-30 12"},"coordinates":[1211,8077]},{"type":"Point","properties":{"Station_ID":"HRVM4","Station_Nam":"HARVEY","Latitude":"46.49080","Longitude":"-87.35470","Snowdepth":"2.000","Units":"in","Rept_Date":"2020-11-30 11"},"coordinates":[3216,6804]},{"type":"Point","properties":{"Station_ID":"FLDM5","Station_Nam":"FLOODWOOD,MN","Latitude":"47.00000","Longitude":"-92.91670","Snowdepth":"2.000","Units":"in","Rept_Date":"2020-11-30 14"},"coordinates":[1371,7114]},{"type":"Point","properties":{"Station_ID":"EMBM5","Station_Nam":"EMBARASS,MN","Latitude":"47.65810","Longitude":"-92.19580","Snowdepth":"2.000","Units":"in","Rept_Date":"2020-11-30 12"},"coordinates":[1610,7516]},{"type":"Point","properties":{"Station_ID":"CRLM5","Station_Nam":"CROSS LAKE DAM","Latitude":"46.66930","Longitude":"-94.11060","Snowdepth":"2.000","Units":"in","Rept_Date":"2020-11-30 14"},"coordinates":[974,6913]},{"type":"Point","properties":{"Station_ID":"COTM5","Station_Nam":"COTTON","Latitude":"47.16870","Longitude":"-92.46290","Snowdepth":"2.000","Units":"in","Rept_Date":"2020-11-30 13"},"coordinates":[1521,7217]},{"type":"Point","properties":{"Station_ID":"BRAM5","Station_Nam":"BRAINERD","Latitude":"46.34320","Longitude":"-94.20900","Snowdepth":"2.000","Units":"in","Rept_Date":"2020-11-30 13"},"coordinates":[942,6714]},{"type":"Point","properties":{"Station_ID":"BGBM4","Station_Nam":"BIG BAY 1NW","Latitude":"46.83250","Longitude":"-87.75040","Snowdepth":"2.000","Units":"in","Rept_Date":"2020-11-30 13"},"coordinates":[3085,7012]},{"type":"Point","properties":{"Station_ID":"AVTW3","Station_Nam":"ARBOR VITAE-JOHNSON LAKE","Latitude":"45.89940","Longitude":"-89.72670","Snowdepth":"2.000","Units":"in","Rept_Date":"2020-11-30 12"},"coordinates":[2429,6443]},{"type":"Point","properties":{"Station_ID":"ARBM4","Station_Nam":"UNIV OF MICH","Latitude":"42.30000","Longitude":"-83.71670","Snowdepth":"2.000","Units":"in","Rept_Date":"2020-11-30 23"},"coordinates":[4423,4246]},{"type":"Point","properties":{"Station_ID":"AMEO1","Station_Nam":"AMELIA","Latitude":"39.02130","Longitude":"-84.21850","Snowdepth":"2.000","Units":"in","Rept_Date":"2020-12-01 05"},"coordinates":[4257,2245]},{"type":"Point","properties":{"Station_ID":"40.8973_082.8221","Station_Nam":"NEW WASHINGTON 5S (CLE2804)","Latitude":"40.89730","Longitude":"-82.82210","Snowdepth":"2.000","Units":"in","Rept_Date":"2020-11-30 23"},"coordinates":[4720,3390]},{"type":"Point","properties":{"Station_ID":"40.7621_082.3071","Station_Nam":"3 WSW Hayesville  Trained Spotter (CLE3007)","Latitude":"40.76208","Longitude":"-82.30712","Snowdepth":"2.000","Units":"in","Rept_Date":"2020-12-01 02"},"coordinates":[4891,3308]},{"type":"Point","properties":{"Station_ID":"40.7610_082.5426","Station_Nam":"MANSFIELD  SNOW SPOTTER (CLE2918)","Latitude":"40.76100","Longitude":"-82.54260","Snowdepth":"2.000","Units":"in","Rept_Date":"2020-12-01 01"},"coordinates":[4813,3307]},{"type":"Point","properties":{"Station_ID":"40.7301_082.8116","Station_Nam":"GALION (CLE2801)","Latitude":"40.73010","Longitude":"-82.81160","Snowdepth":"2.000","Units":"in","Rept_Date":"2020-11-30 23"},"coordinates":[4723,3288]},{"type":"Point","properties":{"Station_ID":"WI-SR-1","Station_Nam":"HAYWARD 9.2 NNE, WI","Latitude":"46.13255","Longitude":"-91.40500","Snowdepth":"1.800","Units":"in","Rept_Date":"2020-11-30 12"},"coordinates":[1872,6585]},{"type":"Point","properties":{"Station_ID":"HLSN3","Station_Nam":"HERMIT LAKE SNOTEL","Latitude":"44.26130","Longitude":"-71.28320","Snowdepth":"1.770","Units":"in","Rept_Date":"2020-12-01 06"},"coordinates":[8548,5443]},{"type":"Point","properties":{"Station_ID":"WI-BY-29","Station_Nam":"BAYFIELD 5.1 NNW, WI","Latitude":"46.88063","Longitude":"-90.85854","Snowdepth":"1.500","Units":"in","Rept_Date":"2020-11-30 13"},"coordinates":[2053,7041]},{"type":"Point","properties":{"Station_ID":"WTRM4","Station_Nam":"WATERSMEET 12WSW","Latitude":"46.22310","Longitude":"-89.40850","Snowdepth":"1.000","Units":"in","Rept_Date":"2020-11-30 12"},"coordinates":[2535,6640]},{"type":"Point","properties":{"Station_ID":"WTNM4","Station_Nam":"WATTON 2WSW","Latitude":"46.52660","Longitude":"-88.64240","Snowdepth":"1.000","Units":"in","Rept_Date":"2020-11-30 13"},"coordinates":[2789,6825]},{"type":"Point","properties":{"Station_ID":"WRUM5","Station_Nam":"WARROAD 4W","Latitude":"48.89600","Longitude":"-95.40700","Snowdepth":"1.000","Units":"in","Rept_Date":"2020-12-01 04"},"coordinates":[544,8271]},{"type":"Point","properties":{"Station_ID":"WI-IR-3","Station_Nam":"PENCE 0.1 E, WI","Latitude":"46.41555","Longitude":"-90.27013","Snowdepth":"1.000","Units":"in","Rept_Date":"2020-11-30 13"},"coordinates":[2249,6758]},{"type":"Point","properties":{"Station_ID":"WI-DG-20","Station_Nam":"SOLON SPRINGS 1.2 W, WI","Latitude":"46.35217","Longitude":"-91.84405","Snowdepth":"1.000","Units":"in","Rept_Date":"2020-11-30 13"},"coordinates":[1726,6719]},{"type":"Point","properties":{"Station_ID":"VANM1","Station_Nam":"VAN BUREN","Latitude":"47.16600","Longitude":"-67.93900","Snowdepth":"1.000","Units":"in","Rept_Date":"2020-11-30 12"},"coordinates":[9658,7216]},{"type":"Point","properties":{"Station_ID":"TULT1","Station_Nam":"WATER PLANT","Latitude":"35.34220","Longitude":"-86.21500","Snowdepth":"1.000","Units":"in","Rept_Date":"2020-12-01 05"},"coordinates":[3594,0]},{"type":"Point","properties":{"Station_ID":"SDYM5","Station_Nam":"DAM","Latitude":"46.81670","Longitude":"-93.36670","Snowdepth":"1.000","Units":"in","Rept_Date":"2020-11-30 14"},"coordinates":[1221,7002]},{"type":"Point","properties":{"Station_ID":"RHIW3","Station_Nam":"RHINELANDER","Latitude":"45.59860","Longitude":"-89.45080","Snowdepth":"1.000","Units":"in","Rept_Date":"2020-11-30 13"},"coordinates":[2521,6259]},{"type":"Point","properties":{"Station_ID":"OH-FR-3","Station_Nam":"GRANDVIEW HEIGHTS 0.1 N, OH","Latitude":"39.98096","Longitude":"-83.04010","Snowdepth":"1.000","Units":"in","Rept_Date":"2020-12-01 02"},"coordinates":[4648,2831]},{"type":"Point","properties":{"Station_ID":"OH-DL-30","Station_Nam":"GALENA 1.0 NNW, OH","Latitude":"40.23429","Longitude":"-82.88857","Snowdepth":"1.000","Units":"in","Rept_Date":"2020-12-01 00"},"coordinates":[4698,2985]},{"type":"Point","properties":{"Station_ID":"MRX","Station_Nam":"KNOXVILLE/TRI-CITIES, TN","Latitude":"36.16860","Longitude":"-83.40170","Snowdepth":"1.000","Units":"in","Rept_Date":"2020-12-01 05"},"coordinates":[4528,504]},{"type":"Point","properties":{"Station_ID":"MQT","Station_Nam":"MARQUETTE, MI","Latitude":"46.53140","Longitude":"-87.54920","Snowdepth":"1.000","Units":"in","Rept_Date":"2020-12-01 00"},"coordinates":[3151,6828]},{"type":"Point","properties":{"Station_ID":"MI-MQ-19","Station_Nam":"ISHPEMING 7.2 SW, MI","Latitude":"46.40550","Longitude":"-87.75670","Snowdepth":"1.000","Units":"in","Rept_Date":"2020-11-30 11"},"coordinates":[3083,6752]},{"type":"Point","properties":{"Station_ID":"MI-JC-13","Station_Nam":"HANOVER 3.8 W, MI","Latitude":"42.10700","Longitude":"-84.62600","Snowdepth":"1.000","Units":"in","Rept_Date":"2020-11-30 13"},"coordinates":[4121,4128]},{"type":"Point","properties":{"Station_ID":"MI-HG-1","Station_Nam":"HOUGHTON 1.6 ESE, MI","Latitude":"47.10774","Longitude":"-88.52940","Snowdepth":"1.000","Units":"in","Rept_Date":"2020-11-30 13"},"coordinates":[2826,7180]},{"type":"Point","properties":{"Station_ID":"LVDW3","Station_Nam":"LAC VIEUX DESERT","Latitude":"46.12110","Longitude":"-89.07580","Snowdepth":"1.000","Units":"in","Rept_Date":"2020-11-30 14"},"coordinates":[2645,6578]},{"type":"Point","properties":{"Station_ID":"LPEM4","Station_Nam":"LAPEER,MI","Latitude":"43.06280","Longitude":"-83.33330","Snowdepth":"1.000","Units":"in","Rept_Date":"2020-11-30 14"},"coordinates":[4550,4712]},{"type":"Point","properties":{"Station_ID":"LEX","Station_Nam":"LEXINGTON BLUE GRASS AIRPORT","Latitude":"38.03690","Longitude":"-84.60560","Snowdepth":"1.000","Units":"in","Rept_Date":"2020-12-01 05"},"coordinates":[4128,1644]},{"type":"Point","properties":{"Station_ID":"LBRM5","Station_Nam":"LAKE BRONSON DAM","Latitude":"48.72410","Longitude":"-96.62180","Snowdepth":"1.000","Units":"in","Rept_Date":"2020-11-30 14"},"coordinates":[141,8167]},{"type":"Point","properties":{"Station_ID":"LAPI3","Station_Nam":"LAPORTE","Latitude":"41.61160","Longitude":"-86.72970","Snowdepth":"1.000","Units":"in","Rept_Date":"2020-12-01 06"},"coordinates":[3423,3826]},{"type":"Point","properties":{"Station_ID":"KY-NC-1","Station_Nam":"CARLISLE 7.6 NNW, KY","Latitude":"38.42000","Longitude":"-84.07000","Snowdepth":"1.000","Units":"in","Rept_Date":"2020-11-30 14"},"coordinates":[4306,1878]},{"type":"Point","properties":{"Station_ID":"KY-MO-1","Station_Nam":"TOMPKINSVILLE 12.1 WNW, KY","Latitude":"36.75861","Longitude":"-85.89920","Snowdepth":"1.000","Units":"in","Rept_Date":"2020-11-30 12"},"coordinates":[3699,864]},{"type":"Point","properties":{"Station_ID":"KY-CS-4","Station_Nam":"LIBERTY 1.1 SE, KY","Latitude":"37.30528","Longitude":"-84.91830","Snowdepth":"1.000","Units":"in","Rept_Date":"2020-11-30 12"},"coordinates":[4024,1198]},{"type":"Point","properties":{"Station_ID":"KMWN","Station_Nam":"MOUNT WASHINGTON","Latitude":"44.26666","Longitude":"-71.30000","Snowdepth":"1.000","Units":"in","Rept_Date":"2020-12-01 06"},"coordinates":[8543,5446]},{"type":"Point","properties":{"Station_ID":"KDAY","Station_Nam":"COX DAYTON INTERNATIONAL","Latitude":"39.90000","Longitude":"-84.21666","Snowdepth":"1.000","Units":"in","Rept_Date":"2020-12-01 00"},"coordinates":[4257,2781]},{"type":"Point","properties":{"Station_ID":"KCVG","Station_Nam":"CINCINNATI/NORTHERN KY INTERNATIONAL","Latitude":"39.05000","Longitude":"-84.66666","Snowdepth":"1.000","Units":"in","Rept_Date":"2020-12-01 06"},"coordinates":[4108,2263]},{"type":"Point","properties":{"Station_ID":"KCLE","Station_Nam":"CLEVELAND-HOPKINS INTERNATIONAL","Latitude":"41.40000","Longitude":"-81.85000","Snowdepth":"1.000","Units":"in","Rept_Date":"2020-12-01 06"},"coordinates":[5042,3697]},{"type":"Point","properties":{"Station_ID":"JKL","Station_Nam":"JACKSON, KY","Latitude":"37.59390","Longitude":"-83.31720","Snowdepth":"1.000","Units":"in","Rept_Date":"2020-12-01 06"},"coordinates":[4556,1374]},{"type":"Point","properties":{"Station_ID":"IWOM4","Station_Nam":"IRONWOOD#2","Latitude":"46.46520","Longitude":"-90.13820","Snowdepth":"1.000","Units":"in","Rept_Date":"2020-11-30 13"},"coordinates":[2292,6788]},{"type":"Point","properties":{"Station_ID":"HURW3","Station_Nam":"HURLEY","Latitude":"46.46250","Longitude":"-90.19550","Snowdepth":"1.000","Units":"in","Rept_Date":"2020-11-30 14"},"coordinates":[2273,6786]},{"type":"Point","properties":{"Station_ID":"HUBN3","Station_Nam":"HUBBARD BROOK","Latitude":"43.93330","Longitude":"-71.71670","Snowdepth":"1.000","Units":"in","Rept_Date":"2020-12-01 06"},"coordinates":[8405,5243]},{"type":"Point","properties":{"Station_ID":"GRBI3","Station_Nam":"GREENSBURG","Latitude":"39.34750","Longitude":"-85.48910","Snowdepth":"1.000","Units":"in","Rept_Date":"2020-12-01 05"},"coordinates":[3835,2444]},{"type":"Point","properties":{"Station_ID":"GNLM4","Station_Nam":"GREENLAND 6N","Latitude":"46.87360","Longitude":"-89.10060","Snowdepth":"1.000","Units":"in","Rept_Date":"2020-11-30 13"},"coordinates":[2637,7037]},{"type":"Point","properties":{"Station_ID":"FLAM4","Station_Nam":"FIFE LAKE 2WNW","Latitude":"44.58480","Longitude":"-85.36530","Snowdepth":"1.000","Units":"in","Rept_Date":"2020-11-30 12"},"coordinates":[3876,5640]},{"type":"Point","properties":{"Station_ID":"ETNM4","Station_Nam":"EATON RAPIDS,MI","Latitude":"42.51670","Longitude":"-84.65000","Snowdepth":"1.000","Units":"in","Rept_Date":"2020-11-30 13"},"coordinates":[4113,4378]},{"type":"Point","properties":{"Station_ID":"DTW","Station_Nam":"DETROIT METROPOLITAN","Latitude":"42.21220","Longitude":"-83.35330","Snowdepth":"1.000","Units":"in","Rept_Date":"2020-12-01 00"},"coordinates":[4544,4193]},{"type":"Point","properties":{"Station_ID":"DAY","Station_Nam":"COX DAYTON INTERNATIONAL","Latitude":"39.90110","Longitude":"-84.22000","Snowdepth":"1.000","Units":"in","Rept_Date":"2020-12-01 00"},"coordinates":[4256,2782]},{"type":"Point","properties":{"Station_ID":"CLKM4","Station_Nam":"CLARKSBURG","Latitude":"46.49910","Longitude":"-87.84500","Snowdepth":"1.000","Units":"in","Rept_Date":"2020-11-30 12"},"coordinates":[3053,6809]},{"type":"Point","properties":{"Station_ID":"CEFM4","Station_Nam":"EXPERIMENT FARM #2","Latitude":"46.33330","Longitude":"-86.91670","Snowdepth":"1.000","Units":"in","Rept_Date":"2020-11-30 13"},"coordinates":[3361,6707]},{"type":"Point","properties":{"Station_ID":"CAN-MB-56","Station_Nam":"WINNIPEG 7.6 ENE, CAN","Latitude":"49.93264","Longitude":"-97.04752","Snowdepth":"1.000","Units":"in","Rept_Date":"2020-11-30 14"},"coordinates":[0,8904]},{"type":"Point","properties":{"Station_ID":"BRUM5","Station_Nam":"BRUNO,MN","Latitude":"46.28330","Longitude":"-92.50000","Snowdepth":"1.000","Units":"in","Rept_Date":"2020-11-30 14"},"coordinates":[1509,6677]},{"type":"Point","properties":{"Station_ID":"BGGO1","Station_Nam":"BOWLING GREEN WWTP","Latitude":"41.38310","Longitude":"-83.61110","Snowdepth":"1.000","Units":"in","Rept_Date":"2020-12-01 05"},"coordinates":[4458,3687]},{"type":"Point","properties":{"Station_ID":"BBEM4","Station_Nam":"BIG BAY 9SW","Latitude":"46.74620","Longitude":"-87.88160","Snowdepth":"1.000","Units":"in","Rept_Date":"2020-11-30 13"},"coordinates":[3041,6959]},{"type":"Point","properties":{"Station_ID":"ARKK2","Station_Nam":"ARK ENCOUNTER","Latitude":"38.61820","Longitude":"-84.58890","Snowdepth":"1.000","Units":"in","Rept_Date":"2020-12-01 05"},"coordinates":[4134,1999]},{"type":"Point","properties":{"Station_ID":"AMAM4","Station_Nam":"AMASA 1W","Latitude":"46.23470","Longitude":"-88.45440","Snowdepth":"1.000","Units":"in","Rept_Date":"2020-11-30 14"},"coordinates":[2851,6647]},{"type":"Point","properties":{"Station_ID":"41.1091_082.4398","Station_Nam":"3 NW New London  Trained Spotter (CLE1905)","Latitude":"41.10907","Longitude":"-82.43975","Snowdepth":"1.000","Units":"in","Rept_Date":"2020-11-30 23"},"coordinates":[4847,3519]},{"type":"Point","properties":{"Station_ID":"41.0257_082.0934","Station_Nam":"HOMERVILLE  SNOW SPOTTER (X4100821)","Latitude":"41.02570","Longitude":"-82.09340","Snowdepth":"1.000","Units":"in","Rept_Date":"2020-12-01 01"},"coordinates":[4962,3468]},{"type":"Point","properties":{"Station_ID":"41.0211_083.2042","Station_Nam":"2 NNW Mexico  Trained Spotter (CLE1803)","Latitude":"41.02114","Longitude":"-83.20421","Snowdepth":"1.000","Units":"in","Rept_Date":"2020-12-01 00"},"coordinates":[4593,3466]},{"type":"Point","properties":{"Station_ID":"40.8187_082.4287","Station_Nam":"MANSFIELD 7NE  SNOW SPOTTER (X4080824)","Latitude":"40.81870","Longitude":"-82.42870","Snowdepth":"1.000","Units":"in","Rept_Date":"2020-12-01 00"},"coordinates":[4850,3342]}]}},"arcs":[],"transform":{"scale":[0.0030139433943394338,0.0016386338633863388],"translate":[-97.04752,35.3422]}}