{"type":"Topology","objects":{"snowdepth_geo":{"type":"GeometryCollection","name":"snowdepth","crs":{"type":"name","properties":{"name":"urn:ogc:def:crs:OGC:1.3:CRS84"}},"geometries":[{"type":"Point","properties":{"Station_ID":"PRKM4","Station_Nam":"MUNISING EAST","Latitude":"46.42580","Longitude":"-86.62000","Snowdepth":"76.500","Units":"in","Rept_Date":"2019-12-13 06"},"coordinates":[2389,6701]},{"type":"Point","properties":{"Station_ID":"OGIQ6","Station_Nam":"OGOKI CAMP","Latitude":"50.76680","Longitude":"-87.85820","Snowdepth":"61.100","Units":"in","Rept_Date":"2019-12-13 06"},"coordinates":[2111,9402]},{"type":"Point","properties":{"Station_ID":"HWKW2","Station_Nam":"HAWKS NEST STATE PARK","Latitude":"38.12110","Longitude":"-81.11790","Snowdepth":"50.000","Units":"in","Rept_Date":"2019-12-12 13"},"coordinates":[3627,1534]},{"type":"Point","properties":{"Station_ID":"AUDQ6","Station_Nam":"AUDEN","Latitude":"48.52600","Longitude":"-82.57570","Snowdepth":"47.640","Units":"in","Rept_Date":"2019-12-13 06"},"coordinates":[3299,8008]},{"type":"Point","properties":{"Station_ID":"DVLQ6","Station_Nam":"DEVIOUS LAKE","Latitude":"49.19890","Longitude":"-87.76440","Snowdepth":"43.460","Units":"in","Rept_Date":"2019-12-13 06"},"coordinates":[2132,8426]},{"type":"Point","properties":{"Station_ID":"PDLM4","Station_Nam":"PAINESDALE","Latitude":"47.04160","Longitude":"-88.67170","Snowdepth":"37.000","Units":"in","Rept_Date":"2019-12-12 13"},"coordinates":[1928,7084]},{"type":"Point","properties":{"Station_ID":"SWTW3","Station_Nam":"SUPERIOR WWTP","Latitude":"46.72700","Longitude":"-92.07200","Snowdepth":"32.000","Units":"in","Rept_Date":"2019-12-13 06"},"coordinates":[1162,6888]},{"type":"Point","properties":{"Station_ID":"MI-HG-18","Station_Nam":"CALUMET 0.7 W (TAMARACK), MI","Latitude":"47.24560","Longitude":"-88.46791","Snowdepth":"32.000","Units":"in","Rept_Date":"2019-12-12 13"},"coordinates":[1973,7211]},{"type":"Point","properties":{"Station_ID":"IWOM4","Station_Nam":"IRONWOOD#2","Latitude":"46.46520","Longitude":"-90.13820","Snowdepth":"32.000","Units":"in","Rept_Date":"2019-12-12 13"},"coordinates":[1598,6725]},{"type":"Point","properties":{"Station_ID":"GMSM4","Station_Nam":"GRAND MARAIS 10S","Latitude":"46.50940","Longitude":"-85.96310","Snowdepth":"31.000","Units":"in","Rept_Date":"2019-12-12 12"},"coordinates":[2537,6753]},{"type":"Point","properties":{"Station_ID":"HURW3","Station_Nam":"HURLEY","Latitude":"46.46250","Longitude":"-90.19550","Snowdepth":"30.000","Units":"in","Rept_Date":"2019-12-12 14"},"coordinates":[1585,6724]},{"type":"Point","properties":{"Station_ID":"KSGM4","Station_Nam":"KEARSARGE","Latitude":"47.27520","Longitude":"-88.41700","Snowdepth":"28.000","Units":"in","Rept_Date":"2019-12-12 13"},"coordinates":[1985,7229]},{"type":"Point","properties":{"Station_ID":"WI-IR-3","Station_Nam":"PENCE 0.1 E, WI","Latitude":"46.41555","Longitude":"-90.27013","Snowdepth":"27.500","Units":"in","Rept_Date":"2019-12-12 13"},"coordinates":[1568,6695]},{"type":"Point","properties":{"Station_ID":"BERM4","Station_Nam":"BERGLAND DAM","Latitude":"46.58690","Longitude":"-89.54750","Snowdepth":"27.000","Units":"in","Rept_Date":"2019-12-12 13"},"coordinates":[1730,6801]},{"type":"Point","properties":{"Station_ID":"WRSM5","Station_Nam":"WRENSHALL","Latitude":"46.61550","Longitude":"-92.38380","Snowdepth":"26.000","Units":"in","Rept_Date":"2019-12-12 14"},"coordinates":[1092,6819]},{"type":"Point","properties":{"Station_ID":"GNLM4","Station_Nam":"GREENLAND 6N","Latitude":"46.87360","Longitude":"-89.10060","Snowdepth":"26.000","Units":"in","Rept_Date":"2019-12-12 13"},"coordinates":[1831,6980]},{"type":"Point","properties":{"Station_ID":"ASXW3","Station_Nam":"ASHLAND,WI","Latitude":"46.55220","Longitude":"-90.91610","Snowdepth":"26.000","Units":"in","Rept_Date":"2019-12-12 14"},"coordinates":[1423,6780]},{"type":"Point","properties":{"Station_ID":"WRPW3","Station_Nam":"WATER PURIFICATION PLANT","Latitude":"44.38800","Longitude":"-89.80550","Snowdepth":"25.000","Units":"in","Rept_Date":"2019-12-12 12"},"coordinates":[1672,5433]},{"type":"Point","properties":{"Station_ID":"MA-WR-6","Station_Nam":"SOUTHBRIDGE 0.6 E, MA","Latitude":"42.08422","Longitude":"-72.02250","Snowdepth":"25.000","Units":"in","Rept_Date":"2019-12-12 12"},"coordinates":[5673,4000]},{"type":"Point","properties":{"Station_ID":"WI-DG-20","Station_Nam":"SOLON SPRINGS 1.2 W, WI","Latitude":"46.35217","Longitude":"-91.84405","Snowdepth":"24.000","Units":"in","Rept_Date":"2019-12-12 13"},"coordinates":[1214,6655]},{"type":"Point","properties":{"Station_ID":"PDGM4","Station_Nam":"PAULDING","Latitude":"46.39760","Longitude":"-89.17940","Snowdepth":"24.000","Units":"in","Rept_Date":"2019-12-12 13"},"coordinates":[1813,6683]},{"type":"Point","properties":{"Station_ID":"MAIW3","Station_Nam":"MADELINE ISLAND","Latitude":"46.78330","Longitude":"-90.76670","Snowdepth":"24.000","Units":"in","Rept_Date":"2019-12-12 14"},"coordinates":[1456,6923]},{"type":"Point","properties":{"Station_ID":"CLQM5","Station_Nam":"CLOQUET","Latitude":"46.70470","Longitude":"-92.52530","Snowdepth":"24.000","Units":"in","Rept_Date":"2019-12-12 14"},"coordinates":[1060,6874]},{"type":"Point","properties":{"Station_ID":"BRSW3","Station_Nam":"BRULE,WI","Latitude":"46.53780","Longitude":"-91.59190","Snowdepth":"24.000","Units":"in","Rept_Date":"2019-12-12 16"},"coordinates":[1270,6771]},{"type":"Point","properties":{"Station_ID":"QOU","Station_Nam":"QOU","Latitude":"50.79250","Longitude":"-69.67470","Snowdepth":"23.465","Units":"in","Rept_Date":"2019-12-12 12"},"coordinates":[6202,9418]},{"type":"Point","properties":{"Station_ID":"WTRW3","Station_Nam":"WINTER","Latitude":"45.79920","Longitude":"-90.99470","Snowdepth":"23.000","Units":"in","Rept_Date":"2019-12-12 15"},"coordinates":[1405,6311]},{"type":"Point","properties":{"Station_ID":"IBLM5","Station_Nam":"ISABELLA 14W","Latitude":"47.59360","Longitude":"-91.65140","Snowdepth":"23.000","Units":"in","Rept_Date":"2019-12-12 15"},"coordinates":[1257,7428]},{"type":"Point","properties":{"Station_ID":"DLHM5","Station_Nam":"DULUTH NWS","Latitude":"46.83680","Longitude":"-92.21080","Snowdepth":"23.000","Units":"in","Rept_Date":"2019-12-13 06"},"coordinates":[1131,6957]},{"type":"Point","properties":{"Station_ID":"DLH","Station_Nam":"DULUTH, MN","Latitude":"46.83690","Longitude":"-92.21030","Snowdepth":"23.000","Units":"in","Rept_Date":"2019-12-13 00"},"coordinates":[1131,6957]},{"type":"Point","properties":{"Station_ID":"CMKW3","Station_Nam":"CLAM LAKE 4W","Latitude":"46.16940","Longitude":"-90.98080","Snowdepth":"23.000","Units":"in","Rept_Date":"2019-12-12 14"},"coordinates":[1408,6541]},{"type":"Point","properties":{"Station_ID":"WI-BY-2","Station_Nam":"MELLEN 18.6 SW, WI","Latitude":"46.16937","Longitude":"-90.98090","Snowdepth":"22.800","Units":"in","Rept_Date":"2019-12-12 14"},"coordinates":[1408,6541]},{"type":"Point","properties":{"Station_ID":"MI-BG-3","Station_Nam":"L'ANSE 17.8 SE, MI","Latitude":"46.55730","Longitude":"-88.20770","Snowdepth":"22.800","Units":"in","Rept_Date":"2019-12-12 13"},"coordinates":[2032,6783]},{"type":"Point","properties":{"Station_ID":"WI-BY-1","Station_Nam":"BAYFIELD 8.8 N, WI","Latitude":"46.93855","Longitude":"-90.83490","Snowdepth":"22.500","Units":"in","Rept_Date":"2019-12-12 12"},"coordinates":[1441,7020]},{"type":"Point","properties":{"Station_ID":"WI-WB-2","Station_Nam":"STONE LAKE 2.0 NW, WI","Latitude":"45.85960","Longitude":"-91.57710","Snowdepth":"22.000","Units":"in","Rept_Date":"2019-12-12 13"},"coordinates":[1274,6349]},{"type":"Point","properties":{"Station_ID":"WI-BY-14","Station_Nam":"ASHLAND 9.8 W, WI","Latitude":"46.59742","Longitude":"-91.07856","Snowdepth":"22.000","Units":"in","Rept_Date":"2019-12-12 12"},"coordinates":[1386,6808]},{"type":"Point","properties":{"Station_ID":"MN-SL-18","Station_Nam":"DULUTH 1.4 NNW, MN","Latitude":"46.80321","Longitude":"-92.11240","Snowdepth":"22.000","Units":"in","Rept_Date":"2019-12-12 13"},"coordinates":[1153,6936]},{"type":"Point","properties":{"Station_ID":"LVDW3","Station_Nam":"LAC VIEUX DESERT","Latitude":"46.12110","Longitude":"-89.07580","Snowdepth":"22.000","Units":"in","Rept_Date":"2019-12-12 15"},"coordinates":[1837,6511]},{"type":"Point","properties":{"Station_ID":"KISM4","Station_Nam":"K.I. SAWYER WWTP","Latitude":"46.33410","Longitude":"-87.37790","Snowdepth":"22.000","Units":"in","Rept_Date":"2019-12-12 13"},"coordinates":[2219,6644]},{"type":"Point","properties":{"Station_ID":"HTLN3","Station_Nam":"HERMIT LAKE SNOWPLOT","Latitude":"44.26130","Longitude":"-71.28330","Snowdepth":"22.000","Units":"in","Rept_Date":"2019-12-12 10"},"coordinates":[5840,5354]},{"type":"Point","properties":{"Station_ID":"COUW3","Station_Nam":"COUDERAY,WI","Latitude":"45.86670","Longitude":"-91.45000","Snowdepth":"22.000","Units":"in","Rept_Date":"2019-12-12 22"},"coordinates":[1302,6353]},{"type":"Point","properties":{"Station_ID":"BFHW3","Station_Nam":"BAYFIELD FISH HATCHERY","Latitude":"46.78670","Longitude":"-90.86420","Snowdepth":"22.000","Units":"in","Rept_Date":"2019-12-12 14"},"coordinates":[1434,6926]},{"type":"Point","properties":{"Station_ID":"WI-AS-4","Station_Nam":"ASHLAND 0.5 WNW, WI","Latitude":"46.58240","Longitude":"-90.88390","Snowdepth":"21.000","Units":"in","Rept_Date":"2019-12-12 13"},"coordinates":[1430,6798]},{"type":"Point","properties":{"Station_ID":"PHEW3","Station_Nam":"PHELPS","Latitude":"46.06630","Longitude":"-89.07520","Snowdepth":"21.000","Units":"in","Rept_Date":"2019-12-12 13"},"coordinates":[1837,6477]},{"type":"Point","properties":{"Station_ID":"MI-HG-17","Station_Nam":"CALUMET 0.5 NE (CALUMET LAKE), MI","Latitude":"47.25300","Longitude":"-88.44652","Snowdepth":"21.000","Units":"in","Rept_Date":"2019-12-12 13"},"coordinates":[1978,7216]},{"type":"Point","properties":{"Station_ID":"MI-HG-11","Station_Nam":"HOUGHTON 3.0 SSW, MI","Latitude":"47.07704","Longitude":"-88.59680","Snowdepth":"21.000","Units":"in","Rept_Date":"2019-12-12 13"},"coordinates":[1944,7106]},{"type":"Point","properties":{"Station_ID":"ILIM5","Station_Nam":"ISLAND LAKE","Latitude":"47.02400","Longitude":"-92.07000","Snowdepth":"21.000","Units":"in","Rept_Date":"2019-12-12 15"},"coordinates":[1163,7073]},{"type":"Point","properties":{"Station_ID":"AWXW3","Station_Nam":"ASHLAND","Latitude":"46.58240","Longitude":"-90.88390","Snowdepth":"21.000","Units":"in","Rept_Date":"2019-12-12 13"},"coordinates":[1430,6798]},{"type":"Point","properties":{"Station_ID":"WI-VL-9","Station_Nam":"LAND O' LAKES 11.7 W, WI","Latitude":"46.19023","Longitude":"-89.45790","Snowdepth":"20.000","Units":"in","Rept_Date":"2019-12-12 13"},"coordinates":[1751,6554]},{"type":"Point","properties":{"Station_ID":"WI-FL-3","Station_Nam":"FLORENCE 0.7 ESE, WI","Latitude":"45.91760","Longitude":"-88.23900","Snowdepth":"20.000","Units":"in","Rept_Date":"2019-12-12 11"},"coordinates":[2025,6385]},{"type":"Point","properties":{"Station_ID":"WI-BY-6","Station_Nam":"BARNES 2.2 S, WI","Latitude":"46.30264","Longitude":"-91.50320","Snowdepth":"20.000","Units":"in","Rept_Date":"2019-12-12 13"},"coordinates":[1290,6624]},{"type":"Point","properties":{"Station_ID":"SUAW3","Station_Nam":"SUAMICO","Latitude":"44.60190","Longitude":"-88.09780","Snowdepth":"20.000","Units":"in","Rept_Date":"2019-12-12 12"},"coordinates":[2057,5566]},{"type":"Point","properties":{"Station_ID":"LNOW3","Station_Nam":"LAND O LAKES","Latitude":"46.19000","Longitude":"-89.45700","Snowdepth":"20.000","Units":"in","Rept_Date":"2019-12-12 13"},"coordinates":[1751,6554]},{"type":"Point","properties":{"Station_ID":"IRMM4","Station_Nam":"WWTP","Latitude":"46.46670","Longitude":"-90.18330","Snowdepth":"20.000","Units":"in","Rept_Date":"2019-12-12 13"},"coordinates":[1587,6726]},{"type":"Point","properties":{"Station_ID":"QGD","Station_Nam":"QGD","Latitude":"51.11140","Longitude":"-67.13940","Snowdepth":"19.567","Units":"in","Rept_Date":"2019-12-12 12"},"coordinates":[6772,9616]},{"type":"Point","properties":{"Station_ID":"WI-VL-10","Station_Nam":"LAND O LAKES 4.3 WNW, WI","Latitude":"46.17440","Longitude":"-89.30380","Snowdepth":"19.500","Units":"in","Rept_Date":"2019-12-12 13"},"coordinates":[1785,6545]},{"type":"Point","properties":{"Station_ID":"WTRM4","Station_Nam":"WATERSMEET 12WSW","Latitude":"46.22310","Longitude":"-89.40850","Snowdepth":"19.000","Units":"in","Rept_Date":"2019-12-12 12"},"coordinates":[1762,6575]},{"type":"Point","properties":{"Station_ID":"MI-HG-14","Station_Nam":"HOUGHTON 0.6 SE, MI","Latitude":"47.10847","Longitude":"-88.55235","Snowdepth":"19.000","Units":"in","Rept_Date":"2019-12-12 13"},"coordinates":[1954,7126]},{"type":"Point","properties":{"Station_ID":"MI-HG-12","Station_Nam":"DOLLAR BAY 0.2 ENE, MI","Latitude":"47.12067","Longitude":"-88.49895","Snowdepth":"19.000","Units":"in","Rept_Date":"2019-12-12 13"},"coordinates":[1966,7133]},{"type":"Point","properties":{"Station_ID":"LTMW3","Station_Nam":"LAKE TOMAHAWK 2 SE","Latitude":"45.80750","Longitude":"-89.55830","Snowdepth":"19.000","Units":"in","Rept_Date":"2019-12-12 12"},"coordinates":[1728,6316]},{"type":"Point","properties":{"Station_ID":"HERM4","Station_Nam":"HERMAN,MI","Latitude":"46.65000","Longitude":"-88.33330","Snowdepth":"19.000","Units":"in","Rept_Date":"2019-12-12 13"},"coordinates":[2004,6840]},{"type":"Point","properties":{"Station_ID":"FLNW3","Station_Nam":"FLORENCE","Latitude":"45.93360","Longitude":"-88.25830","Snowdepth":"19.000","Units":"in","Rept_Date":"2019-12-12 13"},"coordinates":[2021,6395]},{"type":"Point","properties":{"Station_ID":"BBEM4","Station_Nam":"BIG BAY 9SW","Latitude":"46.74620","Longitude":"-87.88160","Snowdepth":"19.000","Units":"in","Rept_Date":"2019-12-12 13"},"coordinates":[2105,6900]},{"type":"Point","properties":{"Station_ID":"MN-SL-105","Station_Nam":"DULUTH 11.8 NNE, MN","Latitude":"46.94680","Longitude":"-92.03925","Snowdepth":"18.500","Units":"in","Rept_Date":"2019-12-12 13"},"coordinates":[1170,7025]},{"type":"Point","properties":{"Station_ID":"MI-HG-1","Station_Nam":"HOUGHTON 1.6 ESE, MI","Latitude":"47.10774","Longitude":"-88.52940","Snowdepth":"18.500","Units":"in","Rept_Date":"2019-12-12 13"},"coordinates":[1960,7125]},{"type":"Point","properties":{"Station_ID":"WI-VL-14","Station_Nam":"BOULDER JUNCTION 1.4 NE, WI","Latitude":"46.12840","Longitude":"-89.62470","Snowdepth":"18.000","Units":"in","Rept_Date":"2019-12-12 13"},"coordinates":[1713,6516]},{"type":"Point","properties":{"Station_ID":"WI-OC-1","Station_Nam":"MOUNTAIN 1.1 SW, WI","Latitude":"45.17239","Longitude":"-88.48990","Snowdepth":"18.000","Units":"in","Rept_Date":"2019-12-13 00"},"coordinates":[1968,5921]},{"type":"Point","properties":{"Station_ID":"MOUW3","Station_Nam":"MOUNTAIN 1 SW","Latitude":"45.17220","Longitude":"-88.49390","Snowdepth":"18.000","Units":"in","Rept_Date":"2019-12-13 00"},"coordinates":[1968,5921]},{"type":"Point","properties":{"Station_ID":"MN-SL-15","Station_Nam":"CHISHOLM 0.4 WSW, MN","Latitude":"47.48557","Longitude":"-92.88690","Snowdepth":"18.000","Units":"in","Rept_Date":"2019-12-12 13"},"coordinates":[979,7360]},{"type":"Point","properties":{"Station_ID":"MI-MQ-19","Station_Nam":"ISHPEMING 7.2 SW, MI","Latitude":"46.40550","Longitude":"-87.75670","Snowdepth":"18.000","Units":"in","Rept_Date":"2019-12-12 11"},"coordinates":[2133,6688]},{"type":"Point","properties":{"Station_ID":"IMNM4","Station_Nam":"IRON MOUTAIN 5N","Latitude":"45.87580","Longitude":"-88.04030","Snowdepth":"18.000","Units":"in","Rept_Date":"2019-12-12 23"},"coordinates":[2070,6359]},{"type":"Point","properties":{"Station_ID":"EVRW3","Station_Nam":"EAGLE RIVER-4 E","Latitude":"45.91890","Longitude":"-89.15280","Snowdepth":"18.000","Units":"in","Rept_Date":"2019-12-12 14"},"coordinates":[1819,6386]},{"type":"Point","properties":{"Station_ID":"CLGM5","Station_Nam":"COLLEGEVILLE ST JOHN","Latitude":"45.57940","Longitude":"-94.39200","Snowdepth":"18.000","Units":"in","Rept_Date":"2019-12-13 00"},"coordinates":[640,6174]},{"type":"Point","properties":{"Station_ID":"QLB","Station_Nam":"QLB","Latitude":"50.72360","Longitude":"-75.10000","Snowdepth":"17.716","Units":"in","Rept_Date":"2019-12-12 12"},"coordinates":[4981,9375]},{"type":"Point","properties":{"Station_ID":"MLZ","Station_Nam":"MLZ","Latitude":"50.66170","Longitude":"-68.82360","Snowdepth":"17.244","Units":"in","Rept_Date":"2019-12-12 12"},"coordinates":[6393,9336]},{"type":"Point","properties":{"Station_ID":"WI-SR-1","Station_Nam":"HAYWARD 9.2 NNE, WI","Latitude":"46.13255","Longitude":"-91.40500","Snowdepth":"17.100","Units":"in","Rept_Date":"2019-12-12 12"},"coordinates":[1313,6519]},{"type":"Point","properties":{"Station_ID":"WI-SR-5","Station_Nam":"HAYWARD 9.7 NE, WI","Latitude":"46.12030","Longitude":"-91.35370","Snowdepth":"17.000","Units":"in","Rept_Date":"2019-12-12 14"},"coordinates":[1324,6511]},{"type":"Point","properties":{"Station_ID":"MN2EOYHJ","Station_Nam":"OGILVIE 5.6 N","Latitude":"45.91288","Longitude":"-93.42259","Snowdepth":"17.000","Units":"in","Rept_Date":"2019-12-12 14"},"coordinates":[859,6382]},{"type":"Point","properties":{"Station_ID":"MN-AT-5","Station_Nam":"TAMARACK 1.4 SW, MN","Latitude":"46.63760","Longitude":"-93.14554","Snowdepth":"17.000","Units":"in","Rept_Date":"2019-12-12 11"},"coordinates":[921,6833]},{"type":"Point","properties":{"Station_ID":"HRVM4","Station_Nam":"HARVEY","Latitude":"46.49080","Longitude":"-87.35470","Snowdepth":"17.000","Units":"in","Rept_Date":"2019-12-12 12"},"coordinates":[2224,6741]},{"type":"Point","properties":{"Station_ID":"GLDM4","Station_Nam":"GLADSTONE NO. 2","Latitude":"45.84330","Longitude":"-87.03910","Snowdepth":"17.000","Units":"in","Rept_Date":"2019-12-12 12"},"coordinates":[2295,6339]},{"type":"Point","properties":{"Station_ID":"ESAM4","Station_Nam":"ESCANABA","Latitude":"45.74380","Longitude":"-87.04060","Snowdepth":"17.000","Units":"in","Rept_Date":"2019-12-12 12"},"coordinates":[2294,6277]},{"type":"Point","properties":{"Station_ID":"CRVW3","Station_Nam":"CRIVITZ HIGH FALLS","Latitude":"45.35750","Longitude":"-88.19190","Snowdepth":"17.000","Units":"in","Rept_Date":"2019-12-12 13"},"coordinates":[2035,6036]},{"type":"Point","properties":{"Station_ID":"QGO","Station_Nam":"QGO","Latitude":"48.85500","Longitude":"-74.20640","Snowdepth":"16.772","Units":"in","Rept_Date":"2019-12-12 12"},"coordinates":[5182,8212]},{"type":"Point","properties":{"Station_ID":"WI-PR-2","Station_Nam":"BUTTERNUT 5.9 SW, WI","Latitude":"45.96501","Longitude":"-90.59750","Snowdepth":"16.000","Units":"in","Rept_Date":"2019-12-12 12"},"coordinates":[1494,6414]},{"type":"Point","properties":{"Station_ID":"RHIW3","Station_Nam":"RHINELANDER","Latitude":"45.59860","Longitude":"-89.45080","Snowdepth":"16.000","Units":"in","Rept_Date":"2019-12-12 13"},"coordinates":[1752,6186]},{"type":"Point","properties":{"Station_ID":"MRQM4","Station_Nam":"MARQUETTE WFP","Latitude":"46.54580","Longitude":"-87.37950","Snowdepth":"16.000","Units":"in","Rept_Date":"2019-12-12 13"},"coordinates":[2218,6776]},{"type":"Point","properties":{"Station_ID":"MNSM4","Station_Nam":"MUNISING","Latitude":"46.41210","Longitude":"-86.66250","Snowdepth":"16.000","Units":"in","Rept_Date":"2019-12-12 11"},"coordinates":[2380,6692]},{"type":"Point","properties":{"Station_ID":"HYRW3","Station_Nam":"RANGER STATION","Latitude":"46.00750","Longitude":"-91.46670","Snowdepth":"16.000","Units":"in","Rept_Date":"2019-12-12 19"},"coordinates":[1299,6441]},{"type":"Point","properties":{"Station_ID":"EGRW3","Station_Nam":"EAGLE RIVER-SOUTH","Latitude":"45.91360","Longitude":"-89.24360","Snowdepth":"16.000","Units":"in","Rept_Date":"2019-12-12 13"},"coordinates":[1799,6382]},{"type":"Point","properties":{"Station_ID":"CEFM4","Station_Nam":"EXPERIMENT FARM #2","Latitude":"46.33330","Longitude":"-86.91670","Snowdepth":"16.000","Units":"in","Rept_Date":"2019-12-12 13"},"coordinates":[2322,6643]},{"type":"Point","properties":{"Station_ID":"AURW3","Station_Nam":"AURORA","Latitude":"45.77000","Longitude":"-88.11810","Snowdepth":"16.000","Units":"in","Rept_Date":"2019-12-12 14"},"coordinates":[2052,6293]},{"type":"Point","properties":{"Station_ID":"ASTW3","Station_Nam":"ATHELSTANE","Latitude":"45.42500","Longitude":"-88.05750","Snowdepth":"16.000","Units":"in","Rept_Date":"2019-12-12 12"},"coordinates":[2066,6078]},{"type":"Point","properties":{"Station_ID":"AROM4","Station_Nam":"ARNOLD,MI","Latitude":"46.06670","Longitude":"-87.48330","Snowdepth":"16.000","Units":"in","Rept_Date":"2019-12-12 13"},"coordinates":[2195,6478]},{"type":"Point","properties":{"Station_ID":"WI-BT-14","Station_Nam":"OAKLAND 9.0 ENE, WI","Latitude":"45.95184","Longitude":"-92.21653","Snowdepth":"15.500","Units":"in","Rept_Date":"2019-12-12 13"},"coordinates":[1130,6406]},{"type":"Point","properties":{"Station_ID":"WTNM4","Station_Nam":"WATTON 2WSW","Latitude":"46.52660","Longitude":"-88.64240","Snowdepth":"15.000","Units":"in","Rept_Date":"2019-12-12 13"},"coordinates":[1934,6764]},{"type":"Point","properties":{"Station_ID":"WI-RS-1","Station_Nam":"LADYSMITH 2.8 WNW, WI","Latitude":"45.48180","Longitude":"-91.14680","Snowdepth":"15.000","Units":"in","Rept_Date":"2019-12-12 13"},"coordinates":[1371,6114]},{"type":"Point","properties":{"Station_ID":"TOHM5","Station_Nam":"TWO HARBORS WWTP","Latitude":"47.01760","Longitude":"-91.66480","Snowdepth":"15.000","Units":"in","Rept_Date":"2019-12-12 13"},"coordinates":[1254,7069]},{"type":"Point","properties":{"Station_ID":"MN4R4TSR","Station_Nam":"KNIFE RIVER 0.8 NNW","Latitude":"46.96007","Longitude":"-91.78365","Snowdepth":"15.000","Units":"in","Rept_Date":"2019-12-12 12"},"coordinates":[1227,7033]},{"type":"Point","properties":{"Station_ID":"MN-SL-139","Station_Nam":"DULUTH 1.2 SE, MN","Latitude":"46.77000","Longitude":"-92.08826","Snowdepth":"15.000","Units":"in","Rept_Date":"2019-12-12 12"},"coordinates":[1159,6915]},{"type":"Point","properties":{"Station_ID":"MI-MQ-2","Station_Nam":"MARQUETTE 6.5 SSE, MI","Latitude":"46.46461","Longitude":"-87.34064","Snowdepth":"15.000","Units":"in","Rept_Date":"2019-12-12 13"},"coordinates":[2227,6725]},{"type":"Point","properties":{"Station_ID":"GGRM4","Station_Nam":"GREEN GARDEN NO.2","Latitude":"46.45330","Longitude":"-87.30380","Snowdepth":"15.000","Units":"in","Rept_Date":"2019-12-12 11"},"coordinates":[2235,6718]},{"type":"Point","properties":{"Station_ID":"EMBM5","Station_Nam":"EMBARASS,MN","Latitude":"47.65810","Longitude":"-92.19580","Snowdepth":"15.000","Units":"in","Rept_Date":"2019-12-12 11"},"coordinates":[1135,7468]},{"type":"Point","properties":{"Station_ID":"CLKM4","Station_Nam":"CLARKSBURG","Latitude":"46.49910","Longitude":"-87.84500","Snowdepth":"15.000","Units":"in","Rept_Date":"2019-12-12 12"},"coordinates":[2114,6747]},{"type":"Point","properties":{"Station_ID":"BNDM5","Station_Nam":"ELY 25E","Latitude":"47.97190","Longitude":"-91.44860","Snowdepth":"15.000","Units":"in","Rept_Date":"2019-12-12 13"},"coordinates":[1303,7663]},{"type":"Point","properties":{"Station_ID":"AVTW3","Station_Nam":"ARBOR VITAE-JOHNSON LAKE","Latitude":"45.89940","Longitude":"-89.72670","Snowdepth":"15.000","Units":"in","Rept_Date":"2019-12-12 12"},"coordinates":[1690,6373]},{"type":"Point","properties":{"Station_ID":"QFT","Station_Nam":"QFT","Latitude":"50.83280","Longitude":"-74.40390","Snowdepth":"14.764","Units":"in","Rept_Date":"2019-12-12 12"},"coordinates":[5138,9443]},{"type":"Point","properties":{"Station_ID":"QCX","Station_Nam":"QCX","Latitude":"51.32830","Longitude":"-70.08060","Snowdepth":"14.370","Units":"in","Rept_Date":"2019-12-12 12"},"coordinates":[6110,9751]},{"type":"Point","properties":{"Station_ID":"WI-PR-8","Station_Nam":"PHILLIPS 0.4 SSW, WI","Latitude":"45.69086","Longitude":"-90.40200","Snowdepth":"14.000","Units":"in","Rept_Date":"2019-12-12 13"},"coordinates":[1538,6244]},{"type":"Point","properties":{"Station_ID":"WI-PR-6","Station_Nam":"PHILLIPS 1.3 S, WI","Latitude":"45.67677","Longitude":"-90.39543","Snowdepth":"14.000","Units":"in","Rept_Date":"2019-12-12 12"},"coordinates":[1540,6235]},{"type":"Point","properties":{"Station_ID":"WI-ON-6","Station_Nam":"RHINELANDER 5.2 N, WI","Latitude":"45.71388","Longitude":"-89.42150","Snowdepth":"14.000","Units":"in","Rept_Date":"2019-12-12 15"},"coordinates":[1759,6258]},{"type":"Point","properties":{"Station_ID":"PKFW3","Station_Nam":"PARK FALLS,WI","Latitude":"45.93360","Longitude":"-90.45060","Snowdepth":"14.000","Units":"in","Rept_Date":"2019-12-12 14"},"coordinates":[1527,6395]},{"type":"Point","properties":{"Station_ID":"MRAM5","Station_Nam":"MORA","Latitude":"45.87760","Longitude":"-93.31470","Snowdepth":"14.000","Units":"in","Rept_Date":"2019-12-12 13"},"coordinates":[883,6360]},{"type":"Point","properties":{"Station_ID":"MN-IT-23","Station_Nam":"BOVEY 13.4 N, MN","Latitude":"47.48855","Longitude":"-93.43497","Snowdepth":"14.000","Units":"in","Rept_Date":"2019-12-12 13"},"coordinates":[856,7362]},{"type":"Point","properties":{"Station_ID":"MN-CW-16","Station_Nam":"TROMMALD 6.1 NW, MN","Latitude":"46.55849","Longitude":"-94.11723","Snowdepth":"14.000","Units":"in","Rept_Date":"2019-12-12 14"},"coordinates":[702,6784]},{"type":"Point","properties":{"Station_ID":"MMNV1","Station_Nam":"MT. MANSFIELD","Latitude":"44.52480","Longitude":"-72.81540","Snowdepth":"14.000","Units":"in","Rept_Date":"2019-12-12 21"},"coordinates":[5495,5518]},{"type":"Point","properties":{"Station_ID":"JCBM4","Station_Nam":"JACOBSVILLE","Latitude":"47.00830","Longitude":"-88.43180","Snowdepth":"14.000","Units":"in","Rept_Date":"2019-12-12 12"},"coordinates":[1981,7063]},{"type":"Point","properties":{"Station_ID":"ELYM5","Station_Nam":"ELY","Latitude":"47.90560","Longitude":"-91.82830","Snowdepth":"14.000","Units":"in","Rept_Date":"2019-12-12 14"},"coordinates":[1217,7622]},{"type":"Point","properties":{"Station_ID":"BRAM5","Station_Nam":"BRAINERD","Latitude":"46.34320","Longitude":"-94.20900","Snowdepth":"14.000","Units":"in","Rept_Date":"2019-12-12 13"},"coordinates":[682,6650]},{"type":"Point","properties":{"Station_ID":"ABGW3","Station_Nam":"AMBERG 9 E","Latitude":"45.48250","Longitude":"-87.81190","Snowdepth":"14.000","Units":"in","Rept_Date":"2019-12-12 12"},"coordinates":[2121,6114]},{"type":"Point","properties":{"Station_ID":"MFU","Station_Nam":"MFU","Latitude":"51.52170","Longitude":"-66.91110","Snowdepth":"13.937","Units":"in","Rept_Date":"2019-12-12 12"},"coordinates":[6823,9871]},{"type":"Point","properties":{"Station_ID":"QCU","Station_Nam":"QCU","Latitude":"47.82750","Longitude":"-76.59830","Snowdepth":"13.858","Units":"in","Rept_Date":"2019-12-12 12"},"coordinates":[4644,7573]},{"type":"Point","properties":{"Station_ID":"PTLQ6","Station_Nam":"PORTAGE LAKE","Latitude":"49.06950","Longitude":"-86.65940","Snowdepth":"13.390","Units":"in","Rept_Date":"2019-12-13 06"},"coordinates":[2380,8346]},{"type":"Point","properties":{"Station_ID":"WILW3","Station_Nam":"RESERVOIR","Latitude":"45.70000","Longitude":"-89.83330","Snowdepth":"13.000","Units":"in","Rept_Date":"2019-12-12 12"},"coordinates":[1666,6249]},{"type":"Point","properties":{"Station_ID":"WI-CK-3","Station_Nam":"COLBY 5.9 WSW, WI","Latitude":"44.87209","Longitude":"-90.42463","Snowdepth":"13.000","Units":"in","Rept_Date":"2019-12-13 01"},"coordinates":[1533,5734]},{"type":"Point","properties":{"Station_ID":"SEBM5","Station_Nam":"SEBEKA","Latitude":"46.62540","Longitude":"-95.09670","Snowdepth":"13.000","Units":"in","Rept_Date":"2019-12-12 13"},"coordinates":[482,6825]},{"type":"Point","properties":{"Station_ID":"RHLW3","Station_Nam":"RHINELANDER 4NE","Latitude":"45.65270","Longitude":"-89.30740","Snowdepth":"13.000","Units":"in","Rept_Date":"2019-12-12 12"},"coordinates":[1784,6220]},{"type":"Point","properties":{"Station_ID":"NYMM5","Station_Nam":"NEW YORK MILLS","Latitude":"46.50920","Longitude":"-95.37990","Snowdepth":"13.000","Units":"in","Rept_Date":"2019-12-12 16"},"coordinates":[418,6753]},{"type":"Point","properties":{"Station_ID":"MN-SL-115","Station_Nam":"COTTON 5.7 ESE, MN","Latitude":"47.15142","Longitude":"-92.35772","Snowdepth":"13.000","Units":"in","Rept_Date":"2019-12-12 14"},"coordinates":[1098,7152]},{"type":"Point","properties":{"Station_ID":"KGFK","Station_Nam":"GRAND FORKS INTERNATIONAL","Latitude":"47.95000","Longitude":"-97.18333","Snowdepth":"13.000","Units":"in","Rept_Date":"2019-12-13 06"},"coordinates":[12,7649]},{"type":"Point","properties":{"Station_ID":"ISEM5","Station_Nam":"ISLE 12N","Latitude":"46.31970","Longitude":"-93.50140","Snowdepth":"13.000","Units":"in","Rept_Date":"2019-12-12 14"},"coordinates":[841,6635]},{"type":"Point","properties":{"Station_ID":"GFK","Station_Nam":"GRAND FORKS INTERNATIONAL AIRPORT","Latitude":"47.94920","Longitude":"-97.17610","Snowdepth":"13.000","Units":"in","Rept_Date":"2019-12-13 00"},"coordinates":[14,7649]},{"type":"Point","properties":{"Station_ID":"ELVM5","Station_Nam":"EVELETH,MN","Latitude":"47.46670","Longitude":"-92.56670","Snowdepth":"13.000","Units":"in","Rept_Date":"2019-12-12 13"},"coordinates":[1051,7349]},{"type":"Point","properties":{"Station_ID":"CLBW3","Station_Nam":"COLBY 6SW","Latitude":"44.87080","Longitude":"-90.42480","Snowdepth":"13.000","Units":"in","Rept_Date":"2019-12-13 04"},"coordinates":[1533,5734]},{"type":"Point","properties":{"Station_ID":"ANJM4","Station_Nam":"SNOW PAID OBSERVER FOR KANJ","Latitude":"46.48670","Longitude":"-84.40260","Snowdepth":"13.000","Units":"in","Rept_Date":"2019-12-13 06"},"coordinates":[2888,6739]},{"type":"Point","properties":{"Station_ID":"AGNW3","Station_Nam":"ARGONNE-1.5 NW","Latitude":"45.67360","Longitude":"-88.90380","Snowdepth":"13.000","Units":"in","Rept_Date":"2019-12-12 13"},"coordinates":[1875,6233]},{"type":"Point","properties":{"Station_ID":"QMD","Station_Nam":"QMD","Latitude":"49.29060","Longitude":"-75.84500","Snowdepth":"12.756","Units":"in","Rept_Date":"2019-12-12 12"},"coordinates":[4813,8483]},{"type":"Point","properties":{"Station_ID":"MN-SL-108","Station_Nam":"IRON JUNCTION 3.4 NNW, MN","Latitude":"47.46150","Longitude":"-92.63130","Snowdepth":"12.500","Units":"in","Rept_Date":"2019-12-12 11"},"coordinates":[1037,7345]},{"type":"Point","properties":{"Station_ID":"QYR","Station_Nam":"QYR","Latitude":"48.87220","Longitude":"-75.61470","Snowdepth":"12.126","Units":"in","Rept_Date":"2019-12-12 12"},"coordinates":[4865,8223]},{"type":"Point","properties":{"Station_ID":"TAKW3","Station_Nam":"RICE RESERVOIR NO. 2","Latitude":"45.53770","Longitude":"-89.73220","Snowdepth":"12.000","Units":"in","Rept_Date":"2019-12-12 13"},"coordinates":[1689,6148]},{"type":"Point","properties":{"Station_ID":"STMM4","Station_Nam":"STAMBAUGH 2SSE","Latitude":"46.05550","Longitude":"-88.62780","Snowdepth":"12.000","Units":"in","Rept_Date":"2019-12-12 13"},"coordinates":[1937,6471]},{"type":"Point","properties":{"Station_ID":"SAUW3","Station_Nam":"WAUSAU WSAW TV","Latitude":"44.94630","Longitude":"-89.62220","Snowdepth":"12.000","Units":"in","Rept_Date":"2019-12-12 16"},"coordinates":[1714,5781]},{"type":"Point","properties":{"Station_ID":"RHRW3","Station_Nam":"RHINELANDER WJFW TV-12","Latitude":"45.62220","Longitude":"-89.41000","Snowdepth":"12.000","Units":"in","Rept_Date":"2019-12-13 04"},"coordinates":[1761,6201]},{"type":"Point","properties":{"Station_ID":"MQRW3","Station_Nam":"MINOCQUA","Latitude":"45.88630","Longitude":"-89.73220","Snowdepth":"12.000","Units":"in","Rept_Date":"2019-12-12 12"},"coordinates":[1689,6365]},{"type":"Point","properties":{"Station_ID":"MN-SR-29","Station_Nam":"ALBANY 3.8 S, MN","Latitude":"45.57441","Longitude":"-94.55543","Snowdepth":"12.000","Units":"in","Rept_Date":"2019-12-12 13"},"coordinates":[604,6171]},{"type":"Point","properties":{"Station_ID":"MN-BM-15","Station_Nam":"BEMIDJI 7.8 ENE, MN","Latitude":"47.52043","Longitude":"-94.72121","Snowdepth":"12.000","Units":"in","Rept_Date":"2019-12-12 13"},"coordinates":[566,7382]},{"type":"Point","properties":{"Station_ID":"MLCM5","Station_Nam":"MILACA","Latitude":"45.75320","Longitude":"-93.66170","Snowdepth":"12.000","Units":"in","Rept_Date":"2019-12-12 13"},"coordinates":[805,6283]},{"type":"Point","properties":{"Station_ID":"MCLN8","Station_Nam":"MC LEOD,ND","Latitude":"46.40250","Longitude":"-97.23810","Snowdepth":"12.000","Units":"in","Rept_Date":"2019-12-12 15"},"coordinates":[0,6686]},{"type":"Point","properties":{"Station_ID":"LUCW3","Station_Nam":"LUCK","Latitude":"45.57330","Longitude":"-92.48520","Snowdepth":"12.000","Units":"in","Rept_Date":"2019-12-12 22"},"coordinates":[1069,6171]},{"type":"Point","properties":{"Station_ID":"GLLM5","Station_Nam":"GULL LAKE DAM","Latitude":"46.41190","Longitude":"-94.35000","Snowdepth":"12.000","Units":"in","Rept_Date":"2019-12-12 14"},"coordinates":[650,6692]},{"type":"Point","properties":{"Station_ID":"ANJ","Station_Nam":"SAULT STE MARIE","Latitude":"46.46670","Longitude":"-84.36670","Snowdepth":"12.000","Units":"in","Rept_Date":"2019-12-13 00"},"coordinates":[2896,6726]},{"type":"Point","properties":{"Station_ID":"QMA","Station_Nam":"QMA","Latitude":"50.10330","Longitude":"-70.47190","Snowdepth":"11.772","Units":"in","Rept_Date":"2019-12-12 12"},"coordinates":[6022,8989]},{"type":"Point","properties":{"Station_ID":"MN-IT-1","Station_Nam":"GRAND RAPIDS 2.0 E, MN","Latitude":"47.22266","Longitude":"-93.49600","Snowdepth":"11.500","Units":"in","Rept_Date":"2019-12-12 12"},"coordinates":[842,7197]},{"type":"Point","properties":{"Station_ID":"MN-CW-29","Station_Nam":"BRAINERD 7.7 SSE, MN","Latitude":"46.24996","Longitude":"-94.14576","Snowdepth":"11.500","Units":"in","Rept_Date":"2019-12-12 13"},"coordinates":[696,6592]},{"type":"Point","properties":{"Station_ID":"QTV","Station_Nam":"QTV","Latitude":"49.66000","Longitude":"-69.35690","Snowdepth":"11.417","Units":"in","Rept_Date":"2019-12-12 12"},"coordinates":[6273,8713]},{"type":"Point","properties":{"Station_ID":"QTM","Station_Nam":"QTM","Latitude":"51.05780","Longitude":"-72.57190","Snowdepth":"11.024","Units":"in","Rept_Date":"2019-12-12 12"},"coordinates":[5550,9583]},{"type":"Point","properties":{"Station_ID":"WSKW3","Station_Nam":"WAUSAUKEE","Latitude":"45.38020","Longitude":"-87.95660","Snowdepth":"11.000","Units":"in","Rept_Date":"2019-12-12 14"},"coordinates":[2088,6050]},{"type":"Point","properties":{"Station_ID":"WLKW3","Station_Nam":"WHITE LAKE 1 SE","Latitude":"45.14520","Longitude":"-88.74160","Snowdepth":"11.000","Units":"in","Rept_Date":"2019-12-12 14"},"coordinates":[1912,5904]},{"type":"Point","properties":{"Station_ID":"WLDM5","Station_Nam":"WILD RIVER STATE PARK","Latitude":"45.52310","Longitude":"-92.74890","Snowdepth":"11.000","Units":"in","Rept_Date":"2019-12-12 14"},"coordinates":[1010,6139]},{"type":"Point","properties":{"Station_ID":"WI-BR-2","Station_Nam":"CHETEK 2.0 SE, WI","Latitude":"45.29427","Longitude":"-91.62470","Snowdepth":"11.000","Units":"in","Rept_Date":"2019-12-12 13"},"coordinates":[1263,5997]},{"type":"Point","properties":{"Station_ID":"SULW3","Station_Nam":"SUMMIT LAKE","Latitude":"45.37880","Longitude":"-89.19410","Snowdepth":"11.000","Units":"in","Rept_Date":"2019-12-12 11"},"coordinates":[1810,6050]},{"type":"Point","properties":{"Station_ID":"OTTM5","Station_Nam":"OTTERTAIL,MN","Latitude":"46.41670","Longitude":"-95.56670","Snowdepth":"11.000","Units":"in","Rept_Date":"2019-12-12 11"},"coordinates":[376,6695]},{"type":"Point","properties":{"Station_ID":"MN-IT-10","Station_Nam":"DEER RIVER 3.7 W, MN","Latitude":"47.33564","Longitude":"-93.87514","Snowdepth":"11.000","Units":"in","Rept_Date":"2019-12-12 14"},"coordinates":[757,7267]},{"type":"Point","properties":{"Station_ID":"MLLW3","Station_Nam":"MERRILL 8W","Latitude":"45.17810","Longitude":"-89.84810","Snowdepth":"11.000","Units":"in","Rept_Date":"2019-12-12 12"},"coordinates":[1663,5925]},{"type":"Point","properties":{"Station_ID":"ME-AR-23","Station_Nam":"MADAWASKA 2.5 E, ME","Latitude":"47.34933","Longitude":"-68.28141","Snowdepth":"11.000","Units":"in","Rept_Date":"2019-12-12 12"},"coordinates":[6515,7276]},{"type":"Point","properties":{"Station_ID":"LADW3","Station_Nam":"LADYSMITH WTP","Latitude":"45.44290","Longitude":"-91.08970","Snowdepth":"11.000","Units":"in","Rept_Date":"2019-12-12 13"},"coordinates":[1383,6089]},{"type":"Point","properties":{"Station_ID":"HOLW3","Station_Nam":"HOLCOMBE","Latitude":"45.22370","Longitude":"-91.12700","Snowdepth":"11.000","Units":"in","Rept_Date":"2019-12-12 13"},"coordinates":[1375,5953]},{"type":"Point","properties":{"Station_ID":"GRBM5","Station_Nam":"GRAND RAPIDS 12N","Latitude":"47.39800","Longitude":"-93.51330","Snowdepth":"11.000","Units":"in","Rept_Date":"2019-12-12 13"},"coordinates":[838,7306]},{"type":"Point","properties":{"Station_ID":"ENGM4","Station_Nam":"ENGADINE MDOT","Latitude":"46.12800","Longitude":"-85.56960","Snowdepth":"11.000","Units":"in","Rept_Date":"2019-12-12 12"},"coordinates":[2625,6516]},{"type":"Point","properties":{"Station_ID":"CSLM5","Station_Nam":"CASS LAKE,MN","Latitude":"47.38470","Longitude":"-94.61470","Snowdepth":"11.000","Units":"in","Rept_Date":"2019-12-12 14"},"coordinates":[590,7298]},{"type":"Point","properties":{"Station_ID":"COTM5","Station_Nam":"COTTON","Latitude":"47.16870","Longitude":"-92.46290","Snowdepth":"11.000","Units":"in","Rept_Date":"2019-12-12 13"},"coordinates":[1075,7163]},{"type":"Point","properties":{"Station_ID":"CBLW3","Station_Nam":"CUMBERLAND","Latitude":"45.53310","Longitude":"-92.02260","Snowdepth":"11.000","Units":"in","Rept_Date":"2019-12-12 13"},"coordinates":[1174,6146]},{"type":"Point","properties":{"Station_ID":"BALW3","Station_Nam":"BALDWIN","Latitude":"44.96330","Longitude":"-92.39050","Snowdepth":"11.000","Units":"in","Rept_Date":"2019-12-12 13"},"coordinates":[1091,5791]},{"type":"Point","properties":{"Station_ID":"AGSW3","Station_Nam":"AUGUSTA RANGER STATION","Latitude":"44.68250","Longitude":"-91.13570","Snowdepth":"11.000","Units":"in","Rept_Date":"2019-12-12 14"},"coordinates":[1373,5616]},{"type":"Point","properties":{"Station_ID":"SVBQ6","Station_Nam":"SAVANT BASE","Latitude":"50.28730","Longitude":"-90.65670","Snowdepth":"10.790","Units":"in","Rept_Date":"2019-12-13 06"},"coordinates":[1481,9103]},{"type":"Point","properties":{"Station_ID":"QCO","Station_Nam":"QCO","Latitude":"51.45280","Longitude":"-72.20110","Snowdepth":"10.787","Units":"in","Rept_Date":"2019-12-12 12"},"coordinates":[5633,9828]},{"type":"Point","properties":{"Station_ID":"TRIQ6","Station_Nam":"TRIO LAKE","Latitude":"49.22880","Longitude":"-87.22920","Snowdepth":"10.590","Units":"in","Rept_Date":"2019-12-13 06"},"coordinates":[2252,8445]},{"type":"Point","properties":{"Station_ID":"WI-LN-2","Station_Nam":"MERRILL 7.0 W, WI","Latitude":"45.17746","Longitude":"-89.84820","Snowdepth":"10.500","Units":"in","Rept_Date":"2019-12-12 12"},"coordinates":[1663,5924]},{"type":"Point","properties":{"Station_ID":"MI-AT-6","Station_Nam":"MANCELONA 0.5 ESE, MI","Latitude":"44.89981","Longitude":"-85.05100","Snowdepth":"10.500","Units":"in","Rept_Date":"2019-12-12 13"},"coordinates":[2742,5752]},{"type":"Point","properties":{"Station_ID":"ME-AR-18","Station_Nam":"NEW SWEDEN 4.9 NNW, ME","Latitude":"47.01080","Longitude":"-68.14390","Snowdepth":"10.500","Units":"in","Rept_Date":"2019-12-12 12"},"coordinates":[6546,7065]},{"type":"Point","properties":{"Station_ID":"MA-MD-47","Station_Nam":"WEST TOWNSEND 0.5 W, MA","Latitude":"42.67623","Longitude":"-71.74983","Snowdepth":"10.500","Units":"in","Rept_Date":"2019-12-12 11"},"coordinates":[5735,4368]},{"type":"Point","properties":{"Station_ID":"QLM","Station_Nam":"QLM","Latitude":"48.92030","Longitude":"-70.25280","Snowdepth":"10.472","Units":"in","Rept_Date":"2019-12-12 12"},"coordinates":[6072,8253]},{"type":"Point","properties":{"Station_ID":"MN-IT-7","Station_Nam":"GRAND RAPIDS 6.2 SSW, MN","Latitude":"47.13687","Longitude":"-93.56660","Snowdepth":"10.200","Units":"in","Rept_Date":"2019-12-12 12"},"coordinates":[826,7143]},{"type":"Point","properties":{"Station_ID":"ZNOM4","Station_Nam":"NORWAY","Latitude":"45.77810","Longitude":"-87.89560","Snowdepth":"10.000","Units":"in","Rept_Date":"2019-12-12 13"},"coordinates":[2102,6298]},{"type":"Point","properties":{"Station_ID":"WI-DN-1","Station_Nam":"BOYCEVILLE 3.3 N, WI","Latitude":"45.08913","Longitude":"-92.02760","Snowdepth":"10.000","Units":"in","Rept_Date":"2019-12-12 13"},"coordinates":[1172,5869]},{"type":"Point","properties":{"Station_ID":"TETM5","Station_Nam":"TETTEGOUCHE STATE PARK","Latitude":"47.33900","Longitude":"-91.19590","Snowdepth":"10.000","Units":"in","Rept_Date":"2019-12-12 14"},"coordinates":[1360,7269]},{"type":"Point","properties":{"Station_ID":"STIM4","Station_Nam":"ST IGNACE","Latitude":"45.86080","Longitude":"-84.71960","Snowdepth":"10.000","Units":"in","Rept_Date":"2019-12-12 12"},"coordinates":[2817,6349]},{"type":"Point","properties":{"Station_ID":"RGNM1","Station_Nam":"RANGELEY 2NW","Latitude":"44.98940","Longitude":"-70.67220","Snowdepth":"10.000","Units":"in","Rept_Date":"2019-12-12 11"},"coordinates":[5977,5807]},{"type":"Point","properties":{"Station_ID":"MN-SR-9","Station_Nam":"SARTELL 1.4 SSE, MN","Latitude":"45.60179","Longitude":"-94.19910","Snowdepth":"10.000","Units":"in","Rept_Date":"2019-12-12 13"},"coordinates":[684,6188]},{"type":"Point","properties":{"Station_ID":"MN-SH-10","Station_Nam":"BIG LAKE 5.6 NNE, MN","Latitude":"45.41409","Longitude":"-93.69190","Snowdepth":"10.000","Units":"in","Rept_Date":"2019-12-12 12"},"coordinates":[798,6072]},{"type":"Point","properties":{"Station_ID":"MN-MR-4","Station_Nam":"LITTLE FALLS 1.2 SW, MN","Latitude":"45.96886","Longitude":"-94.37720","Snowdepth":"10.000","Units":"in","Rept_Date":"2019-12-12 13"},"coordinates":[644,6417]},{"type":"Point","properties":{"Station_ID":"MN-IT-17","Station_Nam":"GRAND RAPIDS 6.1 N, MN","Latitude":"47.31165","Longitude":"-93.55036","Snowdepth":"10.000","Units":"in","Rept_Date":"2019-12-12 13"},"coordinates":[830,7252]},{"type":"Point","properties":{"Station_ID":"MN-CV-40","Station_Nam":"EXCELSIOR 0.8 S, MN","Latitude":"44.88996","Longitude":"-93.56646","Snowdepth":"10.000","Units":"in","Rept_Date":"2019-12-12 13"},"coordinates":[826,5745]},{"type":"Point","properties":{"Station_ID":"MIEM4","Station_Nam":"MICHIGAMME 3WNW","Latitude":"46.54530","Longitude":"-88.18000","Snowdepth":"10.000","Units":"in","Rept_Date":"2019-12-12 13"},"coordinates":[2038,6775]},{"type":"Point","properties":{"Station_ID":"MI-MC-4","Station_Nam":"ST. IGNACE 0.5SE, MI","Latitude":"45.86057","Longitude":"-84.71980","Snowdepth":"10.000","Units":"in","Rept_Date":"2019-12-12 12"},"coordinates":[2817,6349]},{"type":"Point","properties":{"Station_ID":"MI-DL-1","Station_Nam":"GARDEN CORNERS 0.8 NW, MI","Latitude":"45.89815","Longitude":"-86.54850","Snowdepth":"10.000","Units":"in","Rept_Date":"2019-12-12 13"},"coordinates":[2405,6373]},{"type":"Point","properties":{"Station_ID":"MA-WR-54","Station_Nam":"BARRE 1.4 NNE, MA","Latitude":"42.44082","Longitude":"-72.09591","Snowdepth":"10.000","Units":"in","Rept_Date":"2019-12-12 12"},"coordinates":[5657,4222]},{"type":"Point","properties":{"Station_ID":"LNGM5","Station_Nam":"LONG PRAIRIE","Latitude":"45.96460","Longitude":"-94.88920","Snowdepth":"10.000","Units":"in","Rept_Date":"2019-12-12 12"},"coordinates":[529,6414]},{"type":"Point","properties":{"Station_ID":"LEIM5","Station_Nam":"ORR 3E","Latitude":"48.05810","Longitude":"-92.75220","Snowdepth":"10.000","Units":"in","Rept_Date":"2019-12-12 12"},"coordinates":[1009,7716]},{"type":"Point","properties":{"Station_ID":"GDCM4","Station_Nam":"GARDEN CORNERS","Latitude":"45.89830","Longitude":"-86.54850","Snowdepth":"10.000","Units":"in","Rept_Date":"2019-12-12 13"},"coordinates":[2405,6373]},{"type":"Point","properties":{"Station_ID":"EJNM4","Station_Nam":"EAST JORDAN 2NW","Latitude":"45.18630","Longitude":"-85.14770","Snowdepth":"10.000","Units":"in","Rept_Date":"2019-12-12 13"},"coordinates":[2720,5930]},{"type":"Point","properties":{"Station_ID":"CBVM1","Station_Nam":"CARRABASSETT VALLEY","Latitude":"45.08040","Longitude":"-70.30310","Snowdepth":"10.000","Units":"in","Rept_Date":"2019-12-12 12"},"coordinates":[6060,5864]},{"type":"Point","properties":{"Station_ID":"WI-EC-23","Station_Nam":"EAU CLAIRE 3.7 S, WI","Latitude":"44.76858","Longitude":"-91.49898","Snowdepth":"9.500","Units":"in","Rept_Date":"2019-12-12 14"},"coordinates":[1291,5670]},{"type":"Point","properties":{"Station_ID":"WI-DN-15","Station_Nam":"MENOMONIE 0.9 NW, WI","Latitude":"44.89832","Longitude":"-91.92398","Snowdepth":"9.500","Units":"in","Rept_Date":"2019-12-12 20"},"coordinates":[1196,5751]},{"type":"Point","properties":{"Station_ID":"MI-CX-7","Station_Nam":"EAST JORDAN 2.1 NNW, MI","Latitude":"45.18639","Longitude":"-85.14750","Snowdepth":"9.500","Units":"in","Rept_Date":"2019-12-12 13"},"coordinates":[2720,5930]},{"type":"Point","properties":{"Station_ID":"SOCQ6","Station_Nam":"SOCKET LAKE","Latitude":"50.77870","Longitude":"-91.79300","Snowdepth":"9.130","Units":"in","Rept_Date":"2019-12-13 06"},"coordinates":[1225,9409]},{"type":"Point","properties":{"Station_ID":"STC","Station_Nam":"ST. CLOUD REGIONAL AIRPORT","Latitude":"45.54330","Longitude":"-94.05140","Snowdepth":"9.000","Units":"in","Rept_Date":"2019-12-12 12"},"coordinates":[717,6152]},{"type":"Point","properties":{"Station_ID":"SPCW3","Station_Nam":"SPENCER-WWTP","Latitude":"44.75390","Longitude":"-90.28920","Snowdepth":"9.000","Units":"in","Rept_Date":"2019-12-12 13"},"coordinates":[1564,5661]},{"type":"Point","properties":{"Station_ID":"SIBI4","Station_Nam":"SIBLEY","Latitude":"43.40470","Longitude":"-95.74830","Snowdepth":"9.000","Units":"in","Rept_Date":"2019-12-12 13"},"coordinates":[335,4821]},{"type":"Point","properties":{"Station_ID":"SCSM5","Station_Nam":"ST CLOUD STATE","Latitude":"45.55100","Longitude":"-94.14950","Snowdepth":"9.000","Units":"in","Rept_Date":"2019-12-12 13"},"coordinates":[695,6157]},{"type":"Point","properties":{"Station_ID":"SBEW3","Station_Nam":"EXP. FARM","Latitude":"44.86670","Longitude":"-87.33330","Snowdepth":"9.000","Units":"in","Rept_Date":"2019-12-12 13"},"coordinates":[2229,5731]},{"type":"Point","properties":{"Station_ID":"MRAM4","Station_Nam":"MORAN","Latitude":"45.99030","Longitude":"-84.83610","Snowdepth":"9.000","Units":"in","Rept_Date":"2019-12-12 13"},"coordinates":[2790,6430]},{"type":"Point","properties":{"Station_ID":"MN6JKRHL","Station_Nam":"TOFTE 0.6 SSW","Latitude":"47.56557","Longitude":"-90.84117","Snowdepth":"9.000","Units":"in","Rept_Date":"2019-12-12 13"},"coordinates":[1439,7410]},{"type":"Point","properties":{"Station_ID":"MN-MR-13","Station_Nam":"LITTLE FALLS 8.0 NE, MN","Latitude":"46.06785","Longitude":"-94.24789","Snowdepth":"9.000","Units":"in","Rept_Date":"2019-12-12 13"},"coordinates":[673,6478]},{"type":"Point","properties":{"Station_ID":"MN-DS-9","Station_Nam":"ALEXANDRIA 0.5 W, MN","Latitude":"45.87828","Longitude":"-95.38273","Snowdepth":"9.000","Units":"in","Rept_Date":"2019-12-12 12"},"coordinates":[418,6360]},{"type":"Point","properties":{"Station_ID":"MI-DL-4","Station_Nam":"GLADSTONE 2.1 SW, MI","Latitude":"45.83218","Longitude":"-87.05727","Snowdepth":"9.000","Units":"in","Rept_Date":"2019-12-12 12"},"coordinates":[2291,6332]},{"type":"Point","properties":{"Station_ID":"MEDW3","Station_Nam":"MEDFORD","Latitude":"45.13080","Longitude":"-90.34390","Snowdepth":"9.000","Units":"in","Rept_Date":"2019-12-12 14"},"coordinates":[1551,5895]},{"type":"Point","properties":{"Station_ID":"MA-HS-7","Station_Nam":"PLAINFIELD 2.2 SW, MA","Latitude":"42.49272","Longitude":"-72.94540","Snowdepth":"9.000","Units":"in","Rept_Date":"2019-12-12 13"},"coordinates":[5466,4254]},{"type":"Point","properties":{"Station_ID":"GRFN8","Station_Nam":"UNIVERSITY","Latitude":"47.93330","Longitude":"-97.08330","Snowdepth":"9.000","Units":"in","Rept_Date":"2019-12-13 06"},"coordinates":[35,7639]},{"type":"Point","properties":{"Station_ID":"ELKM5","Station_Nam":"ELK RIVER","Latitude":"45.30470","Longitude":"-93.58420","Snowdepth":"9.000","Units":"in","Rept_Date":"2019-12-12 13"},"coordinates":[822,6003]},{"type":"Point","properties":{"Station_ID":"COKM5","Station_Nam":"COOK","Latitude":"47.85060","Longitude":"-92.69250","Snowdepth":"9.000","Units":"in","Rept_Date":"2019-12-12 12"},"coordinates":[1023,7587]},{"type":"Point","properties":{"Station_ID":"CAN-ON-526","Station_Nam":"HILTON BEACH 0.7 SW - MNRF, CAN","Latitude":"46.25357","Longitude":"-83.90014","Snowdepth":"8.700","Units":"in","Rept_Date":"2019-12-12 12"},"coordinates":[3001,6594]},{"type":"Point","properties":{"Station_ID":"QWE","Station_Nam":"QWE","Latitude":"47.84610","Longitude":"-73.80670","Snowdepth":"8.661","Units":"in","Rept_Date":"2019-12-12 12"},"coordinates":[5272,7585]},{"type":"Point","properties":{"Station_ID":"QGA","Station_Nam":"QGA","Latitude":"47.25640","Longitude":"-73.73810","Snowdepth":"8.504","Units":"in","Rept_Date":"2019-12-12 12"},"coordinates":[5287,7218]},{"type":"Point","properties":{"Station_ID":"WI-PC-25","Station_Nam":"ELLSWORTH 2.6 SW, WI","Latitude":"44.71119","Longitude":"-92.51849","Snowdepth":"8.500","Units":"in","Rept_Date":"2019-12-12 13"},"coordinates":[1062,5634]},{"type":"Point","properties":{"Station_ID":"NY-OD-2","Station_Nam":"POINT ROCK 0.6 SE, NY","Latitude":"43.37335","Longitude":"-75.53840","Snowdepth":"8.500","Units":"in","Rept_Date":"2019-12-12 13"},"coordinates":[4882,4802]},{"type":"Point","properties":{"Station_ID":"MN-WK-5","Station_Nam":"WOLVERTON 1.1 ENE, MN","Latitude":"46.56920","Longitude":"-96.71540","Snowdepth":"8.500","Units":"in","Rept_Date":"2019-12-12 13"},"coordinates":[118,6790]},{"type":"Point","properties":{"Station_ID":"MN-CK-6","Station_Nam":"GRAND MARAIS 4.4 W, MN","Latitude":"47.74865","Longitude":"-90.43760","Snowdepth":"8.500","Units":"in","Rept_Date":"2019-12-12 13"},"coordinates":[1530,7524]},{"type":"Point","properties":{"Station_ID":"MN-CK-18","Station_Nam":"GRAND MARAIS 4.4 WSW, MN","Latitude":"47.74462","Longitude":"-90.43796","Snowdepth":"8.500","Units":"in","Rept_Date":"2019-12-12 13"},"coordinates":[1530,7521]},{"type":"Point","properties":{"Station_ID":"QLI","Station_Nam":"QLI","Latitude":"50.27080","Longitude":"-73.92280","Snowdepth":"8.346","Units":"in","Rept_Date":"2019-12-12 12"},"coordinates":[5246,9093]},{"type":"Point","properties":{"Station_ID":"QIQ","Station_Nam":"QIQ","Latitude":"49.82390","Longitude":"-68.54310","Snowdepth":"8.307","Units":"in","Rept_Date":"2019-12-12 12"},"coordinates":[6456,8815]},{"type":"Point","properties":{"Station_ID":"CT-LT-15","Station_Nam":"COLEBROOK 1.0 NE, CT","Latitude":"42.00200","Longitude":"-73.08250","Snowdepth":"8.300","Units":"in","Rept_Date":"2019-12-12 12"},"coordinates":[5435,3949]},{"type":"Point","properties":{"Station_ID":"KABQ6","Station_Nam":"CAB LAKE","Latitude":"49.59950","Longitude":"-89.17990","Snowdepth":"8.230","Units":"in","Rept_Date":"2019-12-13 06"},"coordinates":[1813,8675]},{"type":"Point","properties":{"Station_ID":"WI-PC-5","Station_Nam":"RIVER FALLS 1.2 SSW, WI","Latitude":"44.84032","Longitude":"-92.63500","Snowdepth":"8.000","Units":"in","Rept_Date":"2019-12-12 13"},"coordinates":[1036,5715]},{"type":"Point","properties":{"Station_ID":"WI-MT-1","Station_Nam":"SCHOFIELD 3.3 E, WI","Latitude":"44.91806","Longitude":"-89.54470","Snowdepth":"8.000","Units":"in","Rept_Date":"2019-12-12 13"},"coordinates":[1731,5763]},{"type":"Point","properties":{"Station_ID":"WI-CH-3","Station_Nam":"CORNELL 4.1 W, WI","Latitude":"45.17024","Longitude":"-91.23610","Snowdepth":"8.000","Units":"in","Rept_Date":"2019-12-12 14"},"coordinates":[1351,5920]},{"type":"Point","properties":{"Station_ID":"WASW3","Station_Nam":"WASHINGTON IS","Latitude":"45.35800","Longitude":"-86.89110","Snowdepth":"8.000","Units":"in","Rept_Date":"2019-12-12 13"},"coordinates":[2328,6037]},{"type":"Point","properties":{"Station_ID":"SCRW3","Station_Nam":"ST CROIX FALLS","Latitude":"45.41170","Longitude":"-92.64660","Snowdepth":"8.000","Units":"in","Rept_Date":"2019-12-12 13"},"coordinates":[1033,6070]},{"type":"Point","properties":{"Station_ID":"RSTW3","Station_Nam":"ROSHOLT","Latitude":"44.62710","Longitude":"-89.30600","Snowdepth":"8.000","Units":"in","Rept_Date":"2019-12-12 13"},"coordinates":[1785,5582]},{"type":"Point","properties":{"Station_ID":"RRLW3","Station_Nam":"MERRILL,WI","Latitude":"45.17860","Longitude":"-89.66170","Snowdepth":"8.000","Units":"in","Rept_Date":"2019-12-12 14"},"coordinates":[1705,5925]},{"type":"Point","properties":{"Station_ID":"RCEM5","Station_Nam":"RICE","Latitude":"45.75760","Longitude":"-94.20720","Snowdepth":"8.000","Units":"in","Rept_Date":"2019-12-12 13"},"coordinates":[682,6285]},{"type":"Point","properties":{"Station_ID":"PEKN6","Station_Nam":"PECK LAKE","Latitude":"43.11500","Longitude":"-74.42360","Snowdepth":"8.000","Units":"in","Rept_Date":"2019-12-12 13"},"coordinates":[5133,4641]},{"type":"Point","properties":{"Station_ID":"PARM4","Station_Nam":"PARENT BAY","Latitude":"45.79610","Longitude":"-86.40110","Snowdepth":"8.000","Units":"in","Rept_Date":"2019-12-12 17"},"coordinates":[2438,6309]},{"type":"Point","properties":{"Station_ID":"OWEW3","Station_Nam":"OWEN 2N","Latitude":"44.98010","Longitude":"-90.55440","Snowdepth":"8.000","Units":"in","Rept_Date":"2019-12-12 13"},"coordinates":[1504,5802]},{"type":"Point","properties":{"Station_ID":"MTQM4","Station_Nam":"MANISTIQUE WWTP","Latitude":"45.95120","Longitude":"-86.25130","Snowdepth":"8.000","Units":"in","Rept_Date":"2019-12-12 12"},"coordinates":[2472,6406]},{"type":"Point","properties":{"Station_ID":"MNOW3","Station_Nam":"CEDAR FALLS HYDRO PLANT","Latitude":"44.93550","Longitude":"-91.88850","Snowdepth":"8.000","Units":"in","Rept_Date":"2019-12-12 13"},"coordinates":[1204,5774]},{"type":"Point","properties":{"Station_ID":"MN-WR-40","Station_Nam":"CLEARWATER 5.4 SSE, MN","Latitude":"45.34795","Longitude":"-94.03374","Snowdepth":"8.000","Units":"in","Rept_Date":"2019-12-12 14"},"coordinates":[721,6030]},{"type":"Point","properties":{"Station_ID":"MN-HN-181","Station_Nam":"MINNEAPOLIS 0.4 NE, MN","Latitude":"44.96708","Longitude":"-93.26222","Snowdepth":"8.000","Units":"in","Rept_Date":"2019-12-12 13"},"coordinates":[895,5793]},{"type":"Point","properties":{"Station_ID":"MN-CY-1","Station_Nam":"MOORHEAD 2.0 N, MN","Latitude":"46.88766","Longitude":"-96.74800","Snowdepth":"8.000","Units":"in","Rept_Date":"2019-12-12 15"},"coordinates":[110,6988]},{"type":"Point","properties":{"Station_ID":"MN-BK-10","Station_Nam":"DETROIT LAKES 5.7 N, MN","Latitude":"46.88666","Longitude":"-95.84444","Snowdepth":"8.000","Units":"in","Rept_Date":"2019-12-12 13"},"coordinates":[314,6988]},{"type":"Point","properties":{"Station_ID":"MI-OT-17","Station_Nam":"GAYLORD 4.1 S, MI","Latitude":"44.96388","Longitude":"-84.68467","Snowdepth":"8.000","Units":"in","Rept_Date":"2019-12-12 12"},"coordinates":[2825,5791]},{"type":"Point","properties":{"Station_ID":"LGRN8","Station_Nam":"LIDGERWOOD,ND","Latitude":"46.06670","Longitude":"-97.16670","Snowdepth":"8.000","Units":"in","Rept_Date":"2019-12-12 13"},"coordinates":[16,6478]},{"type":"Point","properties":{"Station_ID":"LBKV1","Station_Nam":"LYE BROOK","Latitude":"43.05000","Longitude":"-73.03330","Snowdepth":"8.000","Units":"in","Rept_Date":"2019-12-13 06"},"coordinates":[5446,4601]},{"type":"Point","properties":{"Station_ID":"KMSP","Station_Nam":"MINNEAPOLIS-ST PAUL INTERNATIONAL","Latitude":"44.86666","Longitude":"-93.21666","Snowdepth":"8.000","Units":"in","Rept_Date":"2019-12-12 18"},"coordinates":[905,5731]},{"type":"Point","properties":{"Station_ID":"ILEW3","Station_Nam":"STILES 1S","Latitude":"44.84190","Longitude":"-88.05420","Snowdepth":"8.000","Units":"in","Rept_Date":"2019-12-12 13"},"coordinates":[2066,5716]},{"type":"Point","properties":{"Station_ID":"GLWM5","Station_Nam":"GLENWOOD 1N","Latitude":"45.66580","Longitude":"-95.38690","Snowdepth":"8.000","Units":"in","Rept_Date":"2019-12-12 13"},"coordinates":[417,6228]},{"type":"Point","properties":{"Station_ID":"GDPM5","Station_Nam":"PIGEON RIVER AT MIDDLE FALLS","Latitude":"48.01220","Longitude":"-89.61610","Snowdepth":"8.000","Units":"in","Rept_Date":"2019-12-12 13"},"coordinates":[1715,7688]},{"type":"Point","properties":{"Station_ID":"FORM5","Station_Nam":"FOREST LAKE 5NE","Latitude":"45.33170","Longitude":"-92.89820","Snowdepth":"8.000","Units":"in","Rept_Date":"2019-12-12 13"},"coordinates":[977,6020]},{"type":"Point","properties":{"Station_ID":"FDRN8","Station_Nam":"FARGO 3S","Latitude":"46.82930","Longitude":"-96.79620","Snowdepth":"8.000","Units":"in","Rept_Date":"2019-12-13 06"},"coordinates":[100,6952]},{"type":"Point","properties":{"Station_ID":"FAR","Station_Nam":"HECTOR INTERNATIONAL ARPT","Latitude":"46.91560","Longitude":"-96.81440","Snowdepth":"8.000","Units":"in","Rept_Date":"2019-12-13 00"},"coordinates":[95,7006]},{"type":"Point","properties":{"Station_ID":"DTVM4","Station_Nam":"DETOUR VILLAGE","Latitude":"45.99830","Longitude":"-83.90130","Snowdepth":"8.000","Units":"in","Rept_Date":"2019-12-12 13"},"coordinates":[3001,6435]},{"type":"Point","properties":{"Station_ID":"CHPW3","Station_Nam":"CHIPPEWA FALLS","Latitude":"44.92770","Longitude":"-91.40810","Snowdepth":"8.000","Units":"in","Rept_Date":"2019-12-12 14"},"coordinates":[1312,5769]},{"type":"Point","properties":{"Station_ID":"ND-CS-1","Station_Nam":"WEST FARGO 3.8 SSE, ND","Latitude":"46.82750","Longitude":"-96.85280","Snowdepth":"7.500","Units":"in","Rept_Date":"2019-12-12 13"},"coordinates":[87,6951]},{"type":"Point","properties":{"Station_ID":"CAN-NB-105","Station_Nam":"SISSON BROOK 3.8 E, CAN","Latitude":"46.98305","Longitude":"-67.32532","Snowdepth":"7.500","Units":"in","Rept_Date":"2019-12-12 12"},"coordinates":[6730,7048]},{"type":"Point","properties":{"Station_ID":"CATQ6","Station_Nam":"CAT LAKE","Latitude":"51.72690","Longitude":"-91.82210","Snowdepth":"7.400","Units":"in","Rept_Date":"2019-12-13 06"},"coordinates":[1219,9999]},{"type":"Point","properties":{"Station_ID":"PA-ER-2","Station_Nam":"ERIE 5.6 SW, PA","Latitude":"42.06086","Longitude":"-80.15260","Snowdepth":"7.300","Units":"in","Rept_Date":"2019-12-12 11"},"coordinates":[3844,3985]},{"type":"Point","properties":{"Station_ID":"MRL","Station_Nam":"MRL","Latitude":"51.28330","Longitude":"-68.84060","Snowdepth":"7.283","Units":"in","Rept_Date":"2019-12-12 12"},"coordinates":[6389,9723]},{"type":"Point","properties":{"Station_ID":"FTHQ6","Station_Nam":"FORT HOPE","Latitude":"51.55820","Longitude":"-87.90510","Snowdepth":"7.170","Units":"in","Rept_Date":"2019-12-13 06"},"coordinates":[2100,9894]},{"type":"Point","properties":{"Station_ID":"WUNW3","Station_Nam":"WAUSAU-NORTHEAST","Latitude":"44.97310","Longitude":"-89.61690","Snowdepth":"7.000","Units":"in","Rept_Date":"2019-12-12 11"},"coordinates":[1715,5797]},{"type":"Point","properties":{"Station_ID":"WMRM5","Station_Nam":"WILLMAR 5N","Latitude":"45.19010","Longitude":"-95.05860","Snowdepth":"7.000","Units":"in","Rept_Date":"2019-12-12 12"},"coordinates":[490,5932]},{"type":"Point","properties":{"Station_ID":"WI-PT-8","Station_Nam":"RUDOLPH 2.1 NNE, WI","Latitude":"44.52553","Longitude":"-89.78677","Snowdepth":"7.000","Units":"in","Rept_Date":"2019-12-12 11"},"coordinates":[1677,5519]},{"type":"Point","properties":{"Station_ID":"STRW3","Station_Nam":"STRATFORD 1NW","Latitude":"44.81750","Longitude":"-90.08990","Snowdepth":"7.000","Units":"in","Rept_Date":"2019-12-12 13"},"coordinates":[1608,5700]},{"type":"Point","properties":{"Station_ID":"SSMM4","Station_Nam":"SAULT STE MARIE","Latitude":"46.48660","Longitude":"-84.40250","Snowdepth":"7.000","Units":"in","Rept_Date":"2019-12-12 13"},"coordinates":[2888,6739]},{"type":"Point","properties":{"Station_ID":"SPRI4","Station_Nam":"SPIRIT LAKE","Latitude":"43.42310","Longitude":"-95.10000","Snowdepth":"7.000","Units":"in","Rept_Date":"2019-12-12 13"},"coordinates":[481,4833]},{"type":"Point","properties":{"Station_ID":"SHHW3","Station_Nam":"SHAWANO 2SSW","Latitude":"44.76310","Longitude":"-88.61830","Snowdepth":"7.000","Units":"in","Rept_Date":"2019-12-12 14"},"coordinates":[1940,5667]},{"type":"Point","properties":{"Station_ID":"SHHN6","Station_Nam":"SCHOHARIE VILLAGE","Latitude":"42.66500","Longitude":"-74.30360","Snowdepth":"7.000","Units":"in","Rept_Date":"2019-12-12 12"},"coordinates":[5160,4361]},{"type":"Point","properties":{"Station_ID":"SBNM5","Station_Nam":"SABIN","Latitude":"46.77690","Longitude":"-96.65610","Snowdepth":"7.000","Units":"in","Rept_Date":"2019-12-12 15"},"coordinates":[131,6919]},{"type":"Point","properties":{"Station_ID":"PSHW3","Station_Nam":"PESHTIGO","Latitude":"45.02810","Longitude":"-87.73560","Snowdepth":"7.000","Units":"in","Rept_Date":"2019-12-12 13"},"coordinates":[2138,5831]},{"type":"Point","properties":{"Station_ID":"PRGN6","Station_Nam":"PERRYSBURG","Latitude":"42.46470","Longitude":"-79.00310","Snowdepth":"7.000","Units":"in","Rept_Date":"2019-12-12 12"},"coordinates":[4103,4237]},{"type":"Point","properties":{"Station_ID":"PELW3","Station_Nam":"PELLA 3SE","Latitude":"44.73580","Longitude":"-88.73780","Snowdepth":"7.000","Units":"in","Rept_Date":"2019-12-12 11"},"coordinates":[1913,5650]},{"type":"Point","properties":{"Station_ID":"ONAM4","Station_Nam":"ONAWAY 4N","Latitude":"45.41080","Longitude":"-84.22330","Snowdepth":"7.000","Units":"in","Rept_Date":"2019-12-12 23"},"coordinates":[2928,6069]},{"type":"Point","properties":{"Station_ID":"OCON6","Station_Nam":"OSCEOLA","Latitude":"43.49910","Longitude":"-75.71210","Snowdepth":"7.000","Units":"in","Rept_Date":"2019-12-12 12"},"coordinates":[4843,4880]},{"type":"Point","properties":{"Station_ID":"NY-SR-22","Station_Nam":"GREENFIELD CENTER 1.6 W, NY","Latitude":"43.12684","Longitude":"-73.87860","Snowdepth":"7.000","Units":"in","Rept_Date":"2019-12-12 12"},"coordinates":[5256,4649]},{"type":"Point","properties":{"Station_ID":"NY-JF-30","Station_Nam":"WEST CARTHAGE 0.3 ENE, NY","Latitude":"43.97493","Longitude":"-75.61640","Snowdepth":"7.000","Units":"in","Rept_Date":"2019-12-12 12"},"coordinates":[4865,5176]},{"type":"Point","properties":{"Station_ID":"NY-CQ-22","Station_Nam":"FREDONIA 0.8 WNW, NY","Latitude":"42.44414","Longitude":"-79.34610","Snowdepth":"7.000","Units":"in","Rept_Date":"2019-12-12 10"},"coordinates":[4026,4224]},{"type":"Point","properties":{"Station_ID":"NH-HL-48","Station_Nam":"GREENVILLE 1.1 ENE, NH","Latitude":"42.77674","Longitude":"-71.77990","Snowdepth":"7.000","Units":"in","Rept_Date":"2019-12-12 13"},"coordinates":[5728,4431]},{"type":"Point","properties":{"Station_ID":"NEDM1","Station_Nam":"CAPE NEDDICK","Latitude":"43.22410","Longitude":"-70.63880","Snowdepth":"7.000","Units":"in","Rept_Date":"2019-12-12 12"},"coordinates":[5985,4709]},{"type":"Point","properties":{"Station_ID":"MSP","Station_Nam":"MINNEAPOLIS-ST PAUL INTL AP","Latitude":"44.88310","Longitude":"-93.22890","Snowdepth":"7.000","Units":"in","Rept_Date":"2019-12-13 00"},"coordinates":[902,5741]},{"type":"Point","properties":{"Station_ID":"MN-MK-12","Station_Nam":"WATKINS 3.2 WSW, MN","Latitude":"45.30107","Longitude":"-94.47460","Snowdepth":"7.000","Units":"in","Rept_Date":"2019-12-12 15"},"coordinates":[622,6001]},{"type":"Point","properties":{"Station_ID":"MN-DK-70","Station_Nam":"EAGAN 2.0 NNW, MN","Latitude":"44.84322","Longitude":"-93.17899","Snowdepth":"7.000","Units":"in","Rept_Date":"2019-12-12 16"},"coordinates":[913,5716]},{"type":"Point","properties":{"Station_ID":"MN-CV-22","Station_Nam":"VICTORIA 1.6 WSW, MN","Latitude":"44.85670","Longitude":"-93.68640","Snowdepth":"7.000","Units":"in","Rept_Date":"2019-12-12 13"},"coordinates":[799,5725]},{"type":"Point","properties":{"Station_ID":"MN-CG-16","Station_Nam":"NORTH BRANCH 1.3 NNW, MN","Latitude":"45.53121","Longitude":"-92.97110","Snowdepth":"7.000","Units":"in","Rept_Date":"2019-12-12 12"},"coordinates":[960,6144]},{"type":"Point","properties":{"Station_ID":"MFDW3","Station_Nam":"MARSHFIELD EXP FARM","Latitude":"44.64110","Longitude":"-90.13330","Snowdepth":"7.000","Units":"in","Rept_Date":"2019-12-12 13"},"coordinates":[1599,5591]},{"type":"Point","properties":{"Station_ID":"ME-YK-52","Station_Nam":"YORK 5.2 N, ME","Latitude":"43.23585","Longitude":"-70.63400","Snowdepth":"7.000","Units":"in","Rept_Date":"2019-12-12 12"},"coordinates":[5986,4716]},{"type":"Point","properties":{"Station_ID":"ME-AR-15","Station_Nam":"PRESQUE ISLE 1.3 WSW, ME","Latitude":"46.67960","Longitude":"-68.01270","Snowdepth":"7.000","Units":"in","Rept_Date":"2019-12-12 12"},"coordinates":[6576,6859]},{"type":"Point","properties":{"Station_ID":"MA-WR-75","Station_Nam":"WARREN 2.4 WSW, MA","Latitude":"42.20400","Longitude":"-72.23540","Snowdepth":"7.000","Units":"in","Rept_Date":"2019-12-12 12"},"coordinates":[5626,4074]},{"type":"Point","properties":{"Station_ID":"MA-HS-2","Station_Nam":"WESTHAMPTON 1.8 SW, MA","Latitude":"42.27943","Longitude":"-72.78700","Snowdepth":"7.000","Units":"in","Rept_Date":"2019-12-12 12"},"coordinates":[5501,4121]},{"type":"Point","properties":{"Station_ID":"LKFM5","Station_Nam":"LAKEFIELD,MN","Latitude":"43.68330","Longitude":"-95.18330","Snowdepth":"7.000","Units":"in","Rept_Date":"2019-12-12 13"},"coordinates":[462,4995]},{"type":"Point","properties":{"Station_ID":"KIMM5","Station_Nam":"KIMBALL 3N","Latitude":"45.35330","Longitude":"-94.30560","Snowdepth":"7.000","Units":"in","Rept_Date":"2019-12-12 12"},"coordinates":[660,6034]},{"type":"Point","properties":{"Station_ID":"JUDW3","Station_Nam":"FISH CREEK 3S - JUDDVILLE","Latitude":"45.08920","Longitude":"-87.25890","Snowdepth":"7.000","Units":"in","Rept_Date":"2019-12-12 14"},"coordinates":[2245,5869]},{"type":"Point","properties":{"Station_ID":"GLDM5","Station_Nam":"GAYLORD","Latitude":"44.55640","Longitude":"-94.22070","Snowdepth":"7.000","Units":"in","Rept_Date":"2019-12-12 15"},"coordinates":[679,5538]},{"type":"Point","properties":{"Station_ID":"ETTW3","Station_Nam":"ETTRICK 4WNW","Latitude":"44.19000","Longitude":"-91.34240","Snowdepth":"7.000","Units":"in","Rept_Date":"2019-12-12 14"},"coordinates":[1327,5310]},{"type":"Point","properties":{"Station_ID":"EPMW3","Station_Nam":"EPHRAIM-1 NE WWTP","Latitude":"45.17080","Longitude":"-87.15360","Snowdepth":"7.000","Units":"in","Rept_Date":"2019-12-12 13"},"coordinates":[2269,5920]},{"type":"Point","properties":{"Station_ID":"EGNM5","Station_Nam":"ELGIN 2SSW","Latitude":"44.09700","Longitude":"-92.27010","Snowdepth":"7.000","Units":"in","Rept_Date":"2019-12-12 13"},"coordinates":[1118,5252]},{"type":"Point","properties":{"Station_ID":"DFXM1","Station_Nam":"DOVER-FOXCROFT","Latitude":"45.18720","Longitude":"-69.18350","Snowdepth":"7.000","Units":"in","Rept_Date":"2019-12-12 12"},"coordinates":[6312,5930]},{"type":"Point","properties":{"Station_ID":"CVZW3","Station_Nam":"WISCONSIN PUBLIC SERVICE","Latitude":"45.23530","Longitude":"-88.01360","Snowdepth":"7.000","Units":"in","Rept_Date":"2019-12-12 12"},"coordinates":[2076,5960]},{"type":"Point","properties":{"Station_ID":"CARM1","Station_Nam":"CARIBOU WFO","Latitude":"46.86810","Longitude":"-68.01250","Snowdepth":"7.000","Units":"in","Rept_Date":"2019-12-13 05"},"coordinates":[6576,6976]},{"type":"Point","properties":{"Station_ID":"CAR","Station_Nam":"CARIBOU, ME","Latitude":"46.86830","Longitude":"-68.01360","Snowdepth":"7.000","Units":"in","Rept_Date":"2019-12-12 12"},"coordinates":[6575,6976]},{"type":"Point","properties":{"Station_ID":"BRDM1","Station_Nam":"BRIDGEWATER","Latitude":"46.42870","Longitude":"-67.84370","Snowdepth":"7.000","Units":"in","Rept_Date":"2019-12-12 23"},"coordinates":[6614,6703]},{"type":"Point","properties":{"Station_ID":"ANDM1","Station_Nam":"ANDOVER 2","Latitude":"44.65300","Longitude":"-70.79410","Snowdepth":"7.000","Units":"in","Rept_Date":"2019-12-12 12"},"coordinates":[5950,5598]},{"type":"Point","properties":{"Station_ID":"WI-DN-5","Station_Nam":"ELK MOUND 1.3 NE, WI","Latitude":"44.88627","Longitude":"-91.66680","Snowdepth":"6.500","Units":"in","Rept_Date":"2019-12-12 13"},"coordinates":[1254,5743]},{"type":"Point","properties":{"Station_ID":"MN-SR-24","Station_Nam":"PAYNESVILLE 1.9 SSW, MN","Latitude":"45.35170","Longitude":"-94.73120","Snowdepth":"6.500","Units":"in","Rept_Date":"2019-12-12 13"},"coordinates":[564,6033]},{"type":"Point","properties":{"Station_ID":"MN-MC-16","Station_Nam":"HUTCHINSON 0.1 ENE, MN","Latitude":"44.88633","Longitude":"-94.37503","Snowdepth":"6.500","Units":"in","Rept_Date":"2019-12-12 13"},"coordinates":[644,5743]},{"type":"Point","properties":{"Station_ID":"MN-HN-6","Station_Nam":"LONG LAKE 0.2 WSW, MN","Latitude":"44.98290","Longitude":"-93.57360","Snowdepth":"6.500","Units":"in","Rept_Date":"2019-12-12 14"},"coordinates":[825,5803]},{"type":"Point","properties":{"Station_ID":"MN-DK-73","Station_Nam":"LAKEVILLE 2.6 NNE, MN","Latitude":"44.71250","Longitude":"-93.23043","Snowdepth":"6.500","Units":"in","Rept_Date":"2019-12-12 13"},"coordinates":[902,5635]},{"type":"Point","properties":{"Station_ID":"WRNM5","Station_Nam":"WORTHINGTON,MN","Latitude":"43.65440","Longitude":"-95.57920","Snowdepth":"6.000","Units":"in","Rept_Date":"2019-12-12 13"},"coordinates":[373,4977]},{"type":"Point","properties":{"Station_ID":"WORM3","Station_Nam":"WORTHINGTON","Latitude":"42.38690","Longitude":"-72.92100","Snowdepth":"6.000","Units":"in","Rept_Date":"2019-12-12 12"},"coordinates":[5471,4188]},{"type":"Point","properties":{"Station_ID":"WLKM5","Station_Nam":"AH-GWAH-CHING","Latitude":"47.15000","Longitude":"-94.65000","Snowdepth":"6.000","Units":"in","Rept_Date":"2019-12-12 12"},"coordinates":[582,7152]},{"type":"Point","properties":{"Station_ID":"WI-PK-4","Station_Nam":"DRESSER 6.1 ESE, WI","Latitude":"45.32436","Longitude":"-92.52080","Snowdepth":"6.000","Units":"in","Rept_Date":"2019-12-12 14"},"coordinates":[1061,6016]},{"type":"Point","properties":{"Station_ID":"WI-BN-6","Station_Nam":"SUAMICO 4.4 WNW, WI","Latitude":"44.66111","Longitude":"-88.11780","Snowdepth":"6.000","Units":"in","Rept_Date":"2019-12-12 13"},"coordinates":[2052,5603]},{"type":"Point","properties":{"Station_ID":"WDOM5","Station_Nam":"WINDOM","Latitude":"43.87700","Longitude":"-95.11590","Snowdepth":"6.000","Units":"in","Rept_Date":"2019-12-12 14"},"coordinates":[478,5115]},{"type":"Point","properties":{"Station_ID":"WABM5","Station_Nam":"WABASHA","Latitude":"44.38500","Longitude":"-92.04860","Snowdepth":"6.000","Units":"in","Rept_Date":"2019-12-12 13"},"coordinates":[1168,5431]},{"type":"Point","properties":{"Station_ID":"VANM1","Station_Nam":"VAN BUREN","Latitude":"47.16600","Longitude":"-67.93900","Snowdepth":"6.000","Units":"in","Rept_Date":"2019-12-12 12"},"coordinates":[6592,7161]},{"type":"Point","properties":{"Station_ID":"UMNM5","Station_Nam":"UNIVERSITY OF MN ST. PAUL","Latitude":"44.99020","Longitude":"-93.17990","Snowdepth":"6.000","Units":"in","Rept_Date":"2019-12-12 14"},"coordinates":[913,5808]},{"type":"Point","properties":{"Station_ID":"RLWM5","Station_Nam":"CAMP NORRIS DNR","Latitude":"48.61000","Longitude":"-95.18170","Snowdepth":"6.000","Units":"in","Rept_Date":"2019-12-12 13"},"coordinates":[463,8060]},{"type":"Point","properties":{"Station_ID":"RFDM5","Station_Nam":"ROCKFORD","Latitude":"45.08960","Longitude":"-93.73990","Snowdepth":"6.000","Units":"in","Rept_Date":"2019-12-12 13"},"coordinates":[787,5870]},{"type":"Point","properties":{"Station_ID":"PTYM4","Station_Nam":"PETOSKEY NCMC","Latitude":"45.36120","Longitude":"-84.95110","Snowdepth":"6.000","Units":"in","Rept_Date":"2019-12-12 13"},"coordinates":[2765,6039]},{"type":"Point","properties":{"Station_ID":"NY-SC-20","Station_Nam":"ROTTERDAM 0.9 NW, NY","Latitude":"42.78862","Longitude":"-73.96671","Snowdepth":"6.000","Units":"in","Rept_Date":"2019-12-12 13"},"coordinates":[5236,4438]},{"type":"Point","properties":{"Station_ID":"NY-ER-96","Station_Nam":"ELMA 2.7 WSW, NY","Latitude":"42.81004","Longitude":"-78.68130","Snowdepth":"6.000","Units":"in","Rept_Date":"2019-12-12 12"},"coordinates":[4175,4451]},{"type":"Point","properties":{"Station_ID":"NY-ER-158","Station_Nam":"EAST AURORA 2.7 SSE, NY","Latitude":"42.72936","Longitude":"-78.60561","Snowdepth":"6.000","Units":"in","Rept_Date":"2019-12-12 12"},"coordinates":[4192,4401]},{"type":"Point","properties":{"Station_ID":"NY-AB-54","Station_Nam":"ALTAMONT 2.9 SW, NY","Latitude":"42.68182","Longitude":"-74.08326","Snowdepth":"6.000","Units":"in","Rept_Date":"2019-12-12 12"},"coordinates":[5210,4372]},{"type":"Point","properties":{"Station_ID":"NVLN6","Station_Nam":"NORTHVILLE","Latitude":"43.23330","Longitude":"-74.16670","Snowdepth":"6.000","Units":"in","Rept_Date":"2019-12-12 13"},"coordinates":[5191,4715]},{"type":"Point","properties":{"Station_ID":"NH-CS-10","Station_Nam":"RANDOLPH 1.4 NE, NH","Latitude":"44.38824","Longitude":"-71.26950","Snowdepth":"6.000","Units":"in","Rept_Date":"2019-12-12 12"},"coordinates":[5843,5433]},{"type":"Point","properties":{"Station_ID":"MRLV1","Station_Nam":"MARLBORO","Latitude":"42.86000","Longitude":"-72.72000","Snowdepth":"6.000","Units":"in","Rept_Date":"2019-12-12 12"},"coordinates":[5517,4483]},{"type":"Point","properties":{"Station_ID":"MRIW3","Station_Nam":"MARINETTE","Latitude":"45.09830","Longitude":"-87.62360","Snowdepth":"6.000","Units":"in","Rept_Date":"2019-12-12 13"},"coordinates":[2163,5875]},{"type":"Point","properties":{"Station_ID":"MN7M8EBJ","Station_Nam":"LUTSEN 15.7 NNW","Latitude":"47.85324","Longitude":"-89.92908","Snowdepth":"6.000","Units":"in","Rept_Date":"2019-12-12 14"},"coordinates":[1645,7589]},{"type":"Point","properties":{"Station_ID":"MN-WR-25","Station_Nam":"SAINT MICHAEL 2.0 ENE, MN","Latitude":"45.20820","Longitude":"-93.65280","Snowdepth":"6.000","Units":"in","Rept_Date":"2019-12-12 12"},"coordinates":[807,5943]},{"type":"Point","properties":{"Station_ID":"MN-SV-4","Station_Nam":"DONNELLY 2.9 NW, MN","Latitude":"45.71649","Longitude":"-96.06043","Snowdepth":"6.000","Units":"in","Rept_Date":"2019-12-12 13"},"coordinates":[265,6260]},{"type":"Point","properties":{"Station_ID":"MN-SC-2","Station_Nam":"PRIOR LAKE 2.0 W, MN","Latitude":"44.71250","Longitude":"-93.46360","Snowdepth":"6.000","Units":"in","Rept_Date":"2019-12-12 12"},"coordinates":[849,5635]},{"type":"Point","properties":{"Station_ID":"MN-RM-2","Station_Nam":"NORTH SAINT PAUL 1.0 NNW, MN","Latitude":"45.02629","Longitude":"-93.00790","Snowdepth":"6.000","Units":"in","Rept_Date":"2019-12-12 12"},"coordinates":[952,5830]},{"type":"Point","properties":{"Station_ID":"MN-PK-15","Station_Nam":"MENTOR 2.5 SSW, MN","Latitude":"47.66625","Longitude":"-96.17328","Snowdepth":"6.000","Units":"in","Rept_Date":"2019-12-12 13"},"coordinates":[240,7473]},{"type":"Point","properties":{"Station_ID":"MN-GH-28","Station_Nam":"CANNON FALLS 0.5 SE, MN","Latitude":"44.50866","Longitude":"-92.89526","Snowdepth":"6.000","Units":"in","Rept_Date":"2019-12-12 14"},"coordinates":[977,5508]},{"type":"Point","properties":{"Station_ID":"MLRM5","Station_Nam":"MELROSE","Latitude":"45.67710","Longitude":"-94.80200","Snowdepth":"6.000","Units":"in","Rept_Date":"2019-12-12 13"},"coordinates":[548,6235]},{"type":"Point","properties":{"Station_ID":"MLBS2","Station_Nam":"MILBANK","Latitude":"45.22040","Longitude":"-96.62530","Snowdepth":"6.000","Units":"in","Rept_Date":"2019-12-12 13"},"coordinates":[138,5951]},{"type":"Point","properties":{"Station_ID":"MI-EM-8","Station_Nam":"PETOSKEY 1.7 SSW, MI","Latitude":"45.34209","Longitude":"-84.96530","Snowdepth":"6.000","Units":"in","Rept_Date":"2019-12-12 11"},"coordinates":[2761,6027]},{"type":"Point","properties":{"Station_ID":"MI-CP-7","Station_Nam":"DRUMMOND 2.9 NE, MI","Latitude":"46.05329","Longitude":"-83.69060","Snowdepth":"6.000","Units":"in","Rept_Date":"2019-12-12 14"},"coordinates":[3048,6469]},{"type":"Point","properties":{"Station_ID":"ME-PN-45","Station_Nam":"MILLINOCKET 2.7 ESE, ME","Latitude":"45.65002","Longitude":"-68.64472","Snowdepth":"6.000","Units":"in","Rept_Date":"2019-12-12 12"},"coordinates":[6433,6218]},{"type":"Point","properties":{"Station_ID":"KABM5","Station_Nam":"KABETOGAMA LAKE VISITOR CTR","Latitude":"48.40880","Longitude":"-93.04840","Snowdepth":"6.000","Units":"in","Rept_Date":"2019-12-12 13"},"coordinates":[943,7935]},{"type":"Point","properties":{"Station_ID":"INL","Station_Nam":"FALLS INTERNATIONAL ARPT","Latitude":"48.56640","Longitude":"-93.40310","Snowdepth":"6.000","Units":"in","Rept_Date":"2019-12-13 00"},"coordinates":[863,8033]},{"type":"Point","properties":{"Station_ID":"IFSM5","Station_Nam":"INTERNATIONAL FALLS SNOW","Latitude":"48.57780","Longitude":"-93.39640","Snowdepth":"6.000","Units":"in","Rept_Date":"2019-12-13 06"},"coordinates":[864,8040]},{"type":"Point","properties":{"Station_ID":"GHMN3","Station_Nam":"PINKHAM NOTCH","Latitude":"44.25800","Longitude":"-71.25250","Snowdepth":"6.000","Units":"in","Rept_Date":"2019-12-12 11"},"coordinates":[5847,5352]},{"type":"Point","properties":{"Station_ID":"EPTW3","Station_Nam":"EAU PLEINE TENDER","Latitude":"44.77220","Longitude":"-89.76720","Snowdepth":"6.000","Units":"in","Rept_Date":"2019-12-12 13"},"coordinates":[1681,5672]},{"type":"Point","properties":{"Station_ID":"EAU","Station_Nam":"CHIPPEWA VALLEY REGIONAL AIRPORT","Latitude":"44.86650","Longitude":"-91.48790","Snowdepth":"6.000","Units":"in","Rept_Date":"2019-12-13 00"},"coordinates":[1294,5731]},{"type":"Point","properties":{"Station_ID":"DRDW3","Station_Nam":"DURAND","Latitude":"44.61970","Longitude":"-91.97950","Snowdepth":"6.000","Units":"in","Rept_Date":"2019-12-12 14"},"coordinates":[1183,5577]},{"type":"Point","properties":{"Station_ID":"DLSN6","Station_Nam":"DELANSON 2NE","Latitude":"42.76720","Longitude":"-74.17110","Snowdepth":"6.000","Units":"in","Rept_Date":"2019-12-12 12"},"coordinates":[5190,4425]},{"type":"Point","properties":{"Station_ID":"CT-LT-9","Station_Nam":"NEW HARTFORD CENTER 3.2 SW, CT","Latitude":"41.84170","Longitude":"-73.00920","Snowdepth":"6.000","Units":"in","Rept_Date":"2019-12-12 12"},"coordinates":[5451,3849]},{"type":"Point","properties":{"Station_ID":"BRAM1","Station_Nam":"BRASSUA DAM","Latitude":"45.66020","Longitude":"-69.81190","Snowdepth":"6.000","Units":"in","Rept_Date":"2019-12-12 12"},"coordinates":[6171,6225]},{"type":"Point","properties":{"Station_ID":"BMRW3","Station_Nam":"BLOOMER","Latitude":"45.09070","Longitude":"-91.48640","Snowdepth":"6.000","Units":"in","Rept_Date":"2019-12-12 14"},"coordinates":[1294,5870]},{"type":"Point","properties":{"Station_ID":"BAKC3","Station_Nam":"BAKERSVILLE","Latitude":"41.84180","Longitude":"-73.00850","Snowdepth":"6.000","Units":"in","Rept_Date":"2019-12-12 12"},"coordinates":[5452,3849]},{"type":"Point","properties":{"Station_ID":"AVLV1","Station_Nam":"AVERILL","Latitude":"45.00570","Longitude":"-71.69030","Snowdepth":"6.000","Units":"in","Rept_Date":"2019-12-12 13"},"coordinates":[5748,5817]},{"type":"Point","properties":{"Station_ID":"ATAN6","Station_Nam":"ATTICA 7 SW","Latitude":"42.81070","Longitude":"-78.39790","Snowdepth":"6.000","Units":"in","Rept_Date":"2019-12-12 11"},"coordinates":[4239,4452]},{"type":"Point","properties":{"Station_ID":"ASBM3","Station_Nam":"ASHBURNHAM","Latitude":"42.61780","Longitude":"-71.91590","Snowdepth":"6.000","Units":"in","Rept_Date":"2019-12-12 12"},"coordinates":[5697,4332]},{"type":"Point","properties":{"Station_ID":"APXM4","Station_Nam":"GAYLORD 9SSW","Latitude":"44.90720","Longitude":"-84.71880","Snowdepth":"6.000","Units":"in","Rept_Date":"2019-12-13 05"},"coordinates":[2817,5756]},{"type":"Point","properties":{"Station_ID":"QWG","Station_Nam":"QWG","Latitude":"48.48890","Longitude":"-73.45940","Snowdepth":"5.866","Units":"in","Rept_Date":"2019-12-12 12"},"coordinates":[5350,7985]},{"type":"Point","properties":{"Station_ID":"WI-DR-6","Station_Nam":"SISTER BAY 1.3 NNE, WI","Latitude":"45.20296","Longitude":"-87.11326","Snowdepth":"5.500","Units":"in","Rept_Date":"2019-12-12 12"},"coordinates":[2278,5940]},{"type":"Point","properties":{"Station_ID":"NY-SR-4","Station_Nam":"SARATOGA SPRINGS 0.5 S, NY","Latitude":"43.06032","Longitude":"-73.78010","Snowdepth":"5.500","Units":"in","Rept_Date":"2019-12-12 11"},"coordinates":[5278,4607]},{"type":"Point","properties":{"Station_ID":"NY-ER-166","Station_Nam":"BOSTON 2.5 NE, NY","Latitude":"42.65480","Longitude":"-78.70300","Snowdepth":"5.500","Units":"in","Rept_Date":"2019-12-12 12"},"coordinates":[4170,4355]},{"type":"Point","properties":{"Station_ID":"NY-CQ-27","Station_Nam":"SILVER CREEK 1.0 SSE, NY","Latitude":"42.53088","Longitude":"-79.15986","Snowdepth":"5.500","Units":"in","Rept_Date":"2019-12-12 12"},"coordinates":[4068,4278]},{"type":"Point","properties":{"Station_ID":"MN-HN-31","Station_Nam":"MAPLE GROVE 1.0 NNE, MN","Latitude":"45.12261","Longitude":"-93.45790","Snowdepth":"5.500","Units":"in","Rept_Date":"2019-12-12 16"},"coordinates":[851,5890]},{"type":"Point","properties":{"Station_ID":"MI-OT-16","Station_Nam":"GAYLORD 2.2 SSE, MI","Latitude":"44.99441","Longitude":"-84.65820","Snowdepth":"5.500","Units":"in","Rept_Date":"2019-12-12 12"},"coordinates":[2831,5810]},{"type":"Point","properties":{"Station_ID":"MA-FR-13","Station_Nam":"CONWAY 2.9 NW, MA","Latitude":"42.54419","Longitude":"-72.72743","Snowdepth":"5.500","Units":"in","Rept_Date":"2019-12-12 12"},"coordinates":[5515,4286]},{"type":"Point","properties":{"Station_ID":"QLP","Station_Nam":"QLP","Latitude":"48.13920","Longitude":"-72.63830","Snowdepth":"5.472","Units":"in","Rept_Date":"2019-12-12 12"},"coordinates":[5535,7767]},{"type":"Point","properties":{"Station_ID":"CAN-ON-757","Station_Nam":"SAULT STE. MARIE 2.8 ESE - GLFC, CAN","Latitude":"46.50300","Longitude":"-84.30300","Snowdepth":"5.300","Units":"in","Rept_Date":"2019-12-12 13"},"coordinates":[2910,6749]},{"type":"Point","properties":{"Station_ID":"CAN-NS-13","Station_Nam":"TRURO 5.0 ENE, CA","Latitude":"45.38252","Longitude":"-63.22810","Snowdepth":"5.100","Units":"in","Rept_Date":"2019-12-12 11"},"coordinates":[7652,6052]},{"type":"Point","properties":{"Station_ID":"WNNM5","Station_Nam":"WINNEBAGO","Latitude":"43.76920","Longitude":"-94.18730","Snowdepth":"5.000","Units":"in","Rept_Date":"2019-12-12 14"},"coordinates":[687,5048]},{"type":"Point","properties":{"Station_ID":"WLSN6","Station_Nam":"WALES","Latitude":"42.73920","Longitude":"-78.58780","Snowdepth":"5.000","Units":"in","Rept_Date":"2019-12-12 12"},"coordinates":[4196,4407]},{"type":"Point","properties":{"Station_ID":"WI-PC-10","Station_Nam":"RIVER FALLS 1.4 S, WI","Latitude":"44.83580","Longitude":"-92.62100","Snowdepth":"5.000","Units":"in","Rept_Date":"2019-12-12 13"},"coordinates":[1039,5712]},{"type":"Point","properties":{"Station_ID":"RSMM5","Station_Nam":"ROSEMOUNT RESEARCH AND OUTREACH CENTER","Latitude":"44.71660","Longitude":"-93.09800","Snowdepth":"5.000","Units":"in","Rept_Date":"2019-12-12 14"},"coordinates":[932,5638]},{"type":"Point","properties":{"Station_ID":"ROWM3","Station_Nam":"ROWE 3NE","Latitude":"42.73500","Longitude":"-72.86920","Snowdepth":"5.000","Units":"in","Rept_Date":"2019-12-12 12"},"coordinates":[5483,4405]},{"type":"Point","properties":{"Station_ID":"ROBW3","Station_Nam":"ROBERTS WWTP","Latitude":"44.97070","Longitude":"-92.56200","Snowdepth":"5.000","Units":"in","Rept_Date":"2019-12-12 14"},"coordinates":[1052,5796]},{"type":"Point","properties":{"Station_ID":"RKWM1","Station_Nam":"MOOSEHEAD LAKE","Latitude":"45.58330","Longitude":"-69.71670","Snowdepth":"5.000","Units":"in","Rept_Date":"2019-12-12 12"},"coordinates":[6192,6177]},{"type":"Point","properties":{"Station_ID":"RDFN6","Station_Nam":"REDFIELD 8N","Latitude":"43.64130","Longitude":"-75.88400","Snowdepth":"5.000","Units":"in","Rept_Date":"2019-12-12 12"},"coordinates":[4805,4969]},{"type":"Point","properties":{"Station_ID":"PHON6","Station_Nam":"PHOENICIA 2SW","Latitude":"42.06420","Longitude":"-74.34080","Snowdepth":"5.000","Units":"in","Rept_Date":"2019-12-12 11"},"coordinates":[5152,3987]},{"type":"Point","properties":{"Station_ID":"OONW3","Station_Nam":"OCONTO-1 NW-HWY. DEPT.","Latitude":"44.89470","Longitude":"-87.88030","Snowdepth":"5.000","Units":"in","Rept_Date":"2019-12-12 13"},"coordinates":[2106,5748]},{"type":"Point","properties":{"Station_ID":"NY-SR-16","Station_Nam":"BALLSTON SPA 2.9 ESE, NY","Latitude":"42.99000","Longitude":"-73.80000","Snowdepth":"5.000","Units":"in","Rept_Date":"2019-12-12 13"},"coordinates":[5274,4563]},{"type":"Point","properties":{"Station_ID":"NY-ER-65","Station_Nam":"BOSTON 1.5 NE, NY","Latitude":"42.65470","Longitude":"-78.72010","Snowdepth":"5.000","Units":"in","Rept_Date":"2019-12-12 12"},"coordinates":[4167,4355]},{"type":"Point","properties":{"Station_ID":"NY-ER-178","Station_Nam":"WEST SENECA 2.5 SE, NY","Latitude":"42.81374","Longitude":"-78.71399","Snowdepth":"5.000","Units":"in","Rept_Date":"2019-12-12 12"},"coordinates":[4168,4454]},{"type":"Point","properties":{"Station_ID":"NY-CQ-9","Station_Nam":"DUNKIRK 0.7 SW, NY","Latitude":"42.47167","Longitude":"-79.33360","Snowdepth":"5.000","Units":"in","Rept_Date":"2019-12-12 12"},"coordinates":[4029,4241]},{"type":"Point","properties":{"Station_ID":"MRFS2","Station_Nam":"MADISON,SD","Latitude":"44.00000","Longitude":"-97.23330","Snowdepth":"5.000","Units":"in","Rept_Date":"2019-12-12 15"},"coordinates":[1,5192]},{"type":"Point","properties":{"Station_ID":"MPXM5","Station_Nam":"CHANHASSEN WSFO","Latitude":"44.84960","Longitude":"-93.56440","Snowdepth":"5.000","Units":"in","Rept_Date":"2019-12-13 06"},"coordinates":[827,5720]},{"type":"Point","properties":{"Station_ID":"MNG0GYSN","Station_Nam":"LONSDALE 1.1 SSW","Latitude":"44.46445","Longitude":"-93.43293","Snowdepth":"5.000","Units":"in","Rept_Date":"2019-12-12 12"},"coordinates":[856,5481]},{"type":"Point","properties":{"Station_ID":"MNE9SLWI","Station_Nam":"LEAVENWORTH 5.4 S","Latitude":"44.14481","Longitude":"-94.78882","Snowdepth":"5.000","Units":"in","Rept_Date":"2019-12-12 13"},"coordinates":[551,5282]},{"type":"Point","properties":{"Station_ID":"MN-WG-33","Station_Nam":"COTTAGE GROVE 1.6 NNW, MN","Latitude":"44.83821","Longitude":"-92.93590","Snowdepth":"5.000","Units":"in","Rept_Date":"2019-12-12 13"},"coordinates":[968,5713]},{"type":"Point","properties":{"Station_ID":"MN-SE-2","Station_Nam":"OWATONNA 0.8 E, MN","Latitude":"44.09170","Longitude":"-93.21380","Snowdepth":"5.000","Units":"in","Rept_Date":"2019-12-12 12"},"coordinates":[906,5249]},{"type":"Point","properties":{"Station_ID":"MN-RC-1","Station_Nam":"MONTGOMERY 3.2 ENE, MN","Latitude":"44.46400","Longitude":"-93.51980","Snowdepth":"5.000","Units":"in","Rept_Date":"2019-12-12 11"},"coordinates":[837,5480]},{"type":"Point","properties":{"Station_ID":"MN-HN-110","Station_Nam":"EDINA 1.9 SSE, MN","Latitude":"44.86875","Longitude":"-93.33940","Snowdepth":"5.000","Units":"in","Rept_Date":"2019-12-12 13"},"coordinates":[877,5732]},{"type":"Point","properties":{"Station_ID":"MN-GH-4","Station_Nam":"NERSTRAND 4.2 E, MN","Latitude":"44.34247","Longitude":"-92.97920","Snowdepth":"5.000","Units":"in","Rept_Date":"2019-12-12 13"},"coordinates":[958,5405]},{"type":"Point","properties":{"Station_ID":"MN-FM-10","Station_Nam":"WYKOFF 3.1 NW, MN","Latitude":"43.74340","Longitude":"-92.30650","Snowdepth":"5.000","Units":"in","Rept_Date":"2019-12-12 13"},"coordinates":[1110,5032]},{"type":"Point","properties":{"Station_ID":"MA-FR-17","Station_Nam":"BUCKLAND 1.8 ESE, MA","Latitude":"42.58900","Longitude":"-72.75110","Snowdepth":"5.000","Units":"in","Rept_Date":"2019-12-12 13"},"coordinates":[5510,4314]},{"type":"Point","properties":{"Station_ID":"LPLN6","Station_Nam":"LAKE PLACID 2 S","Latitude":"44.30420","Longitude":"-73.98390","Snowdepth":"5.000","Units":"in","Rept_Date":"2019-12-12 11"},"coordinates":[5232,5381]},{"type":"Point","properties":{"Station_ID":"LBRM5","Station_Nam":"LAKE BRONSON DAM","Latitude":"48.72410","Longitude":"-96.62180","Snowdepth":"5.000","Units":"in","Rept_Date":"2019-12-12 14"},"coordinates":[139,8131]},{"type":"Point","properties":{"Station_ID":"LAMM5","Station_Nam":"LAMBERTON SW RESEARCH AND OUTREACH CENTER","Latitude":"44.23950","Longitude":"-95.31520","Snowdepth":"5.000","Units":"in","Rept_Date":"2019-12-12 14"},"coordinates":[433,5341]},{"type":"Point","properties":{"Station_ID":"LAKM5","Station_Nam":"LAKE CITY","Latitude":"44.43630","Longitude":"-92.27930","Snowdepth":"5.000","Units":"in","Rept_Date":"2019-12-12 13"},"coordinates":[1116,5463]},{"type":"Point","properties":{"Station_ID":"HRKM3","Station_Nam":"HARDWICK 2 ESE","Latitude":"42.34570","Longitude":"-72.15410","Snowdepth":"5.000","Units":"in","Rept_Date":"2019-12-12 13"},"coordinates":[5644,4163]},{"type":"Point","properties":{"Station_ID":"FORW3","Station_Nam":"FORESTVILLE-4E","Latitude":"44.69780","Longitude":"-87.39690","Snowdepth":"5.000","Units":"in","Rept_Date":"2019-12-12 13"},"coordinates":[2214,5626]},{"type":"Point","properties":{"Station_ID":"FISW3","Station_Nam":"FISH CREEK 1 E WWTP","Latitude":"45.12420","Longitude":"-87.22920","Snowdepth":"5.000","Units":"in","Rept_Date":"2019-12-12 13"},"coordinates":[2252,5891]},{"type":"Point","properties":{"Station_ID":"ELWW3","Station_Nam":"ELLSWORTH 1E","Latitude":"44.73030","Longitude":"-92.45860","Snowdepth":"5.000","Units":"in","Rept_Date":"2019-12-12 13"},"coordinates":[1075,5646]},{"type":"Point","properties":{"Station_ID":"EHYM3","Station_Nam":"EAST HAWLEY","Latitude":"42.57410","Longitude":"-72.86790","Snowdepth":"5.000","Units":"in","Rept_Date":"2019-12-12 13"},"coordinates":[5483,4305]},{"type":"Point","properties":{"Station_ID":"DWSM5","Station_Nam":"DAWSON","Latitude":"44.93180","Longitude":"-96.04500","Snowdepth":"5.000","Units":"in","Rept_Date":"2019-12-12 13"},"coordinates":[269,5771]},{"type":"Point","properties":{"Station_ID":"DKKN6","Station_Nam":"DUNKIRK 1S","Latitude":"42.47180","Longitude":"-79.33370","Snowdepth":"5.000","Units":"in","Rept_Date":"2019-12-12 12"},"coordinates":[4028,4241]},{"type":"Point","properties":{"Station_ID":"CT-LT-7","Station_Nam":"LITCHFIELD 2.3 NNE, CT","Latitude":"41.77445","Longitude":"-73.16900","Snowdepth":"5.000","Units":"in","Rept_Date":"2019-12-12 12"},"coordinates":[5416,3807]},{"type":"Point","properties":{"Station_ID":"CT-HR-28","Station_Nam":"NORTH CANTON 0.8 SSW, CT","Latitude":"41.88514","Longitude":"-72.89729","Snowdepth":"5.000","Units":"in","Rept_Date":"2019-12-12 12"},"coordinates":[5477,3876]},{"type":"Point","properties":{"Station_ID":"CHRM4","Station_Nam":"CHARLEVOIX","Latitude":"45.31720","Longitude":"-85.26720","Snowdepth":"5.000","Units":"in","Rept_Date":"2019-12-12 13"},"coordinates":[2693,6011]},{"type":"Point","properties":{"Station_ID":"CANM5","Station_Nam":"CANBY","Latitude":"44.71840","Longitude":"-96.26960","Snowdepth":"5.000","Units":"in","Rept_Date":"2019-12-12 14"},"coordinates":[218,5639]},{"type":"Point","properties":{"Station_ID":"CAN-ON-245","Station_Nam":"PHELPSTON 3.1 ESE, CAN","Latitude":"44.50564","Longitude":"-79.81035","Snowdepth":"5.000","Units":"in","Rept_Date":"2019-12-12 14"},"coordinates":[3921,5506]},{"type":"Point","properties":{"Station_ID":"BKEM5","Station_Nam":"BRECKENRIDGE 4NE","Latitude":"46.30470","Longitude":"-96.52170","Snowdepth":"5.000","Units":"in","Rept_Date":"2019-12-12 11"},"coordinates":[161,6626]},{"type":"Point","properties":{"Station_ID":"BGGW3","Station_Nam":"GREEN BAY,WI","Latitude":"44.53170","Longitude":"-88.09720","Snowdepth":"5.000","Units":"in","Rept_Date":"2019-12-12 14"},"coordinates":[2057,5523]},{"type":"Point","properties":{"Station_ID":"ARX","Station_Nam":"LA CROSSE, WI","Latitude":"43.82280","Longitude":"-91.19190","Snowdepth":"5.000","Units":"in","Rept_Date":"2019-12-13 06"},"coordinates":[1360,5082]},{"type":"Point","properties":{"Station_ID":"ARTM5","Station_Nam":"ARTICHOKE LAKE 1 E","Latitude":"45.38560","Longitude":"-96.12570","Snowdepth":"5.000","Units":"in","Rept_Date":"2019-12-13 00"},"coordinates":[250,6054]},{"type":"Point","properties":{"Station_ID":"MN-SC-33","Station_Nam":"SHAKOPEE 2.6 W, MN","Latitude":"44.78173","Longitude":"-93.52868","Snowdepth":"4.700","Units":"in","Rept_Date":"2019-12-12 13"},"coordinates":[835,5678]},{"type":"Point","properties":{"Station_ID":"NY-WR-10","Station_Nam":"WARRENSBURG 2.1 WNW, NY","Latitude":"43.51784","Longitude":"-73.81069","Snowdepth":"4.500","Units":"in","Rept_Date":"2019-12-12 13"},"coordinates":[5271,4892]},{"type":"Point","properties":{"Station_ID":"NY-SC-11","Station_Nam":"SCHENECTADY 3.3 E, NY","Latitude":"42.79382","Longitude":"-73.86390","Snowdepth":"4.500","Units":"in","Rept_Date":"2019-12-12 14"},"coordinates":[5259,4441]},{"type":"Point","properties":{"Station_ID":"NY-ER-50","Station_Nam":"EAST AURORA 0.1 ENE, NY","Latitude":"42.76750","Longitude":"-78.61580","Snowdepth":"4.500","Units":"in","Rept_Date":"2019-12-12 11"},"coordinates":[4190,4425]},{"type":"Point","properties":{"Station_ID":"MN-BW-8","Station_Nam":"COMFREY 6.5 ENE, MN","Latitude":"44.15109","Longitude":"-94.78516","Snowdepth":"4.500","Units":"in","Rept_Date":"2019-12-12 13"},"coordinates":[552,5286]},{"type":"Point","properties":{"Station_ID":"MA-FR-10","Station_Nam":"CONWAY 0.9 SW, MA","Latitude":"42.50879","Longitude":"-72.69730","Snowdepth":"4.500","Units":"in","Rept_Date":"2019-12-12 13"},"coordinates":[5522,4264]},{"type":"Point","properties":{"Station_ID":"NY-NG-2","Station_Nam":"NORTH TONAWANDA 1.0 NNE, NY","Latitude":"43.05725","Longitude":"-78.86170","Snowdepth":"4.300","Units":"in","Rept_Date":"2019-12-12 12"},"coordinates":[4135,4605]},{"type":"Point","properties":{"Station_ID":"ME-FR-22","Station_Nam":"FARMINGTON 4.8 NNW, ME","Latitude":"44.73396","Longitude":"-70.18007","Snowdepth":"4.300","Units":"in","Rept_Date":"2019-12-12 14"},"coordinates":[6088,5648]},{"type":"Point","properties":{"Station_ID":"MA-PL-5","Station_Nam":"KINGSTON 3.3 WNW, MA","Latitude":"42.01702","Longitude":"-70.77200","Snowdepth":"4.200","Units":"in","Rept_Date":"2019-12-12 12"},"coordinates":[5955,3958]},{"type":"Point","properties":{"Station_ID":"MA-PL-22","Station_Nam":"EAST BRIDGEWATER 0.3 WSW, MA","Latitude":"42.03202","Longitude":"-70.95479","Snowdepth":"4.200","Units":"in","Rept_Date":"2019-12-12 12"},"coordinates":[5914,3967]},{"type":"Point","properties":{"Station_ID":"CT-NL-38","Station_Nam":"OLD LYME 3.4 ESE, CT","Latitude":"41.30129","Longitude":"-72.26666","Snowdepth":"4.100","Units":"in","Rept_Date":"2019-12-12 12"},"coordinates":[5619,3513]},{"type":"Point","properties":{"Station_ID":"ZBWN3","Station_Nam":"NASHUA CWSU","Latitude":"42.73440","Longitude":"-71.48030","Snowdepth":"4.000","Units":"in","Rept_Date":"2019-12-12 12"},"coordinates":[5795,4404]},{"type":"Point","properties":{"Station_ID":"WWWW3","Station_Nam":"WAUPACA","Latitude":"44.35470","Longitude":"-89.05920","Snowdepth":"4.000","Units":"in","Rept_Date":"2019-12-12 14"},"coordinates":[1840,5412]},{"type":"Point","properties":{"Station_ID":"WI-OG-12","Station_Nam":"KAUKAUNA 1.5 SW, WI","Latitude":"44.26062","Longitude":"-88.28590","Snowdepth":"4.000","Units":"in","Rept_Date":"2019-12-12 12"},"coordinates":[2014,5354]},{"type":"Point","properties":{"Station_ID":"WHTM5","Station_Nam":"WHEATON,MN","Latitude":"45.80000","Longitude":"-96.48330","Snowdepth":"4.000","Units":"in","Rept_Date":"2019-12-12 14"},"coordinates":[170,6312]},{"type":"Point","properties":{"Station_ID":"WELM5","Station_Nam":"WELLS","Latitude":"43.74680","Longitude":"-93.73680","Snowdepth":"4.000","Units":"in","Rept_Date":"2019-12-12 14"},"coordinates":[788,5034]},{"type":"Point","properties":{"Station_ID":"WALM3","Station_Nam":"WALPOLE 2","Latitude":"42.16090","Longitude":"-71.24610","Snowdepth":"4.000","Units":"in","Rept_Date":"2019-12-12 12"},"coordinates":[5848,4048]},{"type":"Point","properties":{"Station_ID":"VT-WS-10","Station_Nam":"NORTHFIELD 1.5 N, VT","Latitude":"44.16986","Longitude":"-72.65200","Snowdepth":"4.000","Units":"in","Rept_Date":"2019-12-12 12"},"coordinates":[5532,5297]},{"type":"Point","properties":{"Station_ID":"VT-WH-29","Station_Nam":"BRATTLEBORO 0.7 S, VT","Latitude":"42.84030","Longitude":"-72.55580","Snowdepth":"4.000","Units":"in","Rept_Date":"2019-12-12 12"},"coordinates":[5553,4470]},{"type":"Point","properties":{"Station_ID":"TMSC3","Station_Nam":"THOMASTON DAM","Latitude":"41.69470","Longitude":"-73.06220","Snowdepth":"4.000","Units":"in","Rept_Date":"2019-12-12 12"},"coordinates":[5440,3758]},{"type":"Point","properties":{"Station_ID":"TCEM4","Station_Nam":"TRAVERSE CITY 5ESE","Latitude":"44.73370","Longitude":"-85.51180","Snowdepth":"4.000","Units":"in","Rept_Date":"2019-12-12 12"},"coordinates":[2638,5648]},{"type":"Point","properties":{"Station_ID":"STPW3","Station_Nam":"STEVENS POINT","Latitude":"44.51130","Longitude":"-89.58550","Snowdepth":"4.000","Units":"in","Rept_Date":"2019-12-12 13"},"coordinates":[1722,5510]},{"type":"Point","properties":{"Station_ID":"SIWS2","Station_Nam":"SISSETON 3W","Latitude":"45.65870","Longitude":"-97.12450","Snowdepth":"4.000","Units":"in","Rept_Date":"2019-12-12 13"},"coordinates":[26,6224]},{"type":"Point","properties":{"Station_ID":"SILN6","Station_Nam":"SILVER CREEK","Latitude":"42.53800","Longitude":"-79.16990","Snowdepth":"4.000","Units":"in","Rept_Date":"2019-12-12 12"},"coordinates":[4065,4282]},{"type":"Point","properties":{"Station_ID":"SHIW3","Station_Nam":"SHIOCTON","Latitude":"44.43890","Longitude":"-88.58390","Snowdepth":"4.000","Units":"in","Rept_Date":"2019-12-12 15"},"coordinates":[1947,5465]},{"type":"Point","properties":{"Station_ID":"SHDI4","Station_Nam":"SHELDON,IA","Latitude":"43.18080","Longitude":"-95.85280","Snowdepth":"4.000","Units":"in","Rept_Date":"2019-12-12 13"},"coordinates":[312,4682]},{"type":"Point","properties":{"Station_ID":"SFVC3","Station_Nam":"STAFFORDVILLE","Latitude":"41.99840","Longitude":"-72.26060","Snowdepth":"4.000","Units":"in","Rept_Date":"2019-12-12 10"},"coordinates":[5620,3946]},{"type":"Point","properties":{"Station_ID":"SD-RB-1","Station_Nam":"SISSETON 3.8 W, SD","Latitude":"45.65865","Longitude":"-97.12370","Snowdepth":"4.000","Units":"in","Rept_Date":"2019-12-12 13"},"coordinates":[26,6224]},{"type":"Point","properties":{"Station_ID":"SD-CD-30","Station_Nam":"WATERTOWN 2.3 E, SD","Latitude":"44.91604","Longitude":"-97.11925","Snowdepth":"4.000","Units":"in","Rept_Date":"2019-12-12 14"},"coordinates":[27,5762]},{"type":"Point","properties":{"Station_ID":"SD-BK-2","Station_Nam":"ASTORIA 2.2 SSE, SD","Latitude":"44.53093","Longitude":"-96.52270","Snowdepth":"4.000","Units":"in","Rept_Date":"2019-12-12 13"},"coordinates":[161,5522]},{"type":"Point","properties":{"Station_ID":"SBOP1","Station_Nam":"SPRINGBORO","Latitude":"41.81660","Longitude":"-80.43330","Snowdepth":"4.000","Units":"in","Rept_Date":"2019-12-12 12"},"coordinates":[3781,3833]},{"type":"Point","properties":{"Station_ID":"SANI4","Station_Nam":"ST ANSGAR","Latitude":"43.38170","Longitude":"-92.92320","Snowdepth":"4.000","Units":"in","Rept_Date":"2019-12-12 12"},"coordinates":[971,4807]},{"type":"Point","properties":{"Station_ID":"RWGM5","Station_Nam":"RED WING","Latitude":"44.57120","Longitude":"-92.52830","Snowdepth":"4.000","Units":"in","Rept_Date":"2019-12-12 14"},"coordinates":[1060,5547]},{"type":"Point","properties":{"Station_ID":"RST","Station_Nam":"ROCHESTER INTERNATIONAL ARPT","Latitude":"43.90890","Longitude":"-92.49780","Snowdepth":"4.000","Units":"in","Rept_Date":"2019-12-13 00"},"coordinates":[1067,5135]},{"type":"Point","properties":{"Station_ID":"RSRM5","Station_Nam":"ROCHESTER AP 2NE","Latitude":"43.92810","Longitude":"-92.47580","Snowdepth":"4.000","Units":"in","Rept_Date":"2019-12-13 06"},"coordinates":[1072,5147]},{"type":"Point","properties":{"Station_ID":"RKRI4","Station_Nam":"ROCK RAPIDS,IA","Latitude":"43.43330","Longitude":"-96.16670","Snowdepth":"4.000","Units":"in","Rept_Date":"2019-12-12 14"},"coordinates":[241,4839]},{"type":"Point","properties":{"Station_ID":"RI-NW-17","Station_Nam":"TIVERTON 4.4 SSE, RI","Latitude":"41.59657","Longitude":"-71.16560","Snowdepth":"4.000","Units":"in","Rept_Date":"2019-12-12 12"},"coordinates":[5866,3697]},