{"type":"Topology","objects":{"snowdepth_geo":{"type":"GeometryCollection","name":"snowdepth","crs":{"type":"name","properties":{"name":"urn:ogc:def:crs:OGC:1.3:CRS84"}},"geometries":[{"type":"Point","properties":{"Station_ID":"PRKM4","Station_Nam":"MUNISING EAST","Latitude":"46.42580","Longitude":"-86.62000","Snowdepth":"76.500","Units":"in","Rept_Date":"2020-11-24 06"},"coordinates":[3365,6049]},{"type":"Point","properties":{"Station_ID":"CAN-ON-815","Station_Nam":"KEENE 1.8 SSW, CAN","Latitude":"44.22623","Longitude":"-78.17317","Snowdepth":"43.300","Units":"in","Rept_Date":"2020-11-23 12"},"coordinates":[6042,4411]},{"type":"Point","properties":{"Station_ID":"TIPM4","Station_Nam":"TIPTON,MI","Latitude":"42.03330","Longitude":"-84.10000","Snowdepth":"12.000","Units":"in","Rept_Date":"2020-11-23 12"},"coordinates":[4164,2777]},{"type":"Point","properties":{"Station_ID":"TRIQ6","Station_Nam":"TRIO LAKE","Latitude":"49.22880","Longitude":"-87.22920","Snowdepth":"9.570","Units":"in","Rept_Date":"2020-11-24 06"},"coordinates":[3172,8138]},{"type":"Point","properties":{"Station_ID":"MILV2","Station_Nam":"MILL GAP COOP","Latitude":"38.30640","Longitude":"-79.71970","Snowdepth":"9.000","Units":"in","Rept_Date":"2020-11-23 11"},"coordinates":[5552,0]},{"type":"Point","properties":{"Station_ID":"CAN-ON-491","Station_Nam":"MILVERTON 1.1 ESE- CANWARN, CAN","Latitude":"43.56074","Longitude":"-80.90887","Snowdepth":"8.900","Units":"in","Rept_Date":"2020-11-23 11"},"coordinates":[5175,3915]},{"type":"Point","properties":{"Station_ID":"CAN-ON-86","Station_Nam":"GUELPH 5.1 S - CANWARN, CAN","Latitude":"43.49691","Longitude":"-80.24385","Snowdepth":"8.700","Units":"in","Rept_Date":"2020-11-23 12"},"coordinates":[5386,3867]},{"type":"Point","properties":{"Station_ID":"CAN-ON-224","Station_Nam":"NAKINA 3.8 N - MNRF, CAN","Latitude":"50.21269","Longitude":"-86.70099","Snowdepth":"8.400","Units":"in","Rept_Date":"2020-11-23 16"},"coordinates":[3340,8871]},{"type":"Point","properties":{"Station_ID":"CAN-ON-593","Station_Nam":"KITCHENER 4.5 E, CAN","Latitude":"43.45147","Longitude":"-80.43180","Snowdepth":"7.900","Units":"in","Rept_Date":"2020-11-23 12"},"coordinates":[5326,3833]},{"type":"Point","properties":{"Station_ID":"CAN-ON-92","Station_Nam":"DUNROBIN 1.9 W - MVCA, CAN","Latitude":"45.42318","Longitude":"-76.04525","Snowdepth":"7.200","Units":"in","Rept_Date":"2020-11-23 12"},"coordinates":[6716,5302]},{"type":"Point","properties":{"Station_ID":"CAN-ON-187","Station_Nam":"WATERLOO 1.9 E - UOFW, CAN","Latitude":"43.47024","Longitude":"-80.50634","Snowdepth":"7.100","Units":"in","Rept_Date":"2020-11-23 13"},"coordinates":[5303,3847]},{"type":"Point","properties":{"Station_ID":"AUDQ6","Station_Nam":"AUDEN","Latitude":"48.52600","Longitude":"-82.57570","Snowdepth":"7.050","Units":"in","Rept_Date":"2020-11-24 06"},"coordinates":[4647,7614]},{"type":"Point","properties":{"Station_ID":"CAN-ON-801","Station_Nam":"KANATA 9.4 NNW - RVCA, CAN","Latitude":"45.38428","Longitude":"-75.96845","Snowdepth":"7.000","Units":"in","Rept_Date":"2020-11-23 12"},"coordinates":[6741,5273]},{"type":"Point","properties":{"Station_ID":"CAN-ON-335","Station_Nam":"NAKINA 1.6 NW - MNRF, CAN","Latitude":"50.18910","Longitude":"-86.72684","Snowdepth":"6.600","Units":"in","Rept_Date":"2020-11-23 13"},"coordinates":[3331,8853]},{"type":"Point","properties":{"Station_ID":"DVLQ6","Station_Nam":"DEVIOUS LAKE","Latitude":"49.19890","Longitude":"-87.76440","Snowdepth":"6.140","Units":"in","Rept_Date":"2020-11-24 06"},"coordinates":[3003,8116]},{"type":"Point","properties":{"Station_ID":"MMNV1","Station_Nam":"MT. MANSFIELD","Latitude":"44.52480","Longitude":"-72.81540","Snowdepth":"6.000","Units":"in","Rept_Date":"2020-11-23 21"},"coordinates":[7740,4633]},{"type":"Point","properties":{"Station_ID":"CLQM5","Station_Nam":"CLOQUET","Latitude":"46.70470","Longitude":"-92.52530","Snowdepth":"6.000","Units":"in","Rept_Date":"2020-11-23 14"},"coordinates":[1494,6257]},{"type":"Point","properties":{"Station_ID":"CAN-ON-620","Station_Nam":"GOODERHAM 3.4 SSW, CAN","Latitude":"44.87690","Longitude":"-78.39265","Snowdepth":"5.900","Units":"in","Rept_Date":"2020-11-23 12"},"coordinates":[5973,4895]},{"type":"Point","properties":{"Station_ID":"PTLQ6","Station_Nam":"PORTAGE LAKE","Latitude":"49.06950","Longitude":"-86.65940","Snowdepth":"5.630","Units":"in","Rept_Date":"2020-11-24 06"},"coordinates":[3353,8019]},{"type":"Point","properties":{"Station_ID":"KMWN","Station_Nam":"MOUNT WASHINGTON","Latitude":"44.26666","Longitude":"-71.30000","Snowdepth":"5.000","Units":"in","Rept_Date":"2020-11-24 06"},"coordinates":[8220,4441]},{"type":"Point","properties":{"Station_ID":"FLDM5","Station_Nam":"FLOODWOOD,MN","Latitude":"47.00000","Longitude":"-92.91670","Snowdepth":"5.000","Units":"in","Rept_Date":"2020-11-23 14"},"coordinates":[1370,6477]},{"type":"Point","properties":{"Station_ID":"FISM1","Station_Nam":"FORT KENT COOP","Latitude":"47.23850","Longitude":"-68.61240","Snowdepth":"5.000","Units":"in","Rept_Date":"2020-11-23 12"},"coordinates":[9072,6655]},{"type":"Point","properties":{"Station_ID":"CAN-ON-220","Station_Nam":"DEEP RIVER 1.5 SE - MNRF, CAN","Latitude":"46.09592","Longitude":"-77.47853","Snowdepth":"4.500","Units":"in","Rept_Date":"2020-11-23 14"},"coordinates":[6262,5804]},{"type":"Point","properties":{"Station_ID":"KABQ6","Station_Nam":"CAB LAKE","Latitude":"49.59950","Longitude":"-89.17990","Snowdepth":"4.330","Units":"in","Rept_Date":"2020-11-24 06"},"coordinates":[2554,8414]},{"type":"Point","properties":{"Station_ID":"CAN-ON-525","Station_Nam":"WOODSTOCK 1.2 ENE, CAN","Latitude":"43.13734","Longitude":"-80.73688","Snowdepth":"4.300","Units":"in","Rept_Date":"2020-11-23 13"},"coordinates":[5230,3599]},{"type":"Point","properties":{"Station_ID":"WLFM5","Station_Nam":"WOLF RIDGE ENVIRON LEARNING CENTER","Latitude":"47.38240","Longitude":"-91.19730","Snowdepth":"4.000","Units":"in","Rept_Date":"2020-11-23 13"},"coordinates":[1915,6762]},{"type":"Point","properties":{"Station_ID":"MN-SL-190","Station_Nam":"DULUTH 2.9 NE, MN","Latitude":"46.81230","Longitude":"-92.06170","Snowdepth":"4.000","Units":"in","Rept_Date":"2020-11-23 13"},"coordinates":[1641,6337]},{"type":"Point","properties":{"Station_ID":"MN-CN-36","Station_Nam":"CLOQUET 3.4 ENE, MN","Latitude":"46.74146","Longitude":"-92.42698","Snowdepth":"4.000","Units":"in","Rept_Date":"2020-11-23 13"},"coordinates":[1525,6285]},{"type":"Point","properties":{"Station_ID":"CAN-ON-118","Station_Nam":"DURHAM 1.4 S, CAN","Latitude":"44.16525","Longitude":"-80.82064","Snowdepth":"4.000","Units":"in","Rept_Date":"2020-11-23 12"},"coordinates":[5203,4365]},{"type":"Point","properties":{"Station_ID":"CAN-ON-784","Station_Nam":"KOMOKA 3.1 W, CAN","Latitude":"42.96000","Longitude":"-81.43805","Snowdepth":"3.900","Units":"in","Rept_Date":"2020-11-23 13"},"coordinates":[5007,3467]},{"type":"Point","properties":{"Station_ID":"CAN-ON-773","Station_Nam":"OSGOODE 0.5 WNW, CAN","Latitude":"45.14491","Longitude":"-75.61445","Snowdepth":"3.900","Units":"in","Rept_Date":"2020-11-23 12"},"coordinates":[6853,5095]},{"type":"Point","properties":{"Station_ID":"OGIQ6","Station_Nam":"OGOKI CAMP","Latitude":"50.76680","Longitude":"-87.85820","Snowdepth":"3.580","Units":"in","Rept_Date":"2020-11-24 06"},"coordinates":[2973,9284]},{"type":"Point","properties":{"Station_ID":"MN-SL-143","Station_Nam":"CANYON 4.6 NNE, MN","Latitude":"47.09800","Longitude":"-92.42170","Snowdepth":"3.500","Units":"in","Rept_Date":"2020-11-23 13"},"coordinates":[1527,6550]},{"type":"Point","properties":{"Station_ID":"MN-SL-105","Station_Nam":"DULUTH 11.8 NNE, MN","Latitude":"46.94680","Longitude":"-92.03925","Snowdepth":"3.500","Units":"in","Rept_Date":"2020-11-23 14"},"coordinates":[1648,6438]},{"type":"Point","properties":{"Station_ID":"CAN-QC-47","Station_Nam":"SAINTE-FOY 1.8 ENE, CAN","Latitude":"46.76934","Longitude":"-71.27124","Snowdepth":"3.500","Units":"in","Rept_Date":"2020-11-23 12"},"coordinates":[8229,6305]},{"type":"Point","properties":{"Station_ID":"FTHQ6","Station_Nam":"FORT HOPE","Latitude":"51.55820","Longitude":"-87.90510","Snowdepth":"3.310","Units":"in","Rept_Date":"2020-11-24 06"},"coordinates":[2958,9873]},{"type":"Point","properties":{"Station_ID":"QNCM4","Station_Nam":"QUINCY HILL","Latitude":"47.13640","Longitude":"-88.57950","Snowdepth":"3.000","Units":"in","Rept_Date":"2020-11-23 12"},"coordinates":[2744,6579]},{"type":"Point","properties":{"Station_ID":"MWN","Station_Nam":"MOUNT WASHINGTON","Latitude":"44.26670","Longitude":"-71.30000","Snowdepth":"3.000","Units":"in","Rept_Date":"2020-11-23 12"},"coordinates":[8220,4441]},{"type":"Point","properties":{"Station_ID":"MN-LK-4","Station_Nam":"TWO HARBORS 3.6 WNW, MN","Latitude":"47.04118","Longitude":"-91.75280","Snowdepth":"3.000","Units":"in","Rept_Date":"2020-11-23 13"},"coordinates":[1739,6508]},{"type":"Point","properties":{"Station_ID":"ME-AR-18","Station_Nam":"NEW SWEDEN 4.9 NNW, ME","Latitude":"47.01080","Longitude":"-68.14390","Snowdepth":"3.000","Units":"in","Rept_Date":"2020-11-23 12"},"coordinates":[9221,6485]},{"type":"Point","properties":{"Station_ID":"LEIM5","Station_Nam":"ORR 3E","Latitude":"48.05810","Longitude":"-92.75220","Snowdepth":"3.000","Units":"in","Rept_Date":"2020-11-23 12"},"coordinates":[1422,7266]},{"type":"Point","properties":{"Station_ID":"DLHM5","Station_Nam":"DULUTH NWS","Latitude":"46.83680","Longitude":"-92.21080","Snowdepth":"3.000","Units":"in","Rept_Date":"2020-11-24 06"},"coordinates":[1593,6356]},{"type":"Point","properties":{"Station_ID":"DLH","Station_Nam":"DULUTH, MN","Latitude":"46.83690","Longitude":"-92.21030","Snowdepth":"3.000","Units":"in","Rept_Date":"2020-11-24 00"},"coordinates":[1594,6356]},{"type":"Point","properties":{"Station_ID":"CAN-ON-452","Station_Nam":"CHATSWORTH 1.8 ENE - GSCA, CAN","Latitude":"44.46118","Longitude":"-80.87506","Snowdepth":"3.000","Units":"in","Rept_Date":"2020-11-23 12"},"coordinates":[5186,4586]},{"type":"Point","properties":{"Station_ID":"CAN-ON-27","Station_Nam":"OSHAWA 1.4 WSW, CAN","Latitude":"43.89770","Longitude":"-78.87440","Snowdepth":"3.000","Units":"in","Rept_Date":"2020-11-23 13"},"coordinates":[5820,4166]},{"type":"Point","properties":{"Station_ID":"CAN-ON-245","Station_Nam":"PHELPSTON 3.1 ESE, CAN","Latitude":"44.50564","Longitude":"-79.81035","Snowdepth":"3.000","Units":"in","Rept_Date":"2020-11-23 13"},"coordinates":[5523,4619]},{"type":"Point","properties":{"Station_ID":"CAN-MB-32","Station_Nam":"PINAWA 1.0 SW, CA","Latitude":"50.14747","Longitude":"-95.89020","Snowdepth":"3.000","Units":"in","Rept_Date":"2020-11-23 13"},"coordinates":[427,8822]},{"type":"Point","properties":{"Station_ID":"BABM5","Station_Nam":"BABBITT","Latitude":"47.71210","Longitude":"-91.95330","Snowdepth":"3.000","Units":"in","Rept_Date":"2020-11-23 13"},"coordinates":[1675,7008]},{"type":"Point","properties":{"Station_ID":"CAN-ON-451","Station_Nam":"OWEN SOUND 1.2 N - GSCA, CAN","Latitude":"44.58092","Longitude":"-80.93025","Snowdepth":"2.800","Units":"in","Rept_Date":"2020-11-23 13"},"coordinates":[5168,4675]},{"type":"Point","properties":{"Station_ID":"CAN-MB-368","Station_Nam":"WHITESHELL 1.3 NE, CAN","Latitude":"49.74405","Longitude":"-95.19123","Snowdepth":"2.700","Units":"in","Rept_Date":"2020-11-23 14"},"coordinates":[649,8522]},{"type":"Point","properties":{"Station_ID":"WI-BY-29","Station_Nam":"BAYFIELD 5.1 NNW, WI","Latitude":"46.88063","Longitude":"-90.85854","Snowdepth":"2.500","Units":"in","Rept_Date":"2020-11-23 13"},"coordinates":[2022,6388]},{"type":"Point","properties":{"Station_ID":"CAN-QC-55","Station_Nam":"DEUX-MONTAGNES 2.9 ESE, CAN","Latitude":"45.52305","Longitude":"-73.86278","Snowdepth":"2.500","Units":"in","Rept_Date":"2020-11-23 14"},"coordinates":[7408,5377]},{"type":"Point","properties":{"Station_ID":"CAN-ON-324","Station_Nam":"AMHERSTBURG 4.0 NNE, CAN","Latitude":"42.13151","Longitude":"-83.08810","Snowdepth":"2.500","Units":"in","Rept_Date":"2020-11-23 12"},"coordinates":[4485,2850]},{"type":"Point","properties":{"Station_ID":"CAN-MB-56","Station_Nam":"WINNIPEG 7.6 ENE, CAN","Latitude":"49.93264","Longitude":"-97.04752","Snowdepth":"2.500","Units":"in","Rept_Date":"2020-11-23 14"},"coordinates":[61,8662]},{"type":"Point","properties":{"Station_ID":"CATQ6","Station_Nam":"CAT LAKE","Latitude":"51.72690","Longitude":"-91.82210","Snowdepth":"2.480","Units":"in","Rept_Date":"2020-11-24 06"},"coordinates":[1717,9999]},{"type":"Point","properties":{"Station_ID":"CAN-ON-646","Station_Nam":"MISSISSAUGA 6.4 SSE - CANWARN, CAN","Latitude":"43.53417","Longitude":"-79.62089","Snowdepth":"2.400","Units":"in","Rept_Date":"2020-11-23 13"},"coordinates":[5583,3895]},{"type":"Point","properties":{"Station_ID":"CAN-NB-50","Station_Nam":"DOYLEVILLE 2.4 WNW, CAN","Latitude":"47.90803","Longitude":"-66.13279","Snowdepth":"2.400","Units":"in","Rept_Date":"2020-11-23 13"},"coordinates":[9858,7154]},{"type":"Point","properties":{"Station_ID":"SVBQ6","Station_Nam":"SAVANT BASE","Latitude":"50.28730","Longitude":"-90.65670","Snowdepth":"2.360","Units":"in","Rept_Date":"2020-11-24 06"},"coordinates":[2086,8926]},{"type":"Point","properties":{"Station_ID":"SOCQ6","Station_Nam":"SOCKET LAKE","Latitude":"50.77870","Longitude":"-91.79300","Snowdepth":"2.360","Units":"in","Rept_Date":"2020-11-24 06"},"coordinates":[1726,9293]},{"type":"Point","properties":{"Station_ID":"CAN-ON-699","Station_Nam":"DALHOUSIE MILLS, CAN","Latitude":"45.31670","Longitude":"-74.47120","Snowdepth":"2.200","Units":"in","Rept_Date":"2020-11-23 11"},"coordinates":[7215,5223]},{"type":"Point","properties":{"Station_ID":"MI-OK-121","Station_Nam":"LAKE ORION 1.1 ENE, MI","Latitude":"42.78680","Longitude":"-83.22323","Snowdepth":"2.100","Units":"in","Rept_Date":"2020-11-23 11"},"coordinates":[4442,3338]},{"type":"Point","properties":{"Station_ID":"WTNM4","Station_Nam":"WATTON 2WSW","Latitude":"46.52660","Longitude":"-88.64240","Snowdepth":"2.000","Units":"in","Rept_Date":"2020-11-23 13"},"coordinates":[2724,6124]},{"type":"Point","properties":{"Station_ID":"WRSM5","Station_Nam":"WRENSHALL","Latitude":"46.61550","Longitude":"-92.38380","Snowdepth":"2.000","Units":"in","Rept_Date":"2020-11-23 14"},"coordinates":[1539,6191]},{"type":"Point","properties":{"Station_ID":"WI-WB-2","Station_Nam":"STONE LAKE 2.0 NW, WI","Latitude":"45.85960","Longitude":"-91.57710","Snowdepth":"2.000","Units":"in","Rept_Date":"2020-11-23 13"},"coordinates":[1794,5628]},{"type":"Point","properties":{"Station_ID":"WI-VL-9","Station_Nam":"LAND O' LAKES 11.7 W, WI","Latitude":"46.19023","Longitude":"-89.45790","Snowdepth":"2.000","Units":"in","Rept_Date":"2020-11-23 12"},"coordinates":[2466,5874]},{"type":"Point","properties":{"Station_ID":"TOGM5","Station_Nam":"CELINA 2E","Latitude":"47.86630","Longitude":"-93.02660","Snowdepth":"2.000","Units":"in","Rept_Date":"2020-11-23 15"},"coordinates":[1335,7123]},{"type":"Point","properties":{"Station_ID":"PDGM4","Station_Nam":"PAULDING","Latitude":"46.39760","Longitude":"-89.17940","Snowdepth":"2.000","Units":"in","Rept_Date":"2020-11-23 13"},"coordinates":[2554,6028]},{"type":"Point","properties":{"Station_ID":"MN-SL-15","Station_Nam":"CHISHOLM 0.4 WSW, MN","Latitude":"47.48557","Longitude":"-92.88690","Snowdepth":"2.000","Units":"in","Rept_Date":"2020-11-23 13"},"coordinates":[1379,6839]},{"type":"Point","properties":{"Station_ID":"MN-CK-18","Station_Nam":"GRAND MARAIS 4.4 WSW, MN","Latitude":"47.74462","Longitude":"-90.43796","Snowdepth":"2.000","Units":"in","Rept_Date":"2020-11-23 13"},"coordinates":[2155,7032]},{"type":"Point","properties":{"Station_ID":"MI-WS-42","Station_Nam":"ANN ARBOR 4.5 W, MI","Latitude":"42.27814","Longitude":"-83.81884","Snowdepth":"2.000","Units":"in","Rept_Date":"2020-11-23 12"},"coordinates":[4253,2959]},{"type":"Point","properties":{"Station_ID":"MI-WS-41","Station_Nam":"ANN ARBOR 7.1 W, MI","Latitude":"42.26390","Longitude":"-83.86940","Snowdepth":"2.000","Units":"in","Rept_Date":"2020-11-23 12"},"coordinates":[4237,2949]},{"type":"Point","properties":{"Station_ID":"MI-MR-16","Station_Nam":"OTTAWA LAKE 1.4 SSW, MI","Latitude":"41.78278","Longitude":"-83.73895","Snowdepth":"2.000","Units":"in","Rept_Date":"2020-11-23 12"},"coordinates":[4278,2590]},{"type":"Point","properties":{"Station_ID":"MI-HG-20","Station_Nam":"CALUMET 1.1 SSW, MI","Latitude":"47.23165","Longitude":"-88.45823","Snowdepth":"2.000","Units":"in","Rept_Date":"2020-11-23 11"},"coordinates":[2783,6650]},{"type":"Point","properties":{"Station_ID":"LNOW3","Station_Nam":"LAND O LAKES","Latitude":"46.19000","Longitude":"-89.45700","Snowdepth":"2.000","Units":"in","Rept_Date":"2020-11-23 13"},"coordinates":[2466,5874]},{"type":"Point","properties":{"Station_ID":"LILM1","Station_Nam":"LILLE","Latitude":"47.27770","Longitude":"-68.10520","Snowdepth":"2.000","Units":"in","Rept_Date":"2020-11-23 12"},"coordinates":[9233,6684]},{"type":"Point","properties":{"Station_ID":"KSGM4","Station_Nam":"KEARSARGE","Latitude":"47.27520","Longitude":"-88.41700","Snowdepth":"2.000","Units":"in","Rept_Date":"2020-11-23 13"},"coordinates":[2796,6682]},{"type":"Point","properties":{"Station_ID":"HRVM4","Station_Nam":"HARVEY","Latitude":"46.49080","Longitude":"-87.35470","Snowdepth":"2.000","Units":"in","Rept_Date":"2020-11-23 13"},"coordinates":[3132,6098]},{"type":"Point","properties":{"Station_ID":"HERM4","Station_Nam":"HERMAN,MI","Latitude":"46.65000","Longitude":"-88.33330","Snowdepth":"2.000","Units":"in","Rept_Date":"2020-11-23 13"},"coordinates":[2822,6216]},{"type":"Point","properties":{"Station_ID":"DSXI4","Station_Nam":"DES MOINES SNOW","Latitude":"41.54130","Longitude":"-93.65570","Snowdepth":"2.000","Units":"in","Rept_Date":"2020-11-24 00"},"coordinates":[1135,2410]},{"type":"Point","properties":{"Station_ID":"DSM","Station_Nam":"DES MOINES INTERNATIONAL","Latitude":"41.53340","Longitude":"-93.66300","Snowdepth":"2.000","Units":"in","Rept_Date":"2020-11-24 00"},"coordinates":[1133,2404]},{"type":"Point","properties":{"Station_ID":"CRLM5","Station_Nam":"CROSS LAKE DAM","Latitude":"46.66930","Longitude":"-94.11060","Snowdepth":"2.000","Units":"in","Rept_Date":"2020-11-23 14"},"coordinates":[991,6231]},{"type":"Point","properties":{"Station_ID":"COTM5","Station_Nam":"COTTON","Latitude":"47.16870","Longitude":"-92.46290","Snowdepth":"2.000","Units":"in","Rept_Date":"2020-11-23 13"},"coordinates":[1513,6603]},{"type":"Point","properties":{"Station_ID":"COKM5","Station_Nam":"COOK","Latitude":"47.85060","Longitude":"-92.69250","Snowdepth":"2.000","Units":"in","Rept_Date":"2020-11-23 12"},"coordinates":[1441,7111]},{"type":"Point","properties":{"Station_ID":"CLKM4","Station_Nam":"CLARKSBURG","Latitude":"46.49910","Longitude":"-87.84500","Snowdepth":"2.000","Units":"in","Rept_Date":"2020-11-23 12"},"coordinates":[2977,6104]},{"type":"Point","properties":{"Station_ID":"CAN-ON-5","Station_Nam":"OWEN SOUND 1.5 NW - GSCA, CAN","Latitude":"44.57837","Longitude":"-80.95461","Snowdepth":"2.000","Units":"in","Rept_Date":"2020-11-23 13"},"coordinates":[5161,4673]},{"type":"Point","properties":{"Station_ID":"BRUM5","Station_Nam":"BRUNO,MN","Latitude":"46.28330","Longitude":"-92.50000","Snowdepth":"2.000","Units":"in","Rept_Date":"2020-11-23 14"},"coordinates":[1502,5943]},{"type":"Point","properties":{"Station_ID":"BRAM5","Station_Nam":"BRAINERD","Latitude":"46.34320","Longitude":"-94.20900","Snowdepth":"2.000","Units":"in","Rept_Date":"2020-11-23 13"},"coordinates":[960,5988]},{"type":"Point","properties":{"Station_ID":"BNDM5","Station_Nam":"ELY 25E","Latitude":"47.97190","Longitude":"-91.44860","Snowdepth":"2.000","Units":"in","Rept_Date":"2020-11-23 13"},"coordinates":[1835,7201]},{"type":"Point","properties":{"Station_ID":"BBEM4","Station_Nam":"BIG BAY 9SW","Latitude":"46.74620","Longitude":"-87.88160","Snowdepth":"2.000","Units":"in","Rept_Date":"2020-11-23 13"},"coordinates":[2965,6288]},{"type":"Point","properties":{"Station_ID":"AMAM4","Station_Nam":"AMASA 1W","Latitude":"46.23470","Longitude":"-88.45440","Snowdepth":"2.000","Units":"in","Rept_Date":"2020-11-23 14"},"coordinates":[2784,5907]},{"type":"Point","properties":{"Station_ID":"CAN-ON-771","Station_Nam":"KENORA 8.7 NNE - CANWARN, CAN","Latitude":"49.84171","Longitude":"-94.44386","Snowdepth":"1.700","Units":"in","Rept_Date":"2020-11-23 13"},"coordinates":[886,8594]},{"type":"Point","properties":{"Station_ID":"WI-SR-1","Station_Nam":"HAYWARD 9.2 NNE, WI","Latitude":"46.13255","Longitude":"-91.40500","Snowdepth":"1.500","Units":"in","Rept_Date":"2020-11-23 12"},"coordinates":[1849,5831]},{"type":"Point","properties":{"Station_ID":"WI-IR-3","Station_Nam":"PENCE 0.1 E, WI","Latitude":"46.41555","Longitude":"-90.27013","Snowdepth":"1.500","Units":"in","Rept_Date":"2020-11-23 13"},"coordinates":[2208,6042]},{"type":"Point","properties":{"Station_ID":"MN-SL-115","Station_Nam":"COTTON 5.7 ESE, MN","Latitude":"47.15142","Longitude":"-92.35772","Snowdepth":"1.500","Units":"in","Rept_Date":"2020-11-23 14"},"coordinates":[1547,6590]},{"type":"Point","properties":{"Station_ID":"MN-CK-6","Station_Nam":"GRAND MARAIS 4.4 W, MN","Latitude":"47.74865","Longitude":"-90.43760","Snowdepth":"1.500","Units":"in","Rept_Date":"2020-11-23 12"},"coordinates":[2155,7035]},{"type":"Point","properties":{"Station_ID":"MI-BG-3","Station_Nam":"THREE LAKES, MI","Latitude":"46.55730","Longitude":"-88.20770","Snowdepth":"1.500","Units":"in","Rept_Date":"2020-11-23 13"},"coordinates":[2862,6147]},{"type":"Point","properties":{"Station_ID":"CAN-ON-819","Station_Nam":"TOLEDO 4.0 SW, CAN","Latitude":"44.71343","Longitude":"-76.02967","Snowdepth":"1.500","Units":"in","Rept_Date":"2020-11-23 12"},"coordinates":[6721,4774]},{"type":"Point","properties":{"Station_ID":"CAN-ON-103","Station_Nam":"CALEDONIA 12.4 NW, CA","Latitude":"43.14246","Longitude":"-80.06960","Snowdepth":"1.500","Units":"in","Rept_Date":"2020-11-23 12"},"coordinates":[5441,3603]},{"type":"Point","properties":{"Station_ID":"WI-BY-2","Station_Nam":"MELLEN 18.6 SW, WI","Latitude":"46.16937","Longitude":"-90.98090","Snowdepth":"1.300","Units":"in","Rept_Date":"2020-11-23 13"},"coordinates":[1983,5858]},{"type":"Point","properties":{"Station_ID":"MI-GN-29","Station_Nam":"DAVISON 5.2 N, MI","Latitude":"43.10778","Longitude":"-83.51137","Snowdepth":"1.200","Units":"in","Rept_Date":"2020-11-23 14"},"coordinates":[4350,3577]},{"type":"Point","properties":{"Station_ID":"IN-WY-27","Station_Nam":"COLUMBIA CITY 7.4 N, IN","Latitude":"41.26440","Longitude":"-85.50470","Snowdepth":"1.200","Units":"in","Rept_Date":"2020-11-23 12"},"coordinates":[3719,2204]},{"type":"Point","properties":{"Station_ID":"CAN-ON-63","Station_Nam":"FISHERVILLE 5.7 SSW, CA","Latitude":"42.83389","Longitude":"-79.92980","Snowdepth":"1.200","Units":"in","Rept_Date":"2020-11-23 12"},"coordinates":[5485,3373]},{"type":"Point","properties":{"Station_ID":"CAN-ON-477","Station_Nam":"CALEDONIA 0.3 NW - GRCA, CAN","Latitude":"43.07135","Longitude":"-79.95667","Snowdepth":"1.200","Units":"in","Rept_Date":"2020-11-23 12"},"coordinates":[5477,3550]},{"type":"Point","properties":{"Station_ID":"WI-IR-4","Station_Nam":"MERCER 7.0 NNE, WI","Latitude":"46.26677","Longitude":"-90.03360","Snowdepth":"1.100","Units":"in","Rept_Date":"2020-11-23 13"},"coordinates":[2283,5931]},{"type":"Point","properties":{"Station_ID":"CAN-NB-38","Station_Nam":"GRAND FALLS 2.2 NE, CA","Latitude":"47.05701","Longitude":"-67.72630","Snowdepth":"1.100","Units":"in","Rept_Date":"2020-11-23 11"},"coordinates":[9353,6520]},{"type":"Point","properties":{"Station_ID":"WRUM5","Station_Nam":"WARROAD 4W","Latitude":"48.89600","Longitude":"-95.40700","Snowdepth":"1.000","Units":"in","Rept_Date":"2020-11-24 04"},"coordinates":[580,7890]},{"type":"Point","properties":{"Station_ID":"WI-VL-14","Station_Nam":"BOULDER JUNCTION 1.4 NE, WI","Latitude":"46.12840","Longitude":"-89.62470","Snowdepth":"1.000","Units":"in","Rept_Date":"2020-11-23 13"},"coordinates":[2413,5828]},{"type":"Point","properties":{"Station_ID":"WI-IR-2","Station_Nam":"MERCER 2.0 SE, WI","Latitude":"46.14749","Longitude":"-90.03097","Snowdepth":"1.000","Units":"in","Rept_Date":"2020-11-23 13"},"coordinates":[2284,5842]},{"type":"Point","properties":{"Station_ID":"WI-DG-20","Station_Nam":"SOLON SPRINGS 1.2 W, WI","Latitude":"46.35217","Longitude":"-91.84405","Snowdepth":"1.000","Units":"in","Rept_Date":"2020-11-23 13"},"coordinates":[1710,5995]},{"type":"Point","properties":{"Station_ID":"VANM1","Station_Nam":"VAN BUREN","Latitude":"47.16600","Longitude":"-67.93900","Snowdepth":"1.000","Units":"in","Rept_Date":"2020-11-23 12"},"coordinates":[9285,6601]},{"type":"Point","properties":{"Station_ID":"UBSI4","Station_Nam":"JOHNSTON","Latitude":"41.68140","Longitude":"-93.75240","Snowdepth":"1.000","Units":"in","Rept_Date":"2020-11-24 00"},"coordinates":[1105,2515]},{"type":"Point","properties":{"Station_ID":"SUAW3","Station_Nam":"SUAMICO","Latitude":"44.60190","Longitude":"-88.09780","Snowdepth":"1.000","Units":"in","Rept_Date":"2020-11-23 12"},"coordinates":[2897,4690]},{"type":"Point","properties":{"Station_ID":"STMM4","Station_Nam":"STAMBAUGH 2SSE","Latitude":"46.05550","Longitude":"-88.62780","Snowdepth":"1.000","Units":"in","Rept_Date":"2020-11-23 13"},"coordinates":[2729,5774]},{"type":"Point","properties":{"Station_ID":"SSMM4","Station_Nam":"SAULT STE MARIE","Latitude":"46.48660","Longitude":"-84.40250","Snowdepth":"1.000","Units":"in","Rept_Date":"2020-11-23 13"},"coordinates":[4068,6095]},{"type":"Point","properties":{"Station_ID":"SEBM5","Station_Nam":"SEBEKA","Latitude":"46.62540","Longitude":"-95.09670","Snowdepth":"1.000","Units":"in","Rept_Date":"2020-11-23 13"},"coordinates":[679,6198]},{"type":"Point","properties":{"Station_ID":"RICM4","Station_Nam":"RICHMOND 4 NNW","Latitude":"42.87830","Longitude":"-82.79580","Snowdepth":"1.000","Units":"in","Rept_Date":"2020-11-23 13"},"coordinates":[4577,3406]},{"type":"Point","properties":{"Station_ID":"PRDM4","Station_Nam":"PARADISE","Latitude":"46.60380","Longitude":"-85.03960","Snowdepth":"1.000","Units":"in","Rept_Date":"2020-11-23 11"},"coordinates":[3866,6182]},{"type":"Point","properties":{"Station_ID":"PBAN8","Station_Nam":"SITE 1-3MI.N","Latitude":"48.97420","Longitude":"-97.23860","Snowdepth":"1.000","Units":"in","Rept_Date":"2020-11-23 13"},"coordinates":[0,7948]},{"type":"Point","properties":{"Station_ID":"OH-HY-9","Station_Nam":"NAPOLEON 4.5 NNW, OH","Latitude":"41.45702","Longitude":"-84.14961","Snowdepth":"1.000","Units":"in","Rept_Date":"2020-11-23 12"},"coordinates":[4148,2347]},{"type":"Point","properties":{"Station_ID":"MRIM4","Station_Nam":"MORENCI,MI","Latitude":"41.71670","Longitude":"-84.20000","Snowdepth":"1.000","Units":"in","Rept_Date":"2020-11-23 12"},"coordinates":[4132,2541]},{"type":"Point","properties":{"Station_ID":"MQT","Station_Nam":"MARQUETTE, MI","Latitude":"46.53140","Longitude":"-87.54920","Snowdepth":"1.000","Units":"in","Rept_Date":"2020-11-24 06"},"coordinates":[3071,6128]},{"type":"Point","properties":{"Station_ID":"MN-SL-108","Station_Nam":"IRON JUNCTION 3.4 NNW, MN","Latitude":"47.46150","Longitude":"-92.63130","Snowdepth":"1.000","Units":"in","Rept_Date":"2020-11-23 13"},"coordinates":[1460,6821]},{"type":"Point","properties":{"Station_ID":"MN-CW-22","Station_Nam":"FORT RIPLEY 0.8 N, MN","Latitude":"46.18089","Longitude":"-94.36510","Snowdepth":"1.000","Units":"in","Rept_Date":"2020-11-23 13"},"coordinates":[911,5867]},{"type":"Point","properties":{"Station_ID":"MN-CK-3","Station_Nam":"TOFTE 4.9 NE, MN","Latitude":"47.62394","Longitude":"-90.76100","Snowdepth":"1.000","Units":"in","Rept_Date":"2020-11-23 13"},"coordinates":[2053,6942]},{"type":"Point","properties":{"Station_ID":"MN-AT-5","Station_Nam":"TAMARACK 1.4 SW, MN","Latitude":"46.63760","Longitude":"-93.14554","Snowdepth":"1.000","Units":"in","Rept_Date":"2020-11-23 13"},"coordinates":[1297,6207]},{"type":"Point","properties":{"Station_ID":"MLCM5","Station_Nam":"MILACA","Latitude":"45.75320","Longitude":"-93.66170","Snowdepth":"1.000","Units":"in","Rept_Date":"2020-11-23 13"},"coordinates":[1134,5548]},{"type":"Point","properties":{"Station_ID":"MIEM4","Station_Nam":"MICHIGAMME 3WNW","Latitude":"46.54530","Longitude":"-88.18000","Snowdepth":"1.000","Units":"in","Rept_Date":"2020-11-23 13"},"coordinates":[2871,6138]},{"type":"Point","properties":{"Station_ID":"MI-WS-53","Station_Nam":"CHELSEA 3.7 NNE, MI","Latitude":"42.36360","Longitude":"-83.99330","Snowdepth":"1.000","Units":"in","Rept_Date":"2020-11-23 13"},"coordinates":[4198,3023]},{"type":"Point","properties":{"Station_ID":"MI-SC-3","Station_Nam":"PORT HURON 1.6 W, MI","Latitude":"42.99617","Longitude":"-82.46430","Snowdepth":"1.000","Units":"in","Rept_Date":"2020-11-23 14"},"coordinates":[4682,3494]},{"type":"Point","properties":{"Station_ID":"MI-MQ-28","Station_Nam":"CARLSHEND, MI","Latitude":"46.31638","Longitude":"-87.19944","Snowdepth":"1.000","Units":"in","Rept_Date":"2020-11-23 13"},"coordinates":[3182,5968]},{"type":"Point","properties":{"Station_ID":"MI-MQ-2","Station_Nam":"MARQUETTE 6.5 SSE, MI","Latitude":"46.46461","Longitude":"-87.34064","Snowdepth":"1.000","Units":"in","Rept_Date":"2020-11-23 13"},"coordinates":[3137,6078]},{"type":"Point","properties":{"Station_ID":"MI-MQ-19","Station_Nam":"ISHPEMING 7.2 SW, MI","Latitude":"46.40550","Longitude":"-87.75670","Snowdepth":"1.000","Units":"in","Rept_Date":"2020-11-23 11"},"coordinates":[3005,6034]},{"type":"Point","properties":{"Station_ID":"MI-LV-15","Station_Nam":"PINCKNEY 3.4 NW, MI","Latitude":"42.48156","Longitude":"-84.00330","Snowdepth":"1.000","Units":"in","Rept_Date":"2020-11-23 13"},"coordinates":[4194,3111]},{"type":"Point","properties":{"Station_ID":"MI-HG-1","Station_Nam":"HOUGHTON 1.6 ESE, MI","Latitude":"47.10774","Longitude":"-88.52940","Snowdepth":"1.000","Units":"in","Rept_Date":"2020-11-23 13"},"coordinates":[2760,6557]},{"type":"Point","properties":{"Station_ID":"MI-AG-6","Station_Nam":"MUNISING 11.1 SSW, MI","Latitude":"46.27805","Longitude":"-86.75747","Snowdepth":"1.000","Units":"in","Rept_Date":"2020-11-23 12"},"coordinates":[3322,5939]},{"type":"Point","properties":{"Station_ID":"MCHM4","Station_Nam":"MANCHESTER,MI","Latitude":"42.15000","Longitude":"-84.01670","Snowdepth":"1.000","Units":"in","Rept_Date":"2020-11-23 12"},"coordinates":[4190,2864]},{"type":"Point","properties":{"Station_ID":"LPEM4","Station_Nam":"LAPEER,MI","Latitude":"43.06280","Longitude":"-83.33330","Snowdepth":"1.000","Units":"in","Rept_Date":"2020-11-23 15"},"coordinates":[4407,3544]},{"type":"Point","properties":{"Station_ID":"KDSM","Station_Nam":"DES MOINES INTERNATIONAL","Latitude":"41.53333","Longitude":"-93.66666","Snowdepth":"1.000","Units":"in","Rept_Date":"2020-11-24 06"},"coordinates":[1132,2404]},{"type":"Point","properties":{"Station_ID":"IWOM4","Station_Nam":"IRONWOOD#2","Latitude":"46.46520","Longitude":"-90.13820","Snowdepth":"1.000","Units":"in","Rept_Date":"2020-11-23 13"},"coordinates":[2250,6079]},{"type":"Point","properties":{"Station_ID":"ISEM5","Station_Nam":"ISLE 12N","Latitude":"46.31970","Longitude":"-93.50140","Snowdepth":"1.000","Units":"in","Rept_Date":"2020-11-23 14"},"coordinates":[1184,5970]},{"type":"Point","properties":{"Station_ID":"IRMM4","Station_Nam":"WWTP","Latitude":"46.46670","Longitude":"-90.18330","Snowdepth":"1.000","Units":"in","Rept_Date":"2020-11-23 13"},"coordinates":[2236,6080]},{"type":"Point","properties":{"Station_ID":"IN-SN-5","Station_Nam":"HAMILTON 1.7 E, IN","Latitude":"41.53241","Longitude":"-84.88530","Snowdepth":"1.000","Units":"in","Rept_Date":"2020-11-23 12"},"coordinates":[3915,2404]},{"type":"Point","properties":{"Station_ID":"HURW3","Station_Nam":"HURLEY","Latitude":"46.46250","Longitude":"-90.19550","Snowdepth":"1.000","Units":"in","Rept_Date":"2020-11-23 14"},"coordinates":[2232,6077]},{"type":"Point","properties":{"Station_ID":"HUBN3","Station_Nam":"HUBBARD BROOK","Latitude":"43.93330","Longitude":"-71.71670","Snowdepth":"1.000","Units":"in","Rept_Date":"2020-11-24 06"},"coordinates":[8088,4192]},{"type":"Point","properties":{"Station_ID":"GNLM4","Station_Nam":"GREENLAND 6N","Latitude":"46.87360","Longitude":"-89.10060","Snowdepth":"1.000","Units":"in","Rept_Date":"2020-11-23 13"},"coordinates":[2579,6383]},{"type":"Point","properties":{"Station_ID":"EVRW3","Station_Nam":"EAGLE RIVER-4 E","Latitude":"45.91890","Longitude":"-89.15280","Snowdepth":"1.000","Units":"in","Rept_Date":"2020-11-23 13"},"coordinates":[2563,5672]},{"type":"Point","properties":{"Station_ID":"EMBM5","Station_Nam":"EMBARASS,MN","Latitude":"47.65810","Longitude":"-92.19580","Snowdepth":"1.000","Units":"in","Rept_Date":"2020-11-23 12"},"coordinates":[1598,6968]},{"type":"Point","properties":{"Station_ID":"ELYM5","Station_Nam":"ELY","Latitude":"47.90560","Longitude":"-91.82830","Snowdepth":"1.000","Units":"in","Rept_Date":"2020-11-23 14"},"coordinates":[1715,7152]},{"type":"Point","properties":{"Station_ID":"EGRW3","Station_Nam":"EAGLE RIVER-SOUTH","Latitude":"45.91360","Longitude":"-89.24360","Snowdepth":"1.000","Units":"in","Rept_Date":"2020-11-23 13"},"coordinates":[2534,5668]},{"type":"Point","properties":{"Station_ID":"DMX","Station_Nam":"DES MOINES, IA","Latitude":"41.73610","Longitude":"-93.72330","Snowdepth":"1.000","Units":"in","Rept_Date":"2020-11-24 06"},"coordinates":[1114,2555]},{"type":"Point","properties":{"Station_ID":"COUW3","Station_Nam":"COUDERAY,WI","Latitude":"45.86670","Longitude":"-91.45000","Snowdepth":"1.000","Units":"in","Rept_Date":"2020-11-23 22"},"coordinates":[1834,5633]},{"type":"Point","properties":{"Station_ID":"CMKW3","Station_Nam":"CLAM LAKE 4W","Latitude":"46.16940","Longitude":"-90.98080","Snowdepth":"1.000","Units":"in","Rept_Date":"2020-11-23 13"},"coordinates":[1983,5858]},{"type":"Point","properties":{"Station_ID":"CEFM4","Station_Nam":"EXPERIMENT FARM #2","Latitude":"46.33330","Longitude":"-86.91670","Snowdepth":"1.000","Units":"in","Rept_Date":"2020-11-23 13"},"coordinates":[3271,5980]},{"type":"Point","properties":{"Station_ID":"CARM1","Station_Nam":"CARIBOU WFO","Latitude":"46.86810","Longitude":"-68.01250","Snowdepth":"1.000","Units":"in","Rept_Date":"2020-11-23 12"},"coordinates":[9262,6379]},{"type":"Point","properties":{"Station_ID":"CAR","Station_Nam":"CARIBOU, ME","Latitude":"46.86830","Longitude":"-68.01360","Snowdepth":"1.000","Units":"in","Rept_Date":"2020-11-23 12"},"coordinates":[9262,6379]},{"type":"Point","properties":{"Station_ID":"CAN-ON-42","Station_Nam":"VANKLEEK HILL 3.4 S, CA","Latitude":"45.48987","Longitude":"-74.64570","Snowdepth":"1.000","Units":"in","Rept_Date":"2020-11-23 12"},"coordinates":[7160,5352]},{"type":"Point","properties":{"Station_ID":"CAN-ON-203","Station_Nam":"LUCKNOW 1.5 NNE - MVCA, CAN","Latitude":"43.97350","Longitude":"-81.50764","Snowdepth":"1.000","Units":"in","Rept_Date":"2020-11-23 13"},"coordinates":[4985,4222]},{"type":"Point","properties":{"Station_ID":"CAN-ON-192","Station_Nam":"STRATHROY 14.9 SSW, CAN","Latitude":"42.84097","Longitude":"-81.70844","Snowdepth":"1.000","Units":"in","Rept_Date":"2020-11-23 13"},"coordinates":[4922,3379]},{"type":"Point","properties":{"Station_ID":"CAN-NB-13","Station_Nam":"BATHURST 3.8 NW, CAN","Latitude":"47.64212","Longitude":"-65.68756","Snowdepth":"1.000","Units":"in","Rept_Date":"2020-11-23 11"},"coordinates":[9999,6956]},{"type":"Point","properties":{"Station_ID":"CAN-MB-298","Station_Nam":"GARDENTON 4.2 W - SRRCD, CAN","Latitude":"49.09480","Longitude":"-96.75446","Snowdepth":"1.000","Units":"in","Rept_Date":"2020-11-23 13"},"coordinates":[153,8038]},{"type":"Point","properties":{"Station_ID":"BUNM4","Station_Nam":"BURTON 4N","Latitude":"43.06750","Longitude":"-83.59190","Snowdepth":"1.000","Units":"in","Rept_Date":"2020-11-23 12"},"coordinates":[4325,3547]},{"type":"Point","properties":{"Station_ID":"BKBW2","Station_Nam":"DAVIS.","Latitude":"39.09830","Longitude":"-79.43190","Snowdepth":"1.000","Units":"in","Rept_Date":"2020-11-23 12"},"coordinates":[5643,590]},{"type":"Point","properties":{"Station_ID":"BGBM4","Station_Nam":"BIG BAY 1NW","Latitude":"46.83250","Longitude":"-87.75040","Snowdepth":"1.000","Units":"in","Rept_Date":"2020-11-23 13"},"coordinates":[3007,6352]},{"type":"Point","properties":{"Station_ID":"BDAM4","Station_Nam":"BAD AXE,MI","Latitude":"43.81670","Longitude":"-83.00000","Snowdepth":"1.000","Units":"in","Rept_Date":"2020-11-23 13"},"coordinates":[4512,4105]},{"type":"Point","properties":{"Station_ID":"ANQI3","Station_Nam":"ANGOLA,IN","Latitude":"41.63970","Longitude":"-84.99000","Snowdepth":"1.000","Units":"in","Rept_Date":"2020-11-23 11"},"coordinates":[3882,2483]},{"type":"Point","properties":{"Station_ID":"ANJ","Station_Nam":"SAULT STE MARIE","Latitude":"46.46670","Longitude":"-84.36670","Snowdepth":"1.000","Units":"in","Rept_Date":"2020-11-23 12"},"coordinates":[4079,6080]},{"type":"Point","properties":{"Station_ID":"AASM4","Station_Nam":"ANN ARBOR SE","Latitude":"42.24160","Longitude":"-83.69330","Snowdepth":"1.000","Units":"in","Rept_Date":"2020-11-23 12"},"coordinates":[4293,2932]}]}},"arcs":[],"transform":{"scale":[0.0031554195419541955,0.0013421842184218426],"translate":[-97.2386,38.3064]}}
