{"type":"Topology","objects":{"snowdepth_geo":{"type":"GeometryCollection","geometries":[{"type":"Point","coordinates":[-72.8154,44.5248],"properties":{"Station_ID":"MMNV1","Station_Nam":"MT. MANSFIELD","Latitude":"44.52480","Longitude":"-72.81540","Snowdepth":"98.000","Units":"in","Rept_Date":"2025-02-27 21"}},{"type":"Point","coordinates":[-86.62,46.4258],"properties":{"Station_ID":"PRKM4","Station_Nam":"MUNISING EAST","Latitude":"46.42580","Longitude":"-86.62000","Snowdepth":"76.500","Units":"in","Rept_Date":"2025-02-28 06"}},{"type":"Point","coordinates":[-75.5384,43.37335],"properties":{"Station_ID":"NY-OD-2","Station_Nam":"POINT ROCK 0.6 SE, NY","Latitude":"43.37335","Longitude":"-75.53840","Snowdepth":"51.000","Units":"in","Rept_Date":"2025-02-27 13"}},{"type":"Point","coordinates":[-71.2833,44.2613],"properties":{"Station_ID":"HTLN3","Station_Nam":"HERMIT LAKE SNOWPLOT","Latitude":"44.26130","Longitude":"-71.28330","Snowdepth":"50.000","Units":"in","Rept_Date":"2025-02-27 10"}},{"type":"Point","coordinates":[-71.1955,44.2594],"properties":{"Station_ID":"CRNN3","Station_Nam":"CARTER NOTCH","Latitude":"44.25940","Longitude":"-71.19550","Snowdepth":"43.000","Units":"in","Rept_Date":"2025-02-27 12"}},{"type":"Point","coordinates":[-75.5543,43.6051],"properties":{"Station_ID":"HGHN6","Station_Nam":"HIGHMARKET","Latitude":"43.60510","Longitude":"-75.55430","Snowdepth":"41.000","Units":"in","Rept_Date":"2025-02-27 11"}},{"type":"Point","coordinates":[-86.6625,46.4121],"properties":{"Station_ID":"MNSM4","Station_Nam":"MUNISING","Latitude":"46.41210","Longitude":"-86.66250","Snowdepth":"37.000","Units":"in","Rept_Date":"2025-02-27 12"}},{"type":"Point","coordinates":[-75.3697,43.4361],"properties":{"Station_ID":"BOON6","Station_Nam":"BOONVILLE 4 SSW","Latitude":"43.43610","Longitude":"-75.36970","Snowdepth":"37.000","Units":"in","Rept_Date":"2025-02-27 12"}},{"type":"Point","coordinates":[-88.6717,47.0416],"properties":{"Station_ID":"PDLM4","Station_Nam":"PAINESDALE","Latitude":"47.04160","Longitude":"-88.67170","Snowdepth":"36.000","Units":"in","Rept_Date":"2025-02-27 13"}},{"type":"Point","coordinates":[-74.8088,43.1626],"properties":{"Station_ID":"NY-HR-18","Station_Nam":"SALISBURY CENTER 1.8 NW, NY","Latitude":"43.16260","Longitude":"-74.80880","Snowdepth":"36.000","Units":"in","Rept_Date":"2025-02-27 12"}},{"type":"Point","coordinates":[-74.2064,48.855],"properties":{"Station_ID":"CQGO","Station_Nam":"CQGO","Latitude":"48.85500","Longitude":"-74.20640","Snowdepth":"35.905","Units":"in","Rept_Date":"2025-02-27 12"}},{"type":"Point","coordinates":[-71.4944,44.1959],"properties":{"Station_ID":"ZFHN3","Station_Nam":"ZEALAND FALLS HUT","Latitude":"44.19590","Longitude":"-71.49440","Snowdepth":"35.000","Units":"in","Rept_Date":"2025-02-27 12"}},{"type":"Point","coordinates":[-75.7217,43.5037],"properties":{"Station_ID":"OCON6","Station_Nam":"OSCEOLA","Latitude":"43.50370","Longitude":"-75.72170","Snowdepth":"35.000","Units":"in","Rept_Date":"2025-02-27 12"}},{"type":"Point","coordinates":[-72.28,44.631],"properties":{"Station_ID":"VT-OL-12","Station_Nam":"GREENSBORO 3.9 NNE, VT","Latitude":"44.63100","Longitude":"-72.28000","Snowdepth":"34.500","Units":"in","Rept_Date":"2025-02-27 12"}},{"type":"Point","coordinates":[-72.8333,44.5333],"properties":{"Station_ID":"MMSV1","Station_Nam":"MOUNT MANSFIELD","Latitude":"44.53330","Longitude":"-72.83330","Snowdepth":"34.000","Units":"in","Rept_Date":"2025-02-28 06"}},{"type":"Point","coordinates":[-71.7031,44.1382],"properties":{"Station_ID":"LLHN3","Station_Nam":"LONESOME LAKE HUT","Latitude":"44.13820","Longitude":"-71.70310","Snowdepth":"34.000","Units":"in","Rept_Date":"2025-02-27 12"}},{"type":"Point","coordinates":[-71.3093,44.3326],"properties":{"Station_ID":"GKBN3","Station_Nam":"GRAY KNOB","Latitude":"44.33260","Longitude":"-71.30930","Snowdepth":"34.000","Units":"in","Rept_Date":"2025-02-27 12"}},{"type":"Point","coordinates":[-69.6747,50.7925],"properties":{"Station_ID":"CQOU","Station_Nam":"CQOU","Latitude":"50.79250","Longitude":"-69.67470","Snowdepth":"31.260","Units":"in","Rept_Date":"2025-02-27 12"}},{"type":"Point","coordinates":[-76.2693,43.3314],"properties":{"Station_ID":"PLMN6","Station_Nam":"PALERMO 2SSE","Latitude":"43.33140","Longitude":"-76.26930","Snowdepth":"31.000","Units":"in","Rept_Date":"2025-02-27 12"}},{"type":"Point","coordinates":[-76.27,43.331],"properties":{"Station_ID":"NY-OS-16","Station_Nam":"PHOENIX 7.0 NNE, NY","Latitude":"43.33100","Longitude":"-76.27000","Snowdepth":"31.000","Units":"in","Rept_Date":"2025-02-27 11"}},{"type":"Point","coordinates":[-76.2656,43.4383],"properties":{"Station_ID":"MXON6","Station_Nam":"MEXICO","Latitude":"43.43830","Longitude":"-76.26560","Snowdepth":"30.000","Units":"in","Rept_Date":"2025-02-27 12"}},{"type":"Point","coordinates":[-73.9839,44.3042],"properties":{"Station_ID":"LPLN6","Station_Nam":"LAKE PLACID 2 S","Latitude":"44.30420","Longitude":"-73.98390","Snowdepth":"30.000","Units":"in","Rept_Date":"2025-02-27 14"}},{"type":"Point","coordinates":[-76.2657,43.4383],"properties":{"Station_ID":"NY-OS-38","Station_Nam":"MEXICO COOP, NY","Latitude":"43.43830","Longitude":"-76.26570","Snowdepth":"29.500","Units":"in","Rept_Date":"2025-02-27 12"}},{"type":"Point","coordinates":[-73.8067,47.8461],"properties":{"Station_ID":"CQWE","Station_Nam":"CQWE","Latitude":"47.84610","Longitude":"-73.80670","Snowdepth":"29.252","Units":"in","Rept_Date":"2025-02-27 12"}},{"type":"Point","coordinates":[-75.1,50.7236],"properties":{"Station_ID":"CQLB","Station_Nam":"CQLB","Latitude":"50.72360","Longitude":"-75.10000","Snowdepth":"29.252","Units":"in","Rept_Date":"2025-02-27 12"}},{"type":"Point","coordinates":[-72.4435,44.8916],"properties":{"Station_ID":"VT-OL-1","Station_Nam":"WESTFIELD 0.7 WNW, VT","Latitude":"44.89160","Longitude":"-72.44350","Snowdepth":"29.000","Units":"in","Rept_Date":"2025-02-27 13"}},{"type":"Point","coordinates":[-73.0333,43.05],"properties":{"Station_ID":"LBKV1","Station_Nam":"LYE BROOK","Latitude":"43.05000","Longitude":"-73.03330","Snowdepth":"29.000","Units":"in","Rept_Date":"2025-02-28 06"}},{"type":"Point","coordinates":[-67.6264,49.6472],"properties":{"Station_ID":"CQGT","Station_Nam":"CQGT","Latitude":"49.64720","Longitude":"-67.62640","Snowdepth":"28.268","Units":"in","Rept_Date":"2025-02-27 12"}},{"type":"Point","coordinates":[-68.8236,50.6617],"properties":{"Station_ID":"CMLZ","Station_Nam":"CMLZ","Latitude":"50.66170","Longitude":"-68.82360","Snowdepth":"28.228","Units":"in","Rept_Date":"2025-02-27 12"}},{"type":"Point","coordinates":[-73.02,42.82],"properties":{"Station_ID":"VT-BN-12","Station_Nam":"STAMFORD 5.0 NNE, VT","Latitude":"42.82000","Longitude":"-73.02000","Snowdepth":"28.000","Units":"in","Rept_Date":"2025-02-27 21"}},{"type":"Point","coordinates":[-69.3569,49.66],"properties":{"Station_ID":"CQTV","Station_Nam":"CQTV","Latitude":"49.66000","Longitude":"-69.35690","Snowdepth":"27.795","Units":"in","Rept_Date":"2025-02-27 12"}},{"type":"Point","coordinates":[-71.8912,44.6425],"properties":{"Station_ID":"EAHV1","Station_Nam":"EAST HAVEN","Latitude":"44.64250","Longitude":"-71.89120","Snowdepth":"27.000","Units":"in","Rept_Date":"2025-02-27 12"}},{"type":"Point","coordinates":[-71.4127,44.2196],"properties":{"Station_ID":"CAWN3","Station_Nam":"CRAWFORD NOTCH","Latitude":"44.21960","Longitude":"-71.41270","Snowdepth":"27.000","Units":"in","Rept_Date":"2025-02-27 12"}},{"type":"Point","coordinates":[-76.5983,47.8275],"properties":{"Station_ID":"CQCU","Station_Nam":"CQCU","Latitude":"47.82750","Longitude":"-76.59830","Snowdepth":"26.772","Units":"in","Rept_Date":"2025-02-27 12"}},{"type":"Point","coordinates":[-91.793,50.7787],"properties":{"Station_ID":"SOCQ6","Station_Nam":"SOCKET LAKE","Latitude":"50.77870","Longitude":"-91.79300","Snowdepth":"26.420","Units":"in","Rept_Date":"2025-02-28 06"}},{"type":"Point","coordinates":[-67.1394,51.1114],"properties":{"Station_ID":"CQGD","Station_Nam":"CQGD","Latitude":"51.11140","Longitude":"-67.13940","Snowdepth":"26.378","Units":"in","Rept_Date":"2025-02-27 12"}},{"type":"Point","coordinates":[-70.4719,50.1033],"properties":{"Station_ID":"CQMA","Station_Nam":"CQMA","Latitude":"50.10330","Longitude":"-70.47190","Snowdepth":"26.339","Units":"in","Rept_Date":"2025-02-27 12"}},{"type":"Point","coordinates":[-74.4039,50.8328],"properties":{"Station_ID":"CQFT","Station_Nam":"CQFT","Latitude":"50.83280","Longitude":"-74.40390","Snowdepth":"26.220","Units":"in","Rept_Date":"2025-02-27 12"}},{"type":"Point","coordinates":[-72.56234,44.87663],"properties":{"Station_ID":"VT-FR-30","Station_Nam":"MONTGOMERY 4.1 ESE, VT","Latitude":"44.87663","Longitude":"-72.56234","Snowdepth":"26.000","Units":"in","Rept_Date":"2025-02-27 12"}},{"type":"Point","coordinates":[-88.2077,46.5573],"properties":{"Station_ID":"MI-BG-3","Station_Nam":"THREE LAKES, MI","Latitude":"46.55730","Longitude":"-88.20770","Snowdepth":"25.500","Units":"in","Rept_Date":"2025-02-27 13"}},{"type":"Point","coordinates":[-79.81035,44.50564],"properties":{"Station_ID":"CAN-ON-245","Station_Nam":"PHELPSTON 3.1 ESE, CAN","Latitude":"44.50564","Longitude":"-79.81035","Snowdepth":"25.500","Units":"in","Rept_Date":"2025-02-27 12"}},{"type":"Point","coordinates":[-70.0806,51.3283],"properties":{"Station_ID":"CQCX","Station_Nam":"CQCX","Latitude":"51.32830","Longitude":"-70.08060","Snowdepth":"25.276","Units":"in","Rept_Date":"2025-02-27 12"}},{"type":"Point","coordinates":[-84.28515,46.50299],"properties":{"Station_ID":"CAN-ON-915","Station_Nam":"SAULT STE. MARIE 3.9 ESE, CAN","Latitude":"46.50299","Longitude":"-84.28515","Snowdepth":"25.200","Units":"in","Rept_Date":"2025-02-27 13"}},{"type":"Point","coordinates":[-72.76992,43.89418],"properties":{"Station_ID":"VT-WR-17","Station_Nam":"ROCHESTER 2.3 NE, VT","Latitude":"43.89418","Longitude":"-72.76992","Snowdepth":"25.000","Units":"in","Rept_Date":"2025-02-27 12"}},{"type":"Point","coordinates":[-88.5795,47.1364],"properties":{"Station_ID":"QNCM4","Station_Nam":"QUINCY HILL","Latitude":"47.13640","Longitude":"-88.57950","Snowdepth":"25.000","Units":"in","Rept_Date":"2025-02-27 12"}},{"type":"Point","coordinates":[-72.9,43.2667],"properties":{"Station_ID":"PERV1","Station_Nam":"PERU","Latitude":"43.26670","Longitude":"-72.90000","Snowdepth":"25.000","Units":"in","Rept_Date":"2025-02-27 12"}},{"type":"Point","coordinates":[-71.7167,43.9333],"properties":{"Station_ID":"HUBN3","Station_Nam":"HUBBARD BROOK","Latitude":"43.93330","Longitude":"-71.71670","Snowdepth":"25.000","Units":"in","Rept_Date":"2025-02-28 06"}},{"type":"Point","coordinates":[-70.2528,48.9203],"properties":{"Station_ID":"CQLM","Station_Nam":"CQLM","Latitude":"48.92030","Longitude":"-70.25280","Snowdepth":"24.961","Units":"in","Rept_Date":"2025-02-27 12"}},{"type":"Point","coordinates":[-76.4796,43.39771],"properties":{"Station_ID":"NY-OS-15","Station_Nam":"MINETTO 0.1 SE, NY","Latitude":"43.39771","Longitude":"-76.47960","Snowdepth":"24.500","Units":"in","Rept_Date":"2025-02-27 13"}},{"type":"Point","coordinates":[-86.6594,49.0695],"properties":{"Station_ID":"PTLQ6","Station_Nam":"PORTAGE LAKE","Latitude":"49.06950","Longitude":"-86.65940","Snowdepth":"24.130","Units":"in","Rept_Date":"2025-02-28 06"}},{"type":"Point","coordinates":[-72.0481,44.6122],"properties":{"Station_ID":"SUTV1","Station_Nam":"SUTTON","Latitude":"44.61220","Longitude":"-72.04810","Snowdepth":"24.000","Units":"in","Rept_Date":"2025-02-27 12"}},{"type":"Point","coordinates":[-88.3333,46.65],"properties":{"Station_ID":"HERM4","Station_Nam":"HERMAN,MI","Latitude":"46.65000","Longitude":"-88.33330","Snowdepth":"24.000","Units":"in","Rept_Date":"2025-02-27 13"}},{"type":"Point","coordinates":[-80.95461,44.57837],"properties":{"Station_ID":"CAN-ON-5","Station_Nam":"OWEN SOUND 1.5 NW - GSCA, CAN","Latitude":"44.57837","Longitude":"-80.95461","Snowdepth":"24.000","Units":"in","Rept_Date":"2025-02-27 13"}},{"type":"Point","coordinates":[-88.854,46.8944],"properties":{"Station_ID":"57011_MADIS","Station_Nam":"TWIN LAKES 0.2 SW, MI","Latitude":"46.89440","Longitude":"-88.85400","Snowdepth":"24.000","Units":"in","Rept_Date":"2025-02-27 13"}},{"type":"Point","coordinates":[-66.13279,47.90803],"properties":{"Station_ID":"CAN-NB-50","Station_Nam":"DOYLEVILLE 2.4 WNW, CAN","Latitude":"47.90803","Longitude":"-66.13279","Snowdepth":"23.600","Units":"in","Rept_Date":"2025-02-27 13"}},{"type":"Point","coordinates":[-74.45287,43.4549],"properties":{"Station_ID":"NY-HM-10","Station_Nam":"LAKE PLEASANT 2.3 WSW, NY","Latitude":"43.45490","Longitude":"-74.45287","Snowdepth":"23.500","Units":"in","Rept_Date":"2025-02-27 12"}},{"type":"Point","coordinates":[-73.7381,47.2564],"properties":{"Station_ID":"CQGA","Station_Nam":"CQGA","Latitude":"47.25640","Longitude":"-73.73810","Snowdepth":"23.307","Units":"in","Rept_Date":"2025-02-27 12"}},{"type":"Point","coordinates":[-87.7644,49.1989],"properties":{"Station_ID":"DVLQ6","Station_Nam":"DEVIOUS LAKE","Latitude":"49.19890","Longitude":"-87.76440","Snowdepth":"23.030","Units":"in","Rept_Date":"2025-02-28 06"}},{"type":"Point","coordinates":[-73.8589,44.3931],"properties":{"Station_ID":"WHFN6","Station_Nam":"WILMINGTON 2W","Latitude":"44.39310","Longitude":"-73.85890","Snowdepth":"23.000","Units":"in","Rept_Date":"2025-02-27 13"}},{"type":"Point","coordinates":[-72.43258,44.48825],"properties":{"Station_ID":"VT-WS-30","Station_Nam":"WOODBURY 3.4 NNW, VT","Latitude":"44.48825","Longitude":"-72.43258","Snowdepth":"23.000","Units":"in","Rept_Date":"2025-02-27 12"}},{"type":"Point","coordinates":[-72.72821,45.40878],"properties":{"Station_ID":"CAN-QC-87","Station_Nam":"GRANBY 0.4 NE, CAN","Latitude":"45.40878","Longitude":"-72.72821","Snowdepth":"23.000","Units":"in","Rept_Date":"2025-02-27 12"}},{"type":"Point","coordinates":[-87.2292,49.2288],"properties":{"Station_ID":"TRIQ6","Station_Nam":"TRIO LAKE","Latitude":"49.22880","Longitude":"-87.22920","Snowdepth":"22.830","Units":"in","Rept_Date":"2025-02-28 06"}},{"type":"Point","coordinates":[-91.8221,51.7269],"properties":{"Station_ID":"CATQ6","Station_Nam":"CAT LAKE","Latitude":"51.72690","Longitude":"-91.82210","Snowdepth":"22.830","Units":"in","Rept_Date":"2025-02-28 06"}},{"type":"Point","coordinates":[-72.6383,48.1392],"properties":{"Station_ID":"CQLP","Station_Nam":"CQLP","Latitude":"48.13920","Longitude":"-72.63830","Snowdepth":"22.716","Units":"in","Rept_Date":"2025-02-27 12"}},{"type":"Point","coordinates":[-72.2657,44.39807],"properties":{"Station_ID":"VT-WS-23","Station_Nam":"CABOT 2.3 E, VT","Latitude":"44.39807","Longitude":"-72.26570","Snowdepth":"22.500","Units":"in","Rept_Date":"2025-02-27 12"}},{"type":"Point","coordinates":[-72.39245,44.66338],"properties":{"Station_ID":"VT-OL-26","Station_Nam":"CRAFTSBURY COMMON 0.8 NW, VT","Latitude":"44.66338","Longitude":"-72.39245","Snowdepth":"22.500","Units":"in","Rept_Date":"2025-02-27 12"}},{"type":"Point","coordinates":[-88.6926,47.13156],"properties":{"Station_ID":"MI-HG-21","Station_Nam":"ATLANTIC MINE 3.9 NW, MI","Latitude":"47.13156","Longitude":"-88.69260","Snowdepth":"22.500","Units":"in","Rept_Date":"2025-02-27 12"}},{"type":"Point","coordinates":[-82.5757,48.526],"properties":{"Station_ID":"AUDQ6","Station_Nam":"AUDEN","Latitude":"48.52600","Longitude":"-82.57570","Snowdepth":"22.440","Units":"in","Rept_Date":"2025-02-28 06"}},{"type":"Point","coordinates":[-71.3415,43.80976],"properties":{"Station_ID":"NH-CR-26","Station_Nam":"CENTER SANDWICH 4.9 E, NH","Latitude":"43.80976","Longitude":"-71.34150","Snowdepth":"22.000","Units":"in","Rept_Date":"2025-02-27 12"}},{"type":"Point","coordinates":[-86.95857,46.5029],"properties":{"Station_ID":"MI-AG-8","Station_Nam":"AU TRAIN 7.8 NW, MI","Latitude":"46.50290","Longitude":"-86.95857","Snowdepth":"22.000","Units":"in","Rept_Date":"2025-02-27 14"}},{"type":"Point","coordinates":[-70.18007,44.73396],"properties":{"Station_ID":"ME-FR-22","Station_Nam":"FARMINGTON 4.8 NNW, ME","Latitude":"44.73396","Longitude":"-70.18007","Snowdepth":"22.000","Units":"in","Rept_Date":"2025-02-27 14"}},{"type":"Point","coordinates":[-88.417,47.2752],"properties":{"Station_ID":"KSGM4","Station_Nam":"KEARSARGE","Latitude":"47.27520","Longitude":"-88.41700","Snowdepth":"22.000","Units":"in","Rept_Date":"2025-02-27 13"}},{"type":"Point","coordinates":[-74.2756,43.755],"properties":{"Station_ID":"INDN6","Station_Nam":"INDIAN LAKE","Latitude":"43.75500","Longitude":"-74.27560","Snowdepth":"22.000","Units":"in","Rept_Date":"2025-02-27 12"}},{"type":"Point","coordinates":[-71.3425,43.8099],"properties":{"Station_ID":"ESDN3","Station_Nam":"EAST SANDWICH","Latitude":"43.80990","Longitude":"-71.34250","Snowdepth":"22.000","Units":"in","Rept_Date":"2025-02-27 11"}},{"type":"Point","coordinates":[-72.3194,44.0069],"properties":{"Station_ID":"CORV1","Station_Nam":"CORINTH","Latitude":"44.00690","Longitude":"-72.31940","Snowdepth":"22.000","Units":"in","Rept_Date":"2025-02-27 12"}},{"type":"Point","coordinates":[-87.8816,46.7462],"properties":{"Station_ID":"BBEM4","Station_Nam":"BIG BAY 9SW","Latitude":"46.74620","Longitude":"-87.88160","Snowdepth":"22.000","Units":"in","Rept_Date":"2025-02-27 13"}},{"type":"Point","coordinates":[-72.5719,51.0578],"properties":{"Station_ID":"CQTM","Station_Nam":"CQTM","Latitude":"51.05780","Longitude":"-72.57190","Snowdepth":"21.811","Units":"in","Rept_Date":"2025-02-27 12"}},{"type":"Point","coordinates":[-90.6567,50.2873],"properties":{"Station_ID":"SVBQ6","Station_Nam":"SAVANT BASE","Latitude":"50.28730","Longitude":"-90.65670","Snowdepth":"21.690","Units":"in","Rept_Date":"2025-02-28 06"}},{"type":"Point","coordinates":[-72.8077,44.3606],"properties":{"Station_ID":"VT-WS-19","Station_Nam":"WATERBURY 3.0 NW, VT","Latitude":"44.36060","Longitude":"-72.80770","Snowdepth":"21.000","Units":"in","Rept_Date":"2025-02-27 11"}},{"type":"Point","coordinates":[-72.70935,42.88484],"properties":{"Station_ID":"VT-WH-30","Station_Nam":"MARLBORO 2.0 NNE, VT","Latitude":"42.88484","Longitude":"-72.70935","Snowdepth":"21.000","Units":"in","Rept_Date":"2025-02-27 13"}},{"type":"Point","coordinates":[-74.15211,44.41359],"properties":{"Station_ID":"NY-FK-7","Station_Nam":"SARANAC LAKE 6.2 N, NY","Latitude":"44.41359","Longitude":"-74.15211","Snowdepth":"21.000","Units":"in","Rept_Date":"2025-02-27 11"}},{"type":"Point","coordinates":[-72.7093,42.8846],"properties":{"Station_ID":"MRLV1","Station_Nam":"MARLBORO","Latitude":"42.88460","Longitude":"-72.70930","Snowdepth":"21.000","Units":"in","Rept_Date":"2025-02-27 13"}},{"type":"Point","coordinates":[-84.68467,44.96388],"properties":{"Station_ID":"MI-OT-17","Station_Nam":"GAYLORD 4.1 S, MI","Latitude":"44.96388","Longitude":"-84.68467","Snowdepth":"21.000","Units":"in","Rept_Date":"2025-02-27 12"}},{"type":"Point","coordinates":[-86.75747,46.27805],"properties":{"Station_ID":"MI-AG-6","Station_Nam":"MUNISING 11.1 SSW, MI","Latitude":"46.27805","Longitude":"-86.75747","Snowdepth":"21.000","Units":"in","Rept_Date":"2025-02-27 12"}},{"type":"Point","coordinates":[-68.21736,46.70273],"properties":{"Station_ID":"ME-AR-41","Station_Nam":"CASTLE HILL 1.0 S, ME","Latitude":"46.70273","Longitude":"-68.21736","Snowdepth":"21.000","Units":"in","Rept_Date":"2025-02-27 12"}},{"type":"Point","coordinates":[-71.2525,44.258],"properties":{"Station_ID":"GHMN3","Station_Nam":"PINKHAM NOTCH","Latitude":"44.25800","Longitude":"-71.25250","Snowdepth":"21.000","Units":"in","Rept_Date":"2025-02-27 10"}},{"type":"Point","coordinates":[-72.8679,42.5741],"properties":{"Station_ID":"EHYM3","Station_Nam":"EAST HAWLEY","Latitude":"42.57410","Longitude":"-72.86790","Snowdepth":"21.000","Units":"in","Rept_Date":"2025-02-27 13"}},{"type":"Point","coordinates":[-58.6185,48.55436],"properties":{"Station_ID":"CAN-NL-65","Station_Nam":"KIPPENS 0.7 NE, CA","Latitude":"48.55436","Longitude":"-58.61850","Snowdepth":"21.000","Units":"in","Rept_Date":"2025-02-27 12"}},{"type":"Point","coordinates":[-69.8119,45.6602],"properties":{"Station_ID":"BRAM1","Station_Nam":"BRASSUA DAM","Latitude":"45.66020","Longitude":"-69.81190","Snowdepth":"21.000","Units":"in","Rept_Date":"2025-02-27 12"}},{"type":"Point","coordinates":[-89.5475,46.5869],"properties":{"Station_ID":"BERM4","Station_Nam":"BERGLAND DAM","Latitude":"46.58690","Longitude":"-89.54750","Snowdepth":"21.000","Units":"in","Rept_Date":"2025-02-27 13"}},{"type":"Point","coordinates":[-72.6012,44.11338],"properties":{"Station_ID":"57811_MADIS","Station_Nam":"WILLIAMSTOWN 3.0 WSW, VT","Latitude":"44.11338","Longitude":"-72.60120","Snowdepth":"21.000","Units":"in","Rept_Date":"2025-02-27 12"}},{"type":"Point","coordinates":[-94.2577,52.1145],"properties":{"Station_ID":"POPQ6","Station_Nam":"POPLAR HILL","Latitude":"52.11450","Longitude":"-94.25770","Snowdepth":"20.550","Units":"in","Rept_Date":"2025-02-28 06"}},{"type":"Point","coordinates":[-72.49197,43.46164],"properties":{"Station_ID":"VT-WR-10","Station_Nam":"WEST WINDSOR 1.7 S, VT","Latitude":"43.46164","Longitude":"-72.49197","Snowdepth":"20.500","Units":"in","Rept_Date":"2025-02-27 12"}},{"type":"Point","coordinates":[-75.306,43.751],"properties":{"Station_ID":"NY-LW-12","Station_Nam":"CHASES LAKE COOP, NY","Latitude":"43.75100","Longitude":"-75.30600","Snowdepth":"20.500","Units":"in","Rept_Date":"2025-02-27 12"}},{"type":"Point","coordinates":[-87.8582,50.7668],"properties":{"Station_ID":"OGIQ6","Station_Nam":"OGOKI CAMP","Latitude":"50.76680","Longitude":"-87.85820","Snowdepth":"20.310","Units":"in","Rept_Date":"2025-02-28 06"}},{"type":"Point","coordinates":[-71.27124,46.76934],"properties":{"Station_ID":"CAN-QC-47","Station_Nam":"SAINTE-FOY 1.8 ENE, CAN","Latitude":"46.76934","Longitude":"-71.27124","Snowdepth":"20.100","Units":"in","Rept_Date":"2025-02-27 12"}},{"type":"Point","coordinates":[-72.8326,43.29092],"properties":{"Station_ID":"VT-BN-3","Station_Nam":"LANDGROVE 1.1 NNE, VT","Latitude":"43.29092","Longitude":"-72.83260","Snowdepth":"20.000","Units":"in","Rept_Date":"2025-02-27 12"}},{"type":"Point","coordinates":[-74.4382,44.2307],"properties":{"Station_ID":"TOPN6","Station_Nam":"TUPPER LAKE SUNMOUNT","Latitude":"44.23070","Longitude":"-74.43820","Snowdepth":"20.000","Units":"in","Rept_Date":"2025-02-27 12"}},{"type":"Point","coordinates":[-84.4025,46.4866],"properties":{"Station_ID":"SSMM4","Station_Nam":"SAULT STE MARIE","Latitude":"46.48660","Longitude":"-84.40250","Snowdepth":"20.000","Units":"in","Rept_Date":"2025-02-27 12"}},{"type":"Point","coordinates":[-69.7167,45.5833],"properties":{"Station_ID":"RKWM1","Station_Nam":"MOOSEHEAD LAKE","Latitude":"45.58330","Longitude":"-69.71670","Snowdepth":"20.000","Units":"in","Rept_Date":"2025-02-27 12"}},{"type":"Point","coordinates":[-74.7214,42.8643],"properties":{"Station_ID":"NY-MG-3","Station_Nam":"HESSVILLE 1.8 WSW, NY","Latitude":"42.86430","Longitude":"-74.72140","Snowdepth":"20.000","Units":"in","Rept_Date":"2025-02-27 13"}},{"type":"Point","coordinates":[-71.9767,43.4189],"properties":{"Station_ID":"NLNN3","Station_Nam":"NEW LONDON","Latitude":"43.41890","Longitude":"-71.97670","Snowdepth":"20.000","Units":"in","Rept_Date":"2025-02-27 12"}},{"type":"Point","coordinates":[-84.31971,46.48933],"properties":{"Station_ID":"MI-CP-14","Station_Nam":"SAULT STE. MARIE 2.2 E, MI","Latitude":"46.48933","Longitude":"-84.31971","Snowdepth":"20.000","Units":"in","Rept_Date":"2025-02-27 12"}},{"type":"Point","coordinates":[-68.1439,47.0108],"properties":{"Station_ID":"ME-AR-18","Station_Nam":"NEW SWEDEN 4.9 NNW, ME","Latitude":"47.01080","Longitude":"-68.14390","Snowdepth":"20.000","Units":"in","Rept_Date":"2025-02-27 12"}},{"type":"Point","coordinates":[-72.787,44.5843],"properties":{"Station_ID":"JEFV1","Station_Nam":"JEFFERSONVILLE","Latitude":"44.58430","Longitude":"-72.78700","Snowdepth":"20.000","Units":"in","Rept_Date":"2025-02-27 12"}},{"type":"Point","coordinates":[-75.2998,43.7592],"properties":{"Station_ID":"GFDN6","Station_Nam":"CHASES LAKE","Latitude":"43.75920","Longitude":"-75.29980","Snowdepth":"20.000","Units":"in","Rept_Date":"2025-02-27 11"}},{"type":"Point","coordinates":[-72.8137,44.9096],"properties":{"Station_ID":"ENFV1","Station_Nam":"ENOSBURG FALLS 2","Latitude":"44.90960","Longitude":"-72.81370","Snowdepth":"20.000","Units":"in","Rept_Date":"2025-02-27 10"}},{"type":"Point","coordinates":[-84.4026,46.4867],"properties":{"Station_ID":"ANJM4","Station_Nam":"SNOW PAID OBSERVER FOR KANJ","Latitude":"46.48670","Longitude":"-84.40260","Snowdepth":"20.000","Units":"in","Rept_Date":"2025-02-28 00"}},{"type":"Point","coordinates":[-75.91751,43.96231],"properties":{"Station_ID":"NY-JF-47","Station_Nam":"WATERTOWN 0.9 SSW, NY","Latitude":"43.96231","Longitude":"-75.91751","Snowdepth":"19.500","Units":"in","Rept_Date":"2025-02-27 12"}},{"type":"Point","coordinates":[-73.8978,43.8335],"properties":{"Station_ID":"NY-ES-6","Station_Nam":"OLMSTEDVILLE 4.6 NNE, NY","Latitude":"43.83350","Longitude":"-73.89780","Snowdepth":"19.500","Units":"in","Rept_Date":"2025-02-27 13"}},{"type":"Point","coordinates":[-85.051,44.89981],"properties":{"Station_ID":"MI-AT-6","Station_Nam":"MANCELONA 0.5 ESE, MI","Latitude":"44.89981","Longitude":"-85.05100","Snowdepth":"19.500","Units":"in","Rept_Date":"2025-02-27 13"}},{"type":"Point","coordinates":[-75.48952,45.27286],"properties":{"Station_ID":"CAN-ON-791","Station_Nam":"METCALFE 4.4 NNW, CAN","Latitude":"45.27286","Longitude":"-75.48952","Snowdepth":"19.300","Units":"in","Rept_Date":"2025-02-27 12"}},{"type":"Point","coordinates":[-79.58289,43.95645],"properties":{"Station_ID":"CAN-ON-883","Station_Nam":"KING CITY 5.4 NW, CAN","Latitude":"43.95645","Longitude":"-79.58289","Snowdepth":"19.100","Units":"in","Rept_Date":"2025-02-27 13"}},{"type":"Point","coordinates":[-72.652,44.16986],"properties":{"Station_ID":"VT-WS-10","Station_Nam":"NORTHFIELD 1.5 N, VT","Latitude":"44.16986","Longitude":"-72.65200","Snowdepth":"19.000","Units":"in","Rept_Date":"2025-02-27 12"}},{"type":"Point","coordinates":[-72.3094,44.60528],"properties":{"Station_ID":"VT-OL-9","Station_Nam":"GREENSBORO 2.1 NNW, VT","Latitude":"44.60528","Longitude":"-72.30940","Snowdepth":"19.000","Units":"in","Rept_Date":"2025-02-27 12"}},{"type":"Point","coordinates":[-72.6907,44.46399],"properties":{"Station_ID":"VT-LM-1","Station_Nam":"STOWE 0.2 SW, VT","Latitude":"44.46399","Longitude":"-72.69070","Snowdepth":"19.000","Units":"in","Rept_Date":"2025-02-27 12"}},{"type":"Point","coordinates":[-72.0883,44.56491],"properties":{"Station_ID":"VT-CL-18","Station_Nam":"WHEELOCK 1.6 S, VT","Latitude":"44.56491","Longitude":"-72.08830","Snowdepth":"19.000","Units":"in","Rept_Date":"2025-02-27 12"}},{"type":"Point","coordinates":[-71.2661,43.8639],"properties":{"Station_ID":"TMWN3","Station_Nam":"TAMWORTH 4","Latitude":"43.86390","Longitude":"-71.26610","Snowdepth":"19.000","Units":"in","Rept_Date":"2025-02-27 12"}},{"type":"Point","coordinates":[-74.4236,43.115],"properties":{"Station_ID":"PEKN6","Station_Nam":"PECK LAKE","Latitude":"43.11500","Longitude":"-74.42360","Snowdepth":"19.000","Units":"in","Rept_Date":"2025-02-27 12"}},{"type":"Point","coordinates":[-73.73848,44.6398],"properties":{"Station_ID":"NY-CL-12","Station_Nam":"SARANAC 0.8 SSE, NY","Latitude":"44.63980","Longitude":"-73.73848","Snowdepth":"19.000","Units":"in","Rept_Date":"2025-02-27 12"}},{"type":"Point","coordinates":[-71.90238,43.29531],"properties":{"Station_ID":"NH-MR-60","Station_Nam":"SOUTH SUTTON 1.3 SE, NH","Latitude":"43.29531","Longitude":"-71.90238","Snowdepth":"19.000","Units":"in","Rept_Date":"2025-02-27 13"}},{"type":"Point","coordinates":[-72.00019,43.07635],"properties":{"Station_ID":"NH-HL-108","Station_Nam":"ANTRIM 4.1 NW, NH","Latitude":"43.07635","Longitude":"-72.00019","Snowdepth":"19.000","Units":"in","Rept_Date":"2025-02-27 12"}},{"type":"Point","coordinates":[-71.2661,43.86449],"properties":{"Station_ID":"NH-CR-27","Station_Nam":"TAMWORTH 0.4 NNW, NH","Latitude":"43.86449","Longitude":"-71.26610","Snowdepth":"19.000","Units":"in","Rept_Date":"2025-02-27 12"}},{"type":"Point","coordinates":[-76.1964,43.2386],"properties":{"Station_ID":"BWTN6","Station_Nam":"BREWERTON LOCK 23","Latitude":"43.23860","Longitude":"-76.19640","Snowdepth":"19.000","Units":"in","Rept_Date":"2025-02-27 11"}},{"type":"Point","coordinates":[-71.91086,44.31847],"properties":{"Station_ID":"NH-GR-47","Station_Nam":"LITTLETON 7.3 W, NH","Latitude":"44.31847","Longitude":"-71.91086","Snowdepth":"18.500","Units":"in","Rept_Date":"2025-02-27 13"}},{"type":"Point","coordinates":[-71.21556,43.92648],"properties":{"Station_ID":"NH-CR-41","Station_Nam":"ALBANY 2.8 SW, NH","Latitude":"43.92648","Longitude":"-71.21556","Snowdepth":"18.500","Units":"in","Rept_Date":"2025-02-27 13"}},{"type":"Point","coordinates":[-71.1401,44.03556],"properties":{"Station_ID":"NH-CR-11","Station_Nam":"NORTH CONWAY 1.4 SSW, NH","Latitude":"44.03556","Longitude":"-71.14010","Snowdepth":"18.500","Units":"in","Rept_Date":"2025-02-27 12"}},{"type":"Point","coordinates":[-65.5069,46.99343],"properties":{"Station_ID":"CAN-NB-11","Station_Nam":"MIRAMICHI 3.3 S, CAN","Latitude":"46.99343","Longitude":"-65.50690","Snowdepth":"18.500","Units":"in","Rept_Date":"2025-02-27 11"}},{"type":"Point","coordinates":[-79.48559,43.97005],"properties":{"Station_ID":"CAN-ON-552","Station_Nam":"AURORA 3.3 SSW, CAN","Latitude":"43.97005","Longitude":"-79.48559","Snowdepth":"18.100","Units":"in","Rept_Date":"2025-02-27 12"}},{"type":"Point","coordinates":[-72.66291,43.75217],"properties":{"Station_ID":"VT-WR-36","Station_Nam":"BARNARD 2.7 NW, VT","Latitude":"43.75217","Longitude":"-72.66291","Snowdepth":"18.000","Units":"in","Rept_Date":"2025-02-27 12"}},{"type":"Point","coordinates":[-73.8786,43.12684],"properties":{"Station_ID":"NY-SR-22","Station_Nam":"GREENFIELD CENTER 1.6 W, NY","Latitude":"43.12684","Longitude":"-73.87860","Snowdepth":"18.000","Units":"in","Rept_Date":"2025-02-27 12"}},{"type":"Point","coordinates":[-71.46461,44.33765],"properties":{"Station_ID":"NH-CS-19","Station_Nam":"CARROLL 4.6 NE, NH","Latitude":"44.33765","Longitude":"-71.46461","Snowdepth":"18.000","Units":"in","Rept_Date":"2025-02-27 12"}},{"type":"Point","coordinates":[-72.0333,43.7833],"properties":{"Station_ID":"MSRN3","Station_Nam":"MASCOMA RIVER","Latitude":"43.78330","Longitude":"-72.03330","Snowdepth":"18.000","Units":"in","Rept_Date":"2025-02-28 06"}},{"type":"Point","coordinates":[-88.5294,47.10774],"properties":{"Station_ID":"MI-HG-1","Station_Nam":"HOUGHTON 1.6 ESE, MI","Latitude":"47.10774","Longitude":"-88.52940","Snowdepth":"18.000","Units":"in","Rept_Date":"2025-02-27 13"}},{"type":"Point","coordinates":[-74.306,44.8418],"properties":{"Station_ID":"MALN6","Station_Nam":"MALONE","Latitude":"44.84180","Longitude":"-74.30600","Snowdepth":"18.000","Units":"in","Rept_Date":"2025-02-27 12"}},{"type":"Point","coordinates":[-72.6786,44.658],"properties":{"Station_ID":"JOHV1","Station_Nam":"JOHNSON 2 N","Latitude":"44.65800","Longitude":"-72.67860","Snowdepth":"18.000","Units":"in","Rept_Date":"2025-02-27 12"}},{"type":"Point","coordinates":[-68.6119,47.2386],"properties":{"Station_ID":"FISM1","Station_Nam":"FORT KENT COOP","Latitude":"47.23860","Longitude":"-68.61190","Snowdepth":"18.000","Units":"in","Rept_Date":"2025-02-27 11"}},{"type":"Point","coordinates":[-74.6457,45.48987],"properties":{"Station_ID":"CAN-ON-42","Station_Nam":"VANKLEEK HILL 3.4 S, CA","Latitude":"45.48987","Longitude":"-74.64570","Snowdepth":"18.000","Units":"in","Rept_Date":"2025-02-27 12"}},{"type":"Point","coordinates":[-72.77637,42.97658],"properties":{"Station_ID":"VT-WH-19","Station_Nam":"EAST DOVER 1.8 N, VT","Latitude":"42.97658","Longitude":"-72.77637","Snowdepth":"17.500","Units":"in","Rept_Date":"2025-02-27 12"}},{"type":"Point","coordinates":[-72.88238,43.50806],"properties":{"Station_ID":"VT-RT-28","Station_Nam":"SHREWSBURY 0.8 W, VT","Latitude":"43.50806","Longitude":"-72.88238","Snowdepth":"17.500","Units":"in","Rept_Date":"2025-02-27 11"}},{"type":"Point","coordinates":[-72.5822,44.3747],"properties":{"Station_ID":"WORV1","Station_Nam":"WORCESTER 2 W","Latitude":"44.37470","Longitude":"-72.58220","Snowdepth":"17.000","Units":"in","Rept_Date":"2025-02-27 12"}},{"type":"Point","coordinates":[-91.1973,47.3824],"properties":{"Station_ID":"WLFM5","Station_Nam":"WOLF RIDGE ENVIRON LEARNING CENTER","Latitude":"47.38240","Longitude":"-91.19730","Snowdepth":"17.000","Units":"in","Rept_Date":"2025-02-27 13"}},{"type":"Point","coordinates":[-72.35555,43.83333],"properties":{"Station_ID":"VT-OG-16","Station_Nam":"STRAFFORD 2.4 SSE, VT","Latitude":"43.83333","Longitude":"-72.35555","Snowdepth":"17.000","Units":"in","Rept_Date":"2025-02-27 11"}},{"type":"Point","coordinates":[-73.01811,43.17274],"properties":{"Station_ID":"VT-BN-7","Station_Nam":"MANCHESTER 2.8 ENE, VT","Latitude":"43.17274","Longitude":"-73.01811","Snowdepth":"17.000","Units":"in","Rept_Date":"2025-02-27 12"}},{"type":"Point","coordinates":[-72.415,44.2761],"properties":{"Station_ID":"PLFV1","Station_Nam":"PLAINFIELD","Latitude":"44.27610","Longitude":"-72.41500","Snowdepth":"17.000","Units":"in","Rept_Date":"2025-02-27 12"}},{"type":"Point","coordinates":[-71.22598,44.19069],"properties":{"Station_ID":"NH-CR-15","Station_Nam":"JACKSON 3.7 NW, NH","Latitude":"44.19069","Longitude":"-71.22598","Snowdepth":"17.000","Units":"in","Rept_Date":"2025-02-27 12"}},{"type":"Point","coordinates":[-75.4829,43.7928],"properties":{"Station_ID":"LOWN6","Station_Nam":"LOWVILLE","Latitude":"43.79280","Longitude":"-75.48290","Snowdepth":"17.000","Units":"in","Rept_Date":"2025-02-27 12"}},{"type":"Point","coordinates":[-84.7188,44.9072],"properties":{"Station_ID":"APXM4","Station_Nam":"GAYLORD 9SSW","Latitude":"44.90720","Longitude":"-84.71880","Snowdepth":"17.000","Units":"in","Rept_Date":"2025-02-28 05"}},{"type":"Point","coordinates":[-75.845,49.2906],"properties":{"Station_ID":"CQMD","Station_Nam":"CQMD","Latitude":"49.29060","Longitude":"-75.84500","Snowdepth":"16.811","Units":"in","Rept_Date":"2025-02-27 12"}},{"type":"Point","coordinates":[-73.71838,43.68223],"properties":{"Station_ID":"NY-WR-21","Station_Nam":"BRANT LAKE 1.7 ENE, NY","Latitude":"43.68223","Longitude":"-73.71838","Snowdepth":"16.500","Units":"in","Rept_Date":"2025-02-27 12"}},{"type":"Point","coordinates":[-72.2011,51.4528],"properties":{"Station_ID":"CQCO","Station_Nam":"CQCO","Latitude":"51.45280","Longitude":"-72.20110","Snowdepth":"16.417","Units":"in","Rept_Date":"2025-02-27 12"}},{"type":"Point","coordinates":[-66.9111,51.5217],"properties":{"Station_ID":"CMFU","Station_Nam":"CMFU","Latitude":"51.52170","Longitude":"-66.91110","Snowdepth":"16.339","Units":"in","Rept_Date":"2025-02-27 12"}},{"type":"Point","coordinates":[-89.1799,49.5995],"properties":{"Station_ID":"KABQ6","Station_Nam":"CAB LAKE","Latitude":"49.59950","Longitude":"-89.17990","Snowdepth":"16.180","Units":"in","Rept_Date":"2025-02-28 06"}},{"type":"Point","coordinates":[-72.79521,43.89771],"properties":{"Station_ID":"VT-WR-37","Station_Nam":"ROCHESTER 1.7 NNE, VT","Latitude":"43.89771","Longitude":"-72.79521","Snowdepth":"16.000","Units":"in","Rept_Date":"2025-02-27 12"}},{"type":"Point","coordinates":[-72.66,42.73639],"properties":{"Station_ID":"VT-WH-40","Station_Nam":"GUILFORD 7.0 SW, VT","Latitude":"42.73639","Longitude":"-72.66000","Snowdepth":"16.000","Units":"in","Rept_Date":"2025-02-27 12"}},{"type":"Point","coordinates":[-72.5558,42.8403],"properties":{"Station_ID":"VT-WH-29","Station_Nam":"BRATTLEBORO 0.7 S, VT","Latitude":"42.84030","Longitude":"-72.55580","Snowdepth":"16.000","Units":"in","Rept_Date":"2025-02-27 12"}},{"type":"Point","coordinates":[-72.9657,44.32488],"properties":{"Station_ID":"VT-CH-7","Station_Nam":"HUNTINGTON 1.1 E, VT","Latitude":"44.32488","Longitude":"-72.96570","Snowdepth":"16.000","Units":"in","Rept_Date":"2025-02-27 12"}},{"type":"Point","coordinates":[-67.9396,47.1664],"properties":{"Station_ID":"VANM1","Station_Nam":"VAN BUREN","Latitude":"47.16640","Longitude":"-67.93960","Snowdepth":"16.000","Units":"in","Rept_Date":"2025-02-27 11"}},{"type":"Point","coordinates":[-70.6719,44.9891],"properties":{"Station_ID":"RANM1","Station_Nam":"RANGELEY","Latitude":"44.98910","Longitude":"-70.67190","Snowdepth":"16.000","Units":"in","Rept_Date":"2025-02-27 11"}},{"type":"Point","coordinates":[-84.3239,46.1864],"properties":{"Station_ID":"PICM4","Station_Nam":"PICKFORD 3NE","Latitude":"46.18640","Longitude":"-84.32390","Snowdepth":"16.000","Units":"in","Rept_Date":"2025-02-27 23"}},{"type":"Point","coordinates":[-74.1667,43.2333],"properties":{"Station_ID":"NVLN6","Station_Nam":"NORTHVILLE","Latitude":"43.23330","Longitude":"-74.16670","Snowdepth":"16.000","Units":"in","Rept_Date":"2025-02-27 13"}},{"type":"Point","coordinates":[-71.82923,42.826],"properties":{"Station_ID":"NH-HL-103","Station_Nam":"TEMPLE 1.2 ENE, NH","Latitude":"42.82600","Longitude":"-71.82923","Snowdepth":"16.000","Units":"in","Rept_Date":"2025-02-27 12"}},{"type":"Point","coordinates":[-91.86862,47.88254],"properties":{"Station_ID":"MN-SL-328","Station_Nam":"ELY 1.8 SSW, MN","Latitude":"47.88254","Longitude":"-91.86862","Snowdepth":"16.000","Units":"in","Rept_Date":"2025-02-27 13"}},{"type":"Point","coordinates":[-89.28143,46.85396],"properties":{"Station_ID":"MI-ON-4","Station_Nam":"ONTONAGON 1.8 ESE, MI","Latitude":"46.85396","Longitude":"-89.28143","Snowdepth":"16.000","Units":"in","Rept_Date":"2025-02-27 12"}},{"type":"Point","coordinates":[-88.18,46.5453],"properties":{"Station_ID":"MIEM4","Station_Nam":"MICHIGAMME 3WNW","Latitude":"46.54530","Longitude":"-88.18000","Snowdepth":"16.000","Units":"in","Rept_Date":"2025-02-27 13"}},{"type":"Point","coordinates":[-85.1475,45.18639],"properties":{"Station_ID":"MI-CX-7","Station_Nam":"EAST JORDAN 2.1 NNW, MI","Latitude":"45.18639","Longitude":"-85.14750","Snowdepth":"16.000","Units":"in","Rept_Date":"2025-02-27 21"}},{"type":"Point","coordinates":[-86.1065,44.53976],"properties":{"Station_ID":"MI-BZ-1","Station_Nam":"BENZONIA 5.3 S, MI","Latitude":"44.53976","Longitude":"-86.10650","Snowdepth":"16.000","Units":"in","Rept_Date":"2025-02-27 14"}},{"type":"Point","coordinates":[-70.2642,44.68329],"properties":{"Station_ID":"ME-FR-2","Station_Nam":"TEMPLE 1.8 W, ME","Latitude":"44.68329","Longitude":"-70.26420","Snowdepth":"16.000","Units":"in","Rept_Date":"2025-02-27 12"}},{"type":"Point","coordinates":[-72.9454,42.49272],"properties":{"Station_ID":"MA-HS-7","Station_Nam":"PLAINFIELD 2.2 SW, MA","Latitude":"42.49272","Longitude":"-72.94540","Snowdepth":"16.000","Units":"in","Rept_Date":"2025-02-27 14"}},{"type":"Point","coordinates":[-85.1477,45.1863],"properties":{"Station_ID":"EJNM4","Station_Nam":"EAST JORDAN 2NW","Latitude":"45.18630","Longitude":"-85.14770","Snowdepth":"16.000","Units":"in","Rept_Date":"2025-02-27 21"}},{"type":"Point","coordinates":[-85.2672,45.3172],"properties":{"Station_ID":"CHRM4","Station_Nam":"CHARLEVOIX","Latitude":"45.31720","Longitude":"-85.26720","Snowdepth":"16.000","Units":"in","Rept_Date":"2025-02-27 13"}},{"type":"Point","coordinates":[-88.7038,49.19],"properties":{"Station_ID":"NONQ6","Station_Nam":"NONWATIN","Latitude":"49.19000","Longitude":"-88.70380","Snowdepth":"15.910","Units":"in","Rept_Date":"2025-02-28 06"}},{"type":"Point","coordinates":[-68.8406,51.2833],"properties":{"Station_ID":"CMRL","Station_Nam":"CMRL","Latitude":"51.28330","Longitude":"-68.84060","Snowdepth":"15.905","Units":"in","Rept_Date":"2025-02-27 12"}},{"type":"Point","coordinates":[-73.99528,43.09437],"properties":{"Station_ID":"NY-SR-57","Station_Nam":"TOWN OF PROVIDENCE 2.3 E, NY","Latitude":"43.09437","Longitude":"-73.99528","Snowdepth":"15.500","Units":"in","Rept_Date":"2025-02-27 12"}},{"type":"Point","coordinates":[-85.48426,44.59871],"properties":{"Station_ID":"MI-GT-21","Station_Nam":"KINGSLEY 2.7 ENE, MI","Latitude":"44.59871","Longitude":"-85.48426","Snowdepth":"15.500","Units":"in","Rept_Date":"2025-02-27 13"}},{"type":"Point","coordinates":[-91.4716,48.7067],"properties":{"Station_ID":"ATIQ6","Station_Nam":"ATIKOKAN","Latitude":"48.70670","Longitude":"-91.47160","Snowdepth":"15.200","Units":"in","Rept_Date":"2025-02-28 06"}},{"type":"Point","coordinates":[-72.50022,44.27234],"properties":{"Station_ID":"VT-WS-47","Station_Nam":"EAST MONTPELIER 0.7 W, VT","Latitude":"44.27234","Longitude":"-72.50022","Snowdepth":"15.000","Units":"in","Rept_Date":"2025-02-27 12"}},{"type":"Point","coordinates":[-72.75654,44.28026],"properties":{"Station_ID":"VT-WS-42","Station_Nam":"MORETOWN 2.1 N, VT","Latitude":"44.28026","Longitude":"-72.75654","Snowdepth":"15.000","Units":"in","Rept_Date":"2025-02-27 13"}},{"type":"Point","coordinates":[-76.26,43.2],"properties":{"Station_ID":"NY-OG-12","Station_Nam":"CLAY 4.6 NW, NY","Latitude":"43.20000","Longitude":"-76.26000","Snowdepth":"15.000","Units":"in","Rept_Date":"2025-02-27 12"}},{"type":"Point","coordinates":[-71.11664,44.02955],"properties":{"Station_ID":"NH-CR-46","Station_Nam":"NORTH CONWAY 1.8 SSE, NH","Latitude":"44.02955","Longitude":"-71.11664","Snowdepth":"15.000","Units":"in","Rept_Date":"2025-02-27 12"}},{"type":"Point","coordinates":[-71.1297,44.0562],"properties":{"Station_ID":"NCON3","Station_Nam":"NORTH CONWAY","Latitude":"44.05620","Longitude":"-71.12970","Snowdepth":"15.000","Units":"in","Rept_Date":"2025-02-27 14"}},{"type":"Point","coordinates":[-70.12462,43.96119],"properties":{"Station_ID":"ME-AN-46","Station_Nam":"DURHAM 0.8 S, ME","Latitude":"43.96119","Longitude":"-70.12462","Snowdepth":"15.000","Units":"in","Rept_Date":"2025-02-27 14"}},{"type":"Point","coordinates":[-79.3207,42.3393],"properties":{"Station_ID":"CSGN6","Station_Nam":"CASSADAGA","Latitude":"42.33930","Longitude":"-79.32070","Snowdepth":"15.000","Units":"in","Rept_Date":"2025-02-27 11"}},{"type":"Point","coordinates":[-63.17271,46.29235],"properties":{"Station_ID":"CAN-PE-19","Station_Nam":"CHARLOTTETOWN 6.5 NNW, CAN","Latitude":"46.29235","Longitude":"-63.17271","Snowdepth":"15.000","Units":"in","Rept_Date":"2025-02-27 12"}},{"type":"Point","coordinates":[-80.92735,44.71013],"properties":{"Station_ID":"CAN-ON-804","Station_Nam":"KEMBLE 1.6 S - GSCA, CAN","Latitude":"44.71013","Longitude":"-80.92735","Snowdepth":"15.000","Units":"in","Rept_Date":"2025-02-27 13"}},{"type":"Point","coordinates":[-70.7568,44.32],"properties":{"Station_ID":"BETM1","Station_Nam":"BETHEL 6 SSE","Latitude":"44.32000","Longitude":"-70.75680","Snowdepth":"15.000","Units":"in","Rept_Date":"2025-02-27 12"}},{"type":"Point","coordinates":[-71.9159,42.6178],"properties":{"Station_ID":"ASBM3","Station_Nam":"ASHBURNHAM","Latitude":"42.61780","Longitude":"-71.91590","Snowdepth":"15.000","Units":"in","Rept_Date":"2025-02-27 12"}},{"type":"Point","coordinates":[-72.5814,42.8448],"properties":{"Station_ID":"61661_MADIS","Station_Nam":"BRATTLEBORO 1.3 WSW, VT","Latitude":"42.84480","Longitude":"-72.58140","Snowdepth":"15.000","Units":"in","Rept_Date":"2025-02-27 12"}},{"type":"Point","coordinates":[-78.6461,42.6074],"properties":{"Station_ID":"NY-ER-194","Station_Nam":"GLENWOOD 1.0 SE, NY","Latitude":"42.60740","Longitude":"-78.64610","Snowdepth":"14.800","Units":"in","Rept_Date":"2025-02-27 12"}},{"type":"Point","coordinates":[-73.9228,50.2708],"properties":{"Station_ID":"CQLI","Station_Nam":"CQLI","Latitude":"50.27080","Longitude":"-73.92280","Snowdepth":"14.606","Units":"in","Rept_Date":"2025-02-27 12"}},{"type":"Point","coordinates":[-72.23051,43.92138],"properties":{"Station_ID":"VT-OG-13","Station_Nam":"WEST FAIRLEE 1.8 ENE, VT","Latitude":"43.92138","Longitude":"-72.23051","Snowdepth":"14.500","Units":"in","Rept_Date":"2025-02-27 12"}},{"type":"Point","coordinates":[-72.10523,44.23024],"properties":{"Station_ID":"VT-CL-23","Station_Nam":"RYEGATE 1.5 N, VT","Latitude":"44.23024","Longitude":"-72.10523","Snowdepth":"14.500","Units":"in","Rept_Date":"2025-02-27 12"}},{"type":"Point","coordinates":[-78.703,42.6548],"properties":{"Station_ID":"NY-ER-166","Station_Nam":"BOSTON 2.5 NE, NY","Latitude":"42.65480","Longitude":"-78.70300","Snowdepth":"14.500","Units":"in","Rept_Date":"2025-02-27 12"}},{"type":"Point","coordinates":[-71.1351,43.31175],"properties":{"Station_ID":"NH-ST-31","Station_Nam":"STRAFFORD 2.9 N, NH","Latitude":"43.31175","Longitude":"-71.13510","Snowdepth":"14.500","Units":"in","Rept_Date":"2025-02-27 12"}},{"type":"Point","coordinates":[-71.5373,43.43945],"properties":{"Station_ID":"NH-MR-45","Station_Nam":"NORTHFIELD 2.8 E, NH","Latitude":"43.43945","Longitude":"-71.53730","Snowdepth":"14.500","Units":"in","Rept_Date":"2025-02-27 12"}},{"type":"Point","coordinates":[-71.7799,42.77674],"properties":{"Station_ID":"NH-HL-48","Station_Nam":"GREENVILLE 1.1 ENE, NH","Latitude":"42.77674","Longitude":"-71.77990","Snowdepth":"14.500","Units":"in","Rept_Date":"2025-02-27 14"}},{"type":"Point","coordinates":[-72.50933,42.8202],"properties":{"Station_ID":"NH-CH-31","Station_Nam":"HINSDALE 2.5 NNW, NH","Latitude":"42.82020","Longitude":"-72.50933","Snowdepth":"14.500","Units":"in","Rept_Date":"2025-02-27 13"}},{"type":"Point","coordinates":[-91.955,47.875],"properties":{"Station_ID":"MN-SL-323","Station_Nam":"ELY 5.2 WSW, MN","Latitude":"47.87500","Longitude":"-91.95500","Snowdepth":"14.500","Units":"in","Rept_Date":"2025-02-27 13"}},{"type":"Point","coordinates":[-91.87967,47.8151],"properties":{"Station_ID":"MN-SL-198","Station_Nam":"ELY 6.4 SSW, MN","Latitude":"47.81510","Longitude":"-91.87967","Snowdepth":"14.500","Units":"in","Rept_Date":"2025-02-27 14"}},{"type":"Point","coordinates":[-84.9754,45.4345],"properties":{"Station_ID":"MI-EM-5","Station_Nam":"HARBOR SPRINGS 0.7 ENE, MI","Latitude":"45.43450","Longitude":"-84.97540","Snowdepth":"14.500","Units":"in","Rept_Date":"2025-02-27 12"}},{"type":"Point","coordinates":[-76.04525,45.42318],"properties":{"Station_ID":"CAN-ON-92","Station_Nam":"DUNROBIN 1.9 W - MVCA, CAN","Latitude":"45.42318","Longitude":"-76.04525","Snowdepth":"14.200","Units":"in","Rept_Date":"2025-02-27 12"}},{"type":"Point","coordinates":[-88.6424,46.5266],"properties":{"Station_ID":"WTNM4","Station_Nam":"WATTON 2WSW","Latitude":"46.52660","Longitude":"-88.64240","Snowdepth":"14.000","Units":"in","Rept_Date":"2025-02-27 13"}},{"type":"Point","coordinates":[-72.7969,44.9447],"properties":{"Station_ID":"VT-FR-26","Station_Nam":"ENOSBURG FALLS 2.5 N, VT","Latitude":"44.94470","Longitude":"-72.79690","Snowdepth":"14.000","Units":"in","Rept_Date":"2025-02-27 12"}},{"type":"Point","coordinates":[-71.70446,44.49324],"properties":{"Station_ID":"VT-ES-3","Station_Nam":"LUNENBURG 2.3 NNW, VT","Latitude":"44.49324","Longitude":"-71.70446","Snowdepth":"14.000","Units":"in","Rept_Date":"2025-02-27 11"}},{"type":"Point","coordinates":[-72.9225,44.58774],"properties":{"Station_ID":"VT-CH-4","Station_Nam":"UNDERHILL 4.4 NNE, VT","Latitude":"44.58774","Longitude":"-72.92250","Snowdepth":"14.000","Units":"in","Rept_Date":"2025-02-27 13"}},{"type":"Point","coordinates":[-72.2244,42.6394],"properties":{"Station_ID":"TLLM3","Station_Nam":"TULLY LAKE","Latitude":"42.63940","Longitude":"-72.22440","Snowdepth":"14.000","Units":"in","Rept_Date":"2025-02-27 12"}},{"type":"Point","coordinates":[-67.1205,45.0853],"properties":{"Station_ID":"ROBM1","Station_Nam":"ROBBINSTON","Latitude":"45.08530","Longitude":"-67.12050","Snowdepth":"14.000","Units":"in","Rept_Date":"2025-02-28 05"}},{"type":"Point","coordinates":[-74.1629,43.22767],"properties":{"Station_ID":"NY-FL-12","Station_Nam":"NORTHVILLE 0.6 NE, NY","Latitude":"43.22767","Longitude":"-74.16290","Snowdepth":"14.000","Units":"in","Rept_Date":"2025-02-27 12"}},{"type":"Point","coordinates":[-78.6391,42.60195],"properties":{"Station_ID":"NY-ER-63","Station_Nam":"GLENWOOD 1.5 SE, NY","Latitude":"42.60195","Longitude":"-78.63910","Snowdepth":"14.000","Units":"in","Rept_Date":"2025-02-27 13"}},{"type":"Point","coordinates":[-71.10256,43.09778],"properties":{"Station_ID":"NH-RC-79","Station_Nam":"NOTTINGHAM 1.2 S, NH","Latitude":"43.09778","Longitude":"-71.10256","Snowdepth":"14.000","Units":"in","Rept_Date":"2025-02-27 13"}},{"type":"Point","coordinates":[-71.2575,43.20114],"properties":{"Station_ID":"NH-RC-48","Station_Nam":"NORTHWOOD 2.9 WSW, NH","Latitude":"43.20114","Longitude":"-71.25750","Snowdepth":"14.000","Units":"in","Rept_Date":"2025-02-27 12"}},{"type":"Point","coordinates":[-71.5565,43.14994],"properties":{"Station_ID":"NH-MR-4","Station_Nam":"BOW 1.6 NW, NH","Latitude":"43.14994","Longitude":"-71.55650","Snowdepth":"14.000","Units":"in","Rept_Date":"2025-02-27 12"}},{"type":"Point","coordinates":[-70.6388,43.2241],"properties":{"Station_ID":"NEDM1","Station_Nam":"CAPE NEDDICK","Latitude":"43.22410","Longitude":"-70.63880","Snowdepth":"14.000","Units":"in","Rept_Date":"2025-02-27 12"}},{"type":"Point","coordinates":[-70.6751,43.6475],"properties":{"Station_ID":"ME-YK-3","Station_Nam":"HOLLIS CENTER 5.4 NW, ME","Latitude":"43.64750","Longitude":"-70.67510","Snowdepth":"14.000","Units":"in","Rept_Date":"2025-02-27 12"}},{"type":"Point","coordinates":[-70.4347,43.48679],"properties":{"Station_ID":"ME-YK-28","Station_Nam":"BIDDEFORD 1.5 NNE, ME","Latitude":"43.48679","Longitude":"-70.43470","Snowdepth":"14.000","Units":"in","Rept_Date":"2025-02-27 12"}},{"type":"Point","coordinates":[-68.0127,46.6796],"properties":{"Station_ID":"ME-AR-15","Station_Nam":"PRESQUE ISLE 1.3 WSW, ME","Latitude":"46.67960","Longitude":"-68.01270","Snowdepth":"14.000","Units":"in","Rept_Date":"2025-02-27 12"}},{"type":"Point","coordinates":[-72.7511,42.589],"properties":{"Station_ID":"MA-FR-17","Station_Nam":"BUCKLAND 1.8 ESE, MA","Latitude":"42.58900","Longitude":"-72.75110","Snowdepth":"14.000","Units":"in","Rept_Date":"2025-02-27 13"}},{"type":"Point","coordinates":[-71.7046,44.4933],"properties":{"Station_ID":"LUNV1","Station_Nam":"LUNENBURG 2 NNW","Latitude":"44.49330","Longitude":"-71.70460","Snowdepth":"14.000","Units":"in","Rept_Date":"2025-02-27 11"}},{"type":"Point","coordinates":[-70.3162,44.3744],"properties":{"Station_ID":"HRTM1","Station_Nam":"HARTFORD","Latitude":"44.37440","Longitude":"-70.31620","Snowdepth":"14.000","Units":"in","Rept_Date":"2025-02-27 12"}},{"type":"Point","coordinates":[-70.6749,43.6475],"properties":{"Station_ID":"HOLM1","Station_Nam":"HOLLIS","Latitude":"43.64750","Longitude":"-70.67490","Snowdepth":"14.000","Units":"in","Rept_Date":"2025-02-27 12"}},{"type":"Point","coordinates":[-85.3653,44.5848],"properties":{"Station_ID":"FLAM4","Station_Nam":"FIFE LAKE 2WNW","Latitude":"44.58480","Longitude":"-85.36530","Snowdepth":"14.000","Units":"in","Rept_Date":"2025-02-27 12"}},{"type":"Point","coordinates":[-70.1564,44.6893],"properties":{"Station_ID":"FARM1","Station_Nam":"FARMINGTON","Latitude":"44.68930","Longitude":"-70.15640","Snowdepth":"14.000","Units":"in","Rept_Date":"2025-02-27 12"}},{"type":"Point","coordinates":[-69.1841,45.1872],"properties":{"Station_ID":"DFXM1","Station_Nam":"DOVER-FOXCROFT","Latitude":"45.18720","Longitude":"-69.18410","Snowdepth":"14.000","Units":"in","Rept_Date":"2025-02-27 12"}},{"type":"Point","coordinates":[-87.845,46.4991],"properties":{"Station_ID":"CLKM4","Station_Nam":"CLARKSBURG","Latitude":"46.49910","Longitude":"-87.84500","Snowdepth":"14.000","Units":"in","Rept_Date":"2025-02-27 12"}},{"type":"Point","coordinates":[-62.18035,46.47619],"properties":{"Station_ID":"CAN-PE-78","Station_Nam":"BAYFIELD 1.2 ENE, CAN","Latitude":"46.47619","Longitude":"-62.18035","Snowdepth":"14.000","Units":"in","Rept_Date":"2025-02-27 11"}},{"type":"Point","coordinates":[-82.95945,46.18781],"properties":{"Station_ID":"CAN-ON-717","Station_Nam":"BLIND RIVER 0.2 NNE, CAN","Latitude":"46.18781","Longitude":"-82.95945","Snowdepth":"13.800","Units":"in","Rept_Date":"2025-02-27 12"}},{"type":"Point","coordinates":[-91.0109,46.689],"properties":{"Station_ID":"WI-BY-56","Station_Nam":"WASHBURN 5.7 W, WI","Latitude":"46.68900","Longitude":"-91.01090","Snowdepth":"13.500","Units":"in","Rept_Date":"2025-02-27 13"}},{"type":"Point","coordinates":[-73.81069,43.51784],"properties":{"Station_ID":"NY-WR-10","Station_Nam":"WARRENSBURG 2.1 WNW, NY","Latitude":"43.51784","Longitude":"-73.81069","Snowdepth":"13.500","Units":"in","Rept_Date":"2025-02-27 13"}},{"type":"Point","coordinates":[-75.6828,43.17115],"properties":{"Station_ID":"NY-OD-23","Station_Nam":"DURHAMVILLE 3.5 NNW, NY","Latitude":"43.17115","Longitude":"-75.68280","Snowdepth":"13.500","Units":"in","Rept_Date":"2025-02-27 12"}},{"type":"Point","coordinates":[-71.7414,43.5949],"properties":{"Station_ID":"NH-GR-1","Station_Nam":"BRISTOL 0.4 SSE, NH","Latitude":"43.59490","Longitude":"-71.74140","Snowdepth":"13.500","Units":"in","Rept_Date":"2025-02-27 12"}},{"type":"Point","coordinates":[-87.21344,46.33748],"properties":{"Station_ID":"MI-MQ-34","Station_Nam":"SKANDIA 3.0 SSE, MI","Latitude":"46.33748","Longitude":"-87.21344","Snowdepth":"13.400","Units":"in","Rept_Date":"2025-02-27 12"}},{"type":"Point","coordinates":[-78.77438,43.91886],"properties":{"Station_ID":"CAN-ON-1023","Station_Nam":"COURTICE 1.7 NE, CAN","Latitude":"43.91886","Longitude":"-78.77438","Snowdepth":"13.400","Units":"in","Rept_Date":"2025-02-27 14"}},{"type":"Point","coordinates":[-66.68739,45.90112],"properties":{"Station_ID":"CAN-NB-97","Station_Nam":"NEW MARYLAND 0.6 NW, CAN","Latitude":"45.90112","Longitude":"-66.68739","Snowdepth":"13.400","Units":"in","Rept_Date":"2025-02-27 12"}},{"type":"Point","coordinates":[-90.1696,46.388],"properties":{"Station_ID":"WI-IR-6","Station_Nam":"HURLEY 4.1 SSE, WI","Latitude":"46.38800","Longitude":"-90.16960","Snowdepth":"13.000","Units":"in","Rept_Date":"2025-02-27 13"}},{"type":"Point","coordinates":[-72.14756,44.02268],"properties":{"Station_ID":"VT-OG-14","Station_Nam":"BRADFORD 2.2 NNW, VT","Latitude":"44.02268","Longitude":"-72.14756","Snowdepth":"13.000","Units":"in","Rept_Date":"2025-02-27 13"}},{"type":"Point","coordinates":[-72.84167,44.62722],"properties":{"Station_ID":"VT-LM-23","Station_Nam":"JEFFERSONVILLE 1.3 SSW, VT","Latitude":"44.62722","Longitude":"-72.84167","Snowdepth":"13.000","Units":"in","Rept_Date":"2025-02-27 12"}},{"type":"Point","coordinates":[-73.1034,44.6888],"properties":{"Station_ID":"VT-FR-21","Station_Nam":"FAIRFAX 4.9 WNW, VT","Latitude":"44.68880","Longitude":"-73.10340","Snowdepth":"13.000","Units":"in","Rept_Date":"2025-02-27 14"}},{"type":"Point","coordinates":[-72.0194,44.42],"properties":{"Station_ID":"SJBV1","Station_Nam":"SAINT JOHNSBURY","Latitude":"44.42000","Longitude":"-72.01940","Snowdepth":"13.000","Units":"in","Rept_Date":"2025-02-27 21"}},{"type":"Point","coordinates":[-70.3092,43.6461],"properties":{"Station_ID":"PWM","Station_Nam":"RESIDUAL OFFICE TO PORTLAND WSFO (GYX)","Latitude":"43.64610","Longitude":"-70.30920","Snowdepth":"13.000","Units":"in","Rept_Date":"2025-02-27 12"}},{"type":"Point","coordinates":[-89.1794,46.3976],"properties":{"Station_ID":"PDGM4","Station_Nam":"PAULDING","Latitude":"46.39760","Longitude":"-89.17940","Snowdepth":"13.000","Units":"in","Rept_Date":"2025-02-27 14"}},{"type":"Point","coordinates":[-75.30951,43.06798],"properties":{"Station_ID":"NY-OD-66","Station_Nam":"NEW HARTFORD 1.0 WSW, NY","Latitude":"43.06798","Longitude":"-75.30951","Snowdepth":"13.000","Units":"in","Rept_Date":"2025-02-27 13"}},{"type":"Point","coordinates":[-79.43815,42.2254],"properties":{"Station_ID":"NY-CQ-42","Station_Nam":"DEWITTVILLE 1.0 SSE, NY","Latitude":"42.22540","Longitude":"-79.43815","Snowdepth":"13.000","Units":"in","Rept_Date":"2025-02-27 11"}},{"type":"Point","coordinates":[-71.5044,44.5283],"properties":{"Station_ID":"NUMN3","Station_Nam":"NORTHUMBERLAND","Latitude":"44.52830","Longitude":"-71.50440","Snowdepth":"13.000","Units":"in","Rept_Date":"2025-02-27 13"}},{"type":"Point","coordinates":[-72.5056,43.3392],"properties":{"Station_ID":"NOSV1","Station_Nam":"NORTH SPRINGFIELD LAKE","Latitude":"43.33920","Longitude":"-72.50560","Snowdepth":"13.000","Units":"in","Rept_Date":"2025-02-27 12"}},{"type":"Point","coordinates":[-70.9162,43.3192],"properties":{"Station_ID":"NH-ST-55","Station_Nam":"ROCHESTER 3.4 ENE, NH","Latitude":"43.31920","Longitude":"-70.91620","Snowdepth":"13.000","Units":"in","Rept_Date":"2025-02-27 12"}},{"type":"Point","coordinates":[-71.72241,43.22974],"properties":{"Station_ID":"NH-MR-68","Station_Nam":"CONTOOCOOK 0.6 NW, NH","Latitude":"43.22974","Longitude":"-71.72241","Snowdepth":"13.000","Units":"in","Rept_Date":"2025-02-27 12"}},{"type":"Point","coordinates":[-71.6828,42.87616],"properties":{"Station_ID":"NH-HL-49","Station_Nam":"MONT VERNON 1.3 SSW, NH","Latitude":"42.87616","Longitude":"-71.68280","Snowdepth":"13.000","Units":"in","Rept_Date":"2025-02-27 13"}},{"type":"Point","coordinates":[-71.18942,43.57323],"properties":{"Station_ID":"NH-CR-50","Station_Nam":"WOLFEBORO 1.5 SE, NH","Latitude":"43.57323","Longitude":"-71.18942","Snowdepth":"13.000","Units":"in","Rept_Date":"2025-02-27 12"}},{"type":"Point","coordinates":[-71.4693,43.69844],"properties":{"Station_ID":"NH-BK-26","Station_Nam":"MEREDITH 3.3 NNE, NH","Latitude":"43.69844","Longitude":"-71.46930","Snowdepth":"13.000","Units":"in","Rept_Date":"2025-02-27 13"}},{"type":"Point","coordinates":[-71.5069,43.43556],"properties":{"Station_ID":"NH-BK-2","Station_Nam":"BELMONT 1.7 SW, NH","Latitude":"43.43556","Longitude":"-71.50690","Snowdepth":"13.000","Units":"in","Rept_Date":"2025-02-27 12"}},{"type":"Point","coordinates":[-73.8969,43.6611],"properties":{"Station_ID":"NCKN6","Station_Nam":"NORTH CREEK 5 SE","Latitude":"43.66110","Longitude":"-73.89690","Snowdepth":"13.000","Units":"in","Rept_Date":"2025-02-27 12"}},{"type":"Point","coordinates":[-87.7567,46.4055],"properties":{"Station_ID":"MI-MQ-19","Station_Nam":"ISHPEMING 7.2 SW, MI","Latitude":"46.40550","Longitude":"-87.75670","Snowdepth":"13.000","Units":"in","Rept_Date":"2025-02-27 11"}},{"type":"Point","coordinates":[-70.57619,43.63735],"properties":{"Station_ID":"ME-YK-75","Station_Nam":"BUXTON 2.8 W, ME","Latitude":"43.63735","Longitude":"-70.57619","Snowdepth":"13.000","Units":"in","Rept_Date":"2025-02-27 12"}},{"type":"Point","coordinates":[-68.98525,44.47292],"properties":{"Station_ID":"ME-WL-32","Station_Nam":"BELFAST 3.9 NNE, ME","Latitude":"44.47292","Longitude":"-68.98525","Snowdepth":"13.000","Units":"in","Rept_Date":"2025-02-27 12"}},{"type":"Point","coordinates":[-68.91732,44.55719],"properties":{"Station_ID":"ME-WL-27","Station_Nam":"PROSPECT 2.6 W, ME","Latitude":"44.55719","Longitude":"-68.91732","Snowdepth":"13.000","Units":"in","Rept_Date":"2025-02-27 12"}},{"type":"Point","coordinates":[-70.59612,44.09787],"properties":{"Station_ID":"ME-OX-26","Station_Nam":"OXFORD 5.3 SW, ME","Latitude":"44.09787","Longitude":"-70.59612","Snowdepth":"13.000","Units":"in","Rept_Date":"2025-02-27 12"}},{"type":"Point","coordinates":[-70.3476,44.39318],"properties":{"Station_ID":"ME-OX-2","Station_Nam":"HARTFORD 1.4 N, ME","Latitude":"44.39318","Longitude":"-70.34760","Snowdepth":"13.000","Units":"in","Rept_Date":"2025-02-27 13"}},{"type":"Point","coordinates":[-70.286,43.609],"properties":{"Station_ID":"ME-CM-128","Station_Nam":"SOUTH PORTLAND 1.6 S, ME","Latitude":"43.60900","Longitude":"-70.28600","Snowdepth":"13.000","Units":"in","Rept_Date":"2025-02-27 12"}},{"type":"Point","coordinates":[-70.3134,43.8464],"properties":{"Station_ID":"ME-CM-125","Station_Nam":"GRAY 2.9 SSE, ME","Latitude":"43.84640","Longitude":"-70.31340","Snowdepth":"13.000","Units":"in","Rept_Date":"2025-02-27 12"}},{"type":"Point","coordinates":[-72.74829,42.50424],"properties":{"Station_ID":"MA-FR-41","Station_Nam":"CONWAY 3.4 WSW, MA","Latitude":"42.50424","Longitude":"-72.74829","Snowdepth":"13.000","Units":"in","Rept_Date":"2025-02-27 12"}},{"type":"Point","coordinates":[-72.72743,42.54419],"properties":{"Station_ID":"MA-FR-13","Station_Nam":"CONWAY 2.9 NW, MA","Latitude":"42.54419","Longitude":"-72.72743","Snowdepth":"13.000","Units":"in","Rept_Date":"2025-02-27 12"}},{"type":"Point","coordinates":[-72.3247,42.939],"properties":{"Station_ID":"KEEN3","Station_Nam":"KEENE","Latitude":"42.93900","Longitude":"-72.32470","Snowdepth":"13.000","Units":"in","Rept_Date":"2025-02-27 12"}},{"type":"Point","coordinates":[-68.81666,44.8],"properties":{"Station_ID":"KBGR","Station_Nam":"BANGOR INTL AIRPORT","Latitude":"44.80000","Longitude":"-68.81666","Snowdepth":"13.000","Units":"in","Rept_Date":"2025-02-28 06"}},{"type":"Point","coordinates":[-70.255,43.8925],"properties":{"Station_ID":"GYX","Station_Nam":"PORTLAND, ME","Latitude":"43.89250","Longitude":"-70.25500","Snowdepth":"13.000","Units":"in","Rept_Date":"2025-02-27 12"}},{"type":"Point","coordinates":[-71.7985,42.7827],"properties":{"Station_ID":"GREN3","Station_Nam":"GREENVILLE 1 NNE","Latitude":"42.78270","Longitude":"-71.79850","Snowdepth":"13.000","Units":"in","Rept_Date":"2025-02-27 13"}},{"type":"Point","coordinates":[-71.6537,43.4703],"properties":{"Station_ID":"FFLN3","Station_Nam":"FRANKLIN FALLS DAM","Latitude":"43.47030","Longitude":"-71.65370","Snowdepth":"13.000","Units":"in","Rept_Date":"2025-02-27 12"}},{"type":"Point","coordinates":[-91.8283,47.9056],"properties":{"Station_ID":"ELYM5","Station_Nam":"ELY","Latitude":"47.90560","Longitude":"-91.82830","Snowdepth":"13.000","Units":"in","Rept_Date":"2025-02-27 14"}},{"type":"Point","coordinates":[-79.8355,43.37134],"properties":{"Station_ID":"CAN-ON-33","Station_Nam":"BURLINGTON 1.7 W, CA","Latitude":"43.37134","Longitude":"-79.83550","Snowdepth":"13.000","Units":"in","Rept_Date":"2025-02-27 12"}},{"type":"Point","coordinates":[-52.71336,47.56404],"properties":{"Station_ID":"CAN-NL-2","Station_Nam":"ST. JOHN'S 0.4 N, CAN","Latitude":"47.56404","Longitude":"-52.71336","Snowdepth":"13.000","Units":"in","Rept_Date":"2025-02-27 10"}},{"type":"Point","coordinates":[-65.05609,46.71424],"properties":{"Station_ID":"CAN-NB-96","Station_Nam":"SAINT-IGNACE 2.6 NE, CAN","Latitude":"46.71424","Longitude":"-65.05609","Snowdepth":"13.000","Units":"in","Rept_Date":"2025-02-27 11"}},{"type":"Point","coordinates":[-75.4349,43.887],"properties":{"Station_ID":"BVRN6","Station_Nam":"BEAVER FALLS","Latitude":"43.88700","Longitude":"-75.43490","Snowdepth":"13.000","Units":"in","Rept_Date":"2025-02-27 12"}},{"type":"Point","coordinates":[-71.1854,44.4535],"properties":{"Station_ID":"BRLN3","Station_Nam":"BERLIN","Latitude":"44.45350","Longitude":"-71.18540","Snowdepth":"13.000","Units":"in","Rept_Date":"2025-02-27 12"}},{"type":"Point","coordinates":[-68.8133,44.8044],"properties":{"Station_ID":"BGRM1","Station_Nam":"BANGOR FSS","Latitude":"44.80440","Longitude":"-68.81330","Snowdepth":"13.000","Units":"in","Rept_Date":"2025-02-28 06"}},{"type":"Point","coordinates":[-75.6147,48.8722],"properties":{"Station_ID":"CQYR","Station_Nam":"CQYR","Latitude":"48.87220","Longitude":"-75.61470","Snowdepth":"12.795","Units":"in","Rept_Date":"2025-02-27 12"}},{"type":"Point","coordinates":[-71.57893,43.30277],"properties":{"Station_ID":"NH-MR-55","Station_Nam":"CANTERBURY 2.5 SSW, NH","Latitude":"43.30277","Longitude":"-71.57893","Snowdepth":"12.600","Units":"in","Rept_Date":"2025-02-27 13"}},{"type":"Point","coordinates":[-63.33409,46.25082],"properties":{"Station_ID":"CAN-PE-20","Station_Nam":"BONSHAW 6.6 NNE, CAN","Latitude":"46.25082","Longitude":"-63.33409","Snowdepth":"12.600","Units":"in","Rept_Date":"2025-02-27 12"}},{"type":"Point","coordinates":[-80.73688,43.13734],"properties":{"Station_ID":"CAN-ON-525","Station_Nam":"WOODSTOCK 1.2 ENE, CAN","Latitude":"43.13734","Longitude":"-80.73688","Snowdepth":"12.600","Units":"in","Rept_Date":"2025-02-27 12"}},{"type":"Point","coordinates":[-66.85538,45.97014],"properties":{"Station_ID":"CAN-NB-64","Station_Nam":"KESWICK RIDGE 4.0 SE, CAN","Latitude":"45.97014","Longitude":"-66.85538","Snowdepth":"12.600","Units":"in","Rept_Date":"2025-02-27 12"}},{"type":"Point","coordinates":[-90.85854,46.88063],"properties":{"Station_ID":"WI-BY-29","Station_Nam":"BAYFIELD 5.1 NNW, WI","Latitude":"46.88063","Longitude":"-90.85854","Snowdepth":"12.500","Units":"in","Rept_Date":"2025-02-27 13"}},{"type":"Point","coordinates":[-73.7126,43.4403],"properties":{"Station_ID":"NY-WR-17","Station_Nam":"LAKE GEORGE 1.0 N, NY","Latitude":"43.44030","Longitude":"-73.71260","Snowdepth":"12.500","Units":"in","Rept_Date":"2025-02-27 12"}},{"type":"Point","coordinates":[-72.3297,43.28652],"properties":{"Station_ID":"NH-SL-3","Station_Nam":"WEST UNITY 0.7 WSW, NH","Latitude":"43.28652","Longitude":"-72.32970","Snowdepth":"12.500","Units":"in","Rept_Date":"2025-02-27 12"}},{"type":"Point","coordinates":[-71.0641,43.058],"properties":{"Station_ID":"NH-RC-101","Station_Nam":"EPPING 2.0 NNE, NH","Latitude":"43.05800","Longitude":"-71.06410","Snowdepth":"12.500","Units":"in","Rept_Date":"2025-02-27 13"}},{"type":"Point","coordinates":[-71.5764,44.49611],"properties":{"Station_ID":"NH-CS-7","Station_Nam":"LANCASTER 0.5 N, NH","Latitude":"44.49611","Longitude":"-71.57640","Snowdepth":"12.500","Units":"in","Rept_Date":"2025-02-27 12"}},{"type":"Point","coordinates":[-72.3157,42.9373],"properties":{"Station_ID":"NH-CH-27","Station_Nam":"KEENE 1.3 SW, NH","Latitude":"42.93730","Longitude":"-72.31570","Snowdepth":"12.500","Units":"in","Rept_Date":"2025-02-27 12"}},{"type":"Point","coordinates":[-71.55,43.48],"properties":{"Station_ID":"NH-BK-1","Station_Nam":"TILTON NORTHFIELD 3.3 NE, NH","Latitude":"43.48000","Longitude":"-71.55000","Snowdepth":"12.500","Units":"in","Rept_Date":"2025-02-27 12"}},{"type":"Point","coordinates":[-87.45705,46.47288],"properties":{"Station_ID":"MI-MQ-30","Station_Nam":"MARQUETTE 6.1 SSW, MI","Latitude":"46.47288","Longitude":"-87.45705","Snowdepth":"12.500","Units":"in","Rept_Date":"2025-02-27 13"}},{"type":"Point","coordinates":[-70.4663,43.8567],"properties":{"Station_ID":"WNDM1","Station_Nam":"WINDHAM 2NW","Latitude":"43.85670","Longitude":"-70.46630","Snowdepth":"12.000","Units":"in","Rept_Date":"2025-02-27 12"}},{"type":"Point","coordinates":[-72.79885,44.11205],"properties":{"Station_ID":"VT-WS-41","Station_Nam":"WARREN 2.8 E, VT","Latitude":"44.11205","Longitude":"-72.79885","Snowdepth":"12.000","Units":"in","Rept_Date":"2025-02-27 12"}},{"type":"Point","coordinates":[-72.2572,43.7917],"properties":{"Station_ID":"UVDV1","Station_Nam":"NERON SITE AT UNION VILLAGE DAM","Latitude":"43.79170","Longitude":"-72.25720","Snowdepth":"12.000","Units":"in","Rept_Date":"2025-02-27 12"}},{"type":"Point","coordinates":[-85.512,44.7338],"properties":{"Station_ID":"TCEM4","Station_Nam":"TRAVERSE CITY 4.7ESE","Latitude":"44.73380","Longitude":"-85.51200","Snowdepth":"12.000","Units":"in","Rept_Date":"2025-02-27 12"}},{"type":"Point","coordinates":[-72.9718,44.0746],"properties":{"Station_ID":"SLNV1","Station_Nam":"SOUTH LINCOLN","Latitude":"44.07460","Longitude":"-72.97180","Snowdepth":"12.000","Units":"in","Rept_Date":"2025-02-27 12"}},{"type":"Point","coordinates":[-71.383,45.0469],"properties":{"Station_ID":"PTBN3","Station_Nam":"PITTSBURG RESERVOIR","Latitude":"45.04690","Longitude":"-71.38300","Snowdepth":"12.000","Units":"in","Rept_Date":"2025-02-27 12"}},{"type":"Point","coordinates":[-72.9264,44.4497],"properties":{"Station_ID":"NVLV1","Station_Nam":"NASHVILLE","Latitude":"44.44970","Longitude":"-72.92640","Snowdepth":"12.000","Units":"in","Rept_Date":"2025-02-27 12"}},{"type":"Point","coordinates":[-72.3621,43.6027],"properties":{"Station_ID":"NOHV1","Station_Nam":"NORTH HARTLAND LAKE","Latitude":"43.60270","Longitude":"-72.36210","Snowdepth":"12.000","Units":"in","Rept_Date":"2025-02-27 12"}},{"type":"Point","coordinates":[-71.95126,43.33522],"properties":{"Station_ID":"NH-MR-63","Station_Nam":"SUTTON MILLS 0.1 ENE, NH","Latitude":"43.33522","Longitude":"-71.95126","Snowdepth":"12.000","Units":"in","Rept_Date":"2025-02-27 12"}},{"type":"Point","coordinates":[-71.5351,43.62245],"properties":{"Station_ID":"NH-BK-9","Station_Nam":"MEREDITH 2.9 SSW, NH","Latitude":"43.62245","Longitude":"-71.53510","Snowdepth":"12.000","Units":"in","Rept_Date":"2025-02-27 12"}},{"type":"Point","coordinates":[-91.86887,47.91158],"properties":{"Station_ID":"MN-SL-276","Station_Nam":"ELY 0.9 WNW, MN","Latitude":"47.91158","Longitude":"-91.86887","Snowdepth":"12.000","Units":"in","Rept_Date":"2025-02-27 14"}},{"type":"Point","coordinates":[-91.246,47.413],"properties":{"Station_ID":"MN-LK-52","Station_Nam":"FINLAND 0.1 S, MN","Latitude":"47.41300","Longitude":"-91.24600","Snowdepth":"12.000","Units":"in","Rept_Date":"2025-02-27 12"}},{"type":"Point","coordinates":[-84.25089,44.24814],"properties":{"Station_ID":"MI-OG-6","Station_Nam":"WEST BRANCH 2.1 SSW, MI","Latitude":"44.24814","Longitude":"-84.25089","Snowdepth":"12.000","Units":"in","Rept_Date":"2025-02-27 12"}},{"type":"Point","coordinates":[-85.51189,44.7337],"properties":{"Station_ID":"MI-GT-25","Station_Nam":"TRAVERSE CITY 4.7 ESE, MI","Latitude":"44.73370","Longitude":"-85.51189","Snowdepth":"12.000","Units":"in","Rept_Date":"2025-02-27 12"}},{"type":"Point","coordinates":[-70.78458,43.23701],"properties":{"Station_ID":"ME-YK-80","Station_Nam":"SOUTH BERWICK 1.3 E, ME","Latitude":"43.23701","Longitude":"-70.78458","Snowdepth":"12.000","Units":"in","Rept_Date":"2025-02-27 13"}},{"type":"Point","coordinates":[-70.69539,43.78308],"properties":{"Station_ID":"ME-YK-67","Station_Nam":"CORNISH 5.6 ESE, ME","Latitude":"43.78308","Longitude":"-70.69539","Snowdepth":"12.000","Units":"in","Rept_Date":"2025-02-27 12"}},{"type":"Point","coordinates":[-68.69446,44.87005],"properties":{"Station_ID":"ME-PN-55","Station_Nam":"ORONO 1.1 SSW, ME","Latitude":"44.87005","Longitude":"-68.69446","Snowdepth":"12.000","Units":"in","Rept_Date":"2025-02-27 12"}},{"type":"Point","coordinates":[-69.85635,44.33008],"properties":{"Station_ID":"ME-KB-55","Station_Nam":"MANCHESTER 0.5 NE, ME","Latitude":"44.33008","Longitude":"-69.85635","Snowdepth":"12.000","Units":"in","Rept_Date":"2025-02-27 12"}},{"type":"Point","coordinates":[-70.462,43.85787],"properties":{"Station_ID":"ME-CM-54","Station_Nam":"WINDHAM 3.9 NW, ME","Latitude":"43.85787","Longitude":"-70.46200","Snowdepth":"12.000","Units":"in","Rept_Date":"2025-02-27 12"}},{"type":"Point","coordinates":[-70.3055,43.70288],"properties":{"Station_ID":"ME-CM-18","Station_Nam":"PORTLAND 5.5 WNW, ME","Latitude":"43.70288","Longitude":"-70.30550","Snowdepth":"12.000","Units":"in","Rept_Date":"2025-02-27 12"}},{"type":"Point","coordinates":[-71.9842,42.8941],"properties":{"Station_ID":"MCDN3","Station_Nam":"EDWARD MACDOWELL LAKE","Latitude":"42.89410","Longitude":"-71.98420","Snowdepth":"12.000","Units":"in","Rept_Date":"2025-02-27 12"}},{"type":"Point","coordinates":[-73.1506,42.5939],"properties":{"Station_ID":"MA-BE-36","Station_Nam":"CHESHIRE 2.6 N, MA","Latitude":"42.59390","Longitude":"-73.15060","Snowdepth":"12.000","Units":"in","Rept_Date":"2025-02-27 12"}},{"type":"Point","coordinates":[-89.0758,46.1211],"properties":{"Station_ID":"LVDW3","Station_Nam":"LAC VIEUX DESERT","Latitude":"46.12110","Longitude":"-89.07580","Snowdepth":"12.000","Units":"in","Rept_Date":"2025-02-27 15"}},{"type":"Point","coordinates":[-70.1753,44.9595],"properties":{"Station_ID":"KINM1","Station_Nam":"KINGFIELD","Latitude":"44.95950","Longitude":"-70.17530","Snowdepth":"12.000","Units":"in","Rept_Date":"2025-02-27 12"}},{"type":"Point","coordinates":[-83.2958,44.6497],"properties":{"Station_ID":"HRSM4","Station_Nam":"HARRISVILLE STATE PARK","Latitude":"44.64970","Longitude":"-83.29580","Snowdepth":"12.000","Units":"in","Rept_Date":"2025-02-27 13"}},{"type":"Point","coordinates":[-71.202,42.9108],"properties":{"Station_ID":"HMPN3","Station_Nam":"WEST HAMPSTEAD","Latitude":"42.91080","Longitude":"-71.20200","Snowdepth":"12.000","Units":"in","Rept_Date":"2025-02-27 12"}},{"type":"Point","coordinates":[-75.4767,44.3926],"properties":{"Station_ID":"GOVN6","Station_Nam":"GOUVERNEUR 4 NNW","Latitude":"44.39260","Longitude":"-75.47670","Snowdepth":"12.000","Units":"in","Rept_Date":"2025-02-28 00"}},{"type":"Point","coordinates":[-90.8875,48.1667],"properties":{"Station_ID":"GNFM5","Station_Nam":"GUNFLINT LAKE","Latitude":"48.16670","Longitude":"-90.88750","Snowdepth":"12.000","Units":"in","Rept_Date":"2025-02-27 13"}},{"type":"Point","coordinates":[-85.1322,45.1519],"properties":{"Station_ID":"EJDM4","Station_Nam":"EAST JORDAN","Latitude":"45.15190","Longitude":"-85.13220","Snowdepth":"12.000","Units":"in","Rept_Date":"2025-02-27 13"}},{"type":"Point","coordinates":[-68.6356,44.6788],"properties":{"Station_ID":"DHMM1","Station_Nam":"DEDHAM","Latitude":"44.67880","Longitude":"-68.63560","Snowdepth":"12.000","Units":"in","Rept_Date":"2025-02-27 12"}},{"type":"Point","coordinates":[-71.5392,44.861],"properties":{"Station_ID":"COLN3","Station_Nam":"COLEBROOK 3SW","Latitude":"44.86100","Longitude":"-71.53920","Snowdepth":"12.000","Units":"in","Rept_Date":"2025-02-27 12"}},{"type":"Point","coordinates":[-60.3151,46.05645],"properties":{"Station_ID":"CAN-NS-60","Station_Nam":"SYDNEY FORKS, CAN","Latitude":"46.05645","Longitude":"-60.31510","Snowdepth":"12.000","Units":"in","Rept_Date":"2025-02-27 12"}},{"type":"Point","coordinates":[-91.8624,47.2472],"properties":{"Station_ID":"BRMM5","Station_Nam":"BRIMSON 2S","Latitude":"47.24720","Longitude":"-91.86240","Snowdepth":"12.000","Units":"in","Rept_Date":"2025-02-27 13"}},{"type":"Point","coordinates":[-68.8184,44.7978],"properties":{"Station_ID":"BGR","Station_Nam":"BANGOR INTL ARPT","Latitude":"44.79780","Longitude":"-68.81840","Snowdepth":"12.000","Units":"in","Rept_Date":"2025-02-27 12"}},{"type":"Point","coordinates":[-80.4318,43.45147],"properties":{"Station_ID":"CAN-ON-593","Station_Nam":"KITCHENER 4.5 E, CAN","Latitude":"43.45147","Longitude":"-80.43180","Snowdepth":"11.800","Units":"in","Rept_Date":"2025-02-27 13"}},{"type":"Point","coordinates":[-66.71389,45.09355],"properties":{"Station_ID":"CAN-NB-104","Station_Nam":"PENNFIELD RIDGE 2.7 SSW, CAN","Latitude":"45.09355","Longitude":"-66.71389","Snowdepth":"11.800","Units":"in","Rept_Date":"2025-02-27 11"}},{"type":"Point","coordinates":[-65.52858,45.7267],"properties":{"Station_ID":"CAN-NB-29","Station_Nam":"SUSSEX 1.0 WNW - KWRC, CAN","Latitude":"45.72670","Longitude":"-65.52858","Snowdepth":"11.700","Units":"in","Rept_Date":"2025-02-27 12"}},{"type":"Point","coordinates":[-87.9051,51.5582],"properties":{"Station_ID":"FTHQ6","Station_Nam":"FORT HOPE","Latitude":"51.55820","Longitude":"-87.90510","Snowdepth":"11.690","Units":"in","Rept_Date":"2025-02-28 06"}},{"type":"Point","coordinates":[-66.69665,44.63373],"properties":{"Station_ID":"CAN-NB-172","Station_Nam":"WHITE HEAD 1.5 ESE, CAN","Latitude":"44.63373","Longitude":"-66.69665","Snowdepth":"11.600","Units":"in","Rept_Date":"2025-02-27 09"}},{"type":"Point","coordinates":[-72.9188,44.59811],"properties":{"Station_ID":"VT-CH-11","Station_Nam":"UNDERHILL 5.1 NNE, VT","Latitude":"44.59811","Longitude":"-72.91880","Snowdepth":"11.500","Units":"in","Rept_Date":"2025-02-27 12"}},{"type":"Point","coordinates":[-73.7801,43.06032],"properties":{"Station_ID":"NY-SR-4","Station_Nam":"SARATOGA SPRINGS 0.5 S, NY","Latitude":"43.06032","Longitude":"-73.78010","Snowdepth":"11.500","Units":"in","Rept_Date":"2025-02-27 12"}},{"type":"Point","coordinates":[-71.51431,43.22922],"properties":{"Station_ID":"NH-MR-71","Station_Nam":"CONCORD 2.3 E, NH","Latitude":"43.22922","Longitude":"-71.51431","Snowdepth":"11.500","Units":"in","Rept_Date":"2025-02-27 12"}},{"type":"Point","coordinates":[-70.29266,43.65966],"properties":{"Station_ID":"ME-CM-165","Station_Nam":"PORTLAND 4.3 W, ME","Latitude":"43.65966","Longitude":"-70.29266","Snowdepth":"11.500","Units":"in","Rept_Date":"2025-02-27 12"}},{"type":"Point","coordinates":[-70.26452,44.11275],"properties":{"Station_ID":"ME-AN-41","Station_Nam":"AUBURN 2.1 NNW, ME","Latitude":"44.11275","Longitude":"-70.26452","Snowdepth":"11.500","Units":"in","Rept_Date":"2025-02-27 12"}},{"type":"Point","coordinates":[-66.6283,45.92897],"properties":{"Station_ID":"CAN-NB-1","Station_Nam":"FREDERICTON 4.0 SSE, CA","Latitude":"45.92897","Longitude":"-66.62830","Snowdepth":"11.200","Units":"in","Rept_Date":"2025-02-27 12"}},{"type":"Point","coordinates":[-89.4579,46.19023],"properties":{"Station_ID":"WI-VL-9","Station_Nam":"LAND O' LAKES 11.7 W, WI","Latitude":"46.19023","Longitude":"-89.45790","Snowdepth":"11.000","Units":"in","Rept_Date":"2025-02-27 13"}},{"type":"Point","coordinates":[-73.07154,44.43669],"properties":{"Station_ID":"VT-CH-38","Station_Nam":"WILLISTON 0.2 WSW, VT","Latitude":"44.43669","Longitude":"-73.07154","Snowdepth":"11.000","Units":"in","Rept_Date":"2025-02-27 12"}},{"type":"Point","coordinates":[-73.16844,44.01808],"properties":{"Station_ID":"VT-AD-24","Station_Nam":"MIDDLEBURY 0.3 N, VT","Latitude":"44.01808","Longitude":"-73.16844","Snowdepth":"11.000","Units":"in","Rept_Date":"2025-02-27 12"}},{"type":"Point","coordinates":[-70.3614,44.007],"properties":{"Station_ID":"POLM1","Station_Nam":"POLAND","Latitude":"44.00700","Longitude":"-70.36140","Snowdepth":"11.000","Units":"in","Rept_Date":"2025-02-27 12"}},{"type":"Point","coordinates":[-72.2333,42.95],"properties":{"Station_ID":"OTTN3","Station_Nam":"OTTER BROOK LAKE","Latitude":"42.95000","Longitude":"-72.23330","Snowdepth":"11.000","Units":"in","Rept_Date":"2025-02-27 12"}},{"type":"Point","coordinates":[-75.6686,43.08012],"properties":{"Station_ID":"NY-MD-22","Station_Nam":"ONEIDA 0.4 NW, NY","Latitude":"43.08012","Longitude":"-75.66860","Snowdepth":"11.000","Units":"in","Rept_Date":"2025-02-27 12"}},{"type":"Point","coordinates":[-71.819,43.52],"properties":{"Station_ID":"NH-MR-6","Station_Nam":"DANBURY 2.2 ESE, NH","Latitude":"43.52000","Longitude":"-71.81900","Snowdepth":"11.000","Units":"in","Rept_Date":"2025-02-27 13"}},{"type":"Point","coordinates":[-85.5162,46.3515],"properties":{"Station_ID":"NCFM4","Station_Nam":"NEWBERRY-LUCE COUNTY ROAD COMMISSION","Latitude":"46.35150","Longitude":"-85.51620","Snowdepth":"11.000","Units":"in","Rept_Date":"2025-02-27 13"}},{"type":"Point","coordinates":[-71.3,44.2667],"properties":{"Station_ID":"MWN","Station_Nam":"MOUNT WASHINGTON","Latitude":"44.26670","Longitude":"-71.30000","Snowdepth":"11.000","Units":"in","Rept_Date":"2025-02-27 12"}},{"type":"Point","coordinates":[-87.5492,46.5314],"properties":{"Station_ID":"MQT","Station_Nam":"MARQUETTE, MI","Latitude":"46.53140","Longitude":"-87.54920","Snowdepth":"11.000","Units":"in","Rept_Date":"2025-02-28 06"}},{"type":"Point","coordinates":[-93.216,48.59631],"properties":{"Station_ID":"MN-KC-20","Station_Nam":"INTERNATIONAL FALLS 8.8 E, MN","Latitude":"48.59631","Longitude":"-93.21600","Snowdepth":"11.000","Units":"in","Rept_Date":"2025-02-27 13"}},{"type":"Point","coordinates":[-69.8573,43.93063],"properties":{"Station_ID":"ME-SG-1","Station_Nam":"BATH 1.1 WSW, ME","Latitude":"43.93063","Longitude":"-69.85730","Snowdepth":"11.000","Units":"in","Rept_Date":"2025-02-27 12"}},{"type":"Point","coordinates":[-70.01841,43.77025],"properties":{"Station_ID":"ME-CM-148","Station_Nam":"HARPSWELL 3.1 WSW, ME","Latitude":"43.77025","Longitude":"-70.01841","Snowdepth":"11.000","Units":"in","Rept_Date":"2025-02-27 12"}},{"type":"Point","coordinates":[-71.71653,42.6018],"properties":{"Station_ID":"MA-WR-58","Station_Nam":"LUNENBURG 0.6 NE, MA","Latitude":"42.60180","Longitude":"-71.71653","Snowdepth":"11.000","Units":"in","Rept_Date":"2025-02-27 20"}},{"type":"Point","coordinates":[-72.56443,42.65629],"properties":{"Station_ID":"MA-FR-35","Station_Nam":"BERNARDSTON 1.0 SW, MA","Latitude":"42.65629","Longitude":"-72.56443","Snowdepth":"11.000","Units":"in","Rept_Date":"2025-02-27 13"}},{"type":"Point","coordinates":[-71.02707,42.58133],"properties":{"Station_ID":"MA-ES-58","Station_Nam":"MIDDLETON 1.4 SSW, MA","Latitude":"42.58133","Longitude":"-71.02707","Snowdepth":"11.000","Units":"in","Rept_Date":"2025-02-27 13"}},{"type":"Point","coordinates":[-73.15701,42.56315],"properties":{"Station_ID":"MA-BE-21","Station_Nam":"CHESHIRE 0.5 NNW, MA","Latitude":"42.56315","Longitude":"-73.15701","Snowdepth":"11.000","Units":"in","Rept_Date":"2025-02-27 12"}},{"type":"Point","coordinates":[-89.457,46.19],"properties":{"Station_ID":"LNOW3","Station_Nam":"LAND O LAKES","Latitude":"46.19000","Longitude":"-89.45700","Snowdepth":"11.000","Units":"in","Rept_Date":"2025-02-27 13"}},{"type":"Point","coordinates":[-71.3,44.26666],"properties":{"Station_ID":"KMWN","Station_Nam":"MOUNT WASHINGTON","Latitude":"44.26666","Longitude":"-71.30000","Snowdepth":"11.000","Units":"in","Rept_Date":"2025-02-28 06"}},{"type":"Point","coordinates":[-85.1727,44.728],"properties":{"Station_ID":"KLKM4","Station_Nam":"KALKASKA","Latitude":"44.72800","Longitude":"-85.17270","Snowdepth":"11.000","Units":"in","Rept_Date":"2025-02-27 13"}},{"type":"Point","coordinates":[-69.2806,45.1369],"properties":{"Station_ID":"ESGM1","Station_Nam":"EAST SANGERVILLE","Latitude":"45.13690","Longitude":"-69.28060","Snowdepth":"11.000","Units":"in","Rept_Date":"2025-02-27 12"}},{"type":"Point","coordinates":[-92.6925,47.8506],"properties":{"Station_ID":"COKM5","Station_Nam":"COOK","Latitude":"47.85060","Longitude":"-92.69250","Snowdepth":"11.000","Units":"in","Rept_Date":"2025-02-27 12"}},{"type":"Point","coordinates":[-78.7111,42.6472],"properties":{"Station_ID":"CODN6","Station_Nam":"COLDEN","Latitude":"42.64720","Longitude":"-78.71110","Snowdepth":"11.000","Units":"in","Rept_Date":"2025-02-27 12"}},{"type":"Point","coordinates":[-73.9256,43.3203],"properties":{"Station_ID":"CNKN6","Station_Nam":"CONKLINGVILLE DAM","Latitude":"43.32030","Longitude":"-73.92560","Snowdepth":"11.000","Units":"in","Rept_Date":"2025-02-27 13"}},{"type":"Point","coordinates":[-68.0125,46.8681],"properties":{"Station_ID":"CARM1","Station_Nam":"CARIBOU WFO","Latitude":"46.86810","Longitude":"-68.01250","Snowdepth":"11.000","Units":"in","Rept_Date":"2025-02-28 05"}},{"type":"Point","coordinates":[-79.27299,43.68938],"properties":{"Station_ID":"CAN-ON-837","Station_Nam":"TORONTO 9.7 ENE, CAN","Latitude":"43.68938","Longitude":"-79.27299","Snowdepth":"11.000","Units":"in","Rept_Date":"2025-02-27 12"}},{"type":"Point","coordinates":[-65.1169,45.00427],"properties":{"Station_ID":"CAN-NS-23","Station_Nam":"MIDDLETON 7.8 NNW, CA","Latitude":"45.00427","Longitude":"-65.11690","Snowdepth":"11.000","Units":"in","Rept_Date":"2025-02-27 11"}},{"type":"Point","coordinates":[-66.5544,45.54763],"properties":{"Station_ID":"CAN-NB-98","Station_Nam":"HOYT 4.2 S, CAN","Latitude":"45.54763","Longitude":"-66.55440","Snowdepth":"11.000","Units":"in","Rept_Date":"2025-02-27 11"}},{"type":"Point","coordinates":[-69.8564,43.9316],"properties":{"Station_ID":"BTHM1","Station_Nam":"BATH","Latitude":"43.93160","Longitude":"-69.85640","Snowdepth":"11.000","Units":"in","Rept_Date":"2025-02-27 12"}},{"type":"Point","coordinates":[-73.0872,44.1402],"properties":{"Station_ID":"BRIV1","Station_Nam":"BRISTOL","Latitude":"44.14020","Longitude":"-73.08720","Snowdepth":"11.000","Units":"in","Rept_Date":"2025-02-27 12"}},{"type":"Point","coordinates":[-86.1311,44.5316],"properties":{"Station_ID":"BEUM4","Station_Nam":"BEULAH 7SSW","Latitude":"44.53160","Longitude":"-86.13110","Snowdepth":"11.000","Units":"in","Rept_Date":"2025-02-27 13"}},{"type":"Point","coordinates":[-71.9359,42.6617],"properties":{"Station_ID":"ABNM3","Station_Nam":"ASHBURNHAM NORTH","Latitude":"42.66170","Longitude":"-71.93590","Snowdepth":"11.000","Units":"in","Rept_Date":"2025-02-27 13"}},{"type":"Point","coordinates":[-92.0251,46.89158],"properties":{"Station_ID":"56581_MADIS","Station_Nam":"DULUTH 8.4 NNE, MN","Latitude":"46.89158","Longitude":"-92.02510","Snowdepth":"11.000","Units":"in","Rept_Date":"2025-02-27 12"}},{"type":"Point","coordinates":[-79.62089,43.53417],"properties":{"Station_ID":"CAN-ON-646","Station_Nam":"MISSISSAUGA 6.4 SSE - CANWARN, CAN","Latitude":"43.53417","Longitude":"-79.62089","Snowdepth":"10.600","Units":"in","Rept_Date":"2025-02-27 14"}},{"type":"Point","coordinates":[-73.21765,44.38259],"properties":{"Station_ID":"VT-CH-50","Station_Nam":"SHELBURNE 0.5 ENE, VT","Latitude":"44.38259","Longitude":"-73.21765","Snowdepth":"10.500","Units":"in","Rept_Date":"2025-02-27 13"}},{"type":"Point","coordinates":[-69.2616,44.3768],"properties":{"Station_ID":"ME-WL-12","Station_Nam":"SEARSMONT 3.5 WNW, ME","Latitude":"44.37680","Longitude":"-69.26160","Snowdepth":"10.500","Units":"in","Rept_Date":"2025-02-27 12"}},{"type":"Point","coordinates":[-69.9887,43.9016],"properties":{"Station_ID":"52111_MADIS","Station_Nam":"BRUNSWICK 2.6 WSW, ME","Latitude":"43.90160","Longitude":"-69.98870","Snowdepth":"10.500","Units":"in","Rept_Date":"2025-02-27 12"}},{"type":"Point","coordinates":[-64.218,45.76986],"properties":{"Station_ID":"CAN-NS-86","Station_Nam":"NAPPAN 1.7 E, CA","Latitude":"45.76986","Longitude":"-64.21800","Snowdepth":"10.400","Units":"in","Rept_Date":"2025-02-27 13"}},{"type":"Point","coordinates":[-73.4594,48.4889],"properties":{"Station_ID":"CQWG","Station_Nam":"CQWG","Latitude":"48.48890","Longitude":"-73.45940","Snowdepth":"10.157","Units":"in","Rept_Date":"2025-02-27 12"}},{"type":"Point","coordinates":[-69.9701,44.3065],"properties":{"Station_ID":"WTHM1","Station_Nam":"WINTHROP","Latitude":"44.30650","Longitude":"-69.97010","Snowdepth":"10.000","Units":"in","Rept_Date":"2025-02-27 13"}},{"type":"Point","coordinates":[-71.2019,43.5902],"properties":{"Station_ID":"WOLN3","Station_Nam":"WOLFEBORO","Latitude":"43.59020","Longitude":"-71.20190","Snowdepth":"10.000","Units":"in","Rept_Date":"2025-02-27 12"}},{"type":"Point","coordinates":[-71.746,43.189],"properties":{"Station_ID":"WHPN3","Station_Nam":"HOPKINTON LAKE","Latitude":"43.18900","Longitude":"-71.74600","Snowdepth":"10.000","Units":"in","Rept_Date":"2025-02-27 12"}},{"type":"Point","coordinates":[-71.9156,43.9519],"properties":{"Station_ID":"WENN3","Station_Nam":"P.O. BOX 197 WENTWORTH, NH","Latitude":"43.95190","Longitude":"-71.91560","Snowdepth":"10.000","Units":"in","Rept_Date":"2025-02-27 12"}},{"type":"Point","coordinates":[-72.964,44.36084],"properties":{"Station_ID":"VT-CH-13","Station_Nam":"RICHMOND 3.4 SSE, VT","Latitude":"44.36084","Longitude":"-72.96400","Snowdepth":"10.000","Units":"in","Rept_Date":"2025-02-27 12"}},{"type":"Point","coordinates":[-70.2561,44.2822],"properties":{"Station_ID":"TURM1","Station_Nam":"TURNER","Latitude":"44.28220","Longitude":"-70.25610","Snowdepth":"10.000","Units":"in","Rept_Date":"2025-02-27 12"}},{"type":"Point","coordinates":[-93.0266,47.8663],"properties":{"Station_ID":"TOGM5","Station_Nam":"CELINA 2E","Latitude":"47.86630","Longitude":"-93.02660","Snowdepth":"10.000","Units":"in","Rept_Date":"2025-02-27 14"}},{"type":"Point","coordinates":[-76.25193,43.18876],"properties":{"Station_ID":"NY-OG-71","Station_Nam":"LIVERPOOL 6.1 NNW, NY","Latitude":"43.18876","Longitude":"-76.25193","Snowdepth":"10.000","Units":"in","Rept_Date":"2025-02-27 12"}},{"type":"Point","coordinates":[-70.0002,44.6352],"properties":{"Station_ID":"NWSM1","Station_Nam":"NEW SHARON","Latitude":"44.63520","Longitude":"-70.00020","Snowdepth":"10.000","Units":"in","Rept_Date":"2025-02-27 12"}},{"type":"Point","coordinates":[-71.27195,42.90141],"properties":{"Station_ID":"NH-RC-98","Station_Nam":"DERRY 0.9 ENE, NH","Latitude":"42.90141","Longitude":"-71.27195","Snowdepth":"10.000","Units":"in","Rept_Date":"2025-02-27 12"}},{"type":"Point","coordinates":[-71.4143,43.2115],"properties":{"Station_ID":"NH-MR-25","Station_Nam":"CHICHESTER 2.7 SSW, NH","Latitude":"43.21150","Longitude":"-71.41430","Snowdepth":"10.000","Units":"in","Rept_Date":"2025-02-28 05"}},{"type":"Point","coordinates":[-92.2392,47.4246],"properties":{"Station_ID":"MN-SL-291","Station_Nam":"AURORA 7.4 S, MN","Latitude":"47.42460","Longitude":"-92.23920","Snowdepth":"10.000","Units":"in","Rept_Date":"2025-02-27 13"}},{"type":"Point","coordinates":[-92.6313,47.4615],"properties":{"Station_ID":"MN-SL-108","Station_Nam":"IRON JUNCTION 3.4 NNW, MN","Latitude":"47.46150","Longitude":"-92.63130","Snowdepth":"10.000","Units":"in","Rept_Date":"2025-02-27 10"}},{"type":"Point","coordinates":[-84.1028,44.7476],"properties":{"Station_ID":"MI-OD-4","Station_Nam":"MIO 6.2 NNE, MI","Latitude":"44.74760","Longitude":"-84.10280","Snowdepth":"10.000","Units":"in","Rept_Date":"2025-02-27 12"}},{"type":"Point","coordinates":[-85.95783,44.22875],"properties":{"Station_ID":"MI-MN-1","Station_Nam":"WELLSTON 0.8 N, MI","Latitude":"44.22875","Longitude":"-85.95783","Snowdepth":"10.000","Units":"in","Rept_Date":"2025-02-27 15"}},{"type":"Point","coordinates":[-83.4992,44.28322],"properties":{"Station_ID":"MI-IC-3","Station_Nam":"EAST TAWAS 0.8 WSW, MI","Latitude":"44.28322","Longitude":"-83.49920","Snowdepth":"10.000","Units":"in","Rept_Date":"2025-02-27 13"}},{"type":"Point","coordinates":[-70.83956,43.29801],"properties":{"Station_ID":"ME-YK-65","Station_Nam":"NORTH BERWICK 5.3 W, ME","Latitude":"43.29801","Longitude":"-70.83956","Snowdepth":"10.000","Units":"in","Rept_Date":"2025-02-27 13"}},{"type":"Point","coordinates":[-70.5806,43.3932],"properties":{"Station_ID":"ME-YK-5","Station_Nam":"KENNEBUNK 1.8 WNW, ME","Latitude":"43.39320","Longitude":"-70.58060","Snowdepth":"10.000","Units":"in","Rept_Date":"2025-02-27 12"}},{"type":"Point","coordinates":[-70.7138,43.08101],"properties":{"Station_ID":"ME-YK-2","Station_Nam":"KITTERY POINT 0.8 WSW, ME","Latitude":"43.08101","Longitude":"-70.71380","Snowdepth":"10.000","Units":"in","Rept_Date":"2025-02-27 12"}},{"type":"Point","coordinates":[-69.5686,44.02767],"properties":{"Station_ID":"ME-LN-1","Station_Nam":"NEWCASTLE 2.1 SW, ME","Latitude":"44.02767","Longitude":"-69.56860","Snowdepth":"10.000","Units":"in","Rept_Date":"2025-02-27 12"}},{"type":"Point","coordinates":[-68.45775,44.49367],"properties":{"Station_ID":"ME-HN-2","Station_Nam":"EAST SURRY, ME","Latitude":"44.49367","Longitude":"-68.45775","Snowdepth":"10.000","Units":"in","Rept_Date":"2025-02-27 13"}},{"type":"Point","coordinates":[-70.2871,43.7201],"properties":{"Station_ID":"ME-CM-143","Station_Nam":"PORTLAND 5.4 NW, ME","Latitude":"43.72010","Longitude":"-70.28710","Snowdepth":"10.000","Units":"in","Rept_Date":"2025-02-27 12"}},{"type":"Point","coordinates":[-70.0465,43.87733],"properties":{"Station_ID":"ME-CM-138","Station_Nam":"FREEPORT 3.0 ENE, ME","Latitude":"43.87733","Longitude":"-70.04650","Snowdepth":"10.000","Units":"in","Rept_Date":"2025-02-27 12"}},{"type":"Point","coordinates":[-71.4645,43.5491],"properties":{"Station_ID":"LKPN3","Station_Nam":"LAKEPORT 2","Latitude":"43.54910","Longitude":"-71.46450","Snowdepth":"10.000","Units":"in","Rept_Date":"2025-02-27 11"}},{"type":"Point","coordinates":[-92.7522,48.0581],"properties":{"Station_ID":"LEIM5","Station_Nam":"ORR 3E","Latitude":"48.05810","Longitude":"-92.75220","Snowdepth":"10.000","Units":"in","Rept_Date":"2025-02-27 12"}},{"type":"Point","coordinates":[-72.0053,42.8088],"properties":{"Station_ID":"JAPN3","Station_Nam":"JAFFREY SILVER RANCH AIRPARK","Latitude":"42.80880","Longitude":"-72.00530","Snowdepth":"10.000","Units":"in","Rept_Date":"2025-02-27 12"}},{"type":"Point","coordinates":[-90.1382,46.4652],"properties":{"Station_ID":"IWOM4","Station_Nam":"IRONWOOD#2","Latitude":"46.46520","Longitude":"-90.13820","Snowdepth":"10.000","Units":"in","Rept_Date":"2025-02-27 13"}},{"type":"Point","coordinates":[-90.1955,46.4625],"properties":{"Station_ID":"HURW3","Station_Nam":"HURLEY","Latitude":"46.46250","Longitude":"-90.19550","Snowdepth":"10.000","Units":"in","Rept_Date":"2025-02-27 14"}},{"type":"Point","coordinates":[-72.2855,43.7052],"properties":{"Station_ID":"HANN3","Station_Nam":"HANOVER","Latitude":"43.70520","Longitude":"-72.28550","Snowdepth":"10.000","Units":"in","Rept_Date":"2025-02-27 22"}},{"type":"Point","coordinates":[-86.21,44.648],"properties":{"Station_ID":"FRKM4","Station_Nam":"FRANKFORT 2NE","Latitude":"44.64800","Longitude":"-86.21000","Snowdepth":"10.000","Units":"in","Rept_Date":"2025-02-27 23"}},{"type":"Point","coordinates":[-70.4078,44.5187],"properties":{"Station_ID":"DIFM1","Station_Nam":"DIXIFIELD","Latitude":"44.51870","Longitude":"-70.40780","Snowdepth":"10.000","Units":"in","Rept_Date":"2025-02-27 12"}},{"type":"Point","coordinates":[-73.2492,44.3108],"properties":{"Station_ID":"CLTV1","Station_Nam":"CHARLOTTE","Latitude":"44.31080","Longitude":"-73.24920","Snowdepth":"10.000","Units":"in","Rept_Date":"2025-02-27 21"}},{"type":"Point","coordinates":[-95.8902,50.14747],"properties":{"Station_ID":"CAN-MB-32","Station_Nam":"PINAWA 1.0 SW, CA","Latitude":"50.14747","Longitude":"-95.89020","Snowdepth":"10.000","Units":"in","Rept_Date":"2025-02-27 13"}},{"type":"Point","coordinates":[-72.1227,42.6324],"properties":{"Station_ID":"BIRM3","Station_Nam":"BIRCH HILL DAM","Latitude":"42.63240","Longitude":"-72.12270","Snowdepth":"10.000","Units":"in","Rept_Date":"2025-02-27 12"}},{"type":"Point","coordinates":[-78.4575,42.5347],"properties":{"Station_ID":"ARCN6","Station_Nam":"ARCADE","Latitude":"42.53470","Longitude":"-78.45750","Snowdepth":"10.000","Units":"in","Rept_Date":"2025-02-27 13"}},{"type":"Point","coordinates":[-88.4544,46.2347],"properties":{"Station_ID":"AMAM4","Station_Nam":"AMASA 1W","Latitude":"46.23470","Longitude":"-88.45440","Snowdepth":"10.000","Units":"in","Rept_Date":"2025-02-27 14"}},{"type":"Point","coordinates":[-87.4503,46.28397],"properties":{"Station_ID":"61591_MADIS","Station_Nam":"GWINN 0.7 SW, MI","Latitude":"46.28397","Longitude":"-87.45030","Snowdepth":"10.000","Units":"in","Rept_Date":"2025-02-27 14"}},{"type":"Point","coordinates":[-90.4376,47.74865],"properties":{"Station_ID":"MN-CK-6","Station_Nam":"GRAND MARAIS 4.4 W, MN","Latitude":"47.74865","Longitude":"-90.43760","Snowdepth":"9.500","Units":"in","Rept_Date":"2025-02-27 13"}},{"type":"Point","coordinates":[-90.43796,47.74462],"properties":{"Station_ID":"MN-CK-18","Station_Nam":"GRAND MARAIS 4.4 WSW, MN","Latitude":"47.74462","Longitude":"-90.43796","Snowdepth":"9.500","Units":"in","Rept_Date":"2025-02-27 13"}},{"type":"Point","coordinates":[-86.28266,45.99042],"properties":{"Station_ID":"MI-SH-1","Station_Nam":"MANISTIQUE 2.7 NW, MI","Latitude":"45.99042","Longitude":"-86.28266","Snowdepth":"9.500","Units":"in","Rept_Date":"2025-02-27 11"}},{"type":"Point","coordinates":[-85.70346,44.64622],"properties":{"Station_ID":"MI-GT-28","Station_Nam":"GRAWN 1.3 SSW, MI","Latitude":"44.64622","Longitude":"-85.70346","Snowdepth":"9.500","Units":"in","Rept_Date":"2025-02-27 12"}},{"type":"Point","coordinates":[-68.64154,44.94108],"properties":{"Station_ID":"ME-PN-47","Station_Nam":"MILFORD 0.8 SSW, ME","Latitude":"44.94108","Longitude":"-68.64154","Snowdepth":"9.500","Units":"in","Rept_Date":"2025-02-27 12"}},{"type":"Point","coordinates":[-66.64252,45.99547],"properties":{"Station_ID":"CAN-NB-55","Station_Nam":"FREDERICTON 4.5 N, CAN","Latitude":"45.99547","Longitude":"-66.64252","Snowdepth":"9.500","Units":"in","Rept_Date":"2025-02-27 12"}},{"type":"Point","coordinates":[-71.9624,44.08967],"properties":{"Station_ID":"60181_MADIS","Station_Nam":"NORTH HAVERHILL 2.9 E, NH","Latitude":"44.08967","Longitude":"-71.96240","Snowdepth":"9.500","Units":"in","Rept_Date":"2025-02-27 11"}},{"type":"Point","coordinates":[-73.0466,43.61068],"properties":{"Station_ID":"VT-RT-1","Station_Nam":"WEST RUTLAND 1.2 N, VT","Latitude":"43.61068","Longitude":"-73.04660","Snowdepth":"9.100","Units":"in","Rept_Date":"2025-02-27 11"}},{"type":"Point","coordinates":[-72.55685,42.60532],"properties":{"Station_ID":"MA-FR-47","Station_Nam":"TURNERS FALLS 0.1 NNW, MA","Latitude":"42.60532","Longitude":"-72.55685","Snowdepth":"9.100","Units":"in","Rept_Date":"2025-02-27 11"}},{"type":"Point","coordinates":[-63.2281,45.38252],"properties":{"Station_ID":"CAN-NS-13","Station_Nam":"TRURO 5.0 ENE, CA","Latitude":"45.38252","Longitude":"-63.22810","Snowdepth":"9.100","Units":"in","Rept_Date":"2025-02-27 11"}},{"type":"Point","coordinates":[-65.46217,45.71691],"properties":{"Station_ID":"CAN-NB-28","Station_Nam":"SUSSEX CORNER 1.4 NE - KWRC, CAN","Latitude":"45.71691","Longitude":"-65.46217","Snowdepth":"9.100","Units":"in","Rept_Date":"2025-02-27 10"}},{"type":"Point","coordinates":[-71.4803,42.7344],"properties":{"Station_ID":"ZBWN3","Station_Nam":"NASHUA CWSU","Latitude":"42.73440","Longitude":"-71.48030","Snowdepth":"9.000","Units":"in","Rept_Date":"2025-02-27 12"}},{"type":"Point","coordinates":[-78.1478,42.8202],"properties":{"Station_ID":"WYON6","Station_Nam":"WYOMING 3W","Latitude":"42.82020","Longitude":"-78.14780","Snowdepth":"9.000","Units":"in","Rept_Date":"2025-02-27 12"}},{"type":"Point","coordinates":[-78.2085,42.7422],"properties":{"Station_ID":"WSWN6","Station_Nam":"WARSAW","Latitude":"42.74220","Longitude":"-78.20850","Snowdepth":"9.000","Units":"in","Rept_Date":"2025-02-27 12"}},{"type":"Point","coordinates":[-78.5437,42.7211],"properties":{"Station_ID":"WLSN6","Station_Nam":"WALES","Latitude":"42.72110","Longitude":"-78.54370","Snowdepth":"9.000","Units":"in","Rept_Date":"2025-02-27 12"}},{"type":"Point","coordinates":[-90.27013,46.41555],"properties":{"Station_ID":"WI-IR-3","Station_Nam":"PENCE 0.1 E, WI","Latitude":"46.41555","Longitude":"-90.27013","Snowdepth":"9.000","Units":"in","Rept_Date":"2025-02-27 13"}},{"type":"Point","coordinates":[-72.5072,43.6303],"properties":{"Station_ID":"WDSV1","Station_Nam":"WOODSTOCK","Latitude":"43.63030","Longitude":"-72.50720","Snowdepth":"9.000","Units":"in","Rept_Date":"2025-02-27 13"}},{"type":"Point","coordinates":[-73.2472,44.1719],"properties":{"Station_ID":"VRGV1","Station_Nam":"VERGENNES","Latitude":"44.17190","Longitude":"-73.24720","Snowdepth":"9.000","Units":"in","Rept_Date":"2025-02-27 10"}},{"type":"Point","coordinates":[-78.5767,42.5497],"properties":{"Station_ID":"SGVN6","Station_Nam":"SPRINGVILLE","Latitude":"42.54970","Longitude":"-78.57670","Snowdepth":"9.000","Units":"in","Rept_Date":"2025-02-27 14"}},{"type":"Point","coordinates":[-76.5368,43.4499],"properties":{"Station_ID":"OSWN6","Station_Nam":"OSWEGO","Latitude":"43.44990","Longitude":"-76.53680","Snowdepth":"9.000","Units":"in","Rept_Date":"2025-02-27 23"}},{"type":"Point","coordinates":[-78.6214,42.81936],"properties":{"Station_ID":"NY-ER-75","Station_Nam":"ELMA CENTER 0.7 SE, NY","Latitude":"42.81936","Longitude":"-78.62140","Snowdepth":"9.000","Units":"in","Rept_Date":"2025-02-27 14"}},{"type":"Point","coordinates":[-78.7068,43.288],"properties":{"Station_ID":"NWFN6","Station_Nam":"NEWFANE","Latitude":"43.28800","Longitude":"-78.70680","Snowdepth":"9.000","Units":"in","Rept_Date":"2025-02-27 11"}},{"type":"Point","coordinates":[-71.2469,43.214],"properties":{"Station_ID":"NORN3","Station_Nam":"NORTHWOOD","Latitude":"43.21400","Longitude":"-71.24690","Snowdepth":"9.000","Units":"in","Rept_Date":"2025-02-27 12"}},{"type":"Point","coordinates":[-70.9152,42.832],"properties":{"Station_ID":"NEWM3","Station_Nam":"NEWBURYPORT","Latitude":"42.83200","Longitude":"-70.91520","Snowdepth":"9.000","Units":"in","Rept_Date":"2025-02-27 13"}},{"type":"Point","coordinates":[-84.1158,44.6466],"properties":{"Station_ID":"MYOM4","Station_Nam":"MIO WWTP","Latitude":"44.64660","Longitude":"-84.11580","Snowdepth":"9.000","Units":"in","Rept_Date":"2025-02-27 13"}},{"type":"Point","coordinates":[-68.6747,45.6404],"properties":{"Station_ID":"MWTM1","Station_Nam":"MILLINOCKET WWTP","Latitude":"45.64040","Longitude":"-68.67470","Snowdepth":"9.000","Units":"in","Rept_Date":"2025-02-27 12"}},{"type":"Point","coordinates":[-92.35772,47.15142],"properties":{"Station_ID":"MN-SL-115","Station_Nam":"COTTON 5.7 ESE, MN","Latitude":"47.15142","Longitude":"-92.35772","Snowdepth":"9.000","Units":"in","Rept_Date":"2025-02-27 14"}},{"type":"Point","coordinates":[-83.0573,43.72262],"properties":{"Station_ID":"MI-HR-1","Station_Nam":"BAD AXE 6.3 SSW, MI","Latitude":"43.72262","Longitude":"-83.05730","Snowdepth":"9.000","Units":"in","Rept_Date":"2025-02-27 16"}},