{"type":"Topology","objects":{"snowdepth_geo":{"type":"GeometryCollection","name":"snowdepth","crs":{"type":"name","properties":{"name":"urn:ogc:def:crs:OGC:1.3:CRS84"}},"geometries":[{"type":"Point","properties":{"Station_ID":"PRKM4","Station_Nam":"MUNISING EAST","Latitude":"46.42580","Longitude":"-86.62000","Snowdepth":"76.500","Units":"in","Rept_Date":"2020-01-25 06"},"coordinates":[2492,6701]},{"type":"Point","properties":{"Station_ID":"OGIQ6","Station_Nam":"OGOKI CAMP","Latitude":"50.76680","Longitude":"-87.85820","Snowdepth":"61.100","Units":"in","Rept_Date":"2020-01-25 06"},"coordinates":[2202,9402]},{"type":"Point","properties":{"Station_ID":"CLUM4","Station_Nam":"CALUMET-TAMARACK","Latitude":"47.24550","Longitude":"-88.46790","Snowdepth":"50.000","Units":"in","Rept_Date":"2020-01-24 14"},"coordinates":[2058,7211]},{"type":"Point","properties":{"Station_ID":"PDLM4","Station_Nam":"PAINESDALE","Latitude":"47.04160","Longitude":"-88.67170","Snowdepth":"48.000","Units":"in","Rept_Date":"2020-01-24 13"},"coordinates":[2011,7084]},{"type":"Point","properties":{"Station_ID":"GMSM4","Station_Nam":"GRAND MARAIS 10S","Latitude":"46.50940","Longitude":"-85.96310","Snowdepth":"45.000","Units":"in","Rept_Date":"2020-01-24 12"},"coordinates":[2646,6753]},{"type":"Point","properties":{"Station_ID":"WLFM5","Station_Nam":"WOLF RIDGE ENVIRON LEARNING CENTER","Latitude":"47.38240","Longitude":"-91.19730","Snowdepth":"43.000","Units":"in","Rept_Date":"2020-01-24 13"},"coordinates":[1418,7296]},{"type":"Point","properties":{"Station_ID":"KSGM4","Station_Nam":"KEARSARGE","Latitude":"47.27520","Longitude":"-88.41700","Snowdepth":"43.000","Units":"in","Rept_Date":"2020-01-24 13"},"coordinates":[2070,7229]},{"type":"Point","properties":{"Station_ID":"IBLM5","Station_Nam":"ISABELLA 14W","Latitude":"47.59360","Longitude":"-91.65140","Snowdepth":"40.000","Units":"in","Rept_Date":"2020-01-24 15"},"coordinates":[1311,7428]},{"type":"Point","properties":{"Station_ID":"CAN-NL-81","Station_Nam":"GRAND FALLS-WINDSOR 1.2 S, CAN","Latitude":"48.93123","Longitude":"-55.65333","Snowdepth":"39.400","Units":"in","Rept_Date":"2020-01-24 10"},"coordinates":[9760,8260]},{"type":"Point","properties":{"Station_ID":"MQT","Station_Nam":"MARQUETTE, MI","Latitude":"46.53140","Longitude":"-87.54920","Snowdepth":"37.000","Units":"in","Rept_Date":"2020-01-25 06"},"coordinates":[2274,6767]},{"type":"Point","properties":{"Station_ID":"QNCM4","Station_Nam":"QUINCY HILL","Latitude":"47.13640","Longitude":"-88.57950","Snowdepth":"34.000","Units":"in","Rept_Date":"2020-01-24 12"},"coordinates":[2032,7143]},{"type":"Point","properties":{"Station_ID":"MI-KW-2","Station_Nam":"DELAWARE 5.2 SW, MI","Latitude":"47.36928","Longitude":"-88.17919","Snowdepth":"34.000","Units":"in","Rept_Date":"2020-01-24 09"},"coordinates":[2126,7288]},{"type":"Point","properties":{"Station_ID":"MI-BG-3","Station_Nam":"L'ANSE 17.8 SE, MI","Latitude":"46.55730","Longitude":"-88.20770","Snowdepth":"34.000","Units":"in","Rept_Date":"2020-01-24 13"},"coordinates":[2119,6783]},{"type":"Point","properties":{"Station_ID":"LVDW3","Station_Nam":"LAC VIEUX DESERT","Latitude":"46.12110","Longitude":"-89.07580","Snowdepth":"34.000","Units":"in","Rept_Date":"2020-01-24 14"},"coordinates":[1916,6511]},{"type":"Point","properties":{"Station_ID":"NWCM4","Station_Nam":"NEWBERRY CITY","Latitude":"46.35720","Longitude":"-85.51780","Snowdepth":"33.000","Units":"in","Rept_Date":"2020-01-24 12"},"coordinates":[2751,6658]},{"type":"Point","properties":{"Station_ID":"ILIM5","Station_Nam":"ISLAND LAKE","Latitude":"47.02400","Longitude":"-92.07000","Snowdepth":"33.000","Units":"in","Rept_Date":"2020-01-24 15"},"coordinates":[1213,7073]},{"type":"Point","properties":{"Station_ID":"QGO","Station_Nam":"QGO","Latitude":"48.85500","Longitude":"-74.20640","Snowdepth":"32.323","Units":"in","Rept_Date":"2020-01-24 12"},"coordinates":[5405,8212]},{"type":"Point","properties":{"Station_ID":"WTRW3","Station_Nam":"WINTER","Latitude":"45.79920","Longitude":"-90.99470","Snowdepth":"32.000","Units":"in","Rept_Date":"2020-01-24 15"},"coordinates":[1465,6311]},{"type":"Point","properties":{"Station_ID":"WRPW3","Station_Nam":"WATER PURIFICATION PLANT","Latitude":"44.38800","Longitude":"-89.80550","Snowdepth":"32.000","Units":"in","Rept_Date":"2020-01-24 12"},"coordinates":[1744,5433]},{"type":"Point","properties":{"Station_ID":"STEM4","Station_Nam":"STEUBEN","Latitude":"46.18530","Longitude":"-86.46410","Snowdepth":"32.000","Units":"in","Rept_Date":"2020-01-24 14"},"coordinates":[2529,6551]},{"type":"Point","properties":{"Station_ID":"QOU","Station_Nam":"QOU","Latitude":"50.79250","Longitude":"-69.67470","Snowdepth":"31.890","Units":"in","Rept_Date":"2020-01-24 12"},"coordinates":[6469,9418]},{"type":"Point","properties":{"Station_ID":"WI-VL-10","Station_Nam":"LAND O LAKES 4.3 WNW, WI","Latitude":"46.17440","Longitude":"-89.30380","Snowdepth":"31.000","Units":"in","Rept_Date":"2020-01-24 13"},"coordinates":[1862,6545]},{"type":"Point","properties":{"Station_ID":"MAIW3","Station_Nam":"MADELINE ISLAND","Latitude":"46.78330","Longitude":"-90.76670","Snowdepth":"30.000","Units":"in","Rept_Date":"2020-01-24 14"},"coordinates":[1519,6923]},{"type":"Point","properties":{"Station_ID":"HURW3","Station_Nam":"HURLEY","Latitude":"46.46250","Longitude":"-90.19550","Snowdepth":"30.000","Units":"in","Rept_Date":"2020-01-24 14"},"coordinates":[1653,6724]},{"type":"Point","properties":{"Station_ID":"FLNW3","Station_Nam":"FLORENCE","Latitude":"45.93360","Longitude":"-88.25830","Snowdepth":"30.000","Units":"in","Rept_Date":"2020-01-24 13"},"coordinates":[2108,6395]},{"type":"Point","properties":{"Station_ID":"CLQM5","Station_Nam":"CLOQUET","Latitude":"46.70470","Longitude":"-92.52530","Snowdepth":"30.000","Units":"in","Rept_Date":"2020-01-24 14"},"coordinates":[1106,6874]},{"type":"Point","properties":{"Station_ID":"BABM5","Station_Nam":"BABBITT","Latitude":"47.71210","Longitude":"-91.95330","Snowdepth":"30.000","Units":"in","Rept_Date":"2020-01-24 13"},"coordinates":[1240,7501]},{"type":"Point","properties":{"Station_ID":"AROM4","Station_Nam":"ARNOLD,MI","Latitude":"46.06670","Longitude":"-87.48330","Snowdepth":"30.000","Units":"in","Rept_Date":"2020-01-24 13"},"coordinates":[2290,6478]},{"type":"Point","properties":{"Station_ID":"CAN-NL-82","Station_Nam":"GANDER 2.7 NW, CAN","Latitude":"48.97737","Longitude":"-54.63396","Snowdepth":"29.500","Units":"in","Rept_Date":"2020-01-24 10"},"coordinates":[9999,8288]},{"type":"Point","properties":{"Station_ID":"MLZ","Station_Nam":"MLZ","Latitude":"50.66170","Longitude":"-68.82360","Snowdepth":"29.488","Units":"in","Rept_Date":"2020-01-24 12"},"coordinates":[6669,9336]},{"type":"Point","properties":{"Station_ID":"WTRM4","Station_Nam":"WATERSMEET 12WSW","Latitude":"46.22310","Longitude":"-89.40850","Snowdepth":"29.000","Units":"in","Rept_Date":"2020-01-24 12"},"coordinates":[1838,6575]},{"type":"Point","properties":{"Station_ID":"WRSM5","Station_Nam":"WRENSHALL","Latitude":"46.61550","Longitude":"-92.38380","Snowdepth":"29.000","Units":"in","Rept_Date":"2020-01-24 14"},"coordinates":[1139,6819]},{"type":"Point","properties":{"Station_ID":"WNBM5","Station_Nam":"DAM","Latitude":"47.43060","Longitude":"-94.05000","Snowdepth":"29.000","Units":"in","Rept_Date":"2020-01-24 14"},"coordinates":[748,7326]},{"type":"Point","properties":{"Station_ID":"TOGM5","Station_Nam":"CELINA 2E","Latitude":"47.86630","Longitude":"-93.02660","Snowdepth":"29.000","Units":"in","Rept_Date":"2020-01-24 14"},"coordinates":[989,7597]},{"type":"Point","properties":{"Station_ID":"STGW3","Station_Nam":"ST GERMAIN","Latitude":"45.91550","Longitude":"-89.48940","Snowdepth":"29.000","Units":"in","Rept_Date":"2020-01-24 12"},"coordinates":[1819,6383]},{"type":"Point","properties":{"Station_ID":"NOHM5","Station_Nam":"NORTHOME","Latitude":"47.83590","Longitude":"-94.25550","Snowdepth":"29.000","Units":"in","Rept_Date":"2020-01-24 13"},"coordinates":[700,7578]},{"type":"Point","properties":{"Station_ID":"MNSM4","Station_Nam":"MUNISING","Latitude":"46.41210","Longitude":"-86.66250","Snowdepth":"29.000","Units":"in","Rept_Date":"2020-01-24 11"},"coordinates":[2482,6692]},{"type":"Point","properties":{"Station_ID":"MN-CK-6","Station_Nam":"GRAND MARAIS 4.4 W, MN","Latitude":"47.74865","Longitude":"-90.43760","Snowdepth":"29.000","Units":"in","Rept_Date":"2020-01-24 13"},"coordinates":[1596,7524]},{"type":"Point","properties":{"Station_ID":"LNOW3","Station_Nam":"LAND O LAKES","Latitude":"46.19000","Longitude":"-89.45700","Snowdepth":"29.000","Units":"in","Rept_Date":"2020-01-24 13"},"coordinates":[1826,6554]},{"type":"Point","properties":{"Station_ID":"ANTW3","Station_Nam":"ANTIGO,WI","Latitude":"45.13330","Longitude":"-89.15000","Snowdepth":"29.000","Units":"in","Rept_Date":"2020-01-24 14"},"coordinates":[1898,5897]},{"type":"Point","properties":{"Station_ID":"QWE","Station_Nam":"QWE","Latitude":"47.84610","Longitude":"-73.80670","Snowdepth":"28.504","Units":"in","Rept_Date":"2020-01-24 12"},"coordinates":[5499,7585]},{"type":"Point","properties":{"Station_ID":"WI-VL-9","Station_Nam":"LAND O' LAKES 11.7 W, WI","Latitude":"46.19023","Longitude":"-89.45790","Snowdepth":"28.500","Units":"in","Rept_Date":"2020-01-24 13"},"coordinates":[1826,6554]},{"type":"Point","properties":{"Station_ID":"MN-SL-15","Station_Nam":"CHISHOLM 0.4 WSW, MN","Latitude":"47.48557","Longitude":"-92.88690","Snowdepth":"28.500","Units":"in","Rept_Date":"2020-01-24 13"},"coordinates":[1021,7360]},{"type":"Point","properties":{"Station_ID":"MI-HG-6","Station_Nam":"CALUMET 5.8 ENE, MI","Latitude":"47.27200","Longitude":"-88.33400","Snowdepth":"28.500","Units":"in","Rept_Date":"2020-01-24 11"},"coordinates":[2090,7227]},{"type":"Point","properties":{"Station_ID":"WI-WB-2","Station_Nam":"STONE LAKE 2.0 NW, WI","Latitude":"45.85960","Longitude":"-91.57710","Snowdepth":"28.000","Units":"in","Rept_Date":"2020-01-24 13"},"coordinates":[1329,6349]},{"type":"Point","properties":{"Station_ID":"PDGM4","Station_Nam":"PAULDING","Latitude":"46.39760","Longitude":"-89.17940","Snowdepth":"28.000","Units":"in","Rept_Date":"2020-01-24 13"},"coordinates":[1891,6683]},{"type":"Point","properties":{"Station_ID":"HRVM4","Station_Nam":"HARVEY","Latitude":"46.49080","Longitude":"-87.35470","Snowdepth":"28.000","Units":"in","Rept_Date":"2020-01-24 12"},"coordinates":[2320,6741]},{"type":"Point","properties":{"Station_ID":"HERM4","Station_Nam":"HERMAN,MI","Latitude":"46.65000","Longitude":"-88.33330","Snowdepth":"28.000","Units":"in","Rept_Date":"2020-01-24 13"},"coordinates":[2090,6840]},{"type":"Point","properties":{"Station_ID":"QCU","Station_Nam":"QCU","Latitude":"47.82750","Longitude":"-76.59830","Snowdepth":"27.913","Units":"in","Rept_Date":"2020-01-24 12"},"coordinates":[4844,7573]},{"type":"Point","properties":{"Station_ID":"QGD","Station_Nam":"QGD","Latitude":"51.11140","Longitude":"-67.13940","Snowdepth":"27.756","Units":"in","Rept_Date":"2020-01-24 12"},"coordinates":[7064,9616]},{"type":"Point","properties":{"Station_ID":"MN-SL-18","Station_Nam":"DULUTH 1.4 NNW, MN","Latitude":"46.80321","Longitude":"-92.11240","Snowdepth":"27.500","Units":"in","Rept_Date":"2020-01-24 13"},"coordinates":[1203,6936]},{"type":"Point","properties":{"Station_ID":"WI-BY-14","Station_Nam":"ASHLAND 9.8 W, WI","Latitude":"46.59742","Longitude":"-91.07856","Snowdepth":"27.000","Units":"in","Rept_Date":"2020-01-24 13"},"coordinates":[1446,6808]},{"type":"Point","properties":{"Station_ID":"PRDM4","Station_Nam":"PARADISE","Latitude":"46.60380","Longitude":"-85.03960","Snowdepth":"27.000","Units":"in","Rept_Date":"2020-01-24 11"},"coordinates":[2863,6812]},{"type":"Point","properties":{"Station_ID":"PKGM5","Station_Nam":"POKEGANA LK DAM","Latitude":"47.25080","Longitude":"-93.58610","Snowdepth":"27.000","Units":"in","Rept_Date":"2020-01-24 14"},"coordinates":[857,7214]},{"type":"Point","properties":{"Station_ID":"GNLM4","Station_Nam":"GREENLAND 6N","Latitude":"46.87360","Longitude":"-89.10060","Snowdepth":"27.000","Units":"in","Rept_Date":"2020-01-24 13"},"coordinates":[1910,6980]},{"type":"Point","properties":{"Station_ID":"GLDM4","Station_Nam":"GLADSTONE NO. 2","Latitude":"45.84330","Longitude":"-87.03910","Snowdepth":"27.000","Units":"in","Rept_Date":"2020-01-24 13"},"coordinates":[2394,6339]},{"type":"Point","properties":{"Station_ID":"EVRW3","Station_Nam":"EAGLE RIVER-4 E","Latitude":"45.91890","Longitude":"-89.15280","Snowdepth":"27.000","Units":"in","Rept_Date":"2020-01-24 12"},"coordinates":[1898,6386]},{"type":"Point","properties":{"Station_ID":"DLHM5","Station_Nam":"DULUTH NWS","Latitude":"46.83680","Longitude":"-92.21080","Snowdepth":"27.000","Units":"in","Rept_Date":"2020-01-25 06"},"coordinates":[1180,6957]},{"type":"Point","properties":{"Station_ID":"DLH","Station_Nam":"DULUTH, MN","Latitude":"46.83690","Longitude":"-92.21030","Snowdepth":"27.000","Units":"in","Rept_Date":"2020-01-25 00"},"coordinates":[1180,6957]},{"type":"Point","properties":{"Station_ID":"WI-IR-3","Station_Nam":"PENCE 0.1 E, WI","Latitude":"46.41555","Longitude":"-90.27013","Snowdepth":"26.500","Units":"in","Rept_Date":"2020-01-24 13"},"coordinates":[1635,6695]},{"type":"Point","properties":{"Station_ID":"MN-IT-23","Station_Nam":"BOVEY 13.4 N, MN","Latitude":"47.48855","Longitude":"-93.43497","Snowdepth":"26.500","Units":"in","Rept_Date":"2020-01-24 13"},"coordinates":[893,7362]},{"type":"Point","properties":{"Station_ID":"WI-VL-14","Station_Nam":"BOULDER JUNCTION 1.4 NE, WI","Latitude":"46.12840","Longitude":"-89.62470","Snowdepth":"26.000","Units":"in","Rept_Date":"2020-01-24 13"},"coordinates":[1787,6516]},{"type":"Point","properties":{"Station_ID":"SUAW3","Station_Nam":"SUAMICO","Latitude":"44.60190","Longitude":"-88.09780","Snowdepth":"26.000","Units":"in","Rept_Date":"2020-01-24 12"},"coordinates":[2145,5566]},{"type":"Point","properties":{"Station_ID":"RHIW3","Station_Nam":"RHINELANDER","Latitude":"45.59860","Longitude":"-89.45080","Snowdepth":"26.000","Units":"in","Rept_Date":"2020-01-24 13"},"coordinates":[1828,6186]},{"type":"Point","properties":{"Station_ID":"MN-CK-18","Station_Nam":"GRAND MARAIS 4.4 WSW, MN","Latitude":"47.74462","Longitude":"-90.43796","Snowdepth":"26.000","Units":"in","Rept_Date":"2020-01-24 13"},"coordinates":[1596,7521]},{"type":"Point","properties":{"Station_ID":"MI-HG-1","Station_Nam":"HOUGHTON 1.6 ESE, MI","Latitude":"47.10774","Longitude":"-88.52940","Snowdepth":"26.000","Units":"in","Rept_Date":"2020-01-24 13"},"coordinates":[2044,7125]},{"type":"Point","properties":{"Station_ID":"KABM5","Station_Nam":"KABETOGAMA LAKE VISITOR CTR","Latitude":"48.40880","Longitude":"-93.04840","Snowdepth":"26.000","Units":"in","Rept_Date":"2020-01-24 12"},"coordinates":[983,7935]},{"type":"Point","properties":{"Station_ID":"GMRM5","Station_Nam":"GRAND MARIAS WATER TREATMENT PLANT","Latitude":"47.75180","Longitude":"-90.32820","Snowdepth":"26.000","Units":"in","Rept_Date":"2020-01-24 14"},"coordinates":[1622,7526]},{"type":"Point","properties":{"Station_ID":"BBEM4","Station_Nam":"BIG BAY 9SW","Latitude":"46.74620","Longitude":"-87.88160","Snowdepth":"26.000","Units":"in","Rept_Date":"2020-01-24 13"},"coordinates":[2196,6900]},{"type":"Point","properties":{"Station_ID":"QLB","Station_Nam":"QLB","Latitude":"50.72360","Longitude":"-75.10000","Snowdepth":"25.827","Units":"in","Rept_Date":"2020-01-24 12"},"coordinates":[5196,9375]},{"type":"Point","properties":{"Station_ID":"TOHM5","Station_Nam":"TWO HARBORS WWTP","Latitude":"47.01760","Longitude":"-91.66480","Snowdepth":"25.000","Units":"in","Rept_Date":"2020-01-24 13"},"coordinates":[1308,7069]},{"type":"Point","properties":{"Station_ID":"MN-IT-1","Station_Nam":"GRAND RAPIDS 2.0 E, MN","Latitude":"47.22266","Longitude":"-93.49600","Snowdepth":"25.000","Units":"in","Rept_Date":"2020-01-24 12"},"coordinates":[878,7197]},{"type":"Point","properties":{"Station_ID":"IRMM4","Station_Nam":"WWTP","Latitude":"46.46670","Longitude":"-90.18330","Snowdepth":"25.000","Units":"in","Rept_Date":"2020-01-24 13"},"coordinates":[1656,6726]},{"type":"Point","properties":{"Station_ID":"EGRW3","Station_Nam":"EAGLE RIVER-SOUTH","Latitude":"45.91360","Longitude":"-89.24360","Snowdepth":"25.000","Units":"in","Rept_Date":"2020-01-24 13"},"coordinates":[1876,6382]},{"type":"Point","properties":{"Station_ID":"BNDM5","Station_Nam":"ELY 25E","Latitude":"47.97190","Longitude":"-91.44860","Snowdepth":"25.000","Units":"in","Rept_Date":"2020-01-24 13"},"coordinates":[1359,7663]},{"type":"Point","properties":{"Station_ID":"PTLQ6","Station_Nam":"PORTAGE LAKE","Latitude":"49.06950","Longitude":"-86.65940","Snowdepth":"24.840","Units":"in","Rept_Date":"2020-01-25 06"},"coordinates":[2483,8346]},{"type":"Point","properties":{"Station_ID":"WI-BY-1","Station_Nam":"BAYFIELD 8.8 N, WI","Latitude":"46.93855","Longitude":"-90.83490","Snowdepth":"24.500","Units":"in","Rept_Date":"2020-01-24 13"},"coordinates":[1503,7020]},{"type":"Point","properties":{"Station_ID":"WI-DG-20","Station_Nam":"SOLON SPRINGS 1.2 W, WI","Latitude":"46.35217","Longitude":"-91.84405","Snowdepth":"24.000","Units":"in","Rept_Date":"2020-01-24 13"},"coordinates":[1266,6655]},{"type":"Point","properties":{"Station_ID":"MCLN8","Station_Nam":"MC LEOD,ND","Latitude":"46.40250","Longitude":"-97.23810","Snowdepth":"24.000","Units":"in","Rept_Date":"2020-01-24 16"},"coordinates":[0,6686]},{"type":"Point","properties":{"Station_ID":"CSLM5","Station_Nam":"CASS LAKE,MN","Latitude":"47.38470","Longitude":"-94.61470","Snowdepth":"24.000","Units":"in","Rept_Date":"2020-01-24 14"},"coordinates":[616,7298]},{"type":"Point","properties":{"Station_ID":"CRVW3","Station_Nam":"CRIVITZ HIGH FALLS","Latitude":"45.35750","Longitude":"-88.19190","Snowdepth":"24.000","Units":"in","Rept_Date":"2020-01-24 13"},"coordinates":[2123,6036]},{"type":"Point","properties":{"Station_ID":"AURW3","Station_Nam":"AURORA","Latitude":"45.77000","Longitude":"-88.11810","Snowdepth":"24.000","Units":"in","Rept_Date":"2020-01-24 13"},"coordinates":[2141,6293]},{"type":"Point","properties":{"Station_ID":"QFT","Station_Nam":"QFT","Latitude":"50.83280","Longitude":"-74.40390","Snowdepth":"23.740","Units":"in","Rept_Date":"2020-01-24 12"},"coordinates":[5359,9443]},{"type":"Point","properties":{"Station_ID":"MN-BK-6","Station_Nam":"LAKE PARK 6.0 S, MN","Latitude":"46.79850","Longitude":"-96.12180","Snowdepth":"23.500","Units":"in","Rept_Date":"2020-01-24 13"},"coordinates":[262,6933]},{"type":"Point","properties":{"Station_ID":"KABQ6","Station_Nam":"CAB LAKE","Latitude":"49.59950","Longitude":"-89.17990","Snowdepth":"23.390","Units":"in","Rept_Date":"2020-01-25 06"},"coordinates":[1891,8675]},{"type":"Point","properties":{"Station_ID":"SVBQ6","Station_Nam":"SAVANT BASE","Latitude":"50.28730","Longitude":"-90.65670","Snowdepth":"23.350","Units":"in","Rept_Date":"2020-01-25 06"},"coordinates":[1545,9103]},{"type":"Point","properties":{"Station_ID":"WI-ON-8","Station_Nam":"HAZELHURST 2.1 SSE, WI","Latitude":"45.78186","Longitude":"-89.70330","Snowdepth":"23.000","Units":"in","Rept_Date":"2020-01-24 13"},"coordinates":[1768,6300]},{"type":"Point","properties":{"Station_ID":"WI-BY-2","Station_Nam":"MELLEN 18.6 SW, WI","Latitude":"46.16937","Longitude":"-90.98090","Snowdepth":"23.000","Units":"in","Rept_Date":"2020-01-24 13"},"coordinates":[1469,6541]},{"type":"Point","properties":{"Station_ID":"NYMM5","Station_Nam":"NEW YORK MILLS","Latitude":"46.50920","Longitude":"-95.37990","Snowdepth":"23.000","Units":"in","Rept_Date":"2020-01-24 13"},"coordinates":[436,6753]},{"type":"Point","properties":{"Station_ID":"MTQM4","Station_Nam":"MANISTIQUE WWTP","Latitude":"45.95120","Longitude":"-86.25130","Snowdepth":"23.000","Units":"in","Rept_Date":"2020-01-24 12"},"coordinates":[2579,6406]},{"type":"Point","properties":{"Station_ID":"MN-SL-108","Station_Nam":"IRON JUNCTION 3.4 NNW, MN","Latitude":"47.46150","Longitude":"-92.63130","Snowdepth":"23.000","Units":"in","Rept_Date":"2020-01-24 14"},"coordinates":[1081,7345]},{"type":"Point","properties":{"Station_ID":"MN-IT-17","Station_Nam":"GRAND RAPIDS 6.1 N, MN","Latitude":"47.31165","Longitude":"-93.55036","Snowdepth":"23.000","Units":"in","Rept_Date":"2020-01-24 13"},"coordinates":[866,7252]},{"type":"Point","properties":{"Station_ID":"LEIM5","Station_Nam":"ORR 3E","Latitude":"48.05810","Longitude":"-92.75220","Snowdepth":"23.000","Units":"in","Rept_Date":"2020-01-24 12"},"coordinates":[1053,7716]},{"type":"Point","properties":{"Station_ID":"INL","Station_Nam":"FALLS INTERNATIONAL ARPT","Latitude":"48.56640","Longitude":"-93.40310","Snowdepth":"23.000","Units":"in","Rept_Date":"2020-01-25 00"},"coordinates":[900,8033]},{"type":"Point","properties":{"Station_ID":"IMNM4","Station_Nam":"IRON MOUTAIN 5N","Latitude":"45.87580","Longitude":"-88.04030","Snowdepth":"23.000","Units":"in","Rept_Date":"2020-01-25 01"},"coordinates":[2159,6359]},{"type":"Point","properties":{"Station_ID":"GGRM4","Station_Nam":"GREEN GARDEN NO.2","Latitude":"46.45330","Longitude":"-87.30380","Snowdepth":"23.000","Units":"in","Rept_Date":"2020-01-24 11"},"coordinates":[2332,6718]},{"type":"Point","properties":{"Station_ID":"EMBM5","Station_Nam":"EMBARASS,MN","Latitude":"47.65810","Longitude":"-92.19580","Snowdepth":"23.000","Units":"in","Rept_Date":"2020-01-24 12"},"coordinates":[1184,7468]},{"type":"Point","properties":{"Station_ID":"ELYM5","Station_Nam":"ELY","Latitude":"47.90560","Longitude":"-91.82830","Snowdepth":"23.000","Units":"in","Rept_Date":"2020-01-24 15"},"coordinates":[1270,7622]},{"type":"Point","properties":{"Station_ID":"COVM4","Station_Nam":"COVINGTON","Latitude":"46.55880","Longitude":"-88.54190","Snowdepth":"23.000","Units":"in","Rept_Date":"2020-01-24 13"},"coordinates":[2041,6784]},{"type":"Point","properties":{"Station_ID":"COKM5","Station_Nam":"COOK","Latitude":"47.85060","Longitude":"-92.69250","Snowdepth":"23.000","Units":"in","Rept_Date":"2020-01-24 12"},"coordinates":[1067,7587]},{"type":"Point","properties":{"Station_ID":"CMKW3","Station_Nam":"CLAM LAKE 4W","Latitude":"46.16940","Longitude":"-90.98080","Snowdepth":"23.000","Units":"in","Rept_Date":"2020-01-24 13"},"coordinates":[1469,6541]},{"type":"Point","properties":{"Station_ID":"AMAM4","Station_Nam":"AMASA 1W","Latitude":"46.23470","Longitude":"-88.45440","Snowdepth":"23.000","Units":"in","Rept_Date":"2020-01-24 14"},"coordinates":[2062,6582]},{"type":"Point","properties":{"Station_ID":"DVLQ6","Station_Nam":"DEVIOUS LAKE","Latitude":"49.19890","Longitude":"-87.76440","Snowdepth":"22.760","Units":"in","Rept_Date":"2020-01-25 06"},"coordinates":[2224,8426]},{"type":"Point","properties":{"Station_ID":"QYR","Station_Nam":"QYR","Latitude":"48.87220","Longitude":"-75.61470","Snowdepth":"22.402","Units":"in","Rept_Date":"2020-01-24 12"},"coordinates":[5075,8223]},{"type":"Point","properties":{"Station_ID":"MN-IT-7","Station_Nam":"GRAND RAPIDS 6.2 SSW, MN","Latitude":"47.13687","Longitude":"-93.56660","Snowdepth":"22.400","Units":"in","Rept_Date":"2020-01-24 12"},"coordinates":[862,7143]},{"type":"Point","properties":{"Station_ID":"QTV","Station_Nam":"QTV","Latitude":"49.66000","Longitude":"-69.35690","Snowdepth":"22.362","Units":"in","Rept_Date":"2020-01-24 12"},"coordinates":[6544,8713]},{"type":"Point","properties":{"Station_ID":"AUDQ6","Station_Nam":"AUDEN","Latitude":"48.52600","Longitude":"-82.57570","Snowdepth":"22.010","Units":"in","Rept_Date":"2020-01-25 06"},"coordinates":[3441,8008]},{"type":"Point","properties":{"Station_ID":"SULW3","Station_Nam":"SUMMIT LAKE","Latitude":"45.37880","Longitude":"-89.19410","Snowdepth":"22.000","Units":"in","Rept_Date":"2020-01-24 11"},"coordinates":[1888,6050]},{"type":"Point","properties":{"Station_ID":"RPDM4","Station_Nam":"RAPID RIVER 4SSE","Latitude":"45.87270","Longitude":"-86.94960","Snowdepth":"22.000","Units":"in","Rept_Date":"2020-01-24 14"},"coordinates":[2415,6357]},{"type":"Point","properties":{"Station_ID":"RHLW3","Station_Nam":"RHINELANDER 4NE","Latitude":"45.65270","Longitude":"-89.30740","Snowdepth":"22.000","Units":"in","Rept_Date":"2020-01-24 12"},"coordinates":[1861,6220]},{"type":"Point","properties":{"Station_ID":"IFSM5","Station_Nam":"INTERNATIONAL FALLS SNOW","Latitude":"48.57780","Longitude":"-93.39640","Snowdepth":"22.000","Units":"in","Rept_Date":"2020-01-25 00"},"coordinates":[902,8040]},{"type":"Point","properties":{"Station_ID":"AWXW3","Station_Nam":"ASHLAND","Latitude":"46.58240","Longitude":"-90.88390","Snowdepth":"22.000","Units":"in","Rept_Date":"2020-01-24 13"},"coordinates":[1491,6798]},{"type":"Point","properties":{"Station_ID":"AVTW3","Station_Nam":"ARBOR VITAE-JOHNSON LAKE","Latitude":"45.89940","Longitude":"-89.72670","Snowdepth":"22.000","Units":"in","Rept_Date":"2020-01-24 12"},"coordinates":[1763,6373]},{"type":"Point","properties":{"Station_ID":"AGNW3","Station_Nam":"ARGONNE-1.5 NW","Latitude":"45.67360","Longitude":"-88.90380","Snowdepth":"22.000","Units":"in","Rept_Date":"2020-01-24 14"},"coordinates":[1956,6233]},{"type":"Point","properties":{"Station_ID":"QGA","Station_Nam":"QGA","Latitude":"47.25640","Longitude":"-73.73810","Snowdepth":"21.653","Units":"in","Rept_Date":"2020-01-24 12"},"coordinates":[5515,7218]},{"type":"Point","properties":{"Station_ID":"QMA","Station_Nam":"QMA","Latitude":"50.10330","Longitude":"-70.47190","Snowdepth":"21.575","Units":"in","Rept_Date":"2020-01-24 12"},"coordinates":[6282,8989]},{"type":"Point","properties":{"Station_ID":"WI-AS-4","Station_Nam":"ASHLAND 0.5 WNW, WI","Latitude":"46.58240","Longitude":"-90.88390","Snowdepth":"21.500","Units":"in","Rept_Date":"2020-01-24 13"},"coordinates":[1491,6798]},{"type":"Point","properties":{"Station_ID":"MN-CW-22","Station_Nam":"FORT RIPLEY 0.8 N, MN","Latitude":"46.18089","Longitude":"-94.36510","Snowdepth":"21.500","Units":"in","Rept_Date":"2020-01-24 13"},"coordinates":[674,6549]},{"type":"Point","properties":{"Station_ID":"QCX","Station_Nam":"QCX","Latitude":"51.32830","Longitude":"-70.08060","Snowdepth":"21.457","Units":"in","Rept_Date":"2020-01-24 12"},"coordinates":[6374,9751]},{"type":"Point","properties":{"Station_ID":"TRIQ6","Station_Nam":"TRIO LAKE","Latitude":"49.22880","Longitude":"-87.22920","Snowdepth":"21.420","Units":"in","Rept_Date":"2020-01-25 06"},"coordinates":[2349,8445]},{"type":"Point","properties":{"Station_ID":"QMD","Station_Nam":"QMD","Latitude":"49.29060","Longitude":"-75.84500","Snowdepth":"21.063","Units":"in","Rept_Date":"2020-01-24 12"},"coordinates":[5021,8483]},{"type":"Point","properties":{"Station_ID":"WI-CK-3","Station_Nam":"COLBY 5.9 WSW, WI","Latitude":"44.87209","Longitude":"-90.42463","Snowdepth":"21.000","Units":"in","Rept_Date":"2020-01-25 01"},"coordinates":[1599,5734]},{"type":"Point","properties":{"Station_ID":"STMM4","Station_Nam":"STAMBAUGH 2SSE","Latitude":"46.05550","Longitude":"-88.62780","Snowdepth":"21.000","Units":"in","Rept_Date":"2020-01-24 13"},"coordinates":[2021,6471]},{"type":"Point","properties":{"Station_ID":"SRAW3","Station_Nam":"SARONA","Latitude":"45.80250","Longitude":"-91.86700","Snowdepth":"21.000","Units":"in","Rept_Date":"2020-01-24 14"},"coordinates":[1261,6313]},{"type":"Point","properties":{"Station_ID":"SBNM5","Station_Nam":"SABIN","Latitude":"46.77690","Longitude":"-96.65610","Snowdepth":"21.000","Units":"in","Rept_Date":"2020-01-24 16"},"coordinates":[137,6919]},{"type":"Point","properties":{"Station_ID":"RHRW3","Station_Nam":"RHINELANDER WJFW TV-12","Latitude":"45.62220","Longitude":"-89.41000","Snowdepth":"21.000","Units":"in","Rept_Date":"2020-01-25 04"},"coordinates":[1837,6201]},{"type":"Point","properties":{"Station_ID":"MIEM4","Station_Nam":"MICHIGAMME 3WNW","Latitude":"46.54530","Longitude":"-88.18000","Snowdepth":"21.000","Units":"in","Rept_Date":"2020-01-24 13"},"coordinates":[2126,6775]},{"type":"Point","properties":{"Station_ID":"LNCM1","Station_Nam":"LINCOLN WATER DISTRICT","Latitude":"45.32410","Longitude":"-68.58300","Snowdepth":"21.000","Units":"in","Rept_Date":"2020-01-24 13"},"coordinates":[6725,6016]},{"type":"Point","properties":{"Station_ID":"COTM5","Station_Nam":"COTTON","Latitude":"47.16870","Longitude":"-92.46290","Snowdepth":"21.000","Units":"in","Rept_Date":"2020-01-24 14"},"coordinates":[1121,7163]},{"type":"Point","properties":{"Station_ID":"CLKM4","Station_Nam":"CLARKSBURG","Latitude":"46.49910","Longitude":"-87.84500","Snowdepth":"21.000","Units":"in","Rept_Date":"2020-01-24 12"},"coordinates":[2205,6747]},{"type":"Point","properties":{"Station_ID":"BRAM5","Station_Nam":"BRAINERD","Latitude":"46.34320","Longitude":"-94.20900","Snowdepth":"21.000","Units":"in","Rept_Date":"2020-01-24 13"},"coordinates":[711,6650]},{"type":"Point","properties":{"Station_ID":"ZNOM4","Station_Nam":"NORWAY","Latitude":"45.77810","Longitude":"-87.89560","Snowdepth":"20.000","Units":"in","Rept_Date":"2020-01-25 01"},"coordinates":[2193,6298]},{"type":"Point","properties":{"Station_ID":"WLKW3","Station_Nam":"WHITE LAKE 1 SE","Latitude":"45.14520","Longitude":"-88.74160","Snowdepth":"20.000","Units":"in","Rept_Date":"2020-01-24 14"},"coordinates":[1994,5904]},{"type":"Point","properties":{"Station_ID":"WI-LN-2","Station_Nam":"MERRILL 7.0 W, WI","Latitude":"45.17746","Longitude":"-89.84820","Snowdepth":"20.000","Units":"in","Rept_Date":"2020-01-24 12"},"coordinates":[1734,5924]},{"type":"Point","properties":{"Station_ID":"OTTM5","Station_Nam":"OTTERTAIL,MN","Latitude":"46.41670","Longitude":"-95.56670","Snowdepth":"20.000","Units":"in","Rept_Date":"2020-01-24 12"},"coordinates":[392,6695]},{"type":"Point","properties":{"Station_ID":"MN2EOYHJ","Station_Nam":"OGILVIE 5.6 N","Latitude":"45.91288","Longitude":"-93.42259","Snowdepth":"20.000","Units":"in","Rept_Date":"2020-01-24 14"},"coordinates":[896,6382]},{"type":"Point","properties":{"Station_ID":"MN-BM-15","Station_Nam":"BEMIDJI 7.8 ENE, MN","Latitude":"47.52043","Longitude":"-94.72121","Snowdepth":"20.000","Units":"in","Rept_Date":"2020-01-24 13"},"coordinates":[591,7382]},{"type":"Point","properties":{"Station_ID":"MLLW3","Station_Nam":"MERRILL 8W","Latitude":"45.17810","Longitude":"-89.84810","Snowdepth":"20.000","Units":"in","Rept_Date":"2020-01-24 12"},"coordinates":[1735,5925]},{"type":"Point","properties":{"Station_ID":"CNNW3","Station_Nam":"CRANDON","Latitude":"45.55110","Longitude":"-88.89830","Snowdepth":"20.000","Units":"in","Rept_Date":"2020-01-24 12"},"coordinates":[1957,6157]},{"type":"Point","properties":{"Station_ID":"CLGM5","Station_Nam":"COLLEGEVILLE ST JOHN","Latitude":"45.57940","Longitude":"-94.39200","Snowdepth":"20.000","Units":"in","Rept_Date":"2020-01-25 00"},"coordinates":[668,6174]},{"type":"Point","properties":{"Station_ID":"CAN-NL-65","Station_Nam":"KIPPENS 0.7 NE, CA","Latitude":"48.55436","Longitude":"-58.61850","Snowdepth":"20.000","Units":"in","Rept_Date":"2020-01-24 12"},"coordinates":[9064,8025]},{"type":"Point","properties":{"Station_ID":"CAN-NB-18","Station_Nam":"MCLEOD HILL 1.1 ENE, CA","Latitude":"46.02725","Longitude":"-66.67460","Snowdepth":"20.000","Units":"in","Rept_Date":"2020-01-24 12"},"coordinates":[7173,6453]},{"type":"Point","properties":{"Station_ID":"ASTW3","Station_Nam":"ATHELSTANE","Latitude":"45.42500","Longitude":"-88.05750","Snowdepth":"20.000","Units":"in","Rept_Date":"2020-01-24 12"},"coordinates":[2155,6078]},{"type":"Point","properties":{"Station_ID":"QTM","Station_Nam":"QTM","Latitude":"51.05780","Longitude":"-72.57190","Snowdepth":"19.842","Units":"in","Rept_Date":"2020-01-24 12"},"coordinates":[5789,9583]},{"type":"Point","properties":{"Station_ID":"SOCQ6","Station_Nam":"SOCKET LAKE","Latitude":"50.77870","Longitude":"-91.79300","Snowdepth":"19.840","Units":"in","Rept_Date":"2020-01-25 06"},"coordinates":[1278,9409]},{"type":"Point","properties":{"Station_ID":"WI-SR-1","Station_Nam":"HAYWARD 9.2 NNE, WI","Latitude":"46.13255","Longitude":"-91.40500","Snowdepth":"19.500","Units":"in","Rept_Date":"2020-01-24 12"},"coordinates":[1369,6519]},{"type":"Point","properties":{"Station_ID":"WI-PR-8","Station_Nam":"PHILLIPS 0.4 SSW, WI","Latitude":"45.69086","Longitude":"-90.40200","Snowdepth":"19.500","Units":"in","Rept_Date":"2020-01-24 13"},"coordinates":[1605,6244]},{"type":"Point","properties":{"Station_ID":"WI-PR-6","Station_Nam":"PHILLIPS 1.3 S, WI","Latitude":"45.67677","Longitude":"-90.39543","Snowdepth":"19.500","Units":"in","Rept_Date":"2020-01-24 12"},"coordinates":[1606,6235]},{"type":"Point","properties":{"Station_ID":"WI-PR-2","Station_Nam":"BUTTERNUT 5.9 SW, WI","Latitude":"45.96501","Longitude":"-90.59750","Snowdepth":"19.500","Units":"in","Rept_Date":"2020-01-24 12"},"coordinates":[1559,6414]},{"type":"Point","properties":{"Station_ID":"CATQ6","Station_Nam":"CAT LAKE","Latitude":"51.72690","Longitude":"-91.82210","Snowdepth":"19.370","Units":"in","Rept_Date":"2020-01-25 06"},"coordinates":[1271,9999]},{"type":"Point","properties":{"Station_ID":"WTNM4","Station_Nam":"WATTON 2WSW","Latitude":"46.52660","Longitude":"-88.64240","Snowdepth":"19.000","Units":"in","Rept_Date":"2020-01-24 13"},"coordinates":[2017,6764]},{"type":"Point","properties":{"Station_ID":"WI-CH-3","Station_Nam":"CORNELL 4.1 W, WI","Latitude":"45.17024","Longitude":"-91.23610","Snowdepth":"19.000","Units":"in","Rept_Date":"2020-01-24 14"},"coordinates":[1409,5920]},{"type":"Point","properties":{"Station_ID":"SEBM5","Station_Nam":"SEBEKA","Latitude":"46.62540","Longitude":"-95.09670","Snowdepth":"19.000","Units":"in","Rept_Date":"2020-01-24 13"},"coordinates":[503,6825]},{"type":"Point","properties":{"Station_ID":"SAUW3","Station_Nam":"WAUSAU WSAW TV","Latitude":"44.94630","Longitude":"-89.62220","Snowdepth":"19.000","Units":"in","Rept_Date":"2020-01-25 05"},"coordinates":[1788,5781]},{"type":"Point","properties":{"Station_ID":"RBLW3","Station_Nam":"RIB LAKE","Latitude":"45.31530","Longitude":"-90.20640","Snowdepth":"19.000","Units":"in","Rept_Date":"2020-01-24 21"},"coordinates":[1650,6010]},{"type":"Point","properties":{"Station_ID":"MN7M8EBJ","Station_Nam":"LUTSEN 15.7 NNW","Latitude":"47.85324","Longitude":"-89.92908","Snowdepth":"19.000","Units":"in","Rept_Date":"2020-01-24 14"},"coordinates":[1715,7589]},{"type":"Point","properties":{"Station_ID":"MI-OT-17","Station_Nam":"GAYLORD 4.1 S, MI","Latitude":"44.96388","Longitude":"-84.68467","Snowdepth":"19.000","Units":"in","Rept_Date":"2020-01-24 12"},"coordinates":[2946,5791]},{"type":"Point","properties":{"Station_ID":"JCBM4","Station_Nam":"JACOBSVILLE","Latitude":"47.00830","Longitude":"-88.43180","Snowdepth":"19.000","Units":"in","Rept_Date":"2020-01-24 12"},"coordinates":[2067,7063]},{"type":"Point","properties":{"Station_ID":"INDM5","Station_Nam":"INDUS,MN","Latitude":"48.61670","Longitude":"-93.90000","Snowdepth":"19.000","Units":"in","Rept_Date":"2020-01-24 14"},"coordinates":[784,8064]},{"type":"Point","properties":{"Station_ID":"HOLW3","Station_Nam":"HOLCOMBE","Latitude":"45.22370","Longitude":"-91.12700","Snowdepth":"19.000","Units":"in","Rept_Date":"2020-01-24 13"},"coordinates":[1434,5953]},{"type":"Point","properties":{"Station_ID":"GLLM5","Station_Nam":"GULL LAKE DAM","Latitude":"46.41190","Longitude":"-94.35000","Snowdepth":"19.000","Units":"in","Rept_Date":"2020-01-24 14"},"coordinates":[678,6692]},{"type":"Point","properties":{"Station_ID":"GDCM4","Station_Nam":"GARDEN CORNERS","Latitude":"45.89830","Longitude":"-86.54850","Snowdepth":"19.000","Units":"in","Rept_Date":"2020-01-24 13"},"coordinates":[2509,6373]},{"type":"Point","properties":{"Station_ID":"FLDM5","Station_Nam":"FLOODWOOD,MN","Latitude":"47.00000","Longitude":"-92.91670","Snowdepth":"19.000","Units":"in","Rept_Date":"2020-01-24 14"},"coordinates":[1014,7058]},{"type":"Point","properties":{"Station_ID":"FDRN8","Station_Nam":"FARGO 3S","Latitude":"46.82930","Longitude":"-96.79620","Snowdepth":"19.000","Units":"in","Rept_Date":"2020-01-25 06"},"coordinates":[104,6952]},{"type":"Point","properties":{"Station_ID":"FAR","Station_Nam":"HECTOR INTERNATIONAL ARPT","Latitude":"46.91560","Longitude":"-96.81440","Snowdepth":"19.000","Units":"in","Rept_Date":"2020-01-25 00"},"coordinates":[100,7006]},{"type":"Point","properties":{"Station_ID":"CNRM1","Station_Nam":"CONNOR TWP","Latitude":"46.95830","Longitude":"-68.03330","Snowdepth":"19.000","Units":"in","Rept_Date":"2020-01-24 12"},"coordinates":[6854,7032]},{"type":"Point","properties":{"Station_ID":"CAN-NB-11","Station_Nam":"MIRAMICHI 3.3 S, CAN","Latitude":"46.99343","Longitude":"-65.50690","Snowdepth":"19.000","Units":"in","Rept_Date":"2020-01-24 11"},"coordinates":[7447,7054]},{"type":"Point","properties":{"Station_ID":"BRVM5","Station_Nam":"BROWNS VALLEY,MN","Latitude":"45.61670","Longitude":"-96.83330","Snowdepth":"19.000","Units":"in","Rept_Date":"2020-01-24 12"},"coordinates":[95,6198]},{"type":"Point","properties":{"Station_ID":"BRDM1","Station_Nam":"BRIDGEWATER","Latitude":"46.42870","Longitude":"-67.84370","Snowdepth":"19.000","Units":"in","Rept_Date":"2020-01-24 23"},"coordinates":[6899,6703]},{"type":"Point","properties":{"Station_ID":"QLP","Station_Nam":"QLP","Latitude":"48.13920","Longitude":"-72.63830","Snowdepth":"18.976","Units":"in","Rept_Date":"2020-01-24 12"},"coordinates":[5774,7767]},{"type":"Point","properties":{"Station_ID":"QLM","Station_Nam":"QLM","Latitude":"48.92030","Longitude":"-70.25280","Snowdepth":"18.976","Units":"in","Rept_Date":"2020-01-24 12"},"coordinates":[6333,8253]},{"type":"Point","properties":{"Station_ID":"QIQ","Station_Nam":"QIQ","Latitude":"49.82390","Longitude":"-68.54310","Snowdepth":"18.740","Units":"in","Rept_Date":"2020-01-24 12"},"coordinates":[6735,8815]},{"type":"Point","properties":{"Station_ID":"CAN-QC-47","Station_Nam":"SAINTE-FOY 1.8 ENE, CAN","Latitude":"46.76934","Longitude":"-71.27124","Snowdepth":"18.700","Units":"in","Rept_Date":"2020-01-24 12"},"coordinates":[6094,6915]},{"type":"Point","properties":{"Station_ID":"MN-AT-5","Station_Nam":"TAMARACK 1.4 SW, MN","Latitude":"46.63760","Longitude":"-93.14554","Snowdepth":"18.500","Units":"in","Rept_Date":"2020-01-24 11"},"coordinates":[961,6833]},{"type":"Point","properties":{"Station_ID":"MI-AT-6","Station_Nam":"MANCELONA 0.5 ESE, MI","Latitude":"44.89981","Longitude":"-85.05100","Snowdepth":"18.500","Units":"in","Rept_Date":"2020-01-24 13"},"coordinates":[2860,5752]},{"type":"Point","properties":{"Station_ID":"MFU","Station_Nam":"MFU","Latitude":"51.52170","Longitude":"-66.91110","Snowdepth":"18.228","Units":"in","Rept_Date":"2020-01-24 12"},"coordinates":[7118,9871]},{"type":"Point","properties":{"Station_ID":"WI-MT-14","Station_Nam":"MOSINEE 2.7 WSW, WI","Latitude":"44.77240","Longitude":"-89.73441","Snowdepth":"18.000","Units":"in","Rept_Date":"2020-01-24 13"},"coordinates":[1761,5672]},{"type":"Point","properties":{"Station_ID":"WI-DN-1","Station_Nam":"BOYCEVILLE 3.3 N, WI","Latitude":"45.08913","Longitude":"-92.02760","Snowdepth":"18.000","Units":"in","Rept_Date":"2020-01-24 13"},"coordinates":[1223,5869]},{"type":"Point","properties":{"Station_ID":"SUTV1","Station_Nam":"SUTTON","Latitude":"44.61220","Longitude":"-72.04810","Snowdepth":"18.000","Units":"in","Rept_Date":"2020-01-24 13"},"coordinates":[5912,5573]},{"type":"Point","properties":{"Station_ID":"STRW3","Station_Nam":"STRATFORD 1NW","Latitude":"44.81750","Longitude":"-90.08990","Snowdepth":"18.000","Units":"in","Rept_Date":"2020-01-24 12"},"coordinates":[1678,5700]},{"type":"Point","properties":{"Station_ID":"PRNW3","Station_Nam":"PRENTICE,WI","Latitude":"45.54780","Longitude":"-90.30000","Snowdepth":"18.000","Units":"in","Rept_Date":"2020-01-24 14"},"coordinates":[1628,6155]},{"type":"Point","properties":{"Station_ID":"PKFW3","Station_Nam":"PARK FALLS,WI","Latitude":"45.93360","Longitude":"-90.45060","Snowdepth":"18.000","Units":"in","Rept_Date":"2020-01-24 14"},"coordinates":[1593,6395]},{"type":"Point","properties":{"Station_ID":"MI-DL-1","Station_Nam":"GARDEN CORNERS 0.8 NW, MI","Latitude":"45.89815","Longitude":"-86.54850","Snowdepth":"18.000","Units":"in","Rept_Date":"2020-01-24 13"},"coordinates":[2509,6373]},{"type":"Point","properties":{"Station_ID":"LUCW3","Station_Nam":"LUCK","Latitude":"45.57330","Longitude":"-92.48520","Snowdepth":"18.000","Units":"in","Rept_Date":"2020-01-24 17"},"coordinates":[1116,6171]},{"type":"Point","properties":{"Station_ID":"KGFK","Station_Nam":"GRAND FORKS INTERNATIONAL","Latitude":"47.95000","Longitude":"-97.18333","Snowdepth":"18.000","Units":"in","Rept_Date":"2020-01-25 06"},"coordinates":[13,7649]},{"type":"Point","properties":{"Station_ID":"GFK","Station_Nam":"GRAND FORKS INTERNATIONAL AIRPORT","Latitude":"47.94920","Longitude":"-97.17610","Snowdepth":"18.000","Units":"in","Rept_Date":"2020-01-25 00"},"coordinates":[15,7649]},{"type":"Point","properties":{"Station_ID":"ESAM4","Station_Nam":"ESCANABA","Latitude":"45.74380","Longitude":"-87.04060","Snowdepth":"18.000","Units":"in","Rept_Date":"2020-01-24 12"},"coordinates":[2393,6277]},{"type":"Point","properties":{"Station_ID":"EPTW3","Station_Nam":"EAU PLEINE TENDER","Latitude":"44.77220","Longitude":"-89.76720","Snowdepth":"18.000","Units":"in","Rept_Date":"2020-01-24 13"},"coordinates":[1753,5672]},{"type":"Point","properties":{"Station_ID":"COUW3","Station_Nam":"COUDERAY,WI","Latitude":"45.86670","Longitude":"-91.45000","Snowdepth":"18.000","Units":"in","Rept_Date":"2020-01-24 22"},"coordinates":[1359,6353]},{"type":"Point","properties":{"Station_ID":"CEFM4","Station_Nam":"EXPERIMENT FARM #2","Latitude":"46.33330","Longitude":"-86.91670","Snowdepth":"18.000","Units":"in","Rept_Date":"2020-01-24 13"},"coordinates":[2422,6643]},{"type":"Point","properties":{"Station_ID":"CARM1","Station_Nam":"CARIBOU WFO","Latitude":"46.86810","Longitude":"-68.01250","Snowdepth":"18.000","Units":"in","Rept_Date":"2020-01-25 05"},"coordinates":[6859,6976]},{"type":"Point","properties":{"Station_ID":"CAR","Station_Nam":"CARIBOU, ME","Latitude":"46.86830","Longitude":"-68.01360","Snowdepth":"18.000","Units":"in","Rept_Date":"2020-01-24 12"},"coordinates":[6859,6976]},{"type":"Point","properties":{"Station_ID":"BAGM4","Station_Nam":"BARAGA 7NW","Latitude":"46.82100","Longitude":"-88.60590","Snowdepth":"18.000","Units":"in","Rept_Date":"2020-01-24 13"},"coordinates":[2026,6947]},{"type":"Point","properties":{"Station_ID":"QCO","Station_Nam":"QCO","Latitude":"51.45280","Longitude":"-72.20110","Snowdepth":"17.559","Units":"in","Rept_Date":"2020-01-24 12"},"coordinates":[5876,9828]},{"type":"Point","properties":{"Station_ID":"MN-CW-29","Station_Nam":"BRAINERD 7.7 SSE, MN","Latitude":"46.24996","Longitude":"-94.14576","Snowdepth":"17.500","Units":"in","Rept_Date":"2020-01-24 13"},"coordinates":[726,6592]},{"type":"Point","properties":{"Station_ID":"MN-BK-10","Station_Nam":"DETROIT LAKES 5.7 N, MN","Latitude":"46.88666","Longitude":"-95.84444","Snowdepth":"17.500","Units":"in","Rept_Date":"2020-01-24 13"},"coordinates":[327,6988]},{"type":"Point","properties":{"Station_ID":"WUNW3","Station_Nam":"WAUSAU-NORTHEAST","Latitude":"44.97310","Longitude":"-89.61690","Snowdepth":"17.000","Units":"in","Rept_Date":"2020-01-24 11"},"coordinates":[1789,5797]},{"type":"Point","properties":{"Station_ID":"WI-SR-5","Station_Nam":"HAYWARD 9.7 NE, WI","Latitude":"46.12030","Longitude":"-91.35370","Snowdepth":"17.000","Units":"in","Rept_Date":"2020-01-24 13"},"coordinates":[1381,6511]},{"type":"Point","properties":{"Station_ID":"WI-MT-1","Station_Nam":"SCHOFIELD 3.3 E, WI","Latitude":"44.91806","Longitude":"-89.54470","Snowdepth":"17.000","Units":"in","Rept_Date":"2020-01-24 13"},"coordinates":[1806,5763]},{"type":"Point","properties":{"Station_ID":"SSMM4","Station_Nam":"SAULT STE MARIE","Latitude":"46.48660","Longitude":"-84.40250","Snowdepth":"17.000","Units":"in","Rept_Date":"2020-01-24 13"},"coordinates":[3013,6739]},{"type":"Point","properties":{"Station_ID":"SPCW3","Station_Nam":"SPENCER-WWTP","Latitude":"44.75390","Longitude":"-90.28920","Snowdepth":"17.000","Units":"in","Rept_Date":"2020-01-24 13"},"coordinates":[1631,5661]},{"type":"Point","properties":{"Station_ID":"RRVM4","Station_Nam":"RAPID RIVER 9S","Latitude":"45.78750","Longitude":"-86.93920","Snowdepth":"17.000","Units":"in","Rept_Date":"2020-01-24 13"},"coordinates":[2417,6304]},{"type":"Point","properties":{"Station_ID":"RARM4","Station_Nam":"RAPID RIVER 1 SW","Latitude":"45.91500","Longitude":"-86.98800","Snowdepth":"17.000","Units":"in","Rept_Date":"2020-01-24 12"},"coordinates":[2406,6383]},{"type":"Point","properties":{"Station_ID":"MRAM4","Station_Nam":"MORAN","Latitude":"45.99030","Longitude":"-84.83610","Snowdepth":"17.000","Units":"in","Rept_Date":"2020-01-24 13"},"coordinates":[2911,6430]},{"type":"Point","properties":{"Station_ID":"MQRW3","Station_Nam":"MINOCQUA","Latitude":"45.88630","Longitude":"-89.73220","Snowdepth":"17.000","Units":"in","Rept_Date":"2020-01-24 12"},"coordinates":[1762,6365]},{"type":"Point","properties":{"Station_ID":"MOOM5","Station_Nam":"MOOSE LAKE,MN","Latitude":"46.45000","Longitude":"-92.75780","Snowdepth":"17.000","Units":"in","Rept_Date":"2020-01-25 06"},"coordinates":[1052,6716]},{"type":"Point","properties":{"Station_ID":"MFDW3","Station_Nam":"MARSHFIELD EXP FARM","Latitude":"44.64110","Longitude":"-90.13330","Snowdepth":"17.000","Units":"in","Rept_Date":"2020-01-24 13"},"coordinates":[1668,5591]},{"type":"Point","properties":{"Station_ID":"LNGM5","Station_Nam":"LONG PRAIRIE","Latitude":"45.96460","Longitude":"-94.88920","Snowdepth":"17.000","Units":"in","Rept_Date":"2020-01-24 12"},"coordinates":[551,6414]},{"type":"Point","properties":{"Station_ID":"KSEM4","Station_Nam":"KALKASKA 11SE","Latitude":"44.58970","Longitude":"-85.04860","Snowdepth":"17.000","Units":"in","Rept_Date":"2020-01-24 13"},"coordinates":[2861,5559]},{"type":"Point","properties":{"Station_ID":"ENGM4","Station_Nam":"ENGADINE MDOT","Latitude":"46.12800","Longitude":"-85.56960","Snowdepth":"17.000","Units":"in","Rept_Date":"2020-01-24 12"},"coordinates":[2739,6516]},{"type":"Point","properties":{"Station_ID":"CBLW3","Station_Nam":"CUMBERLAND","Latitude":"45.53310","Longitude":"-92.02260","Snowdepth":"17.000","Units":"in","Rept_Date":"2020-01-24 13"},"coordinates":[1224,6146]},{"type":"Point","properties":{"Station_ID":"ABGW3","Station_Nam":"AMBERG 9 E","Latitude":"45.48250","Longitude":"-87.81190","Snowdepth":"17.000","Units":"in","Rept_Date":"2020-01-24 12"},"coordinates":[2212,6114]},{"type":"Point","properties":{"Station_ID":"CAN-NB-89","Station_Nam":"MEMRAMCOOK 4.0 W, CAN","Latitude":"46.01133","Longitude":"-64.60244","Snowdepth":"16.900","Units":"in","Rept_Date":"2020-01-24 13"},"coordinates":[7659,6443]},{"type":"Point","properties":{"Station_ID":"WI-CH-7","Station_Nam":"CHIPPEWA FALLS 1.2 E, WI","Latitude":"44.92920","Longitude":"-91.36730","Snowdepth":"16.500","Units":"in","Rept_Date":"2020-01-24 13"},"coordinates":[1378,5770]},{"type":"Point","properties":{"Station_ID":"WSKW3","Station_Nam":"WAUSAUKEE","Latitude":"45.38020","Longitude":"-87.95660","Snowdepth":"16.000","Units":"in","Rept_Date":"2020-01-24 14"},"coordinates":[2178,6050]},{"type":"Point","properties":{"Station_ID":"WRTS2","Station_Nam":"WATERTOWN,SD","Latitude":"44.90280","Longitude":"-97.11360","Snowdepth":"16.000","Units":"in","Rept_Date":"2020-01-24 15"},"coordinates":[29,5753]},{"type":"Point","properties":{"Station_ID":"WI-BR-2","Station_Nam":"CHETEK 2.0 SE, WI","Latitude":"45.29427","Longitude":"-91.62470","Snowdepth":"16.000","Units":"in","Rept_Date":"2020-01-24 13"},"coordinates":[1318,5997]},{"type":"Point","properties":{"Station_ID":"VT-OL-1","Station_Nam":"WESTFIELD 0.7 WNW, VT","Latitude":"44.89160","Longitude":"-72.44350","Snowdepth":"16.000","Units":"in","Rept_Date":"2020-01-24 12"},"coordinates":[5819,5746]},{"type":"Point","properties":{"Station_ID":"VANM1","Station_Nam":"VAN BUREN","Latitude":"47.16600","Longitude":"-67.93900","Snowdepth":"16.000","Units":"in","Rept_Date":"2020-01-24 12"},"coordinates":[6876,7161]},{"type":"Point","properties":{"Station_ID":"TAKW3","Station_Nam":"RICE RESERVOIR NO. 2","Latitude":"45.53770","Longitude":"-89.73220","Snowdepth":"16.000","Units":"in","Rept_Date":"2020-01-24 13"},"coordinates":[1762,6148]},{"type":"Point","properties":{"Station_ID":"RRLW3","Station_Nam":"MERRILL,WI","Latitude":"45.17860","Longitude":"-89.66170","Snowdepth":"16.000","Units":"in","Rept_Date":"2020-01-24 14"},"coordinates":[1778,5925]},{"type":"Point","properties":{"Station_ID":"ND-CS-1","Station_Nam":"WEST FARGO 3.8 SSE, ND","Latitude":"46.82750","Longitude":"-96.85280","Snowdepth":"16.000","Units":"in","Rept_Date":"2020-01-24 13"},"coordinates":[91,6951]},{"type":"Point","properties":{"Station_ID":"MI-DL-4","Station_Nam":"GLADSTONE 2.1 SW, MI","Latitude":"45.83218","Longitude":"-87.05727","Snowdepth":"16.000","Units":"in","Rept_Date":"2020-01-24 12"},"coordinates":[2389,6332]},{"type":"Point","properties":{"Station_ID":"MEDW3","Station_Nam":"MEDFORD","Latitude":"45.13080","Longitude":"-90.34390","Snowdepth":"16.000","Units":"in","Rept_Date":"2020-01-24 14"},"coordinates":[1618,5895]},{"type":"Point","properties":{"Station_ID":"ME-PN-45","Station_Nam":"MILLINOCKET 2.7 ESE, ME","Latitude":"45.65002","Longitude":"-68.64472","Snowdepth":"16.000","Units":"in","Rept_Date":"2020-01-24 12"},"coordinates":[6711,6218]},{"type":"Point","properties":{"Station_ID":"ME-AR-15","Station_Nam":"PRESQUE ISLE 1.3 WSW, ME","Latitude":"46.67960","Longitude":"-68.01270","Snowdepth":"16.000","Units":"in","Rept_Date":"2020-01-24 12"},"coordinates":[6859,6859]},{"type":"Point","properties":{"Station_ID":"GRFN8","Station_Nam":"UNIVERSITY","Latitude":"47.93330","Longitude":"-97.08330","Snowdepth":"16.000","Units":"in","Rept_Date":"2020-01-25 06"},"coordinates":[36,7639]},{"type":"Point","properties":{"Station_ID":"GLWM5","Station_Nam":"GLENWOOD 1N","Latitude":"45.66580","Longitude":"-95.38690","Snowdepth":"16.000","Units":"in","Rept_Date":"2020-01-24 13"},"coordinates":[435,6228]},{"type":"Point","properties":{"Station_ID":"CORV1","Station_Nam":"CORINTH","Latitude":"44.00690","Longitude":"-72.31940","Snowdepth":"16.000","Units":"in","Rept_Date":"2020-01-24 12"},"coordinates":[5848,5196]},{"type":"Point","properties":{"Station_ID":"BREW3","Station_Nam":"SURING","Latitude":"44.99580","Longitude":"-88.37860","Snowdepth":"16.000","Units":"in","Rept_Date":"2020-01-24 13"},"coordinates":[2079,5811]},{"type":"Point","properties":{"Station_ID":"BOWW3","Station_Nam":"STOCKBRIDGE-MUNSEE RESERVATION","Latitude":"44.87000","Longitude":"-88.90440","Snowdepth":"16.000","Units":"in","Rept_Date":"2020-01-24 14"},"coordinates":[1956,5733]},{"type":"Point","properties":{"Station_ID":"ATY","Station_Nam":"WATERTOWN MUNICIPAL AIRPORT","Latitude":"44.91420","Longitude":"-97.15440","Snowdepth":"16.000","Units":"in","Rept_Date":"2020-01-25 00"},"coordinates":[20,5761]},{"type":"Point","properties":{"Station_ID":"ANJ","Station_Nam":"SAULT STE MARIE","Latitude":"46.46670","Longitude":"-84.36670","Snowdepth":"16.000","Units":"in","Rept_Date":"2020-01-25 00"},"coordinates":[3021,6726]},{"type":"Point","properties":{"Station_ID":"ALXM5","Station_Nam":"ALEXANDRIA","Latitude":"45.87820","Longitude":"-95.38270","Snowdepth":"16.000","Units":"in","Rept_Date":"2020-01-24 17"},"coordinates":[436,6360]},{"type":"Point","properties":{"Station_ID":"QWG","Station_Nam":"QWG","Latitude":"48.48890","Longitude":"-73.45940","Snowdepth":"15.512","Units":"in","Rept_Date":"2020-01-24 12"},"coordinates":[5581,7985]},{"type":"Point","properties":{"Station_ID":"MI-CX-7","Station_Nam":"EAST JORDAN 2.1 NNW, MI","Latitude":"45.18639","Longitude":"-85.14750","Snowdepth":"15.500","Units":"in","Rept_Date":"2020-01-24 13"},"coordinates":[2838,5930]},{"type":"Point","properties":{"Station_ID":"ME-CM-125","Station_Nam":"CUMBERLAND CENTER 4.4 NW, ME","Latitude":"43.84640","Longitude":"-70.31340","Snowdepth":"15.500","Units":"in","Rept_Date":"2020-01-24 12"},"coordinates":[6319,5096]},{"type":"Point","properties":{"Station_ID":"CAN-ON-757","Station_Nam":"SAULT STE. MARIE 2.8 ESE - GLFC, CAN","Latitude":"46.50300","Longitude":"-84.30300","Snowdepth":"15.500","Units":"in","Rept_Date":"2020-01-24 13"},"coordinates":[3036,6749]},{"type":"Point","properties":{"Station_ID":"CAN-PE-19","Station_Nam":"CHARLOTTETOWN 6.5 NNW, CAN","Latitude":"46.29235","Longitude":"-63.17271","Snowdepth":"15.400","Units":"in","Rept_Date":"2020-01-24 12"},"coordinates":[7995,6618]},{"type":"Point","properties":{"Station_ID":"CAN-NB-96","Station_Nam":"SAINT-IGNACE 2.6 NE, CAN","Latitude":"46.71424","Longitude":"-65.05609","Snowdepth":"15.400","Units":"in","Rept_Date":"2020-01-24 11"},"coordinates":[7553,6880]},{"type":"Point","properties":{"Station_ID":"WILW3","Station_Nam":"RESERVOIR","Latitude":"45.70000","Longitude":"-89.83330","Snowdepth":"15.000","Units":"in","Rept_Date":"2020-01-24 12"},"coordinates":[1738,6249]},{"type":"Point","properties":{"Station_ID":"WI-TY-3","Station_Nam":"MEDFORD 0.8 ENE, WI","Latitude":"45.14421","Longitude":"-90.33349","Snowdepth":"15.000","Units":"in","Rept_Date":"2020-01-24 14"},"coordinates":[1621,5904]},{"type":"Point","properties":{"Station_ID":"RSTW3","Station_Nam":"ROSHOLT","Latitude":"44.62710","Longitude":"-89.30600","Snowdepth":"15.000","Units":"in","Rept_Date":"2020-01-24 13"},"coordinates":[1862,5582]},{"type":"Point","properties":{"Station_ID":"RILW3","Station_Nam":"RICE LAKE","Latitude":"45.41660","Longitude":"-91.77240","Snowdepth":"15.000","Units":"in","Rept_Date":"2020-01-24 14"},"coordinates":[1283,6073]},{"type":"Point","properties":{"Station_ID":"ONMM5","Station_Nam":"ONAMIA RANGER STATION","Latitude":"46.06770","Longitude":"-93.66660","Snowdepth":"15.000","Units":"in","Rept_Date":"2020-01-24 14"},"coordinates":[838,6478]},{"type":"Point","properties":{"Station_ID":"NELW3","Station_Nam":"NEILLSVILLE 3ESE","Latitude":"44.53780","Longitude":"-90.53500","Snowdepth":"15.000","Units":"in","Rept_Date":"2020-01-24 13"},"coordinates":[1573,5526]},{"type":"Point","properties":{"Station_ID":"MNEY8CTB","Station_Nam":"MIDLAND JUNCTION 2.2 ENE","Latitude":"44.33041","Longitude":"-91.95891","Snowdepth":"15.000","Units":"in","Rept_Date":"2020-01-24 14"},"coordinates":[1239,5397]},{"type":"Point","properties":{"Station_ID":"MN-PK-15","Station_Nam":"MENTOR 2.5 SSW, MN","Latitude":"47.66625","Longitude":"-96.17328","Snowdepth":"15.000","Units":"in","Rept_Date":"2020-01-24 13"},"coordinates":[250,7473]},{"type":"Point","properties":{"Station_ID":"MN-MR-13","Station_Nam":"LITTLE FALLS 8.0 NE, MN","Latitude":"46.06785","Longitude":"-94.24789","Snowdepth":"15.000","Units":"in","Rept_Date":"2020-01-24 13"},"coordinates":[702,6478]},{"type":"Point","properties":{"Station_ID":"MI-OT-4","Station_Nam":"GAYLORD 1.7 WNW, MI","Latitude":"45.03280","Longitude":"-84.71090","Snowdepth":"15.000","Units":"in","Rept_Date":"2020-01-24 13"},"coordinates":[2940,5834]},{"type":"Point","properties":{"Station_ID":"MI-OT-16","Station_Nam":"GAYLORD 2.2 SSE, MI","Latitude":"44.99441","Longitude":"-84.65820","Snowdepth":"15.000","Units":"in","Rept_Date":"2020-01-24 12"},"coordinates":[2953,5810]},{"type":"Point","properties":{"Station_ID":"MI-CP-14","Station_Nam":"SAULT STE. MARIE 2.2 E, MI","Latitude":"46.48933","Longitude":"-84.31971","Snowdepth":"15.000","Units":"in","Rept_Date":"2020-01-24 12"},"coordinates":[3032,6740]},{"type":"Point","properties":{"Station_ID":"LGRN8","Station_Nam":"LIDGERWOOD,ND","Latitude":"46.06670","Longitude":"-97.16670","Snowdepth":"15.000","Units":"in","Rept_Date":"2020-01-24 13"},"coordinates":[17,6478]},{"type":"Point","properties":{"Station_ID":"LADW3","Station_Nam":"LADYSMITH WTP","Latitude":"45.44290","Longitude":"-91.08970","Snowdepth":"15.000","Units":"in","Rept_Date":"2020-01-24 13"},"coordinates":[1443,6089]},{"type":"Point","properties":{"Station_ID":"HUBN3","Station_Nam":"HUBBARD BROOK","Latitude":"43.93330","Longitude":"-71.71670","Snowdepth":"15.000","Units":"in","Rept_Date":"2020-01-25 06"},"coordinates":[5990,5150]},{"type":"Point","properties":{"Station_ID":"GLDM5","Station_Nam":"GAYLORD","Latitude":"44.55640","Longitude":"-94.22070","Snowdepth":"15.000","Units":"in","Rept_Date":"2020-01-24 15"},"coordinates":[708,5538]},{"type":"Point","properties":{"Station_ID":"GAYM4","Station_Nam":"GAYLORD","Latitude":"45.03320","Longitude":"-84.71130","Snowdepth":"15.000","Units":"in","Rept_Date":"2020-01-24 13"},"coordinates":[2940,5835]},{"type":"Point","properties":{"Station_ID":"FISM1","Station_Nam":"FORT KENT COOP","Latitude":"47.23850","Longitude":"-68.61240","Snowdepth":"15.000","Units":"in","Rept_Date":"2020-01-24 12"},"coordinates":[6718,7207]},{"type":"Point","properties":{"Station_ID":"ELRW3","Station_Nam":"EAU CLAIRE 3SW","Latitude":"44.78780","Longitude":"-91.51650","Snowdepth":"15.000","Units":"in","Rept_Date":"2020-01-25 06"},"coordinates":[1343,5682]},{"type":"Point","properties":{"Station_ID":"EJNM4","Station_Nam":"EAST JORDAN 2NW","Latitude":"45.18630","Longitude":"-85.14770","Snowdepth":"15.000","Units":"in","Rept_Date":"2020-01-24 13"},"coordinates":[2838,5930]},{"type":"Point","properties":{"Station_ID":"DFXM1","Station_Nam":"DOVER-FOXCROFT","Latitude":"45.18720","Longitude":"-69.18350","Snowdepth":"15.000","Units":"in","Rept_Date":"2020-01-24 12"},"coordinates":[6584,5930]},{"type":"Point","properties":{"Station_ID":"CHRM4","Station_Nam":"CHARLEVOIX","Latitude":"45.31720","Longitude":"-85.26720","Snowdepth":"15.000","Units":"in","Rept_Date":"2020-01-24 13"},"coordinates":[2810,6011]},{"type":"Point","properties":{"Station_ID":"CAN-NS-94","Station_Nam":"MARGAREE FORKS 2.6 SSE CBN, CAN","Latitude":"46.30937","Longitude":"-61.07603","Snowdepth":"15.000","Units":"in","Rept_Date":"2020-01-24 13"},"coordinates":[8487,6629]},{"type":"Point","properties":{"Station_ID":"CAN-NB-13","Station_Nam":"BATHURST 3.8 NW, CAN","Latitude":"47.64212","Longitude":"-65.68756","Snowdepth":"15.000","Units":"in","Rept_Date":"2020-01-24 11"},"coordinates":[7405,7458]},{"type":"Point","properties":{"Station_ID":"BALW3","Station_Nam":"BALDWIN","Latitude":"44.96330","Longitude":"-92.39050","Snowdepth":"15.000","Units":"in","Rept_Date":"2020-01-24 13"},"coordinates":[1138,5791]},{"type":"Point","properties":{"Station_ID":"ASXW3","Station_Nam":"ASHLAND,WI","Latitude":"46.55220","Longitude":"-90.91610","Snowdepth":"15.000","Units":"in","Rept_Date":"2020-01-24 14"},"coordinates":[1484,6780]},{"type":"Point","properties":{"Station_ID":"ANJM4","Station_Nam":"SNOW PAID OBSERVER FOR KANJ","Latitude":"46.48670","Longitude":"-84.40260","Snowdepth":"15.000","Units":"in","Rept_Date":"2020-01-25 06"},"coordinates":[3013,6739]},{"type":"Point","properties":{"Station_ID":"CAN-PE-20","Station_Nam":"BONSHAW 6.6 NNE, CAN","Latitude":"46.25082","Longitude":"-63.33409","Snowdepth":"14.600","Units":"in","Rept_Date":"2020-01-24 12"},"coordinates":[7957,6592]},{"type":"Point","properties":{"Station_ID":"SD-RB-4","Station_Nam":"SISSETON 10.4 ENE, SD","Latitude":"45.69480","Longitude":"-96.83480","Snowdepth":"14.500","Units":"in","Rept_Date":"2020-01-24 13"},"coordinates":[95,6246]},{"type":"Point","properties":{"Station_ID":"ME-CM-86","Station_Nam":"POWNAL 4.1 S, ME","Latitude":"43.85370","Longitude":"-70.17210","Snowdepth":"14.500","Units":"in","Rept_Date":"2020-01-24 12"},"coordinates":[6352,5101]},{"type":"Point","properties":{"Station_ID":"CAN-PE-7","Station_Nam":"MORELL 1.4 NNW, CA","Latitude":"46.42741","Longitude":"-62.70870","Snowdepth":"14.500","Units":"in","Rept_Date":"2020-01-24 12"},"coordinates":[8104,6702]},{"type":"Point","properties":{"Station_ID":"FTHQ6","Station_Nam":"FORT HOPE","Latitude":"51.55820","Longitude":"-87.90510","Snowdepth":"14.090","Units":"in","Rept_Date":"2020-01-25 06"},"coordinates":[2191,9894]},{"type":"Point","properties":{"Station_ID":"WLKM5","Station_Nam":"AH-GWAH-CHING","Latitude":"47.15000","Longitude":"-94.65000","Snowdepth":"14.000","Units":"in","Rept_Date":"2020-01-24 12"},"coordinates":[608,7152]},{"type":"Point","properties":{"Station_ID":"WLDM5","Station_Nam":"WILD RIVER STATE PARK","Latitude":"45.52310","Longitude":"-92.74890","Snowdepth":"14.000","Units":"in","Rept_Date":"2020-01-24 14"},"coordinates":[1054,6139]},{"type":"Point","properties":{"Station_ID":"WI-PT-8","Station_Nam":"RUDOLPH 2.1 NNE, WI","Latitude":"44.52553","Longitude":"-89.78677","Snowdepth":"14.000","Units":"in","Rept_Date":"2020-01-24 11"},"coordinates":[1749,5519]},{"type":"Point","properties":{"Station_ID":"VT-CL-18","Station_Nam":"WHEELOCK 1.6 S, VT","Latitude":"44.56491","Longitude":"-72.08830","Snowdepth":"14.000","Units":"in","Rept_Date":"2020-01-24 12"},"coordinates":[5903,5543]},{"type":"Point","properties":{"Station_ID":"SD-RB-1","Station_Nam":"SISSETON 3.8 W, SD","Latitude":"45.65865","Longitude":"-97.12370","Snowdepth":"14.000","Units":"in","Rept_Date":"2020-01-24 13"},"coordinates":[27,6224]},{"type":"Point","properties":{"Station_ID":"OWEW3","Station_Nam":"OWEN 1E","Latitude":"44.94610","Longitude":"-90.55170","Snowdepth":"14.000","Units":"in","Rept_Date":"2020-01-24 13"},"coordinates":[1569,5780]},{"type":"Point","properties":{"Station_ID":"MN-MR-4","Station_Nam":"LITTLE FALLS 1.2 SW, MN","Latitude":"45.96886","Longitude":"-94.37720","Snowdepth":"14.000","Units":"in","Rept_Date":"2020-01-24 13"},"coordinates":[672,6417]},{"type":"Point","properties":{"Station_ID":"MLCM5","Station_Nam":"MILACA","Latitude":"45.75320","Longitude":"-93.66170","Snowdepth":"14.000","Units":"in","Rept_Date":"2020-01-24 13"},"coordinates":[839,6283]},{"type":"Point","properties":{"Station_ID":"ME-YK-3","Station_Nam":"HOLLIS CENTER 5.4 NW, ME","Latitude":"43.64750","Longitude":"-70.67510","Snowdepth":"14.000","Units":"in","Rept_Date":"2020-01-24 12"},"coordinates":[6234,4972]},{"type":"Point","properties":{"Station_ID":"ME-CM-98","Station_Nam":"SEBAGO 2.4 ESE, ME","Latitude":"43.88000","Longitude":"-70.63000","Snowdepth":"14.000","Units":"in","Rept_Date":"2020-01-24 15"},"coordinates":[6245,5117]},{"type":"Point","properties":{"Station_ID":"LILM1","Station_Nam":"LILLE","Latitude":"47.27770","Longitude":"-68.10520","Snowdepth":"14.000","Units":"in","Rept_Date":"2020-01-24 12"},"coordinates":[6837,7231]},{"type":"Point","properties":{"Station_ID":"LBRM5","Station_Nam":"LAKE BRONSON DAM","Latitude":"48.72410","Longitude":"-96.62180","Snowdepth":"14.000","Units":"in","Rept_Date":"2020-01-24 14"},"coordinates":[145,8131]},{"type":"Point","properties":{"Station_ID":"KINM1","Station_Nam":"KINGFIELD","Latitude":"44.95950","Longitude":"-70.17530","Snowdepth":"14.000","Units":"in","Rept_Date":"2020-01-24 15"},"coordinates":[6352,5789]},{"type":"Point","properties":{"Station_ID":"HOLM1","Station_Nam":"HOLLIS","Latitude":"43.64750","Longitude":"-70.67490","Snowdepth":"14.000","Units":"in","Rept_Date":"2020-01-24 10"},"coordinates":[6234,4972]},{"type":"Point","properties":{"Station_ID":"ETTW3","Station_Nam":"ETTRICK 4WNW","Latitude":"44.19000","Longitude":"-91.34240","Snowdepth":"14.000","Units":"in","Rept_Date":"2020-01-24 14"},"coordinates":[1384,5310]},{"type":"Point","properties":{"Station_ID":"EAU","Station_Nam":"CHIPPEWA VALLEY REGIONAL AIRPORT","Latitude":"44.86650","Longitude":"-91.48790","Snowdepth":"14.000","Units":"in","Rept_Date":"2020-01-25 00"},"coordinates":[1350,5731]},{"type":"Point","properties":{"Station_ID":"BRAM1","Station_Nam":"BRASSUA DAM","Latitude":"45.66020","Longitude":"-69.81190","Snowdepth":"14.000","Units":"in","Rept_Date":"2020-01-24 12"},"coordinates":[6437,6225]},{"type":"Point","properties":{"Station_ID":"BKEM5","Station_Nam":"BRECKENRIDGE 4NE","Latitude":"46.30470","Longitude":"-96.52170","Snowdepth":"14.000","Units":"in","Rept_Date":"2020-01-24 13"},"coordinates":[168,6626]},{"type":"Point","properties":{"Station_ID":"AVLV1","Station_Nam":"AVERILL","Latitude":"45.00570","Longitude":"-71.69030","Snowdepth":"14.000","Units":"in","Rept_Date":"2020-01-24 13"},"coordinates":[5996,5817]},{"type":"Point","properties":{"Station_ID":"ARTM5","Station_Nam":"ARTICHOKE LAKE 1 E","Latitude":"45.38560","Longitude":"-96.12570","Snowdepth":"14.000","Units":"in","Rept_Date":"2020-01-25 00"},"coordinates":[261,6054]},{"type":"Point","properties":{"Station_ID":"CAN-PE-43","Station_Nam":"GLENCOE 0.3 W, CAN","Latitude":"46.20115","Longitude":"-62.81740","Snowdepth":"13.600","Units":"in","Rept_Date":"2020-01-24 12"},"coordinates":[8078,6561]},{"type":"Point","properties":{"Station_ID":"VT-OL-9","Station_Nam":"GREENSBORO 2.1 NNW, VT","Latitude":"44.60528","Longitude":"-72.30940","Snowdepth":"13.500","Units":"in","Rept_Date":"2020-01-24 12"},"coordinates":[5851,5568]},{"type":"Point","properties":{"Station_ID":"SD-CD-30","Station_Nam":"WATERTOWN 2.3 E, SD","Latitude":"44.91604","Longitude":"-97.11925","Snowdepth":"13.500","Units":"in","Rept_Date":"2020-01-24 13"},"coordinates":[28,5762]},{"type":"Point","properties":{"Station_ID":"ME-CM-3","Station_Nam":"NEW GLOUCESTER 3.0 SE, ME","Latitude":"43.92372","Longitude":"-70.25790","Snowdepth":"13.500","Units":"in","Rept_Date":"2020-01-24 12"},"coordinates":[6332,5144]},{"type":"Point","properties":{"Station_ID":"WI-SC-21","Station_Nam":"CLEAR LAKE 4.0 S, WI","Latitude":"45.19250","Longitude":"-92.27860","Snowdepth":"13.000","Units":"in","Rept_Date":"2020-01-24 14"},"coordinates":[1164,5934]},{"type":"Point","properties":{"Station_ID":"WASW3","Station_Nam":"WASHINGTON IS","Latitude":"45.35800","Longitude":"-86.89110","Snowdepth":"13.000","Units":"in","Rept_Date":"2020-01-24 13"},"coordinates":[2428,6037]},{"type":"Point","properties":{"Station_ID":"WABM5","Station_Nam":"WABASHA","Latitude":"44.38500","Longitude":"-92.04860","Snowdepth":"13.000","Units":"in","Rept_Date":"2020-01-24 13"},"coordinates":[1218,5431]},{"type":"Point","properties":{"Station_ID":"VT-ES-1","Station_Nam":"GRANBY 1.4 NW, VT","Latitude":"44.58330","Longitude":"-71.77870","Snowdepth":"13.000","Units":"in","Rept_Date":"2020-01-24 12"},"coordinates":[5975,5555]},{"type":"Point","properties":{"Station_ID":"VT-CL-14","Station_Nam":"LYNDONVILLE 1.1 W, VT","Latitude":"44.53582","Longitude":"-72.02867","Snowdepth":"13.000","Units":"in","Rept_Date":"2020-01-24 13"},"coordinates":[5917,5525]},{"type":"Point","properties":{"Station_ID":"STPW3","Station_Nam":"STEVENS POINT","Latitude":"44.51130","Longitude":"-89.58550","Snowdepth":"13.000","Units":"in","Rept_Date":"2020-01-24 13"},"coordinates":[1796,5510]},{"type":"Point","properties":{"Station_ID":"SIBI4","Station_Nam":"SIBLEY","Latitude":"43.40470","Longitude":"-95.74830","Snowdepth":"13.000","Units":"in","Rept_Date":"2020-01-24 13"},"coordinates":[350,4821]},{"type":"Point","properties":{"Station_ID":"SD-BK-9","Station_Nam":"BRUCE 4.1 NE, SD","Latitude":"44.48479","Longitude":"-96.83750","Snowdepth":"13.000","Units":"in","Rept_Date":"2020-01-24 13"},"coordinates":[94,5493]},{"type":"Point","properties":{"Station_ID":"SANI4","Station_Nam":"ST ANSGAR","Latitude":"43.38170","Longitude":"-92.92320","Snowdepth":"13.000","Units":"in","Rept_Date":"2020-01-24 12"},"coordinates":[1013,4807]},{"type":"Point","properties":{"Station_ID":"RKWM1","Station_Nam":"MOOSEHEAD LAKE","Latitude":"45.58330","Longitude":"-69.71670","Snowdepth":"13.000","Units":"in","Rept_Date":"2020-01-24 12"},"coordinates":[6459,6177]},{"type":"Point","properties":{"Station_ID":"RGNM1","Station_Nam":"RANGELEY 2NW","Latitude":"44.98940","Longitude":"-70.67220","Snowdepth":"13.000","Units":"in","Rept_Date":"2020-01-24 11"},"coordinates":[6235,5807]},{"type":"Point","properties":{"Station_ID":"RCEM5","Station_Nam":"RICE","Latitude":"45.75760","Longitude":"-94.20720","Snowdepth":"13.000","Units":"in","Rept_Date":"2020-01-24 13"},"coordinates":[711,6285]},{"type":"Point","properties":{"Station_ID":"PELW3","Station_Nam":"PELLA 3SE","Latitude":"44.73580","Longitude":"-88.73780","Snowdepth":"13.000","Units":"in","Rept_Date":"2020-01-24 11"},"coordinates":[1995,5650]},{"type":"Point","properties":{"Station_ID":"PBAN8","Station_Nam":"SITE 1-3MI.N","Latitude":"48.97420","Longitude":"-97.23860","Snowdepth":"13.000","Units":"in","Rept_Date":"2020-01-24 13"},"coordinates":[0,8286]},{"type":"Point","properties":{"Station_ID":"NH-CR-11","Station_Nam":"NORTH CONWAY 1.4 SSW, NH","Latitude":"44.03556","Longitude":"-71.14010","Snowdepth":"13.000","Units":"in","Rept_Date":"2020-01-24 12"},"coordinates":[6125,5214]},{"type":"Point","properties":{"Station_ID":"MRAM5","Station_Nam":"MORA","Latitude":"45.87760","Longitude":"-93.31470","Snowdepth":"13.000","Units":"in","Rept_Date":"2020-01-24 13"},"coordinates":[921,6360]},{"type":"Point","properties":{"Station_ID":"MN-SL-139","Station_Nam":"DULUTH 1.2 SE, MN","Latitude":"46.77000","Longitude":"-92.08826","Snowdepth":"13.000","Units":"in","Rept_Date":"2020-01-24 12"},"coordinates":[1209,6915]},{"type":"Point","properties":{"Station_ID":"MLBS2","Station_Nam":"MILBANK","Latitude":"45.22040","Longitude":"-96.62530","Snowdepth":"13.000","Units":"in","Rept_Date":"2020-01-24 13"},"coordinates":[144,5951]},{"type":"Point","properties":{"Station_ID":"ME-FR-4","Station_Nam":"NEW SHARON 2.0 NW, ME","Latitude":"44.66582","Longitude":"-70.02720","Snowdepth":"13.000","Units":"in","Rept_Date":"2020-01-24 12"},"coordinates":[6386,5606]},{"type":"Point","properties":{"Station_ID":"ISLV1","Station_Nam":"ISLAND POND","Latitude":"44.81280","Longitude":"-71.89020","Snowdepth":"13.000","Units":"in","Rept_Date":"2020-01-24 15"},"coordinates":[5949,5697]},{"type":"Point","properties":{"Station_ID":"GRBM5","Station_Nam":"GRAND RAPIDS 12N","Latitude":"47.39800","Longitude":"-93.51330","Snowdepth":"13.000","Units":"in","Rept_Date":"2020-01-24 13"},"coordinates":[874,7306]},{"type":"Point","properties":{"Station_ID":"FLAM4","Station_Nam":"FIFE LAKE 2WNW","Latitude":"44.58480","Longitude":"-85.36530","Snowdepth":"13.000","Units":"in","Rept_Date":"2020-01-24 12"},"coordinates":[2787,5556]},{"type":"Point","properties":{"Station_ID":"ENFV1","Station_Nam":"ENOSBURG FALLS 2","Latitude":"44.90960","Longitude":"-72.81370","Snowdepth":"13.000","Units":"in","Rept_Date":"2020-01-24 10"},"coordinates":[5732,5758]},{"type":"Point","properties":{"Station_ID":"CAN-PE-3","Station_Nam":"WELLINGTON 1.6 NE, CA","Latitude":"46.46672","Longitude":"-63.98920","Snowdepth":"13.000","Units":"in","Rept_Date":"2020-01-24 11"},"coordinates":[7803,6726]},{"type":"Point","properties":{"Station_ID":"BROS2","Station_Nam":"BROOKINGS,SD","Latitude":"44.31670","Longitude":"-96.76670","Snowdepth":"13.000","Units":"in","Rept_Date":"2020-01-24 14"},"coordinates":[111,5389]},{"type":"Point","properties":{"Station_ID":"BMRW3","Station_Nam":"BLOOMER","Latitude":"45.09070","Longitude":"-91.48640","Snowdepth":"13.000","Units":"in","Rept_Date":"2020-01-24 14"},"coordinates":[1350,5870]},{"type":"Point","properties":{"Station_ID":"BFSW3","Station_Nam":"BIG FALLS-5 NW","Latitude":"44.63980","Longitude":"-89.11330","Snowdepth":"13.000","Units":"in","Rept_Date":"2020-01-24 13"},"coordinates":[1907,5590]},{"type":"Point","properties":{"Station_ID":"APXM4","Station_Nam":"GAYLORD 9SSW","Latitude":"44.90720","Longitude":"-84.71880","Snowdepth":"13.000","Units":"in","Rept_Date":"2020-01-25 06"},"coordinates":[2938,5756]},{"type":"Point","properties":{"Station_ID":"AMDW3","Station_Nam":"ALMOND-5 NE","Latitude":"44.30830","Longitude":"-89.34640","Snowdepth":"13.000","Units":"in","Rept_Date":"2020-01-24 14"},"coordinates":[1852,5384]},{"type":"Point","properties":{"Station_ID":"CAN-NS-60","Station_Nam":"SYDNEY FORKS, CAN","Latitude":"46.05645","Longitude":"-60.31510","Snowdepth":"12.800","Units":"in","Rept_Date":"2020-01-24 12"},"coordinates":[8666,6471]},{"type":"Point","properties":{"Station_ID":"NH-GR-49","Station_Nam":"PLYMOUTH 3.7 N, NH","Latitude":"43.79048","Longitude":"-71.68413","Snowdepth":"12.500","Units":"in","Rept_Date":"2020-01-24 12"},"coordinates":[5997,5061]},{"type":"Point","properties":{"Station_ID":"CAN-NS-103","Station_Nam":"TRAFALGAR 4.9 WSW, CAN","Latitude":"45.26217","Longitude":"-62.72285","Snowdepth":"12.500","Units":"in","Rept_Date":"2020-01-24 11"},"coordinates":[8101,5977]},{"type":"Point","properties":{"Station_ID":"CAN-NB-97","Station_Nam":"NEW MARYLAND 0.6 NW, CAN","Latitude":"45.90112","Longitude":"-66.68739","Snowdepth":"12.200","Units":"in","Rept_Date":"2020-01-24 12"},"coordinates":[7170,6375]},{"type":"Point","properties":{"Station_ID":"WSFW3","Station_Nam":"TOWN OF WESTFORD","Latitude":"43.47190","Longitude":"-88.88250","Snowdepth":"12.000","Units":"in","Rept_Date":"2020-01-24 13"},"coordinates":[1961,4863]},{"type":"Point","properties":{"Station_ID":"WI-DN-5","Station_Nam":"ELK MOUND 1.3 NE, WI","Latitude":"44.88627","Longitude":"-91.66680","Snowdepth":"12.000","Units":"in","Rept_Date":"2020-01-24 13"},"coordinates":[1308,5743]},{"type":"Point","properties":{"Station_ID":"WI-DD-16","Station_Nam":"BEAVER DAM 2.4 WNW, WI","Latitude":"43.47210","Longitude":"-88.88280","Snowdepth":"12.000","Units":"in","Rept_Date":"2020-01-24 13"},"coordinates":[1961,4863]},{"type":"Point","properties":{"Station_ID":"VT-OG-11","Station_Nam":"VERSHIRE 1.5 ESE, VT","Latitude":"43.96138","Longitude":"-72.29777","Snowdepth":"12.000","Units":"in","Rept_Date":"2020-01-24 12"},"coordinates":[5853,5168]},{"type":"Point","properties":{"Station_ID":"TCEM4","Station_Nam":"TRAVERSE CITY 5ESE","Latitude":"44.73370","Longitude":"-85.51180","Snowdepth":"12.000","Units":"in","Rept_Date":"2020-01-24 12"},"coordinates":[2752,5648]},{"type":"Point","properties":{"Station_ID":"SHIW3","Station_Nam":"SHIOCTON","Latitude":"44.43890","Longitude":"-88.58390","Snowdepth":"12.000","Units":"in","Rept_Date":"2020-01-24 16"},"coordinates":[2031,5465]},{"type":"Point","properties":{"Station_ID":"SD-BK-7","Station_Nam":"BROOKINGS 0.2 SSW, SD","Latitude":"44.30389","Longitude":"-96.78780","Snowdepth":"12.000","Units":"in","Rept_Date":"2020-01-24 13"},"coordinates":[106,5381]},{"type":"Point","properties":{"Station_ID":"SCRW3","Station_Nam":"ST CROIX FALLS","Latitude":"45.41170","Longitude":"-92.64660","Snowdepth":"12.000","Units":"in","Rept_Date":"2020-01-24 13"},"coordinates":[1078,6070]},{"type":"Point","properties":{"Station_ID":"RANM1","Station_Nam":"RANGELEY","Latitude":"44.98910","Longitude":"-70.67190","Snowdepth":"12.000","Units":"in","Rept_Date":"2020-01-24 11"},"coordinates":[6235,5807]},{"type":"Point","properties":{"Station_ID":"NUMN3","Station_Nam":"NORTHUMBERLAND","Latitude":"44.52830","Longitude":"-71.50440","Snowdepth":"12.000","Units":"in","Rept_Date":"2020-01-24 13"},"coordinates":[6040,5520]},{"type":"Point","properties":{"Station_ID":"NH-GR-11","Station_Nam":"PLYMOUTH 1.6 NNE, NH","Latitude":"43.76032","Longitude":"-71.68890","Snowdepth":"12.000","Units":"in","Rept_Date":"2020-01-24 12"},"coordinates":[5996,5043]},{"type":"Point","properties":{"Station_ID":"NH-CR-26","Station_Nam":"CENTER SANDWICH 4.9 E, NH","Latitude":"43.80976","Longitude":"-71.34150","Snowdepth":"12.000","Units":"in","Rept_Date":"2020-01-24 12"},"coordinates":[6078,5073]},{"type":"Point","properties":{"Station_ID":"NH-CR-15","Station_Nam":"JACKSON 3.7 NW, NH","Latitude":"44.19069","Longitude":"-71.22598","Snowdepth":"12.000","Units":"in","Rept_Date":"2020-01-24 12"},"coordinates":[6105,5310]},{"type":"Point","properties":{"Station_ID":"NGLW3","Station_Nam":"NEW GLARUS","Latitude":"42.83500","Longitude":"-89.62080","Snowdepth":"12.000","Units":"in","Rept_Date":"2020-01-24 13"},"coordinates":[1788,4467]},{"type":"Point","properties":{"Station_ID":"MNOW3","Station_Nam":"CEDAR FALLS HYDRO PLANT","Latitude":"44.93550","Longitude":"-91.88850","Snowdepth":"12.000","Units":"in","Rept_Date":"2020-01-24 13"},"coordinates":[1256,5774]},{"type":"Point","properties":{"Station_ID":"MN76ACVS","Station_Nam":"GRAND MARAIS 3.0 WNW","Latitude":"47.76602","Longitude":"-90.26427","Snowdepth":"12.000","Units":"in","Rept_Date":"2020-01-24 13"},"coordinates":[1637,7535]},{"type":"Point","properties":{"Station_ID":"MN-SR-29","Station_Nam":"ALBANY 3.8 S, MN","Latitude":"45.57441","Longitude":"-94.55543","Snowdepth":"12.000","Units":"in","Rept_Date":"2020-01-24 13"},"coordinates":[630,6171]},{"type":"Point","properties":{"Station_ID":"MN-SH-985","Station_Nam":"PRINCETON 3.3 WSW, MN","Latitude":"45.55211","Longitude":"-93.64481","Snowdepth":"12.000","Units":"in","Rept_Date":"2020-01-24 10"},"coordinates":[843,6157]},{"type":"Point","properties":{"Station_ID":"MN-SH-10","Station_Nam":"BIG LAKE 5.6 NNE, MN","Latitude":"45.41409","Longitude":"-93.69190","Snowdepth":"12.000","Units":"in","Rept_Date":"2020-01-24 13"},"coordinates":[832,6072]},{"type":"Point","properties":{"Station_ID":"MN-ML-1","Station_Nam":"ONAMIA 4.3 NW, MN","Latitude":"46.10883","Longitude":"-93.73890","Snowdepth":"12.000","Units":"in","Rept_Date":"2020-01-24 14"},"coordinates":[821,6504]},{"type":"Point","properties":{"Station_ID":"MLRM5","Station_Nam":"MELROSE","Latitude":"45.67710","Longitude":"-94.80200","Snowdepth":"12.000","Units":"in","Rept_Date":"2020-01-24 13"},"coordinates":[572,6235]},{"type":"Point","properties":{"Station_ID":"MI-GT-25","Station_Nam":"TRAVERSE CITY 4.7 ESE, MI","Latitude":"44.73370","Longitude":"-85.51189","Snowdepth":"12.000","Units":"in","Rept_Date":"2020-01-24 12"},"coordinates":[2752,5648]},{"type":"Point","properties":{"Station_ID":"MI-BZ-1","Station_Nam":"BENZONIA 5.3 S, MI","Latitude":"44.53976","Longitude":"-86.10650","Snowdepth":"12.000","Units":"in","Rept_Date":"2020-01-24 13"},"coordinates":[2613,5528]},{"type":"Point","properties":{"Station_ID":"ME-CM-18","Station_Nam":"PORTLAND 5.5 WNW, ME","Latitude":"43.70288","Longitude":"-70.30550","Snowdepth":"12.000","Units":"in","Rept_Date":"2020-01-24 12"},"coordinates":[6321,5007]},{"type":"Point","properties":{"Station_ID":"ME-AN-32","Station_Nam":"WINTHROP 9.4 W, ME","Latitude":"44.30476","Longitude":"-70.15835","Snowdepth":"12.000","Units":"in","Rept_Date":"2020-01-24 12"},"coordinates":[6356,5381]},{"type":"Point","properties":{"Station_ID":"JEFN3","Station_Nam":"JEFFERSON","Latitude":"44.41690","Longitude":"-71.50080","Snowdepth":"12.000","Units":"in","Rept_Date":"2020-01-24 12"},"coordinates":[6040,5451]},{"type":"Point","properties":{"Station_ID":"ISEM5","Station_Nam":"ISLE 12N","Latitude":"46.31970","Longitude":"-93.50140","Snowdepth":"12.000","Units":"in","Rept_Date":"2020-01-24 14"},"coordinates":[877,6635]},{"type":"Point","properties":{"Station_ID":"HRTM1","Station_Nam":"HARTFORD","Latitude":"44.37440","Longitude":"-70.31620","Snowdepth":"12.000","Units":"in","Rept_Date":"2020-01-24 12"},"coordinates":[6318,5425]},{"type":"Point","properties":{"Station_ID":"FYTI4","Station_Nam":"FAYETTE","Latitude":"42.88300","Longitude":"-91.83020","Snowdepth":"12.000","Units":"in","Rept_Date":"2020-01-24 13"},"coordinates":[1269,4497]},{"type":"Point","properties":{"Station_ID":"FORM5","Station_Nam":"FOREST LAKE 5NE","Latitude":"45.33170","Longitude":"-92.89820","Snowdepth":"12.000","Units":"in","Rept_Date":"2020-01-24 13"},"coordinates":[1019,6020]},{"type":"Point","properties":{"Station_ID":"FARM1","Station_Nam":"FARMINGTON","Latitude":"44.68930","Longitude":"-70.15640","Snowdepth":"12.000","Units":"in","Rept_Date":"2020-01-24 12"},"coordinates":[6356,5621]},{"type":"Point","properties":{"Station_ID":"ESGM1","Station_Nam":"EAST SANGERVILLE","Latitude":"45.13690","Longitude":"-69.28060","Snowdepth":"12.000","Units":"in","Rept_Date":"2020-01-24 12"},"coordinates":[6562,5899]},{"type":"Point","properties":{"Station_ID":"ESDN3","Station_Nam":"EAST SANDWICH","Latitude":"43.80990","Longitude":"-71.34250","Snowdepth":"12.000","Units":"in","Rept_Date":"2020-01-24 11"},"coordinates":[6078,5074]},{"type":"Point","properties":{"Station_ID":"EJDM4","Station_Nam":"EAST JORDAN","Latitude":"45.15190","Longitude":"-85.13220","Snowdepth":"12.000","Units":"in","Rept_Date":"2020-01-24 13"},"coordinates":[2841,5908]},{"type":"Point","properties":{"Station_ID":"CHRI4","Station_Nam":"CHARITON,IA","Latitude":"41.00000","Longitude":"-93.31670","Snowdepth":"12.000","Units":"in","Rept_Date":"2020-01-24 13"},"coordinates":[920,3325]},{"type":"Point","properties":{"Station_ID":"CHPW3","Station_Nam":"CHIPPEWA FALLS","Latitude":"44.92770","Longitude":"-91.40810","Snowdepth":"12.000","Units":"in","Rept_Date":"2020-01-24 14"},"coordinates":[1368,5769]},{"type":"Point","properties":{"Station_ID":"CAN-ON-245","Station_Nam":"PHELPSTON 3.1 ESE, CAN","Latitude":"44.50564","Longitude":"-79.81035","Snowdepth":"12.000","Units":"in","Rept_Date":"2020-01-24 14"},"coordinates":[4090,5506]},{"type":"Point","properties":{"Station_ID":"ALBM5","Station_Nam":"ALBERT LEA 3 SE","Latitude":"43.60640","Longitude":"-93.30190","Snowdepth":"12.000","Units":"in","Rept_Date":"2020-01-24 14"},"coordinates":[924,4947]},{"type":"Point","properties":{"Station_ID":"WI-WD-2","Station_Nam":"WISCONSIN RAPIDS 4.6 SSE, WI","Latitude":"44.33823","Longitude":"-89.78200","Snowdepth":"11.500","Units":"in","Rept_Date":"2020-01-24 14"},"coordinates":[1750,5402]},{"type":"Point","properties":{"Station_ID":"WI-IW-3","Station_Nam":"MINERAL POINT 7.3 ENE, WI","Latitude":"42.91400","Longitude":"-90.05700","Snowdepth":"11.500","Units":"in","Rept_Date":"2020-01-24 13"},"coordinates":[1685,4516]},{"type":"Point","properties":{"Station_ID":"SD-BK-2","Station_Nam":"ASTORIA 2.2 SSE, SD","Latitude":"44.53093","Longitude":"-96.52270","Snowdepth":"11.500","Units":"in","Rept_Date":"2020-01-24 13"},"coordinates":[168,5522]},{"type":"Point","properties":{"Station_ID":"MI-GT-21","Station_Nam":"KINGSLEY 2.7 ENE, MI","Latitude":"44.59871","Longitude":"-85.48426","Snowdepth":"11.500","Units":"in","Rept_Date":"2020-01-24 13"},"coordinates":[2759,5564]},{"type":"Point","properties":{"Station_ID":"CAN-NS-163","Station_Nam":"SYDNEY MINES 2.2 WNW, CAN","Latitude":"46.24851","Longitude":"-60.25161","Snowdepth":"11.400","Units":"in","Rept_Date":"2020-01-24 12"},"coordinates":[8681,6591]},{"type":"Point","properties":{"Station_ID":"CAN-QC-51","Station_Nam":"BELOEIL 0.7 NW, CAN","Latitude":"45.58049","Longitude":"-73.21218","Snowdepth":"11.100","Units":"in","Rept_Date":"2020-01-24 12"},"coordinates":[5639,6175]},{"type":"Point","properties":{"Station_ID":"WNNM5","Station_Nam":"WINNEBAGO","Latitude":"43.76920","Longitude":"-94.18730","Snowdepth":"11.000","Units":"in","Rept_Date":"2020-01-24 14"},"coordinates":[716,5048]},{"type":"Point","properties":{"Station_ID":"WMRM5","Station_Nam":"WILLMAR 5N","Latitude":"45.19010","Longitude":"-95.05860","Snowdepth":"11.000","Units":"in","Rept_Date":"2020-01-24 12"},"coordinates":[512,5932]},{"type":"Point","properties":{"Station_ID":"WIPW3","Station_Nam":"WISCONSIN RAPIDS-SOUTHEAST","Latitude":"44.38190","Longitude":"-89.80470","Snowdepth":"11.000","Units":"in","Rept_Date":"2020-01-24 12"},"coordinates":[1745,5429]},{"type":"Point","properties":{"Station_ID":"WI-WH-7","Station_Nam":"WILD ROSE 0.5 E, WI","Latitude":"44.17764","Longitude":"-89.23812","Snowdepth":"11.000","Units":"in","Rept_Date":"2020-01-24 13"},"coordinates":[1878,5302]},{"type":"Point","properties":{"Station_ID":"WI-VR-1","Station_Nam":"HILLSBORO 0.5 WSW, WI","Latitude":"43.65138","Longitude":"-90.34753","Snowdepth":"11.000","Units":"in","Rept_Date":"2020-01-24 13"},"coordinates":[1617,4975]},{"type":"Point","properties":{"Station_ID":"WI-DR-5","Station_Nam":"ELLISON BAY 2.2 E, WI","Latitude":"45.25750","Longitude":"-87.02670","Snowdepth":"11.000","Units":"in","Rept_Date":"2020-01-24 13"},"coordinates":[2397,5974]},{"type":"Point","properties":{"Station_ID":"WDOM5","Station_Nam":"WINDOM","Latitude":"43.87700","Longitude":"-95.11590","Snowdepth":"11.000","Units":"in","Rept_Date":"2020-01-24 14"},"coordinates":[498,5115]},{"type":"Point","properties":{"Station_ID":"SHHW3","Station_Nam":"SHAWANO 2SSW","Latitude":"44.76310","Longitude":"-88.61830","Snowdepth":"11.000","Units":"in","Rept_Date":"2020-01-24 14"},"coordinates":[2023,5667]},{"type":"Point","properties":{"Station_ID":"PTBN3","Station_Nam":"PITTSBURG RESERVOIR","Latitude":"45.04690","Longitude":"-71.38300","Snowdepth":"11.000","Units":"in","Rept_Date":"2020-01-24 12"},"coordinates":[6068,5843]},{"type":"Point","properties":{"Station_ID":"NY-FK-7","Station_Nam":"SARANAC LAKE 6.2 N, NY","Latitude":"44.41359","Longitude":"-74.15211","Snowdepth":"11.000","Units":"in","Rept_Date":"2020-01-24 12"},"coordinates":[5418,5449]},{"type":"Point","properties":{"Station_ID":"NPTV1","Station_Nam":"NEWPORT","Latitude":"44.94900","Longitude":"-72.19120","Snowdepth":"11.000","Units":"in","Rept_Date":"2020-01-24 12"},"coordinates":[5878,5782]},{"type":"Point","properties":{"Station_ID":"MRQM4","Station_Nam":"MARQUETTE WFP","Latitude":"46.54580","Longitude":"-87.37950","Snowdepth":"11.000","Units":"in","Rept_Date":"2020-01-24 13"},"coordinates":[2314,6776]},{"type":"Point","properties":{"Station_ID":"MNG0GYSN","Station_Nam":"LONSDALE 1.1 SSW","Latitude":"44.46445","Longitude":"-93.43293","Snowdepth":"11.000","Units":"in","Rept_Date":"2020-01-24 12"},"coordinates":[893,5481]},{"type":"Point","properties":{"Station_ID":"MN-RC-1","Station_Nam":"MONTGOMERY 3.2 ENE, MN","Latitude":"44.46400","Longitude":"-93.51980","Snowdepth":"11.000","Units":"in","Rept_Date":"2020-01-24 11"},"coordinates":[873,5480]},{"type":"Point","properties":{"Station_ID":"MN-HN-181","Station_Nam":"MINNEAPOLIS 0.4 NE, MN","Latitude":"44.96708","Longitude":"-93.26222","Snowdepth":"11.000","Units":"in","Rept_Date":"2020-01-24 13"},"coordinates":[933,5793]},{"type":"Point","properties":{"Station_ID":"MN-CG-16","Station_Nam":"NORTH BRANCH 1.3 NNW, MN","Latitude":"45.53121","Longitude":"-92.97110","Snowdepth":"11.000","Units":"in","Rept_Date":"2020-01-24 12"},"coordinates":[1002,6144]},{"type":"Point","properties":{"Station_ID":"MEMW3","Station_Nam":"MENOMONIE","Latitude":"44.87430","Longitude":"-91.93640","Snowdepth":"11.000","Units":"in","Rept_Date":"2020-01-24 13"},"coordinates":[1244,5736]},{"type":"Point","properties":{"Station_ID":"ME-FR-22","Station_Nam":"FARMINGTON 4.8 NNW, ME","Latitude":"44.73396","Longitude":"-70.18007","Snowdepth":"11.000","Units":"in","Rept_Date":"2020-01-24 14"},"coordinates":[6350,5648]},{"type":"Point","properties":{"Station_ID":"MABM5","Station_Nam":"MABEL","Latitude":"43.52410","Longitude":"-91.76160","Snowdepth":"11.000","Units":"in","Rept_Date":"2020-01-24 12"},"coordinates":[1285,4896]},{"type":"Point","properties":{"Station_ID":"LNKM1","Station_Nam":"LINCOLN SANITARY DISTRICT/WTP","Latitude":"45.37520","Longitude":"-68.50820","Snowdepth":"11.000","Units":"in","Rept_Date":"2020-01-24 12"},"coordinates":[6743,6047]},{"type":"Point","properties":{"Station_ID":"LACN3","Station_Nam":"LACONIA","Latitude":"43.53010","Longitude":"-71.46260","Snowdepth":"11.000","Units":"in","Rept_Date":"2020-01-24 12"},"coordinates":[6049,4899]},{"type":"Point","properties":{"Station_ID":"GYX","Station_Nam":"PORTLAND, ME","Latitude":"43.89250","Longitude":"-70.25500","Snowdepth":"11.000","Units":"in","Rept_Date":"2020-01-24 12"},"coordinates":[6333,5125]},{"type":"Point","properties":{"Station_ID":"GHMN3","Station_Nam":"PINKHAM NOTCH","Latitude":"44.25800","Longitude":"-71.25250","Snowdepth":"11.000","Units":"in","Rept_Date":"2020-01-24 11"},"coordinates":[6099,5352]},{"type":"Point","properties":{"Station_ID":"EVYI4","Station_Nam":"EVERLY,IA","Latitude":"43.18330","Longitude":"-95.36670","Snowdepth":"11.000","Units":"in","Rept_Date":"2020-01-24 13"},"coordinates":[439,4684]},{"type":"Point","properties":{"Station_ID":"DURM1","Station_Nam":"DURHAM","Latitude":"43.99960","Longitude":"-70.09630","Snowdepth":"11.000","Units":"in","Rept_Date":"2020-01-24 12"},"coordinates":[6370,5192]},{"type":"Point","properties":{"Station_ID":"DTVM4","Station_Nam":"DETOUR VILLAGE","Latitude":"45.99830","Longitude":"-83.90130","Snowdepth":"11.000","Units":"in","Rept_Date":"2020-01-24 13"},"coordinates":[3130,6435]},{"type":"Point","properties":{"Station_ID":"DGVW3","Station_Nam":"DODGEVILLE","Latitude":"42.96670","Longitude":"-90.11670","Snowdepth":"11.000","Units":"in","Rept_Date":"2020-01-24 13"},"coordinates":[1671,4549]},{"type":"Point","properties":{"Station_ID":"CVZW3","Station_Nam":"WISCONSIN PUBLIC SERVICE","Latitude":"45.23530","Longitude":"-88.01360","Snowdepth":"11.000","Units":"in","Rept_Date":"2020-01-24 13"},"coordinates":[2165,5960]},{"type":"Point","properties":{"Station_ID":"CAN-PE-50","Station_Nam":"BEDFORD CORNER 3.9 WNW, CAN","Latitude":"46.34628","Longitude":"-63.06157","Snowdepth":"11.000","Units":"in","Rept_Date":"2020-01-24 11"},"coordinates":[8021,6651]},{"type":"Point","properties":{"Station_ID":"BTLN3","Station_Nam":"BARTLETT","Latitude":"44.08380","Longitude":"-71.29340","Snowdepth":"11.000","Units":"in","Rept_Date":"2020-01-24 12"},"coordinates":[6089,5244]},{"type":"Point","properties":{"Station_ID":"BRLW3","Station_Nam":"BRILLION,WI","Latitude":"44.18330","Longitude":"-88.06670","Snowdepth":"11.000","Units":"in","Rept_Date":"2020-01-24 12"},"coordinates":[2153,5306]},{"type":"Point","properties":{"Station_ID":"ASTM5","Station_Nam":"AUSTIN WASTE WATER TREATMENT FACILITY","Latitude":"43.65420","Longitude":"-92.97390","Snowdepth":"11.000","Units":"in","Rept_Date":"2020-01-24 13"},"coordinates":[1001,4977]},{"type":"Point","properties":{"Station_ID":"AMHW3","Station_Nam":"AMHERST-3 SE","Latitude":"44.41280","Longitude":"-89.26390","Snowdepth":"11.000","Units":"in","Rept_Date":"2020-01-24 13"},"coordinates":[1872,5449]},{"type":"Point","properties":{"Station_ID":"VT-WS-10","Station_Nam":"NORTHFIELD 1.5 N, VT","Latitude":"44.16986","Longitude":"-72.65200","Snowdepth":"10.500","Units":"in","Rept_Date":"2020-01-24 12"},"coordinates":[5770,5297]},{"type":"Point","properties":{"Station_ID":"CAN-PE-10","Station_Nam":"NEW LONDON 1.6 ENE, CA","Latitude":"46.46985","Longitude":"-63.49200","Snowdepth":"10.500","Units":"in","Rept_Date":"2020-01-24 12"},"coordinates":[7920,6728]},{"type":"Point","properties":{"Station_ID":"WI-BN-6","Station_Nam":"SUAMICO 4.4 WNW, WI","Latitude":"44.66111","Longitude":"-88.11780","Snowdepth":"10.400","Units":"in","Rept_Date":"2020-01-24 19"},"coordinates":[2141,5603]},{"type":"Point","properties":{"Station_ID":"WTBW3","Station_Nam":"WEST BEND PUBLIC WORKS","Latitude":"43.41110","Longitude":"-88.19380","Snowdepth":"10.000","Units":"in","Rept_Date":"2020-01-24 15"},"coordinates":[2123,4825]},{"type":"Point","properties":{"Station_ID":"WMTI4","Station_Nam":"FORT DODGE,IA","Latitude":"42.50610","Longitude":"-94.20110","Snowdepth":"10.000","Units":"in","Rept_Date":"2020-01-24 13"},"coordinates":[713,4262]},{"type":"Point","properties":{"Station_ID":"WLNM4","Station_Nam":"WELLSTON 1N","Latitude":"44.22940","Longitude":"-85.95690","Snowdepth":"10.000","Units":"in","Rept_Date":"2020-01-24 12"},"coordinates":[2648,5334]},{"type":"Point","properties":{"Station_ID":"WI-WN-9","Station_Nam":"NEENAH 1.1 ENE, WI","Latitude":"44.17370","Longitude":"-88.45130","Snowdepth":"10.000","Units":"in","Rept_Date":"2020-01-24 13"},"coordinates":[2062,5300]},{"type":"Point","properties":{"Station_ID":"WI-PK-4","Station_Nam":"DRESSER 6.1 ESE, WI","Latitude":"45.32436","Longitude":"-92.52080","Snowdepth":"10.000","Units":"in","Rept_Date":"2020-01-24 14"},"coordinates":[1107,6016]},{"type":"Point","properties":{"Station_ID":"WHTM5","Station_Nam":"WHEATON,MN","Latitude":"45.80000","Longitude":"-96.48330","Snowdepth":"10.000","Units":"in","Rept_Date":"2020-01-24 14"},"coordinates":[177,6312]},{"type":"Point","properties":{"Station_ID":"WENN3","Station_Nam":"P.O. BOX 197 WENTWORTH, NH","Latitude":"43.95190","Longitude":"-71.91560","Snowdepth":"10.000","Units":"in","Rept_Date":"2020-01-24 12"},"coordinates":[5943,5162]},{"type":"Point","properties":{"Station_ID":"WELM4","Station_Nam":"WELLSTON TIPPY DAM","Latitude":"44.25860","Longitude":"-85.93940","Snowdepth":"10.000","Units":"in","Rept_Date":"2020-01-24 13"},"coordinates":[2652,5353]},{"type":"Point","properties":{"Station_ID":"VT-WR-2","Station_Nam":"POMFRET 2.6 N, VT","Latitude":"43.74230","Longitude":"-72.52550","Snowdepth":"10.000","Units":"in","Rept_Date":"2020-01-24 12"},"coordinates":[5800,5031]},{"type":"Point","properties":{"Station_ID":"VT-OL-2","Station_Nam":"BARTON 3.0 ENE, VT","Latitude":"44.75863","Longitude":"-72.11680","Snowdepth":"10.000","Units":"in","Rept_Date":"2020-01-24 12"},"coordinates":[5896,5664]},{"type":"Point","properties":{"Station_ID":"VQAW3","Station_Nam":"VIROQUA","Latitude":"43.55970","Longitude":"-90.87560","Snowdepth":"10.000","Units":"in","Rept_Date":"2020-01-24 13"},"coordinates":[1493,4918]},{"type":"Point","properties":{"Station_ID":"UMNM5","Station_Nam":"UNIVERSITY OF MN ST. PAUL","Latitude":"44.99020","Longitude":"-93.17990","Snowdepth":"10.000","Units":"in","Rept_Date":"2020-01-24 14"},"coordinates":[953,5808]},{"type":"Point","properties":{"Station_ID":"STIM4","Station_Nam":"ST IGNACE","Latitude":"45.86080","Longitude":"-84.71960","Snowdepth":"10.000","Units":"in","Rept_Date":"2020-01-24 12"},"coordinates":[2938,6349]},{"type":"Point","properties":{"Station_ID":"STC","Station_Nam":"ST. CLOUD REGIONAL AIRPORT","Latitude":"45.54330","Longitude":"-94.05140","Snowdepth":"10.000","Units":"in","Rept_Date":"2020-01-24 12"},"coordinates":[748,6152]},{"type":"Point","properties":{"Station_ID":"SNYI4","Station_Nam":"STANLEY","Latitude":"42.63330","Longitude":"-91.86320","Snowdepth":"10.000","Units":"in","Rept_Date":"2020-01-24 13"},"coordinates":[1262,4341]},{"type":"Point","properties":{"Station_ID":"SCSM5","Station_Nam":"ST CLOUD STATE","Latitude":"45.55100","Longitude":"-94.14950","Snowdepth":"10.000","Units":"in","Rept_Date":"2020-01-24 13"},"coordinates":[725,6157]},{"type":"Point","properties":{"Station_ID":"PULW3","Station_Nam":"PULASKI WWTP","Latitude":"44.67830","Longitude":"-88.22750","Snowdepth":"10.000","Units":"in","Rept_Date":"2020-01-24 12"},"coordinates":[2115,5614]},{"type":"Point","properties":{"Station_ID":"POLM1","Station_Nam":"POLAND","Latitude":"44.00700","Longitude":"-70.36140","Snowdepth":"10.000","Units":"in","Rept_Date":"2020-01-24 12"},"coordinates":[6308,5196]},{"type":"Point","properties":{"Station_ID":"PLOW3","Station_Nam":"PLOVER","Latitude":"44.44280","Longitude":"-89.54530","Snowdepth":"10.000","Units":"in","Rept_Date":"2020-01-24 13"},"coordinates":[1806,5467]},{"type":"Point","properties":{"Station_ID":"PEAI4","Station_Nam":"PELLA,IA","Latitude":"41.46670","Longitude":"-92.91670","Snowdepth":"10.000","Units":"in","Rept_Date":"2020-01-24 13"},"coordinates":[1014,3616]},{"type":"Point","properties":{"Station_ID":"OSAI4","Station_Nam":"OSAGE","Latitude":"43.27940","Longitude":"-92.81060","Snowdepth":"10.000","Units":"in","Rept_Date":"2020-01-24 13"},"coordinates":[1039,4743]},{"type":"Point","properties":{"Station_ID":"NONW3","Station_Nam":"NEW LONDON","Latitude":"44.35890","Longitude":"-88.71890","Snowdepth":"10.000","Units":"in","Rept_Date":"2020-01-24 12"},"coordinates":[2000,5415]},{"type":"Point","properties":{"Station_ID":"NH-GR-1","Station_Nam":"BRISTOL 0.4 SSE, NH","Latitude":"43.59490","Longitude":"-71.74140","Snowdepth":"10.000","Units":"in","Rept_Date":"2020-01-24 12"},"coordinates":[5984,4940]},{"type":"Point","properties":{"Station_ID":"NCON3","Station_Nam":"NORTH CONWAY","Latitude":"44.05620","Longitude":"-71.12970","Snowdepth":"10.000","Units":"in","Rept_Date":"2020-01-24 12"},"coordinates":[6128,5227]},{"type":"Point","properties":{"Station_ID":"NCBN6","Station_Nam":"NEWCOMB","Latitude":"43.97070","Longitude":"-74.22200","Snowdepth":"10.000","Units":"in","Rept_Date":"2020-01-24 12"},"coordinates":[5402,5174]},{"type":"Point","properties":{"Station_ID":"MRRM5","Station_Nam":"MORRIS WC EXP STA","Latitude":"45.59010","Longitude":"-95.87450","Snowdepth":"10.000","Units":"in","Rept_Date":"2020-01-24 14"},"coordinates":[320,6181]},{"type":"Point","properties":{"Station_ID":"MONS2","Station_Nam":"MONTROSE","Latitude":"43.70500","Longitude":"-97.18780","Snowdepth":"10.000","Units":"in","Rept_Date":"2020-01-24 14"},"coordinates":[12,5008]},{"type":"Point","properties":{"Station_ID":"MN0GWSNW","Station_Nam":"LAKE ELMO 2.9 SE","Latitude":"44.97220","Longitude":"-92.83065","Snowdepth":"10.000","Units":"in","Rept_Date":"2020-01-24 13"},"coordinates":[1035,5797]},{"type":"Point","properties":{"Station_ID":"MN-WR-40","Station_Nam":"CLEARWATER 5.4 SSE, MN","Latitude":"45.34795","Longitude":"-94.03374","Snowdepth":"10.000","Units":"in","Rept_Date":"2020-01-24 14"},"coordinates":[752,6030]},{"type":"Point","properties":{"Station_ID":"MN-SR-24","Station_Nam":"PAYNESVILLE 1.9 SSW, MN","Latitude":"45.35170","Longitude":"-94.73120","Snowdepth":"10.000","Units":"in","Rept_Date":"2020-01-24 13"},"coordinates":[588,6033]},{"type":"Point","properties":{"Station_ID":"MN-RM-2","Station_Nam":"NORTH SAINT PAUL 1.0 NNW, MN","Latitude":"45.02629","Longitude":"-93.00790","Snowdepth":"10.000","Units":"in","Rept_Date":"2020-01-24 13"},"coordinates":[993,5830]},{"type":"Point","properties":{"Station_ID":"MN-MC-16","Station_Nam":"HUTCHINSON 0.1 ENE, MN","Latitude":"44.88633","Longitude":"-94.37503","Snowdepth":"10.000","Units":"in","Rept_Date":"2020-01-24 13"},"coordinates":[672,5743]},{"type":"Point","properties":{"Station_ID":"MN-HN-6","Station_Nam":"LONG LAKE 0.2 WSW, MN","Latitude":"44.98290","Longitude":"-93.57360","Snowdepth":"10.000","Units":"in","Rept_Date":"2020-01-24 13"},"coordinates":[860,5803]},{"type":"Point","properties":{"Station_ID":"MN-DK-73","Station_Nam":"LAKEVILLE 2.6 NNE, MN","Latitude":"44.71250","Longitude":"-93.23043","Snowdepth":"10.000","Units":"in","Rept_Date":"2020-01-24 13"},"coordinates":[941,5635]},{"type":"Point","properties":{"Station_ID":"MN-DK-70","Station_Nam":"EAGAN 2.0 NNW, MN","Latitude":"44.84322","Longitude":"-93.17899","Snowdepth":"10.000","Units":"in","Rept_Date":"2020-01-24 14"},"coordinates":[953,5716]},{"type":"Point","properties":{"Station_ID":"MIAM5","Station_Nam":"MILAN 1NW","Latitude":"45.12190","Longitude":"-95.92690","Snowdepth":"10.000","Units":"in","Rept_Date":"2020-01-25 00"},"coordinates":[308,5890]},{"type":"Point","properties":{"Station_ID":"MI-MC-4","Station_Nam":"ST. IGNACE 0.5SE, MI","Latitude":"45.86057","Longitude":"-84.71980","Snowdepth":"10.000","Units":"in","Rept_Date":"2020-01-24 12"},"coordinates":[2938,6349]},{"type":"Point","properties":{"Station_ID":"MDDW3","Station_Nam":"MIDDLETON,WI","Latitude":"43.09060","Longitude":"-89.51470","Snowdepth":"10.000","Units":"in","Rept_Date":"2020-01-24 13"},"coordinates":[1813,4626]},{"type":"Point","properties":{"Station_ID":"MAPM4","Station_Nam":"MAPLE CITY 1E","Latitude":"44.85500","Longitude":"-85.83520","Snowdepth":"10.000","Units":"in","Rept_Date":"2020-01-24 23"},"coordinates":[2676,5724]},{"type":"Point","properties":{"Station_ID":"MA-HS-7","Station_Nam":"PLAINFIELD 2.2 SW, MA","Latitude":"42.49272","Longitude":"-72.94540","Snowdepth":"10.000","Units":"in","Rept_Date":"2020-01-24 13"},"coordinates":[5701,4254]},{"type":"Point","properties":{"Station_ID":"LPLN6","Station_Nam":"LAKE PLACID 2 S","Latitude":"44.30420","Longitude":"-73.98390","Snowdepth":"10.000","Units":"in","Rept_Date":"2020-01-24 12"},"coordinates":[5458,5381]},{"type":"Point","properties":{"Station_ID":"LODW3","Station_Nam":"LODI","Latitude":"43.32170","Longitude":"-89.53110","Snowdepth":"10.000","Units":"in","Rept_Date":"2020-01-24 13"},"coordinates":[1809,4770]},{"type":"Point","properties":{"Station_ID":"LBKV1","Station_Nam":"LYE BROOK","Latitude":"43.05000","Longitude":"-73.03330","Snowdepth":"10.000","Units":"in","Rept_Date":"2020-01-25 06"},"coordinates":[5681,4601]},{"type":"Point","properties":{"Station_ID":"KIMM5","Station_Nam":"KIMBALL 3N","Latitude":"45.35330","Longitude":"-94.30560","Snowdepth":"10.000","Units":"in","Rept_Date":"2020-01-24 12"},"coordinates":[688,6034]},{"type":"Point","properties":{"Station_ID":"KDSM","Station_Nam":"DES MOINES INTERNATIONAL","Latitude":"41.53333","Longitude":"-93.66666","Snowdepth":"10.000","Units":"in","Rept_Date":"2020-01-25 06"},"coordinates":[838,3657]},{"type":"Point","properties":{"Station_ID":"IA-LN-31","Station_Nam":"CEDAR RAPIDS 2.7 NE, IA","Latitude":"42.00070","Longitude":"-91.63260","Snowdepth":"10.000","Units":"in","Rept_Date":"2020-01-24 13"},"coordinates":[1316,3948]},