{"type":"Topology","objects":{"snowdepth_geo":{"type":"GeometryCollection","name":"snowdepth","crs":{"type":"name","properties":{"name":"urn:ogc:def:crs:OGC:1.3:CRS84"}},"geometries":[{"type":"Point","properties":{"Station_ID":"MMSV1","Station_Nam":"MOUNT MANSFIELD","Latitude":"44.53330","Longitude":"-72.83330","Snowdepth":"96.000","Units":"in","Rept_Date":"2019-12-19 05"},"coordinates":[7070,5524]},{"type":"Point","properties":{"Station_ID":"PRKM4","Station_Nam":"MUNISING EAST","Latitude":"46.42580","Longitude":"-86.62000","Snowdepth":"76.500","Units":"in","Rept_Date":"2019-12-19 06"},"coordinates":[3076,6701]},{"type":"Point","properties":{"Station_ID":"OGIQ6","Station_Nam":"OGOKI CAMP","Latitude":"50.76680","Longitude":"-87.85820","Snowdepth":"61.100","Units":"in","Rept_Date":"2019-12-19 06"},"coordinates":[2717,9402]},{"type":"Point","properties":{"Station_ID":"AUDQ6","Station_Nam":"AUDEN","Latitude":"48.52600","Longitude":"-82.57570","Snowdepth":"47.640","Units":"in","Rept_Date":"2019-12-19 06"},"coordinates":[4248,8008]},{"type":"Point","properties":{"Station_ID":"DVLQ6","Station_Nam":"DEVIOUS LAKE","Latitude":"49.19890","Longitude":"-87.76440","Snowdepth":"43.460","Units":"in","Rept_Date":"2019-12-19 06"},"coordinates":[2745,8426]},{"type":"Point","properties":{"Station_ID":"PDLM4","Station_Nam":"PAINESDALE","Latitude":"47.04160","Longitude":"-88.67170","Snowdepth":"40.000","Units":"in","Rept_Date":"2019-12-18 13"},"coordinates":[2482,7084]},{"type":"Point","properties":{"Station_ID":"HURW3","Station_Nam":"HURLEY","Latitude":"46.46250","Longitude":"-90.19550","Snowdepth":"38.000","Units":"in","Rept_Date":"2019-12-18 14"},"coordinates":[2040,6724]},{"type":"Point","properties":{"Station_ID":"GMSM4","Station_Nam":"GRAND MARAIS 10S","Latitude":"46.50940","Longitude":"-85.96310","Snowdepth":"38.000","Units":"in","Rept_Date":"2019-12-18 12"},"coordinates":[3266,6753]},{"type":"Point","properties":{"Station_ID":"SWTW3","Station_Nam":"SUPERIOR WWTP","Latitude":"46.72700","Longitude":"-92.07200","Snowdepth":"34.000","Units":"in","Rept_Date":"2019-12-19 06"},"coordinates":[1497,6888]},{"type":"Point","properties":{"Station_ID":"IWOM4","Station_Nam":"IRONWOOD#2","Latitude":"46.46520","Longitude":"-90.13820","Snowdepth":"34.000","Units":"in","Rept_Date":"2019-12-18 13"},"coordinates":[2057,6725]},{"type":"Point","properties":{"Station_ID":"HUBN3","Station_Nam":"HUBBARD BROOK","Latitude":"43.93330","Longitude":"-71.71670","Snowdepth":"32.000","Units":"in","Rept_Date":"2019-12-19 02"},"coordinates":[7394,5150]},{"type":"Point","properties":{"Station_ID":"QNCM4","Station_Nam":"QUINCY HILL","Latitude":"47.13640","Longitude":"-88.57950","Snowdepth":"29.000","Units":"in","Rept_Date":"2019-12-18 12"},"coordinates":[2508,7143]},{"type":"Point","properties":{"Station_ID":"GNLM4","Station_Nam":"GREENLAND 6N","Latitude":"46.87360","Longitude":"-89.10060","Snowdepth":"29.000","Units":"in","Rept_Date":"2019-12-18 13"},"coordinates":[2358,6980]},{"type":"Point","properties":{"Station_ID":"WI-IR-3","Station_Nam":"PENCE 0.1 E, WI","Latitude":"46.41555","Longitude":"-90.27013","Snowdepth":"28.500","Units":"in","Rept_Date":"2019-12-18 13"},"coordinates":[2019,6695]},{"type":"Point","properties":{"Station_ID":"MI-BG-3","Station_Nam":"L'ANSE 17.8 SE, MI","Latitude":"46.55730","Longitude":"-88.20770","Snowdepth":"28.000","Units":"in","Rept_Date":"2019-12-18 13"},"coordinates":[2616,6783]},{"type":"Point","properties":{"Station_ID":"KSGM4","Station_Nam":"KEARSARGE","Latitude":"47.27520","Longitude":"-88.41700","Snowdepth":"28.000","Units":"in","Rept_Date":"2019-12-18 13"},"coordinates":[2556,7229]},{"type":"Point","properties":{"Station_ID":"ASXW3","Station_Nam":"ASHLAND,WI","Latitude":"46.55220","Longitude":"-90.91610","Snowdepth":"28.000","Units":"in","Rept_Date":"2019-12-18 14"},"coordinates":[1832,6780]},{"type":"Point","properties":{"Station_ID":"MQT","Station_Nam":"MARQUETTE, MI","Latitude":"46.53140","Longitude":"-87.54920","Snowdepth":"27.000","Units":"in","Rept_Date":"2019-12-19 06"},"coordinates":[2807,6767]},{"type":"Point","properties":{"Station_ID":"IBLM5","Station_Nam":"ISABELLA 14W","Latitude":"47.59360","Longitude":"-91.65140","Snowdepth":"27.000","Units":"in","Rept_Date":"2019-12-18 15"},"coordinates":[1619,7428]},{"type":"Point","properties":{"Station_ID":"QGO","Station_Nam":"QGO","Latitude":"48.85500","Longitude":"-74.20640","Snowdepth":"26.339","Units":"in","Rept_Date":"2019-12-18 12"},"coordinates":[6672,8212]},{"type":"Point","properties":{"Station_ID":"WLFM5","Station_Nam":"WOLF RIDGE ENVIRON LEARNING CENTER","Latitude":"47.38240","Longitude":"-91.19730","Snowdepth":"26.000","Units":"in","Rept_Date":"2019-12-18 13"},"coordinates":[1750,7296]},{"type":"Point","properties":{"Station_ID":"WI-FL-3","Station_Nam":"FLORENCE 0.7 ESE, WI","Latitude":"45.91760","Longitude":"-88.23900","Snowdepth":"26.000","Units":"in","Rept_Date":"2019-12-18 11"},"coordinates":[2607,6385]},{"type":"Point","properties":{"Station_ID":"PHEW3","Station_Nam":"PHELPS","Latitude":"46.06630","Longitude":"-89.07520","Snowdepth":"26.000","Units":"in","Rept_Date":"2019-12-18 13"},"coordinates":[2365,6477]},{"type":"Point","properties":{"Station_ID":"PDGM4","Station_Nam":"PAULDING","Latitude":"46.39760","Longitude":"-89.17940","Snowdepth":"26.000","Units":"in","Rept_Date":"2019-12-18 13"},"coordinates":[2335,6683]},{"type":"Point","properties":{"Station_ID":"NWCM4","Station_Nam":"NEWBERRY CITY","Latitude":"46.35720","Longitude":"-85.51780","Snowdepth":"26.000","Units":"in","Rept_Date":"2019-12-18 12"},"coordinates":[3395,6658]},{"type":"Point","properties":{"Station_ID":"QMD","Station_Nam":"QMD","Latitude":"49.29060","Longitude":"-75.84500","Snowdepth":"25.433","Units":"in","Rept_Date":"2019-12-18 12"},"coordinates":[6198,8483]},{"type":"Point","properties":{"Station_ID":"WI-BY-1","Station_Nam":"BAYFIELD 8.8 N, WI","Latitude":"46.93855","Longitude":"-90.83490","Snowdepth":"25.000","Units":"in","Rept_Date":"2019-12-18 13"},"coordinates":[1855,7020]},{"type":"Point","properties":{"Station_ID":"MNSM4","Station_Nam":"MUNISING","Latitude":"46.41210","Longitude":"-86.66250","Snowdepth":"25.000","Units":"in","Rept_Date":"2019-12-18 11"},"coordinates":[3064,6692]},{"type":"Point","properties":{"Station_ID":"HERM4","Station_Nam":"HERMAN,MI","Latitude":"46.65000","Longitude":"-88.33330","Snowdepth":"25.000","Units":"in","Rept_Date":"2019-12-18 13"},"coordinates":[2580,6840]},{"type":"Point","properties":{"Station_ID":"FLNW3","Station_Nam":"FLORENCE","Latitude":"45.93360","Longitude":"-88.25830","Snowdepth":"25.000","Units":"in","Rept_Date":"2019-12-18 13"},"coordinates":[2602,6395]},{"type":"Point","properties":{"Station_ID":"QOU","Station_Nam":"QOU","Latitude":"50.79250","Longitude":"-69.67470","Snowdepth":"24.528","Units":"in","Rept_Date":"2019-12-18 12"},"coordinates":[7985,9418]},{"type":"Point","properties":{"Station_ID":"QCU","Station_Nam":"QCU","Latitude":"47.82750","Longitude":"-76.59830","Snowdepth":"24.449","Units":"in","Rept_Date":"2019-12-18 12"},"coordinates":[5979,7573]},{"type":"Point","properties":{"Station_ID":"WRSM5","Station_Nam":"WRENSHALL","Latitude":"46.61550","Longitude":"-92.38380","Snowdepth":"24.000","Units":"in","Rept_Date":"2019-12-18 14"},"coordinates":[1406,6819]},{"type":"Point","properties":{"Station_ID":"HTLN3","Station_Nam":"HERMIT LAKE SNOWPLOT","Latitude":"44.26130","Longitude":"-71.28330","Snowdepth":"24.000","Units":"in","Rept_Date":"2019-12-18 10"},"coordinates":[7519,5354]},{"type":"Point","properties":{"Station_ID":"QLB","Station_Nam":"QLB","Latitude":"50.72360","Longitude":"-75.10000","Snowdepth":"23.976","Units":"in","Rept_Date":"2019-12-18 12"},"coordinates":[6413,9375]},{"type":"Point","properties":{"Station_ID":"WRPW3","Station_Nam":"WATER PURIFICATION PLANT","Latitude":"44.38800","Longitude":"-89.80550","Snowdepth":"23.000","Units":"in","Rept_Date":"2019-12-18 13"},"coordinates":[2153,5433]},{"type":"Point","properties":{"Station_ID":"WI-VL-10","Station_Nam":"LAND O LAKES 4.3 WNW, WI","Latitude":"46.17440","Longitude":"-89.30380","Snowdepth":"23.000","Units":"in","Rept_Date":"2019-12-18 13"},"coordinates":[2299,6545]},{"type":"Point","properties":{"Station_ID":"WI-BY-14","Station_Nam":"ASHLAND 9.8 W, WI","Latitude":"46.59742","Longitude":"-91.07856","Snowdepth":"23.000","Units":"in","Rept_Date":"2019-12-18 12"},"coordinates":[1785,6808]},{"type":"Point","properties":{"Station_ID":"MAIW3","Station_Nam":"MADELINE ISLAND","Latitude":"46.78330","Longitude":"-90.76670","Snowdepth":"23.000","Units":"in","Rept_Date":"2019-12-18 13"},"coordinates":[1875,6923]},{"type":"Point","properties":{"Station_ID":"WTRM4","Station_Nam":"WATERSMEET 12WSW","Latitude":"46.22310","Longitude":"-89.40850","Snowdepth":"22.000","Units":"in","Rept_Date":"2019-12-18 12"},"coordinates":[2268,6575]},{"type":"Point","properties":{"Station_ID":"WI-BY-2","Station_Nam":"MELLEN 18.6 SW, WI","Latitude":"46.16937","Longitude":"-90.98090","Snowdepth":"22.000","Units":"in","Rept_Date":"2019-12-18 13"},"coordinates":[1813,6541]},{"type":"Point","properties":{"Station_ID":"STGW3","Station_Nam":"ST GERMAIN","Latitude":"45.91550","Longitude":"-89.48940","Snowdepth":"22.000","Units":"in","Rept_Date":"2019-12-18 12"},"coordinates":[2245,6383]},{"type":"Point","properties":{"Station_ID":"MN4DC1DW","Station_Nam":"FOUR CORNERS 3.6 E","Latitude":"46.84373","Longitude":"-92.20633","Snowdepth":"22.000","Units":"in","Rept_Date":"2019-12-18 12"},"coordinates":[1458,6961]},{"type":"Point","properties":{"Station_ID":"MMNV1","Station_Nam":"MT. MANSFIELD","Latitude":"44.52480","Longitude":"-72.81540","Snowdepth":"22.000","Units":"in","Rept_Date":"2019-12-18 21"},"coordinates":[7075,5518]},{"type":"Point","properties":{"Station_ID":"MI-MQ-19","Station_Nam":"ISHPEMING 7.2 SW, MI","Latitude":"46.40550","Longitude":"-87.75670","Snowdepth":"22.000","Units":"in","Rept_Date":"2019-12-18 11"},"coordinates":[2747,6688]},{"type":"Point","properties":{"Station_ID":"LNOW3","Station_Nam":"LAND O LAKES","Latitude":"46.19000","Longitude":"-89.45700","Snowdepth":"22.000","Units":"in","Rept_Date":"2019-12-18 14"},"coordinates":[2254,6554]},{"type":"Point","properties":{"Station_ID":"ILIM5","Station_Nam":"ISLAND LAKE","Latitude":"47.02400","Longitude":"-92.07000","Snowdepth":"22.000","Units":"in","Rept_Date":"2019-12-18 15"},"coordinates":[1497,7073]},{"type":"Point","properties":{"Station_ID":"DLH","Station_Nam":"DULUTH, MN","Latitude":"46.83690","Longitude":"-92.21030","Snowdepth":"22.000","Units":"in","Rept_Date":"2019-12-18 12"},"coordinates":[1457,6957]},{"type":"Point","properties":{"Station_ID":"CMKW3","Station_Nam":"CLAM LAKE 4W","Latitude":"46.16940","Longitude":"-90.98080","Snowdepth":"22.000","Units":"in","Rept_Date":"2019-12-18 13"},"coordinates":[1813,6541]},{"type":"Point","properties":{"Station_ID":"CLQM5","Station_Nam":"CLOQUET","Latitude":"46.70470","Longitude":"-92.52530","Snowdepth":"22.000","Units":"in","Rept_Date":"2019-12-18 14"},"coordinates":[1365,6874]},{"type":"Point","properties":{"Station_ID":"WI-VL-9","Station_Nam":"LAND O' LAKES 11.7 W, WI","Latitude":"46.19023","Longitude":"-89.45790","Snowdepth":"21.500","Units":"in","Rept_Date":"2019-12-18 14"},"coordinates":[2254,6554]},{"type":"Point","properties":{"Station_ID":"WI-DG-20","Station_Nam":"SOLON SPRINGS 1.2 W, WI","Latitude":"46.35217","Longitude":"-91.84405","Snowdepth":"21.500","Units":"in","Rept_Date":"2019-12-18 13"},"coordinates":[1563,6655]},{"type":"Point","properties":{"Station_ID":"MLZ","Station_Nam":"MLZ","Latitude":"50.66170","Longitude":"-68.82360","Snowdepth":"21.142","Units":"in","Rept_Date":"2019-12-18 12"},"coordinates":[8232,9336]},{"type":"Point","properties":{"Station_ID":"WI-WB-2","Station_Nam":"STONE LAKE 2.0 NW, WI","Latitude":"45.85960","Longitude":"-91.57710","Snowdepth":"21.000","Units":"in","Rept_Date":"2019-12-18 13"},"coordinates":[1640,6349]},{"type":"Point","properties":{"Station_ID":"MI-HG-6","Station_Nam":"CALUMET 5.8 ENE, MI","Latitude":"47.27200","Longitude":"-88.33400","Snowdepth":"21.000","Units":"in","Rept_Date":"2019-12-18 11"},"coordinates":[2580,7227]},{"type":"Point","properties":{"Station_ID":"MI-HG-1","Station_Nam":"HOUGHTON 1.6 ESE, MI","Latitude":"47.10774","Longitude":"-88.52940","Snowdepth":"21.000","Units":"in","Rept_Date":"2019-12-18 13"},"coordinates":[2523,7125]},{"type":"Point","properties":{"Station_ID":"IRMM4","Station_Nam":"WWTP","Latitude":"46.46670","Longitude":"-90.18330","Snowdepth":"21.000","Units":"in","Rept_Date":"2019-12-18 13"},"coordinates":[2044,6726]},{"type":"Point","properties":{"Station_ID":"DLHM5","Station_Nam":"DULUTH NWS","Latitude":"46.83680","Longitude":"-92.21080","Snowdepth":"21.000","Units":"in","Rept_Date":"2019-12-19 06"},"coordinates":[1457,6957]},{"type":"Point","properties":{"Station_ID":"CRVW3","Station_Nam":"CRIVITZ HIGH FALLS","Latitude":"45.35750","Longitude":"-88.19190","Snowdepth":"21.000","Units":"in","Rept_Date":"2019-12-18 13"},"coordinates":[2621,6036]},{"type":"Point","properties":{"Station_ID":"ASTW3","Station_Nam":"ATHELSTANE","Latitude":"45.42500","Longitude":"-88.05750","Snowdepth":"21.000","Units":"in","Rept_Date":"2019-12-18 12"},"coordinates":[2660,6078]},{"type":"Point","properties":{"Station_ID":"AROM4","Station_Nam":"ARNOLD,MI","Latitude":"46.06670","Longitude":"-87.48330","Snowdepth":"21.000","Units":"in","Rept_Date":"2019-12-18 13"},"coordinates":[2826,6478]},{"type":"Point","properties":{"Station_ID":"QGD","Station_Nam":"QGD","Latitude":"51.11140","Longitude":"-67.13940","Snowdepth":"20.984","Units":"in","Rept_Date":"2019-12-18 12"},"coordinates":[8720,9616]},{"type":"Point","properties":{"Station_ID":"WI-AS-4","Station_Nam":"ASHLAND 0.5 WNW, WI","Latitude":"46.58240","Longitude":"-90.88390","Snowdepth":"20.000","Units":"in","Rept_Date":"2019-12-18 13"},"coordinates":[1841,6798]},{"type":"Point","properties":{"Station_ID":"SUAW3","Station_Nam":"SUAMICO","Latitude":"44.60190","Longitude":"-88.09780","Snowdepth":"20.000","Units":"in","Rept_Date":"2019-12-18 12"},"coordinates":[2648,5566]},{"type":"Point","properties":{"Station_ID":"HRVM4","Station_Nam":"HARVEY","Latitude":"46.49080","Longitude":"-87.35470","Snowdepth":"20.000","Units":"in","Rept_Date":"2019-12-18 12"},"coordinates":[2863,6741]},{"type":"Point","properties":{"Station_ID":"GGRM4","Station_Nam":"GREEN GARDEN NO.2","Latitude":"46.45330","Longitude":"-87.30380","Snowdepth":"20.000","Units":"in","Rept_Date":"2019-12-18 11"},"coordinates":[2878,6718]},{"type":"Point","properties":{"Station_ID":"EVRW3","Station_Nam":"EAGLE RIVER-4 E","Latitude":"45.91890","Longitude":"-89.15280","Snowdepth":"20.000","Units":"in","Rept_Date":"2019-12-18 13"},"coordinates":[2342,6386]},{"type":"Point","properties":{"Station_ID":"EGRW3","Station_Nam":"EAGLE RIVER-SOUTH","Latitude":"45.91360","Longitude":"-89.24360","Snowdepth":"20.000","Units":"in","Rept_Date":"2019-12-18 13"},"coordinates":[2316,6382]},{"type":"Point","properties":{"Station_ID":"CEFM4","Station_Nam":"EXPERIMENT FARM #2","Latitude":"46.33330","Longitude":"-86.91670","Snowdepth":"20.000","Units":"in","Rept_Date":"2019-12-18 13"},"coordinates":[2990,6643]},{"type":"Point","properties":{"Station_ID":"BGBM4","Station_Nam":"BIG BAY 1NW","Latitude":"46.83250","Longitude":"-87.75040","Snowdepth":"20.000","Units":"in","Rept_Date":"2019-12-18 13"},"coordinates":[2749,6954]},{"type":"Point","properties":{"Station_ID":"AWXW3","Station_Nam":"ASHLAND","Latitude":"46.58240","Longitude":"-90.88390","Snowdepth":"20.000","Units":"in","Rept_Date":"2019-12-18 13"},"coordinates":[1841,6798]},{"type":"Point","properties":{"Station_ID":"AURW3","Station_Nam":"AURORA","Latitude":"45.77000","Longitude":"-88.11810","Snowdepth":"20.000","Units":"in","Rept_Date":"2019-12-18 13"},"coordinates":[2642,6293]},{"type":"Point","properties":{"Station_ID":"WI-VL-14","Station_Nam":"BOULDER JUNCTION 1.4 NE, WI","Latitude":"46.12840","Longitude":"-89.62470","Snowdepth":"19.000","Units":"in","Rept_Date":"2019-12-18 13"},"coordinates":[2206,6516]},{"type":"Point","properties":{"Station_ID":"STMM4","Station_Nam":"STAMBAUGH 2SSE","Latitude":"46.05550","Longitude":"-88.62780","Snowdepth":"19.000","Units":"in","Rept_Date":"2019-12-18 13"},"coordinates":[2495,6471]},{"type":"Point","properties":{"Station_ID":"LTMW3","Station_Nam":"LAKE TOMAHAWK 2 SE","Latitude":"45.80750","Longitude":"-89.55830","Snowdepth":"19.000","Units":"in","Rept_Date":"2019-12-18 12"},"coordinates":[2225,6316]},{"type":"Point","properties":{"Station_ID":"GLDM4","Station_Nam":"GLADSTONE NO. 2","Latitude":"45.84330","Longitude":"-87.03910","Snowdepth":"19.000","Units":"in","Rept_Date":"2019-12-18 12"},"coordinates":[2955,6339]},{"type":"Point","properties":{"Station_ID":"CLKM4","Station_Nam":"CLARKSBURG","Latitude":"46.49910","Longitude":"-87.84500","Snowdepth":"19.000","Units":"in","Rept_Date":"2019-12-18 12"},"coordinates":[2721,6747]},{"type":"Point","properties":{"Station_ID":"WI-BY-6","Station_Nam":"BARNES 2.2 S, WI","Latitude":"46.30264","Longitude":"-91.50320","Snowdepth":"18.000","Units":"in","Rept_Date":"2019-12-18 13"},"coordinates":[1662,6624]},{"type":"Point","properties":{"Station_ID":"VT-WH-9","Station_Nam":"WEST HALIFAX 0.2 SE, VT","Latitude":"42.78561","Longitude":"-72.76950","Snowdepth":"18.000","Units":"in","Rept_Date":"2019-12-18 13"},"coordinates":[7089,4436]},{"type":"Point","properties":{"Station_ID":"RLKW3","Station_Nam":"REST LAKE","Latitude":"46.12220","Longitude":"-89.87720","Snowdepth":"18.000","Units":"in","Rept_Date":"2019-12-18 14"},"coordinates":[2133,6512]},{"type":"Point","properties":{"Station_ID":"COVM4","Station_Nam":"COVINGTON","Latitude":"46.55880","Longitude":"-88.54190","Snowdepth":"18.000","Units":"in","Rept_Date":"2019-12-18 13"},"coordinates":[2519,6784]},{"type":"Point","properties":{"Station_ID":"COUW3","Station_Nam":"COUDERAY,WI","Latitude":"45.86670","Longitude":"-91.45000","Snowdepth":"18.000","Units":"in","Rept_Date":"2019-12-18 22"},"coordinates":[1677,6353]},{"type":"Point","properties":{"Station_ID":"CLGM5","Station_Nam":"COLLEGEVILLE ST JOHN","Latitude":"45.57940","Longitude":"-94.39200","Snowdepth":"18.000","Units":"in","Rept_Date":"2019-12-19 00"},"coordinates":[825,6174]},{"type":"Point","properties":{"Station_ID":"BFHW3","Station_Nam":"BAYFIELD FISH HATCHERY","Latitude":"46.78670","Longitude":"-90.86420","Snowdepth":"18.000","Units":"in","Rept_Date":"2019-12-18 14"},"coordinates":[1847,6926]},{"type":"Point","properties":{"Station_ID":"QCX","Station_Nam":"QCX","Latitude":"51.32830","Longitude":"-70.08060","Snowdepth":"17.795","Units":"in","Rept_Date":"2019-12-18 12"},"coordinates":[7868,9751]},{"type":"Point","properties":{"Station_ID":"QFT","Station_Nam":"QFT","Latitude":"50.83280","Longitude":"-74.40390","Snowdepth":"17.520","Units":"in","Rept_Date":"2019-12-18 12"},"coordinates":[6615,9443]},{"type":"Point","properties":{"Station_ID":"MN-SL-15","Station_Nam":"CHISHOLM 0.4 WSW, MN","Latitude":"47.48557","Longitude":"-92.88690","Snowdepth":"17.500","Units":"in","Rept_Date":"2019-12-18 13"},"coordinates":[1261,7360]},{"type":"Point","properties":{"Station_ID":"WRIM5","Station_Nam":"WRIGHT 3E","Latitude":"46.68040","Longitude":"-92.95420","Snowdepth":"17.000","Units":"in","Rept_Date":"2019-12-18 12"},"coordinates":[1241,6859]},{"type":"Point","properties":{"Station_ID":"WI-PR-2","Station_Nam":"BUTTERNUT 5.9 SW, WI","Latitude":"45.96501","Longitude":"-90.59750","Snowdepth":"17.000","Units":"in","Rept_Date":"2019-12-18 12"},"coordinates":[1924,6414]},{"type":"Point","properties":{"Station_ID":"RHIW3","Station_Nam":"RHINELANDER","Latitude":"45.59860","Longitude":"-89.45080","Snowdepth":"17.000","Units":"in","Rept_Date":"2019-12-18 13"},"coordinates":[2256,6186]},{"type":"Point","properties":{"Station_ID":"PRNW3","Station_Nam":"PRENTICE,WI","Latitude":"45.54780","Longitude":"-90.30000","Snowdepth":"17.000","Units":"in","Rept_Date":"2019-12-18 14"},"coordinates":[2010,6155]},{"type":"Point","properties":{"Station_ID":"NY-JF-30","Station_Nam":"WEST CARTHAGE 0.3 ENE, NY","Latitude":"43.97493","Longitude":"-75.61640","Snowdepth":"17.000","Units":"in","Rept_Date":"2019-12-18 12"},"coordinates":[6264,5176]},{"type":"Point","properties":{"Station_ID":"MN8JKXE2","Station_Nam":"PRAIRIE PORTAGE 5.2 SSW","Latitude":"47.97663","Longitude":"-91.46744","Snowdepth":"17.000","Units":"in","Rept_Date":"2019-12-18 12"},"coordinates":[1672,7666]},{"type":"Point","properties":{"Station_ID":"MN49YOQ4","Station_Nam":"WRIGHT 3.9 NW","Latitude":"46.70182","Longitude":"-93.07461","Snowdepth":"17.000","Units":"in","Rept_Date":"2019-12-18 12"},"coordinates":[1206,6873]},{"type":"Point","properties":{"Station_ID":"MI-MQ-2","Station_Nam":"MARQUETTE 6.5 SSE, MI","Latitude":"46.46461","Longitude":"-87.34064","Snowdepth":"17.000","Units":"in","Rept_Date":"2019-12-18 14"},"coordinates":[2867,6725]},{"type":"Point","properties":{"Station_ID":"JCBM4","Station_Nam":"JACOBSVILLE","Latitude":"47.00830","Longitude":"-88.43180","Snowdepth":"17.000","Units":"in","Rept_Date":"2019-12-18 12"},"coordinates":[2551,7063]},{"type":"Point","properties":{"Station_ID":"ENGM4","Station_Nam":"ENGADINE MDOT","Latitude":"46.12800","Longitude":"-85.56960","Snowdepth":"17.000","Units":"in","Rept_Date":"2019-12-18 12"},"coordinates":[3380,6516]},{"type":"Point","properties":{"Station_ID":"BNDM5","Station_Nam":"ELY 25E","Latitude":"47.97190","Longitude":"-91.44860","Snowdepth":"17.000","Units":"in","Rept_Date":"2019-12-18 13"},"coordinates":[1677,7663]},{"type":"Point","properties":{"Station_ID":"ANTW3","Station_Nam":"ANTIGO,WI","Latitude":"45.13330","Longitude":"-89.15000","Snowdepth":"17.000","Units":"in","Rept_Date":"2019-12-18 14"},"coordinates":[2343,5897]},{"type":"Point","properties":{"Station_ID":"QYR","Station_Nam":"QYR","Latitude":"48.87220","Longitude":"-75.61470","Snowdepth":"16.339","Units":"in","Rept_Date":"2019-12-18 12"},"coordinates":[6264,8223]},{"type":"Point","properties":{"Station_ID":"RRVM4","Station_Nam":"RAPID RIVER 9S","Latitude":"45.78750","Longitude":"-86.93920","Snowdepth":"16.000","Units":"in","Rept_Date":"2019-12-18 13"},"coordinates":[2984,6304]},{"type":"Point","properties":{"Station_ID":"MRQM4","Station_Nam":"MARQUETTE WFP","Latitude":"46.54580","Longitude":"-87.37950","Snowdepth":"16.000","Units":"in","Rept_Date":"2019-12-18 13"},"coordinates":[2856,6776]},{"type":"Point","properties":{"Station_ID":"ESAM4","Station_Nam":"ESCANABA","Latitude":"45.74380","Longitude":"-87.04060","Snowdepth":"16.000","Units":"in","Rept_Date":"2019-12-18 12"},"coordinates":[2954,6277]},{"type":"Point","properties":{"Station_ID":"EMBM5","Station_Nam":"EMBARASS,MN","Latitude":"47.65810","Longitude":"-92.19580","Snowdepth":"16.000","Units":"in","Rept_Date":"2019-12-18 12"},"coordinates":[1461,7468]},{"type":"Point","properties":{"Station_ID":"AVTW3","Station_Nam":"ARBOR VITAE-JOHNSON LAKE","Latitude":"45.89940","Longitude":"-89.72670","Snowdepth":"16.000","Units":"in","Rept_Date":"2019-12-18 12"},"coordinates":[2176,6373]},{"type":"Point","properties":{"Station_ID":"AMAM4","Station_Nam":"AMASA 1W","Latitude":"46.23470","Longitude":"-88.45440","Snowdepth":"16.000","Units":"in","Rept_Date":"2019-12-18 14"},"coordinates":[2545,6582]},{"type":"Point","properties":{"Station_ID":"ABGW3","Station_Nam":"AMBERG 9 E","Latitude":"45.48250","Longitude":"-87.81190","Snowdepth":"16.000","Units":"in","Rept_Date":"2019-12-18 12"},"coordinates":[2731,6114]},{"type":"Point","properties":{"Station_ID":"SVBQ6","Station_Nam":"SAVANT BASE","Latitude":"50.28730","Longitude":"-90.65670","Snowdepth":"15.710","Units":"in","Rept_Date":"2019-12-19 06"},"coordinates":[1907,9103]},{"type":"Point","properties":{"Station_ID":"WI-SR-5","Station_Nam":"HAYWARD 9.7 NE, WI","Latitude":"46.12030","Longitude":"-91.35370","Snowdepth":"15.500","Units":"in","Rept_Date":"2019-12-18 14"},"coordinates":[1705,6511]},{"type":"Point","properties":{"Station_ID":"WI-PR-8","Station_Nam":"PHILLIPS 0.4 SSW, WI","Latitude":"45.69086","Longitude":"-90.40200","Snowdepth":"15.500","Units":"in","Rept_Date":"2019-12-18 13"},"coordinates":[1981,6244]},{"type":"Point","properties":{"Station_ID":"WTNM4","Station_Nam":"WATTON 2WSW","Latitude":"46.52660","Longitude":"-88.64240","Snowdepth":"15.000","Units":"in","Rept_Date":"2019-12-18 13"},"coordinates":[2490,6764]},{"type":"Point","properties":{"Station_ID":"WILW3","Station_Nam":"RESERVOIR","Latitude":"45.70000","Longitude":"-89.83330","Snowdepth":"15.000","Units":"in","Rept_Date":"2019-12-18 12"},"coordinates":[2145,6249]},{"type":"Point","properties":{"Station_ID":"WI-RS-1","Station_Nam":"LADYSMITH 2.8 WNW, WI","Latitude":"45.48180","Longitude":"-91.14680","Snowdepth":"15.000","Units":"in","Rept_Date":"2019-12-18 13"},"coordinates":[1765,6114]},{"type":"Point","properties":{"Station_ID":"WI-BT-14","Station_Nam":"OAKLAND 9.0 ENE, WI","Latitude":"45.95184","Longitude":"-92.21653","Snowdepth":"15.000","Units":"in","Rept_Date":"2019-12-18 13"},"coordinates":[1455,6406]},{"type":"Point","properties":{"Station_ID":"TOHM5","Station_Nam":"TWO HARBORS WWTP","Latitude":"47.01760","Longitude":"-91.66480","Snowdepth":"15.000","Units":"in","Rept_Date":"2019-12-18 13"},"coordinates":[1615,7069]},{"type":"Point","properties":{"Station_ID":"TOGM5","Station_Nam":"CELINA 2E","Latitude":"47.86630","Longitude":"-93.02660","Snowdepth":"15.000","Units":"in","Rept_Date":"2019-12-18 15"},"coordinates":[1220,7597]},{"type":"Point","properties":{"Station_ID":"MN95SVGT","Station_Nam":"PRAIRIE PORTAGE 27.4 ENE","Latitude":"48.15640","Longitude":"-90.86709","Snowdepth":"15.000","Units":"in","Rept_Date":"2019-12-18 13"},"coordinates":[1846,7778]},{"type":"Point","properties":{"Station_ID":"MN4QO5TH","Station_Nam":"TWO HARBORS 0.7 ESE","Latitude":"47.03297","Longitude":"-91.65673","Snowdepth":"15.000","Units":"in","Rept_Date":"2019-12-18 13"},"coordinates":[1617,7079]},{"type":"Point","properties":{"Station_ID":"MFU","Station_Nam":"MFU","Latitude":"51.52170","Longitude":"-66.91110","Snowdepth":"15.000","Units":"in","Rept_Date":"2019-12-18 12"},"coordinates":[8786,9871]},{"type":"Point","properties":{"Station_ID":"GNFM5","Station_Nam":"GUNFLINT LAKE","Latitude":"48.16670","Longitude":"-90.88750","Snowdepth":"15.000","Units":"in","Rept_Date":"2019-12-18 13"},"coordinates":[1840,7784]},{"type":"Point","properties":{"Station_ID":"ELYM5","Station_Nam":"ELY","Latitude":"47.90560","Longitude":"-91.82830","Snowdepth":"15.000","Units":"in","Rept_Date":"2019-12-18 16"},"coordinates":[1567,7622]},{"type":"Point","properties":{"Station_ID":"BALW3","Station_Nam":"BALDWIN","Latitude":"44.96330","Longitude":"-92.39050","Snowdepth":"15.000","Units":"in","Rept_Date":"2019-12-18 13"},"coordinates":[1404,5791]},{"type":"Point","properties":{"Station_ID":"AGNW3","Station_Nam":"ARGONNE-1.5 NW","Latitude":"45.67360","Longitude":"-88.90380","Snowdepth":"15.000","Units":"in","Rept_Date":"2019-12-18 14"},"coordinates":[2415,6233]},{"type":"Point","properties":{"Station_ID":"MN-IT-23","Station_Nam":"BOVEY 13.4 N, MN","Latitude":"47.48855","Longitude":"-93.43497","Snowdepth":"14.500","Units":"in","Rept_Date":"2019-12-18 13"},"coordinates":[1102,7362]},{"type":"Point","properties":{"Station_ID":"QTV","Station_Nam":"QTV","Latitude":"49.66000","Longitude":"-69.35690","Snowdepth":"14.370","Units":"in","Rept_Date":"2019-12-18 12"},"coordinates":[8077,8713]},{"type":"Point","properties":{"Station_ID":"ZNOM4","Station_Nam":"NORWAY","Latitude":"45.77810","Longitude":"-87.89560","Snowdepth":"14.000","Units":"in","Rept_Date":"2019-12-19 01"},"coordinates":[2707,6298]},{"type":"Point","properties":{"Station_ID":"WI-ON-6","Station_Nam":"RHINELANDER 5.2 N, WI","Latitude":"45.71388","Longitude":"-89.42150","Snowdepth":"14.000","Units":"in","Rept_Date":"2019-12-18 13"},"coordinates":[2265,6258]},{"type":"Point","properties":{"Station_ID":"WI-CH-3","Station_Nam":"CORNELL 4.1 W, WI","Latitude":"45.17024","Longitude":"-91.23610","Snowdepth":"14.000","Units":"in","Rept_Date":"2019-12-18 14"},"coordinates":[1739,5920]},{"type":"Point","properties":{"Station_ID":"SGVN6","Station_Nam":"SPRINGVILLE","Latitude":"42.54970","Longitude":"-78.57670","Snowdepth":"14.000","Units":"in","Rept_Date":"2019-12-18 22"},"coordinates":[5406,4289]},{"type":"Point","properties":{"Station_ID":"SAUW3","Station_Nam":"WAUSAU WSAW TV","Latitude":"44.94630","Longitude":"-89.62220","Snowdepth":"14.000","Units":"in","Rept_Date":"2019-12-19 03"},"coordinates":[2206,5781]},{"type":"Point","properties":{"Station_ID":"RHLW3","Station_Nam":"RHINELANDER 4NE","Latitude":"45.65270","Longitude":"-89.30740","Snowdepth":"14.000","Units":"in","Rept_Date":"2019-12-18 12"},"coordinates":[2298,6220]},{"type":"Point","properties":{"Station_ID":"PKFW3","Station_Nam":"PARK FALLS,WI","Latitude":"45.93360","Longitude":"-90.45060","Snowdepth":"14.000","Units":"in","Rept_Date":"2019-12-18 14"},"coordinates":[1966,6395]},{"type":"Point","properties":{"Station_ID":"NYMM5","Station_Nam":"NEW YORK MILLS","Latitude":"46.50920","Longitude":"-95.37990","Snowdepth":"14.000","Units":"in","Rept_Date":"2019-12-18 13"},"coordinates":[538,6753]},{"type":"Point","properties":{"Station_ID":"MNMZK7NS","Station_Nam":"NEW YORK MILLS 0.2 NNE","Latitude":"46.52057","Longitude":"-95.37394","Snowdepth":"14.000","Units":"in","Rept_Date":"2019-12-18 13"},"coordinates":[540,6760]},{"type":"Point","properties":{"Station_ID":"CAN-ON-245","Station_Nam":"PHELPSTON 3.1 ESE, CAN","Latitude":"44.50564","Longitude":"-79.81035","Snowdepth":"14.000","Units":"in","Rept_Date":"2019-12-18 12"},"coordinates":[5049,5506]},{"type":"Point","properties":{"Station_ID":"AUW","Station_Nam":"WAUSAU MUNICIPAL AIRPORT","Latitude":"44.92580","Longitude":"-89.62560","Snowdepth":"14.000","Units":"in","Rept_Date":"2019-12-19 00"},"coordinates":[2205,5768]},{"type":"Point","properties":{"Station_ID":"ALOP1","Station_Nam":"ALTOONA 2","Latitude":"40.52670","Longitude":"-78.36940","Snowdepth":"14.000","Units":"in","Rept_Date":"2019-12-19 05"},"coordinates":[5466,3031]},{"type":"Point","properties":{"Station_ID":"CAN-ON-526","Station_Nam":"HILTON BEACH 0.7 SW - MNRF, CAN","Latitude":"46.25357","Longitude":"-83.90014","Snowdepth":"13.800","Units":"in","Rept_Date":"2019-12-18 12"},"coordinates":[3864,6594]},{"type":"Point","properties":{"Station_ID":"PTLQ6","Station_Nam":"PORTAGE LAKE","Latitude":"49.06950","Longitude":"-86.65940","Snowdepth":"13.780","Units":"in","Rept_Date":"2019-12-19 06"},"coordinates":[3065,8346]},{"type":"Point","properties":{"Station_ID":"QMA","Station_Nam":"QMA","Latitude":"50.10330","Longitude":"-70.47190","Snowdepth":"13.661","Units":"in","Rept_Date":"2019-12-18 12"},"coordinates":[7754,8989]},{"type":"Point","properties":{"Station_ID":"WI-LN-2","Station_Nam":"MERRILL 7.0 W, WI","Latitude":"45.17746","Longitude":"-89.84820","Snowdepth":"13.500","Units":"in","Rept_Date":"2019-12-18 12"},"coordinates":[2141,5924]},{"type":"Point","properties":{"Station_ID":"QLM","Station_Nam":"QLM","Latitude":"48.92030","Longitude":"-70.25280","Snowdepth":"13.386","Units":"in","Rept_Date":"2019-12-18 12"},"coordinates":[7818,8253]},{"type":"Point","properties":{"Station_ID":"CAN-NB-50","Station_Nam":"DOYLEVILLE 2.4 WNW, CAN","Latitude":"47.90803","Longitude":"-66.13279","Snowdepth":"13.200","Units":"in","Rept_Date":"2019-12-18 13"},"coordinates":[9011,7623]},{"type":"Point","properties":{"Station_ID":"WUNW3","Station_Nam":"WAUSAU-NORTHEAST","Latitude":"44.97310","Longitude":"-89.61690","Snowdepth":"13.000","Units":"in","Rept_Date":"2019-12-18 11"},"coordinates":[2208,5797]},{"type":"Point","properties":{"Station_ID":"WSKW3","Station_Nam":"WAUSAUKEE","Latitude":"45.38020","Longitude":"-87.95660","Snowdepth":"13.000","Units":"in","Rept_Date":"2019-12-18 14"},"coordinates":[2689,6050]},{"type":"Point","properties":{"Station_ID":"WRSN6","Station_Nam":"WARSAW 6SW","Latitude":"42.68550","Longitude":"-78.22020","Snowdepth":"13.000","Units":"in","Rept_Date":"2019-12-18 12"},"coordinates":[5510,4374]},{"type":"Point","properties":{"Station_ID":"WNBM5","Station_Nam":"DAM","Latitude":"47.43060","Longitude":"-94.05000","Snowdepth":"13.000","Units":"in","Rept_Date":"2019-12-18 14"},"coordinates":[924,7326]},{"type":"Point","properties":{"Station_ID":"WLKW3","Station_Nam":"WHITE LAKE 1 SE","Latitude":"45.14520","Longitude":"-88.74160","Snowdepth":"13.000","Units":"in","Rept_Date":"2019-12-18 14"},"coordinates":[2462,5904]},{"type":"Point","properties":{"Station_ID":"WI-DN-1","Station_Nam":"BOYCEVILLE 3.3 N, WI","Latitude":"45.08913","Longitude":"-92.02760","Snowdepth":"13.000","Units":"in","Rept_Date":"2019-12-18 13"},"coordinates":[1510,5869]},{"type":"Point","properties":{"Station_ID":"WASW3","Station_Nam":"WASHINGTON IS","Latitude":"45.35800","Longitude":"-86.89110","Snowdepth":"13.000","Units":"in","Rept_Date":"2019-12-18 13"},"coordinates":[2998,6037]},{"type":"Point","properties":{"Station_ID":"TAKW3","Station_Nam":"RICE RESERVOIR NO. 2","Latitude":"45.53770","Longitude":"-89.73220","Snowdepth":"13.000","Units":"in","Rept_Date":"2019-12-18 13"},"coordinates":[2175,6148]},{"type":"Point","properties":{"Station_ID":"PKGM5","Station_Nam":"POKEGANA LK DAM","Latitude":"47.25080","Longitude":"-93.58610","Snowdepth":"13.000","Units":"in","Rept_Date":"2019-12-18 14"},"coordinates":[1058,7214]},{"type":"Point","properties":{"Station_ID":"NY-ER-166","Station_Nam":"BOSTON 2.5 NE, NY","Latitude":"42.65480","Longitude":"-78.70300","Snowdepth":"13.000","Units":"in","Rept_Date":"2019-12-18 12"},"coordinates":[5370,4355]},{"type":"Point","properties":{"Station_ID":"MQRW3","Station_Nam":"MINOCQUA","Latitude":"45.88630","Longitude":"-89.73220","Snowdepth":"13.000","Units":"in","Rept_Date":"2019-12-18 12"},"coordinates":[2175,6365]},{"type":"Point","properties":{"Station_ID":"MN3LTZND","Station_Nam":"BRAINERD 1.4 S","Latitude":"46.33224","Longitude":"-94.20905","Snowdepth":"13.000","Units":"in","Rept_Date":"2019-12-18 13"},"coordinates":[878,6643]},{"type":"Point","properties":{"Station_ID":"MN-SL-108","Station_Nam":"IRON JUNCTION 3.4 NNW, MN","Latitude":"47.46150","Longitude":"-92.63130","Snowdepth":"13.000","Units":"in","Rept_Date":"2019-12-18 13"},"coordinates":[1335,7345]},{"type":"Point","properties":{"Station_ID":"MLLW3","Station_Nam":"MERRILL 8W","Latitude":"45.17810","Longitude":"-89.84810","Snowdepth":"13.000","Units":"in","Rept_Date":"2019-12-18 12"},"coordinates":[2141,5925]},{"type":"Point","properties":{"Station_ID":"MIEM4","Station_Nam":"MICHIGAMME 3WNW","Latitude":"46.54530","Longitude":"-88.18000","Snowdepth":"13.000","Units":"in","Rept_Date":"2019-12-18 13"},"coordinates":[2624,6775]},{"type":"Point","properties":{"Station_ID":"MCLN8","Station_Nam":"MC LEOD,ND","Latitude":"46.40250","Longitude":"-97.23810","Snowdepth":"13.000","Units":"in","Rept_Date":"2019-12-18 15"},"coordinates":[0,6686]},{"type":"Point","properties":{"Station_ID":"CRLM5","Station_Nam":"CROSS LAKE DAM","Latitude":"46.66930","Longitude":"-94.11060","Snowdepth":"13.000","Units":"in","Rept_Date":"2019-12-18 14"},"coordinates":[906,6852]},{"type":"Point","properties":{"Station_ID":"BRAM5","Station_Nam":"BRAINERD","Latitude":"46.34320","Longitude":"-94.20900","Snowdepth":"13.000","Units":"in","Rept_Date":"2019-12-18 13"},"coordinates":[878,6650]},{"type":"Point","properties":{"Station_ID":"QWE","Station_Nam":"QWE","Latitude":"47.84610","Longitude":"-73.80670","Snowdepth":"12.953","Units":"in","Rept_Date":"2019-12-18 12"},"coordinates":[6788,7585]},{"type":"Point","properties":{"Station_ID":"QLI","Station_Nam":"QLI","Latitude":"50.27080","Longitude":"-73.92280","Snowdepth":"12.559","Units":"in","Rept_Date":"2019-12-18 12"},"coordinates":[6754,9093]},{"type":"Point","properties":{"Station_ID":"MI-OT-17","Station_Nam":"GAYLORD 4.1 S, MI","Latitude":"44.96388","Longitude":"-84.68467","Snowdepth":"12.500","Units":"in","Rept_Date":"2019-12-18 12"},"coordinates":[3637,5791]},{"type":"Point","properties":{"Station_ID":"MI-AT-6","Station_Nam":"MANCELONA 0.5 ESE, MI","Latitude":"44.89981","Longitude":"-85.05100","Snowdepth":"12.500","Units":"in","Rept_Date":"2019-12-18 13"},"coordinates":[3531,5752]},{"type":"Point","properties":{"Station_ID":"SOCQ6","Station_Nam":"SOCKET LAKE","Latitude":"50.77870","Longitude":"-91.79300","Snowdepth":"12.400","Units":"in","Rept_Date":"2019-12-19 06"},"coordinates":[1578,9409]},{"type":"Point","properties":{"Station_ID":"WI-CH-7","Station_Nam":"CHIPPEWA FALLS 1.2 E, WI","Latitude":"44.92920","Longitude":"-91.36730","Snowdepth":"12.000","Units":"in","Rept_Date":"2019-12-18 13"},"coordinates":[1701,5770]},{"type":"Point","properties":{"Station_ID":"WI-BR-2","Station_Nam":"CHETEK 2.0 SE, WI","Latitude":"45.29427","Longitude":"-91.62470","Snowdepth":"12.000","Units":"in","Rept_Date":"2019-12-18 13"},"coordinates":[1626,5997]},{"type":"Point","properties":{"Station_ID":"SULW3","Station_Nam":"SUMMIT LAKE","Latitude":"45.37880","Longitude":"-89.19410","Snowdepth":"12.000","Units":"in","Rept_Date":"2019-12-18 11"},"coordinates":[2330,6050]},{"type":"Point","properties":{"Station_ID":"SSMM4","Station_Nam":"SAULT STE MARIE","Latitude":"46.48660","Longitude":"-84.40250","Snowdepth":"12.000","Units":"in","Rept_Date":"2019-12-18 13"},"coordinates":[3719,6739]},{"type":"Point","properties":{"Station_ID":"SNGW3","Station_Nam":"SURING-4 E-HWY. DEPT.","Latitude":"44.99310","Longitude":"-88.31170","Snowdepth":"12.000","Units":"in","Rept_Date":"2019-12-18 13"},"coordinates":[2586,5810]},{"type":"Point","properties":{"Station_ID":"RRLW3","Station_Nam":"MERRILL,WI","Latitude":"45.17860","Longitude":"-89.66170","Snowdepth":"12.000","Units":"in","Rept_Date":"2019-12-18 14"},"coordinates":[2195,5925]},{"type":"Point","properties":{"Station_ID":"RHRW3","Station_Nam":"RHINELANDER WJFW TV-12","Latitude":"45.62220","Longitude":"-89.41000","Snowdepth":"12.000","Units":"in","Rept_Date":"2019-12-19 04"},"coordinates":[2268,6201]},{"type":"Point","properties":{"Station_ID":"RHI","Station_Nam":"RHINELANDER-ONEIDA COUNTY AIRPORT","Latitude":"45.63080","Longitude":"-89.46530","Snowdepth":"12.000","Units":"in","Rept_Date":"2019-12-19 00"},"coordinates":[2252,6206]},{"type":"Point","properties":{"Station_ID":"PRGN6","Station_Nam":"PERRYSBURG","Latitude":"42.46470","Longitude":"-79.00310","Snowdepth":"12.000","Units":"in","Rept_Date":"2019-12-18 12"},"coordinates":[5283,4237]},{"type":"Point","properties":{"Station_ID":"NY-ER-65","Station_Nam":"BOSTON 1.5 NE, NY","Latitude":"42.65470","Longitude":"-78.72010","Snowdepth":"12.000","Units":"in","Rept_Date":"2019-12-18 12"},"coordinates":[5365,4355]},{"type":"Point","properties":{"Station_ID":"MRAM4","Station_Nam":"MORAN","Latitude":"45.99030","Longitude":"-84.83610","Snowdepth":"12.000","Units":"in","Rept_Date":"2019-12-18 13"},"coordinates":[3593,6430]},{"type":"Point","properties":{"Station_ID":"MN8O09O3","Station_Nam":"ORR 3.6 E","Latitude":"48.04403","Longitude":"-92.75427","Snowdepth":"12.000","Units":"in","Rept_Date":"2019-12-18 12"},"coordinates":[1299,7708]},{"type":"Point","properties":{"Station_ID":"MN-IT-10","Station_Nam":"DEER RIVER 3.7 W, MN","Latitude":"47.33564","Longitude":"-93.87514","Snowdepth":"12.000","Units":"in","Rept_Date":"2019-12-18 14"},"coordinates":[974,7267]},{"type":"Point","properties":{"Station_ID":"MN-CK-6","Station_Nam":"GRAND MARAIS 4.4 W, MN","Latitude":"47.74865","Longitude":"-90.43760","Snowdepth":"12.000","Units":"in","Rept_Date":"2019-12-18 13"},"coordinates":[1970,7524]},{"type":"Point","properties":{"Station_ID":"MI-DL-4","Station_Nam":"GLADSTONE 2.1 SW, MI","Latitude":"45.83218","Longitude":"-87.05727","Snowdepth":"12.000","Units":"in","Rept_Date":"2019-12-18 12"},"coordinates":[2949,6332]},{"type":"Point","properties":{"Station_ID":"MI-DL-1","Station_Nam":"GARDEN CORNERS 0.8 NW, MI","Latitude":"45.89815","Longitude":"-86.54850","Snowdepth":"12.000","Units":"in","Rept_Date":"2019-12-18 13"},"coordinates":[3097,6373]},{"type":"Point","properties":{"Station_ID":"LUCW3","Station_Nam":"LUCK","Latitude":"45.57330","Longitude":"-92.48520","Snowdepth":"12.000","Units":"in","Rept_Date":"2019-12-18 22"},"coordinates":[1377,6171]},{"type":"Point","properties":{"Station_ID":"LEIM5","Station_Nam":"ORR 3E","Latitude":"48.05810","Longitude":"-92.75220","Snowdepth":"12.000","Units":"in","Rept_Date":"2019-12-18 12"},"coordinates":[1300,7716]},{"type":"Point","properties":{"Station_ID":"ISEM5","Station_Nam":"ISLE 12N","Latitude":"46.31970","Longitude":"-93.50140","Snowdepth":"12.000","Units":"in","Rept_Date":"2019-12-18 14"},"coordinates":[1083,6635]},{"type":"Point","properties":{"Station_ID":"GRBM5","Station_Nam":"GRAND RAPIDS 12N","Latitude":"47.39800","Longitude":"-93.51330","Snowdepth":"12.000","Units":"in","Rept_Date":"2019-12-18 13"},"coordinates":[1079,7306]},{"type":"Point","properties":{"Station_ID":"GDCM4","Station_Nam":"GARDEN CORNERS","Latitude":"45.89830","Longitude":"-86.54850","Snowdepth":"12.000","Units":"in","Rept_Date":"2019-12-18 13"},"coordinates":[3097,6373]},{"type":"Point","properties":{"Station_ID":"CBLW3","Station_Nam":"CUMBERLAND","Latitude":"45.53310","Longitude":"-92.02260","Snowdepth":"12.000","Units":"in","Rept_Date":"2019-12-18 13"},"coordinates":[1511,6146]},{"type":"Point","properties":{"Station_ID":"ANJM4","Station_Nam":"SNOW PAID OBSERVER FOR KANJ","Latitude":"46.48670","Longitude":"-84.40260","Snowdepth":"12.000","Units":"in","Rept_Date":"2019-12-18 18"},"coordinates":[3719,6739]},{"type":"Point","properties":{"Station_ID":"ANJ","Station_Nam":"SAULT STE MARIE","Latitude":"46.46670","Longitude":"-84.36670","Snowdepth":"12.000","Units":"in","Rept_Date":"2019-12-19 00"},"coordinates":[3729,6726]},{"type":"Point","properties":{"Station_ID":"TRIQ6","Station_Nam":"TRIO LAKE","Latitude":"49.22880","Longitude":"-87.22920","Snowdepth":"11.810","Units":"in","Rept_Date":"2019-12-19 06"},"coordinates":[2900,8445]},{"type":"Point","properties":{"Station_ID":"MN-IT-1","Station_Nam":"GRAND RAPIDS 2.0 E, MN","Latitude":"47.22266","Longitude":"-93.49600","Snowdepth":"11.500","Units":"in","Rept_Date":"2019-12-18 12"},"coordinates":[1084,7197]},{"type":"Point","properties":{"Station_ID":"MN-CK-18","Station_Nam":"GRAND MARAIS 4.4 WSW, MN","Latitude":"47.74462","Longitude":"-90.43796","Snowdepth":"11.500","Units":"in","Rept_Date":"2019-12-18 13"},"coordinates":[1970,7521]},{"type":"Point","properties":{"Station_ID":"WI-MT-14","Station_Nam":"MOSINEE 2.7 WSW, WI","Latitude":"44.77240","Longitude":"-89.73441","Snowdepth":"11.000","Units":"in","Rept_Date":"2019-12-18 12"},"coordinates":[2174,5672]},{"type":"Point","properties":{"Station_ID":"SVSN6","Station_Nam":"SILVER SPRINGS 3N","Latitude":"42.70580","Longitude":"-78.09370","Snowdepth":"11.000","Units":"in","Rept_Date":"2019-12-18 12"},"coordinates":[5546,4387]},{"type":"Point","properties":{"Station_ID":"STRW3","Station_Nam":"STRATFORD 1NW","Latitude":"44.81750","Longitude":"-90.08990","Snowdepth":"11.000","Units":"in","Rept_Date":"2019-12-18 12"},"coordinates":[2071,5700]},{"type":"Point","properties":{"Station_ID":"OTTM5","Station_Nam":"OTTERTAIL,MN","Latitude":"46.41670","Longitude":"-95.56670","Snowdepth":"11.000","Units":"in","Rept_Date":"2019-12-18 13"},"coordinates":[484,6695]},{"type":"Point","properties":{"Station_ID":"NY-WY-11","Station_Nam":"SILVER SPRINGS COOP, NY","Latitude":"42.70580","Longitude":"-78.09370","Snowdepth":"11.000","Units":"in","Rept_Date":"2019-12-18 12"},"coordinates":[5546,4387]},{"type":"Point","properties":{"Station_ID":"NY-OS-21","Station_Nam":"PULASKI 0.5 NE, NY","Latitude":"43.56997","Longitude":"-76.11950","Snowdepth":"11.000","Units":"in","Rept_Date":"2019-12-18 17"},"coordinates":[6118,4924]},{"type":"Point","properties":{"Station_ID":"NY-OD-2","Station_Nam":"POINT ROCK 0.6 SE, NY","Latitude":"43.37335","Longitude":"-75.53840","Snowdepth":"11.000","Units":"in","Rept_Date":"2019-12-18 13"},"coordinates":[6286,4802]},{"type":"Point","properties":{"Station_ID":"NY-ER-77","Station_Nam":"COLDEN 2.4 ENE, NY","Latitude":"42.65088","Longitude":"-78.61060","Snowdepth":"11.000","Units":"in","Rept_Date":"2019-12-18 13"},"coordinates":[5396,4352]},{"type":"Point","properties":{"Station_ID":"NALN6","Station_Nam":"CATTARAUGUS","Latitude":"42.32450","Longitude":"-78.86700","Snowdepth":"11.000","Units":"in","Rept_Date":"2019-12-18 13"},"coordinates":[5322,4149]},{"type":"Point","properties":{"Station_ID":"MRAM5","Station_Nam":"MORA","Latitude":"45.87760","Longitude":"-93.31470","Snowdepth":"11.000","Units":"in","Rept_Date":"2019-12-18 13"},"coordinates":[1137,6360]},{"type":"Point","properties":{"Station_ID":"MNMQO9OI","Station_Nam":"OTTERTAIL 1.5 WNW","Latitude":"46.43378","Longitude":"-95.58416","Snowdepth":"11.000","Units":"in","Rept_Date":"2019-12-18 13"},"coordinates":[479,6706]},{"type":"Point","properties":{"Station_ID":"MN-CW-22","Station_Nam":"FORT RIPLEY 0.8 N, MN","Latitude":"46.18089","Longitude":"-94.36510","Snowdepth":"11.000","Units":"in","Rept_Date":"2019-12-18 12"},"coordinates":[832,6549]},{"type":"Point","properties":{"Station_ID":"MN-BM-15","Station_Nam":"BEMIDJI 7.8 ENE, MN","Latitude":"47.52043","Longitude":"-94.72121","Snowdepth":"11.000","Units":"in","Rept_Date":"2019-12-18 13"},"coordinates":[729,7382]},{"type":"Point","properties":{"Station_ID":"MEDW3","Station_Nam":"MEDFORD","Latitude":"45.13080","Longitude":"-90.34390","Snowdepth":"11.000","Units":"in","Rept_Date":"2019-12-18 14"},"coordinates":[1997,5895]},{"type":"Point","properties":{"Station_ID":"MA-MD-47","Station_Nam":"WEST TOWNSEND 0.5 W, MA","Latitude":"42.67623","Longitude":"-71.74983","Snowdepth":"11.000","Units":"in","Rept_Date":"2019-12-18 11"},"coordinates":[7384,4368]},{"type":"Point","properties":{"Station_ID":"LADW3","Station_Nam":"LADYSMITH WTP","Latitude":"45.44290","Longitude":"-91.08970","Snowdepth":"11.000","Units":"in","Rept_Date":"2019-12-18 13"},"coordinates":[1781,6089]},{"type":"Point","properties":{"Station_ID":"GFK","Station_Nam":"GRAND FORKS INTERNATIONAL AIRPORT","Latitude":"47.94920","Longitude":"-97.17610","Snowdepth":"11.000","Units":"in","Rept_Date":"2019-12-19 00"},"coordinates":[18,7649]},{"type":"Point","properties":{"Station_ID":"FRKN6","Station_Nam":"FRANKLINVILLE","Latitude":"42.32960","Longitude":"-78.46330","Snowdepth":"11.000","Units":"in","Rept_Date":"2019-12-18 12"},"coordinates":[5439,4153]},{"type":"Point","properties":{"Station_ID":"FLDM5","Station_Nam":"FLOODWOOD,MN","Latitude":"47.00000","Longitude":"-92.91670","Snowdepth":"11.000","Units":"in","Rept_Date":"2019-12-18 14"},"coordinates":[1252,7058]},{"type":"Point","properties":{"Station_ID":"FEDM5","Station_Nam":"LEECH LAKE DAM","Latitude":"47.24670","Longitude":"-94.22280","Snowdepth":"11.000","Units":"in","Rept_Date":"2019-12-18 14"},"coordinates":[874,7212]},{"type":"Point","properties":{"Station_ID":"EPTW3","Station_Nam":"EAU PLEINE TENDER","Latitude":"44.77220","Longitude":"-89.76720","Snowdepth":"11.000","Units":"in","Rept_Date":"2019-12-18 13"},"coordinates":[2164,5672]},{"type":"Point","properties":{"Station_ID":"DTVM4","Station_Nam":"DETOUR VILLAGE","Latitude":"45.99830","Longitude":"-83.90130","Snowdepth":"11.000","Units":"in","Rept_Date":"2019-12-18 13"},"coordinates":[3864,6435]},{"type":"Point","properties":{"Station_ID":"CSLM5","Station_Nam":"CASS LAKE,MN","Latitude":"47.38470","Longitude":"-94.61470","Snowdepth":"11.000","Units":"in","Rept_Date":"2019-12-18 14"},"coordinates":[760,7298]},{"type":"Point","properties":{"Station_ID":"CODN6","Station_Nam":"COLDEN","Latitude":"42.64720","Longitude":"-78.71110","Snowdepth":"11.000","Units":"in","Rept_Date":"2019-12-18 12"},"coordinates":[5367,4350]},{"type":"Point","properties":{"Station_ID":"AVLV1","Station_Nam":"AVERILL","Latitude":"45.00570","Longitude":"-71.69030","Snowdepth":"11.000","Units":"in","Rept_Date":"2019-12-18 13"},"coordinates":[7401,5817]},{"type":"Point","properties":{"Station_ID":"42.1284_079.8945","Station_Nam":"NORTHEAST 6SW (CLE0249)","Latitude":"42.12840","Longitude":"-79.89450","Snowdepth":"11.000","Units":"in","Rept_Date":"2019-12-18 11"},"coordinates":[5024,4027]},{"type":"Point","properties":{"Station_ID":"QGA","Station_Nam":"QGA","Latitude":"47.25640","Longitude":"-73.73810","Snowdepth":"10.866","Units":"in","Rept_Date":"2019-12-18 12"},"coordinates":[6808,7218]},{"type":"Point","properties":{"Station_ID":"NY-CT-22","Station_Nam":"FRANKLINVILLE 0.5 NNE, NY","Latitude":"42.34166","Longitude":"-78.45280","Snowdepth":"10.500","Units":"in","Rept_Date":"2019-12-18 13"},"coordinates":[5442,4160]},{"type":"Point","properties":{"Station_ID":"NY-CQ-39","Station_Nam":"GERRY 0.8 N, NY","Latitude":"42.20500","Longitude":"-79.24700","Snowdepth":"10.500","Units":"in","Rept_Date":"2019-12-18 13"},"coordinates":[5212,4075]},{"type":"Point","properties":{"Station_ID":"MN-IT-17","Station_Nam":"GRAND RAPIDS 6.1 N, MN","Latitude":"47.31165","Longitude":"-93.55036","Snowdepth":"10.500","Units":"in","Rept_Date":"2019-12-18 13"},"coordinates":[1068,7252]},{"type":"Point","properties":{"Station_ID":"MI-OT-16","Station_Nam":"GAYLORD 2.2 SSE, MI","Latitude":"44.99441","Longitude":"-84.65820","Snowdepth":"10.500","Units":"in","Rept_Date":"2019-12-18 13"},"coordinates":[3644,5810]},{"type":"Point","properties":{"Station_ID":"41.8210_079.8343","Station_Nam":"CANADOHTA LAKE (CLE0326)","Latitude":"41.82100","Longitude":"-79.83430","Snowdepth":"10.500","Units":"in","Rept_Date":"2019-12-19 02"},"coordinates":[5042,3836]},{"type":"Point","properties":{"Station_ID":"NY-HR-18","Station_Nam":"SALISBURY CENTER 1.8 NW, NY","Latitude":"43.16260","Longitude":"-74.80880","Snowdepth":"10.300","Units":"in","Rept_Date":"2019-12-18 11"},"coordinates":[6498,4671]},{"type":"Point","properties":{"Station_ID":"CATQ6","Station_Nam":"CAT LAKE","Latitude":"51.72690","Longitude":"-91.82210","Snowdepth":"10.200","Units":"in","Rept_Date":"2019-12-19 06"},"coordinates":[1569,9999]},{"type":"Point","properties":{"Station_ID":"QIQ","Station_Nam":"QIQ","Latitude":"49.82390","Longitude":"-68.54310","Snowdepth":"10.118","Units":"in","Rept_Date":"2019-12-18 12"},"coordinates":[8313,8815]},{"type":"Point","properties":{"Station_ID":"QCO","Station_Nam":"QCO","Latitude":"51.45280","Longitude":"-72.20110","Snowdepth":"10.118","Units":"in","Rept_Date":"2019-12-18 12"},"coordinates":[7253,9828]},{"type":"Point","properties":{"Station_ID":"WLDM5","Station_Nam":"WILD RIVER STATE PARK","Latitude":"45.52310","Longitude":"-92.74890","Snowdepth":"10.000","Units":"in","Rept_Date":"2019-12-18 14"},"coordinates":[1301,6139]},{"type":"Point","properties":{"Station_ID":"VT-OL-1","Station_Nam":"WESTFIELD 0.7 WNW, VT","Latitude":"44.89160","Longitude":"-72.44350","Snowdepth":"10.000","Units":"in","Rept_Date":"2019-12-18 12"},"coordinates":[7183,5746]},{"type":"Point","properties":{"Station_ID":"VANM4","Station_Nam":"VANDERBILT 11ENE","Latitude":"45.17020","Longitude":"-84.43970","Snowdepth":"10.000","Units":"in","Rept_Date":"2019-12-18 13"},"coordinates":[3708,5920]},{"type":"Point","properties":{"Station_ID":"STIM4","Station_Nam":"ST IGNACE","Latitude":"45.86080","Longitude":"-84.71960","Snowdepth":"10.000","Units":"in","Rept_Date":"2019-12-18 12"},"coordinates":[3627,6349]},{"type":"Point","properties":{"Station_ID":"SPCW3","Station_Nam":"SPENCER-WWTP","Latitude":"44.75390","Longitude":"-90.28920","Snowdepth":"10.000","Units":"in","Rept_Date":"2019-12-18 13"},"coordinates":[2013,5661]},{"type":"Point","properties":{"Station_ID":"RGNM1","Station_Nam":"RANGELEY 2NW","Latitude":"44.98940","Longitude":"-70.67220","Snowdepth":"10.000","Units":"in","Rept_Date":"2019-12-18 11"},"coordinates":[7696,5807]},{"type":"Point","properties":{"Station_ID":"RDFN6","Station_Nam":"REDFIELD 8N","Latitude":"43.64130","Longitude":"-75.88400","Snowdepth":"10.000","Units":"in","Rept_Date":"2019-12-18 12"},"coordinates":[6186,4969]},{"type":"Point","properties":{"Station_ID":"PULN6","Station_Nam":"PULASKI","Latitude":"43.56960","Longitude":"-76.11630","Snowdepth":"10.000","Units":"in","Rept_Date":"2019-12-18 11"},"coordinates":[6119,4924]},{"type":"Point","properties":{"Station_ID":"OWEW3","Station_Nam":"OWEN 2N","Latitude":"44.98010","Longitude":"-90.55440","Snowdepth":"10.000","Units":"in","Rept_Date":"2019-12-18 13"},"coordinates":[1936,5802]},{"type":"Point","properties":{"Station_ID":"MNOW3","Station_Nam":"CEDAR FALLS HYDRO PLANT","Latitude":"44.93550","Longitude":"-91.88850","Snowdepth":"10.000","Units":"in","Rept_Date":"2019-12-18 13"},"coordinates":[1550,5774]},{"type":"Point","properties":{"Station_ID":"MN9UO3KA","Station_Nam":"GAPPAS LANDING CG 3.8 N","Latitude":"48.49307","Longitude":"-93.03634","Snowdepth":"10.000","Units":"in","Rept_Date":"2019-12-18 13"},"coordinates":[1217,7987]},{"type":"Point","properties":{"Station_ID":"MN20GPME","Station_Nam":"MILACA 0.7 W","Latitude":"45.75695","Longitude":"-93.66835","Snowdepth":"10.000","Units":"in","Rept_Date":"2019-12-18 13"},"coordinates":[1034,6285]},{"type":"Point","properties":{"Station_ID":"MN-SR-29","Station_Nam":"ALBANY 3.8 S, MN","Latitude":"45.57441","Longitude":"-94.55543","Snowdepth":"10.000","Units":"in","Rept_Date":"2019-12-18 13"},"coordinates":[777,6171]},{"type":"Point","properties":{"Station_ID":"MN-CW-29","Station_Nam":"BRAINERD 7.7 SSE, MN","Latitude":"46.24996","Longitude":"-94.14576","Snowdepth":"10.000","Units":"in","Rept_Date":"2019-12-18 13"},"coordinates":[896,6592]},{"type":"Point","properties":{"Station_ID":"MLCM5","Station_Nam":"MILACA","Latitude":"45.75320","Longitude":"-93.66170","Snowdepth":"10.000","Units":"in","Rept_Date":"2019-12-18 13"},"coordinates":[1036,6283]},{"type":"Point","properties":{"Station_ID":"MI-MC-4","Station_Nam":"ST. IGNACE 0.5SE, MI","Latitude":"45.86057","Longitude":"-84.71980","Snowdepth":"10.000","Units":"in","Rept_Date":"2019-12-18 12"},"coordinates":[3627,6349]},{"type":"Point","properties":{"Station_ID":"LTVN6","Station_Nam":"LITTLE VALLEY","Latitude":"42.24730","Longitude":"-78.81250","Snowdepth":"10.000","Units":"in","Rept_Date":"2019-12-18 12"},"coordinates":[5338,4101]},{"type":"Point","properties":{"Station_ID":"KGTB","Station_Nam":"FORT DRUM / WHEELER-SACK U. S. ARMY AIRFIELD","Latitude":"44.05000","Longitude":"-75.73333","Snowdepth":"10.000","Units":"in","Rept_Date":"2019-12-18 23"},"coordinates":[6230,5223]},{"type":"Point","properties":{"Station_ID":"KGFK","Station_Nam":"GRAND FORKS INTERNATIONAL","Latitude":"47.95000","Longitude":"-97.18333","Snowdepth":"10.000","Units":"in","Rept_Date":"2019-12-19 06"},"coordinates":[16,7649]},{"type":"Point","properties":{"Station_ID":"KABQ6","Station_Nam":"CAB LAKE","Latitude":"49.59950","Longitude":"-89.17990","Snowdepth":"10.000","Units":"in","Rept_Date":"2019-12-19 06"},"coordinates":[2335,8675]},{"type":"Point","properties":{"Station_ID":"KABM5","Station_Nam":"KABETOGAMA LAKE VISITOR CTR","Latitude":"48.40880","Longitude":"-93.04840","Snowdepth":"10.000","Units":"in","Rept_Date":"2019-12-18 13"},"coordinates":[1214,7935]},{"type":"Point","properties":{"Station_ID":"EJNM4","Station_Nam":"EAST JORDAN 2NW","Latitude":"45.18630","Longitude":"-85.14770","Snowdepth":"10.000","Units":"in","Rept_Date":"2019-12-18 13"},"coordinates":[3503,5930]},{"type":"Point","properties":{"Station_ID":"EAU","Station_Nam":"CHIPPEWA VALLEY REGIONAL AIRPORT","Latitude":"44.86650","Longitude":"-91.48790","Snowdepth":"10.000","Units":"in","Rept_Date":"2019-12-19 00"},"coordinates":[1666,5731]},{"type":"Point","properties":{"Station_ID":"CHPW3","Station_Nam":"CHIPPEWA FALLS","Latitude":"44.92770","Longitude":"-91.40810","Snowdepth":"10.000","Units":"in","Rept_Date":"2019-12-18 14"},"coordinates":[1689,5769]},{"type":"Point","properties":{"Station_ID":"CBVM1","Station_Nam":"CARRABASSETT VALLEY","Latitude":"45.08040","Longitude":"-70.30310","Snowdepth":"10.000","Units":"in","Rept_Date":"2019-12-18 12"},"coordinates":[7803,5864]},{"type":"Point","properties":{"Station_ID":"CAN-ON-757","Station_Nam":"SAULT STE. MARIE 2.8 ESE - GLFC, CAN","Latitude":"46.50300","Longitude":"-84.30300","Snowdepth":"10.000","Units":"in","Rept_Date":"2019-12-18 13"},"coordinates":[3747,6749]},{"type":"Point","properties":{"Station_ID":"BREW3","Station_Nam":"SURING","Latitude":"44.99580","Longitude":"-88.37860","Snowdepth":"10.000","Units":"in","Rept_Date":"2019-12-18 13"},"coordinates":[2567,5811]},{"type":"Point","properties":{"Station_ID":"41.9034_079.6523","Station_Nam":"CORRY (CLE0230)","Latitude":"41.90340","Longitude":"-79.65230","Snowdepth":"10.000","Units":"in","Rept_Date":"2019-12-18 14"},"coordinates":[5095,3887]},{"type":"Point","properties":{"Station_ID":"CAN-ON-452","Station_Nam":"CHATSWORTH 1.8 ENE - GSCA, CAN","Latitude":"44.46118","Longitude":"-80.87506","Snowdepth":"9.900","Units":"in","Rept_Date":"2019-12-18 12"},"coordinates":[4740,5479]},{"type":"Point","properties":{"Station_ID":"NH-HL-19","Station_Nam":"BROOKLINE 2.1 SW, NH","Latitude":"42.71235","Longitude":"-71.69760","Snowdepth":"9.500","Units":"in","Rept_Date":"2019-12-18 12"},"coordinates":[7399,4391]},{"type":"Point","properties":{"Station_ID":"ND-CS-25","Station_Nam":"FARGO 2.1 N, ND","Latitude":"46.90816","Longitude":"-96.77937","Snowdepth":"9.500","Units":"in","Rept_Date":"2019-12-18 14"},"coordinates":[133,7001]},{"type":"Point","properties":{"Station_ID":"MI-CX-7","Station_Nam":"EAST JORDAN 2.1 NNW, MI","Latitude":"45.18639","Longitude":"-85.14750","Snowdepth":"9.500","Units":"in","Rept_Date":"2019-12-18 13"},"coordinates":[3503,5930]},{"type":"Point","properties":{"Station_ID":"QWG","Station_Nam":"QWG","Latitude":"48.48890","Longitude":"-73.45940","Snowdepth":"9.370","Units":"in","Rept_Date":"2019-12-18 12"},"coordinates":[6889,7985]},{"type":"Point","properties":{"Station_ID":"QTM","Station_Nam":"QTM","Latitude":"51.05780","Longitude":"-72.57190","Snowdepth":"9.291","Units":"in","Rept_Date":"2019-12-18 12"},"coordinates":[7146,9583]},{"type":"Point","properties":{"Station_ID":"WYON6","Station_Nam":"WYOMING 3W","Latitude":"42.82060","Longitude":"-78.14810","Snowdepth":"9.000","Units":"in","Rept_Date":"2019-12-18 12"},"coordinates":[5530,4458]},{"type":"Point","properties":{"Station_ID":"WI-PC-5","Station_Nam":"RIVER FALLS 1.2 SSW, WI","Latitude":"44.84032","Longitude":"-92.63500","Snowdepth":"9.000","Units":"in","Rept_Date":"2019-12-18 13"},"coordinates":[1334,5715]},{"type":"Point","properties":{"Station_ID":"SHHW3","Station_Nam":"SHAWANO 2SSW","Latitude":"44.76310","Longitude":"-88.61830","Snowdepth":"9.000","Units":"in","Rept_Date":"2019-12-18 14"},"coordinates":[2497,5667]},{"type":"Point","properties":{"Station_ID":"SCSM5","Station_Nam":"ST CLOUD STATE","Latitude":"45.55100","Longitude":"-94.14950","Snowdepth":"9.000","Units":"in","Rept_Date":"2019-12-18 12"},"coordinates":[895,6157]},{"type":"Point","properties":{"Station_ID":"RUHN6","Station_Nam":"RUSHFORD","Latitude":"42.42610","Longitude":"-78.19220","Snowdepth":"9.000","Units":"in","Rept_Date":"2019-12-18 13"},"coordinates":[5518,4213]},{"type":"Point","properties":{"Station_ID":"RSTW3","Station_Nam":"ROSHOLT","Latitude":"44.62710","Longitude":"-89.30600","Snowdepth":"9.000","Units":"in","Rept_Date":"2019-12-18 11"},"coordinates":[2298,5582]},{"type":"Point","properties":{"Station_ID":"ROWM3","Station_Nam":"ROWE 3NE","Latitude":"42.73500","Longitude":"-72.86920","Snowdepth":"9.000","Units":"in","Rept_Date":"2019-12-18 12"},"coordinates":[7060,4405]},{"type":"Point","properties":{"Station_ID":"PARM4","Station_Nam":"PARENT BAY","Latitude":"45.79610","Longitude":"-86.40110","Snowdepth":"9.000","Units":"in","Rept_Date":"2019-12-18 14"},"coordinates":[3140,6309]},{"type":"Point","properties":{"Station_ID":"OCON6","Station_Nam":"OSCEOLA","Latitude":"43.49910","Longitude":"-75.71210","Snowdepth":"9.000","Units":"in","Rept_Date":"2019-12-18 12"},"coordinates":[6236,4880]},{"type":"Point","properties":{"Station_ID":"NY-WY-10","Station_Nam":"WYOMING COOP, NY","Latitude":"42.82060","Longitude":"-78.14810","Snowdepth":"9.000","Units":"in","Rept_Date":"2019-12-18 12"},"coordinates":[5530,4458]},{"type":"Point","properties":{"Station_ID":"NY-JF-32","Station_Nam":"WATERTOWN 1.0 ESE, NY","Latitude":"43.96693","Longitude":"-75.89204","Snowdepth":"9.000","Units":"in","Rept_Date":"2019-12-18 12"},"coordinates":[6184,5171]},{"type":"Point","properties":{"Station_ID":"NY-ER-158","Station_Nam":"EAST AURORA 2.7 SSE, NY","Latitude":"42.72936","Longitude":"-78.60561","Snowdepth":"9.000","Units":"in","Rept_Date":"2019-12-18 13"},"coordinates":[5398,4401]},{"type":"Point","properties":{"Station_ID":"NY-CQ-34","Station_Nam":"KENNEDY 2.6 SE, NY","Latitude":"42.12567","Longitude":"-79.07235","Snowdepth":"9.000","Units":"in","Rept_Date":"2019-12-18 13"},"coordinates":[5263,4026]},{"type":"Point","properties":{"Station_ID":"NY-AB-54","Station_Nam":"ALTAMONT 2.9 SW, NY","Latitude":"42.68182","Longitude":"-74.08326","Snowdepth":"9.000","Units":"in","Rept_Date":"2019-12-18 12"},"coordinates":[6708,4372]},{"type":"Point","properties":{"Station_ID":"NPTV1","Station_Nam":"NEWPORT","Latitude":"44.94900","Longitude":"-72.19120","Snowdepth":"9.000","Units":"in","Rept_Date":"2019-12-18 12"},"coordinates":[7256,5782]},{"type":"Point","properties":{"Station_ID":"NH-CS-10","Station_Nam":"RANDOLPH 1.4 NE, NH","Latitude":"44.38824","Longitude":"-71.26950","Snowdepth":"9.000","Units":"in","Rept_Date":"2019-12-18 12"},"coordinates":[7523,5433]},{"type":"Point","properties":{"Station_ID":"MTQM4","Station_Nam":"MANISTIQUE WWTP","Latitude":"45.95120","Longitude":"-86.25130","Snowdepth":"9.000","Units":"in","Rept_Date":"2019-12-18 12"},"coordinates":[3183,6406]},{"type":"Point","properties":{"Station_ID":"MNLGGILP","Station_Nam":"LONG PRAIRIE 1.1 WSW","Latitude":"45.96913","Longitude":"-94.88686","Snowdepth":"9.000","Units":"in","Rept_Date":"2019-12-18 12"},"coordinates":[681,6417]},{"type":"Point","properties":{"Station_ID":"MN-SH-10","Station_Nam":"BIG LAKE 5.6 NNE, MN","Latitude":"45.41409","Longitude":"-93.69190","Snowdepth":"9.000","Units":"in","Rept_Date":"2019-12-18 13"},"coordinates":[1027,6072]},{"type":"Point","properties":{"Station_ID":"MN-MR-4","Station_Nam":"LITTLE FALLS 1.2 SW, MN","Latitude":"45.96886","Longitude":"-94.37720","Snowdepth":"9.000","Units":"in","Rept_Date":"2019-12-18 13"},"coordinates":[829,6417]},{"type":"Point","properties":{"Station_ID":"MN-MR-13","Station_Nam":"LITTLE FALLS 8.0 NE, MN","Latitude":"46.06785","Longitude":"-94.24789","Snowdepth":"9.000","Units":"in","Rept_Date":"2019-12-18 13"},"coordinates":[866,6478]},{"type":"Point","properties":{"Station_ID":"MI-OT-4","Station_Nam":"GAYLORD 1.7 WNW, MI","Latitude":"45.03280","Longitude":"-84.71090","Snowdepth":"9.000","Units":"in","Rept_Date":"2019-12-18 13"},"coordinates":[3629,5834]},{"type":"Point","properties":{"Station_ID":"MFDW3","Station_Nam":"MARSHFIELD EXP FARM","Latitude":"44.64110","Longitude":"-90.13330","Snowdepth":"9.000","Units":"in","Rept_Date":"2019-12-18 13"},"coordinates":[2058,5591]},{"type":"Point","properties":{"Station_ID":"MA-HS-7","Station_Nam":"PLAINFIELD 2.2 SW, MA","Latitude":"42.49272","Longitude":"-72.94540","Snowdepth":"9.000","Units":"in","Rept_Date":"2019-12-18 12"},"coordinates":[7038,4254]},{"type":"Point","properties":{"Station_ID":"LNGM5","Station_Nam":"LONG PRAIRIE","Latitude":"45.96460","Longitude":"-94.88920","Snowdepth":"9.000","Units":"in","Rept_Date":"2019-12-18 12"},"coordinates":[681,6414]},{"type":"Point","properties":{"Station_ID":"INL","Station_Nam":"FALLS INTERNATIONAL ARPT","Latitude":"48.56640","Longitude":"-93.40310","Snowdepth":"9.000","Units":"in","Rept_Date":"2019-12-18 12"},"coordinates":[1111,8033]},{"type":"Point","properties":{"Station_ID":"IFSM5","Station_Nam":"INTERNATIONAL FALLS SNOW","Latitude":"48.57780","Longitude":"-93.39640","Snowdepth":"9.000","Units":"in","Rept_Date":"2019-12-18 12"},"coordinates":[1113,8040]},{"type":"Point","properties":{"Station_ID":"GHMN3","Station_Nam":"PINKHAM NOTCH","Latitude":"44.25800","Longitude":"-71.25250","Snowdepth":"9.000","Units":"in","Rept_Date":"2019-12-18 10"},"coordinates":[7528,5352]},{"type":"Point","properties":{"Station_ID":"GAYM4","Station_Nam":"GAYLORD","Latitude":"45.03320","Longitude":"-84.71130","Snowdepth":"9.000","Units":"in","Rept_Date":"2019-12-18 13"},"coordinates":[3629,5835]},{"type":"Point","properties":{"Station_ID":"EPMW3","Station_Nam":"EPHRAIM-1 NE WWTP","Latitude":"45.17080","Longitude":"-87.15360","Snowdepth":"9.000","Units":"in","Rept_Date":"2019-12-18 13"},"coordinates":[2922,5920]},{"type":"Point","properties":{"Station_ID":"ELKM5","Station_Nam":"ELK RIVER","Latitude":"45.30470","Longitude":"-93.58420","Snowdepth":"9.000","Units":"in","Rept_Date":"2019-12-18 13"},"coordinates":[1059,6003]},{"type":"Point","properties":{"Station_ID":"CVZW3","Station_Nam":"WISCONSIN PUBLIC SERVICE","Latitude":"45.23530","Longitude":"-88.01360","Snowdepth":"9.000","Units":"in","Rept_Date":"2019-12-18 13"},"coordinates":[2672,5960]},{"type":"Point","properties":{"Station_ID":"BMRW3","Station_Nam":"BLOOMER","Latitude":"45.09070","Longitude":"-91.48640","Snowdepth":"9.000","Units":"in","Rept_Date":"2019-12-18 14"},"coordinates":[1666,5870]},{"type":"Point","properties":{"Station_ID":"APXM4","Station_Nam":"GAYLORD 9SSW","Latitude":"44.90720","Longitude":"-84.71880","Snowdepth":"9.000","Units":"in","Rept_Date":"2019-12-19 06"},"coordinates":[3627,5756]},{"type":"Point","properties":{"Station_ID":"42.0800_080.0143","Station_Nam":"ERIE 5SE  SNOW SPOTTER (X4210800)","Latitude":"42.08000","Longitude":"-80.01430","Snowdepth":"9.000","Units":"in","Rept_Date":"2019-12-19 01"},"coordinates":[4990,3997]},{"type":"Point","properties":{"Station_ID":"41.8717_080.0850","Station_Nam":"EDINBORO 2E  SNOW SPOTTER (X4190801)","Latitude":"41.87170","Longitude":"-80.08500","Snowdepth":"9.000","Units":"in","Rept_Date":"2019-12-19 00"},"coordinates":[4969,3868]},{"type":"Point","properties":{"Station_ID":"41.8222_080.1028","Station_Nam":"CAMBRIDGE SPRINGS  SNOW SPOTTER (CLE0344)","Latitude":"41.82220","Longitude":"-80.10280","Snowdepth":"9.000","Units":"in","Rept_Date":"2019-12-19 01"},"coordinates":[4964,3837]},{"type":"Point","properties":{"Station_ID":"41.6612_080.1377","Station_Nam":"MEADVILLE (CLE0332)","Latitude":"41.66120","Longitude":"-80.13770","Snowdepth":"9.000","Units":"in","Rept_Date":"2019-12-19 01"},"coordinates":[4954,3737]},{"type":"Point","properties":{"Station_ID":"WI-DR-5","Station_Nam":"ELLISON BAY 2.2 E, WI","Latitude":"45.25750","Longitude":"-87.02670","Snowdepth":"8.500","Units":"in","Rept_Date":"2019-12-18 13"},"coordinates":[2958,5974]},{"type":"Point","properties":{"Station_ID":"VT-OL-5","Station_Nam":"DERBY CENTER 1.8 NW, VT","Latitude":"44.97200","Longitude":"-72.14780","Snowdepth":"8.500","Units":"in","Rept_Date":"2019-12-18 12"},"coordinates":[7269,5796]},{"type":"Point","properties":{"Station_ID":"MN-BK-10","Station_Nam":"DETROIT LAKES 5.7 N, MN","Latitude":"46.88666","Longitude":"-95.84444","Snowdepth":"8.500","Units":"in","Rept_Date":"2019-12-18 10"},"coordinates":[404,6988]},{"type":"Point","properties":{"Station_ID":"WMRM5","Station_Nam":"WILLMAR 5N","Latitude":"45.19010","Longitude":"-95.05860","Snowdepth":"8.000","Units":"in","Rept_Date":"2019-12-18 12"},"coordinates":[632,5932]},{"type":"Point","properties":{"Station_ID":"WI-PT-8","Station_Nam":"RUDOLPH 2.1 NNE, WI","Latitude":"44.52553","Longitude":"-89.78677","Snowdepth":"8.000","Units":"in","Rept_Date":"2019-12-18 11"},"coordinates":[2159,5519]},{"type":"Point","properties":{"Station_ID":"SIBI4","Station_Nam":"SIBLEY","Latitude":"43.40470","Longitude":"-95.74830","Snowdepth":"8.000","Units":"in","Rept_Date":"2019-12-18 13"},"coordinates":[432,4821]},{"type":"Point","properties":{"Station_ID":"SCRW3","Station_Nam":"ST CROIX FALLS","Latitude":"45.41170","Longitude":"-92.64660","Snowdepth":"8.000","Units":"in","Rept_Date":"2019-12-18 13"},"coordinates":[1330,6070]},{"type":"Point","properties":{"Station_ID":"SBNM5","Station_Nam":"SABIN","Latitude":"46.77690","Longitude":"-96.65610","Snowdepth":"8.000","Units":"in","Rept_Date":"2019-12-18 14"},"coordinates":[169,6919]},{"type":"Point","properties":{"Station_ID":"RLWM5","Station_Nam":"CAMP NORRIS DNR","Latitude":"48.61000","Longitude":"-95.18170","Snowdepth":"8.000","Units":"in","Rept_Date":"2019-12-18 13"},"coordinates":[596,8060]},{"type":"Point","properties":{"Station_ID":"RCEM5","Station_Nam":"RICE","Latitude":"45.75760","Longitude":"-94.20720","Snowdepth":"8.000","Units":"in","Rept_Date":"2019-12-18 13"},"coordinates":[878,6285]},{"type":"Point","properties":{"Station_ID":"PSHW3","Station_Nam":"PESHTIGO","Latitude":"45.02810","Longitude":"-87.73560","Snowdepth":"8.000","Units":"in","Rept_Date":"2019-12-18 13"},"coordinates":[2753,5831]},{"type":"Point","properties":{"Station_ID":"PGVN6","Station_Nam":"PORTAGEVILLE","Latitude":"42.57580","Longitude":"-78.06720","Snowdepth":"8.000","Units":"in","Rept_Date":"2019-12-18 11"},"coordinates":[5554,4306]},{"type":"Point","properties":{"Station_ID":"NY-CT-2","Station_Nam":"RANDOLPH 1.1 ENE, NY","Latitude":"42.17056","Longitude":"-78.96120","Snowdepth":"8.000","Units":"in","Rept_Date":"2019-12-18 12"},"coordinates":[5295,4054]},{"type":"Point","properties":{"Station_ID":"MWN","Station_Nam":"MOUNT WASHINGTON","Latitude":"44.26670","Longitude":"-71.30000","Snowdepth":"8.000","Units":"in","Rept_Date":"2019-12-19 05"},"coordinates":[7514,5358]},{"type":"Point","properties":{"Station_ID":"MRRN6","Station_Nam":"MORRISVILLE 6 SW","Latitude":"42.84160","Longitude":"-75.72630","Snowdepth":"8.000","Units":"in","Rept_Date":"2019-12-18 12"},"coordinates":[6232,4471]},{"type":"Point","properties":{"Station_ID":"MRLV1","Station_Nam":"MARLBORO","Latitude":"42.86000","Longitude":"-72.72000","Snowdepth":"8.000","Units":"in","Rept_Date":"2019-12-18 13"},"coordinates":[7103,4483]},{"type":"Point","properties":{"Station_ID":"MRIW3","Station_Nam":"MARINETTE","Latitude":"45.09830","Longitude":"-87.62360","Snowdepth":"8.000","Units":"in","Rept_Date":"2019-12-18 13"},"coordinates":[2785,5875]},{"type":"Point","properties":{"Station_ID":"MNJ3AYM2","Station_Nam":"WILLMAR 2.8 NNE","Latitude":"45.16114","Longitude":"-95.03260","Snowdepth":"8.000","Units":"in","Rept_Date":"2019-12-18 12"},"coordinates":[639,5914]},{"type":"Point","properties":{"Station_ID":"MNEY8CTB","Station_Nam":"MIDLAND JUNCTION 2.2 ENE","Latitude":"44.33041","Longitude":"-91.95891","Snowdepth":"8.000","Units":"in","Rept_Date":"2019-12-18 14"},"coordinates":[1529,5397]},{"type":"Point","properties":{"Station_ID":"MN228YHJ","Station_Nam":"RICE 2.8 ESE","Latitude":"45.73609","Longitude":"-94.17230","Snowdepth":"8.000","Units":"in","Rept_Date":"2019-12-18 13"},"coordinates":[888,6272]},{"type":"Point","properties":{"Station_ID":"MN228RRE","Station_Nam":"RICE 0.8 ENE","Latitude":"45.75724","Longitude":"-94.20638","Snowdepth":"8.000","Units":"in","Rept_Date":"2019-12-18 13"},"coordinates":[878,6285]},{"type":"Point","properties":{"Station_ID":"MN0GWSNW","Station_Nam":"LAKE ELMO 2.9 SE","Latitude":"44.97220","Longitude":"-92.83065","Snowdepth":"8.000","Units":"in","Rept_Date":"2019-12-18 13"},"coordinates":[1277,5797]},{"type":"Point","properties":{"Station_ID":"MN-CY-1","Station_Nam":"MOORHEAD 2.0 N, MN","Latitude":"46.88766","Longitude":"-96.74800","Snowdepth":"8.000","Units":"in","Rept_Date":"2019-12-18 13"},"coordinates":[142,6988]},{"type":"Point","properties":{"Station_ID":"LPTN6","Station_Nam":"LOCKPORT","Latitude":"43.18760","Longitude":"-78.60910","Snowdepth":"8.000","Units":"in","Rept_Date":"2019-12-19 00"},"coordinates":[5397,4686]},{"type":"Point","properties":{"Station_ID":"LPLN6","Station_Nam":"LAKE PLACID 2 S","Latitude":"44.30420","Longitude":"-73.98390","Snowdepth":"8.000","Units":"in","Rept_Date":"2019-12-18 13"},"coordinates":[6737,5381]},{"type":"Point","properties":{"Station_ID":"KMWN","Station_Nam":"MOUNT WASHINGTON","Latitude":"44.26666","Longitude":"-71.30000","Snowdepth":"8.000","Units":"in","Rept_Date":"2019-12-19 06"},"coordinates":[7514,5358]},{"type":"Point","properties":{"Station_ID":"KLKM4","Station_Nam":"KALKASKA","Latitude":"44.72800","Longitude":"-85.17270","Snowdepth":"8.000","Units":"in","Rept_Date":"2019-12-18 13"},"coordinates":[3495,5645]},{"type":"Point","properties":{"Station_ID":"GRFN8","Station_Nam":"UNIVERSITY","Latitude":"47.93330","Longitude":"-97.08330","Snowdepth":"8.000","Units":"in","Rept_Date":"2019-12-19 06"},"coordinates":[45,7639]},{"type":"Point","properties":{"Station_ID":"FDRN8","Station_Nam":"FARGO 3S","Latitude":"46.82930","Longitude":"-96.79620","Snowdepth":"8.000","Units":"in","Rept_Date":"2019-12-19 00"},"coordinates":[128,6952]},{"type":"Point","properties":{"Station_ID":"FAR","Station_Nam":"HECTOR INTERNATIONAL ARPT","Latitude":"46.91560","Longitude":"-96.81440","Snowdepth":"8.000","Units":"in","Rept_Date":"2019-12-19 00"},"coordinates":[123,7006]},{"type":"Point","properties":{"Station_ID":"CAN-ON-741","Station_Nam":"KIMBERLEY 2.7 WSW, CAN","Latitude":"44.37820","Longitude":"-80.56956","Snowdepth":"8.000","Units":"in","Rept_Date":"2019-12-18 18"},"coordinates":[4829,5427]},{"type":"Point","properties":{"Station_ID":"CAN-ON-118","Station_Nam":"DURHAM 1.4 S, CAN","Latitude":"44.16525","Longitude":"-80.82064","Snowdepth":"8.000","Units":"in","Rept_Date":"2019-12-18 12"},"coordinates":[4756,5295]},{"type":"Point","properties":{"Station_ID":"BOON6","Station_Nam":"BOONVILLE 4 SSW","Latitude":"43.43610","Longitude":"-75.36970","Snowdepth":"8.000","Units":"in","Rept_Date":"2019-12-18 12"},"coordinates":[6335,4841]},{"type":"Point","properties":{"Station_ID":"BFSW3","Station_Nam":"BIG FALLS-5 NW","Latitude":"44.63980","Longitude":"-89.11330","Snowdepth":"8.000","Units":"in","Rept_Date":"2019-12-18 13"},"coordinates":[2354,5590]},{"type":"Point","properties":{"Station_ID":"ATAN6","Station_Nam":"ATTICA 7 SW","Latitude":"42.81070","Longitude":"-78.39790","Snowdepth":"8.000","Units":"in","Rept_Date":"2019-12-18 11"},"coordinates":[5458,4452]},{"type":"Point","properties":{"Station_ID":"41.9492_079.7821","Station_Nam":"AMITY TWP (CLE0216)","Latitude":"41.94920","Longitude":"-79.78210","Snowdepth":"8.000","Units":"in","Rept_Date":"2019-12-19 00"},"coordinates":[5057,3916]},{"type":"Point","properties":{"Station_ID":"QLP","Station_Nam":"QLP","Latitude":"48.13920","Longitude":"-72.63830","Snowdepth":"7.756","Units":"in","Rept_Date":"2019-12-18 12"},"coordinates":[7127,7767]},{"type":"Point","properties":{"Station_ID":"FTHQ6","Station_Nam":"FORT HOPE","Latitude":"51.55820","Longitude":"-87.90510","Snowdepth":"7.640","Units":"in","Rept_Date":"2019-12-19 06"},"coordinates":[2704,9894]},{"type":"Point","properties":{"Station_ID":"WI-PC-10","Station_Nam":"RIVER FALLS 1.4 S, WI","Latitude":"44.83580","Longitude":"-92.62100","Snowdepth":"7.500","Units":"in","Rept_Date":"2019-12-18 13"},"coordinates":[1338,5712]},{"type":"Point","properties":{"Station_ID":"VT-OL-12","Station_Nam":"GREENSBORO 3.9 NNE, VT","Latitude":"44.63100","Longitude":"-72.28000","Snowdepth":"7.500","Units":"in","Rept_Date":"2019-12-18 11"},"coordinates":[7230,5584]},{"type":"Point","properties":{"Station_ID":"VT-BN-3","Station_Nam":"LANDGROVE 1.1 NNE, VT","Latitude":"43.29092","Longitude":"-72.83260","Snowdepth":"7.500","Units":"in","Rept_Date":"2019-12-18 12"},"coordinates":[7070,4751]},{"type":"Point","properties":{"Station_ID":"NY-SL-6","Station_Nam":"HANNAWA FALLS 0.1 SW, NY","Latitude":"44.61154","Longitude":"-74.97190","Snowdepth":"7.500","Units":"in","Rept_Date":"2019-12-18 12"},"coordinates":[6451,5572]},{"type":"Point","properties":{"Station_ID":"NY-CY-27","Station_Nam":"MORAVIA 5.9 ENE, NY","Latitude":"42.73491","Longitude":"-76.31137","Snowdepth":"7.500","Units":"in","Rept_Date":"2019-12-18 12"},"coordinates":[6062,4405]},{"type":"Point","properties":{"Station_ID":"MN-MK-12","Station_Nam":"WATKINS 3.2 WSW, MN","Latitude":"45.30107","Longitude":"-94.47460","Snowdepth":"7.500","Units":"in","Rept_Date":"2019-12-18 15"},"coordinates":[801,6001]},{"type":"Point","properties":{"Station_ID":"MN-MC-16","Station_Nam":"HUTCHINSON 0.1 ENE, MN","Latitude":"44.88633","Longitude":"-94.37503","Snowdepth":"7.500","Units":"in","Rept_Date":"2019-12-18 13"},"coordinates":[830,5743]},{"type":"Point","properties":{"Station_ID":"CAN-ON-132","Station_Nam":"ORANGEVILLE 5.1 SSW - CANWARN, CAN","Latitude":"43.87372","Longitude":"-80.13428","Snowdepth":"7.100","Units":"in","Rept_Date":"2019-12-18 14"},"coordinates":[4955,5113]},{"type":"Point","properties":{"Station_ID":"WELN6","Station_Nam":"WELLSVILLE","Latitude":"42.11730","Longitude":"-77.94750","Snowdepth":"7.000","Units":"in","Rept_Date":"2019-12-18 10"},"coordinates":[5589,4020]},{"type":"Point","properties":{"Station_ID":"WBLN6","Station_Nam":"WEST BLOOMFIELD","Latitude":"42.88460","Longitude":"-77.53400","Snowdepth":"7.000","Units":"in","Rept_Date":"2019-12-18 12"},"coordinates":[5708,4498]},{"type":"Point","properties":{"Station_ID":"WAMK1","Station_Nam":"WAMEGO 4W","Latitude":"39.21410","Longitude":"-96.37000","Snowdepth":"7.000","Units":"in","Rept_Date":"2019-12-18 13"},"coordinates":[252,2214]},{"type":"Point","properties":{"Station_ID":"WABM5","Station_Nam":"WABASHA","Latitude":"44.38500","Longitude":"-92.04860","Snowdepth":"7.000","Units":"in","Rept_Date":"2019-12-18 13"},"coordinates":[1504,5431]},{"type":"Point","properties":{"Station_ID":"VT-WH-29","Station_Nam":"BRATTLEBORO 0.7 S, VT","Latitude":"42.84030","Longitude":"-72.55580","Snowdepth":"7.000","Units":"in","Rept_Date":"2019-12-18 12"},"coordinates":[7150,4470]},{"type":"Point","properties":{"Station_ID":"VT-GI-3","Station_Nam":"ALBURGH 4.6 SSE, VT","Latitude":"44.91280","Longitude":"-73.26890","Snowdepth":"7.000","Units":"in","Rept_Date":"2019-12-18 14"},"coordinates":[6944,5760]},{"type":"Point","properties":{"Station_ID":"VT-ES-1","Station_Nam":"GRANBY 1.4 NW, VT","Latitude":"44.58330","Longitude":"-71.77870","Snowdepth":"7.000","Units":"in","Rept_Date":"2019-12-18 13"},"coordinates":[7376,5555]},{"type":"Point","properties":{"Station_ID":"UMNM5","Station_Nam":"UNIVERSITY OF MN ST. PAUL","Latitude":"44.99020","Longitude":"-93.17990","Snowdepth":"7.000","Units":"in","Rept_Date":"2019-12-18 14"},"coordinates":[1176,5808]},{"type":"Point","properties":{"Station_ID":"STPW3","Station_Nam":"STEVENS POINT","Latitude":"44.51130","Longitude":"-89.58550","Snowdepth":"7.000","Units":"in","Rept_Date":"2019-12-18 13"},"coordinates":[2217,5510]},{"type":"Point","properties":{"Station_ID":"PEKN6","Station_Nam":"PECK LAKE","Latitude":"43.11500","Longitude":"-74.42360","Snowdepth":"7.000","Units":"in","Rept_Date":"2019-12-18 13"},"coordinates":[6609,4641]},{"type":"Point","properties":{"Station_ID":"NY-OS-15","Station_Nam":"MINETTO 0.1 SE, NY","Latitude":"43.39771","Longitude":"-76.47960","Snowdepth":"7.000","Units":"in","Rept_Date":"2019-12-18 13"},"coordinates":[6014,4817]},{"type":"Point","properties":{"Station_ID":"NY-FK-7","Station_Nam":"SARANAC LAKE 6.2 N, NY","Latitude":"44.41359","Longitude":"-74.15211","Snowdepth":"7.000","Units":"in","Rept_Date":"2019-12-18 13"},"coordinates":[6688,5449]},{"type":"Point","properties":{"Station_ID":"NY-CL-12","Station_Nam":"SARANAC 0.8 SSE, NY","Latitude":"44.63980","Longitude":"-73.73848","Snowdepth":"7.000","Units":"in","Rept_Date":"2019-12-18 12"},"coordinates":[6808,5590]},{"type":"Point","properties":{"Station_ID":"MSP","Station_Nam":"MINNEAPOLIS-ST PAUL INTL AP","Latitude":"44.88310","Longitude":"-93.22890","Snowdepth":"7.000","Units":"in","Rept_Date":"2019-12-19 00"},"coordinates":[1162,5741]},{"type":"Point","properties":{"Station_ID":"MNJLCQKL","Station_Nam":"KIMBALL 2.6 NNW","Latitude":"45.34917","Longitude":"-94.31303","Snowdepth":"7.000","Units":"in","Rept_Date":"2019-12-18 12"},"coordinates":[848,6031]},{"type":"Point","properties":{"Station_ID":"MNFF4VWA","Station_Nam":"WABASHA 0.8 SSW","Latitude":"44.37265","Longitude":"-92.04459","Snowdepth":"7.000","Units":"in","Rept_Date":"2019-12-18 13"},"coordinates":[1505,5424]},{"type":"Point","properties":{"Station_ID":"MN-RM-2","Station_Nam":"NORTH SAINT PAUL 1.0 NNW, MN","Latitude":"45.02629","Longitude":"-93.00790","Snowdepth":"7.000","Units":"in","Rept_Date":"2019-12-18 10"},"coordinates":[1226,5830]},{"type":"Point","properties":{"Station_ID":"MN-DK-70","Station_Nam":"EAGAN 2.0 NNW, MN","Latitude":"44.84322","Longitude":"-93.17899","Snowdepth":"7.000","Units":"in","Rept_Date":"2019-12-18 15"},"coordinates":[1176,5716]},{"type":"Point","properties":{"Station_ID":"MN-CG-16","Station_Nam":"NORTH BRANCH 1.3 NNW, MN","Latitude":"45.53121","Longitude":"-92.97110","Snowdepth":"7.000","Units":"in","Rept_Date":"2019-12-18 12"},"coordinates":[1236,6144]},{"type":"Point","properties":{"Station_ID":"MECN6","Station_Nam":"MECKLENBURG 4 SW","Latitude":"42.44220","Longitude":"-76.75740","Snowdepth":"7.000","Units":"in","Rept_Date":"2019-12-18 12"},"coordinates":[5933,4223]},{"type":"Point","properties":{"Station_ID":"ME-SM-10","Station_Nam":"NORTH NEW PORTLAND 0.3 WSW, ME","Latitude":"44.92353","Longitude":"-70.02788","Snowdepth":"7.000","Units":"in","Rept_Date":"2019-12-18 12"},"coordinates":[7883,5766]},{"type":"Point","properties":{"Station_ID":"MA-HS-14","Station_Nam":"PLAINFIELD 2.4 ESE, MA","Latitude":"42.49792","Longitude":"-72.87769","Snowdepth":"7.000","Units":"in","Rept_Date":"2019-12-18 12"},"coordinates":[7057,4257]},{"type":"Point","properties":{"Station_ID":"MA-FR-13","Station_Nam":"CONWAY 2.9 NW, MA","Latitude":"42.54419","Longitude":"-72.72743","Snowdepth":"7.000","Units":"in","Rept_Date":"2019-12-18 12"},"coordinates":[7101,4286]},{"type":"Point","properties":{"Station_ID":"LKFM5","Station_Nam":"LAKEFIELD,MN","Latitude":"43.68330","Longitude":"-95.18330","Snowdepth":"7.000","Units":"in","Rept_Date":"2019-12-18 13"},"coordinates":[595,4995]},{"type":"Point","properties":{"Station_ID":"LGRN8","Station_Nam":"LIDGERWOOD,ND","Latitude":"46.06670","Longitude":"-97.16670","Snowdepth":"7.000","Units":"in","Rept_Date":"2019-12-18 13"},"coordinates":[21,6478]},{"type":"Point","properties":{"Station_ID":"LBKV1","Station_Nam":"LYE BROOK","Latitude":"43.05000","Longitude":"-73.03330","Snowdepth":"7.000","Units":"in","Rept_Date":"2019-12-19 06"},"coordinates":[7012,4601]},{"type":"Point","properties":{"Station_ID":"KSYR","Station_Nam":"SYRACUSE HANCOCK INTERNATIONAL  AIRPORT","Latitude":"43.11666","Longitude":"-76.10000","Snowdepth":"7.000","Units":"in","Rept_Date":"2019-12-19 06"},"coordinates":[6124,4642]},{"type":"Point","properties":{"Station_ID":"KMSP","Station_Nam":"MINNEAPOLIS-ST PAUL INTERNATIONAL","Latitude":"44.86666","Longitude":"-93.21666","Snowdepth":"7.000","Units":"in","Rept_Date":"2019-12-19 06"},"coordinates":[1165,5731]},{"type":"Point","properties":{"Station_ID":"KIMM5","Station_Nam":"KIMBALL 3N","Latitude":"45.35330","Longitude":"-94.30560","Snowdepth":"7.000","Units":"in","Rept_Date":"2019-12-18 12"},"coordinates":[850,6034]},{"type":"Point","properties":{"Station_ID":"INDM5","Station_Nam":"INDUS,MN","Latitude":"48.61670","Longitude":"-93.90000","Snowdepth":"7.000","Units":"in","Rept_Date":"2019-12-18 14"},"coordinates":[967,8064]},{"type":"Point","properties":{"Station_ID":"HGHN6","Station_Nam":"HIGHMARKET","Latitude":"43.57520","Longitude":"-75.52070","Snowdepth":"7.000","Units":"in","Rept_Date":"2019-12-18 10"},"coordinates":[6292,4927]},{"type":"Point","properties":{"Station_ID":"GILV1","Station_Nam":"GILMAN","Latitude":"44.41120","Longitude":"-71.71860","Snowdepth":"7.000","Units":"in","Rept_Date":"2019-12-18 14"},"coordinates":[7393,5448]},{"type":"Point","properties":{"Station_ID":"ETTW3","Station_Nam":"ETTRICK 4WNW","Latitude":"44.19000","Longitude":"-91.34240","Snowdepth":"7.000","Units":"in","Rept_Date":"2019-12-18 13"},"coordinates":[1708,5310]},{"type":"Point","properties":{"Station_ID":"ENFV1","Station_Nam":"ENOSBURG FALLS 2","Latitude":"44.90960","Longitude":"-72.81370","Snowdepth":"7.000","Units":"in","Rept_Date":"2019-12-18 10"},"coordinates":[7076,5758]},{"type":"Point","properties":{"Station_ID":"EAHV1","Station_Nam":"EAST HAVEN","Latitude":"44.64250","Longitude":"-71.89120","Snowdepth":"7.000","Units":"in","Rept_Date":"2019-12-18 12"},"coordinates":[7343,5592]},{"type":"Point","properties":{"Station_ID":"DSLM5","Station_Nam":"DASSEL 3SE","Latitude":"45.04180","Longitude":"-94.27810","Snowdepth":"7.000","Units":"in","Rept_Date":"2019-12-18 13"},"coordinates":[858,5840]},{"type":"Point","properties":{"Station_ID":"CVWP1","Station_Nam":"CHANDLER VALLEY 1SE","Latitude":"41.93010","Longitude":"-79.29700","Snowdepth":"7.000","Units":"in","Rept_Date":"2019-12-18 12"},"coordinates":[5198,3904]},{"type":"Point","properties":{"Station_ID":"CAN-ON-5","Station_Nam":"OWEN SOUND 1.5 NW - GSCA, CAN","Latitude":"44.57837","Longitude":"-80.95461","Snowdepth":"7.000","Units":"in","Rept_Date":"2019-12-18 13"},"coordinates":[4717,5552]},{"type":"Point","properties":{"Station_ID":"ANGN6","Station_Nam":"ANGELICA","Latitude":"42.31080","Longitude":"-78.02300","Snowdepth":"7.000","Units":"in","Rept_Date":"2019-12-18 12"},"coordinates":[5567,4141]},{"type":"Point","properties":{"Station_ID":"ANDM1","Station_Nam":"ANDOVER 2","Latitude":"44.65300","Longitude":"-70.79410","Snowdepth":"7.000","Units":"in","Rept_Date":"2019-12-18 11"},"coordinates":[7661,5598]},{"type":"Point","properties":{"Station_ID":"42.2002_079.8021","Station_Nam":"2 ESE North East  Trained Spotter (CLE0183)","Latitude":"42.20018","Longitude":"-79.80210","Snowdepth":"7.000","Units":"in","Rept_Date":"2019-12-19 00"},"coordinates":[5051,4072]},{"type":"Point","properties":{"Station_ID":"41.8966_080.1567","Station_Nam":"2 NW EDINBORO  SNOW SPOTTER (CLE0251)","Latitude":"41.89660","Longitude":"-80.15670","Snowdepth":"7.000","Units":"in","Rept_Date":"2019-12-19 00"},"coordinates":[4949,3883]},{"type":"Point","properties":{"Station_ID":"41.8275_080.5321","Station_Nam":"MONROE TWP  SNOW SPOTTER (X4180805)","Latitude":"41.82750","Longitude":"-80.53210","Snowdepth":"7.000","Units":"in","Rept_Date":"2019-12-19 02"},"coordinates":[4840,3840]},{"type":"Point","properties":{"Station_ID":"41.6544_080.1373","Station_Nam":"MEADVILLE  SNOW SPOTTER (CLE0342)","Latitude":"41.65440","Longitude":"-80.13730","Snowdepth":"7.000","Units":"in","Rept_Date":"2019-12-18 23"},"coordinates":[4954,3732]},{"type":"Point","properties":{"Station_ID":"WI-DN-5","Station_Nam":"ELK MOUND 1.3 NE, WI","Latitude":"44.88627","Longitude":"-91.66680","Snowdepth":"6.500","Units":"in","Rept_Date":"2019-12-18 13"},"coordinates":[1614,5743]},{"type":"Point","properties":{"Station_ID":"VT-OL-9","Station_Nam":"GREENSBORO 2.1 NNW, VT","Latitude":"44.60528","Longitude":"-72.30940","Snowdepth":"6.500","Units":"in","Rept_Date":"2019-12-18 12"},"coordinates":[7222,5568]},{"type":"Point","properties":{"Station_ID":"NY-LV-5","Station_Nam":"DANSVILLE 1.0 ENE, NY","Latitude":"42.56802","Longitude":"-77.67900","Snowdepth":"6.500","Units":"in","Rept_Date":"2019-12-18 12"},"coordinates":[5666,4301]},{"type":"Point","properties":{"Station_ID":"NY-AL-2","Station_Nam":"WEST ALMOND 3.6 SW, NY","Latitude":"42.27055","Longitude":"-77.94190","Snowdepth":"6.500","Units":"in","Rept_Date":"2019-12-18 12"},"coordinates":[5590,4116]},{"type":"Point","properties":{"Station_ID":"MN-HN-6","Station_Nam":"LONG LAKE 0.2 WSW, MN","Latitude":"44.98290","Longitude":"-93.57360","Snowdepth":"6.500","Units":"in","Rept_Date":"2019-12-18 15"},"coordinates":[1062,5803]},{"type":"Point","properties":{"Station_ID":"IN-MG-18","Station_Nam":"MOORESVILLE 3.8 NE, IN","Latitude":"39.62123","Longitude":"-86.34595","Snowdepth":"6.500","Units":"in","Rept_Date":"2019-12-18 12"},"coordinates":[3156,2468]},{"type":"Point","properties":{"Station_ID":"IL-SC-26","Station_Nam":"MASCOUTAH 1.5 SSE, IL","Latitude":"38.48795","Longitude":"-89.79602","Snowdepth":"6.500","Units":"in","Rept_Date":"2019-12-18 12"},"coordinates":[2156,1763]},{"type":"Point","properties":{"Station_ID":"CAN-QC-16","Station_Nam":"SAINT-ARMAND 3.6 W, CAN","Latitude":"45.02631","Longitude":"-73.08795","Snowdepth":"6.500","Units":"in","Rept_Date":"2019-12-18 12"},"coordinates":[6996,5830]},{"type":"Point","properties":{"Station_ID":"CAN-NS-105","Station_Nam":"SLUICE POINT 0.4 SSE, CAN","Latitude":"43.78767","Longitude":"-65.96486","Snowdepth":"6.500","Units":"in","Rept_Date":"2019-12-18 11"},"coordinates":[9060,5060]},{"type":"Point","properties":{"Station_ID":"CAN-MB-32","Station_Nam":"PINAWA 1.0 SW, CA","Latitude":"50.14747","Longitude":"-95.89020","Snowdepth":"6.500","Units":"in","Rept_Date":"2019-12-18 13"},"coordinates":[391,9016]},{"type":"Point","properties":{"Station_ID":"ME-YK-48","Station_Nam":"ACTON 2.7 NW, ME","Latitude":"43.56581","Longitude":"-70.94300","Snowdepth":"6.100","Units":"in","Rept_Date":"2019-12-18 12"},"coordinates":[7618,4922]},{"type":"Point","properties":{"Station_ID":"WRNM5","Station_Nam":"WORTHINGTON,MN","Latitude":"43.65440","Longitude":"-95.57920","Snowdepth":"6.000","Units":"in","Rept_Date":"2019-12-18 13"},"coordinates":[481,4977]},{"type":"Point","properties":{"Station_ID":"WLKM5","Station_Nam":"AH-GWAH-CHING","Latitude":"47.15000","Longitude":"-94.65000","Snowdepth":"6.000","Units":"in","Rept_Date":"2019-12-18 11"},"coordinates":[750,7152]},{"type":"Point","properties":{"Station_ID":"WDOM5","Station_Nam":"WINDOM","Latitude":"43.87700","Longitude":"-95.11590","Snowdepth":"6.000","Units":"in","Rept_Date":"2019-12-18 14"},"coordinates":[615,5115]},{"type":"Point","properties":{"Station_ID":"WBSN6","Station_Nam":"WEBSTER 2 NE","Latitude":"43.24190","Longitude":"-77.38820","Snowdepth":"6.000","Units":"in","Rept_Date":"2019-12-19 01"},"coordinates":[5751,4720]},{"type":"Point","properties":{"Station_ID":"VT-OL-2","Station_Nam":"BARTON 3.0 ENE, VT","Latitude":"44.75863","Longitude":"-72.11680","Snowdepth":"6.000","Units":"in","Rept_Date":"2019-12-18 12"},"coordinates":[7278,5664]},{"type":"Point","properties":{"Station_ID":"TOPN6","Station_Nam":"TUPPER LAKE SUNMOUNT","Latitude":"44.23070","Longitude":"-74.43820","Snowdepth":"6.000","Units":"in","Rept_Date":"2019-12-18 12"},"coordinates":[6605,5335]},{"type":"Point","properties":{"Station_ID":"THLM5","Station_Nam":"THEILMAN 1SSW","Latitude":"44.28130","Longitude":"-92.19430","Snowdepth":"6.000","Units":"in","Rept_Date":"2019-12-18 13"},"coordinates":[1461,5367]},{"type":"Point","properties":{"Station_ID":"SUTV1","Station_Nam":"SUTTON","Latitude":"44.61220","Longitude":"-72.04810","Snowdepth":"6.000","Units":"in","Rept_Date":"2019-12-18 13"},"coordinates":[7298,5573]},{"type":"Point","properties":{"Station_ID":"STIM5","Station_Nam":"STILLWATER 2SW","Latitude":"45.04540","Longitude":"-92.85220","Snowdepth":"6.000","Units":"in","Rept_Date":"2019-12-18 14"},"coordinates":[1271,5842]},{"type":"Point","properties":{"Station_ID":"SHHN6","Station_Nam":"SCHOHARIE VILLAGE","Latitude":"42.66500","Longitude":"-74.30360","Snowdepth":"6.000","Units":"in","Rept_Date":"2019-12-18 12"},"coordinates":[6644,4361]},{"type":"Point","properties":{"Station_ID":"SBOP1","Station_Nam":"SPRINGBORO","Latitude":"41.81660","Longitude":"-80.43330","Snowdepth":"6.000","Units":"in","Rept_Date":"2019-12-18 12"},"coordinates":[4868,3833]},{"type":"Point","properties":{"Station_ID":"RWGM5","Station_Nam":"RED WING","Latitude":"44.57120","Longitude":"-92.52830","Snowdepth":"6.000","Units":"in","Rept_Date":"2019-12-18 14"},"coordinates":[1365,5547]},{"type":"Point","properties":{"Station_ID":"RDGI3","Station_Nam":"RIDGEVILLE 3SSE","Latitude":"40.25520","Longitude":"-84.99580","Snowdepth":"6.000","Units":"in","Rept_Date":"2019-12-18 12"},"coordinates":[3547,2862]},{"type":"Point","properties":{"Station_ID":"RANM1","Station_Nam":"RANGELEY,ME","Latitude":"44.96670","Longitude":"-70.65000","Snowdepth":"6.000","Units":"in","Rept_Date":"2019-12-18 11"},"coordinates":[7703,5793]},{"type":"Point","properties":{"Station_ID":"RAMI2","Station_Nam":"RAMSEY","Latitude":"39.14790","Longitude":"-89.10230","Snowdepth":"6.000","Units":"in","Rept_Date":"2019-12-18 13"},"coordinates":[2357,2173]},{"type":"Point","properties":{"Station_ID":"PTBN3","Station_Nam":"DAM WITHIN","Latitude":"45.05000","Longitude":"-71.38330","Snowdepth":"6.000","Units":"in","Rept_Date":"2019-12-18 12"},"coordinates":[7490,5845]},{"type":"Point","properties":{"Station_ID":"PBAN8","Station_Nam":"SITE 1-3MI.N","Latitude":"48.97420","Longitude":"-97.23860","Snowdepth":"6.000","Units":"in","Rept_Date":"2019-12-18 13"},"coordinates":[0,8286]},{"type":"Point","properties":{"Station_ID":"PA-CW-8","Station_Nam":"SPRINGBORO 3.0 WNW, PA","Latitude":"41.81654","Longitude":"-80.42540","Snowdepth":"6.000","Units":"in","Rept_Date":"2019-12-18 12"},"coordinates":[4871,3833]},{"type":"Point","properties":{"Station_ID":"NY-TG-15","Station_Nam":"BERKSHIRE 1.9 ENE, NY","Latitude":"42.31910","Longitude":"-76.21940","Snowdepth":"6.000","Units":"in","Rept_Date":"2019-12-18 13"},"coordinates":[6089,4146]},{"type":"Point","properties":{"Station_ID":"NY-OG-61","Station_Nam":"SKANEATELES 0.8 NNW, NY","Latitude":"42.95538","Longitude":"-76.43362","Snowdepth":"6.000","Units":"in","Rept_Date":"2019-12-18 12"},"coordinates":[6027,4542]},{"type":"Point","properties":{"Station_ID":"NY-MD-10","Station_Nam":"CAZENOVIA 2.9 SE, NY","Latitude":"42.90003","Longitude":"-75.81140","Snowdepth":"6.000","Units":"in","Rept_Date":"2019-12-18 12"},"coordinates":[6207,4507]},{"type":"Point","properties":{"Station_ID":"NY-FK-9","Station_Nam":"GABRIELS 1.3 SE, NY","Latitude":"44.41934","Longitude":"-74.16194","Snowdepth":"6.000","Units":"in","Rept_Date":"2019-12-18 12"},"coordinates":[6685,5453]},{"type":"Point","properties":{"Station_ID":"NY-CR-5","Station_Nam":"MARATHON 1.0 NW, NY","Latitude":"42.45161","Longitude":"-76.04370","Snowdepth":"6.000","Units":"in","Rept_Date":"2019-12-18 12"},"coordinates":[6140,4228]},{"type":"Point","properties":{"Station_ID":"NUMN3","Station_Nam":"NORTHUMBERLAND","Latitude":"44.52830","Longitude":"-71.50440","Snowdepth":"6.000","Units":"in","Rept_Date":"2019-12-18 13"},"coordinates":[7455,5520]},{"type":"Point","properties":{"Station_ID":"NH-MR-45","Station_Nam":"NORTHFIELD 2.8 E, NH","Latitude":"43.43945","Longitude":"-71.53730","Snowdepth":"6.000","Units":"in","Rept_Date":"2019-12-18 12"},"coordinates":[7446,4843]},{"type":"Point","properties":{"Station_ID":"NH-MR-4","Station_Nam":"BOW 1.6 NW, NH","Latitude":"43.14994","Longitude":"-71.55650","Snowdepth":"6.000","Units":"in","Rept_Date":"2019-12-18 12"},"coordinates":[7440,4663]},{"type":"Point","properties":{"Station_ID":"MO-BN-11","Station_Nam":"COLUMBIA 0.9 SSE, MO","Latitude":"38.94250","Longitude":"-92.32000","Snowdepth":"6.000","Units":"in","Rept_Date":"2019-12-18 13"},"coordinates":[1425,2045]},{"type":"Point","properties":{"Station_ID":"MNP0GYWA","Station_Nam":"WALKER 2.0 SSE","Latitude":"47.07505","Longitude":"-94.56757","Snowdepth":"6.000","Units":"in","Rept_Date":"2019-12-18 11"},"coordinates":[774,7105]},{"type":"Point","properties":{"Station_ID":"MNKQ8XME","Station_Nam":"MELROSE 0.7 NW","Latitude":"45.68070","Longitude":"-94.82005","Snowdepth":"6.000","Units":"in","Rept_Date":"2019-12-18 13"},"coordinates":[701,6237]},{"type":"Point","properties":{"Station_ID":"MNHMOECS","Station_Nam":"HAZELTINE 1.9 NE","Latitude":"44.85545","Longitude":"-93.57125","Snowdepth":"6.000","Units":"in","Rept_Date":"2019-12-18 12"},"coordinates":[1062,5724]},{"type":"Point","properties":{"Station_ID":"MNG0GYSN","Station_Nam":"LONSDALE 1.1 SSW","Latitude":"44.46445","Longitude":"-93.43293","Snowdepth":"6.000","Units":"in","Rept_Date":"2019-12-18 12"},"coordinates":[1102,5481]},{"type":"Point","properties":{"Station_ID":"MNDI83EN","Station_Nam":"ELGIN 2.2 SSW","Latitude":"44.10044","Longitude":"-92.26947","Snowdepth":"6.000","Units":"in","Rept_Date":"2019-12-18 13"},"coordinates":[1440,5254]},{"type":"Point","properties":{"Station_ID":"MNCR4NWM","Station_Nam":"WINDOM 1.3 NNE","Latitude":"43.87817","Longitude":"-95.12003","Snowdepth":"6.000","Units":"in","Rept_Date":"2019-12-18 14"},"coordinates":[614,5116]},{"type":"Point","properties":{"Station_ID":"MNCN3","Station_Nam":"MANCHESTER,NH","Latitude":"42.98330","Longitude":"-71.40000","Snowdepth":"6.000","Units":"in","Rept_Date":"2019-12-18 13"},"coordinates":[7485,4559]},{"type":"Point","properties":{"Station_ID":"MN7M8EBJ","Station_Nam":"LUTSEN 15.7 NNW","Latitude":"47.85324","Longitude":"-89.92908","Snowdepth":"6.000","Units":"in","Rept_Date":"2019-12-18 14"},"coordinates":[2118,7589]},{"type":"Point","properties":{"Station_ID":"MN-SV-4","Station_Nam":"DONNELLY 2.9 NW, MN","Latitude":"45.71649","Longitude":"-96.06043","Snowdepth":"6.000","Units":"in","Rept_Date":"2019-12-18 13"},"coordinates":[341,6260]},{"type":"Point","properties":{"Station_ID":"MN-SC-2","Station_Nam":"PRIOR LAKE 2.0 W, MN","Latitude":"44.71250","Longitude":"-93.46360","Snowdepth":"6.000","Units":"in","Rept_Date":"2019-12-18 13"},"coordinates":[1094,5635]},{"type":"Point","properties":{"Station_ID":"MN-RC-1","Station_Nam":"MONTGOMERY 3.2 ENE, MN","Latitude":"44.46400","Longitude":"-93.51980","Snowdepth":"6.000","Units":"in","Rept_Date":"2019-12-18 11"},"coordinates":[1077,5480]},{"type":"Point","properties":{"Station_ID":"MN-HN-78","Station_Nam":"RICHFIELD 1.9 WNW, MN","Latitude":"44.89129","Longitude":"-93.31410","Snowdepth":"6.000","Units":"in","Rept_Date":"2019-12-18 11"},"coordinates":[1137,5746]},{"type":"Point","properties":{"Station_ID":"MN-HN-110","Station_Nam":"EDINA 1.9 SSE, MN","Latitude":"44.86875","Longitude":"-93.33940","Snowdepth":"6.000","Units":"in","Rept_Date":"2019-12-18 13"},"coordinates":[1130,5732]},{"type":"Point","properties":{"Station_ID":"MN-GH-28","Station_Nam":"CANNON FALLS 0.5 SE, MN","Latitude":"44.50866","Longitude":"-92.89526","Snowdepth":"6.000","Units":"in","Rept_Date":"2019-12-18 14"},"coordinates":[1258,5508]},{"type":"Point","properties":{"Station_ID":"MLVK1","Station_Nam":"MELVERN LAKE-MARAIS DES CYGNES RIVER","Latitude":"38.50400","Longitude":"-95.70370","Snowdepth":"6.000","Units":"in","Rept_Date":"2019-12-18 13"},"coordinates":[445,1772]},{"type":"Point","properties":{"Station_ID":"MLRM5","Station_Nam":"MELROSE","Latitude":"45.67710","Longitude":"-94.80200","Snowdepth":"6.000","Units":"in","Rept_Date":"2019-12-18 13"},"coordinates":[706,6235]},{"type":"Point","properties":{"Station_ID":"MALN6","Station_Nam":"MALONE","Latitude":"44.84180","Longitude":"-74.30600","Snowdepth":"6.000","Units":"in","Rept_Date":"2019-12-18 12"},"coordinates":[6643,5715]},{"type":"Point","properties":{"Station_ID":"MA-WR-22","Station_Nam":"FITCHBURG 2.0 NNE, MA","Latitude":"42.61671","Longitude":"-71.80100","Snowdepth":"6.000","Units":"in","Rept_Date":"2019-12-18 13"},"coordinates":[7369,4331]},{"type":"Point","properties":{"Station_ID":"LBRM5","Station_Nam":"LAKE BRONSON DAM","Latitude":"48.72410","Longitude":"-96.62180","Snowdepth":"6.000","Units":"in","Rept_Date":"2019-12-18 14"},"coordinates":[179,8131]},{"type":"Point","properties":{"Station_ID":"KSEM4","Station_Nam":"KALKASKA 11SE","Latitude":"44.58970","Longitude":"-85.04860","Snowdepth":"6.000","Units":"in","Rept_Date":"2019-12-18 13"},"coordinates":[3531,5559]},{"type":"Point","properties":{"Station_ID":"KS-JO-61","Station_Nam":"OVERLAND PARK 4.0 S, KS","Latitude":"38.85700","Longitude":"-94.68000","Snowdepth":"6.000","Units":"in","Rept_Date":"2019-12-18 13"},"coordinates":[741,1992]},{"type":"Point","properties":{"Station_ID":"KINM1","Station_Nam":"KINGFIELD","Latitude":"44.95950","Longitude":"-70.17530","Snowdepth":"6.000","Units":"in","Rept_Date":"2019-12-18 12"},"coordinates":[7840,5789]},{"type":"Point","properties":{"Station_ID":"JEFN3","Station_Nam":"JEFFERSON","Latitude":"44.41690","Longitude":"-71.50080","Snowdepth":"6.000","Units":"in","Rept_Date":"2019-12-18 12"},"coordinates":[7456,5451]},{"type":"Point","properties":{"Station_ID":"JAPN3","Station_Nam":"JAFFREY SILVER RANCH AIRPARK","Latitude":"42.80880","Longitude":"-72.00530","Snowdepth":"6.000","Units":"in","Rept_Date":"2019-12-18 12"},"coordinates":[7310,4451]},