{"type":"Topology","objects":{"snowdepth_geo":{"type":"GeometryCollection","name":"snowdepth","crs":{"type":"name","properties":{"name":"urn:ogc:def:crs:OGC:1.3:CRS84"}},"geometries":[{"type":"Point","properties":{"Station_ID":"PRKM4","Station_Nam":"MUNISING EAST","Latitude":"46.42580","Longitude":"-86.62000","Snowdepth":"76.500","Units":"in","Rept_Date":"2020-12-19 06"},"coordinates":[2385,6701]},{"type":"Point","properties":{"Station_ID":"NH-MR-6","Station_Nam":"DANBURY 2.2 ESE, NH","Latitude":"43.52000","Longitude":"-71.81900","Snowdepth":"48.000","Units":"in","Rept_Date":"2020-12-18 13"},"coordinates":[5710,4893]},{"type":"Point","properties":{"Station_ID":"NH-BK-29","Station_Nam":"SANBORNTON 2.3 WNW, NH","Latitude":"43.49730","Longitude":"-71.62800","Snowdepth":"42.500","Units":"in","Rept_Date":"2020-12-18 12"},"coordinates":[5753,4879]},{"type":"Point","properties":{"Station_ID":"VT-WR-10","Station_Nam":"WEST WINDSOR 1.7 S, VT","Latitude":"43.46164","Longitude":"-72.49197","Snowdepth":"38.000","Units":"in","Rept_Date":"2020-12-18 12"},"coordinates":[5559,4857]},{"type":"Point","properties":{"Station_ID":"VT-BN-3","Station_Nam":"LANDGROVE 1.1 NNE, VT","Latitude":"43.29092","Longitude":"-72.83260","Snowdepth":"36.000","Units":"in","Rept_Date":"2020-12-18 12"},"coordinates":[5483,4751]},{"type":"Point","properties":{"Station_ID":"LKPN3","Station_Nam":"LAKEPORT 2","Latitude":"43.54910","Longitude":"-71.46450","Snowdepth":"36.000","Units":"in","Rept_Date":"2020-12-18 14"},"coordinates":[5790,4911]},{"type":"Point","properties":{"Station_ID":"NH-BK-1","Station_Nam":"TILTON NORTHFIELD 3.3 NE, NH","Latitude":"43.48000","Longitude":"-71.55000","Snowdepth":"32.000","Units":"in","Rept_Date":"2020-12-18 12"},"coordinates":[5771,4868]},{"type":"Point","properties":{"Station_ID":"PERV1","Station_Nam":"PERU","Latitude":"43.26670","Longitude":"-72.90000","Snowdepth":"31.000","Units":"in","Rept_Date":"2020-12-18 12"},"coordinates":[5468,4736]},{"type":"Point","properties":{"Station_ID":"NY-SC-2","Station_Nam":"SCOTIA 1.1 NW, NY","Latitude":"42.84473","Longitude":"-73.97480","Snowdepth":"30.700","Units":"in","Rept_Date":"2020-12-18 11"},"coordinates":[5226,4473]},{"type":"Point","properties":{"Station_ID":"NY-BM-7","Station_Nam":"VESTAL 2.8 SSE, NY","Latitude":"42.04930","Longitude":"-76.02880","Snowdepth":"30.400","Units":"in","Rept_Date":"2020-12-18 14"},"coordinates":[4765,3978]},{"type":"Point","properties":{"Station_ID":"NH-MR-41","Station_Nam":"NEWBURY 1.6 NW, NH","Latitude":"43.33667","Longitude":"-72.06060","Snowdepth":"30.300","Units":"in","Rept_Date":"2020-12-18 12"},"coordinates":[5656,4779]},{"type":"Point","properties":{"Station_ID":"NY-MG-5","Station_Nam":"AMSTERDAM 1.0 NNW, NY","Latitude":"42.95467","Longitude":"-74.20085","Snowdepth":"30.200","Units":"in","Rept_Date":"2020-12-18 13"},"coordinates":[5175,4541]},{"type":"Point","properties":{"Station_ID":"NY-SR-16","Station_Nam":"BALLSTON SPA 2.9 ESE, NY","Latitude":"42.99000","Longitude":"-73.80000","Snowdepth":"30.000","Units":"in","Rept_Date":"2020-12-18 12"},"coordinates":[5265,4563]},{"type":"Point","properties":{"Station_ID":"NH-BK-9","Station_Nam":"MEREDITH 2.9 SSW, NH","Latitude":"43.62245","Longitude":"-71.53510","Snowdepth":"30.000","Units":"in","Rept_Date":"2020-12-18 12"},"coordinates":[5774,4957]},{"type":"Point","properties":{"Station_ID":"NY-OT-11","Station_Nam":"HARTWICK, NY","Latitude":"42.65990","Longitude":"-75.05000","Snowdepth":"29.500","Units":"in","Rept_Date":"2020-12-18 15"},"coordinates":[4985,4358]},{"type":"Point","properties":{"Station_ID":"NY-SR-4","Station_Nam":"SARATOGA SPRINGS 0.5 S, NY","Latitude":"43.06032","Longitude":"-73.78010","Snowdepth":"29.000","Units":"in","Rept_Date":"2020-12-18 11"},"coordinates":[5270,4607]},{"type":"Point","properties":{"Station_ID":"NH-GR-1","Station_Nam":"BRISTOL 0.4 SSE, NH","Latitude":"43.59490","Longitude":"-71.74140","Snowdepth":"29.000","Units":"in","Rept_Date":"2020-12-18 12"},"coordinates":[5728,4940]},{"type":"Point","properties":{"Station_ID":"DLSN6","Station_Nam":"DELANSON 2NE","Latitude":"42.76720","Longitude":"-74.17110","Snowdepth":"29.000","Units":"in","Rept_Date":"2020-12-18 12"},"coordinates":[5182,4425]},{"type":"Point","properties":{"Station_ID":"BGMN6","Station_Nam":"BINGHAMTON WFO","Latitude":"42.21160","Longitude":"-75.98580","Snowdepth":"29.000","Units":"in","Rept_Date":"2020-12-19 05"},"coordinates":[4774,4079]},{"type":"Point","properties":{"Station_ID":"WALN6","Station_Nam":"WALTON 2","Latitude":"42.18470","Longitude":"-75.14550","Snowdepth":"28.000","Units":"in","Rept_Date":"2020-12-18 10"},"coordinates":[4963,4062]},{"type":"Point","properties":{"Station_ID":"RVOP1","Station_Nam":"RENOVO,PA","Latitude":"41.33330","Longitude":"-77.73330","Snowdepth":"28.000","Units":"in","Rept_Date":"2020-12-18 12"},"coordinates":[4382,3533]},{"type":"Point","properties":{"Station_ID":"NY-FL-7","Station_Nam":"BROADALBIN 4.7 ESE, NY","Latitude":"43.03940","Longitude":"-74.10845","Snowdepth":"28.000","Units":"in","Rept_Date":"2020-12-18 14"},"coordinates":[5196,4594]},{"type":"Point","properties":{"Station_ID":"NY-DL-32","Station_Nam":"DELHI 6.6 WNW, NY","Latitude":"42.32118","Longitude":"-75.02991","Snowdepth":"28.000","Units":"in","Rept_Date":"2020-12-18 12"},"coordinates":[4989,4147]},{"type":"Point","properties":{"Station_ID":"NH-BK-7","Station_Nam":"LACONIA 7.9 E, NH","Latitude":"43.55415","Longitude":"-71.32310","Snowdepth":"28.000","Units":"in","Rept_Date":"2020-12-18 12"},"coordinates":[5822,4914]},{"type":"Point","properties":{"Station_ID":"COVP1","Station_Nam":"COVINGTON 2WSW","Latitude":"41.73330","Longitude":"-77.11670","Snowdepth":"28.000","Units":"in","Rept_Date":"2020-12-18 12"},"coordinates":[4520,3782]},{"type":"Point","properties":{"Station_ID":"SHHN6","Station_Nam":"SCHOHARIE VILLAGE","Latitude":"42.66500","Longitude":"-74.30360","Snowdepth":"27.000","Units":"in","Rept_Date":"2020-12-18 13"},"coordinates":[5152,4361]},{"type":"Point","properties":{"Station_ID":"PA-BF-14","Station_Nam":"SAYRE 2.8 WNW, PA","Latitude":"41.99750","Longitude":"-76.57260","Snowdepth":"27.000","Units":"in","Rept_Date":"2020-12-18 12"},"coordinates":[4643,3946]},{"type":"Point","properties":{"Station_ID":"MLDN6","Station_Nam":"EMMONS","Latitude":"42.46940","Longitude":"-75.01050","Snowdepth":"27.000","Units":"in","Rept_Date":"2020-12-18 12"},"coordinates":[4993,4240]},{"type":"Point","properties":{"Station_ID":"ME-CM-133","Station_Nam":"STANDISH 1.3 SSW, ME","Latitude":"43.71756","Longitude":"-70.55923","Snowdepth":"26.100","Units":"in","Rept_Date":"2020-12-18 12"},"coordinates":[5993,5016]},{"type":"Point","properties":{"Station_ID":"VT-WR-16","Station_Nam":"HARTLAND 1.6 NW, VT","Latitude":"43.55472","Longitude":"-72.42371","Snowdepth":"26.000","Units":"in","Rept_Date":"2020-12-18 12"},"coordinates":[5575,4915]},{"type":"Point","properties":{"Station_ID":"PA-BF-20","Station_Nam":"SAYRE 0.7 S, PA","Latitude":"41.97510","Longitude":"-76.52100","Snowdepth":"26.000","Units":"in","Rept_Date":"2020-12-18 14"},"coordinates":[4654,3932]},{"type":"Point","properties":{"Station_ID":"GNEN6","Station_Nam":"GREENE","Latitude":"42.32440","Longitude":"-75.77170","Snowdepth":"26.000","Units":"in","Rept_Date":"2020-12-18 14"},"coordinates":[4822,4149]},{"type":"Point","properties":{"Station_ID":"NY-SC-20","Station_Nam":"ROTTERDAM 0.9 NW, NY","Latitude":"42.78862","Longitude":"-73.96671","Snowdepth":"25.500","Units":"in","Rept_Date":"2020-12-18 11"},"coordinates":[5228,4438]},{"type":"Point","properties":{"Station_ID":"NY-AB-54","Station_Nam":"ALTAMONT 2.9 SW, NY","Latitude":"42.68182","Longitude":"-74.08326","Snowdepth":"25.500","Units":"in","Rept_Date":"2020-12-18 12"},"coordinates":[5202,4372]},{"type":"Point","properties":{"Station_ID":"WITN6","Station_Nam":"WHITNEY POINT DAM","Latitude":"42.34180","Longitude":"-75.96530","Snowdepth":"25.000","Units":"in","Rept_Date":"2020-12-18 12"},"coordinates":[4779,4160]},{"type":"Point","properties":{"Station_ID":"NY-TG-15","Station_Nam":"BERKSHIRE 1.9 ENE, NY","Latitude":"42.31910","Longitude":"-76.21940","Snowdepth":"25.000","Units":"in","Rept_Date":"2020-12-18 13"},"coordinates":[4722,4146]},{"type":"Point","properties":{"Station_ID":"NY-SC-27","Station_Nam":"NISKAYUNA 2.9 SSE, NY","Latitude":"42.77911","Longitude":"-73.87242","Snowdepth":"25.000","Units":"in","Rept_Date":"2020-12-18 12"},"coordinates":[5249,4432]},{"type":"Point","properties":{"Station_ID":"NY-BM-1","Station_Nam":"CHENANGO FORKS 3.0 SE, NY","Latitude":"42.19300","Longitude":"-75.84800","Snowdepth":"25.000","Units":"in","Rept_Date":"2020-12-18 13"},"coordinates":[4805,4068]},{"type":"Point","properties":{"Station_ID":"NY-AB-1","Station_Nam":"ALTAMONT 2.7 SSW, NY","Latitude":"42.66696","Longitude":"-74.05090","Snowdepth":"25.000","Units":"in","Rept_Date":"2020-12-18 12"},"coordinates":[5209,4362]},{"type":"Point","properties":{"Station_ID":"NH-SL-3","Station_Nam":"WEST UNITY 0.7 WSW, NH","Latitude":"43.28652","Longitude":"-72.32970","Snowdepth":"25.000","Units":"in","Rept_Date":"2020-12-18 12"},"coordinates":[5596,4748]},{"type":"Point","properties":{"Station_ID":"NH-GR-55","Station_Nam":"BRISTOL 3.7 E, NH","Latitude":"43.60517","Longitude":"-71.67158","Snowdepth":"25.000","Units":"in","Rept_Date":"2020-12-18 11"},"coordinates":[5744,4946]},{"type":"Point","properties":{"Station_ID":"NH-CR-34","Station_Nam":"WAKEFIELD 6.0 NNW, NH","Latitude":"43.63917","Longitude":"-71.05210","Snowdepth":"25.000","Units":"in","Rept_Date":"2020-12-18 12"},"coordinates":[5883,4967]},{"type":"Point","properties":{"Station_ID":"ESDN6","Station_Nam":"EAST SIDNEY","Latitude":"42.33290","Longitude":"-75.22960","Snowdepth":"25.000","Units":"in","Rept_Date":"2020-12-18 11"},"coordinates":[4944,4155]},{"type":"Point","properties":{"Station_ID":"NY-RN-5","Station_Nam":"TROY 3.3 NE, NY","Latitude":"42.77302","Longitude":"-73.63743","Snowdepth":"24.000","Units":"in","Rept_Date":"2020-12-18 12"},"coordinates":[5302,4428]},{"type":"Point","properties":{"Station_ID":"NY-GR-7","Station_Nam":"GREENVILLE 0.7 E, NY","Latitude":"42.41400","Longitude":"-74.00900","Snowdepth":"24.000","Units":"in","Rept_Date":"2020-12-18 11"},"coordinates":[5218,4205]},{"type":"Point","properties":{"Station_ID":"NY-GR-14","Station_Nam":"LEXINGTON 1.5 N, NY","Latitude":"42.26024","Longitude":"-74.35875","Snowdepth":"24.000","Units":"in","Rept_Date":"2020-12-18 12"},"coordinates":[5140,4109]},{"type":"Point","properties":{"Station_ID":"CNTP1","Station_Nam":"CANTON","Latitude":"41.65160","Longitude":"-76.84630","Snowdepth":"24.000","Units":"in","Rept_Date":"2020-12-18 13"},"coordinates":[4581,3731]},{"type":"Point","properties":{"Station_ID":"VT-RT-25","Station_Nam":"WALLINGFORD 2.7 SSW, VT","Latitude":"43.43371","Longitude":"-72.99031","Snowdepth":"23.800","Units":"in","Rept_Date":"2020-12-18 12"},"coordinates":[5447,4839]},{"type":"Point","properties":{"Station_ID":"VT-BN-7","Station_Nam":"MANCHESTER 2.8 ENE, VT","Latitude":"43.17274","Longitude":"-73.01811","Snowdepth":"23.500","Units":"in","Rept_Date":"2020-12-18 12"},"coordinates":[5441,4677]},{"type":"Point","properties":{"Station_ID":"TGRP1","Station_Nam":"TIOGA RIVER AT TIOGA","Latitude":"41.90830","Longitude":"-77.12920","Snowdepth":"23.000","Units":"in","Rept_Date":"2020-12-18 12"},"coordinates":[4518,3890]},{"type":"Point","properties":{"Station_ID":"NY-CN-9","Station_Nam":"NORWICH 5.4 W, NY","Latitude":"42.53356","Longitude":"-75.63060","Snowdepth":"23.000","Units":"in","Rept_Date":"2020-12-18 12"},"coordinates":[4854,4279]},{"type":"Point","properties":{"Station_ID":"NY-BM-21","Station_Nam":"WINDSOR 8.0 SE, NY","Latitude":"42.00992","Longitude":"-75.51420","Snowdepth":"23.000","Units":"in","Rept_Date":"2020-12-18 12"},"coordinates":[4880,3954]},{"type":"Point","properties":{"Station_ID":"NRWN6","Station_Nam":"NORWICH","Latitude":"42.51170","Longitude":"-75.51970","Snowdepth":"23.000","Units":"in","Rept_Date":"2020-12-18 11"},"coordinates":[4879,4266]},{"type":"Point","properties":{"Station_ID":"NH-BK-2","Station_Nam":"BELMONT 1.7 SW, NH","Latitude":"43.43556","Longitude":"-71.50690","Snowdepth":"23.000","Units":"in","Rept_Date":"2020-12-18 12"},"coordinates":[5781,4841]},{"type":"Point","properties":{"Station_ID":"ME-YK-46","Station_Nam":"PARSONSFIELD 3.9 NE, ME","Latitude":"43.76517","Longitude":"-70.86860","Snowdepth":"23.000","Units":"in","Rept_Date":"2020-12-18 12"},"coordinates":[5924,5046]},{"type":"Point","properties":{"Station_ID":"CNKN6","Station_Nam":"CONKLINGVILLE DAM","Latitude":"43.32030","Longitude":"-73.92560","Snowdepth":"23.000","Units":"in","Rept_Date":"2020-12-18 13"},"coordinates":[5237,4769]},{"type":"Point","properties":{"Station_ID":"VT-WR-23","Station_Nam":"HARTFORD 1.0 NNW, VT","Latitude":"43.67809","Longitude":"-72.37554","Snowdepth":"22.800","Units":"in","Rept_Date":"2020-12-18 13"},"coordinates":[5585,4992]},{"type":"Point","properties":{"Station_ID":"VT-WH-26","Station_Nam":"WESTMINSTER 5.5 NW, VT","Latitude":"43.12572","Longitude":"-72.53419","Snowdepth":"22.500","Units":"in","Rept_Date":"2020-12-18 12"},"coordinates":[5550,4648]},{"type":"Point","properties":{"Station_ID":"VT-RT-24","Station_Nam":"MIDDLETOWN SPRINGS 0.9 WNW, VT","Latitude":"43.49194","Longitude":"-73.13350","Snowdepth":"22.500","Units":"in","Rept_Date":"2020-12-18 12"},"coordinates":[5415,4876]},{"type":"Point","properties":{"Station_ID":"NY-TG-26","Station_Nam":"CANDOR 0.7 NW, NY","Latitude":"42.23428","Longitude":"-76.34758","Snowdepth":"22.500","Units":"in","Rept_Date":"2020-12-18 12"},"coordinates":[4693,4093]},{"type":"Point","properties":{"Station_ID":"NY-AB-47","Station_Nam":"DELMAR 1.0 S, NY","Latitude":"42.61013","Longitude":"-73.83172","Snowdepth":"22.500","Units":"in","Rept_Date":"2020-12-18 12"},"coordinates":[5258,4327]},{"type":"Point","properties":{"Station_ID":"MA-BE-21","Station_Nam":"CHESHIRE 0.5 NNW, MA","Latitude":"42.56315","Longitude":"-73.15701","Snowdepth":"22.500","Units":"in","Rept_Date":"2020-12-18 12"},"coordinates":[5410,4298]},{"type":"Point","properties":{"Station_ID":"WOLN3","Station_Nam":"WOLFEBORO","Latitude":"43.59020","Longitude":"-71.20190","Snowdepth":"22.000","Units":"in","Rept_Date":"2020-12-18 12"},"coordinates":[5849,4937]},{"type":"Point","properties":{"Station_ID":"WDSV1","Station_Nam":"WOODSTOCK","Latitude":"43.63030","Longitude":"-72.50720","Snowdepth":"22.000","Units":"in","Rept_Date":"2020-12-18 13"},"coordinates":[5556,4962]},{"type":"Point","properties":{"Station_ID":"NY-TG-5","Station_Nam":"BERKSHIRE 2.0 N, NY","Latitude":"42.33463","Longitude":"-76.18990","Snowdepth":"22.000","Units":"in","Rept_Date":"2020-12-18 12"},"coordinates":[4729,4156]},{"type":"Point","properties":{"Station_ID":"NY-BM-24","Station_Nam":"BINGHAMTON 1.3 ENE, NY","Latitude":"42.10981","Longitude":"-75.88580","Snowdepth":"22.000","Units":"in","Rept_Date":"2020-12-18 13"},"coordinates":[4797,4016]},{"type":"Point","properties":{"Station_ID":"NH-MR-63","Station_Nam":"SUTTON MILLS 0.1 ENE, NH","Latitude":"43.33522","Longitude":"-71.95126","Snowdepth":"22.000","Units":"in","Rept_Date":"2020-12-18 12"},"coordinates":[5681,4778]},{"type":"Point","properties":{"Station_ID":"NH-MR-26","Station_Nam":"PITTSFIELD 0.2 SSW, NH","Latitude":"43.29880","Longitude":"-71.33450","Snowdepth":"22.000","Units":"in","Rept_Date":"2020-12-18 13"},"coordinates":[5819,4756]},{"type":"Point","properties":{"Station_ID":"ME-YK-3","Station_Nam":"HOLLIS CENTER 5.4 NW, ME","Latitude":"43.64750","Longitude":"-70.67510","Snowdepth":"22.000","Units":"in","Rept_Date":"2020-12-18 12"},"coordinates":[5967,4972]},{"type":"Point","properties":{"Station_ID":"HOLM1","Station_Nam":"HOLLIS","Latitude":"43.64750","Longitude":"-70.67490","Snowdepth":"22.000","Units":"in","Rept_Date":"2020-12-18 12"},"coordinates":[5967,4972]},{"type":"Point","properties":{"Station_ID":"NH-MR-60","Station_Nam":"SOUTH SUTTON 1.3 SE, NH","Latitude":"43.29531","Longitude":"-71.90238","Snowdepth":"21.500","Units":"in","Rept_Date":"2020-12-18 13"},"coordinates":[5692,4753]},{"type":"Point","properties":{"Station_ID":"NH-MR-55","Station_Nam":"CANTERBURY 2.5 SSW, NH","Latitude":"43.30277","Longitude":"-71.57893","Snowdepth":"21.500","Units":"in","Rept_Date":"2020-12-18 13"},"coordinates":[5764,4758]},{"type":"Point","properties":{"Station_ID":"WLLP1","Station_Nam":"WELLSBORO 4 SW","Latitude":"41.70030","Longitude":"-77.38940","Snowdepth":"21.000","Units":"in","Rept_Date":"2020-12-18 12"},"coordinates":[4459,3761]},{"type":"Point","properties":{"Station_ID":"VT-WH-30","Station_Nam":"MARLBORO 2.0 NNE, VT","Latitude":"42.88484","Longitude":"-72.70935","Snowdepth":"21.000","Units":"in","Rept_Date":"2020-12-18 12"},"coordinates":[5510,4498]},{"type":"Point","properties":{"Station_ID":"VT-WH-17","Station_Nam":"ROCKINGHAM 1.1 NNE, VT","Latitude":"43.20388","Longitude":"-72.48222","Snowdepth":"21.000","Units":"in","Rept_Date":"2020-12-18 12"},"coordinates":[5561,4696]},{"type":"Point","properties":{"Station_ID":"VT-RT-13","Station_Nam":"WEST RUTLAND 0.9 SSE, VT","Latitude":"43.58063","Longitude":"-73.04067","Snowdepth":"21.000","Units":"in","Rept_Date":"2020-12-18 13"},"coordinates":[5436,4931]},{"type":"Point","properties":{"Station_ID":"NY-WR-17","Station_Nam":"LAKE GEORGE 1.0 N, NY","Latitude":"43.44030","Longitude":"-73.71260","Snowdepth":"21.000","Units":"in","Rept_Date":"2020-12-18 11"},"coordinates":[5285,4844]},{"type":"Point","properties":{"Station_ID":"NY-AB-23","Station_Nam":"ALBANY 0.7 SW, NY","Latitude":"42.66019","Longitude":"-73.81030","Snowdepth":"21.000","Units":"in","Rept_Date":"2020-12-18 12"},"coordinates":[5263,4358]},{"type":"Point","properties":{"Station_ID":"NH-MR-51","Station_Nam":"CONTOOCOOK 2.4 NNW, NH","Latitude":"43.25532","Longitude":"-71.73462","Snowdepth":"21.000","Units":"in","Rept_Date":"2020-12-18 14"},"coordinates":[5729,4728]},{"type":"Point","properties":{"Station_ID":"MRLV1","Station_Nam":"MARLBORO","Latitude":"42.86000","Longitude":"-72.72000","Snowdepth":"21.000","Units":"in","Rept_Date":"2020-12-18 12"},"coordinates":[5508,4483]},{"type":"Point","properties":{"Station_ID":"CON","Station_Nam":"CONCORD MUNI ARPT","Latitude":"43.20280","Longitude":"-71.50220","Snowdepth":"21.000","Units":"in","Rept_Date":"2020-12-18 12"},"coordinates":[5782,4696]},{"type":"Point","properties":{"Station_ID":"COBN6","Station_Nam":"COBLESKILL 2ESE","Latitude":"42.66710","Longitude":"-74.44230","Snowdepth":"21.000","Units":"in","Rept_Date":"2020-12-18 12"},"coordinates":[5121,4363]},{"type":"Point","properties":{"Station_ID":"BSKN6","Station_Nam":"BUSKIRK","Latitude":"42.93610","Longitude":"-73.43250","Snowdepth":"21.000","Units":"in","Rept_Date":"2020-12-18 14"},"coordinates":[5348,4530]},{"type":"Point","properties":{"Station_ID":"NY-CR-5","Station_Nam":"MARATHON 1.0 NW, NY","Latitude":"42.45161","Longitude":"-76.04370","Snowdepth":"20.000","Units":"in","Rept_Date":"2020-12-18 12"},"coordinates":[4761,4228]},{"type":"Point","properties":{"Station_ID":"NH-MR-47","Station_Nam":"DUNBARTON 3.8 SE, NH","Latitude":"43.08532","Longitude":"-71.54419","Snowdepth":"20.000","Units":"in","Rept_Date":"2020-12-18 11"},"coordinates":[5772,4623]},{"type":"Point","properties":{"Station_ID":"NH-MR-45","Station_Nam":"NORTHFIELD 2.8 E, NH","Latitude":"43.43945","Longitude":"-71.53730","Snowdepth":"20.000","Units":"in","Rept_Date":"2020-12-18 12"},"coordinates":[5774,4843]},{"type":"Point","properties":{"Station_ID":"ME-CM-143","Station_Nam":"PORTLAND 5.4 NW, ME","Latitude":"43.72010","Longitude":"-70.28710","Snowdepth":"20.000","Units":"in","Rept_Date":"2020-12-18 12"},"coordinates":[6055,5018]},{"type":"Point","properties":{"Station_ID":"LAPP1","Station_Nam":"LAPORTE,PA","Latitude":"41.42470","Longitude":"-76.49250","Snowdepth":"20.000","Units":"in","Rept_Date":"2020-12-18 11"},"coordinates":[4661,3590]},{"type":"Point","properties":{"Station_ID":"DSRP1","Station_Nam":"DUSHORE","Latitude":"41.52160","Longitude":"-76.40430","Snowdepth":"20.000","Units":"in","Rept_Date":"2020-12-18 12"},"coordinates":[4680,3650]},{"type":"Point","properties":{"Station_ID":"NY-AB-59","Station_Nam":"ALBANY 2.4 W, NY","Latitude":"42.66840","Longitude":"-73.84706","Snowdepth":"19.500","Units":"in","Rept_Date":"2020-12-18 13"},"coordinates":[5255,4363]},{"type":"Point","properties":{"Station_ID":"QOU","Station_Nam":"QOU","Latitude":"50.79250","Longitude":"-69.67470","Snowdepth":"19.449","Units":"in","Rept_Date":"2020-12-18 12"},"coordinates":[6192,9418]},{"type":"Point","properties":{"Station_ID":"NH-RC-65","Station_Nam":"DERRY 4.2 NW, NH","Latitude":"42.93825","Longitude":"-71.34552","Snowdepth":"19.100","Units":"in","Rept_Date":"2020-12-18 12"},"coordinates":[5817,4531]},{"type":"Point","properties":{"Station_ID":"WHPN3","Station_Nam":"HOPKINTON LAKE","Latitude":"43.18900","Longitude":"-71.74600","Snowdepth":"19.000","Units":"in","Rept_Date":"2020-12-18 12"},"coordinates":[5727,4687]},{"type":"Point","properties":{"Station_ID":"VT-RT-1","Station_Nam":"WEST RUTLAND 1.2 N, VT","Latitude":"43.61068","Longitude":"-73.04660","Snowdepth":"19.000","Units":"in","Rept_Date":"2020-12-18 11"},"coordinates":[5435,4950]},{"type":"Point","properties":{"Station_ID":"NY-CM-24","Station_Nam":"CHEMUNG 5.7 N, NY","Latitude":"42.09130","Longitude":"-76.62810","Snowdepth":"19.000","Units":"in","Rept_Date":"2020-12-18 14"},"coordinates":[4630,4004]},{"type":"Point","properties":{"Station_ID":"NH-RC-48","Station_Nam":"NORTHWOOD 2.9 WSW, NH","Latitude":"43.20114","Longitude":"-71.25750","Snowdepth":"19.000","Units":"in","Rept_Date":"2020-12-18 12"},"coordinates":[5837,4695]},{"type":"Point","properties":{"Station_ID":"NH-RC-18","Station_Nam":"DEERFIELD 3.2 WSW, NH","Latitude":"43.13350","Longitude":"-71.27940","Snowdepth":"19.000","Units":"in","Rept_Date":"2020-12-18 12"},"coordinates":[5832,4653]},{"type":"Point","properties":{"Station_ID":"ME-YK-75","Station_Nam":"BUXTON 2.8 W, ME","Latitude":"43.63735","Longitude":"-70.57619","Snowdepth":"19.000","Units":"in","Rept_Date":"2020-12-18 12"},"coordinates":[5990,4966]},{"type":"Point","properties":{"Station_ID":"ME-YK-67","Station_Nam":"CORNISH 5.6 ESE, ME","Latitude":"43.78308","Longitude":"-70.69539","Snowdepth":"19.000","Units":"in","Rept_Date":"2020-12-18 12"},"coordinates":[5963,5057]},{"type":"Point","properties":{"Station_ID":"LOKP1","Station_Nam":"SEWAGE PLANT","Latitude":"41.11670","Longitude":"-77.45000","Snowdepth":"19.000","Units":"in","Rept_Date":"2020-12-18 12"},"coordinates":[4445,3398]},{"type":"Point","properties":{"Station_ID":"IPT","Station_Nam":"WILLIAMSPORT RGNL","Latitude":"41.24190","Longitude":"-76.92110","Snowdepth":"19.000","Units":"in","Rept_Date":"2020-12-18 12"},"coordinates":[4564,3476]},{"type":"Point","properties":{"Station_ID":"DURM1","Station_Nam":"DURHAM","Latitude":"43.99960","Longitude":"-70.09630","Snowdepth":"19.000","Units":"in","Rept_Date":"2020-12-18 12"},"coordinates":[6097,5192]},{"type":"Point","properties":{"Station_ID":"COPN6","Station_Nam":"COOPERSTOWN","Latitude":"42.71660","Longitude":"-74.92660","Snowdepth":"19.000","Units":"in","Rept_Date":"2020-12-19 05"},"coordinates":[5012,4393]},{"type":"Point","properties":{"Station_ID":"PA-SS-19","Station_Nam":"HARFORD 1.4 NNE, PA","Latitude":"41.80262","Longitude":"-75.69715","Snowdepth":"18.500","Units":"in","Rept_Date":"2020-12-18 12"},"coordinates":[4839,3825]},{"type":"Point","properties":{"Station_ID":"NH-MR-4","Station_Nam":"BOW 1.6 NW, NH","Latitude":"43.14994","Longitude":"-71.55650","Snowdepth":"18.500","Units":"in","Rept_Date":"2020-12-18 14"},"coordinates":[5769,4663]},{"type":"Point","properties":{"Station_ID":"ME-CM-125","Station_Nam":"GRAY 2.9 SSE, ME","Latitude":"43.84640","Longitude":"-70.31340","Snowdepth":"18.500","Units":"in","Rept_Date":"2020-12-18 12"},"coordinates":[6049,5096]},{"type":"Point","properties":{"Station_ID":"MA-FR-22","Station_Nam":"ASHFIELD 1.4 NE, MA","Latitude":"42.54694","Longitude":"-72.76361","Snowdepth":"18.300","Units":"in","Rept_Date":"2020-12-18 12"},"coordinates":[5498,4288]},{"type":"Point","properties":{"Station_ID":"WYOP1","Station_Nam":"WYOMING COUNTY EOC","Latitude":"41.53940","Longitude":"-75.92690","Snowdepth":"18.000","Units":"in","Rept_Date":"2020-12-18 13"},"coordinates":[4788,3661]},{"type":"Point","properties":{"Station_ID":"VT-WR-2","Station_Nam":"POMFRET 2.6 N, VT","Latitude":"43.74230","Longitude":"-72.52550","Snowdepth":"18.000","Units":"in","Rept_Date":"2020-12-18 12"},"coordinates":[5552,5031]},{"type":"Point","properties":{"Station_ID":"VT-BN-12","Station_Nam":"STAMFORD 5.0 NNE, VT","Latitude":"42.82000","Longitude":"-73.02000","Snowdepth":"18.000","Units":"in","Rept_Date":"2020-12-18 21"},"coordinates":[5441,4458]},{"type":"Point","properties":{"Station_ID":"PA-SS-16","Station_Nam":"NEW MILFORD 1.6 SSE, PA","Latitude":"41.85540","Longitude":"-75.71110","Snowdepth":"18.000","Units":"in","Rept_Date":"2020-12-18 14"},"coordinates":[4836,3858]},{"type":"Point","properties":{"Station_ID":"PA-EL-1","Station_Nam":"ST. MARYS 1.7 SE, PA","Latitude":"41.41069","Longitude":"-78.53480","Snowdepth":"18.000","Units":"in","Rept_Date":"2020-12-18 11"},"coordinates":[4202,3581]},{"type":"Point","properties":{"Station_ID":"NY-RN-20","Station_Nam":"TROY 2.1 NNE, NY","Latitude":"42.75930","Longitude":"-73.65283","Snowdepth":"18.000","Units":"in","Rept_Date":"2020-12-18 13"},"coordinates":[5298,4420]},{"type":"Point","properties":{"Station_ID":"NY-RN-15","Station_Nam":"TROY 0.7 E, NY","Latitude":"42.73558","Longitude":"-73.66252","Snowdepth":"18.000","Units":"in","Rept_Date":"2020-12-18 12"},"coordinates":[5296,4405]},{"type":"Point","properties":{"Station_ID":"NY-GR-5","Station_Nam":"NEW BALTIMORE 0.2 SE, NY","Latitude":"42.44294","Longitude":"-73.78660","Snowdepth":"18.000","Units":"in","Rept_Date":"2020-12-18 12"},"coordinates":[5268,4223]},{"type":"Point","properties":{"Station_ID":"NY-FL-9","Station_Nam":"NORTHVILLE 0.6 N, NY","Latitude":"43.23027","Longitude":"-74.17222","Snowdepth":"18.000","Units":"in","Rept_Date":"2020-12-18 11"},"coordinates":[5182,4713]},{"type":"Point","properties":{"Station_ID":"NY-DL-25","Station_Nam":"HOBART 4.8 ESE, NY","Latitude":"42.35230","Longitude":"-74.57830","Snowdepth":"18.000","Units":"in","Rept_Date":"2020-12-18 12"},"coordinates":[5091,4167]},{"type":"Point","properties":{"Station_ID":"KALB","Station_Nam":"ALBANY INTERNATIONAL AIRPORT","Latitude":"42.75000","Longitude":"-73.80000","Snowdepth":"18.000","Units":"in","Rept_Date":"2020-12-19 06"},"coordinates":[5265,4414]},{"type":"Point","properties":{"Station_ID":"HTLN3","Station_Nam":"HERMIT LAKE SNOWPLOT","Latitude":"44.26130","Longitude":"-71.28330","Snowdepth":"18.000","Units":"in","Rept_Date":"2020-12-18 09"},"coordinates":[5831,5354]},{"type":"Point","properties":{"Station_ID":"ALB","Station_Nam":"ALBANY INTL AP","Latitude":"42.74920","Longitude":"-73.80190","Snowdepth":"18.000","Units":"in","Rept_Date":"2020-12-19 00"},"coordinates":[5265,4414]},{"type":"Point","properties":{"Station_ID":"MLZ","Station_Nam":"MLZ","Latitude":"50.66170","Longitude":"-68.82360","Snowdepth":"17.598","Units":"in","Rept_Date":"2020-12-18 12"},"coordinates":[6383,9336]},{"type":"Point","properties":{"Station_ID":"NY-GR-6","Station_Nam":"FREEHOLD 3.4 E, NY","Latitude":"42.36045","Longitude":"-73.98350","Snowdepth":"17.500","Units":"in","Rept_Date":"2020-12-18 10"},"coordinates":[5224,4172]},{"type":"Point","properties":{"Station_ID":"NH-MR-25","Station_Nam":"CHICHESTER 2.7 SSW, NH","Latitude":"43.21150","Longitude":"-71.41430","Snowdepth":"17.500","Units":"in","Rept_Date":"2020-12-18 12"},"coordinates":[5801,4701]},{"type":"Point","properties":{"Station_ID":"ME-CM-138","Station_Nam":"FREEPORT 3.0 ENE, ME","Latitude":"43.87733","Longitude":"-70.04650","Snowdepth":"17.500","Units":"in","Rept_Date":"2020-12-18 12"},"coordinates":[6109,5115]},{"type":"Point","properties":{"Station_ID":"MA-FR-31","Station_Nam":"COLRAIN 3.7 WNW, MA","Latitude":"42.68716","Longitude":"-72.75112","Snowdepth":"17.500","Units":"in","Rept_Date":"2020-12-18 12"},"coordinates":[5501,4375]},{"type":"Point","properties":{"Station_ID":"VT-WH-25","Station_Nam":"PUTNEY 0.7 NE, VT","Latitude":"42.98326","Longitude":"-72.51215","Snowdepth":"17.000","Units":"in","Rept_Date":"2020-12-18 16"},"coordinates":[5555,4559]},{"type":"Point","properties":{"Station_ID":"SHBN6","Station_Nam":"SHERBURNE","Latitude":"42.67730","Longitude":"-75.50660","Snowdepth":"17.000","Units":"in","Rept_Date":"2020-12-18 12"},"coordinates":[4882,4369]},{"type":"Point","properties":{"Station_ID":"PHON6","Station_Nam":"PHOENICIA 2SW","Latitude":"42.06420","Longitude":"-74.34080","Snowdepth":"17.000","Units":"in","Rept_Date":"2020-12-18 11"},"coordinates":[5144,3987]},{"type":"Point","properties":{"Station_ID":"NY-CR-1","Station_Nam":"FREETOWN 1.0 NE, NY","Latitude":"42.53299","Longitude":"-76.02111","Snowdepth":"17.000","Units":"in","Rept_Date":"2020-12-18 12"},"coordinates":[4766,4279]},{"type":"Point","properties":{"Station_ID":"NY-AB-32","Station_Nam":"GLENMONT 2.5 SW, NY","Latitude":"42.57539","Longitude":"-73.79950","Snowdepth":"17.000","Units":"in","Rept_Date":"2020-12-18 12"},"coordinates":[5266,4305]},{"type":"Point","properties":{"Station_ID":"NY-AB-21","Station_Nam":"NWS ALBANY, NY","Latitude":"42.69180","Longitude":"-73.83110","Snowdepth":"17.000","Units":"in","Rept_Date":"2020-12-18 12"},"coordinates":[5258,4378]},{"type":"Point","properties":{"Station_ID":"NVLN6","Station_Nam":"NORTHVILLE","Latitude":"43.23330","Longitude":"-74.16670","Snowdepth":"17.000","Units":"in","Rept_Date":"2020-12-18 13"},"coordinates":[5183,4715]},{"type":"Point","properties":{"Station_ID":"NH-ST-31","Station_Nam":"STRAFFORD 2.9 N, NH","Latitude":"43.31175","Longitude":"-71.13510","Snowdepth":"17.000","Units":"in","Rept_Date":"2020-12-18 13"},"coordinates":[5864,4764]},{"type":"Point","properties":{"Station_ID":"NH-HL-77","Station_Nam":"WEARE 4.3 S, NH","Latitude":"43.03222","Longitude":"-71.73669","Snowdepth":"17.000","Units":"in","Rept_Date":"2020-12-18 13"},"coordinates":[5729,4590]},{"type":"Point","properties":{"Station_ID":"NH-GR-52","Station_Nam":"HANOVER 4.8 NE, NH","Latitude":"43.75099","Longitude":"-72.21056","Snowdepth":"17.000","Units":"in","Rept_Date":"2020-12-18 12"},"coordinates":[5622,5037]},{"type":"Point","properties":{"Station_ID":"EHYM3","Station_Nam":"EAST HAWLEY","Latitude":"42.57410","Longitude":"-72.86790","Snowdepth":"17.000","Units":"in","Rept_Date":"2020-12-18 13"},"coordinates":[5475,4305]},{"type":"Point","properties":{"Station_ID":"CJRP1","Station_Nam":"COUDERSPORT 7SE","Latitude":"41.73920","Longitude":"-77.97110","Snowdepth":"17.000","Units":"in","Rept_Date":"2020-12-18 12"},"coordinates":[4328,3785]},{"type":"Point","properties":{"Station_ID":"PTLQ6","Station_Nam":"PORTAGE LAKE","Latitude":"49.06950","Longitude":"-86.65940","Snowdepth":"16.810","Units":"in","Rept_Date":"2020-12-19 06"},"coordinates":[2377,8346]},{"type":"Point","properties":{"Station_ID":"PA-CN-10","Station_Nam":"BELLEFONTE 4.3 E, PA","Latitude":"40.92492","Longitude":"-77.68690","Snowdepth":"16.500","Units":"in","Rept_Date":"2020-12-18 13"},"coordinates":[4392,3279]},{"type":"Point","properties":{"Station_ID":"NH-MR-43","Station_Nam":"BOSCAWEN 2.2 SSE, NH","Latitude":"43.28450","Longitude":"-71.60670","Snowdepth":"16.500","Units":"in","Rept_Date":"2020-12-18 12"},"coordinates":[5758,4747]},{"type":"Point","properties":{"Station_ID":"NH-GR-46","Station_Nam":"ASHLAND 2.4 NNW, NH","Latitude":"43.72963","Longitude":"-71.64213","Snowdepth":"16.100","Units":"in","Rept_Date":"2020-12-18 12"},"coordinates":[5750,5024]},{"type":"Point","properties":{"Station_ID":"VT-RT-7","Station_Nam":"RUTLAND 1.2 N, VT","Latitude":"43.62533","Longitude":"-72.97790","Snowdepth":"16.000","Units":"in","Rept_Date":"2020-12-18 12"},"coordinates":[5450,4959]},{"type":"Point","properties":{"Station_ID":"RUTV1","Station_Nam":"RUTLAND","Latitude":"43.62530","Longitude":"-72.97810","Snowdepth":"16.000","Units":"in","Rept_Date":"2020-12-18 12"},"coordinates":[5450,4959]},{"type":"Point","properties":{"Station_ID":"PA-LY-7","Station_Nam":"JERSEY SHORE 0.9 S, PA","Latitude":"41.18707","Longitude":"-77.26568","Snowdepth":"16.000","Units":"in","Rept_Date":"2020-12-18 12"},"coordinates":[4487,3442]},{"type":"Point","properties":{"Station_ID":"NY-RN-1","Station_Nam":"AVERILL PARK 0.9 WNW, NY","Latitude":"42.63910","Longitude":"-73.56980","Snowdepth":"16.000","Units":"in","Rept_Date":"2020-12-18 13"},"coordinates":[5317,4345]},{"type":"Point","properties":{"Station_ID":"NH-CR-26","Station_Nam":"CENTER SANDWICH 4.9 E, NH","Latitude":"43.80976","Longitude":"-71.34150","Snowdepth":"16.000","Units":"in","Rept_Date":"2020-12-18 12"},"coordinates":[5818,5073]},{"type":"Point","properties":{"Station_ID":"NH-CH-21","Station_Nam":"KEENE 2.0 SE, NH","Latitude":"42.93133","Longitude":"-72.26822","Snowdepth":"16.000","Units":"in","Rept_Date":"2020-12-18 12"},"coordinates":[5610,4527]},{"type":"Point","properties":{"Station_ID":"ME-SG-1","Station_Nam":"BATH 1.1 WSW, ME","Latitude":"43.93063","Longitude":"-69.85730","Snowdepth":"16.000","Units":"in","Rept_Date":"2020-12-18 12"},"coordinates":[6151,5149]},{"type":"Point","properties":{"Station_ID":"ME-CM-18","Station_Nam":"PORTLAND 5.5 WNW, ME","Latitude":"43.70288","Longitude":"-70.30550","Snowdepth":"16.000","Units":"in","Rept_Date":"2020-12-18 12"},"coordinates":[6050,5007]},{"type":"Point","properties":{"Station_ID":"MA-HS-7","Station_Nam":"PLAINFIELD 2.2 SW, MA","Latitude":"42.49272","Longitude":"-72.94540","Snowdepth":"16.000","Units":"in","Rept_Date":"2020-12-18 13"},"coordinates":[5457,4254]},{"type":"Point","properties":{"Station_ID":"LAUP1","Station_Nam":"1.5MI S OF RT 30 ON SMIT (LAUREL RIDGE)","Latitude":"40.05000","Longitude":"-79.22060","Snowdepth":"16.000","Units":"in","Rept_Date":"2020-12-18 12"},"coordinates":[4048,2734]},{"type":"Point","properties":{"Station_ID":"GLTP1","Station_Nam":"GALETON,PA","Latitude":"41.73330","Longitude":"-77.63330","Snowdepth":"16.000","Units":"in","Rept_Date":"2020-12-18 13"},"coordinates":[4404,3782]},{"type":"Point","properties":{"Station_ID":"ESDN3","Station_Nam":"EAST SANDWICH","Latitude":"43.80990","Longitude":"-71.34250","Snowdepth":"16.000","Units":"in","Rept_Date":"2020-12-18 11"},"coordinates":[5817,5074]},{"type":"Point","properties":{"Station_ID":"EMRN6","Station_Nam":"ELMIRA","Latitude":"42.09970","Longitude":"-76.83580","Snowdepth":"16.000","Units":"in","Rept_Date":"2020-12-18 12"},"coordinates":[4583,4010]},{"type":"Point","properties":{"Station_ID":"CT-LT-29","Station_Nam":"GOSHEN 0.5 NW, CT","Latitude":"41.83707","Longitude":"-73.23003","Snowdepth":"16.000","Units":"in","Rept_Date":"2020-12-18 11"},"coordinates":[5393,3846]},{"type":"Point","properties":{"Station_ID":"CQDP1","Station_Nam":"COWANESQUE DAM","Latitude":"41.99670","Longitude":"-77.15170","Snowdepth":"16.000","Units":"in","Rept_Date":"2020-12-18 12"},"coordinates":[4512,3945]},{"type":"Point","properties":{"Station_ID":"BTHM1","Station_Nam":"BATH","Latitude":"43.93160","Longitude":"-69.85640","Snowdepth":"16.000","Units":"in","Rept_Date":"2020-12-18 12"},"coordinates":[6151,5149]},{"type":"Point","properties":{"Station_ID":"QGO","Station_Nam":"QGO","Latitude":"48.85500","Longitude":"-74.20640","Snowdepth":"15.669","Units":"in","Rept_Date":"2020-12-18 12"},"coordinates":[5174,8212]},{"type":"Point","properties":{"Station_ID":"ME-CM-15","Station_Nam":"FREEPORT 2.6 WNW, ME","Latitude":"43.86683","Longitude":"-70.15070","Snowdepth":"15.500","Units":"in","Rept_Date":"2020-12-18 12"},"coordinates":[6085,5109]},{"type":"Point","properties":{"Station_ID":"UVDV1","Station_Nam":"NERON SITE AT UNION VILLAGE DAM","Latitude":"43.79140","Longitude":"-72.25720","Snowdepth":"15.000","Units":"in","Rept_Date":"2020-12-18 12"},"coordinates":[5612,5062]},{"type":"Point","properties":{"Station_ID":"ROWM3","Station_Nam":"ROWE 3NE","Latitude":"42.73500","Longitude":"-72.86920","Snowdepth":"15.000","Units":"in","Rept_Date":"2020-12-18 12"},"coordinates":[5475,4405]},{"type":"Point","properties":{"Station_ID":"NY-DT-34","Station_Nam":"HOPEWELL JUNCTION 2.8 NE, NY","Latitude":"41.61016","Longitude":"-73.75855","Snowdepth":"15.000","Units":"in","Rept_Date":"2020-12-18 11"},"coordinates":[5275,3705]},{"type":"Point","properties":{"Station_ID":"ME-LN-26","Station_Nam":"TREVETT 0.3 NE, ME","Latitude":"43.88780","Longitude":"-69.66903","Snowdepth":"15.000","Units":"in","Rept_Date":"2020-12-18 12"},"coordinates":[6193,5122]},{"type":"Point","properties":{"Station_ID":"MA-FR-13","Station_Nam":"CONWAY 2.9 NW, MA","Latitude":"42.54419","Longitude":"-72.72743","Snowdepth":"15.000","Units":"in","Rept_Date":"2020-12-18 12"},"coordinates":[5506,4286]},{"type":"Point","properties":{"Station_ID":"BDDN3","Station_Nam":"BRADFORD 2","Latitude":"43.25880","Longitude":"-72.00210","Snowdepth":"15.000","Units":"in","Rept_Date":"2020-12-18 12"},"coordinates":[5669,4731]},{"type":"Point","properties":{"Station_ID":"ACEP1","Station_Nam":"DONEGAL 2 NW","Latitude":"40.13470","Longitude":"-79.40720","Snowdepth":"15.000","Units":"in","Rept_Date":"2020-12-18 12"},"coordinates":[4006,2787]},{"type":"Point","properties":{"Station_ID":"NH-HL-99","Station_Nam":"PETERBOROUGH 0.2 E, NH","Latitude":"42.87633","Longitude":"-71.95887","Snowdepth":"14.900","Units":"in","Rept_Date":"2020-12-18 12"},"coordinates":[5679,4493]},{"type":"Point","properties":{"Station_ID":"HLSN3","Station_Nam":"HERMIT LAKE SNOTEL","Latitude":"44.26130","Longitude":"-71.28320","Snowdepth":"14.610","Units":"in","Rept_Date":"2020-12-19 06"},"coordinates":[5831,5354]},{"type":"Point","properties":{"Station_ID":"NY-ST-3","Station_Nam":"SOUTH CORNING 4.7 S, NY","Latitude":"42.05672","Longitude":"-77.04850","Snowdepth":"14.500","Units":"in","Rept_Date":"2020-12-18 14"},"coordinates":[4536,3983]},{"type":"Point","properties":{"Station_ID":"NY-DT-32","Station_Nam":"MILLBROOK 2.5 NE, NY","Latitude":"41.80954","Longitude":"-73.65880","Snowdepth":"14.500","Units":"in","Rept_Date":"2020-12-18 11"},"coordinates":[5297,3829]},{"type":"Point","properties":{"Station_ID":"ME-AN-43","Station_Nam":"LISBON 0.6 S, ME","Latitude":"44.02320","Longitude":"-70.10550","Snowdepth":"14.500","Units":"in","Rept_Date":"2020-12-18 12"},"coordinates":[6095,5206]},{"type":"Point","properties":{"Station_ID":"MA-FR-17","Station_Nam":"BUCKLAND 1.8 ESE, MA","Latitude":"42.58900","Longitude":"-72.75110","Snowdepth":"14.500","Units":"in","Rept_Date":"2020-12-18 13"},"coordinates":[5501,4314]},{"type":"Point","properties":{"Station_ID":"MA-WR-70","Station_Nam":"GRAFTON 1.5 W, MA","Latitude":"42.20354","Longitude":"-71.71255","Snowdepth":"14.400","Units":"in","Rept_Date":"2020-12-18 13"},"coordinates":[5734,4074]},{"type":"Point","properties":{"Station_ID":"PA-CR-1","Station_Nam":"EMPORIUM 2.6 S, PA","Latitude":"41.47342","Longitude":"-78.24330","Snowdepth":"14.300","Units":"in","Rept_Date":"2020-12-18 13"},"coordinates":[4267,3620]},{"type":"Point","properties":{"Station_ID":"QCU","Station_Nam":"QCU","Latitude":"47.82750","Longitude":"-76.59830","Snowdepth":"14.134","Units":"in","Rept_Date":"2020-12-18 12"},"coordinates":[4637,7573]},{"type":"Point","properties":{"Station_ID":"VT-WR-17","Station_Nam":"ROCHESTER 2.3 NE, VT","Latitude":"43.89418","Longitude":"-72.76992","Snowdepth":"14.000","Units":"in","Rept_Date":"2020-12-18 12"},"coordinates":[5497,5126]},{"type":"Point","properties":{"Station_ID":"VT-WH-29","Station_Nam":"BRATTLEBORO 0.7 S, VT","Latitude":"42.84030","Longitude":"-72.55580","Snowdepth":"14.000","Units":"in","Rept_Date":"2020-12-18 12"},"coordinates":[5545,4470]},{"type":"Point","properties":{"Station_ID":"PLBP1","Station_Nam":"PHILIPSBURG,PA","Latitude":"40.87220","Longitude":"-78.21530","Snowdepth":"14.000","Units":"in","Rept_Date":"2020-12-18 12"},"coordinates":[4274,3246]},{"type":"Point","properties":{"Station_ID":"PA-LC-27","Station_Nam":"RICHMONDALE 0.1 NE, PA","Latitude":"41.63767","Longitude":"-75.48170","Snowdepth":"14.000","Units":"in","Rept_Date":"2020-12-18 12"},"coordinates":[4888,3722]},{"type":"Point","properties":{"Station_ID":"PA-CN-5","Station_Nam":"STATE COLLEGE 2.6 NW, PA","Latitude":"40.81620","Longitude":"-77.89540","Snowdepth":"14.000","Units":"in","Rept_Date":"2020-12-18 12"},"coordinates":[4345,3211]},{"type":"Point","properties":{"Station_ID":"PA-CN-31","Station_Nam":"STATE COLLEGE 2.4 WNW, PA","Latitude":"40.80639","Longitude":"-77.89776","Snowdepth":"14.000","Units":"in","Rept_Date":"2020-12-18 12"},"coordinates":[4345,3205]},{"type":"Point","properties":{"Station_ID":"NY-UL-31","Station_Nam":"HURLEY 2.2 S, NY","Latitude":"41.88149","Longitude":"-74.05626","Snowdepth":"14.000","Units":"in","Rept_Date":"2020-12-18 12"},"coordinates":[5208,3874]},{"type":"Point","properties":{"Station_ID":"NY-UL-23","Station_Nam":"WEST HURLEY 0.1 S, NY","Latitude":"42.00455","Longitude":"-74.11094","Snowdepth":"14.000","Units":"in","Rept_Date":"2020-12-18 12"},"coordinates":[5196,3950]},{"type":"Point","properties":{"Station_ID":"NY-CB-8","Station_Nam":"LIVINGSTON 0.7 SSW, NY","Latitude":"42.13308","Longitude":"-73.78540","Snowdepth":"14.000","Units":"in","Rept_Date":"2020-12-18 13"},"coordinates":[5269,4030]},{"type":"Point","properties":{"Station_ID":"NH-GR-49","Station_Nam":"PLYMOUTH 3.7 N, NH","Latitude":"43.79048","Longitude":"-71.68413","Snowdepth":"14.000","Units":"in","Rept_Date":"2020-12-18 12"},"coordinates":[5741,5061]},{"type":"Point","properties":{"Station_ID":"NH-CH-27","Station_Nam":"KEENE 1.3 SW, NH","Latitude":"42.93730","Longitude":"-72.31570","Snowdepth":"14.000","Units":"in","Rept_Date":"2020-12-18 12"},"coordinates":[5599,4531]},{"type":"Point","properties":{"Station_ID":"ME-CM-86","Station_Nam":"POWNAL 4.1 S, ME","Latitude":"43.85370","Longitude":"-70.17210","Snowdepth":"14.000","Units":"in","Rept_Date":"2020-12-18 12"},"coordinates":[6080,5101]},{"type":"Point","properties":{"Station_ID":"MA-MD-81","Station_Nam":"WAKEFIELD 0.5 NNW, MA","Latitude":"42.51171","Longitude":"-71.07007","Snowdepth":"14.000","Units":"in","Rept_Date":"2020-12-18 12"},"coordinates":[5879,4266]},{"type":"Point","properties":{"Station_ID":"MA-BE-22","Station_Nam":"DALTON 2.9 SW, MA","Latitude":"42.44066","Longitude":"-73.19391","Snowdepth":"14.000","Units":"in","Rept_Date":"2020-12-18 12"},"coordinates":[5402,4222]},{"type":"Point","properties":{"Station_ID":"HGHN4","Station_Nam":"HIGHLAND LAKES 1SW","Latitude":"41.16330","Longitude":"-74.45930","Snowdepth":"14.000","Units":"in","Rept_Date":"2020-12-18 11"},"coordinates":[5117,3427]},{"type":"Point","properties":{"Station_ID":"CT-LT-33","Station_Nam":"TORRINGTON 1.1 SSE, CT","Latitude":"41.82100","Longitude":"-73.12012","Snowdepth":"14.000","Units":"in","Rept_Date":"2020-12-18 12"},"coordinates":[5418,3836]},{"type":"Point","properties":{"Station_ID":"CT-HR-88","Station_Nam":"SUFFIELD DEPOT 6.0 WNW, CT","Latitude":"42.02629","Longitude":"-72.75082","Snowdepth":"14.000","Units":"in","Rept_Date":"2020-12-18 12"},"coordinates":[5501,3964]},{"type":"Point","properties":{"Station_ID":"QLB","Station_Nam":"QLB","Latitude":"50.72360","Longitude":"-75.10000","Snowdepth":"13.858","Units":"in","Rept_Date":"2020-12-18 12"},"coordinates":[4973,9375]},{"type":"Point","properties":{"Station_ID":"CT-FR-67","Station_Nam":"TRUMBULL 1.2 S, CT","Latitude":"41.24103","Longitude":"-73.20499","Snowdepth":"13.800","Units":"in","Rept_Date":"2020-12-18 10"},"coordinates":[5399,3475]},{"type":"Point","properties":{"Station_ID":"PA-NM-3","Station_Nam":"MUNCY 4.7 SSE, PA","Latitude":"41.13610","Longitude":"-76.76508","Snowdepth":"13.500","Units":"in","Rept_Date":"2020-12-18 12"},"coordinates":[4599,3410]},{"type":"Point","properties":{"Station_ID":"NY-TM-45","Station_Nam":"NEWFIELD HAMLET 4.3 S, NY","Latitude":"42.29650","Longitude":"-76.60676","Snowdepth":"13.500","Units":"in","Rept_Date":"2020-12-18 14"},"coordinates":[4635,4132]},{"type":"Point","properties":{"Station_ID":"NY-HR-16","Station_Nam":"ILION 0.7 WSW, NY","Latitude":"43.00880","Longitude":"-75.05390","Snowdepth":"13.500","Units":"in","Rept_Date":"2020-12-18 12"},"coordinates":[4984,4575]},{"type":"Point","properties":{"Station_ID":"NH-HL-48","Station_Nam":"GREENVILLE 1.1 ENE, NH","Latitude":"42.77674","Longitude":"-71.77990","Snowdepth":"13.500","Units":"in","Rept_Date":"2020-12-18 13"},"coordinates":[5719,4431]},{"type":"Point","properties":{"Station_ID":"ME-YK-18","Station_Nam":"WELLS 3.5 SW, ME","Latitude":"43.30140","Longitude":"-70.64470","Snowdepth":"13.500","Units":"in","Rept_Date":"2020-12-18 12"},"coordinates":[5974,4757]},{"type":"Point","properties":{"Station_ID":"MA-MD-115","Station_Nam":"HUDSON 1.4 NW, MA","Latitude":"42.40372","Longitude":"-71.58680","Snowdepth":"13.500","Units":"in","Rept_Date":"2020-12-18 12"},"coordinates":[5763,4199]},{"type":"Point","properties":{"Station_ID":"CT-LT-28","Station_Nam":"CANAAN 4.2 ESE, CT","Latitude":"42.00963","Longitude":"-73.25603","Snowdepth":"13.500","Units":"in","Rept_Date":"2020-12-18 12"},"coordinates":[5388,3953]},{"type":"Point","properties":{"Station_ID":"MA-ES-48","Station_Nam":"ANDOVER 0.6 E, MA","Latitude":"42.65659","Longitude":"-71.13048","Snowdepth":"13.200","Units":"in","Rept_Date":"2020-12-18 10"},"coordinates":[5865,4356]},{"type":"Point","properties":{"Station_ID":"MA-FR-12","Station_Nam":"SUNDERLAND 1.3 SE, MA","Latitude":"42.45217","Longitude":"-72.56610","Snowdepth":"13.100","Units":"in","Rept_Date":"2020-12-18 12"},"coordinates":[5543,4229]},{"type":"Point","properties":{"Station_ID":"WNDP1","Station_Nam":"WINDBER COUNTY CLUB","Latitude":"40.28780","Longitude":"-78.77530","Snowdepth":"13.000","Units":"in","Rept_Date":"2020-12-18 12"},"coordinates":[4148,2882]},{"type":"Point","properties":{"Station_ID":"TYRP1","Station_Nam":"TYRONE,PA","Latitude":"40.66670","Longitude":"-78.23330","Snowdepth":"13.000","Units":"in","Rept_Date":"2020-12-18 12"},"coordinates":[4269,3118]},{"type":"Point","properties":{"Station_ID":"SURN3","Station_Nam":"SURRY MOUNTAIN LAKE","Latitude":"42.99630","Longitude":"-72.31310","Snowdepth":"13.000","Units":"in","Rept_Date":"2020-12-18 12"},"coordinates":[5599,4567]},{"type":"Point","properties":{"Station_ID":"SNOW2","Station_Nam":"SNOWSHOE","Latitude":"38.39900","Longitude":"-79.99490","Snowdepth":"13.000","Units":"in","Rept_Date":"2020-12-18 11"},"coordinates":[3874,1707]},{"type":"Point","properties":{"Station_ID":"RKHN6","Station_Nam":"ROCK HILL 3 SW","Latitude":"41.59170","Longitude":"-74.61410","Snowdepth":"13.000","Units":"in","Rept_Date":"2020-12-18 12"},"coordinates":[5083,3693]},{"type":"Point","properties":{"Station_ID":"POLM1","Station_Nam":"POLAND","Latitude":"44.00700","Longitude":"-70.36140","Snowdepth":"13.000","Units":"in","Rept_Date":"2020-12-18 12"},"coordinates":[6038,5196]},{"type":"Point","properties":{"Station_ID":"PEKN6","Station_Nam":"PECK LAKE","Latitude":"43.11500","Longitude":"-74.42360","Snowdepth":"13.000","Units":"in","Rept_Date":"2020-12-18 12"},"coordinates":[5125,4641]},{"type":"Point","properties":{"Station_ID":"PA-IN-5","Station_Nam":"BRUSH VALLEY 0.6 SE, PA","Latitude":"40.52375","Longitude":"-79.06158","Snowdepth":"13.000","Units":"in","Rept_Date":"2020-12-18 11"},"coordinates":[4083,3029]},{"type":"Point","properties":{"Station_ID":"PA-CN-18","Station_Nam":"PORT MATILDA 2.2 ESE, PA","Latitude":"40.79117","Longitude":"-78.01180","Snowdepth":"13.000","Units":"in","Rept_Date":"2020-12-18 12"},"coordinates":[4319,3195]},{"type":"Point","properties":{"Station_ID":"OTTN3","Station_Nam":"OTTER BROOK LAKE","Latitude":"42.95000","Longitude":"-72.23330","Snowdepth":"13.000","Units":"in","Rept_Date":"2020-12-18 12"},"coordinates":[5617,4539]},{"type":"Point","properties":{"Station_ID":"NY-RN-24","Station_Nam":"NASSAU 4.2 ESE, NY","Latitude":"42.49091","Longitude":"-73.53462","Snowdepth":"13.000","Units":"in","Rept_Date":"2020-12-18 14"},"coordinates":[5325,4253]},{"type":"Point","properties":{"Station_ID":"NY-HR-18","Station_Nam":"SALISBURY CENTER 1.8 NW, NY","Latitude":"43.16260","Longitude":"-74.80880","Snowdepth":"13.000","Units":"in","Rept_Date":"2020-12-18 11"},"coordinates":[5039,4671]},{"type":"Point","properties":{"Station_ID":"NY-HM-1","Station_Nam":"SPECULATOR 10.0 SSW, NY","Latitude":"43.45133","Longitude":"-74.47120","Snowdepth":"13.000","Units":"in","Rept_Date":"2020-12-18 12"},"coordinates":[5115,4850]},{"type":"Point","properties":{"Station_ID":"NY-DL-23","Station_Nam":"LONG EDDY 6.5 NNE, NY","Latitude":"41.93510","Longitude":"-75.07840","Snowdepth":"13.000","Units":"in","Rept_Date":"2020-12-18 13"},"coordinates":[4978,3907]},{"type":"Point","properties":{"Station_ID":"NY-CB-9","Station_Nam":"HILLSDALE 5.8 S, NY","Latitude":"42.26165","Longitude":"-73.54160","Snowdepth":"13.000","Units":"in","Rept_Date":"2020-12-18 13"},"coordinates":[5323,4110]},{"type":"Point","properties":{"Station_ID":"NH-HL-25","Station_Nam":"AMHERST 3.7 NNE, NH","Latitude":"42.91409","Longitude":"-71.61020","Snowdepth":"13.000","Units":"in","Rept_Date":"2020-12-18 12"},"coordinates":[5757,4516]},{"type":"Point","properties":{"Station_ID":"NFKC3","Station_Nam":"NORFOLK","Latitude":"41.97250","Longitude":"-73.22080","Snowdepth":"13.000","Units":"in","Rept_Date":"2020-12-18 13"},"coordinates":[5396,3930]},{"type":"Point","properties":{"Station_ID":"MSRN3","Station_Nam":"MASCOMA RIVER","Latitude":"43.78330","Longitude":"-72.03330","Snowdepth":"13.000","Units":"in","Rept_Date":"2020-12-19 06"},"coordinates":[5662,5057]},{"type":"Point","properties":{"Station_ID":"MLLP1","Station_Nam":"MILLHEIM,PA","Latitude":"40.88330","Longitude":"-77.48330","Snowdepth":"13.000","Units":"in","Rept_Date":"2020-12-18 12"},"coordinates":[4438,3253]},{"type":"Point","properties":{"Station_ID":"MCDN3","Station_Nam":"EDWARD MACDOWELL LAKE","Latitude":"42.89410","Longitude":"-71.98420","Snowdepth":"13.000","Units":"in","Rept_Date":"2020-12-18 12"},"coordinates":[5673,4504]},{"type":"Point","properties":{"Station_ID":"MA-ES-10","Station_Nam":"ANDOVER 1.5 W, MA","Latitude":"42.64830","Longitude":"-71.17280","Snowdepth":"13.000","Units":"in","Rept_Date":"2020-12-18 12"},"coordinates":[5856,4351]},{"type":"Point","properties":{"Station_ID":"MA-BE-11","Station_Nam":"GREAT BARRINGTON 3.0 N, MA","Latitude":"42.23790","Longitude":"-73.35030","Snowdepth":"13.000","Units":"in","Rept_Date":"2020-12-18 12"},"coordinates":[5366,4096]},{"type":"Point","properties":{"Station_ID":"JPBM3","Station_Nam":"JAMAICA PLAIN","Latitude":"42.30310","Longitude":"-71.12400","Snowdepth":"13.000","Units":"in","Rept_Date":"2020-12-18 13"},"coordinates":[5867,4136]},{"type":"Point","properties":{"Station_ID":"CT-NH-72","Station_Nam":"NORTHFORD 0.8 SW, CT","Latitude":"41.38554","Longitude":"-72.80240","Snowdepth":"13.000","Units":"in","Rept_Date":"2020-12-18 12"},"coordinates":[5490,3565]},{"type":"Point","properties":{"Station_ID":"CSPP1","Station_Nam":"COUDERSPORT 1 SW","Latitude":"41.77500","Longitude":"-78.04170","Snowdepth":"13.000","Units":"in","Rept_Date":"2020-12-18 12"},"coordinates":[4313,3808]},{"type":"Point","properties":{"Station_ID":"38.3990_079.9949","Station_Nam":"SNOWSHOE  CO-OP OBSERVER (X3840800)","Latitude":"38.39900","Longitude":"-79.99490","Snowdepth":"13.000","Units":"in","Rept_Date":"2020-12-18 11"},"coordinates":[3874,1707]},{"type":"Point","properties":{"Station_ID":"MA-WR-88","Station_Nam":"LEICESTER 2.5 WSW, MA","Latitude":"42.23742","Longitude":"-71.94612","Snowdepth":"12.900","Units":"in","Rept_Date":"2020-12-18 11"},"coordinates":[5682,4095]},{"type":"Point","properties":{"Station_ID":"MA-WR-56","Station_Nam":"STERLING 4.3 NW, MA","Latitude":"42.47540","Longitude":"-71.81140","Snowdepth":"12.900","Units":"in","Rept_Date":"2020-12-18 12"},"coordinates":[5712,4243]},{"type":"Point","properties":{"Station_ID":"CT-HR-65","Station_Nam":"NEWINGTON 1.9 SSW, CT","Latitude":"41.66021","Longitude":"-72.74087","Snowdepth":"12.900","Units":"in","Rept_Date":"2020-12-18 12"},"coordinates":[5503,3736]},{"type":"Point","properties":{"Station_ID":"NY-MG-3","Station_Nam":"HESSVILLE 1.8 WSW, NY","Latitude":"42.86430","Longitude":"-74.72140","Snowdepth":"12.800","Units":"in","Rept_Date":"2020-12-18 13"},"coordinates":[5058,4485]},{"type":"Point","properties":{"Station_ID":"PA-CN-33","Station_Nam":"PLEASANT GAP 0.7 NW, PA","Latitude":"40.87265","Longitude":"-77.74660","Snowdepth":"12.600","Units":"in","Rept_Date":"2020-12-18 12"},"coordinates":[4379,3246]},{"type":"Point","properties":{"Station_ID":"PA-WT-14","Station_Nam":"LOWER BURRELL 1.2 WNW, PA","Latitude":"40.59181","Longitude":"-79.73332","Snowdepth":"12.500","Units":"in","Rept_Date":"2020-12-18 13"},"coordinates":[3933,3071]},{"type":"Point","properties":{"Station_ID":"MA-MD-7","Station_Nam":"WINCHESTER 0.7 SE, MA","Latitude":"42.44594","Longitude":"-71.13580","Snowdepth":"12.500","Units":"in","Rept_Date":"2020-12-18 12"},"coordinates":[5864,4225]},{"type":"Point","properties":{"Station_ID":"MA-MD-107","Station_Nam":"FRAMINGHAM 1.7 E, MA","Latitude":"42.30516","Longitude":"-71.40471","Snowdepth":"12.500","Units":"in","Rept_Date":"2020-12-18 12"},"coordinates":[5804,4137]},{"type":"Point","properties":{"Station_ID":"MA-ES-19","Station_Nam":"WEST NEWBURY 1.8 SSE, MA","Latitude":"42.77473","Longitude":"-70.98826","Snowdepth":"12.500","Units":"in","Rept_Date":"2020-12-18 11"},"coordinates":[5897,4429]},{"type":"Point","properties":{"Station_ID":"MA-ES-12","Station_Nam":"BOXFORD 2.4 S, MA","Latitude":"42.63970","Longitude":"-70.97970","Snowdepth":"12.500","Units":"in","Rept_Date":"2020-12-18 12"},"coordinates":[5899,4345]},{"type":"Point","properties":{"Station_ID":"DVLQ6","Station_Nam":"DEVIOUS LAKE","Latitude":"49.19890","Longitude":"-87.76440","Snowdepth":"12.320","Units":"in","Rept_Date":"2020-12-19 06"},"coordinates":[2128,8426]},{"type":"Point","properties":{"Station_ID":"TRIQ6","Station_Nam":"TRIO LAKE","Latitude":"49.22880","Longitude":"-87.22920","Snowdepth":"12.280","Units":"in","Rept_Date":"2020-12-19 06"},"coordinates":[2249,8445]},{"type":"Point","properties":{"Station_ID":"QMD","Station_Nam":"QMD","Latitude":"49.29060","Longitude":"-75.84500","Snowdepth":"12.165","Units":"in","Rept_Date":"2020-12-18 12"},"coordinates":[4806,8483]},{"type":"Point","properties":{"Station_ID":"QCX","Station_Nam":"QCX","Latitude":"51.32830","Longitude":"-70.08060","Snowdepth":"12.126","Units":"in","Rept_Date":"2020-12-18 12"},"coordinates":[6101,9751]},{"type":"Point","properties":{"Station_ID":"MA-MD-175","Station_Nam":"ARLINGTON 0.4 WNW, MA","Latitude":"42.42088","Longitude":"-71.17195","Snowdepth":"12.100","Units":"in","Rept_Date":"2020-12-18 12"},"coordinates":[5856,4209]},{"type":"Point","properties":{"Station_ID":"WTHN6","Station_Nam":"WHITEHALL LOCK C12","Latitude":"43.55000","Longitude":"-73.40000","Snowdepth":"12.000","Units":"in","Rept_Date":"2020-12-18 13"},"coordinates":[5355,4912]},{"type":"Point","properties":{"Station_ID":"WENN3","Station_Nam":"P.O. BOX 197 WENTWORTH, NH","Latitude":"43.95190","Longitude":"-71.91560","Snowdepth":"12.000","Units":"in","Rept_Date":"2020-12-18 12"},"coordinates":[5689,5162]},{"type":"Point","properties":{"Station_ID":"SUNP1","Station_Nam":"SUNBURY","Latitude":"40.85440","Longitude":"-76.79250","Snowdepth":"12.000","Units":"in","Rept_Date":"2020-12-18 12"},"coordinates":[4593,3235]},{"type":"Point","properties":{"Station_ID":"STCP1","Station_Nam":"STATE COLLEGE,PA","Latitude":"40.80000","Longitude":"-77.86670","Snowdepth":"12.000","Units":"in","Rept_Date":"2020-12-18 12"},"coordinates":[4352,3201]},{"type":"Point","properties":{"Station_ID":"SLGP1","Station_Nam":"SELINSGROVE,PA","Latitude":"40.78310","Longitude":"-76.86110","Snowdepth":"12.000","Units":"in","Rept_Date":"2020-12-18 12"},"coordinates":[4578,3190]},{"type":"Point","properties":{"Station_ID":"PWM","Station_Nam":"RESIDUAL OFFICE TO PORTLAND WSFO (GYX)","Latitude":"43.64610","Longitude":"-70.30920","Snowdepth":"12.000","Units":"in","Rept_Date":"2020-12-18 12"},"coordinates":[6050,4972]},{"type":"Point","properties":{"Station_ID":"NY-WR-10","Station_Nam":"WARRENSBURG 2.1 WNW, NY","Latitude":"43.51784","Longitude":"-73.81069","Snowdepth":"12.000","Units":"in","Rept_Date":"2020-12-18 13"},"coordinates":[5263,4892]},{"type":"Point","properties":{"Station_ID":"NY-OR-18","Station_Nam":"WALDEN 1.3 S, NY","Latitude":"41.54102","Longitude":"-74.18790","Snowdepth":"12.000","Units":"in","Rept_Date":"2020-12-18 12"},"coordinates":[5178,3662]},{"type":"Point","properties":{"Station_ID":"NY-DT-24","Station_Nam":"RED HOOK 1.2 NNE, NY","Latitude":"42.00967","Longitude":"-73.86419","Snowdepth":"12.000","Units":"in","Rept_Date":"2020-12-18 12"},"coordinates":[5251,3954]},{"type":"Point","properties":{"Station_ID":"NY-DT-12","Station_Nam":"LAGRANGEVILLE 3.4 NE, NY","Latitude":"41.68460","Longitude":"-73.72050","Snowdepth":"12.000","Units":"in","Rept_Date":"2020-12-18 12"},"coordinates":[5283,3751]},{"type":"Point","properties":{"Station_ID":"NH-ST-19","Station_Nam":"DOVER 0.8 E, NH","Latitude":"43.18762","Longitude":"-70.86850","Snowdepth":"12.000","Units":"in","Rept_Date":"2020-12-18 13"},"coordinates":[5924,4686]},{"type":"Point","properties":{"Station_ID":"NH-HL-96","Station_Nam":"MANCHESTER 0.6 S, NH","Latitude":"42.97444","Longitude":"-71.44472","Snowdepth":"12.000","Units":"in","Rept_Date":"2020-12-18 12"},"coordinates":[5795,4554]},{"type":"Point","properties":{"Station_ID":"NH-CH-20","Station_Nam":"RINDGE 3.2 ESE, NH","Latitude":"42.73100","Longitude":"-71.95200","Snowdepth":"12.000","Units":"in","Rept_Date":"2020-12-18 12"},"coordinates":[5681,4402]},{"type":"Point","properties":{"Station_ID":"MRRN6","Station_Nam":"MORRISVILLE 6 SW","Latitude":"42.84160","Longitude":"-75.72630","Snowdepth":"12.000","Units":"in","Rept_Date":"2020-12-18 12"},"coordinates":[4833,4471]},{"type":"Point","properties":{"Station_ID":"MILM3","Station_Nam":"MILFORD","Latitude":"42.16330","Longitude":"-71.51190","Snowdepth":"12.000","Units":"in","Rept_Date":"2020-12-18 12"},"coordinates":[5779,4049]},{"type":"Point","properties":{"Station_ID":"ME-YK-65","Station_Nam":"NORTH BERWICK 5.3 W, ME","Latitude":"43.29801","Longitude":"-70.83956","Snowdepth":"12.000","Units":"in","Rept_Date":"2020-12-18 12"},"coordinates":[5930,4755]},{"type":"Point","properties":{"Station_ID":"ME-CM-98","Station_Nam":"SEBAGO 2.4 ESE, ME","Latitude":"43.88000","Longitude":"-70.63000","Snowdepth":"12.000","Units":"in","Rept_Date":"2020-12-18 15"},"coordinates":[5978,5117]},{"type":"Point","properties":{"Station_ID":"MAYP1","Station_Nam":"MAHANOY CITY,PA","Latitude":"40.83330","Longitude":"-76.13330","Snowdepth":"12.000","Units":"in","Rept_Date":"2020-12-18 12"},"coordinates":[4741,3222]},{"type":"Point","properties":{"Station_ID":"MA-MD-96","Station_Nam":"LEXINGTON 0.3 NE, MA","Latitude":"42.44944","Longitude":"-71.22791","Snowdepth":"12.000","Units":"in","Rept_Date":"2020-12-18 12"},"coordinates":[5843,4227]},{"type":"Point","properties":{"Station_ID":"MA-MD-89","Station_Nam":"SUDBURY 3.6 W, MA","Latitude":"42.36394","Longitude":"-71.47012","Snowdepth":"12.000","Units":"in","Rept_Date":"2020-12-18 12"},"coordinates":[5789,4174]},{"type":"Point","properties":{"Station_ID":"MA-MD-170","Station_Nam":"SOMERVILLE 0.5 W, MA","Latitude":"42.39184","Longitude":"-71.11230","Snowdepth":"12.000","Units":"in","Rept_Date":"2020-12-18 12"},"coordinates":[5869,4191]},{"type":"Point","properties":{"Station_ID":"MA-MD-151","Station_Nam":"CAMBRIDGE 0.9 SSE, MA","Latitude":"42.36436","Longitude":"-71.10871","Snowdepth":"12.000","Units":"in","Rept_Date":"2020-12-18 12"},"coordinates":[5870,4174]},{"type":"Point","properties":{"Station_ID":"MA-MD-126","Station_Nam":"MELROSE 0.5 NE, MA","Latitude":"42.46055","Longitude":"-71.05396","Snowdepth":"12.000","Units":"in","Rept_Date":"2020-12-18 12"},"coordinates":[5882,4234]},{"type":"Point","properties":{"Station_ID":"MA-MD-125","Station_Nam":"TEWKSBURY 3.6 SSE, MA","Latitude":"42.57083","Longitude":"-71.19813","Snowdepth":"12.000","Units":"in","Rept_Date":"2020-12-18 12"},"coordinates":[5850,4303]},{"type":"Point","properties":{"Station_ID":"MA-MD-120","Station_Nam":"NATICK 1.9 NNE, MA","Latitude":"42.30872","Longitude":"-71.33579","Snowdepth":"12.000","Units":"in","Rept_Date":"2020-12-18 13"},"coordinates":[5819,4140]},{"type":"Point","properties":{"Station_ID":"MA-ES-41","Station_Nam":"DANVERS 0.8 ESE, MA","Latitude":"42.56849","Longitude":"-70.93526","Snowdepth":"12.000","Units":"in","Rept_Date":"2020-12-18 14"},"coordinates":[5909,4301]},{"type":"Point","properties":{"Station_ID":"MA-BE-3","Station_Nam":"STOCKBRIDGE .2 NNE, MA","Latitude":"42.28983","Longitude":"-73.31950","Snowdepth":"12.000","Units":"in","Rept_Date":"2020-12-18 11"},"coordinates":[5373,4128]},{"type":"Point","properties":{"Station_ID":"LBGP1","Station_Nam":"LEWISBURG,PA","Latitude":"40.94860","Longitude":"-76.87830","Snowdepth":"12.000","Units":"in","Rept_Date":"2020-12-18 12"},"coordinates":[4574,3293]},{"type":"Point","properties":{"Station_ID":"KEEN3","Station_Nam":"KEENE","Latitude":"42.93900","Longitude":"-72.32470","Snowdepth":"12.000","Units":"in","Rept_Date":"2020-12-18 11"},"coordinates":[5597,4532]},{"type":"Point","properties":{"Station_ID":"JAPN3","Station_Nam":"JAFFREY SILVER RANCH AIRPARK","Latitude":"42.80880","Longitude":"-72.00530","Snowdepth":"12.000","Units":"in","Rept_Date":"2020-12-18 12"},"coordinates":[5669,4451]},{"type":"Point","properties":{"Station_ID":"INDP1","Station_Nam":"INDIANA","Latitude":"40.59670","Longitude":"-79.11780","Snowdepth":"12.000","Units":"in","Rept_Date":"2020-12-18 12"},"coordinates":[4071,3074]},{"type":"Point","properties":{"Station_ID":"GRFM3","Station_Nam":"GREENFIELD NO. 3","Latitude":"42.57190","Longitude":"-72.59750","Snowdepth":"12.000","Units":"in","Rept_Date":"2020-12-18 12"},"coordinates":[5536,4303]},{"type":"Point","properties":{"Station_ID":"CT-WN-2","Station_Nam":"NORTH GROSVENOR DALE 1.7 SSE, CT","Latitude":"41.96227","Longitude":"-71.88700","Snowdepth":"12.000","Units":"in","Rept_Date":"2020-12-18 12"},"coordinates":[5695,3924]},{"type":"Point","properties":{"Station_ID":"CT-TL-33","Station_Nam":"TOLLAND 3.6 NNE, CT","Latitude":"41.91859","Longitude":"-72.33910","Snowdepth":"12.000","Units":"in","Rept_Date":"2020-12-18 12"},"coordinates":[5594,3897]},{"type":"Point","properties":{"Station_ID":"CT-FR-55","Station_Nam":"SHELTON 2.7 SSE, CT","Latitude":"41.27102","Longitude":"-73.11106","Snowdepth":"12.000","Units":"in","Rept_Date":"2020-12-18 13"},"coordinates":[5420,3494]},{"type":"Point","properties":{"Station_ID":"ASBM3","Station_Nam":"ASHBURNHAM","Latitude":"42.61780","Longitude":"-71.91590","Snowdepth":"12.000","Units":"in","Rept_Date":"2020-12-18 12"},"coordinates":[5689,4332]},{"type":"Point","properties":{"Station_ID":"ABNM3","Station_Nam":"ASHBURNHAM NORTH","Latitude":"42.66170","Longitude":"-71.93590","Snowdepth":"12.000","Units":"in","Rept_Date":"2020-12-18 12"},"coordinates":[5684,4359]},{"type":"Point","properties":{"Station_ID":"RI-PR-50","Station_Nam":"HARRISVILLE 1.2 SSE, RI","Latitude":"41.95128","Longitude":"-71.67171","Snowdepth":"11.500","Units":"in","Rept_Date":"2020-12-18 12"},"coordinates":[5744,3917]},{"type":"Point","properties":{"Station_ID":"RI-PR-33","Station_Nam":"GREENVILLE 0.7 NNW, RI","Latitude":"41.88890","Longitude":"-71.56030","Snowdepth":"11.500","Units":"in","Rept_Date":"2020-12-18 12"},"coordinates":[5769,3878]},{"type":"Point","properties":{"Station_ID":"PA-CB-33","Station_Nam":"LAKE HARMONY 2.4 WNW, PA","Latitude":"41.07333","Longitude":"-75.63317","Snowdepth":"11.500","Units":"in","Rept_Date":"2020-12-18 12"},"coordinates":[4854,3371]},{"type":"Point","properties":{"Station_ID":"NY-TM-42","Station_Nam":"ITHACA 6.4 E, NY","Latitude":"42.43350","Longitude":"-76.37860","Snowdepth":"11.500","Units":"in","Rept_Date":"2020-12-18 12"},"coordinates":[4686,4217]},{"type":"Point","properties":{"Station_ID":"NY-RN-28","Station_Nam":"STEPHENTOWN 3.4 SW, NY","Latitude":"42.51605","Longitude":"-73.42318","Snowdepth":"11.500","Units":"in","Rept_Date":"2020-12-18 12"},"coordinates":[5350,4269]},{"type":"Point","properties":{"Station_ID":"NY-HM-10","Station_Nam":"LAKE PLEASANT 2.3 WSW, NY","Latitude":"43.45490","Longitude":"-74.45287","Snowdepth":"11.500","Units":"in","Rept_Date":"2020-12-18 12"},"coordinates":[5119,4853]},{"type":"Point","properties":{"Station_ID":"NY-DT-37","Station_Nam":"RHINEBECK 3.4 N, NY","Latitude":"41.97735","Longitude":"-73.90559","Snowdepth":"11.500","Units":"in","Rept_Date":"2020-12-18 12"},"coordinates":[5242,3933]},{"type":"Point","properties":{"Station_ID":"ME-CM-128","Station_Nam":"SOUTH PORTLAND 1.6 S, ME","Latitude":"43.60900","Longitude":"-70.28600","Snowdepth":"11.500","Units":"in","Rept_Date":"2020-12-18 12"},"coordinates":[6055,4949]},{"type":"Point","properties":{"Station_ID":"MA-WR-58","Station_Nam":"LUNENBURG 0.6 NE, MA","Latitude":"42.60180","Longitude":"-71.71653","Snowdepth":"11.500","Units":"in","Rept_Date":"2020-12-18 13"},"coordinates":[5733,4322]},{"type":"Point","properties":{"Station_ID":"MA-MD-85","Station_Nam":"WILMINGTON 2.2 WNW, MA","Latitude":"42.56871","Longitude":"-71.20764","Snowdepth":"11.500","Units":"in","Rept_Date":"2020-12-18 12"},"coordinates":[5848,4301]},{"type":"Point","properties":{"Station_ID":"MA-ES-58","Station_Nam":"MIDDLETON 1.4 SSW, MA","Latitude":"42.58133","Longitude":"-71.02707","Snowdepth":"11.500","Units":"in","Rept_Date":"2020-12-18 13"},"coordinates":[5888,4309]},{"type":"Point","properties":{"Station_ID":"MA-BE-20","Station_Nam":"LEE 3.7 SE, MA","Latitude":"42.27242","Longitude":"-73.19763","Snowdepth":"11.500","Units":"in","Rept_Date":"2020-12-18 12"},"coordinates":[5401,4117]},{"type":"Point","properties":{"Station_ID":"CT-NL-10","Station_Nam":"NORWICH 2.5 NNE, CT","Latitude":"41.58485","Longitude":"-72.07674","Snowdepth":"11.500","Units":"in","Rept_Date":"2020-12-18 11"},"coordinates":[5653,3689]},{"type":"Point","properties":{"Station_ID":"MA-ES-24","Station_Nam":"NEWBURYPORT 0.8 SW, MA","Latitude":"42.80637","Longitude":"-70.89982","Snowdepth":"11.300","Units":"in","Rept_Date":"2020-12-18 12"},"coordinates":[5917,4449]},{"type":"Point","properties":{"Station_ID":"QFT","Station_Nam":"QFT","Latitude":"50.83280","Longitude":"-74.40390","Snowdepth":"11.181","Units":"in","Rept_Date":"2020-12-18 12"},"coordinates":[5130,9443]},{"type":"Point","properties":{"Station_ID":"QMA","Station_Nam":"QMA","Latitude":"50.10330","Longitude":"-70.47190","Snowdepth":"11.063","Units":"in","Rept_Date":"2020-12-18 12"},"coordinates":[6013,8989]},{"type":"Point","properties":{"Station_ID":"WHNP1","Station_Nam":"FRANCIS E WALTER DAM","Latitude":"41.11840","Longitude":"-75.72770","Snowdepth":"11.000","Units":"in","Rept_Date":"2020-12-18 12"},"coordinates":[4832,3399]},{"type":"Point","properties":{"Station_ID":"VT-OG-13","Station_Nam":"WEST FAIRLEE 1.8 ENE, VT","Latitude":"43.92138","Longitude":"-72.23051","Snowdepth":"11.000","Units":"in","Rept_Date":"2020-12-18 13"},"coordinates":[5618,5143]},{"type":"Point","properties":{"Station_ID":"SDLM3","Station_Nam":"SUNDERLAND","Latitude":"42.44480","Longitude":"-72.55290","Snowdepth":"11.000","Units":"in","Rept_Date":"2020-12-18 12"},"coordinates":[5546,4224]},{"type":"Point","properties":{"Station_ID":"RI-PR-28","Station_Nam":"NORTH SMITHFIELD 0.7 SE, RI","Latitude":"41.95910","Longitude":"-71.54201","Snowdepth":"11.000","Units":"in","Rept_Date":"2020-12-18 12"},"coordinates":[5773,3922]},{"type":"Point","properties":{"Station_ID":"PROP1","Station_Nam":"PROMPTON DAM","Latitude":"41.58900","Longitude":"-75.33030","Snowdepth":"11.000","Units":"in","Rept_Date":"2020-12-18 12"},"coordinates":[4922,3692]},{"type":"Point","properties":{"Station_ID":"PA-WS-21","Station_Nam":"FINLEYVILLE 0.5 NNW, PA","Latitude":"40.26030","Longitude":"-80.00590","Snowdepth":"11.000","Units":"in","Rept_Date":"2020-12-18 12"},"coordinates":[3871,2865]},{"type":"Point","properties":{"Station_ID":"PA-SN-2","Station_Nam":"SELINSGROVE 2.6 WNW, PA","Latitude":"40.81731","Longitude":"-76.90970","Snowdepth":"11.000","Units":"in","Rept_Date":"2020-12-18 12"},"coordinates":[4567,3212]},{"type":"Point","properties":{"Station_ID":"PA-MN-16","Station_Nam":"MOUNT POCONO 0.7 N, PA","Latitude":"41.13190","Longitude":"-75.35804","Snowdepth":"11.000","Units":"in","Rept_Date":"2020-12-18 12"},"coordinates":[4915,3407]},{"type":"Point","properties":{"Station_ID":"PA-CN-3","Station_Nam":"STATE COLLEGE 2.4 ENE, PA","Latitude":"40.80670","Longitude":"-77.81670","Snowdepth":"11.000","Units":"in","Rept_Date":"2020-12-18 14"},"coordinates":[4363,3205]},{"type":"Point","properties":{"Station_ID":"OSWP1","Station_Nam":"OSWAYO,PA","Latitude":"41.91670","Longitude":"-78.00000","Snowdepth":"11.000","Units":"in","Rept_Date":"2020-12-18 12"},"coordinates":[4322,3896]},{"type":"Point","properties":{"Station_ID":"NY-UL-19","Station_Nam":"WOODSTOCK 0.8 ENE, NY","Latitude":"42.04097","Longitude":"-74.09588","Snowdepth":"11.000","Units":"in","Rept_Date":"2020-12-18 12"},"coordinates":[5199,3973]},{"type":"Point","properties":{"Station_ID":"NY-TM-5","Station_Nam":"FREEVILLE 1.5 NE, NY","Latitude":"42.52530","Longitude":"-76.32180","Snowdepth":"11.000","Units":"in","Rept_Date":"2020-12-18 12"},"coordinates":[4699,4274]},{"type":"Point","properties":{"Station_ID":"NY-HM-9","Station_Nam":"HOFFMEISTER 2.0 E, NY","Latitude":"43.38695","Longitude":"-74.67723","Snowdepth":"11.000","Units":"in","Rept_Date":"2020-12-18 13"},"coordinates":[5068,4810]},{"type":"Point","properties":{"Station_ID":"NY-DT-8","Station_Nam":"MILLBROOK 3.2 SE, NY","Latitude":"41.75230","Longitude":"-73.64880","Snowdepth":"11.000","Units":"in","Rept_Date":"2020-12-18 12"},"coordinates":[5299,3793]},{"type":"Point","properties":{"Station_ID":"NH-ST-14","Station_Nam":"DOVER 2.5 N, NH","Latitude":"43.22584","Longitude":"-70.89270","Snowdepth":"11.000","Units":"in","Rept_Date":"2020-12-18 12"},"coordinates":[5919,4710]},{"type":"Point","properties":{"Station_ID":"NH-CS-10","Station_Nam":"RANDOLPH 1.4 NE, NH","Latitude":"44.38824","Longitude":"-71.26950","Snowdepth":"11.000","Units":"in","Rept_Date":"2020-12-18 12"},"coordinates":[5834,5433]},{"type":"Point","properties":{"Station_ID":"NCKN6","Station_Nam":"NORTH CREEK 5 SE","Latitude":"43.66110","Longitude":"-73.89690","Snowdepth":"11.000","Units":"in","Rept_Date":"2020-12-18 12"},"coordinates":[5244,4981]},{"type":"Point","properties":{"Station_ID":"ME-YK-28","Station_Nam":"BIDDEFORD 1.5 NNE, ME","Latitude":"43.48679","Longitude":"-70.43470","Snowdepth":"11.000","Units":"in","Rept_Date":"2020-12-18 12"},"coordinates":[6021,4872]},{"type":"Point","properties":{"Station_ID":"ME-CM-3","Station_Nam":"NEW GLOUCESTER 3.0 SE, ME","Latitude":"43.92372","Longitude":"-70.25790","Snowdepth":"11.000","Units":"in","Rept_Date":"2020-12-18 12"},"coordinates":[6061,5144]},{"type":"Point","properties":{"Station_ID":"MA-WR-89","Station_Nam":"HOLDEN 0.9 SSE, MA","Latitude":"42.33809","Longitude":"-71.85686","Snowdepth":"11.000","Units":"in","Rept_Date":"2020-12-18 12"},"coordinates":[5702,4158]},{"type":"Point","properties":{"Station_ID":"MA-NF-19","Station_Nam":"FOXBOROUGH 1.8 SSW, MA","Latitude":"42.04205","Longitude":"-71.26463","Snowdepth":"11.000","Units":"in","Rept_Date":"2020-12-18 13"},"coordinates":[5835,3974]},{"type":"Point","properties":{"Station_ID":"MA-NF-11","Station_Nam":"MILLIS 2.0 SW, MA","Latitude":"42.14602","Longitude":"-71.37940","Snowdepth":"11.000","Units":"in","Rept_Date":"2020-12-18 13"},"coordinates":[5809,4038]},{"type":"Point","properties":{"Station_ID":"MA-NF-1","Station_Nam":"NORWOOD 1.3 NW, MA","Latitude":"42.19738","Longitude":"-71.21526","Snowdepth":"11.000","Units":"in","Rept_Date":"2020-12-18 12"},"coordinates":[5846,4070]},{"type":"Point","properties":{"Station_ID":"MA-MD-44","Station_Nam":"MEDFORD 1.2 W, MA","Latitude":"42.42276","Longitude":"-71.13180","Snowdepth":"11.000","Units":"in","Rept_Date":"2020-12-18 10"},"coordinates":[5865,4211]},{"type":"Point","properties":{"Station_ID":"MA-MD-160","Station_Nam":"READING 1.2 N, MA","Latitude":"42.55319","Longitude":"-71.10330","Snowdepth":"11.000","Units":"in","Rept_Date":"2020-12-18 11"},"coordinates":[5871,4292]},{"type":"Point","properties":{"Station_ID":"MA-MD-158","Station_Nam":"SHERBORN 1.1 NW, MA","Latitude":"42.24460","Longitude":"-71.38130","Snowdepth":"11.000","Units":"in","Rept_Date":"2020-12-18 11"},"coordinates":[5809,4100]},{"type":"Point","properties":{"Station_ID":"MA-MD-12","Station_Nam":"ACTON 1.3 SW, MA","Latitude":"42.46746","Longitude":"-71.48200","Snowdepth":"11.000","Units":"in","Rept_Date":"2020-12-18 12"},"coordinates":[5786,4238]},{"type":"Point","properties":{"Station_ID":"MA-HS-2","Station_Nam":"WESTHAMPTON 1.8 SW, MA","Latitude":"42.27943","Longitude":"-72.78700","Snowdepth":"11.000","Units":"in","Rept_Date":"2020-12-18 12"},"coordinates":[5493,4121]},{"type":"Point","properties":{"Station_ID":"MA-HD-30","Station_Nam":"HAMPDEN 2.0 NW, MA","Latitude":"42.08370","Longitude":"-72.44895","Snowdepth":"11.000","Units":"in","Rept_Date":"2020-12-18 13"},"coordinates":[5569,4000]},{"type":"Point","properties":{"Station_ID":"MA-FR-10","Station_Nam":"CONWAY 0.9 SW, MA","Latitude":"42.50879","Longitude":"-72.69730","Snowdepth":"11.000","Units":"in","Rept_Date":"2020-12-18 13"},"coordinates":[5513,4264]},{"type":"Point","properties":{"Station_ID":"MA-ES-66","Station_Nam":"NORTH ANDOVER 0.3 NW, MA","Latitude":"42.70375","Longitude":"-71.12029","Snowdepth":"11.000","Units":"in","Rept_Date":"2020-12-18 13"},"coordinates":[5867,4385]},{"type":"Point","properties":{"Station_ID":"LLLM3","Station_Nam":"LOWELL","Latitude":"42.64090","Longitude":"-71.36370","Snowdepth":"11.000","Units":"in","Rept_Date":"2020-12-18 11"},"coordinates":[5813,4346]},{"type":"Point","properties":{"Station_ID":"LBKV1","Station_Nam":"LYE BROOK","Latitude":"43.05000","Longitude":"-73.03330","Snowdepth":"11.000","Units":"in","Rept_Date":"2020-12-19 06"},"coordinates":[5438,4601]},{"type":"Point","properties":{"Station_ID":"HUBN3","Station_Nam":"HUBBARD BROOK","Latitude":"43.93330","Longitude":"-71.71670","Snowdepth":"11.000","Units":"in","Rept_Date":"2020-12-19 06"},"coordinates":[5733,5150]},{"type":"Point","properties":{"Station_ID":"GYX","Station_Nam":"PORTLAND, ME","Latitude":"43.89250","Longitude":"-70.25500","Snowdepth":"11.000","Units":"in","Rept_Date":"2020-12-18 12"},"coordinates":[6062,5125]},{"type":"Point","properties":{"Station_ID":"DJBP1","Station_Nam":"DUBOIS 2S","Latitude":"41.09470","Longitude":"-78.75550","Snowdepth":"11.000","Units":"in","Rept_Date":"2020-12-18 14"},"coordinates":[4152,3384]},{"type":"Point","properties":{"Station_ID":"CT-WN-8","Station_Nam":"MOOSUP 1.7 NE, CT","Latitude":"41.73180","Longitude":"-71.84667","Snowdepth":"11.000","Units":"in","Rept_Date":"2020-12-18 11"},"coordinates":[5704,3781]},{"type":"Point","properties":{"Station_ID":"CT-MD-23","Station_Nam":"HIGGANUM 0.7 N, CT","Latitude":"41.50106","Longitude":"-72.55595","Snowdepth":"11.000","Units":"in","Rept_Date":"2020-12-18 13"},"coordinates":[5545,3637]},{"type":"Point","properties":{"Station_ID":"CT-LT-9","Station_Nam":"NEW HARTFORD CENTER 3.2 SW, CT","Latitude":"41.84170","Longitude":"-73.00920","Snowdepth":"11.000","Units":"in","Rept_Date":"2020-12-18 12"},"coordinates":[5443,3849]},{"type":"Point","properties":{"Station_ID":"CT-LT-20","Station_Nam":"WARREN 2.4 WNW, CT","Latitude":"41.75488","Longitude":"-73.39284","Snowdepth":"11.000","Units":"in","Rept_Date":"2020-12-18 12"},"coordinates":[5357,3795]},{"type":"Point","properties":{"Station_ID":"CT-HR-57","Station_Nam":"SUFFIELD DEPOT 3.3 NNE, CT","Latitude":"42.02743","Longitude":"-72.63149","Snowdepth":"11.000","Units":"in","Rept_Date":"2020-12-18 11"},"coordinates":[5528,3965]},{"type":"Point","properties":{"Station_ID":"CT-FR-58","Station_Nam":"RIDGEFIELD 3.6 N, CT","Latitude":"41.32589","Longitude":"-73.48902","Snowdepth":"11.000","Units":"in","Rept_Date":"2020-12-18 11"},"coordinates":[5335,3528]},{"type":"Point","properties":{"Station_ID":"CSBP1","Station_Nam":"COOKSBURG","Latitude":"41.35750","Longitude":"-79.21720","Snowdepth":"11.000","Units":"in","Rept_Date":"2020-12-18 12"},"coordinates":[4048,3548]},{"type":"Point","properties":{"Station_ID":"CNDP1","Station_Nam":"CANADENSIS","Latitude":"41.18980","Longitude":"-75.23830","Snowdepth":"11.000","Units":"in","Rept_Date":"2020-12-18 12"},"coordinates":[4942,3443]},{"type":"Point","properties":{"Station_ID":"CCON6","Station_Nam":"CALLICOON CENTER","Latitude":"41.82750","Longitude":"-74.95060","Snowdepth":"11.000","Units":"in","Rept_Date":"2020-12-18 13"},"coordinates":[5007,3840]},{"type":"Point","properties":{"Station_ID":"BEVM3","Station_Nam":"BEVERLY","Latitude":"42.58800","Longitude":"-70.83710","Snowdepth":"11.000","Units":"in","Rept_Date":"2020-12-18 12"},"coordinates":[5931,4313]},{"type":"Point","properties":{"Station_ID":"BAKC3","Station_Nam":"BAKERSVILLE","Latitude":"41.84180","Longitude":"-73.00850","Snowdepth":"11.000","Units":"in","Rept_Date":"2020-12-18 12"},"coordinates":[5443,3849]},{"type":"Point","properties":{"Station_ID":"CT-FR-43","Station_Nam":"BETHEL 0.5 E, CT","Latitude":"41.37032","Longitude":"-73.40136","Snowdepth":"10.800","Units":"in","Rept_Date":"2020-12-18 12"},"coordinates":[5355,3556]},{"type":"Point","properties":{"Station_ID":"NY-CB-15","Station_Nam":"ANCRAMDALE 0.2 N, NY","Latitude":"42.02078","Longitude":"-73.59253","Snowdepth":"10.700","Units":"in","Rept_Date":"2020-12-18 12"},"coordinates":[5312,3960]},{"type":"Point","properties":{"Station_ID":"CT-HR-99","Station_Nam":"SUFFIELD 3.6 ENE, CT","Latitude":"42.01498","Longitude":"-72.63842","Snowdepth":"10.700","Units":"in","Rept_Date":"2020-12-18 12"},"coordinates":[5526,3957]},{"type":"Point","properties":{"Station_ID":"QTV","Station_Nam":"QTV","Latitude":"49.66000","Longitude":"-69.35690","Snowdepth":"10.591","Units":"in","Rept_Date":"2020-12-18 12"},"coordinates":[6264,8713]},{"type":"Point","properties":{"Station_ID":"RI-PR-51","Station_Nam":"NORTH SMITHFIELD 0.6 S, RI","Latitude":"41.95440","Longitude":"-71.54944","Snowdepth":"10.500","Units":"in","Rept_Date":"2020-12-18 11"},"coordinates":[5771,3919]},{"type":"Point","properties":{"Station_ID":"PA-PK-22","Station_Nam":"MILFORD 8.7 NW, PA","Latitude":"41.42018","Longitude":"-74.90953","Snowdepth":"10.500","Units":"in","Rept_Date":"2020-12-18 12"},"coordinates":[5016,3587]},{"type":"Point","properties":{"Station_ID":"PA-FY-16","Station_Nam":"FARMINGTON 0.5 ENE, PA","Latitude":"39.81000","Longitude":"-79.55760","Snowdepth":"10.500","Units":"in","Rept_Date":"2020-12-18 12"},"coordinates":[3972,2585]},{"type":"Point","properties":{"Station_ID":"PA-CM-9","Station_Nam":"PATTON 5.1 ENE, PA","Latitude":"40.65150","Longitude":"-78.55500","Snowdepth":"10.500","Units":"in","Rept_Date":"2020-12-18 17"},"coordinates":[4197,3109]},{"type":"Point","properties":{"Station_ID":"NH-RC-80","Station_Nam":"NEWTON 1.8 NW, NH","Latitude":"42.88410","Longitude":"-71.06330","Snowdepth":"10.500","Units":"in","Rept_Date":"2020-12-18 14"},"coordinates":[5880,4498]},{"type":"Point","properties":{"Station_ID":"NH-HL-49","Station_Nam":"MONT VERNON 1.3 SSW, NH","Latitude":"42.87616","Longitude":"-71.68280","Snowdepth":"10.500","Units":"in","Rept_Date":"2020-12-18 12"},"coordinates":[5741,4493]},{"type":"Point","properties":{"Station_ID":"ME-LN-1","Station_Nam":"NEWCASTLE 2.1 SW, ME","Latitude":"44.02767","Longitude":"-69.56860","Snowdepth":"10.500","Units":"in","Rept_Date":"2020-12-18 12"},"coordinates":[6216,5209]},{"type":"Point","properties":{"Station_ID":"ME-AR-18","Station_Nam":"NEW SWEDEN 4.9 NNW, ME","Latitude":"47.01080","Longitude":"-68.14390","Snowdepth":"10.500","Units":"in","Rept_Date":"2020-12-18 12"},"coordinates":[6536,7065]},{"type":"Point","properties":{"Station_ID":"MA-PL-23","Station_Nam":"PEMBROKE 2.8 SW, MA","Latitude":"42.03841","Longitude":"-70.83937","Snowdepth":"10.500","Units":"in","Rept_Date":"2020-12-18 13"},"coordinates":[5931,3971]},{"type":"Point","properties":{"Station_ID":"MA-ES-71","Station_Nam":"DANVERS 2.5 NNE, MA","Latitude":"42.60657","Longitude":"-70.93985","Snowdepth":"10.500","Units":"in","Rept_Date":"2020-12-18 12"},"coordinates":[5908,4325]},{"type":"Point","properties":{"Station_ID":"MA-ES-22","Station_Nam":"ROCKPORT 1.0 E, MA","Latitude":"42.64483","Longitude":"-70.59913","Snowdepth":"10.500","Units":"in","Rept_Date":"2020-12-18 14"},"coordinates":[5984,4349]},{"type":"Point","properties":{"Station_ID":"CT-NH-22","Station_Nam":"PROSPECT 0.5 SW, CT","Latitude":"41.49734","Longitude":"-72.98605","Snowdepth":"10.500","Units":"in","Rept_Date":"2020-12-18 13"},"coordinates":[5448,3635]},{"type":"Point","properties":{"Station_ID":"CT-HR-106","Station_Nam":"SOUTHWOOD ACRES 0.3 WSW, CT","Latitude":"41.96143","Longitude":"-72.57730","Snowdepth":"10.500","Units":"in","Rept_Date":"2020-12-18 12"},"coordinates":[5540,3923]},{"type":"Point","properties":{"Station_ID":"QWE","Station_Nam":"QWE","Latitude":"47.84610","Longitude":"-73.80670","Snowdepth":"10.354","Units":"in","Rept_Date":"2020-12-18 12"},"coordinates":[5264,7585]},{"type":"Point","properties":{"Station_ID":"AUDQ6","Station_Nam":"AUDEN","Latitude":"48.52600","Longitude":"-82.57570","Snowdepth":"10.310","Units":"in","Rept_Date":"2020-12-19 06"},"coordinates":[3294,8008]},{"type":"Point","properties":{"Station_ID":"PA-CB-16","Station_Nam":"JIM THORPE 1.1 NNE, PA","Latitude":"40.88582","Longitude":"-75.73320","Snowdepth":"10.200","Units":"in","Rept_Date":"2020-12-18 12"},"coordinates":[4831,3254]},{"type":"Point","properties":{"Station_ID":"MA-PL-15","Station_Nam":"ABINGTON 1.2 NNE, MA","Latitude":"42.13426","Longitude":"-70.95208","Snowdepth":"10.200","Units":"in","Rept_Date":"2020-12-18 10"},"coordinates":[5905,4031]},{"type":"Point","properties":{"Station_ID":"MA-ES-68","Station_Nam":"NEWBURYPORT 1.3 WNW, MA","Latitude":"42.82380","Longitude":"-70.91140","Snowdepth":"10.200","Units":"in","Rept_Date":"2020-12-18 12"},"coordinates":[5914,4460]},{"type":"Point","properties":{"Station_ID":"QTM","Station_Nam":"QTM","Latitude":"51.05780","Longitude":"-72.57190","Snowdepth":"10.039","Units":"in","Rept_Date":"2020-12-18 12"},"coordinates":[5541,9583]},{"type":"Point","properties":{"Station_ID":"WV-PR-10","Station_Nam":"TERRA ALTA 4.9 NNE, WV","Latitude":"39.51024","Longitude":"-79.51024","Snowdepth":"10.000","Units":"in","Rept_Date":"2020-12-18 13"},"coordinates":[3983,2399]},{"type":"Point","properties":{"Station_ID":"WALM3","Station_Nam":"WALPOLE 2","Latitude":"42.16090","Longitude":"-71.24610","Snowdepth":"10.000","Units":"in","Rept_Date":"2020-12-18 12"},"coordinates":[5839,4048]},{"type":"Point","properties":{"Station_ID":"VT-AD-5","Station_Nam":"ORWELL 1.2 WNW, VT","Latitude":"43.81189","Longitude":"-73.31970","Snowdepth":"10.000","Units":"in","Rept_Date":"2020-12-18 12"},"coordinates":[5373,5075]},{"type":"Point","properties":{"Station_ID":"USBP1","Station_Nam":"USBP1","Latitude":"40.06110","Longitude":"-77.73330","Snowdepth":"10.000","Units":"in","Rept_Date":"2020-12-18 12"},"coordinates":[4382,2741]},{"type":"Point","properties":{"Station_ID":"TMSC3","Station_Nam":"THOMASTON DAM","Latitude":"41.69470","Longitude":"-73.06220","Snowdepth":"10.000","Units":"in","Rept_Date":"2020-12-18 12"},"coordinates":[5431,3758]},{"type":"Point","properties":{"Station_ID":"TMQP1","Station_Nam":"TAMAQUA,PA","Latitude":"40.85000","Longitude":"-75.98330","Snowdepth":"10.000","Units":"in","Rept_Date":"2020-12-18 13"},"coordinates":[4775,3232]},{"type":"Point","properties":{"Station_ID":"TLLM3","Station_Nam":"TULLY LAKE","Latitude":"42.63940","Longitude":"-72.22440","Snowdepth":"10.000","Units":"in","Rept_Date":"2020-12-18 12"},"coordinates":[5619,4345]},{"type":"Point","properties":{"Station_ID":"SPRP1","Station_Nam":"SPRINGTOWN 1 NNE","Latitude":"40.57110","Longitude":"-75.27810","Snowdepth":"10.000","Units":"in","Rept_Date":"2020-12-18 12"},"coordinates":[4933,3059]},{"type":"Point","properties":{"Station_ID":"SMTP1","Station_Nam":"SOUTH MOUNTAIN,PA","Latitude":"39.85000","Longitude":"-77.50000","Snowdepth":"10.000","Units":"in","Rept_Date":"2020-12-18 12"},"coordinates":[4434,2610]},{"type":"Point","properties":{"Station_ID":"SFVC3","Station_Nam":"STAFFORDVILLE","Latitude":"41.99840","Longitude":"-72.26060","Snowdepth":"10.000","Units":"in","Rept_Date":"2020-12-18 10"},"coordinates":[5611,3946]},{"type":"Point","properties":{"Station_ID":"SCHP1","Station_Nam":"FREEPORT DAM","Latitude":"40.68420","Longitude":"-79.66810","Snowdepth":"10.000","Units":"in","Rept_Date":"2020-12-18 12"},"coordinates":[3947,3129]},{"type":"Point","properties":{"Station_ID":"SBRM3","Station_Nam":"SOUTHBRIDGE","Latitude":"42.05830","Longitude":"-72.07210","Snowdepth":"10.000","Units":"in","Rept_Date":"2020-12-18 12"},"coordinates":[5654,3984]},{"type":"Point","properties":{"Station_ID":"RI-PR-82","Station_Nam":"PROVIDENCE 1.6 NNW, RI","Latitude":"41.84110","Longitude":"-71.43575","Snowdepth":"10.000","Units":"in","Rept_Date":"2020-12-18 12"},"coordinates":[5797,3849]},{"type":"Point","properties":{"Station_ID":"RDWP1","Station_Nam":"RIDGWAY,PA","Latitude":"41.41670","Longitude":"-78.75000","Snowdepth":"10.000","Units":"in","Rept_Date":"2020-12-18 12"},"coordinates":[4153,3585]},{"type":"Point","properties":{"Station_ID":"PGLP1","Station_Nam":"GLENDALE LAKE","Latitude":"40.65000","Longitude":"-78.55000","Snowdepth":"10.000","Units":"in","Rept_Date":"2020-12-18 17"},"coordinates":[4198,3108]},{"type":"Point","properties":{"Station_ID":"PA-YR-20","Station_Nam":"MOUNT WOLF 1.0 SE, PA","Latitude":"40.04881","Longitude":"-76.69480","Snowdepth":"10.000","Units":"in","Rept_Date":"2020-12-18 12"},"coordinates":[4615,2734]},{"type":"Point","properties":{"Station_ID":"PA-WT-19","Station_Nam":"LEECHBURG 1.4 SW, PA","Latitude":"40.61529","Longitude":"-79.62137","Snowdepth":"10.000","Units":"in","Rept_Date":"2020-12-18 13"},"coordinates":[3958,3086]},{"type":"Point","properties":{"Station_ID":"PA-PT-2","Station_Nam":"ROULETTE 1.8 NNE, PA","Latitude":"41.80759","Longitude":"-78.14140","Snowdepth":"10.000","Units":"in","Rept_Date":"2020-12-18 12"},"coordinates":[4290,3828]},{"type":"Point","properties":{"Station_ID":"PA-BT-40","Station_Nam":"CABOT 1.6 WNW, PA","Latitude":"40.77250","Longitude":"-79.79560","Snowdepth":"10.000","Units":"in","Rept_Date":"2020-12-18 12"},"coordinates":[3919,3184]},{"type":"Point","properties":{"Station_ID":"PA-BT-24","Station_Nam":"CABOT 0.3 N, PA","Latitude":"40.76870","Longitude":"-79.76690","Snowdepth":"10.000","Units":"in","Rept_Date":"2020-12-18 12"},"coordinates":[3925,3181]},{"type":"Point","properties":{"Station_ID":"PA-AR-7","Station_Nam":"KITTANNING 1.3 SSW, PA","Latitude":"40.80945","Longitude":"-79.53059","Snowdepth":"10.000","Units":"in","Rept_Date":"2020-12-18 12"},"coordinates":[3978,3207]},{"type":"Point","properties":{"Station_ID":"OXFM3","Station_Nam":"BUFFUMVILLE LAKE","Latitude":"42.11630","Longitude":"-71.90740","Snowdepth":"10.000","Units":"in","Rept_Date":"2020-12-18 12"},"coordinates":[5691,4020]},{"type":"Point","properties":{"Station_ID":"NY-TM-36","Station_Nam":"ITHACA 2.0 ESE, NY","Latitude":"42.42932","Longitude":"-76.46871","Snowdepth":"10.000","Units":"in","Rept_Date":"2020-12-18 14"},"coordinates":[4666,4215]},{"type":"Point","properties":{"Station_ID":"NY-TM-3","Station_Nam":"ITHACA 1.1 SE, NY","Latitude":"42.43173","Longitude":"-76.48860","Snowdepth":"10.000","Units":"in","Rept_Date":"2020-12-18 12"},"coordinates":[4661,4216]},{"type":"Point","properties":{"Station_ID":"NY-SY-1","Station_Nam":"SMITH VALLEY 1.9 SE, NY","Latitude":"42.39072","Longitude":"-76.71760","Snowdepth":"10.000","Units":"in","Rept_Date":"2020-12-18 12"},"coordinates":[4610,4191]},{"type":"Point","properties":{"Station_ID":"NY-PT-2","Station_Nam":"BEACON 4.2 ESE, NY","Latitude":"41.48070","Longitude":"-73.89110","Snowdepth":"10.000","Units":"in","Rept_Date":"2020-12-18 13"},"coordinates":[5245,3624]},{"type":"Point","properties":{"Station_ID":"NY-OR-19","Station_Nam":"GREENWOOD LAKE 3.0 SW, NY","Latitude":"41.18900","Longitude":"-74.32650","Snowdepth":"10.000","Units":"in","Rept_Date":"2020-12-18 13"},"coordinates":[5147,3443]},{"type":"Point","properties":{"Station_ID":"NTHM3","Station_Nam":"NORTHBRIDGE 2","Latitude":"42.11500","Longitude":"-71.67600","Snowdepth":"10.000","Units":"in","Rept_Date":"2020-12-18 12"},"coordinates":[5743,4019]},{"type":"Point","properties":{"Station_ID":"NJ-SS-54","Station_Nam":"SPARTA TWP 3.6 SSW, NJ","Latitude":"41.00503","Longitude":"-74.66358","Snowdepth":"10.000","Units":"in","Rept_Date":"2020-12-18 12"},"coordinates":[5071,3328]},{"type":"Point","properties":{"Station_ID":"NJ-SS-1","Station_Nam":"ANDOVER TWP 1.7 W, NJ","Latitude":"41.01974","Longitude":"-74.76110","Snowdepth":"10.000","Units":"in","Rept_Date":"2020-12-18 12"},"coordinates":[5050,3338]},{"type":"Point","properties":{"Station_ID":"NJ-HN-7","Station_Nam":"BETHLEHEM TWP 0.6 S, NJ","Latitude":"40.65995","Longitude":"-75.00803","Snowdepth":"10.000","Units":"in","Rept_Date":"2020-12-18 14"},"coordinates":[4994,3114]},{"type":"Point","properties":{"Station_ID":"NH-HL-82","Station_Nam":"MANCHESTER 2.5 S, NH","Latitude":"42.94781","Longitude":"-71.43695","Snowdepth":"10.000","Units":"in","Rept_Date":"2020-12-18 20"},"coordinates":[5796,4537]},{"type":"Point","properties":{"Station_ID":"NH-CR-27","Station_Nam":"TAMWORTH 0.4 NNW, NH","Latitude":"43.86449","Longitude":"-71.26610","Snowdepth":"10.000","Units":"in","Rept_Date":"2020-12-18 12"},"coordinates":[5835,5107]},{"type":"Point","properties":{"Station_ID":"NH-BK-26","Station_Nam":"MEREDITH 3.3 NNE, NH","Latitude":"43.69844","Longitude":"-71.46930","Snowdepth":"10.000","Units":"in","Rept_Date":"2020-12-18 13"},"coordinates":[5789,5004]},{"type":"Point","properties":{"Station_ID":"MWN","Station_Nam":"MOUNT WASHINGTON","Latitude":"44.26670","Longitude":"-71.30000","Snowdepth":"10.000","Units":"in","Rept_Date":"2020-12-18 12"},"coordinates":[5827,5358]},{"type":"Point","properties":{"Station_ID":"MMNV1","Station_Nam":"MT. MANSFIELD","Latitude":"44.52480","Longitude":"-72.81540","Snowdepth":"10.000","Units":"in","Rept_Date":"2020-12-18 21"},"coordinates":[5487,5518]},{"type":"Point","properties":{"Station_ID":"MHT","Station_Nam":"MANCHESTER AIRPORT GRENIER INDSTRL ARPK","Latitude":"42.93440","Longitude":"-71.43690","Snowdepth":"10.000","Units":"in","Rept_Date":"2020-12-18 12"},"coordinates":[5796,4529]},{"type":"Point","properties":{"Station_ID":"MECN6","Station_Nam":"MECKLENBURG 4 SW","Latitude":"42.44220","Longitude":"-76.75740","Snowdepth":"10.000","Units":"in","Rept_Date":"2020-12-18 12"},"coordinates":[4601,4223]},{"type":"Point","properties":{"Station_ID":"ME-KX-18","Station_Nam":"ROCKLAND 1.4 E, ME","Latitude":"44.12540","Longitude":"-69.10280","Snowdepth":"10.000","Units":"in","Rept_Date":"2020-12-18 12"},"coordinates":[6321,5270]},{"type":"Point","properties":{"Station_ID":"MA-WR-81","Station_Nam":"WORCESTER 1.6 SE, MA","Latitude":"42.25354","Longitude":"-71.78530","Snowdepth":"10.000","Units":"in","Rept_Date":"2020-12-18 12"},"coordinates":[5718,4105]},{"type":"Point","properties":{"Station_ID":"MA-WR-8","Station_Nam":"FITCHBURG 1.6 SSW, MA","Latitude":"42.56674","Longitude":"-71.82170","Snowdepth":"10.000","Units":"in","Rept_Date":"2020-12-18 11"},"coordinates":[5710,4300]},{"type":"Point","properties":{"Station_ID":"MA-WR-55","Station_Nam":"HARVARD 2.1 S, MA","Latitude":"42.46891","Longitude":"-71.58360","Snowdepth":"10.000","Units":"in","Rept_Date":"2020-12-18 12"},"coordinates":[5763,4239]},{"type":"Point","properties":{"Station_ID":"MA-WR-18","Station_Nam":"NORTHBOROUGH 0.6 SSE, MA","Latitude":"42.30367","Longitude":"-71.64620","Snowdepth":"10.000","Units":"in","Rept_Date":"2020-12-18 13"},"coordinates":[5749,4136]},{"type":"Point","properties":{"Station_ID":"MA-MD-51","Station_Nam":"MAYNARD 0.7 ESE, MA","Latitude":"42.42027","Longitude":"-71.44484","Snowdepth":"10.000","Units":"in","Rept_Date":"2020-12-18 12"},"coordinates":[5794,4209]},{"type":"Point","properties":{"Station_ID":"MA-HD-28","Station_Nam":"WESTFIELD 2.8 SE, MA","Latitude":"42.10685","Longitude":"-72.72148","Snowdepth":"10.000","Units":"in","Rept_Date":"2020-12-18 11"},"coordinates":[5508,4014]},{"type":"Point","properties":{"Station_ID":"MA-HD-25","Station_Nam":"LUDLOW 2.3 SW, MA","Latitude":"42.14523","Longitude":"-72.51650","Snowdepth":"10.000","Units":"in","Rept_Date":"2020-12-18 12"},"coordinates":[5554,4038]},{"type":"Point","properties":{"Station_ID":"KMWN","Station_Nam":"MOUNT WASHINGTON","Latitude":"44.26666","Longitude":"-71.30000","Snowdepth":"10.000","Units":"in","Rept_Date":"2020-12-19 06"},"coordinates":[5827,5358]},{"type":"Point","properties":{"Station_ID":"KBDL","Station_Nam":"BRADLEY INTERNATIONAL AIRPORT","Latitude":"41.93333","Longitude":"-72.68333","Snowdepth":"10.000","Units":"in","Rept_Date":"2020-12-18 18"},"coordinates":[5516,3906]},{"type":"Point","properties":{"Station_ID":"HVJP1","Station_Nam":"HIDDEN VALLEY COOP","Latitude":"40.04200","Longitude":"-79.25660","Snowdepth":"10.000","Units":"in","Rept_Date":"2020-12-18 13"},"coordinates":[4040,2729]},{"type":"Point","properties":{"Station_ID":"GREN3","Station_Nam":"GREENVILLE 1 NNE","Latitude":"42.78270","Longitude":"-71.79850","Snowdepth":"10.000","Units":"in","Rept_Date":"2020-12-18 11"},"coordinates":[5715,4434]},{"type":"Point","properties":{"Station_ID":"FVLN6","Station_Nam":"FREEVILLE,NY","Latitude":"42.51670","Longitude":"-76.33330","Snowdepth":"10.000","Units":"in","Rept_Date":"2020-12-18 13"},"coordinates":[4696,4269]},{"type":"Point","properties":{"Station_ID":"FDCP1","Station_Nam":"CROOKED CREEK LAKE","Latitude":"40.71360","Longitude":"-79.51500","Snowdepth":"10.000","Units":"in","Rept_Date":"2020-12-18 12"},"coordinates":[3982,3147]},{"type":"Point","properties":{"Station_ID":"CTYR1","Station_Nam":"COVENTRY 2","Latitude":"41.66840","Longitude":"-71.55710","Snowdepth":"10.000","Units":"in","Rept_Date":"2020-12-18 12"},"coordinates":[5769,3741]},{"type":"Point","properties":{"Station_ID":"CT-WN-20","Station_Nam":"PUTNAM 0.8 SW, CT","Latitude":"41.91460","Longitude":"-71.92142","Snowdepth":"10.000","Units":"in","Rept_Date":"2020-12-18 18"},"coordinates":[5687,3894]},{"type":"Point","properties":{"Station_ID":"CT-TL-18","Station_Nam":"HEBRON 5.3 NW, CT","Latitude":"41.71960","Longitude":"-72.43120","Snowdepth":"10.000","Units":"in","Rept_Date":"2020-12-18 12"},"coordinates":[5573,3773]},{"type":"Point","properties":{"Station_ID":"CT-NH-67","Station_Nam":"WATERBURY 1.3 WNW, CT","Latitude":"41.56308","Longitude":"-73.06255","Snowdepth":"10.000","Units":"in","Rept_Date":"2020-12-18 12"},"coordinates":[5431,3676]},{"type":"Point","properties":{"Station_ID":"CT-NH-43","Station_Nam":"WALLINGFORD CENTER 3.3 NNW, CT","Latitude":"41.49109","Longitude":"-72.85065","Snowdepth":"10.000","Units":"in","Rept_Date":"2020-12-18 12"},"coordinates":[5479,3631]},{"type":"Point","properties":{"Station_ID":"CT-LT-37","Station_Nam":"NEW MILFORD 3.1 WNW, CT","Latitude":"41.59784","Longitude":"-73.46574","Snowdepth":"10.000","Units":"in","Rept_Date":"2020-12-18 12"},"coordinates":[5341,3697]},{"type":"Point","properties":{"Station_ID":"CT-HR-82","Station_Nam":"SUFFIELD 0.5 NNE, CT","Latitude":"41.99783","Longitude":"-72.69896","Snowdepth":"10.000","Units":"in","Rept_Date":"2020-12-18 12"},"coordinates":[5513,3946]},{"type":"Point","properties":{"Station_ID":"CT-HR-8","Station_Nam":"NORTH GRANBY 1.3 ENE, CT","Latitude":"42.02440","Longitude":"-72.82070","Snowdepth":"10.000","Units":"in","Rept_Date":"2020-12-18 12"},"coordinates":[5485,3963]},{"type":"Point","properties":{"Station_ID":"CT-HR-22","Station_Nam":"EAST HARTFORD 1.3 E, CT","Latitude":"41.75716","Longitude":"-72.59160","Snowdepth":"10.000","Units":"in","Rept_Date":"2020-12-18 12"},"coordinates":[5537,3796]},{"type":"Point","properties":{"Station_ID":"CT-HR-15","Station_Nam":"SOUTHINGTON 3.0 E, CT","Latitude":"41.60798","Longitude":"-72.82220","Snowdepth":"10.000","Units":"in","Rept_Date":"2020-12-18 12"},"coordinates":[5485,3704]},{"type":"Point","properties":{"Station_ID":"CT-FR-41","Station_Nam":"BETHEL 3.5 NNE, CT","Latitude":"41.42154","Longitude":"-73.39820","Snowdepth":"10.000","Units":"in","Rept_Date":"2020-12-18 13"},"coordinates":[5356,3588]},{"type":"Point","properties":{"Station_ID":"CNRM1","Station_Nam":"CONNOR TWP","Latitude":"46.95830","Longitude":"-68.03330","Snowdepth":"10.000","Units":"in","Rept_Date":"2020-12-18 12"},"coordinates":[6561,7032]},{"type":"Point","properties":{"Station_ID":"BLHM3","Station_Nam":"BLUE HILL COOP","Latitude":"42.21230","Longitude":"-71.11370","Snowdepth":"10.000","Units":"in","Rept_Date":"2020-12-18 12"},"coordinates":[5869,4080]},{"type":"Point","properties":{"Station_ID":"APN","Station_Nam":"PHELPS COLLINS FIELD","Latitude":"45.07810","Longitude":"-83.56030","Snowdepth":"10.000","Units":"in","Rept_Date":"2020-12-19 00"},"coordinates":[3073,5863]},{"type":"Point","properties":{"Station_ID":"ALPM4","Station_Nam":"SNOW PAID OBSERVER FOR KAPN","Latitude":"45.03110","Longitude":"-83.55970","Snowdepth":"10.000","Units":"in","Rept_Date":"2020-12-18 18"},"coordinates":[3073,5833]},{"type":"Point","properties":{"Station_ID":"CAN-NS-105","Station_Nam":"SLUICE POINT 0.4 SSE, CAN","Latitude":"43.78767","Longitude":"-65.96486","Snowdepth":"9.900","Units":"in","Rept_Date":"2020-12-18 12"},"coordinates":[7026,5060]},{"type":"Point","properties":{"Station_ID":"RI-WS-36","Station_Nam":"CHARLESTOWN 3.0 WSW, RI","Latitude":"41.36086","Longitude":"-71.69118","Snowdepth":"9.800","Units":"in","Rept_Date":"2020-12-18 13"},"coordinates":[5739,3550]},{"type":"Point","properties":{"Station_ID":"QLP","Station_Nam":"QLP","Latitude":"48.13920","Longitude":"-72.63830","Snowdepth":"9.685","Units":"in","Rept_Date":"2020-12-18 12"},"coordinates":[5526,7767]},{"type":"Point","properties":{"Station_ID":"PA-AL-92","Station_Nam":"ASPINWALL 0.0 NW, PA","Latitude":"40.49283","Longitude":"-79.90432","Snowdepth":"9.600","Units":"in","Rept_Date":"2020-12-18 12"},"coordinates":[3894,3010]},{"type":"Point","properties":{"Station_ID":"RI-NW-11","Station_Nam":"TIVERTON 0.8 SSW, RI","Latitude":"41.64316","Longitude":"-71.20677","Snowdepth":"9.500","Units":"in","Rept_Date":"2020-12-18 11"},"coordinates":[5848,3725]},{"type":"Point","properties":{"Station_ID":"PA-WS-29","Station_Nam":"FINLEYVILLE 0.9 NNW, PA","Latitude":"40.26329","Longitude":"-80.01128","Snowdepth":"9.500","Units":"in","Rept_Date":"2020-12-18 12"},"coordinates":[3870,2867]},{"type":"Point","properties":{"Station_ID":"PA-AL-69","Station_Nam":"GIBSONIA 1.2 NE, PA","Latitude":"40.64052","Longitude":"-79.95061","Snowdepth":"9.500","Units":"in","Rept_Date":"2020-12-18 12"},"coordinates":[3884,3102]},{"type":"Point","properties":{"Station_ID":"NJ-WR-5","Station_Nam":"HACKETTSTOWN 0.8 W, NJ","Latitude":"40.85155","Longitude":"-74.84030","Snowdepth":"9.500","Units":"in","Rept_Date":"2020-12-18 12"},"coordinates":[5032,3233]},{"type":"Point","properties":{"Station_ID":"NH-CR-41","Station_Nam":"ALBANY 2.8 SW, NH","Latitude":"43.92648","Longitude":"-71.21556","Snowdepth":"9.500","Units":"in","Rept_Date":"2020-12-18 13"},"coordinates":[5846,5146]},{"type":"Point","properties":{"Station_ID":"MA-WR-6","Station_Nam":"SOUTHBRIDGE 0.6 E, MA","Latitude":"42.08422","Longitude":"-72.02250","Snowdepth":"9.500","Units":"in","Rept_Date":"2020-12-18 12"},"coordinates":[5665,4000]},{"type":"Point","properties":{"Station_ID":"MA-WR-41","Station_Nam":"AUBURN 2.6 SW, MA","Latitude":"42.17336","Longitude":"-71.86869","Snowdepth":"9.500","Units":"in","Rept_Date":"2020-12-18 14"},"coordinates":[5699,4055]},{"type":"Point","properties":{"Station_ID":"MA-PL-54","Station_Nam":"PLYMOUTH 12.5 SSE, MA","Latitude":"41.80213","Longitude":"-70.55631","Snowdepth":"9.500","Units":"in","Rept_Date":"2020-12-18 13"},"coordinates":[5994,3824]},