{"type":"Topology","objects":{"snowdepth_geo":{"type":"GeometryCollection","geometries":[{"type":"Point","coordinates":[-72.8154,44.5248],"properties":{"Station_ID":"MMNV1","Station_Nam":"MT. MANSFIELD","Latitude":"44.52480","Longitude":"-72.81540","Snowdepth":"84.000","Units":"in","Rept_Date":"2025-02-13 21"}},{"type":"Point","coordinates":[-69.9701,44.3065],"properties":{"Station_ID":"WTHM1","Station_Nam":"WINTHROP","Latitude":"44.30650","Longitude":"-69.97010","Snowdepth":"71.000","Units":"in","Rept_Date":"2025-02-13 13"}},{"type":"Point","coordinates":[-91.8221,51.7269],"properties":{"Station_ID":"CATQ6","Station_Nam":"CAT LAKE","Latitude":"51.72690","Longitude":"-91.82210","Snowdepth":"51.380","Units":"in","Rept_Date":"2025-02-14 06"}},{"type":"Point","coordinates":[-85.6855,46.4461],"properties":{"Station_ID":"56761_MADIS","Station_Nam":"MCMILLAN 7.4 N, MI","Latitude":"46.44610","Longitude":"-85.68550","Snowdepth":"51.000","Units":"in","Rept_Date":"2025-02-13 13"}},{"type":"Point","coordinates":[-71.1955,44.2594],"properties":{"Station_ID":"CRNN3","Station_Nam":"CARTER NOTCH","Latitude":"44.25940","Longitude":"-71.19550","Snowdepth":"50.000","Units":"in","Rept_Date":"2025-02-13 12"}},{"type":"Point","coordinates":[-71.7098,44.9988],"properties":{"Station_ID":"AVLV1","Station_Nam":"AVERILL","Latitude":"44.99880","Longitude":"-71.70980","Snowdepth":"50.000","Units":"in","Rept_Date":"2025-02-13 22"}},{"type":"Point","coordinates":[-71.2833,44.2613],"properties":{"Station_ID":"HTLN3","Station_Nam":"HERMIT LAKE SNOWPLOT","Latitude":"44.26130","Longitude":"-71.28330","Snowdepth":"45.000","Units":"in","Rept_Date":"2025-02-13 10"}},{"type":"Point","coordinates":[-86.6625,46.4121],"properties":{"Station_ID":"MNSM4","Station_Nam":"MUNISING","Latitude":"46.41210","Longitude":"-86.66250","Snowdepth":"44.000","Units":"in","Rept_Date":"2025-02-13 12"}},{"type":"Point","coordinates":[-88.6717,47.0416],"properties":{"Station_ID":"PDLM4","Station_Nam":"PAINESDALE","Latitude":"47.04160","Longitude":"-88.67170","Snowdepth":"41.000","Units":"in","Rept_Date":"2025-02-13 13"}},{"type":"Point","coordinates":[-75.5543,43.6051],"properties":{"Station_ID":"HGHN6","Station_Nam":"HIGHMARKET","Latitude":"43.60510","Longitude":"-75.55430","Snowdepth":"41.000","Units":"in","Rept_Date":"2025-02-13 11"}},{"type":"Point","coordinates":[-75.5384,43.37335],"properties":{"Station_ID":"NY-OD-2","Station_Nam":"POINT ROCK 0.6 SE, NY","Latitude":"43.37335","Longitude":"-75.53840","Snowdepth":"39.500","Units":"in","Rept_Date":"2025-02-13 13"}},{"type":"Point","coordinates":[-74.8088,43.1626],"properties":{"Station_ID":"NY-HR-18","Station_Nam":"SALISBURY CENTER 1.8 NW, NY","Latitude":"43.16260","Longitude":"-74.80880","Snowdepth":"38.000","Units":"in","Rept_Date":"2025-02-13 12"}},{"type":"Point","coordinates":[-88.854,46.8944],"properties":{"Station_ID":"57011_MADIS","Station_Nam":"TWIN LAKES 0.2 SW, MI","Latitude":"46.89440","Longitude":"-88.85400","Snowdepth":"37.000","Units":"in","Rept_Date":"2025-02-13 13"}},{"type":"Point","coordinates":[-79.43799,44.60338],"properties":{"Station_ID":"CAN-ON-674","Station_Nam":"ORILLIA 1.5 WSW, CAN","Latitude":"44.60338","Longitude":"-79.43799","Snowdepth":"35.800","Units":"in","Rept_Date":"2025-02-13 12"}},{"type":"Point","coordinates":[-88.417,47.2752],"properties":{"Station_ID":"KSGM4","Station_Nam":"KEARSARGE","Latitude":"47.27520","Longitude":"-88.41700","Snowdepth":"35.000","Units":"in","Rept_Date":"2025-02-13 13"}},{"type":"Point","coordinates":[-71.7031,44.1382],"properties":{"Station_ID":"LLHN3","Station_Nam":"LONESOME LAKE HUT","Latitude":"44.13820","Longitude":"-71.70310","Snowdepth":"33.000","Units":"in","Rept_Date":"2025-02-13 12"}},{"type":"Point","coordinates":[-71.4944,44.1959],"properties":{"Station_ID":"ZFHN3","Station_Nam":"ZEALAND FALLS HUT","Latitude":"44.19590","Longitude":"-71.49440","Snowdepth":"32.000","Units":"in","Rept_Date":"2025-02-13 12"}},{"type":"Point","coordinates":[-75.3697,43.4361],"properties":{"Station_ID":"BOON6","Station_Nam":"BOONVILLE 4 SSW","Latitude":"43.43610","Longitude":"-75.36970","Snowdepth":"32.000","Units":"in","Rept_Date":"2025-02-13 12"}},{"type":"Point","coordinates":[-80.81334,44.52575],"properties":{"Station_ID":"CAN-ON-840","Station_Nam":"BOGNOR 5.6 W - GSCA, CAN","Latitude":"44.52575","Longitude":"-80.81334","Snowdepth":"31.500","Units":"in","Rept_Date":"2025-02-13 12"}},{"type":"Point","coordinates":[-72.8333,44.5333],"properties":{"Station_ID":"MMSV1","Station_Nam":"MOUNT MANSFIELD","Latitude":"44.53330","Longitude":"-72.83330","Snowdepth":"31.000","Units":"in","Rept_Date":"2025-02-14 03"}},{"type":"Point","coordinates":[-79.81035,44.50564],"properties":{"Station_ID":"CAN-ON-245","Station_Nam":"PHELPSTON 3.1 ESE, CAN","Latitude":"44.50564","Longitude":"-79.81035","Snowdepth":"30.500","Units":"in","Rept_Date":"2025-02-13 12"}},{"type":"Point","coordinates":[-88.5795,47.1364],"properties":{"Station_ID":"QNCM4","Station_Nam":"QUINCY HILL","Latitude":"47.13640","Longitude":"-88.57950","Snowdepth":"30.000","Units":"in","Rept_Date":"2025-02-13 12"}},{"type":"Point","coordinates":[-72.28,44.631],"properties":{"Station_ID":"VT-OL-12","Station_Nam":"GREENSBORO 3.9 NNE, VT","Latitude":"44.63100","Longitude":"-72.28000","Snowdepth":"29.500","Units":"in","Rept_Date":"2025-02-13 13"}},{"type":"Point","coordinates":[-84.28515,46.50299],"properties":{"Station_ID":"CAN-ON-915","Station_Nam":"SAULT STE. MARIE 3.9 ESE, CAN","Latitude":"46.50299","Longitude":"-84.28515","Snowdepth":"29.100","Units":"in","Rept_Date":"2025-02-13 13"}},{"type":"Point","coordinates":[-72.4435,44.8916],"properties":{"Station_ID":"VT-OL-1","Station_Nam":"WESTFIELD 0.7 WNW, VT","Latitude":"44.89160","Longitude":"-72.44350","Snowdepth":"29.000","Units":"in","Rept_Date":"2025-02-13 12"}},{"type":"Point","coordinates":[-76.2693,43.3314],"properties":{"Station_ID":"PLMN6","Station_Nam":"PALERMO 2SSE","Latitude":"43.33140","Longitude":"-76.26930","Snowdepth":"29.000","Units":"in","Rept_Date":"2025-02-13 12"}},{"type":"Point","coordinates":[-76.27,43.331],"properties":{"Station_ID":"NY-OS-16","Station_Nam":"PHOENIX 7.0 NNE, NY","Latitude":"43.33100","Longitude":"-76.27000","Snowdepth":"29.000","Units":"in","Rept_Date":"2025-02-13 11"}},{"type":"Point","coordinates":[-73.9839,44.3042],"properties":{"Station_ID":"LPLN6","Station_Nam":"LAKE PLACID 2 S","Latitude":"44.30420","Longitude":"-73.98390","Snowdepth":"29.000","Units":"in","Rept_Date":"2025-02-13 13"}},{"type":"Point","coordinates":[-84.4026,46.4867],"properties":{"Station_ID":"ANJM4","Station_Nam":"SNOW PAID OBSERVER FOR KANJ","Latitude":"46.48670","Longitude":"-84.40260","Snowdepth":"29.000","Units":"in","Rept_Date":"2025-02-14 06"}},{"type":"Point","coordinates":[-80.95461,44.57837],"properties":{"Station_ID":"CAN-ON-5","Station_Nam":"OWEN SOUND 1.5 NW - GSCA, CAN","Latitude":"44.57837","Longitude":"-80.95461","Snowdepth":"28.500","Units":"in","Rept_Date":"2025-02-13 13"}},{"type":"Point","coordinates":[-74.2064,48.855],"properties":{"Station_ID":"CQGO","Station_Nam":"CQGO","Latitude":"48.85500","Longitude":"-74.20640","Snowdepth":"28.425","Units":"in","Rept_Date":"2025-02-13 12"}},{"type":"Point","coordinates":[-84.4025,46.4866],"properties":{"Station_ID":"SSMM4","Station_Nam":"SAULT STE MARIE","Latitude":"46.48660","Longitude":"-84.40250","Snowdepth":"28.000","Units":"in","Rept_Date":"2025-02-13 12"}},{"type":"Point","coordinates":[-76.2657,43.4383],"properties":{"Station_ID":"NY-OS-38","Station_Nam":"MEXICO COOP, NY","Latitude":"43.43830","Longitude":"-76.26570","Snowdepth":"28.000","Units":"in","Rept_Date":"2025-02-13 12"}},{"type":"Point","coordinates":[-76.2656,43.4383],"properties":{"Station_ID":"MXON6","Station_Nam":"MEXICO","Latitude":"43.43830","Longitude":"-76.26560","Snowdepth":"28.000","Units":"in","Rept_Date":"2025-02-13 12"}},{"type":"Point","coordinates":[-84.31971,46.48933],"properties":{"Station_ID":"MI-CP-14","Station_Nam":"SAULT STE. MARIE 2.2 E, MI","Latitude":"46.48933","Longitude":"-84.31971","Snowdepth":"28.000","Units":"in","Rept_Date":"2025-02-13 12"}},{"type":"Point","coordinates":[-76.4796,43.39771],"properties":{"Station_ID":"NY-OS-15","Station_Nam":"MINETTO 0.1 SE, NY","Latitude":"43.39771","Longitude":"-76.47960","Snowdepth":"27.500","Units":"in","Rept_Date":"2025-02-13 13"}},{"type":"Point","coordinates":[-69.6747,50.7925],"properties":{"Station_ID":"CQOU","Station_Nam":"CQOU","Latitude":"50.79250","Longitude":"-69.67470","Snowdepth":"27.480","Units":"in","Rept_Date":"2025-02-13 12"}},{"type":"Point","coordinates":[-72.3497,44.0935],"properties":{"Station_ID":"WTPV1","Station_Nam":"WEST TOPSHAM 2SW","Latitude":"44.09350","Longitude":"-72.34970","Snowdepth":"27.000","Units":"in","Rept_Date":"2025-02-13 12"}},{"type":"Point","coordinates":[-72.56234,44.87663],"properties":{"Station_ID":"VT-FR-30","Station_Nam":"MONTGOMERY 4.1 ESE, VT","Latitude":"44.87663","Longitude":"-72.56234","Snowdepth":"27.000","Units":"in","Rept_Date":"2025-02-13 12"}},{"type":"Point","coordinates":[-85.2672,45.3172],"properties":{"Station_ID":"CHRM4","Station_Nam":"CHARLEVOIX","Latitude":"45.31720","Longitude":"-85.26720","Snowdepth":"27.000","Units":"in","Rept_Date":"2025-02-13 13"}},{"type":"Point","coordinates":[-84.7188,44.9072],"properties":{"Station_ID":"APXM4","Station_Nam":"GAYLORD 9SSW","Latitude":"44.90720","Longitude":"-84.71880","Snowdepth":"27.000","Units":"in","Rept_Date":"2025-02-14 06"}},{"type":"Point","coordinates":[-88.6926,47.13156],"properties":{"Station_ID":"MI-HG-21","Station_Nam":"ATLANTIC MINE 3.9 NW, MI","Latitude":"47.13156","Longitude":"-88.69260","Snowdepth":"26.500","Units":"in","Rept_Date":"2025-02-13 12"}},{"type":"Point","coordinates":[-73.0333,43.05],"properties":{"Station_ID":"LBKV1","Station_Nam":"LYE BROOK","Latitude":"43.05000","Longitude":"-73.03330","Snowdepth":"26.000","Units":"in","Rept_Date":"2025-02-14 06"}},{"type":"Point","coordinates":[-88.3333,46.65],"properties":{"Station_ID":"HERM4","Station_Nam":"HERMAN,MI","Latitude":"46.65000","Longitude":"-88.33330","Snowdepth":"26.000","Units":"in","Rept_Date":"2025-02-13 13"}},{"type":"Point","coordinates":[-81.72765,44.09777],"properties":{"Station_ID":"CAN-ON-342","Station_Nam":"LURGAN BEACH 1.4 NNE - LHCC, CAN","Latitude":"44.09777","Longitude":"-81.72765","Snowdepth":"25.600","Units":"in","Rept_Date":"2025-02-13 12"}},{"type":"Point","coordinates":[-88.2077,46.5573],"properties":{"Station_ID":"MI-BG-3","Station_Nam":"THREE LAKES, MI","Latitude":"46.55730","Longitude":"-88.20770","Snowdepth":"25.500","Units":"in","Rept_Date":"2025-02-13 13"}},{"type":"Point","coordinates":[-72.66291,43.75217],"properties":{"Station_ID":"VT-WR-36","Station_Nam":"BARNARD 2.7 NW, VT","Latitude":"43.75217","Longitude":"-72.66291","Snowdepth":"25.000","Units":"in","Rept_Date":"2025-02-13 12"}},{"type":"Point","coordinates":[-84.3239,46.1864],"properties":{"Station_ID":"PICM4","Station_Nam":"PICKFORD 3NE","Latitude":"46.18640","Longitude":"-84.32390","Snowdepth":"25.000","Units":"in","Rept_Date":"2025-02-13 23"}},{"type":"Point","coordinates":[-71.2525,44.258],"properties":{"Station_ID":"GHMN3","Station_Nam":"PINKHAM NOTCH","Latitude":"44.25800","Longitude":"-71.25250","Snowdepth":"25.000","Units":"in","Rept_Date":"2025-02-13 10"}},{"type":"Point","coordinates":[-72.6265,44.31799],"properties":{"Station_ID":"VT-WS-7","Station_Nam":"MIDDLESEX 3.1 ENE, VT","Latitude":"44.31799","Longitude":"-72.62650","Snowdepth":"24.500","Units":"in","Rept_Date":"2025-02-13 14"}},{"type":"Point","coordinates":[-73.02,42.82],"properties":{"Station_ID":"VT-BN-12","Station_Nam":"STAMFORD 5.0 NNE, VT","Latitude":"42.82000","Longitude":"-73.02000","Snowdepth":"24.500","Units":"in","Rept_Date":"2025-02-13 21"}},{"type":"Point","coordinates":[-85.051,44.89981],"properties":{"Station_ID":"MI-AT-6","Station_Nam":"MANCELONA 0.5 ESE, MI","Latitude":"44.89981","Longitude":"-85.05100","Snowdepth":"24.500","Units":"in","Rept_Date":"2025-02-13 13"}},{"type":"Point","coordinates":[-76.5983,47.8275],"properties":{"Station_ID":"CQCU","Station_Nam":"CQCU","Latitude":"47.82750","Longitude":"-76.59830","Snowdepth":"24.370","Units":"in","Rept_Date":"2025-02-13 12"}},{"type":"Point","coordinates":[-75.1,50.7236],"properties":{"Station_ID":"CQLB","Station_Nam":"CQLB","Latitude":"50.72360","Longitude":"-75.10000","Snowdepth":"24.173","Units":"in","Rept_Date":"2025-02-13 12"}},{"type":"Point","coordinates":[-85.9394,44.2586],"properties":{"Station_ID":"WELM4","Station_Nam":"WELLSTON TIPPY DAM","Latitude":"44.25860","Longitude":"-85.93940","Snowdepth":"24.000","Units":"in","Rept_Date":"2025-02-13 13"}},{"type":"Point","coordinates":[-72.0481,44.6122],"properties":{"Station_ID":"SUTV1","Station_Nam":"SUTTON","Latitude":"44.61220","Longitude":"-72.04810","Snowdepth":"24.000","Units":"in","Rept_Date":"2025-02-13 13"}},{"type":"Point","coordinates":[-72.9,43.2667],"properties":{"Station_ID":"PERV1","Station_Nam":"PERU","Latitude":"43.26670","Longitude":"-72.90000","Snowdepth":"24.000","Units":"in","Rept_Date":"2025-02-13 12"}},{"type":"Point","coordinates":[-84.68467,44.96388],"properties":{"Station_ID":"MI-OT-17","Station_Nam":"GAYLORD 4.1 S, MI","Latitude":"44.96388","Longitude":"-84.68467","Snowdepth":"24.000","Units":"in","Rept_Date":"2025-02-13 12"}},{"type":"Point","coordinates":[-88.5294,47.10774],"properties":{"Station_ID":"MI-HG-1","Station_Nam":"HOUGHTON 1.6 ESE, MI","Latitude":"47.10774","Longitude":"-88.52940","Snowdepth":"24.000","Units":"in","Rept_Date":"2025-02-13 13"}},{"type":"Point","coordinates":[-88.5137,47.1167],"properties":{"Station_ID":"CGPM4","Station_Nam":"DOLLAR BAY","Latitude":"47.11670","Longitude":"-88.51370","Snowdepth":"24.000","Units":"in","Rept_Date":"2025-02-13 13"}},{"type":"Point","coordinates":[-73.8067,47.8461],"properties":{"Station_ID":"CQWE","Station_Nam":"CQWE","Latitude":"47.84610","Longitude":"-73.80670","Snowdepth":"23.543","Units":"in","Rept_Date":"2025-02-13 12"}},{"type":"Point","coordinates":[-73.7381,47.2564],"properties":{"Station_ID":"CQGA","Station_Nam":"CQGA","Latitude":"47.25640","Longitude":"-73.73810","Snowdepth":"23.110","Units":"in","Rept_Date":"2025-02-13 12"}},{"type":"Point","coordinates":[-71.3415,43.80976],"properties":{"Station_ID":"NH-CR-26","Station_Nam":"CENTER SANDWICH 4.9 E, NH","Latitude":"43.80976","Longitude":"-71.34150","Snowdepth":"23.000","Units":"in","Rept_Date":"2025-02-13 12"}},{"type":"Point","coordinates":[-71.3425,43.8099],"properties":{"Station_ID":"ESDN3","Station_Nam":"EAST SANDWICH","Latitude":"43.80990","Longitude":"-71.34250","Snowdepth":"23.000","Units":"in","Rept_Date":"2025-02-13 11"}},{"type":"Point","coordinates":[-89.5475,46.5869],"properties":{"Station_ID":"BERM4","Station_Nam":"BERGLAND DAM","Latitude":"46.58690","Longitude":"-89.54750","Snowdepth":"23.000","Units":"in","Rept_Date":"2025-02-13 13"}},{"type":"Point","coordinates":[-74.091,44.40915],"properties":{"Station_ID":"58111_MADIS","Station_Nam":"BLOOMINGDALE 0.2 NW, NY","Latitude":"44.40915","Longitude":"-74.09100","Snowdepth":"23.000","Units":"in","Rept_Date":"2025-02-13 12"}},{"type":"Point","coordinates":[-72.39245,44.66338],"properties":{"Station_ID":"VT-OL-26","Station_Nam":"CRAFTSBURY COMMON 0.8 NW, VT","Latitude":"44.66338","Longitude":"-72.39245","Snowdepth":"22.500","Units":"in","Rept_Date":"2025-02-13 12"}},{"type":"Point","coordinates":[-74.45287,43.4549],"properties":{"Station_ID":"NY-HM-10","Station_Nam":"LAKE PLEASANT 2.3 WSW, NY","Latitude":"43.45490","Longitude":"-74.45287","Snowdepth":"22.500","Units":"in","Rept_Date":"2025-02-13 12"}},{"type":"Point","coordinates":[-80.93025,44.58092],"properties":{"Station_ID":"CAN-ON-451","Station_Nam":"OWEN SOUND 1.2 N - GSCA, CAN","Latitude":"44.58092","Longitude":"-80.93025","Snowdepth":"22.500","Units":"in","Rept_Date":"2025-02-13 13"}},{"type":"Point","coordinates":[-74.4039,50.8328],"properties":{"Station_ID":"CQFT","Station_Nam":"CQFT","Latitude":"50.83280","Longitude":"-74.40390","Snowdepth":"22.126","Units":"in","Rept_Date":"2025-02-13 12"}},{"type":"Point","coordinates":[-69.3569,49.66],"properties":{"Station_ID":"CQTV","Station_Nam":"CQTV","Latitude":"49.66000","Longitude":"-69.35690","Snowdepth":"22.008","Units":"in","Rept_Date":"2025-02-13 12"}},{"type":"Point","coordinates":[-86.1065,44.53976],"properties":{"Station_ID":"MI-BZ-1","Station_Nam":"BENZONIA 5.3 S, MI","Latitude":"44.53976","Longitude":"-86.10650","Snowdepth":"22.000","Units":"in","Rept_Date":"2025-02-13 14"}},{"type":"Point","coordinates":[-71.7167,43.9333],"properties":{"Station_ID":"HUBN3","Station_Nam":"HUBBARD BROOK","Latitude":"43.93330","Longitude":"-71.71670","Snowdepth":"22.000","Units":"in","Rept_Date":"2025-02-14 06"}},{"type":"Point","coordinates":[-85.3653,44.5848],"properties":{"Station_ID":"FLAM4","Station_Nam":"FIFE LAKE 2WNW","Latitude":"44.58480","Longitude":"-85.36530","Snowdepth":"22.000","Units":"in","Rept_Date":"2025-02-13 12"}},{"type":"Point","coordinates":[-80.92735,44.71013],"properties":{"Station_ID":"CAN-ON-804","Station_Nam":"KEMBLE 1.6 S - GSCA, CAN","Latitude":"44.71013","Longitude":"-80.92735","Snowdepth":"22.000","Units":"in","Rept_Date":"2025-02-13 13"}},{"type":"Point","coordinates":[-91.793,50.7787],"properties":{"Station_ID":"SOCQ6","Station_Nam":"SOCKET LAKE","Latitude":"50.77870","Longitude":"-91.79300","Snowdepth":"21.770","Units":"in","Rept_Date":"2025-02-14 06"}},{"type":"Point","coordinates":[-68.8236,50.6617],"properties":{"Station_ID":"CMLZ","Station_Nam":"CMLZ","Latitude":"50.66170","Longitude":"-68.82360","Snowdepth":"21.575","Units":"in","Rept_Date":"2025-02-13 12"}},{"type":"Point","coordinates":[-72.76992,43.89418],"properties":{"Station_ID":"VT-WR-17","Station_Nam":"ROCHESTER 2.3 NE, VT","Latitude":"43.89418","Longitude":"-72.76992","Snowdepth":"21.500","Units":"in","Rept_Date":"2025-02-13 12"}},{"type":"Point","coordinates":[-74.4188,43.9907],"properties":{"Station_ID":"NY-HM-8","Station_Nam":"LONG LAKE 1.2 N, NY","Latitude":"43.99070","Longitude":"-74.41880","Snowdepth":"21.500","Units":"in","Rept_Date":"2025-02-13 12"}},{"type":"Point","coordinates":[-87.7644,49.1989],"properties":{"Station_ID":"DVLQ6","Station_Nam":"DEVIOUS LAKE","Latitude":"49.19890","Longitude":"-87.76440","Snowdepth":"21.260","Units":"in","Rept_Date":"2025-02-14 06"}},{"type":"Point","coordinates":[-67.1394,51.1114],"properties":{"Station_ID":"CQGD","Station_Nam":"CQGD","Latitude":"51.11140","Longitude":"-67.13940","Snowdepth":"21.220","Units":"in","Rept_Date":"2025-02-13 12"}},{"type":"Point","coordinates":[-91.1973,47.3824],"properties":{"Station_ID":"WLFM5","Station_Nam":"WOLF RIDGE ENVIRON LEARNING CENTER","Latitude":"47.38240","Longitude":"-91.19730","Snowdepth":"21.000","Units":"in","Rept_Date":"2025-02-13 13"}},{"type":"Point","coordinates":[-72.8077,44.3606],"properties":{"Station_ID":"VT-WS-19","Station_Nam":"WATERBURY 3.0 NW, VT","Latitude":"44.36060","Longitude":"-72.80770","Snowdepth":"21.000","Units":"in","Rept_Date":"2025-02-13 11"}},{"type":"Point","coordinates":[-72.0883,44.56491],"properties":{"Station_ID":"VT-CL-18","Station_Nam":"WHEELOCK 1.6 S, VT","Latitude":"44.56491","Longitude":"-72.08830","Snowdepth":"21.000","Units":"in","Rept_Date":"2025-02-13 12"}},{"type":"Point","coordinates":[-71.90238,43.29531],"properties":{"Station_ID":"NH-MR-60","Station_Nam":"SOUTH SUTTON 1.3 SE, NH","Latitude":"43.29531","Longitude":"-71.90238","Snowdepth":"21.000","Units":"in","Rept_Date":"2025-02-13 13"}},{"type":"Point","coordinates":[-86.75747,46.27805],"properties":{"Station_ID":"MI-AG-6","Station_Nam":"MUNISING 11.1 SSW, MI","Latitude":"46.27805","Longitude":"-86.75747","Snowdepth":"21.000","Units":"in","Rept_Date":"2025-02-13 12"}},{"type":"Point","coordinates":[-72.787,44.5843],"properties":{"Station_ID":"JEFV1","Station_Nam":"JEFFERSONVILLE","Latitude":"44.58430","Longitude":"-72.78700","Snowdepth":"21.000","Units":"in","Rept_Date":"2025-02-13 12"}},{"type":"Point","coordinates":[-74.2756,43.755],"properties":{"Station_ID":"INDN6","Station_Nam":"INDIAN LAKE","Latitude":"43.75500","Longitude":"-74.27560","Snowdepth":"21.000","Units":"in","Rept_Date":"2025-02-13 13"}},{"type":"Point","coordinates":[-72.3194,44.0069],"properties":{"Station_ID":"CORV1","Station_Nam":"CORINTH","Latitude":"44.00690","Longitude":"-72.31940","Snowdepth":"21.000","Units":"in","Rept_Date":"2025-02-13 12"}},{"type":"Point","coordinates":[-85.4086,44.2113],"properties":{"Station_ID":"CDLM4","Station_Nam":"CADILLAC 9&10 NEWS","Latitude":"44.21130","Longitude":"-85.40860","Snowdepth":"21.000","Units":"in","Rept_Date":"2025-02-13 12"}},{"type":"Point","coordinates":[-69.8119,45.6602],"properties":{"Station_ID":"BRAM1","Station_Nam":"BRASSUA DAM","Latitude":"45.66020","Longitude":"-69.81190","Snowdepth":"21.000","Units":"in","Rept_Date":"2025-02-13 12"}},{"type":"Point","coordinates":[-76.0556,43.30216],"properties":{"Station_ID":"51941_MADIS","Station_Nam":"WEST MONROE 1.6 NNE, NY","Latitude":"43.30216","Longitude":"-76.05560","Snowdepth":"21.000","Units":"in","Rept_Date":"2025-02-13 13"}},{"type":"Point","coordinates":[-85.1475,45.18639],"properties":{"Station_ID":"MI-CX-7","Station_Nam":"EAST JORDAN 2.1 NNW, MI","Latitude":"45.18639","Longitude":"-85.14750","Snowdepth":"20.500","Units":"in","Rept_Date":"2025-02-13 21"}},{"type":"Point","coordinates":[-73.8589,44.3931],"properties":{"Station_ID":"WHFN6","Station_Nam":"WILMINGTON 2W","Latitude":"44.39310","Longitude":"-73.85890","Snowdepth":"20.000","Units":"in","Rept_Date":"2025-02-13 13"}},{"type":"Point","coordinates":[-72.77637,42.97658],"properties":{"Station_ID":"VT-WH-19","Station_Nam":"EAST DOVER 1.8 N, VT","Latitude":"42.97658","Longitude":"-72.77637","Snowdepth":"20.000","Units":"in","Rept_Date":"2025-02-13 12"}},{"type":"Point","coordinates":[-74.4236,43.115],"properties":{"Station_ID":"PEKN6","Station_Nam":"PECK LAKE","Latitude":"43.11500","Longitude":"-74.42360","Snowdepth":"20.000","Units":"in","Rept_Date":"2025-02-13 12"}},{"type":"Point","coordinates":[-75.306,43.751],"properties":{"Station_ID":"NY-LW-12","Station_Nam":"CHASES LAKE COOP, NY","Latitude":"43.75100","Longitude":"-75.30600","Snowdepth":"20.000","Units":"in","Rept_Date":"2025-02-13 11"}},{"type":"Point","coordinates":[-72.00019,43.07635],"properties":{"Station_ID":"NH-HL-108","Station_Nam":"ANTRIM 4.1 NW, NH","Latitude":"43.07635","Longitude":"-72.00019","Snowdepth":"20.000","Units":"in","Rept_Date":"2025-02-13 12"}},{"type":"Point","coordinates":[-71.46461,44.33765],"properties":{"Station_ID":"NH-CS-19","Station_Nam":"CARROLL 4.6 NE, NH","Latitude":"44.33765","Longitude":"-71.46461","Snowdepth":"20.000","Units":"in","Rept_Date":"2025-02-13 12"}},{"type":"Point","coordinates":[-71.21556,43.92648],"properties":{"Station_ID":"NH-CR-41","Station_Nam":"ALBANY 2.8 SW, NH","Latitude":"43.92648","Longitude":"-71.21556","Snowdepth":"20.000","Units":"in","Rept_Date":"2025-02-13 13"}},{"type":"Point","coordinates":[-89.28143,46.85396],"properties":{"Station_ID":"MI-ON-4","Station_Nam":"ONTONAGON 1.8 ESE, MI","Latitude":"46.85396","Longitude":"-89.28143","Snowdepth":"20.000","Units":"in","Rept_Date":"2025-02-13 11"}},{"type":"Point","coordinates":[-70.4347,43.48679],"properties":{"Station_ID":"ME-YK-28","Station_Nam":"BIDDEFORD 1.5 NNE, ME","Latitude":"43.48679","Longitude":"-70.43470","Snowdepth":"20.000","Units":"in","Rept_Date":"2025-02-13 12"}},{"type":"Point","coordinates":[-84.0232,44.4199],"properties":{"Station_ID":"LUPM4","Station_Nam":"LUPTON 1S","Latitude":"44.41990","Longitude":"-84.02320","Snowdepth":"20.000","Units":"in","Rept_Date":"2025-02-13 13"}},{"type":"Point","coordinates":[-75.2998,43.7592],"properties":{"Station_ID":"GFDN6","Station_Nam":"CHASES LAKE","Latitude":"43.75920","Longitude":"-75.29980","Snowdepth":"20.000","Units":"in","Rept_Date":"2025-02-13 11"}},{"type":"Point","coordinates":[-85.1477,45.1863],"properties":{"Station_ID":"EJNM4","Station_Nam":"EAST JORDAN 2NW","Latitude":"45.18630","Longitude":"-85.14770","Snowdepth":"20.000","Units":"in","Rept_Date":"2025-02-13 21"}},{"type":"Point","coordinates":[-88.5983,47.13273],"properties":{"Station_ID":"54021_MADIS","Station_Nam":"HANCOCK 0.1 ENE, MI","Latitude":"47.13273","Longitude":"-88.59830","Snowdepth":"20.000","Units":"in","Rept_Date":"2025-02-13 11"}},{"type":"Point","coordinates":[-77.94117,44.0305],"properties":{"Station_ID":"CAN-ON-1028","Station_Nam":"COLBORNE 5.1 WNW, CAN","Latitude":"44.03050","Longitude":"-77.94117","Snowdepth":"19.700","Units":"in","Rept_Date":"2025-02-13 11"}},{"type":"Point","coordinates":[-72.3094,44.60528],"properties":{"Station_ID":"VT-OL-9","Station_Nam":"GREENSBORO 2.1 NNW, VT","Latitude":"44.60528","Longitude":"-72.30940","Snowdepth":"19.500","Units":"in","Rept_Date":"2025-02-13 12"}},{"type":"Point","coordinates":[-86.6594,49.0695],"properties":{"Station_ID":"PTLQ6","Station_Nam":"PORTAGE LAKE","Latitude":"49.06950","Longitude":"-86.65940","Snowdepth":"19.490","Units":"in","Rept_Date":"2025-02-14 06"}},{"type":"Point","coordinates":[-75.48952,45.27286],"properties":{"Station_ID":"CAN-ON-791","Station_Nam":"METCALFE 4.4 NNW, CAN","Latitude":"45.27286","Longitude":"-75.48952","Snowdepth":"19.300","Units":"in","Rept_Date":"2025-02-13 12"}},{"type":"Point","coordinates":[-72.8326,43.29092],"properties":{"Station_ID":"VT-BN-3","Station_Nam":"LANDGROVE 1.1 NNE, VT","Latitude":"43.29092","Longitude":"-72.83260","Snowdepth":"19.000","Units":"in","Rept_Date":"2025-02-13 13"}},{"type":"Point","coordinates":[-69.7167,45.5833],"properties":{"Station_ID":"RKWM1","Station_Nam":"MOOSEHEAD LAKE","Latitude":"45.58330","Longitude":"-69.71670","Snowdepth":"19.000","Units":"in","Rept_Date":"2025-02-13 12"}},{"type":"Point","coordinates":[-73.8786,43.12684],"properties":{"Station_ID":"NY-SR-22","Station_Nam":"GREENFIELD CENTER 1.6 W, NY","Latitude":"43.12684","Longitude":"-73.87860","Snowdepth":"19.000","Units":"in","Rept_Date":"2025-02-13 13"}},{"type":"Point","coordinates":[-73.75098,44.21543],"properties":{"Station_ID":"NY-ES-9","Station_Nam":"KEENE VALLEY 2.5 NE, NY","Latitude":"44.21543","Longitude":"-73.75098","Snowdepth":"19.000","Units":"in","Rept_Date":"2025-02-13 14"}},{"type":"Point","coordinates":[-71.9767,43.4189],"properties":{"Station_ID":"NLNN3","Station_Nam":"NEW LONDON","Latitude":"43.41890","Longitude":"-71.97670","Snowdepth":"19.000","Units":"in","Rept_Date":"2025-02-13 12"}},{"type":"Point","coordinates":[-71.1401,44.03556],"properties":{"Station_ID":"NH-CR-11","Station_Nam":"NORTH CONWAY 1.4 SSW, NH","Latitude":"44.03556","Longitude":"-71.14010","Snowdepth":"19.000","Units":"in","Rept_Date":"2025-02-13 12"}},{"type":"Point","coordinates":[-71.4693,43.69844],"properties":{"Station_ID":"NH-BK-26","Station_Nam":"MEREDITH 3.3 NNE, NH","Latitude":"43.69844","Longitude":"-71.46930","Snowdepth":"19.000","Units":"in","Rept_Date":"2025-02-13 13"}},{"type":"Point","coordinates":[-85.95783,44.22875],"properties":{"Station_ID":"MI-MN-1","Station_Nam":"WELLSTON 0.8 N, MI","Latitude":"44.22875","Longitude":"-85.95783","Snowdepth":"19.000","Units":"in","Rept_Date":"2025-02-13 15"}},{"type":"Point","coordinates":[-72.6786,44.658],"properties":{"Station_ID":"JOHV1","Station_Nam":"JOHNSON 2 N","Latitude":"44.65800","Longitude":"-72.67860","Snowdepth":"19.000","Units":"in","Rept_Date":"2025-02-13 12"}},{"type":"Point","coordinates":[-71.8902,44.8128],"properties":{"Station_ID":"ISLV1","Station_Nam":"ISLAND POND","Latitude":"44.81280","Longitude":"-71.89020","Snowdepth":"19.000","Units":"in","Rept_Date":"2025-02-13 14"}},{"type":"Point","coordinates":[-58.6185,48.55436],"properties":{"Station_ID":"CAN-NL-65","Station_Nam":"KIPPENS 0.7 NE, CA","Latitude":"48.55436","Longitude":"-58.61850","Snowdepth":"19.000","Units":"in","Rept_Date":"2025-02-13 12"}},{"type":"Point","coordinates":[-86.1311,44.5316],"properties":{"Station_ID":"BEUM4","Station_Nam":"BEULAH 7SSW","Latitude":"44.53160","Longitude":"-86.13110","Snowdepth":"19.000","Units":"in","Rept_Date":"2025-02-13 13"}},{"type":"Point","coordinates":[-72.6012,44.11338],"properties":{"Station_ID":"57811_MADIS","Station_Nam":"WILLIAMSTOWN 3.0 WSW, VT","Latitude":"44.11338","Longitude":"-72.60120","Snowdepth":"19.000","Units":"in","Rept_Date":"2025-02-13 12"}},{"type":"Point","coordinates":[-79.58289,43.95645],"properties":{"Station_ID":"CAN-ON-883","Station_Nam":"KING CITY 5.4 NW, CAN","Latitude":"43.95645","Longitude":"-79.58289","Snowdepth":"18.900","Units":"in","Rept_Date":"2025-02-13 13"}},{"type":"Point","coordinates":[-87.2292,49.2288],"properties":{"Station_ID":"TRIQ6","Station_Nam":"TRIO LAKE","Latitude":"49.22880","Longitude":"-87.22920","Snowdepth":"18.860","Units":"in","Rept_Date":"2025-02-14 06"}},{"type":"Point","coordinates":[-72.72821,45.40878],"properties":{"Station_ID":"CAN-QC-87","Station_Nam":"GRANBY 0.4 NE, CAN","Latitude":"45.40878","Longitude":"-72.72821","Snowdepth":"18.700","Units":"in","Rept_Date":"2025-02-13 12"}},{"type":"Point","coordinates":[-70.4719,50.1033],"properties":{"Station_ID":"CQMA","Station_Nam":"CQMA","Latitude":"50.10330","Longitude":"-70.47190","Snowdepth":"18.543","Units":"in","Rept_Date":"2025-02-13 12"}},{"type":"Point","coordinates":[-72.6907,44.46399],"properties":{"Station_ID":"VT-LM-1","Station_Nam":"STOWE 0.2 SW, VT","Latitude":"44.46399","Longitude":"-72.69070","Snowdepth":"18.500","Units":"in","Rept_Date":"2025-02-13 12"}},{"type":"Point","coordinates":[-75.91751,43.96231],"properties":{"Station_ID":"NY-JF-47","Station_Nam":"WATERTOWN 0.9 SSW, NY","Latitude":"43.96231","Longitude":"-75.91751","Snowdepth":"18.500","Units":"in","Rept_Date":"2025-02-13 12"}},{"type":"Point","coordinates":[-73.8978,43.8335],"properties":{"Station_ID":"NY-ES-6","Station_Nam":"OLMSTEDVILLE 4.6 NNE, NY","Latitude":"43.83350","Longitude":"-73.89780","Snowdepth":"18.500","Units":"in","Rept_Date":"2025-02-13 13"}},{"type":"Point","coordinates":[-71.2661,43.86449],"properties":{"Station_ID":"NH-CR-27","Station_Nam":"TAMWORTH 0.4 NNW, NH","Latitude":"43.86449","Longitude":"-71.26610","Snowdepth":"18.500","Units":"in","Rept_Date":"2025-02-13 12"}},{"type":"Point","coordinates":[-84.25089,44.24814],"properties":{"Station_ID":"MI-OG-6","Station_Nam":"WEST BRANCH 2.1 SSW, MI","Latitude":"44.24814","Longitude":"-84.25089","Snowdepth":"18.500","Units":"in","Rept_Date":"2025-02-13 12"}},{"type":"Point","coordinates":[-72.70871,45.06024],"properties":{"Station_ID":"CAN-QC-69","Station_Nam":"FRELIGHSBURG 10.3 E - MOUNT PINNACLE LAND TRUST, CAN","Latitude":"45.06024","Longitude":"-72.70871","Snowdepth":"18.500","Units":"in","Rept_Date":"2025-02-13 14"}},{"type":"Point","coordinates":[-70.2528,48.9203],"properties":{"Station_ID":"CQLM","Station_Nam":"CQLM","Latitude":"48.92030","Longitude":"-70.25280","Snowdepth":"18.268","Units":"in","Rept_Date":"2025-02-13 12"}},{"type":"Point","coordinates":[-94.2577,52.1145],"properties":{"Station_ID":"POPQ6","Station_Nam":"POPLAR HILL","Latitude":"52.11450","Longitude":"-94.25770","Snowdepth":"18.190","Units":"in","Rept_Date":"2025-02-14 06"}},{"type":"Point","coordinates":[-70.0806,51.3283],"properties":{"Station_ID":"CQCX","Station_Nam":"CQCX","Latitude":"51.32830","Longitude":"-70.08060","Snowdepth":"18.189","Units":"in","Rept_Date":"2025-02-13 12"}},{"type":"Point","coordinates":[-72.5822,44.3747],"properties":{"Station_ID":"WORV1","Station_Nam":"WORCESTER 2 W","Latitude":"44.37470","Longitude":"-72.58220","Snowdepth":"18.000","Units":"in","Rept_Date":"2025-02-13 12"}},{"type":"Point","coordinates":[-72.49197,43.46164],"properties":{"Station_ID":"VT-WR-10","Station_Nam":"WEST WINDSOR 1.7 S, VT","Latitude":"43.46164","Longitude":"-72.49197","Snowdepth":"18.000","Units":"in","Rept_Date":"2025-02-13 12"}},{"type":"Point","coordinates":[-72.70935,42.88484],"properties":{"Station_ID":"VT-WH-30","Station_Nam":"MARLBORO 2.0 NNE, VT","Latitude":"42.88484","Longitude":"-72.70935","Snowdepth":"18.000","Units":"in","Rept_Date":"2025-02-13 14"}},{"type":"Point","coordinates":[-72.88238,43.50806],"properties":{"Station_ID":"VT-RT-28","Station_Nam":"SHREWSBURY 0.8 W, VT","Latitude":"43.50806","Longitude":"-72.88238","Snowdepth":"18.000","Units":"in","Rept_Date":"2025-02-13 11"}},{"type":"Point","coordinates":[-72.97085,44.24461],"properties":{"Station_ID":"VT-AD-32","Station_Nam":"STARKSBORO 4.4 ENE, VT","Latitude":"44.24461","Longitude":"-72.97085","Snowdepth":"18.000","Units":"in","Rept_Date":"2025-02-13 14"}},{"type":"Point","coordinates":[-71.2661,43.8639],"properties":{"Station_ID":"TMWN3","Station_Nam":"TAMWORTH 4","Latitude":"43.86390","Longitude":"-71.26610","Snowdepth":"18.000","Units":"in","Rept_Date":"2025-02-13 12"}},{"type":"Point","coordinates":[-71.819,43.52],"properties":{"Station_ID":"NH-MR-6","Station_Nam":"DANBURY 2.2 ESE, NH","Latitude":"43.52000","Longitude":"-71.81900","Snowdepth":"18.000","Units":"in","Rept_Date":"2025-02-13 13"}},{"type":"Point","coordinates":[-72.7093,42.8846],"properties":{"Station_ID":"MRLV1","Station_Nam":"MARLBORO","Latitude":"42.88460","Longitude":"-72.70930","Snowdepth":"18.000","Units":"in","Rept_Date":"2025-02-13 14"}},{"type":"Point","coordinates":[-91.86862,47.88254],"properties":{"Station_ID":"MN-SL-328","Station_Nam":"ELY 1.8 SSW, MN","Latitude":"47.88254","Longitude":"-91.86862","Snowdepth":"18.000","Units":"in","Rept_Date":"2025-02-13 13"}},{"type":"Point","coordinates":[-74.306,44.8418],"properties":{"Station_ID":"MALN6","Station_Nam":"MALONE","Latitude":"44.84180","Longitude":"-74.30600","Snowdepth":"18.000","Units":"in","Rept_Date":"2025-02-13 12"}},{"type":"Point","coordinates":[-75.4829,43.7928],"properties":{"Station_ID":"LOWN6","Station_Nam":"LOWVILLE","Latitude":"43.79280","Longitude":"-75.48290","Snowdepth":"18.000","Units":"in","Rept_Date":"2025-02-13 12"}},{"type":"Point","coordinates":[-71.4645,43.5491],"properties":{"Station_ID":"LKPN3","Station_Nam":"LAKEPORT 2","Latitude":"43.54910","Longitude":"-71.46450","Snowdepth":"18.000","Units":"in","Rept_Date":"2025-02-13 11"}},{"type":"Point","coordinates":[-76.04525,45.42318],"properties":{"Station_ID":"CAN-ON-92","Station_Nam":"DUNROBIN 1.9 W - MVCA, CAN","Latitude":"45.42318","Longitude":"-76.04525","Snowdepth":"18.000","Units":"in","Rept_Date":"2025-02-13 12"}},{"type":"Point","coordinates":[-90.6567,50.2873],"properties":{"Station_ID":"SVBQ6","Station_Nam":"SAVANT BASE","Latitude":"50.28730","Longitude":"-90.65670","Snowdepth":"17.990","Units":"in","Rept_Date":"2025-02-14 06"}},{"type":"Point","coordinates":[-71.27124,46.76934],"properties":{"Station_ID":"CAN-QC-47","Station_Nam":"SAINTE-FOY 1.8 ENE, CAN","Latitude":"46.76934","Longitude":"-71.27124","Snowdepth":"17.900","Units":"in","Rept_Date":"2025-02-13 12"}},{"type":"Point","coordinates":[-70.01841,43.77025],"properties":{"Station_ID":"ME-CM-148","Station_Nam":"HARPSWELL 3.1 WSW, ME","Latitude":"43.77025","Longitude":"-70.01841","Snowdepth":"17.800","Units":"in","Rept_Date":"2025-02-13 12"}},{"type":"Point","coordinates":[-62.7087,46.42741],"properties":{"Station_ID":"CAN-PE-7","Station_Nam":"MORELL 1.4 NNW, CA","Latitude":"46.42741","Longitude":"-62.70870","Snowdepth":"17.700","Units":"in","Rept_Date":"2025-02-13 12"}},{"type":"Point","coordinates":[-71.22598,44.19069],"properties":{"Station_ID":"NH-CR-15","Station_Nam":"JACKSON 3.7 NW, NH","Latitude":"44.19069","Longitude":"-71.22598","Snowdepth":"17.500","Units":"in","Rept_Date":"2025-02-13 12"}},{"type":"Point","coordinates":[-91.955,47.875],"properties":{"Station_ID":"MN-SL-323","Station_Nam":"ELY 5.2 WSW, MN","Latitude":"47.87500","Longitude":"-91.95500","Snowdepth":"17.500","Units":"in","Rept_Date":"2025-02-13 13"}},{"type":"Point","coordinates":[-85.70346,44.64622],"properties":{"Station_ID":"MI-GT-28","Station_Nam":"GRAWN 1.3 SSW, MI","Latitude":"44.64622","Longitude":"-85.70346","Snowdepth":"17.500","Units":"in","Rept_Date":"2025-02-13 12"}},{"type":"Point","coordinates":[-70.18007,44.73396],"properties":{"Station_ID":"ME-FR-22","Station_Nam":"FARMINGTON 4.8 NNW, ME","Latitude":"44.73396","Longitude":"-70.18007","Snowdepth":"17.500","Units":"in","Rept_Date":"2025-02-13 14"}},{"type":"Point","coordinates":[-82.5757,48.526],"properties":{"Station_ID":"AUDQ6","Station_Nam":"AUDEN","Latitude":"48.52600","Longitude":"-82.57570","Snowdepth":"17.440","Units":"in","Rept_Date":"2025-02-14 06"}},{"type":"Point","coordinates":[-72.10523,44.23024],"properties":{"Station_ID":"VT-CL-23","Station_Nam":"RYEGATE 1.5 N, VT","Latitude":"44.23024","Longitude":"-72.10523","Snowdepth":"17.200","Units":"in","Rept_Date":"2025-02-13 12"}},{"type":"Point","coordinates":[-72.5072,43.6303],"properties":{"Station_ID":"WDSV1","Station_Nam":"WOODSTOCK","Latitude":"43.63030","Longitude":"-72.50720","Snowdepth":"17.000","Units":"in","Rept_Date":"2025-02-13 13"}},{"type":"Point","coordinates":[-72.75654,44.28026],"properties":{"Station_ID":"VT-WS-42","Station_Nam":"MORETOWN 2.1 N, VT","Latitude":"44.28026","Longitude":"-72.75654","Snowdepth":"17.000","Units":"in","Rept_Date":"2025-02-13 13"}},{"type":"Point","coordinates":[-72.652,44.16986],"properties":{"Station_ID":"VT-WS-10","Station_Nam":"NORTHFIELD 1.5 N, VT","Latitude":"44.16986","Longitude":"-72.65200","Snowdepth":"17.000","Units":"in","Rept_Date":"2025-02-13 12"}},{"type":"Point","coordinates":[-72.79521,43.89771],"properties":{"Station_ID":"VT-WR-37","Station_Nam":"ROCHESTER 1.7 NNE, VT","Latitude":"43.89771","Longitude":"-72.79521","Snowdepth":"17.000","Units":"in","Rept_Date":"2025-02-13 10"}},{"type":"Point","coordinates":[-72.1417,45.00454],"properties":{"Station_ID":"VT-OL-24","Station_Nam":"DERBY LINE 1.9 W, VT","Latitude":"45.00454","Longitude":"-72.14170","Snowdepth":"17.000","Units":"in","Rept_Date":"2025-02-13 12"}},{"type":"Point","coordinates":[-72.9657,44.32488],"properties":{"Station_ID":"VT-CH-7","Station_Nam":"HUNTINGTON 1.1 E, VT","Latitude":"44.32488","Longitude":"-72.96570","Snowdepth":"17.000","Units":"in","Rept_Date":"2025-02-13 12"}},{"type":"Point","coordinates":[-93.0266,47.8663],"properties":{"Station_ID":"TOGM5","Station_Nam":"CELINA 2E","Latitude":"47.86630","Longitude":"-93.02660","Snowdepth":"17.000","Units":"in","Rept_Date":"2025-02-13 15"}},{"type":"Point","coordinates":[-85.512,44.7338],"properties":{"Station_ID":"TCEM4","Station_Nam":"TRAVERSE CITY 4.7ESE","Latitude":"44.73380","Longitude":"-85.51200","Snowdepth":"17.000","Units":"in","Rept_Date":"2025-02-13 12"}},{"type":"Point","coordinates":[-70.5976,44.0979],"properties":{"Station_ID":"OTFM1","Station_Nam":"OTISFIELD","Latitude":"44.09790","Longitude":"-70.59760","Snowdepth":"17.000","Units":"in","Rept_Date":"2025-02-13 12"}},{"type":"Point","coordinates":[-74.1667,43.2333],"properties":{"Station_ID":"NVLN6","Station_Nam":"NORTHVILLE","Latitude":"43.23330","Longitude":"-74.16670","Snowdepth":"17.000","Units":"in","Rept_Date":"2025-02-13 13"}},{"type":"Point","coordinates":[-85.5162,46.3515],"properties":{"Station_ID":"NCFM4","Station_Nam":"NEWBERRY-LUCE COUNTY ROAD COMMISSION","Latitude":"46.35150","Longitude":"-85.51620","Snowdepth":"17.000","Units":"in","Rept_Date":"2025-02-13 13"}},{"type":"Point","coordinates":[-91.87967,47.8151],"properties":{"Station_ID":"MN-SL-198","Station_Nam":"ELY 6.4 SSW, MN","Latitude":"47.81510","Longitude":"-91.87967","Snowdepth":"17.000","Units":"in","Rept_Date":"2025-02-13 14"}},{"type":"Point","coordinates":[-93.216,48.59631],"properties":{"Station_ID":"MN-KC-20","Station_Nam":"INTERNATIONAL FALLS 8.8 E, MN","Latitude":"48.59631","Longitude":"-93.21600","Snowdepth":"17.000","Units":"in","Rept_Date":"2025-02-13 13"}},{"type":"Point","coordinates":[-85.51189,44.7337],"properties":{"Station_ID":"MI-GT-25","Station_Nam":"TRAVERSE CITY 4.7 ESE, MI","Latitude":"44.73370","Longitude":"-85.51189","Snowdepth":"17.000","Units":"in","Rept_Date":"2025-02-13 12"}},{"type":"Point","coordinates":[-88.18,46.5453],"properties":{"Station_ID":"MIEM4","Station_Nam":"MICHIGAMME 3WNW","Latitude":"46.54530","Longitude":"-88.18000","Snowdepth":"17.000","Units":"in","Rept_Date":"2025-02-13 13"}},{"type":"Point","coordinates":[-70.59612,44.09787],"properties":{"Station_ID":"ME-OX-26","Station_Nam":"OXFORD 5.3 SW, ME","Latitude":"44.09787","Longitude":"-70.59612","Snowdepth":"17.000","Units":"in","Rept_Date":"2025-02-13 12"}},{"type":"Point","coordinates":[-71.6555,43.7738],"properties":{"Station_ID":"HDEN3","Station_Nam":"HOLDERNESS 4.6 NW","Latitude":"43.77380","Longitude":"-71.65550","Snowdepth":"17.000","Units":"in","Rept_Date":"2025-02-13 13"}},{"type":"Point","coordinates":[-83.7219,44.4625],"properties":{"Station_ID":"HALM4","Station_Nam":"LOUD DAM","Latitude":"44.46250","Longitude":"-83.72190","Snowdepth":"17.000","Units":"in","Rept_Date":"2025-02-13 14"}},{"type":"Point","coordinates":[-71.6537,43.4703],"properties":{"Station_ID":"FFLN3","Station_Nam":"FRANKLIN FALLS DAM","Latitude":"43.47030","Longitude":"-71.65370","Snowdepth":"17.000","Units":"in","Rept_Date":"2025-02-13 12"}},{"type":"Point","coordinates":[-83.5036,44.2838],"properties":{"Station_ID":"ETWM4","Station_Nam":"EAST TAWAS","Latitude":"44.28380","Longitude":"-83.50360","Snowdepth":"17.000","Units":"in","Rept_Date":"2025-02-13 13"}},{"type":"Point","coordinates":[-72.8137,44.9096],"properties":{"Station_ID":"ENFV1","Station_Nam":"ENOSBURG FALLS 2","Latitude":"44.90960","Longitude":"-72.81370","Snowdepth":"17.000","Units":"in","Rept_Date":"2025-02-13 10"}},{"type":"Point","coordinates":[-70.7568,44.32],"properties":{"Station_ID":"BETM1","Station_Nam":"BETHEL 6 SSE","Latitude":"44.32000","Longitude":"-70.75680","Snowdepth":"17.000","Units":"in","Rept_Date":"2025-02-13 12"}},{"type":"Point","coordinates":[-73.99528,43.09437],"properties":{"Station_ID":"NY-SR-57","Station_Nam":"TOWN OF PROVIDENCE 2.3 E, NY","Latitude":"43.09437","Longitude":"-73.99528","Snowdepth":"16.500","Units":"in","Rept_Date":"2025-02-13 12"}},{"type":"Point","coordinates":[-70.9162,43.3192],"properties":{"Station_ID":"NH-ST-55","Station_Nam":"ROCHESTER 3.4 ENE, NH","Latitude":"43.31920","Longitude":"-70.91620","Snowdepth":"16.500","Units":"in","Rept_Date":"2025-02-13 13"}},{"type":"Point","coordinates":[-71.5373,43.43945],"properties":{"Station_ID":"NH-MR-45","Station_Nam":"NORTHFIELD 2.8 E, NH","Latitude":"43.43945","Longitude":"-71.53730","Snowdepth":"16.500","Units":"in","Rept_Date":"2025-02-13 12"}},{"type":"Point","coordinates":[-71.91086,44.31847],"properties":{"Station_ID":"NH-GR-47","Station_Nam":"LITTLETON 7.3 W, NH","Latitude":"44.31847","Longitude":"-71.91086","Snowdepth":"16.500","Units":"in","Rept_Date":"2025-02-13 13"}},{"type":"Point","coordinates":[-71.55,43.48],"properties":{"Station_ID":"NH-BK-1","Station_Nam":"TILTON NORTHFIELD 3.3 NE, NH","Latitude":"43.48000","Longitude":"-71.55000","Snowdepth":"16.500","Units":"in","Rept_Date":"2025-02-13 12"}},{"type":"Point","coordinates":[-84.9754,45.4345],"properties":{"Station_ID":"MI-EM-5","Station_Nam":"HARBOR SPRINGS 0.7 ENE, MI","Latitude":"45.43450","Longitude":"-84.97540","Snowdepth":"16.500","Units":"in","Rept_Date":"2025-02-13 12"}},{"type":"Point","coordinates":[-95.8902,50.14747],"properties":{"Station_ID":"CAN-MB-32","Station_Nam":"PINAWA 1.0 SW, CA","Latitude":"50.14747","Longitude":"-95.89020","Snowdepth":"16.500","Units":"in","Rept_Date":"2025-02-13 13"}},{"type":"Point","coordinates":[-72.6383,48.1392],"properties":{"Station_ID":"CQLP","Station_Nam":"CQLP","Latitude":"48.13920","Longitude":"-72.63830","Snowdepth":"16.417","Units":"in","Rept_Date":"2025-02-13 12"}},{"type":"Point","coordinates":[-87.8582,50.7668],"properties":{"Station_ID":"OGIQ6","Station_Nam":"OGOKI CAMP","Latitude":"50.76680","Longitude":"-87.85820","Snowdepth":"16.340","Units":"in","Rept_Date":"2025-02-14 06"}},{"type":"Point","coordinates":[-72.5719,51.0578],"properties":{"Station_ID":"CQTM","Station_Nam":"CQTM","Latitude":"51.05780","Longitude":"-72.57190","Snowdepth":"16.339","Units":"in","Rept_Date":"2025-02-13 12"}},{"type":"Point","coordinates":[-75.6164,43.97493],"properties":{"Station_ID":"NY-JF-30","Station_Nam":"WEST CARTHAGE 0.3 ENE, NY","Latitude":"43.97493","Longitude":"-75.61640","Snowdepth":"16.300","Units":"in","Rept_Date":"2025-02-13 14"}},{"type":"Point","coordinates":[-88.6424,46.5266],"properties":{"Station_ID":"WTNM4","Station_Nam":"WATTON 2WSW","Latitude":"46.52660","Longitude":"-88.64240","Snowdepth":"16.000","Units":"in","Rept_Date":"2025-02-13 13"}},{"type":"Point","coordinates":[-90.1696,46.388],"properties":{"Station_ID":"WI-IR-6","Station_Nam":"HURLEY 4.1 SSE, WI","Latitude":"46.38800","Longitude":"-90.16960","Snowdepth":"16.000","Units":"in","Rept_Date":"2025-02-13 13"}},{"type":"Point","coordinates":[-72.35555,43.83333],"properties":{"Station_ID":"VT-OG-16","Station_Nam":"STRAFFORD 2.4 SSE, VT","Latitude":"43.83333","Longitude":"-72.35555","Snowdepth":"16.000","Units":"in","Rept_Date":"2025-02-13 12"}},{"type":"Point","coordinates":[-72.84167,44.62722],"properties":{"Station_ID":"VT-LM-23","Station_Nam":"JEFFERSONVILLE 1.3 SSW, VT","Latitude":"44.62722","Longitude":"-72.84167","Snowdepth":"16.000","Units":"in","Rept_Date":"2025-02-13 12"}},{"type":"Point","coordinates":[-72.9225,44.58774],"properties":{"Station_ID":"VT-CH-4","Station_Nam":"UNDERHILL 4.4 NNE, VT","Latitude":"44.58774","Longitude":"-72.92250","Snowdepth":"16.000","Units":"in","Rept_Date":"2025-02-13 12"}},{"type":"Point","coordinates":[-84.4397,45.1702],"properties":{"Station_ID":"VANM4","Station_Nam":"VANDERBILT 11ENE","Latitude":"45.17020","Longitude":"-84.43970","Snowdepth":"16.000","Units":"in","Rept_Date":"2025-02-13 13"}},{"type":"Point","coordinates":[-71.383,45.0469],"properties":{"Station_ID":"PTBN3","Station_Nam":"PITTSBURG RESERVOIR","Latitude":"45.04690","Longitude":"-71.38300","Snowdepth":"16.000","Units":"in","Rept_Date":"2025-02-13 12"}},{"type":"Point","coordinates":[-72.415,44.2761],"properties":{"Station_ID":"PLFV1","Station_Nam":"PLAINFIELD","Latitude":"44.27610","Longitude":"-72.41500","Snowdepth":"16.000","Units":"in","Rept_Date":"2025-02-13 12"}},{"type":"Point","coordinates":[-71.1351,43.31175],"properties":{"Station_ID":"NH-ST-31","Station_Nam":"STRAFFORD 2.9 N, NH","Latitude":"43.31175","Longitude":"-71.13510","Snowdepth":"16.000","Units":"in","Rept_Date":"2025-02-13 12"}},{"type":"Point","coordinates":[-84.1158,44.6466],"properties":{"Station_ID":"MYOM4","Station_Nam":"MIO WWTP","Latitude":"44.64660","Longitude":"-84.11580","Snowdepth":"16.000","Units":"in","Rept_Date":"2025-02-13 13"}},{"type":"Point","coordinates":[-72.0333,43.7833],"properties":{"Station_ID":"MSRN3","Station_Nam":"MASCOMA RIVER","Latitude":"43.78330","Longitude":"-72.03330","Snowdepth":"16.000","Units":"in","Rept_Date":"2025-02-14 06"}},{"type":"Point","coordinates":[-90.4376,47.74865],"properties":{"Station_ID":"MN-CK-6","Station_Nam":"GRAND MARAIS 4.4 W, MN","Latitude":"47.74865","Longitude":"-90.43760","Snowdepth":"16.000","Units":"in","Rept_Date":"2025-02-13 13"}},{"type":"Point","coordinates":[-84.1028,44.7476],"properties":{"Station_ID":"MI-OD-4","Station_Nam":"MIO 6.2 NNE, MI","Latitude":"44.74760","Longitude":"-84.10280","Snowdepth":"16.000","Units":"in","Rept_Date":"2025-02-13 12"}},{"type":"Point","coordinates":[-87.7567,46.4055],"properties":{"Station_ID":"MI-MQ-19","Station_Nam":"ISHPEMING 7.2 SW, MI","Latitude":"46.40550","Longitude":"-87.75670","Snowdepth":"16.000","Units":"in","Rept_Date":"2025-02-13 11"}},{"type":"Point","coordinates":[-70.2642,44.68329],"properties":{"Station_ID":"ME-FR-2","Station_Nam":"TEMPLE 1.8 W, ME","Latitude":"44.68329","Longitude":"-70.26420","Snowdepth":"16.000","Units":"in","Rept_Date":"2025-02-13 12"}},{"type":"Point","coordinates":[-92.7522,48.0581],"properties":{"Station_ID":"LEIM5","Station_Nam":"ORR 3E","Latitude":"48.05810","Longitude":"-92.75220","Snowdepth":"16.000","Units":"in","Rept_Date":"2025-02-13 12"}},{"type":"Point","coordinates":[-70.6749,43.6475],"properties":{"Station_ID":"HOLM1","Station_Nam":"HOLLIS","Latitude":"43.64750","Longitude":"-70.67490","Snowdepth":"16.000","Units":"in","Rept_Date":"2025-02-13 12"}},{"type":"Point","coordinates":[-72.8679,42.5741],"properties":{"Station_ID":"EHYM3","Station_Nam":"EAST HAWLEY","Latitude":"42.57410","Longitude":"-72.86790","Snowdepth":"16.000","Units":"in","Rept_Date":"2025-02-13 13"}},{"type":"Point","coordinates":[-92.6925,47.8506],"properties":{"Station_ID":"COKM5","Station_Nam":"COOK","Latitude":"47.85060","Longitude":"-92.69250","Snowdepth":"16.000","Units":"in","Rept_Date":"2025-02-13 12"}},{"type":"Point","coordinates":[-87.845,46.4991],"properties":{"Station_ID":"CLKM4","Station_Nam":"CLARKSBURG","Latitude":"46.49910","Longitude":"-87.84500","Snowdepth":"16.000","Units":"in","Rept_Date":"2025-02-13 12"}},{"type":"Point","coordinates":[-88.7038,49.19],"properties":{"Station_ID":"NONQ6","Station_Nam":"NONWATIN","Latitude":"49.19000","Longitude":"-88.70380","Snowdepth":"15.790","Units":"in","Rept_Date":"2025-02-14 06"}},{"type":"Point","coordinates":[-72.50022,44.27234],"properties":{"Station_ID":"VT-WS-47","Station_Nam":"EAST MONTPELIER 0.7 W, VT","Latitude":"44.27234","Longitude":"-72.50022","Snowdepth":"15.500","Units":"in","Rept_Date":"2025-02-13 12"}},{"type":"Point","coordinates":[-78.703,42.6548],"properties":{"Station_ID":"NY-ER-166","Station_Nam":"BOSTON 2.5 NE, NY","Latitude":"42.65480","Longitude":"-78.70300","Snowdepth":"15.500","Units":"in","Rept_Date":"2025-02-13 12"}},{"type":"Point","coordinates":[-71.18942,43.57323],"properties":{"Station_ID":"NH-CR-50","Station_Nam":"WOLFEBORO 1.5 SE, NH","Latitude":"43.57323","Longitude":"-71.18942","Snowdepth":"15.500","Units":"in","Rept_Date":"2025-02-13 12"}},{"type":"Point","coordinates":[-70.6751,43.6475],"properties":{"Station_ID":"ME-YK-3","Station_Nam":"HOLLIS CENTER 5.4 NW, ME","Latitude":"43.64750","Longitude":"-70.67510","Snowdepth":"15.500","Units":"in","Rept_Date":"2025-02-13 12"}},{"type":"Point","coordinates":[-71.0521,43.63917],"properties":{"Station_ID":"NH-CR-34","Station_Nam":"WAKEFIELD 6.0 NNW, NH","Latitude":"43.63917","Longitude":"-71.05210","Snowdepth":"15.300","Units":"in","Rept_Date":"2025-02-13 12"}},{"type":"Point","coordinates":[-75.845,49.2906],"properties":{"Station_ID":"CQMD","Station_Nam":"CQMD","Latitude":"49.29060","Longitude":"-75.84500","Snowdepth":"15.276","Units":"in","Rept_Date":"2025-02-13 12"}},{"type":"Point","coordinates":[-66.69665,44.63373],"properties":{"Station_ID":"CAN-NB-172","Station_Nam":"WHITE HEAD 1.5 ESE, CAN","Latitude":"44.63373","Longitude":"-66.69665","Snowdepth":"15.200","Units":"in","Rept_Date":"2025-02-13 09"}},{"type":"Point","coordinates":[-91.4716,48.7067],"properties":{"Station_ID":"ATIQ6","Station_Nam":"ATIKOKAN","Latitude":"48.70670","Longitude":"-91.47160","Snowdepth":"15.200","Units":"in","Rept_Date":"2025-02-14 06"}},{"type":"Point","coordinates":[-89.1799,49.5995],"properties":{"Station_ID":"KABQ6","Station_Nam":"CAB LAKE","Latitude":"49.59950","Longitude":"-89.17990","Snowdepth":"15.160","Units":"in","Rept_Date":"2025-02-14 06"}},{"type":"Point","coordinates":[-71.2019,43.5902],"properties":{"Station_ID":"WOLN3","Station_Nam":"WOLFEBORO","Latitude":"43.59020","Longitude":"-71.20190","Snowdepth":"15.000","Units":"in","Rept_Date":"2025-02-13 12"}},{"type":"Point","coordinates":[-71.70446,44.49324],"properties":{"Station_ID":"VT-ES-3","Station_Nam":"LUNENBURG 2.3 NNW, VT","Latitude":"44.49324","Longitude":"-71.70446","Snowdepth":"15.000","Units":"in","Rept_Date":"2025-02-13 11"}},{"type":"Point","coordinates":[-86.2453,43.9331],"properties":{"Station_ID":"SCOM4","Station_Nam":"SCOTTVILLE 2 SE","Latitude":"43.93310","Longitude":"-86.24530","Snowdepth":"15.000","Units":"in","Rept_Date":"2025-02-13 12"}},{"type":"Point","coordinates":[-96.7333,36.5],"properties":{"Station_ID":"RALO2","Station_Nam":"RALSTON,OK","Latitude":"36.50000","Longitude":"-96.73330","Snowdepth":"15.000","Units":"in","Rept_Date":"2025-02-13 14"}},{"type":"Point","coordinates":[-70.3092,43.6461],"properties":{"Station_ID":"PWM","Station_Nam":"RESIDUAL OFFICE TO PORTLAND WSFO (GYX)","Latitude":"43.64610","Longitude":"-70.30920","Snowdepth":"15.000","Units":"in","Rept_Date":"2025-02-13 12"}},{"type":"Point","coordinates":[-89.1794,46.3976],"properties":{"Station_ID":"PDGM4","Station_Nam":"PAULDING","Latitude":"46.39760","Longitude":"-89.17940","Snowdepth":"15.000","Units":"in","Rept_Date":"2025-02-13 13"}},{"type":"Point","coordinates":[-74.1629,43.22767],"properties":{"Station_ID":"NY-FL-12","Station_Nam":"NORTHVILLE 0.6 NE, NY","Latitude":"43.22767","Longitude":"-74.16290","Snowdepth":"15.000","Units":"in","Rept_Date":"2025-02-13 12"}},{"type":"Point","coordinates":[-72.9264,44.4497],"properties":{"Station_ID":"NVLV1","Station_Nam":"NASHVILLE","Latitude":"44.44970","Longitude":"-72.92640","Snowdepth":"15.000","Units":"in","Rept_Date":"2025-02-13 12"}},{"type":"Point","coordinates":[-71.2575,43.20114],"properties":{"Station_ID":"NH-RC-48","Station_Nam":"NORTHWOOD 2.9 WSW, NH","Latitude":"43.20114","Longitude":"-71.25750","Snowdepth":"15.000","Units":"in","Rept_Date":"2025-02-13 12"}},{"type":"Point","coordinates":[-71.1297,44.0562],"properties":{"Station_ID":"NCON3","Station_Nam":"NORTH CONWAY","Latitude":"44.05620","Longitude":"-71.12970","Snowdepth":"15.000","Units":"in","Rept_Date":"2025-02-13 14"}},{"type":"Point","coordinates":[-93.297,45.841],"properties":{"Station_ID":"MN-KB-17","Station_Nam":"MORA 2.5 S, MN","Latitude":"45.84100","Longitude":"-93.29700","Snowdepth":"15.000","Units":"in","Rept_Date":"2025-02-13 13"}},{"type":"Point","coordinates":[-90.76895,48.09619],"properties":{"Station_ID":"MN-CK-57","Station_Nam":"GRAND MARAIS 30.5 NW, MN","Latitude":"48.09619","Longitude":"-90.76895","Snowdepth":"15.000","Units":"in","Rept_Date":"2025-02-13 14"}},{"type":"Point","coordinates":[-83.6841,44.2933],"properties":{"Station_ID":"MI-IC-6","Station_Nam":"NATIONAL CITY 4.5 NNE, MI","Latitude":"44.29330","Longitude":"-83.68410","Snowdepth":"15.000","Units":"in","Rept_Date":"2025-02-13 14"}},{"type":"Point","coordinates":[-83.4992,44.28322],"properties":{"Station_ID":"MI-IC-3","Station_Nam":"EAST TAWAS 0.8 WSW, MI","Latitude":"44.28322","Longitude":"-83.49920","Snowdepth":"15.000","Units":"in","Rept_Date":"2025-02-13 13"}},{"type":"Point","coordinates":[-70.0272,44.66582],"properties":{"Station_ID":"ME-FR-4","Station_Nam":"NEW SHARON 2.0 NW, ME","Latitude":"44.66582","Longitude":"-70.02720","Snowdepth":"15.000","Units":"in","Rept_Date":"2025-02-13 12"}},{"type":"Point","coordinates":[-70.286,43.609],"properties":{"Station_ID":"ME-CM-128","Station_Nam":"SOUTH PORTLAND 1.6 S, ME","Latitude":"43.60900","Longitude":"-70.28600","Snowdepth":"15.000","Units":"in","Rept_Date":"2025-02-13 12"}},{"type":"Point","coordinates":[-68.1439,47.0108],"properties":{"Station_ID":"ME-AR-18","Station_Nam":"NEW SWEDEN 4.9 NNW, ME","Latitude":"47.01080","Longitude":"-68.14390","Snowdepth":"15.000","Units":"in","Rept_Date":"2025-02-13 12"}},{"type":"Point","coordinates":[-85.8352,44.855],"properties":{"Station_ID":"MAPM4","Station_Nam":"MAPLE CITY 1E","Latitude":"44.85500","Longitude":"-85.83520","Snowdepth":"15.000","Units":"in","Rept_Date":"2025-02-13 23"}},{"type":"Point","coordinates":[-71.7046,44.4933],"properties":{"Station_ID":"LUNV1","Station_Nam":"LUNENBURG 2 NNW","Latitude":"44.49330","Longitude":"-71.70460","Snowdepth":"15.000","Units":"in","Rept_Date":"2025-02-13 11"}},{"type":"Point","coordinates":[-68.81666,44.8],"properties":{"Station_ID":"KBGR","Station_Nam":"BANGOR INTL AIRPORT","Latitude":"44.80000","Longitude":"-68.81666","Snowdepth":"15.000","Units":"in","Rept_Date":"2025-02-14 06"}},{"type":"Point","coordinates":[-93.0484,48.4088],"properties":{"Station_ID":"KABM5","Station_Nam":"KABETOGAMA","Latitude":"48.40880","Longitude":"-93.04840","Snowdepth":"15.000","Units":"in","Rept_Date":"2025-02-13 13"}},{"type":"Point","coordinates":[-92.1958,47.6581],"properties":{"Station_ID":"EMBM5","Station_Nam":"EMBARASS,MN","Latitude":"47.65810","Longitude":"-92.19580","Snowdepth":"15.000","Units":"in","Rept_Date":"2025-02-13 12"}},{"type":"Point","coordinates":[-91.8283,47.9056],"properties":{"Station_ID":"ELYM5","Station_Nam":"ELY","Latitude":"47.90560","Longitude":"-91.82830","Snowdepth":"15.000","Units":"in","Rept_Date":"2025-02-13 14"}},{"type":"Point","coordinates":[-63.17271,46.29235],"properties":{"Station_ID":"CAN-PE-19","Station_Nam":"CHARLOTTETOWN 6.5 NNW, CAN","Latitude":"46.29235","Longitude":"-63.17271","Snowdepth":"15.000","Units":"in","Rept_Date":"2025-02-13 12"}},{"type":"Point","coordinates":[-82.95945,46.18781],"properties":{"Station_ID":"CAN-ON-717","Station_Nam":"BLIND RIVER 0.2 NNE, CAN","Latitude":"46.18781","Longitude":"-82.95945","Snowdepth":"15.000","Units":"in","Rept_Date":"2025-02-13 15"}},{"type":"Point","coordinates":[-80.4318,43.45147],"properties":{"Station_ID":"CAN-ON-593","Station_Nam":"KITCHENER 4.5 E, CAN","Latitude":"43.45147","Longitude":"-80.43180","Snowdepth":"15.000","Units":"in","Rept_Date":"2025-02-13 14"}},{"type":"Point","coordinates":[-74.6457,45.48987],"properties":{"Station_ID":"CAN-ON-42","Station_Nam":"VANKLEEK HILL 3.4 S, CA","Latitude":"45.48987","Longitude":"-74.64570","Snowdepth":"15.000","Units":"in","Rept_Date":"2025-02-13 12"}},{"type":"Point","coordinates":[-52.82838,47.51955],"properties":{"Station_ID":"CAN-NL-79","Station_Nam":"MOUNT PEARL 1.3 WNW, CAN","Latitude":"47.51955","Longitude":"-52.82838","Snowdepth":"15.000","Units":"in","Rept_Date":"2025-02-13 10"}},{"type":"Point","coordinates":[-68.8133,44.8044],"properties":{"Station_ID":"BGRM1","Station_Nam":"BANGOR FSS","Latitude":"44.80440","Longitude":"-68.81330","Snowdepth":"15.000","Units":"in","Rept_Date":"2025-02-14 06"}},{"type":"Point","coordinates":[-72.5814,42.8448],"properties":{"Station_ID":"61661_MADIS","Station_Nam":"BRATTLEBORO 1.3 WSW, VT","Latitude":"42.84480","Longitude":"-72.58140","Snowdepth":"15.000","Units":"in","Rept_Date":"2025-02-13 12"}},{"type":"Point","coordinates":[-86.245,43.9336],"properties":{"Station_ID":"MI-MS-10","Station_Nam":"SCOTTVILLE 2.1 ESE, MI","Latitude":"43.93360","Longitude":"-86.24500","Snowdepth":"14.700","Units":"in","Rept_Date":"2025-02-13 12"}},{"type":"Point","coordinates":[-67.6264,49.6472],"properties":{"Station_ID":"CQGT","Station_Nam":"CQGT","Latitude":"49.64720","Longitude":"-67.62640","Snowdepth":"14.567","Units":"in","Rept_Date":"2025-02-13 12"}},{"type":"Point","coordinates":[-72.9188,44.59811],"properties":{"Station_ID":"VT-CH-11","Station_Nam":"UNDERHILL 5.1 NNE, VT","Latitude":"44.59811","Longitude":"-72.91880","Snowdepth":"14.500","Units":"in","Rept_Date":"2025-02-13 11"}},{"type":"Point","coordinates":[-71.10256,43.09778],"properties":{"Station_ID":"NH-RC-79","Station_Nam":"NOTTINGHAM 1.2 S, NH","Latitude":"43.09778","Longitude":"-71.10256","Snowdepth":"14.500","Units":"in","Rept_Date":"2025-02-13 13"}},{"type":"Point","coordinates":[-71.5565,43.14994],"properties":{"Station_ID":"NH-MR-4","Station_Nam":"BOW 1.6 NW, NH","Latitude":"43.14994","Longitude":"-71.55650","Snowdepth":"14.500","Units":"in","Rept_Date":"2025-02-13 12"}},{"type":"Point","coordinates":[-71.7414,43.5949],"properties":{"Station_ID":"NH-GR-1","Station_Nam":"BRISTOL 0.4 SSE, NH","Latitude":"43.59490","Longitude":"-71.74140","Snowdepth":"14.500","Units":"in","Rept_Date":"2025-02-13 12"}},{"type":"Point","coordinates":[-71.11664,44.02955],"properties":{"Station_ID":"NH-CR-46","Station_Nam":"NORTH CONWAY 1.8 SSE, NH","Latitude":"44.02955","Longitude":"-71.11664","Snowdepth":"14.500","Units":"in","Rept_Date":"2025-02-13 16"}},{"type":"Point","coordinates":[-84.46313,44.80464],"properties":{"Station_ID":"MI-CF-9","Station_Nam":"GRAYLING 15.8 NE, MI","Latitude":"44.80464","Longitude":"-84.46313","Snowdepth":"14.500","Units":"in","Rept_Date":"2025-02-13 14"}},{"type":"Point","coordinates":[-70.57619,43.63735],"properties":{"Station_ID":"ME-YK-75","Station_Nam":"BUXTON 2.8 W, ME","Latitude":"43.63735","Longitude":"-70.57619","Snowdepth":"14.500","Units":"in","Rept_Date":"2025-02-13 14"}},{"type":"Point","coordinates":[-68.98525,44.47292],"properties":{"Station_ID":"ME-WL-32","Station_Nam":"BELFAST 3.9 NNE, ME","Latitude":"44.47292","Longitude":"-68.98525","Snowdepth":"14.500","Units":"in","Rept_Date":"2025-02-13 12"}},{"type":"Point","coordinates":[-72.2011,51.4528],"properties":{"Station_ID":"CQCO","Station_Nam":"CQCO","Latitude":"51.45280","Longitude":"-72.20110","Snowdepth":"14.134","Units":"in","Rept_Date":"2025-02-13 12"}},{"type":"Point","coordinates":[-66.9111,51.5217],"properties":{"Station_ID":"CMFU","Station_Nam":"CMFU","Latitude":"51.52170","Longitude":"-66.91110","Snowdepth":"14.094","Units":"in","Rept_Date":"2025-02-13 12"}},{"type":"Point","coordinates":[-90.85854,46.88063],"properties":{"Station_ID":"WI-BY-29","Station_Nam":"BAYFIELD 5.1 NNW, WI","Latitude":"46.88063","Longitude":"-90.85854","Snowdepth":"14.000","Units":"in","Rept_Date":"2025-02-13 13"}},{"type":"Point","coordinates":[-84.2011,44.2541],"properties":{"Station_ID":"WBRM4","Station_Nam":"WEST BRANCH 3SE","Latitude":"44.25410","Longitude":"-84.20110","Snowdepth":"14.000","Units":"in","Rept_Date":"2025-02-13 13"}},{"type":"Point","coordinates":[-72.66,42.73639],"properties":{"Station_ID":"VT-WH-40","Station_Nam":"GUILFORD 7.0 SW, VT","Latitude":"42.73639","Longitude":"-72.66000","Snowdepth":"14.000","Units":"in","Rept_Date":"2025-02-13 12"}},{"type":"Point","coordinates":[-72.5558,42.8403],"properties":{"Station_ID":"VT-WH-29","Station_Nam":"BRATTLEBORO 0.7 S, VT","Latitude":"42.84030","Longitude":"-72.55580","Snowdepth":"14.000","Units":"in","Rept_Date":"2025-02-13 12"}},{"type":"Point","coordinates":[-72.23051,43.92138],"properties":{"Station_ID":"VT-OG-13","Station_Nam":"WEST FAIRLEE 1.8 ENE, VT","Latitude":"43.92138","Longitude":"-72.23051","Snowdepth":"14.000","Units":"in","Rept_Date":"2025-02-13 12"}},{"type":"Point","coordinates":[-72.7969,44.9447],"properties":{"Station_ID":"VT-FR-26","Station_Nam":"ENOSBURG FALLS 2.5 N, VT","Latitude":"44.94470","Longitude":"-72.79690","Snowdepth":"14.000","Units":"in","Rept_Date":"2025-02-13 12"}},{"type":"Point","coordinates":[-72.0194,44.42],"properties":{"Station_ID":"SJBV1","Station_Nam":"SAINT JOHNSBURY","Latitude":"44.42000","Longitude":"-72.01940","Snowdepth":"14.000","Units":"in","Rept_Date":"2025-02-13 21"}},{"type":"Point","coordinates":[-73.81069,43.51784],"properties":{"Station_ID":"NY-WR-10","Station_Nam":"WARRENSBURG 2.1 WNW, NY","Latitude":"43.51784","Longitude":"-73.81069","Snowdepth":"14.000","Units":"in","Rept_Date":"2025-02-13 13"}},{"type":"Point","coordinates":[-73.73848,44.6398],"properties":{"Station_ID":"NY-CL-12","Station_Nam":"SARANAC 0.8 SSE, NY","Latitude":"44.63980","Longitude":"-73.73848","Snowdepth":"14.000","Units":"in","Rept_Date":"2025-02-13 12"}},{"type":"Point","coordinates":[-71.5044,44.5283],"properties":{"Station_ID":"NUMN3","Station_Nam":"NORTHUMBERLAND","Latitude":"44.52830","Longitude":"-71.50440","Snowdepth":"14.000","Units":"in","Rept_Date":"2025-02-13 13"}},{"type":"Point","coordinates":[-71.6828,42.87616],"properties":{"Station_ID":"NH-HL-49","Station_Nam":"MONT VERNON 1.3 SSW, NH","Latitude":"42.87616","Longitude":"-71.68280","Snowdepth":"14.000","Units":"in","Rept_Date":"2025-02-13 12"}},{"type":"Point","coordinates":[-70.6388,43.2241],"properties":{"Station_ID":"NEDM1","Station_Nam":"CAPE NEDDICK","Latitude":"43.22410","Longitude":"-70.63880","Snowdepth":"14.000","Units":"in","Rept_Date":"2025-02-13 12"}},{"type":"Point","coordinates":[-92.2392,47.4246],"properties":{"Station_ID":"MN-SL-291","Station_Nam":"AURORA 7.4 S, MN","Latitude":"47.42460","Longitude":"-92.23920","Snowdepth":"14.000","Units":"in","Rept_Date":"2025-02-13 14"}},{"type":"Point","coordinates":[-95.26951,47.08653],"properties":{"Station_ID":"MN-BK-16","Station_Nam":"PARK RAPIDS 15.3 NW, MN","Latitude":"47.08653","Longitude":"-95.26951","Snowdepth":"14.000","Units":"in","Rept_Date":"2025-02-13 14"}},{"type":"Point","coordinates":[-86.4225,43.6747],"properties":{"Station_ID":"MI-OC-3","Station_Nam":"HART 3 WSW, MI","Latitude":"43.67470","Longitude":"-86.42250","Snowdepth":"14.000","Units":"in","Rept_Date":"2025-02-13 12"}},{"type":"Point","coordinates":[-83.5689,44.1373],"properties":{"Station_ID":"MI-AR-3","Station_Nam":"TAWAS CITY 9.3 SSW, MI","Latitude":"44.13730","Longitude":"-83.56890","Snowdepth":"14.000","Units":"in","Rept_Date":"2025-02-13 13"}},{"type":"Point","coordinates":[-70.78458,43.23701],"properties":{"Station_ID":"ME-YK-80","Station_Nam":"SOUTH BERWICK 1.3 E, ME","Latitude":"43.23701","Longitude":"-70.78458","Snowdepth":"14.000","Units":"in","Rept_Date":"2025-02-13 13"}},{"type":"Point","coordinates":[-69.8573,43.93063],"properties":{"Station_ID":"ME-SG-1","Station_Nam":"BATH 1.1 WSW, ME","Latitude":"43.93063","Longitude":"-69.85730","Snowdepth":"14.000","Units":"in","Rept_Date":"2025-02-13 12"}},{"type":"Point","coordinates":[-70.29266,43.65966],"properties":{"Station_ID":"ME-CM-165","Station_Nam":"PORTLAND 4.3 W, ME","Latitude":"43.65966","Longitude":"-70.29266","Snowdepth":"14.000","Units":"in","Rept_Date":"2025-02-13 12"}},{"type":"Point","coordinates":[-70.3134,43.8464],"properties":{"Station_ID":"ME-CM-125","Station_Nam":"GRAY 2.9 SSE, ME","Latitude":"43.84640","Longitude":"-70.31340","Snowdepth":"14.000","Units":"in","Rept_Date":"2025-02-13 12"}},{"type":"Point","coordinates":[-75.8932,44.2134],"properties":{"Station_ID":"LAFN6","Station_Nam":"LA FARGEVILLE","Latitude":"44.21340","Longitude":"-75.89320","Snowdepth":"14.000","Units":"in","Rept_Date":"2025-02-13 12"}},{"type":"Point","coordinates":[-84.6773,44.3447],"properties":{"Station_ID":"HTLM4","Station_Nam":"SNOW PAID OBSERVER FOR KHTL","Latitude":"44.34470","Longitude":"-84.67730","Snowdepth":"14.000","Units":"in","Rept_Date":"2025-02-14 00"}},{"type":"Point","coordinates":[-86.3667,43.7],"properties":{"Station_ID":"HRTM4","Station_Nam":"HART,MI","Latitude":"43.70000","Longitude":"-86.36670","Snowdepth":"14.000","Units":"in","Rept_Date":"2025-02-13 12"}},{"type":"Point","coordinates":[-79.8355,43.37134],"properties":{"Station_ID":"CAN-ON-33","Station_Nam":"BURLINGTON 1.7 W, CA","Latitude":"43.37134","Longitude":"-79.83550","Snowdepth":"14.000","Units":"in","Rept_Date":"2025-02-13 13"}},{"type":"Point","coordinates":[-60.6434,46.25082],"properties":{"Station_ID":"CAN-NS-39","Station_Nam":"ST. ANNS 2.8 NW, CA","Latitude":"46.25082","Longitude":"-60.64340","Snowdepth":"14.000","Units":"in","Rept_Date":"2025-02-13 13"}},{"type":"Point","coordinates":[-76.1964,43.2386],"properties":{"Station_ID":"BWTN6","Station_Nam":"BREWERTON LOCK 23","Latitude":"43.23860","Longitude":"-76.19640","Snowdepth":"14.000","Units":"in","Rept_Date":"2025-02-13 12"}},{"type":"Point","coordinates":[-69.8564,43.9316],"properties":{"Station_ID":"BTHM1","Station_Nam":"BATH","Latitude":"43.93160","Longitude":"-69.85640","Snowdepth":"14.000","Units":"in","Rept_Date":"2025-02-13 12"}},{"type":"Point","coordinates":[-68.8184,44.7978],"properties":{"Station_ID":"BGR","Station_Nam":"BANGOR INTL ARPT","Latitude":"44.79780","Longitude":"-68.81840","Snowdepth":"14.000","Units":"in","Rept_Date":"2025-02-13 12"}},{"type":"Point","coordinates":[-88.6059,46.821],"properties":{"Station_ID":"BAGM4","Station_Nam":"BARAGA 7NW","Latitude":"46.82100","Longitude":"-88.60590","Snowdepth":"14.000","Units":"in","Rept_Date":"2025-02-13 13"}},{"type":"Point","coordinates":[-79.62089,43.53417],"properties":{"Station_ID":"CAN-ON-646","Station_Nam":"MISSISSAUGA 6.4 SSE - CANWARN, CAN","Latitude":"43.53417","Longitude":"-79.62089","Snowdepth":"13.800","Units":"in","Rept_Date":"2025-02-13 13"}},{"type":"Point","coordinates":[-89.4579,46.19023],"properties":{"Station_ID":"WI-VL-9","Station_Nam":"LAND O' LAKES 11.7 W, WI","Latitude":"46.19023","Longitude":"-89.45790","Snowdepth":"13.500","Units":"in","Rept_Date":"2025-02-13 13"}},{"type":"Point","coordinates":[-72.53419,43.12572],"properties":{"Station_ID":"VT-WH-26","Station_Nam":"WESTMINSTER 5.5 NW, VT","Latitude":"43.12572","Longitude":"-72.53419","Snowdepth":"13.500","Units":"in","Rept_Date":"2025-02-13 12"}},{"type":"Point","coordinates":[-78.6461,42.6074],"properties":{"Station_ID":"NY-ER-194","Station_Nam":"GLENWOOD 1.0 SE, NY","Latitude":"42.60740","Longitude":"-78.64610","Snowdepth":"13.500","Units":"in","Rept_Date":"2025-02-13 12"}},{"type":"Point","coordinates":[-71.5069,43.43556],"properties":{"Station_ID":"NH-BK-2","Station_Nam":"BELMONT 1.7 SW, NH","Latitude":"43.43556","Longitude":"-71.50690","Snowdepth":"13.500","Units":"in","Rept_Date":"2025-02-13 12"}},{"type":"Point","coordinates":[-90.87444,48.14388],"properties":{"Station_ID":"MN-CK-56","Station_Nam":"GRAND MARAIS 36.2 NW, MN","Latitude":"48.14388","Longitude":"-90.87444","Snowdepth":"13.500","Units":"in","Rept_Date":"2025-02-13 13"}},{"type":"Point","coordinates":[-70.69539,43.78308],"properties":{"Station_ID":"ME-YK-67","Station_Nam":"CORNISH 5.6 ESE, ME","Latitude":"43.78308","Longitude":"-70.69539","Snowdepth":"13.500","Units":"in","Rept_Date":"2025-02-13 12"}},{"type":"Point","coordinates":[-68.3881,44.7181],"properties":{"Station_ID":"ME-HN-4","Station_Nam":"MARIAVILLE 1.4 ESE, ME","Latitude":"44.71810","Longitude":"-68.38810","Snowdepth":"13.500","Units":"in","Rept_Date":"2025-02-13 13"}},{"type":"Point","coordinates":[-70.63,43.88],"properties":{"Station_ID":"ME-CM-98","Station_Nam":"SEBAGO 2.4 ESE, ME","Latitude":"43.88000","Longitude":"-70.63000","Snowdepth":"13.500","Units":"in","Rept_Date":"2025-02-13 13"}},{"type":"Point","coordinates":[-70.1721,43.8537],"properties":{"Station_ID":"ME-CM-86","Station_Nam":"POWNAL 4.1 S, ME","Latitude":"43.85370","Longitude":"-70.17210","Snowdepth":"13.500","Units":"in","Rept_Date":"2025-02-13 13"}},{"type":"Point","coordinates":[-69.9887,43.9016],"properties":{"Station_ID":"52111_MADIS","Station_Nam":"BRUNSWICK 2.6 WSW, ME","Latitude":"43.90160","Longitude":"-69.98870","Snowdepth":"13.500","Units":"in","Rept_Date":"2025-02-13 12"}},{"type":"Point","coordinates":[-70.462,43.85787],"properties":{"Station_ID":"ME-CM-54","Station_Nam":"WINDHAM 3.9 NW, ME","Latitude":"43.85787","Longitude":"-70.46200","Snowdepth":"13.400","Units":"in","Rept_Date":"2025-02-13 12"}},{"type":"Point","coordinates":[-80.73688,43.13734],"properties":{"Station_ID":"CAN-ON-525","Station_Nam":"WOODSTOCK 1.2 ENE, CAN","Latitude":"43.13734","Longitude":"-80.73688","Snowdepth":"13.400","Units":"in","Rept_Date":"2025-02-13 12"}},{"type":"Point","coordinates":[-68.8406,51.2833],"properties":{"Station_ID":"CMRL","Station_Nam":"CMRL","Latitude":"51.28330","Longitude":"-68.84060","Snowdepth":"13.386","Units":"in","Rept_Date":"2025-02-13 12"}},{"type":"Point","coordinates":[-69.2717,44.23693],"properties":{"Station_ID":"ME-KX-10","Station_Nam":"UNION 2.1 NNE, ME","Latitude":"44.23693","Longitude":"-69.27170","Snowdepth":"13.200","Units":"in","Rept_Date":"2025-02-13 12"}},{"type":"Point","coordinates":[-75.4611,43.1595],"properties":{"Station_ID":"WSTN6","Station_Nam":"WESTMORELAND 4 N","Latitude":"43.15950","Longitude":"-75.46110","Snowdepth":"13.000","Units":"in","Rept_Date":"2025-02-13 12"}},{"type":"Point","coordinates":[-95.407,48.896],"properties":{"Station_ID":"WRUM5","Station_Nam":"WARROAD 4W","Latitude":"48.89600","Longitude":"-95.40700","Snowdepth":"13.000","Units":"in","Rept_Date":"2025-02-14 04"}},{"type":"Point","coordinates":[-70.4663,43.8567],"properties":{"Station_ID":"WNDM1","Station_Nam":"WINDHAM 2NW","Latitude":"43.85670","Longitude":"-70.46630","Snowdepth":"13.000","Units":"in","Rept_Date":"2025-02-13 12"}},{"type":"Point","coordinates":[-91.07856,46.59742],"properties":{"Station_ID":"WI-BY-14","Station_Nam":"ASHLAND 9.8 W, WI","Latitude":"46.59742","Longitude":"-91.07856","Snowdepth":"13.000","Units":"in","Rept_Date":"2025-02-13 12"}},{"type":"Point","coordinates":[-71.9156,43.9519],"properties":{"Station_ID":"WENN3","Station_Nam":"P.O. BOX 197 WENTWORTH, NH","Latitude":"43.95190","Longitude":"-71.91560","Snowdepth":"13.000","Units":"in","Rept_Date":"2025-02-13 12"}},{"type":"Point","coordinates":[-72.48222,43.20388],"properties":{"Station_ID":"VT-WH-17","Station_Nam":"ROCKINGHAM 1.1 NNE, VT","Latitude":"43.20388","Longitude":"-72.48222","Snowdepth":"13.000","Units":"in","Rept_Date":"2025-02-13 12"}},{"type":"Point","coordinates":[-72.14756,44.02268],"properties":{"Station_ID":"VT-OG-14","Station_Nam":"BRADFORD 2.2 NNW, VT","Latitude":"44.02268","Longitude":"-72.14756","Snowdepth":"13.000","Units":"in","Rept_Date":"2025-02-13 13"}},{"type":"Point","coordinates":[-73.07154,44.43669],"properties":{"Station_ID":"VT-CH-38","Station_Nam":"WILLISTON 0.2 WSW, VT","Latitude":"44.43669","Longitude":"-73.07154","Snowdepth":"13.000","Units":"in","Rept_Date":"2025-02-13 12"}},{"type":"Point","coordinates":[-73.2444,44.34919],"properties":{"Station_ID":"VT-CH-3","Station_Nam":"CHARLOTTE 2.9 NNE, VT","Latitude":"44.34919","Longitude":"-73.24440","Snowdepth":"13.000","Units":"in","Rept_Date":"2025-02-13 13"}},{"type":"Point","coordinates":[-72.3131,42.9963],"properties":{"Station_ID":"SURN3","Station_Nam":"SURRY MOUNTAIN LAKE","Latitude":"42.99630","Longitude":"-72.31310","Snowdepth":"13.000","Units":"in","Rept_Date":"2025-02-13 12"}},{"type":"Point","coordinates":[-67.1205,45.0853],"properties":{"Station_ID":"ROBM1","Station_Nam":"ROBBINSTON","Latitude":"45.08530","Longitude":"-67.12050","Snowdepth":"13.000","Units":"in","Rept_Date":"2025-02-14 05"}},{"type":"Point","coordinates":[-73.7126,43.4403],"properties":{"Station_ID":"NY-WR-17","Station_Nam":"LAKE GEORGE 1.0 N, NY","Latitude":"43.44030","Longitude":"-73.71260","Snowdepth":"13.000","Units":"in","Rept_Date":"2025-02-13 13"}},{"type":"Point","coordinates":[-75.46,43.16],"properties":{"Station_ID":"NY-OD-21","Station_Nam":"ROME 4.8 SSE, NY","Latitude":"43.16000","Longitude":"-75.46000","Snowdepth":"13.000","Units":"in","Rept_Date":"2025-02-13 12"}},{"type":"Point","coordinates":[-78.7112,42.6474],"properties":{"Station_ID":"NY-ER-56","Station_Nam":"COLDEN 1.4 NNW, NY","Latitude":"42.64740","Longitude":"-78.71120","Snowdepth":"13.000","Units":"in","Rept_Date":"2025-02-13 12"}},{"type":"Point","coordinates":[-79.43815,42.2254],"properties":{"Station_ID":"NY-CQ-42","Station_Nam":"DEWITTVILLE 1.0 SSE, NY","Latitude":"42.22540","Longitude":"-79.43815","Snowdepth":"13.000","Units":"in","Rept_Date":"2025-02-13 11"}},{"type":"Point","coordinates":[-85.6472,45.1322],"properties":{"Station_ID":"NPTM4","Station_Nam":"NORTHPORT 2W","Latitude":"45.13220","Longitude":"-85.64720","Snowdepth":"13.000","Units":"in","Rept_Date":"2025-02-13 13"}},{"type":"Point","coordinates":[-71.42309,43.24598],"properties":{"Station_ID":"NH-MR-76","Station_Nam":"CHICHESTER 1.2 W, NH","Latitude":"43.24598","Longitude":"-71.42309","Snowdepth":"13.000","Units":"in","Rept_Date":"2025-02-13 13"}},{"type":"Point","coordinates":[-71.57893,43.30277],"properties":{"Station_ID":"NH-MR-55","Station_Nam":"CANTERBURY 2.5 SSW, NH","Latitude":"43.30277","Longitude":"-71.57893","Snowdepth":"13.000","Units":"in","Rept_Date":"2025-02-13 12"}},{"type":"Point","coordinates":[-71.54419,43.08532],"properties":{"Station_ID":"NH-MR-47","Station_Nam":"DUNBARTON 3.8 SE, NH","Latitude":"43.08532","Longitude":"-71.54419","Snowdepth":"13.000","Units":"in","Rept_Date":"2025-02-13 13"}},{"type":"Point","coordinates":[-71.7799,42.77674],"properties":{"Station_ID":"NH-HL-48","Station_Nam":"GREENVILLE 1.1 ENE, NH","Latitude":"42.77674","Longitude":"-71.77990","Snowdepth":"13.000","Units":"in","Rept_Date":"2025-02-13 13"}},{"type":"Point","coordinates":[-72.50933,42.8202],"properties":{"Station_ID":"NH-CH-31","Station_Nam":"HINSDALE 2.5 NNW, NH","Latitude":"42.82020","Longitude":"-72.50933","Snowdepth":"13.000","Units":"in","Rept_Date":"2025-02-13 12"}},{"type":"Point","coordinates":[-73.8969,43.6611],"properties":{"Station_ID":"NCKN6","Station_Nam":"NORTH CREEK 5 SE","Latitude":"43.66110","Longitude":"-73.89690","Snowdepth":"13.000","Units":"in","Rept_Date":"2025-02-13 12"}},{"type":"Point","coordinates":[-92.4217,47.098],"properties":{"Station_ID":"MN-SL-143","Station_Nam":"CANYON 4.6 NNE, MN","Latitude":"47.09800","Longitude":"-92.42170","Snowdepth":"13.000","Units":"in","Rept_Date":"2025-02-13 13"}},{"type":"Point","coordinates":[-92.35772,47.15142],"properties":{"Station_ID":"MN-SL-115","Station_Nam":"COTTON 5.7 ESE, MN","Latitude":"47.15142","Longitude":"-92.35772","Snowdepth":"13.000","Units":"in","Rept_Date":"2025-02-13 14"}},{"type":"Point","coordinates":[-83.8106,45.4174],"properties":{"Station_ID":"MI-PI-1","Station_Nam":"ROGERS CITY 0.2 WSW, MI","Latitude":"45.41740","Longitude":"-83.81060","Snowdepth":"13.000","Units":"in","Rept_Date":"2025-02-13 13"}},{"type":"Point","coordinates":[-87.45705,46.47288],"properties":{"Station_ID":"MI-MQ-30","Station_Nam":"MARQUETTE 6.1 SSW, MI","Latitude":"46.47288","Longitude":"-87.45705","Snowdepth":"13.000","Units":"in","Rept_Date":"2025-02-13 14"}},{"type":"Point","coordinates":[-83.0573,43.72262],"properties":{"Station_ID":"MI-HR-1","Station_Nam":"BAD AXE 6.3 SSW, MI","Latitude":"43.72262","Longitude":"-83.05730","Snowdepth":"13.000","Units":"in","Rept_Date":"2025-02-13 16"}},{"type":"Point","coordinates":[-70.7138,43.08101],"properties":{"Station_ID":"ME-YK-2","Station_Nam":"KITTERY POINT 0.8 WSW, ME","Latitude":"43.08101","Longitude":"-70.71380","Snowdepth":"13.000","Units":"in","Rept_Date":"2025-02-13 12"}},{"type":"Point","coordinates":[-70.3476,44.39318],"properties":{"Station_ID":"ME-OX-2","Station_Nam":"HARTFORD 1.4 N, ME","Latitude":"44.39318","Longitude":"-70.34760","Snowdepth":"13.000","Units":"in","Rept_Date":"2025-02-13 13"}},{"type":"Point","coordinates":[-69.5686,44.02767],"properties":{"Station_ID":"ME-LN-1","Station_Nam":"NEWCASTLE 2.1 SW, ME","Latitude":"44.02767","Longitude":"-69.56860","Snowdepth":"13.000","Units":"in","Rept_Date":"2025-02-13 12"}},{"type":"Point","coordinates":[-70.3055,43.70288],"properties":{"Station_ID":"ME-CM-18","Station_Nam":"PORTLAND 5.5 WNW, ME","Latitude":"43.70288","Longitude":"-70.30550","Snowdepth":"13.000","Units":"in","Rept_Date":"2025-02-13 12"}},{"type":"Point","coordinates":[-71.9842,42.8941],"properties":{"Station_ID":"MCDN3","Station_Nam":"EDWARD MACDOWELL LAKE","Latitude":"42.89410","Longitude":"-71.98420","Snowdepth":"13.000","Units":"in","Rept_Date":"2025-02-13 12"}},{"type":"Point","coordinates":[-85.205,44.3088],"properties":{"Station_ID":"LKCM4","Station_Nam":"LAKE CITY EXP FARM","Latitude":"44.30880","Longitude":"-85.20500","Snowdepth":"13.000","Units":"in","Rept_Date":"2025-02-13 13"}},{"type":"Point","coordinates":[-72.3247,42.939],"properties":{"Station_ID":"KEEN3","Station_Nam":"KEENE","Latitude":"42.93900","Longitude":"-72.32470","Snowdepth":"13.000","Units":"in","Rept_Date":"2025-02-13 12"}},{"type":"Point","coordinates":[-89.09593,41.34014],"properties":{"Station_ID":"IL-LS-34","Station_Nam":"LA SALLE 0.1 W, IL","Latitude":"41.34014","Longitude":"-89.09593","Snowdepth":"13.000","Units":"in","Rept_Date":"2025-02-13 13"}},{"type":"Point","coordinates":[-70.3162,44.3744],"properties":{"Station_ID":"HRTM1","Station_Nam":"HARTFORD","Latitude":"44.37440","Longitude":"-70.31620","Snowdepth":"13.000","Units":"in","Rept_Date":"2025-02-13 12"}},{"type":"Point","coordinates":[-71.9529,42.9694],"properties":{"Station_ID":"HCKN3","Station_Nam":"HANCOCK","Latitude":"42.96940","Longitude":"-71.95290","Snowdepth":"13.000","Units":"in","Rept_Date":"2025-02-13 12"}},{"type":"Point","coordinates":[-82.6427,43.8322],"properties":{"Station_ID":"HBHM4","Station_Nam":"HARBOR BEACH 1 SSE","Latitude":"43.83220","Longitude":"-82.64270","Snowdepth":"13.000","Units":"in","Rept_Date":"2025-02-13 13"}},{"type":"Point","coordinates":[-70.255,43.8925],"properties":{"Station_ID":"GYX","Station_Nam":"PORTLAND, ME","Latitude":"43.89250","Longitude":"-70.25500","Snowdepth":"13.000","Units":"in","Rept_Date":"2025-02-13 12"}},{"type":"Point","coordinates":[-71.7985,42.7827],"properties":{"Station_ID":"GREN3","Station_Nam":"GREENVILLE 1 NNE","Latitude":"42.78270","Longitude":"-71.79850","Snowdepth":"13.000","Units":"in","Rept_Date":"2025-02-13 13"}},{"type":"Point","coordinates":[-84.4908,43.9758],"properties":{"Station_ID":"GLAM4","Station_Nam":"GLADWIN","Latitude":"43.97580","Longitude":"-84.49080","Snowdepth":"13.000","Units":"in","Rept_Date":"2025-02-13 12"}},{"type":"Point","coordinates":[-94.2228,47.2467],"properties":{"Station_ID":"FEDM5","Station_Nam":"LEECH LAKE DAM","Latitude":"47.24670","Longitude":"-94.22280","Snowdepth":"13.000","Units":"in","Rept_Date":"2025-02-13 14"}},{"type":"Point","coordinates":[-68.6356,44.6788],"properties":{"Station_ID":"DHMM1","Station_Nam":"DEDHAM","Latitude":"44.67880","Longitude":"-68.63560","Snowdepth":"13.000","Units":"in","Rept_Date":"2025-02-13 13"}},{"type":"Point","coordinates":[-83.1805,43.5861],"properties":{"Station_ID":"CSSM4","Station_Nam":"CASS CITY 1SSW","Latitude":"43.58610","Longitude":"-83.18050","Snowdepth":"13.000","Units":"in","Rept_Date":"2025-02-13 11"}},{"type":"Point","coordinates":[-79.3203,42.3395],"properties":{"Station_ID":"CSGN6","Station_Nam":"CASSADAGA","Latitude":"42.33950","Longitude":"-79.32030","Snowdepth":"13.000","Units":"in","Rept_Date":"2025-02-13 12"}},{"type":"Point","coordinates":[-78.7111,42.6472],"properties":{"Station_ID":"CODN6","Station_Nam":"COLDEN","Latitude":"42.64720","Longitude":"-78.71110","Snowdepth":"13.000","Units":"in","Rept_Date":"2025-02-13 12"}},{"type":"Point","coordinates":[-92.5253,46.7047],"properties":{"Station_ID":"CLQM5","Station_Nam":"CLOQUET","Latitude":"46.70470","Longitude":"-92.52530","Snowdepth":"13.000","Units":"in","Rept_Date":"2025-02-13 14"}},{"type":"Point","coordinates":[-83.5597,45.0311],"properties":{"Station_ID":"ALPM4","Station_Nam":"SNOW PAID OBSERVER FOR KAPN","Latitude":"45.03110","Longitude":"-83.55970","Snowdepth":"13.000","Units":"in","Rept_Date":"2025-02-14 00"}},{"type":"Point","coordinates":[-72.534,42.935],"properties":{"Station_ID":"VT-WH-35","Station_Nam":"EAST DUMMERSTON 0.5 NE, VT","Latitude":"42.93500","Longitude":"-72.53400","Snowdepth":"12.500","Units":"in","Rept_Date":"2025-02-13 13"}},{"type":"Point","coordinates":[-71.51431,43.22922],"properties":{"Station_ID":"NH-MR-71","Station_Nam":"CONCORD 2.3 E, NH","Latitude":"43.22922","Longitude":"-71.51431","Snowdepth":"12.500","Units":"in","Rept_Date":"2025-02-13 12"}},{"type":"Point","coordinates":[-71.72241,43.22974],"properties":{"Station_ID":"NH-MR-68","Station_Nam":"CONTOOCOOK 0.6 NW, NH","Latitude":"43.22974","Longitude":"-71.72241","Snowdepth":"12.500","Units":"in","Rept_Date":"2025-02-13 12"}},{"type":"Point","coordinates":[-71.5351,43.62245],"properties":{"Station_ID":"NH-BK-9","Station_Nam":"MEREDITH 2.9 SSW, NH","Latitude":"43.62245","Longitude":"-71.53510","Snowdepth":"12.500","Units":"in","Rept_Date":"2025-02-13 13"}},{"type":"Point","coordinates":[-94.10155,47.82442],"properties":{"Station_ID":"MN-IT-80","Station_Nam":"NORTHOME 8.4 ESE, MN","Latitude":"47.82442","Longitude":"-94.10155","Snowdepth":"12.500","Units":"in","Rept_Date":"2025-02-13 13"}},{"type":"Point","coordinates":[-93.6936,47.60215],"properties":{"Station_ID":"MN-IT-47","Station_Nam":"MARCELL 0.7 NNW, MN","Latitude":"47.60215","Longitude":"-93.69360","Snowdepth":"12.500","Units":"in","Rept_Date":"2025-02-13 14"}},{"type":"Point","coordinates":[-70.5806,43.3932],"properties":{"Station_ID":"ME-YK-5","Station_Nam":"KENNEBUNK 1.8 WNW, ME","Latitude":"43.39320","Longitude":"-70.58060","Snowdepth":"12.500","Units":"in","Rept_Date":"2025-02-13 12"}},{"type":"Point","coordinates":[-69.36644,44.11481],"properties":{"Station_ID":"ME-LN-13","Station_Nam":"WALDOBORO 1.5 NNE, ME","Latitude":"44.11481","Longitude":"-69.36644","Snowdepth":"12.500","Units":"in","Rept_Date":"2025-02-13 12"}},{"type":"Point","coordinates":[-72.9454,42.49272],"properties":{"Station_ID":"MA-HS-7","Station_Nam":"PLAINFIELD 2.2 SW, MA","Latitude":"42.49272","Longitude":"-72.94540","Snowdepth":"12.500","Units":"in","Rept_Date":"2025-02-13 13"}},{"type":"Point","coordinates":[-87.4503,46.28397],"properties":{"Station_ID":"61591_MADIS","Station_Nam":"GWINN 0.7 SW, MI","Latitude":"46.28397","Longitude":"-87.45030","Snowdepth":"12.500","Units":"in","Rept_Date":"2025-02-13 14"}},{"type":"Point","coordinates":[-87.21344,46.33748],"properties":{"Station_ID":"MI-MQ-34","Station_Nam":"SKANDIA 3.0 SSE, MI","Latitude":"46.33748","Longitude":"-87.21344","Snowdepth":"12.300","Units":"in","Rept_Date":"2025-02-13 12"}},{"type":"Point","coordinates":[-65.52858,45.7267],"properties":{"Station_ID":"CAN-NB-29","Station_Nam":"SUSSEX 1.0 WNW - KWRC, CAN","Latitude":"45.72670","Longitude":"-65.52858","Snowdepth":"12.300","Units":"in","Rept_Date":"2025-02-13 12"}},{"type":"Point","coordinates":[-73.16844,44.01808],"properties":{"Station_ID":"VT-AD-24","Station_Nam":"MIDDLEBURY 0.3 N, VT","Latitude":"44.01808","Longitude":"-73.16844","Snowdepth":"12.200","Units":"in","Rept_Date":"2025-02-13 12"}},{"type":"Point","coordinates":[-81.2281,42.9636],"properties":{"Station_ID":"CAN-ON-886","Station_Nam":"LONDON 2.6 SE, CAN","Latitude":"42.96360","Longitude":"-81.22810","Snowdepth":"12.200","Units":"in","Rept_Date":"2025-02-13 14"}},{"type":"Point","coordinates":[-79.27299,43.68938],"properties":{"Station_ID":"CAN-ON-837","Station_Nam":"TORONTO 9.7 ENE, CAN","Latitude":"43.68938","Longitude":"-79.27299","Snowdepth":"12.200","Units":"in","Rept_Date":"2025-02-13 12"}},{"type":"Point","coordinates":[-78.77438,43.91886],"properties":{"Station_ID":"CAN-ON-1023","Station_Nam":"COURTICE 1.7 NE, CAN","Latitude":"43.91886","Longitude":"-78.77438","Snowdepth":"12.200","Units":"in","Rept_Date":"2025-02-13 14"}},{"type":"Point","coordinates":[-78.2085,42.7422],"properties":{"Station_ID":"WSWN6","Station_Nam":"WARSAW","Latitude":"42.74220","Longitude":"-78.20850","Snowdepth":"12.000","Units":"in","Rept_Date":"2025-02-13 11"}},{"type":"Point","coordinates":[-90.27013,46.41555],"properties":{"Station_ID":"WI-IR-3","Station_Nam":"PENCE 0.1 E, WI","Latitude":"46.41555","Longitude":"-90.27013","Snowdepth":"12.000","Units":"in","Rept_Date":"2025-02-13 13"}},{"type":"Point","coordinates":[-87.24702,45.06007],"properties":{"Station_ID":"WI-DR-24","Station_Nam":"EGG HARBOR 2.4 ENE, WI","Latitude":"45.06007","Longitude":"-87.24702","Snowdepth":"12.000","Units":"in","Rept_Date":"2025-02-13 13"}},{"type":"Point","coordinates":[-71.746,43.189],"properties":{"Station_ID":"WHPN3","Station_Nam":"HOPKINTON LAKE","Latitude":"43.18900","Longitude":"-71.74600","Snowdepth":"12.000","Units":"in","Rept_Date":"2025-02-13 13"}},{"type":"Point","coordinates":[-72.79885,44.11205],"properties":{"Station_ID":"VT-WS-41","Station_Nam":"WARREN 2.8 E, VT","Latitude":"44.11205","Longitude":"-72.79885","Snowdepth":"12.000","Units":"in","Rept_Date":"2025-02-13 12"}},{"type":"Point","coordinates":[-73.1034,44.6888],"properties":{"Station_ID":"VT-FR-21","Station_Nam":"FAIRFAX 4.9 WNW, VT","Latitude":"44.68880","Longitude":"-73.10340","Snowdepth":"12.000","Units":"in","Rept_Date":"2025-02-13 14"}},{"type":"Point","coordinates":[-72.11945,44.30015],"properties":{"Station_ID":"VT-CL-42","Station_Nam":"BARNET 3.5 W, VT","Latitude":"44.30015","Longitude":"-72.11945","Snowdepth":"12.000","Units":"in","Rept_Date":"2025-02-13 13"}},{"type":"Point","coordinates":[-72.2572,43.7917],"properties":{"Station_ID":"UVDV1","Station_Nam":"NERON SITE AT UNION VILLAGE DAM","Latitude":"43.79170","Longitude":"-72.25720","Snowdepth":"12.000","Units":"in","Rept_Date":"2025-02-13 12"}},{"type":"Point","coordinates":[-76.2883,43.19506],"properties":{"Station_ID":"NY-OG-46","Station_Nam":"BALDWINSVILLE 3.5 NE, NY","Latitude":"43.19506","Longitude":"-76.28830","Snowdepth":"12.000","Units":"in","Rept_Date":"2025-02-13 13"}},{"type":"Point","coordinates":[-75.6828,43.17115],"properties":{"Station_ID":"NY-OD-23","Station_Nam":"DURHAMVILLE 3.5 NNW, NY","Latitude":"43.17115","Longitude":"-75.68280","Snowdepth":"12.000","Units":"in","Rept_Date":"2025-02-13 12"}},{"type":"Point","coordinates":[-78.6391,42.60195],"properties":{"Station_ID":"NY-ER-63","Station_Nam":"GLENWOOD 1.5 SE, NY","Latitude":"42.60195","Longitude":"-78.63910","Snowdepth":"12.000","Units":"in","Rept_Date":"2025-02-13 13"}},{"type":"Point","coordinates":[-72.5056,43.3392],"properties":{"Station_ID":"NOSV1","Station_Nam":"NORTH SPRINGFIELD LAKE","Latitude":"43.33920","Longitude":"-72.50560","Snowdepth":"12.000","Units":"in","Rept_Date":"2025-02-13 12"}},{"type":"Point","coordinates":[-71.2469,43.214],"properties":{"Station_ID":"NORN3","Station_Nam":"NORTHWOOD","Latitude":"43.21400","Longitude":"-71.24690","Snowdepth":"12.000","Units":"in","Rept_Date":"2025-02-13 12"}},{"type":"Point","coordinates":[-72.3621,43.6027],"properties":{"Station_ID":"NOHV1","Station_Nam":"NORTH HARTLAND LAKE","Latitude":"43.60270","Longitude":"-72.36210","Snowdepth":"12.000","Units":"in","Rept_Date":"2025-02-13 12"}},{"type":"Point","coordinates":[-72.3297,43.28652],"properties":{"Station_ID":"NH-SL-3","Station_Nam":"WEST UNITY 0.7 WSW, NH","Latitude":"43.28652","Longitude":"-72.32970","Snowdepth":"12.000","Units":"in","Rept_Date":"2025-02-13 12"}},{"type":"Point","coordinates":[-71.27139,42.97653],"properties":{"Station_ID":"NH-RC-72","Station_Nam":"DERRY 5.7 N, NH","Latitude":"42.97653","Longitude":"-71.27139","Snowdepth":"12.000","Units":"in","Rept_Date":"2025-02-13 12"}},{"type":"Point","coordinates":[-71.4143,43.2115],"properties":{"Station_ID":"NH-MR-25","Station_Nam":"CHICHESTER 2.7 SSW, NH","Latitude":"43.21150","Longitude":"-71.41430","Snowdepth":"12.000","Units":"in","Rept_Date":"2025-02-14 05"}},{"type":"Point","coordinates":[-71.5764,44.49611],"properties":{"Station_ID":"NH-CS-7","Station_Nam":"LANCASTER 0.5 N, NH","Latitude":"44.49611","Longitude":"-71.57640","Snowdepth":"12.000","Units":"in","Rept_Date":"2025-02-13 12"}},{"type":"Point","coordinates":[-72.1812,43.3772],"properties":{"Station_ID":"NEWN3","Station_Nam":"NEWPORT","Latitude":"43.37720","Longitude":"-72.18120","Snowdepth":"12.000","Units":"in","Rept_Date":"2025-02-13 13"}},{"type":"Point","coordinates":[-71.3,44.2667],"properties":{"Station_ID":"MWN","Station_Nam":"MOUNT WASHINGTON","Latitude":"44.26670","Longitude":"-71.30000","Snowdepth":"12.000","Units":"in","Rept_Date":"2025-02-13 12"}},{"type":"Point","coordinates":[-93.3147,45.8776],"properties":{"Station_ID":"MRAM5","Station_Nam":"MORA","Latitude":"45.87760","Longitude":"-93.31470","Snowdepth":"12.000","Units":"in","Rept_Date":"2025-02-13 13"}},{"type":"Point","coordinates":[-92.6313,47.4615],"properties":{"Station_ID":"MN-SL-108","Station_Nam":"IRON JUNCTION 3.4 NNW, MN","Latitude":"47.46150","Longitude":"-92.63130","Snowdepth":"12.000","Units":"in","Rept_Date":"2025-02-13 09"}},{"type":"Point","coordinates":[-90.761,47.62394],"properties":{"Station_ID":"MN-CK-3","Station_Nam":"TOFTE 4.9 NE, MN","Latitude":"47.62394","Longitude":"-90.76100","Snowdepth":"12.000","Units":"in","Rept_Date":"2025-02-13 13"}},{"type":"Point","coordinates":[-90.43796,47.74462],"properties":{"Station_ID":"MN-CK-18","Station_Nam":"GRAND MARAIS 4.4 WSW, MN","Latitude":"47.74462","Longitude":"-90.43796","Snowdepth":"12.000","Units":"in","Rept_Date":"2025-02-13 13"}},{"type":"Point","coordinates":[-69.9519,44.4162],"properties":{"Station_ID":"ME-KB-53","Station_Nam":"READFIELD 2.0 NNE, ME","Latitude":"44.41620","Longitude":"-69.95190","Snowdepth":"12.000","Units":"in","Rept_Date":"2025-02-13 12"}},{"type":"Point","coordinates":[-72.7511,42.589],"properties":{"Station_ID":"MA-FR-17","Station_Nam":"BUCKLAND 1.8 ESE, MA","Latitude":"42.58900","Longitude":"-72.75110","Snowdepth":"12.000","Units":"in","Rept_Date":"2025-02-13 13"}},{"type":"Point","coordinates":[-71.0192,42.66175],"properties":{"Station_ID":"MA-ES-95","Station_Nam":"BOXFORD 1.8 WSW, MA","Latitude":"42.66175","Longitude":"-71.01920","Snowdepth":"12.000","Units":"in","Rept_Date":"2025-02-13 12"}},{"type":"Point","coordinates":[-71.02707,42.58133],"properties":{"Station_ID":"MA-ES-58","Station_Nam":"MIDDLETON 1.4 SSW, MA","Latitude":"42.58133","Longitude":"-71.02707","Snowdepth":"12.000","Units":"in","Rept_Date":"2025-02-13 13"}},{"type":"Point","coordinates":[-83.3603,43.0573],"properties":{"Station_ID":"LPEM4","Station_Nam":"LAPEER 2W","Latitude":"43.05730","Longitude":"-83.36030","Snowdepth":"12.000","Units":"in","Rept_Date":"2025-02-13 14"}},{"type":"Point","coordinates":[-94.8892,45.9646],"properties":{"Station_ID":"LNGM5","Station_Nam":"LONG PRAIRIE","Latitude":"45.96460","Longitude":"-94.88920","Snowdepth":"12.000","Units":"in","Rept_Date":"2025-02-13 12"}},{"type":"Point","coordinates":[-85.56666,44.73333],"properties":{"Station_ID":"KTVC","Station_Nam":"CHERRY CAPITAL AIRPORT","Latitude":"44.73333","Longitude":"-85.56666","Snowdepth":"12.000","Units":"in","Rept_Date":"2025-02-14 00"}},{"type":"Point","coordinates":[-71.3,44.26666],"properties":{"Station_ID":"KMWN","Station_Nam":"MOUNT WASHINGTON","Latitude":"44.26666","Longitude":"-71.30000","Snowdepth":"12.000","Units":"in","Rept_Date":"2025-02-14 06"}},{"type":"Point","coordinates":[-73.15,44.46666],"properties":{"Station_ID":"KBTV","Station_Nam":"BURLINGTON INTERNATIONAL","Latitude":"44.46666","Longitude":"-73.15000","Snowdepth":"12.000","Units":"in","Rept_Date":"2025-02-13 18"}},{"type":"Point","coordinates":[-70.246,45.626],"properties":{"Station_ID":"JKMM1","Station_Nam":"JACKMAN","Latitude":"45.62600","Longitude":"-70.24600","Snowdepth":"12.000","Units":"in","Rept_Date":"2025-02-13 12"}},{"type":"Point","coordinates":[-90.1382,46.4652],"properties":{"Station_ID":"IWOM4","Station_Nam":"IRONWOOD#2","Latitude":"46.46520","Longitude":"-90.13820","Snowdepth":"12.000","Units":"in","Rept_Date":"2025-02-13 13"}},{"type":"Point","coordinates":[-90.1955,46.4625],"properties":{"Station_ID":"HURW3","Station_Nam":"HURLEY","Latitude":"46.46250","Longitude":"-90.19550","Snowdepth":"12.000","Units":"in","Rept_Date":"2025-02-13 14"}},{"type":"Point","coordinates":[-83.0936,43.9267],"properties":{"Station_ID":"FLNM4","Station_Nam":"CASE DRAIN-BOARTMAN CRK","Latitude":"43.92670","Longitude":"-83.09360","Snowdepth":"12.000","Units":"in","Rept_Date":"2025-02-13 11"}},{"type":"Point","coordinates":[-85.5696,46.128],"properties":{"Station_ID":"ENGM4","Station_Nam":"ENGADINE MDOT","Latitude":"46.12800","Longitude":"-85.56960","Snowdepth":"12.000","Units":"in","Rept_Date":"2025-02-13 12"}},{"type":"Point","coordinates":[-70.0963,43.9996],"properties":{"Station_ID":"DURM1","Station_Nam":"DURHAM","Latitude":"43.99960","Longitude":"-70.09630","Snowdepth":"12.000","Units":"in","Rept_Date":"2025-02-13 12"}},{"type":"Point","coordinates":[-94.6147,47.3847],"properties":{"Station_ID":"CSLM5","Station_Nam":"CASS LAKE,MN","Latitude":"47.38470","Longitude":"-94.61470","Snowdepth":"12.000","Units":"in","Rept_Date":"2025-02-13 14"}},{"type":"Point","coordinates":[-91.45,45.8667],"properties":{"Station_ID":"COUW3","Station_Nam":"COUDERAY,WI","Latitude":"45.86670","Longitude":"-91.45000","Snowdepth":"12.000","Units":"in","Rept_Date":"2025-02-13 22"}},{"type":"Point","coordinates":[-73.9256,43.3203],"properties":{"Station_ID":"CNKN6","Station_Nam":"CONKLINGVILLE DAM","Latitude":"43.32030","Longitude":"-73.92560","Snowdepth":"12.000","Units":"in","Rept_Date":"2025-02-13 13"}},{"type":"Point","coordinates":[-94.392,45.5794],"properties":{"Station_ID":"CLGM5","Station_Nam":"COLLEGEVILLE ST JOHN","Latitude":"45.57940","Longitude":"-94.39200","Snowdepth":"12.000","Units":"in","Rept_Date":"2025-02-14 00"}},{"type":"Point","coordinates":[-84.4725,45.6527],"properties":{"Station_ID":"CHBM4","Station_Nam":"CHEBOYGAN","Latitude":"45.65270","Longitude":"-84.47250","Snowdepth":"12.000","Units":"in","Rept_Date":"2025-02-13 13"}},{"type":"Point","coordinates":[-68.0125,46.8681],"properties":{"Station_ID":"CARM1","Station_Nam":"CARIBOU WFO","Latitude":"46.86810","Longitude":"-68.01250","Snowdepth":"12.000","Units":"in","Rept_Date":"2025-02-14 05"}},{"type":"Point","coordinates":[-65.1169,45.00427],"properties":{"Station_ID":"CAN-NS-23","Station_Nam":"MIDDLETON 7.8 NNW, CA","Latitude":"45.00427","Longitude":"-65.11690","Snowdepth":"12.000","Units":"in","Rept_Date":"2025-02-13 11"}},{"type":"Point","coordinates":[-71.1854,44.4535],"properties":{"Station_ID":"BRLN3","Station_Nam":"BERLIN","Latitude":"44.45350","Longitude":"-71.18540","Snowdepth":"12.000","Units":"in","Rept_Date":"2025-02-13 12"}},{"type":"Point","coordinates":[-84.1404,45.0047],"properties":{"Station_ID":"ATLM4","Station_Nam":"ATLANTA","Latitude":"45.00470","Longitude":"-84.14040","Snowdepth":"12.000","Units":"in","Rept_Date":"2025-02-13 12"}},{"type":"Point","coordinates":[-71.9159,42.6178],"properties":{"Station_ID":"ASBM3","Station_Nam":"ASHBURNHAM","Latitude":"42.61780","Longitude":"-71.91590","Snowdepth":"12.000","Units":"in","Rept_Date":"2025-02-13 12"}},{"type":"Point","coordinates":[-88.4544,46.2347],"properties":{"Station_ID":"AMAM4","Station_Nam":"AMASA 1W","Latitude":"46.23470","Longitude":"-88.45440","Snowdepth":"12.000","Units":"in","Rept_Date":"2025-02-13 14"}},{"type":"Point","coordinates":[-75.6147,48.8722],"properties":{"Station_ID":"CQYR","Station_Nam":"CQYR","Latitude":"48.87220","Longitude":"-75.61470","Snowdepth":"11.929","Units":"in","Rept_Date":"2025-02-13 12"}},{"type":"Point","coordinates":[-80.40321,46.4067],"properties":{"Station_ID":"CAN-ON-1011","Station_Nam":"WARREN 8.5 WSW, CAN","Latitude":"46.40670","Longitude":"-80.40321","Snowdepth":"11.800","Units":"in","Rept_Date":"2025-02-13 14"}},{"type":"Point","coordinates":[-65.63012,44.57236],"properties":{"Station_ID":"CAN-NS-184","Station_Nam":"BEAR RIVER 0.6 SE, CAN","Latitude":"44.57236","Longitude":"-65.63012","Snowdepth":"11.800","Units":"in","Rept_Date":"2025-02-13 12"}},{"type":"Point","coordinates":[-66.5544,45.54763],"properties":{"Station_ID":"CAN-NB-98","Station_Nam":"HOYT 4.2 S, CAN","Latitude":"45.54763","Longitude":"-66.55440","Snowdepth":"11.800","Units":"in","Rept_Date":"2025-02-13 11"}},{"type":"Point","coordinates":[-66.68739,45.90112],"properties":{"Station_ID":"CAN-NB-97","Station_Nam":"NEW MARYLAND 0.6 NW, CAN","Latitude":"45.90112","Longitude":"-66.68739","Snowdepth":"11.800","Units":"in","Rept_Date":"2025-02-13 11"}},{"type":"Point","coordinates":[-67.08163,45.17149],"properties":{"Station_ID":"CAN-NB-7","Station_Nam":"CHAMCOOK 6.1 NNW, CAN","Latitude":"45.17149","Longitude":"-67.08163","Snowdepth":"11.800","Units":"in","Rept_Date":"2025-02-13 11"}},{"type":"Point","coordinates":[-93.18095,45.71379],"properties":{"Station_ID":"MN-IS-18","Station_Nam":"BRAHAM 0.7 SW, MN","Latitude":"45.71379","Longitude":"-93.18095","Snowdepth":"11.700","Units":"in","Rept_Date":"2025-02-13 14"}},{"type":"Point","coordinates":[-89.6247,46.1284],"properties":{"Station_ID":"WI-VL-14","Station_Nam":"BOULDER JUNCTION 1.4 NE, WI","Latitude":"46.12840","Longitude":"-89.62470","Snowdepth":"11.500","Units":"in","Rept_Date":"2025-02-13 13"}},{"type":"Point","coordinates":[-87.05701,45.28323],"properties":{"Station_ID":"WI-DR-27","Station_Nam":"ELLISON BAY 2.1 NNE, WI","Latitude":"45.28323","Longitude":"-87.05701","Snowdepth":"11.500","Units":"in","Rept_Date":"2025-02-13 14"}},{"type":"Point","coordinates":[-96.1218,46.7985],"properties":{"Station_ID":"MN-BK-6","Station_Nam":"LAKE PARK 6.0 S, MN","Latitude":"46.79850","Longitude":"-96.12180","Snowdepth":"11.500","Units":"in","Rept_Date":"2025-02-13 13"}},{"type":"Point","coordinates":[-86.28266,45.99042],"properties":{"Station_ID":"MI-SH-1","Station_Nam":"MANISTIQUE 2.7 NW, MI","Latitude":"45.99042","Longitude":"-86.28266","Snowdepth":"11.500","Units":"in","Rept_Date":"2025-02-13 11"}},{"type":"Point","coordinates":[-84.5847,44.11865],"properties":{"Station_ID":"MI-GL-4","Station_Nam":"GLADWIN 10.4 NNW, MI","Latitude":"44.11865","Longitude":"-84.58470","Snowdepth":"11.500","Units":"in","Rept_Date":"2025-02-13 14"}},