{"type":"Topology","objects":{"snowdepth_geo":{"type":"GeometryCollection","name":"snowdepth","crs":{"type":"name","properties":{"name":"urn:ogc:def:crs:OGC:1.3:CRS84"}},"geometries":[{"type":"Point","properties":{"Station_ID":"PRKM4","Station_Nam":"MUNISING EAST","Latitude":"46.42580","Longitude":"-86.62000","Snowdepth":"76.500","Units":"in","Rept_Date":"2020-02-22 06"},"coordinates":[2492,6855]},{"type":"Point","properties":{"Station_ID":"OGIQ6","Station_Nam":"OGOKI CAMP","Latitude":"50.76680","Longitude":"-87.85820","Snowdepth":"61.100","Units":"in","Rept_Date":"2020-02-22 06"},"coordinates":[2202,9430]},{"type":"Point","properties":{"Station_ID":"HTLN3","Station_Nam":"HERMIT LAKE SNOWPLOT","Latitude":"44.26130","Longitude":"-71.28330","Snowdepth":"60.000","Units":"in","Rept_Date":"2020-02-21 10"},"coordinates":[6092,5572]},{"type":"Point","properties":{"Station_ID":"PDLM4","Station_Nam":"PAINESDALE","Latitude":"47.04160","Longitude":"-88.67170","Snowdepth":"53.000","Units":"in","Rept_Date":"2020-02-21 13"},"coordinates":[2011,7220]},{"type":"Point","properties":{"Station_ID":"HVCN3","Station_Nam":"HARVARD CABIN SNOWPLOT","Latitude":"44.26630","Longitude":"-71.27790","Snowdepth":"49.000","Units":"in","Rept_Date":"2020-02-21 10"},"coordinates":[6093,5574]},{"type":"Point","properties":{"Station_ID":"GMSM4","Station_Nam":"GRAND MARAIS 10S","Latitude":"46.50940","Longitude":"-85.96310","Snowdepth":"48.000","Units":"in","Rept_Date":"2020-02-21 12"},"coordinates":[2646,6905]},{"type":"Point","properties":{"Station_ID":"WLFM5","Station_Nam":"WOLF RIDGE ENVIRON LEARNING CENTER","Latitude":"47.38240","Longitude":"-91.19730","Snowdepth":"39.000","Units":"in","Rept_Date":"2020-02-21 13"},"coordinates":[1418,7422]},{"type":"Point","properties":{"Station_ID":"KSGM4","Station_Nam":"KEARSARGE","Latitude":"47.27520","Longitude":"-88.41700","Snowdepth":"38.000","Units":"in","Rept_Date":"2020-02-21 13"},"coordinates":[2070,7359]},{"type":"Point","properties":{"Station_ID":"IBLM5","Station_Nam":"ISABELLA 14W","Latitude":"47.59360","Longitude":"-91.65140","Snowdepth":"38.000","Units":"in","Rept_Date":"2020-02-21 15"},"coordinates":[1311,7548]},{"type":"Point","properties":{"Station_ID":"QGO","Station_Nam":"QGO","Latitude":"48.85500","Longitude":"-74.20640","Snowdepth":"36.693","Units":"in","Rept_Date":"2020-02-21 12"},"coordinates":[5405,8296]},{"type":"Point","properties":{"Station_ID":"TTCM5","Station_Nam":"TETTEGOUCHE CAMP","Latitude":"47.34710","Longitude":"-91.26090","Snowdepth":"36.000","Units":"in","Rept_Date":"2020-02-21 14"},"coordinates":[1403,7402]},{"type":"Point","properties":{"Station_ID":"MNSM4","Station_Nam":"MUNISING","Latitude":"46.41210","Longitude":"-86.66250","Snowdepth":"36.000","Units":"in","Rept_Date":"2020-02-21 11"},"coordinates":[2482,6847]},{"type":"Point","properties":{"Station_ID":"QCU","Station_Nam":"QCU","Latitude":"47.82750","Longitude":"-76.59830","Snowdepth":"35.866","Units":"in","Rept_Date":"2020-02-21 12"},"coordinates":[4844,7686]},{"type":"Point","properties":{"Station_ID":"CAN-NL-82","Station_Nam":"GANDER 2.7 NW, CAN","Latitude":"48.97737","Longitude":"-54.63396","Snowdepth":"35.400","Units":"in","Rept_Date":"2020-02-21 10"},"coordinates":[9999,8368]},{"type":"Point","properties":{"Station_ID":"PHEW3","Station_Nam":"PHELPS","Latitude":"46.06630","Longitude":"-89.07520","Snowdepth":"35.000","Units":"in","Rept_Date":"2020-02-21 13"},"coordinates":[1916,6642]},{"type":"Point","properties":{"Station_ID":"CAN-NL-65","Station_Nam":"KIPPENS 0.7 NE, CA","Latitude":"48.55436","Longitude":"-58.61850","Snowdepth":"35.000","Units":"in","Rept_Date":"2020-02-21 12"},"coordinates":[9064,8118]},{"type":"Point","properties":{"Station_ID":"QWE","Station_Nam":"QWE","Latitude":"47.84610","Longitude":"-73.80670","Snowdepth":"34.449","Units":"in","Rept_Date":"2020-02-21 12"},"coordinates":[5499,7697]},{"type":"Point","properties":{"Station_ID":"MQT","Station_Nam":"MARQUETTE, MI","Latitude":"46.53140","Longitude":"-87.54920","Snowdepth":"34.000","Units":"in","Rept_Date":"2020-02-22 06"},"coordinates":[2274,6918]},{"type":"Point","properties":{"Station_ID":"CAN-NB-11","Station_Nam":"MIRAMICHI 3.3 S, CAN","Latitude":"46.99343","Longitude":"-65.50690","Snowdepth":"33.500","Units":"in","Rept_Date":"2020-02-21 10"},"coordinates":[7447,7192]},{"type":"Point","properties":{"Station_ID":"STEM4","Station_Nam":"STEUBEN","Latitude":"46.18530","Longitude":"-86.46410","Snowdepth":"33.000","Units":"in","Rept_Date":"2020-02-21 14"},"coordinates":[2529,6713]},{"type":"Point","properties":{"Station_ID":"MI-BG-3","Station_Nam":"L'ANSE 17.8 SE, MI","Latitude":"46.55730","Longitude":"-88.20770","Snowdepth":"33.000","Units":"in","Rept_Date":"2020-02-21 13"},"coordinates":[2119,6933]},{"type":"Point","properties":{"Station_ID":"PRDM4","Station_Nam":"PARADISE","Latitude":"46.60380","Longitude":"-85.03960","Snowdepth":"32.000","Units":"in","Rept_Date":"2020-02-21 11"},"coordinates":[2863,6961]},{"type":"Point","properties":{"Station_ID":"LVDW3","Station_Nam":"LAC VIEUX DESERT","Latitude":"46.12110","Longitude":"-89.07580","Snowdepth":"32.000","Units":"in","Rept_Date":"2020-02-21 14"},"coordinates":[1916,6674]},{"type":"Point","properties":{"Station_ID":"CAN-QC-47","Station_Nam":"SAINTE-FOY 1.8 ENE, CAN","Latitude":"46.76934","Longitude":"-71.27124","Snowdepth":"31.700","Units":"in","Rept_Date":"2020-02-21 12"},"coordinates":[6094,7059]},{"type":"Point","properties":{"Station_ID":"QLB","Station_Nam":"QLB","Latitude":"50.72360","Longitude":"-75.10000","Snowdepth":"31.339","Units":"in","Rept_Date":"2020-02-21 12"},"coordinates":[5196,9404]},{"type":"Point","properties":{"Station_ID":"QOU","Station_Nam":"QOU","Latitude":"50.79250","Longitude":"-69.67470","Snowdepth":"31.024","Units":"in","Rept_Date":"2020-02-21 12"},"coordinates":[6469,9445]},{"type":"Point","properties":{"Station_ID":"MLZ","Station_Nam":"MLZ","Latitude":"50.66170","Longitude":"-68.82360","Snowdepth":"30.905","Units":"in","Rept_Date":"2020-02-21 12"},"coordinates":[6669,9367]},{"type":"Point","properties":{"Station_ID":"QGD","Station_Nam":"QGD","Latitude":"51.11140","Longitude":"-67.13940","Snowdepth":"30.354","Units":"in","Rept_Date":"2020-02-21 12"},"coordinates":[7064,9634]},{"type":"Point","properties":{"Station_ID":"SUTV1","Station_Nam":"SUTTON","Latitude":"44.61220","Longitude":"-72.04810","Snowdepth":"30.000","Units":"in","Rept_Date":"2020-02-21 13"},"coordinates":[5912,5780]},{"type":"Point","properties":{"Station_ID":"NH-CS-10","Station_Nam":"RANDOLPH 1.4 NE, NH","Latitude":"44.38824","Longitude":"-71.26950","Snowdepth":"30.000","Units":"in","Rept_Date":"2020-02-21 12"},"coordinates":[6095,5647]},{"type":"Point","properties":{"Station_ID":"ME-AR-23","Station_Nam":"MADAWASKA 2.5 E, ME","Latitude":"47.34933","Longitude":"-68.28141","Snowdepth":"30.000","Units":"in","Rept_Date":"2020-02-21 12"},"coordinates":[6796,7403]},{"type":"Point","properties":{"Station_ID":"ME-AR-18","Station_Nam":"NEW SWEDEN 4.9 NNW, ME","Latitude":"47.01080","Longitude":"-68.14390","Snowdepth":"30.000","Units":"in","Rept_Date":"2020-02-21 12"},"coordinates":[6828,7202]},{"type":"Point","properties":{"Station_ID":"KISM4","Station_Nam":"K.I. SAWYER WWTP","Latitude":"46.33410","Longitude":"-87.37790","Snowdepth":"30.000","Units":"in","Rept_Date":"2020-02-21 13"},"coordinates":[2314,6801]},{"type":"Point","properties":{"Station_ID":"IWOM4","Station_Nam":"IRONWOOD#2","Latitude":"46.46520","Longitude":"-90.13820","Snowdepth":"30.000","Units":"in","Rept_Date":"2020-02-21 13"},"coordinates":[1666,6879]},{"type":"Point","properties":{"Station_ID":"HERM4","Station_Nam":"HERMAN,MI","Latitude":"46.65000","Longitude":"-88.33330","Snowdepth":"30.000","Units":"in","Rept_Date":"2020-02-21 13"},"coordinates":[2090,6988]},{"type":"Point","properties":{"Station_ID":"QFT","Station_Nam":"QFT","Latitude":"50.83280","Longitude":"-74.40390","Snowdepth":"29.764","Units":"in","Rept_Date":"2020-02-21 12"},"coordinates":[5359,9469]},{"type":"Point","properties":{"Station_ID":"MI-HG-6","Station_Nam":"CALUMET 5.8 ENE, MI","Latitude":"47.27200","Longitude":"-88.33400","Snowdepth":"29.500","Units":"in","Rept_Date":"2020-02-21 11"},"coordinates":[2090,7357]},{"type":"Point","properties":{"Station_ID":"PTLQ6","Station_Nam":"PORTAGE LAKE","Latitude":"49.06950","Longitude":"-86.65940","Snowdepth":"29.060","Units":"in","Rept_Date":"2020-02-22 06"},"coordinates":[2483,8423]},{"type":"Point","properties":{"Station_ID":"HURW3","Station_Nam":"HURLEY","Latitude":"46.46250","Longitude":"-90.19550","Snowdepth":"29.000","Units":"in","Rept_Date":"2020-02-21 14"},"coordinates":[1653,6877]},{"type":"Point","properties":{"Station_ID":"GLDM4","Station_Nam":"GLADSTONE NO. 2","Latitude":"45.84330","Longitude":"-87.03910","Snowdepth":"29.000","Units":"in","Rept_Date":"2020-02-21 12"},"coordinates":[2394,6510]},{"type":"Point","properties":{"Station_ID":"WI-VL-10","Station_Nam":"LAND O LAKES 4.3 WNW, WI","Latitude":"46.17440","Longitude":"-89.30380","Snowdepth":"28.500","Units":"in","Rept_Date":"2020-02-21 13"},"coordinates":[1862,6706]},{"type":"Point","properties":{"Station_ID":"OCNW3","Station_Nam":"OCONTO 4 W","Latitude":"44.89190","Longitude":"-87.95500","Snowdepth":"28.000","Units":"in","Rept_Date":"2020-02-21 13"},"coordinates":[2179,5946]},{"type":"Point","properties":{"Station_ID":"ISLV1","Station_Nam":"ISLAND POND","Latitude":"44.81280","Longitude":"-71.89020","Snowdepth":"28.000","Units":"in","Rept_Date":"2020-02-21 16"},"coordinates":[5949,5899]},{"type":"Point","properties":{"Station_ID":"EVRW3","Station_Nam":"EAGLE RIVER-4 E","Latitude":"45.91890","Longitude":"-89.15280","Snowdepth":"28.000","Units":"in","Rept_Date":"2020-02-21 12"},"coordinates":[1898,6555]},{"type":"Point","properties":{"Station_ID":"EAHV1","Station_Nam":"EAST HAVEN","Latitude":"44.64250","Longitude":"-71.89120","Snowdepth":"28.000","Units":"in","Rept_Date":"2020-02-21 12"},"coordinates":[5949,5798]},{"type":"Point","properties":{"Station_ID":"WI-VL-9","Station_Nam":"LAND O' LAKES 11.7 W, WI","Latitude":"46.19023","Longitude":"-89.45790","Snowdepth":"27.000","Units":"in","Rept_Date":"2020-02-21 13"},"coordinates":[1826,6715]},{"type":"Point","properties":{"Station_ID":"VT-OL-1","Station_Nam":"WESTFIELD 0.7 WNW, VT","Latitude":"44.89160","Longitude":"-72.44350","Snowdepth":"27.000","Units":"in","Rept_Date":"2020-02-21 13"},"coordinates":[5819,5945]},{"type":"Point","properties":{"Station_ID":"STGW3","Station_Nam":"ST GERMAIN","Latitude":"45.91550","Longitude":"-89.48940","Snowdepth":"27.000","Units":"in","Rept_Date":"2020-02-21 12"},"coordinates":[1819,6553]},{"type":"Point","properties":{"Station_ID":"PDGM4","Station_Nam":"PAULDING","Latitude":"46.39760","Longitude":"-89.17940","Snowdepth":"27.000","Units":"in","Rept_Date":"2020-02-21 14"},"coordinates":[1891,6838]},{"type":"Point","properties":{"Station_ID":"MI-MQ-19","Station_Nam":"ISHPEMING 7.2 SW, MI","Latitude":"46.40550","Longitude":"-87.75670","Snowdepth":"27.000","Units":"in","Rept_Date":"2020-02-21 11"},"coordinates":[2225,6843]},{"type":"Point","properties":{"Station_ID":"ME-FR-2","Station_Nam":"TEMPLE 1.8 W, ME","Latitude":"44.68329","Longitude":"-70.26420","Snowdepth":"27.000","Units":"in","Rept_Date":"2020-02-21 12"},"coordinates":[6331,5822]},{"type":"Point","properties":{"Station_ID":"LNOW3","Station_Nam":"LAND O LAKES","Latitude":"46.19000","Longitude":"-89.45700","Snowdepth":"27.000","Units":"in","Rept_Date":"2020-02-21 13"},"coordinates":[1826,6715]},{"type":"Point","properties":{"Station_ID":"DVLQ6","Station_Nam":"DEVIOUS LAKE","Latitude":"49.19890","Longitude":"-87.76440","Snowdepth":"26.930","Units":"in","Rept_Date":"2020-02-22 06"},"coordinates":[2224,8500]},{"type":"Point","properties":{"Station_ID":"QGA","Station_Nam":"QGA","Latitude":"47.25640","Longitude":"-73.73810","Snowdepth":"26.732","Units":"in","Rept_Date":"2020-02-21 12"},"coordinates":[5515,7348]},{"type":"Point","properties":{"Station_ID":"WI-WB-2","Station_Nam":"STONE LAKE 2.0 NW, WI","Latitude":"45.85960","Longitude":"-91.57710","Snowdepth":"26.000","Units":"in","Rept_Date":"2020-02-21 13"},"coordinates":[1329,6519]},{"type":"Point","properties":{"Station_ID":"WI-OC-1","Station_Nam":"MOUNTAIN 1.1 SW, WI","Latitude":"45.17239","Longitude":"-88.48990","Snowdepth":"26.000","Units":"in","Rept_Date":"2020-02-21 13"},"coordinates":[2053,6112]},{"type":"Point","properties":{"Station_ID":"VT-CL-18","Station_Nam":"WHEELOCK 1.6 S, VT","Latitude":"44.56491","Longitude":"-72.08830","Snowdepth":"26.000","Units":"in","Rept_Date":"2020-02-21 12"},"coordinates":[5903,5752]},{"type":"Point","properties":{"Station_ID":"SUAW3","Station_Nam":"SUAMICO","Latitude":"44.60190","Longitude":"-88.09780","Snowdepth":"26.000","Units":"in","Rept_Date":"2020-02-21 12"},"coordinates":[2145,5774]},{"type":"Point","properties":{"Station_ID":"MOUW3","Station_Nam":"MOUNTAIN 1 SW","Latitude":"45.17220","Longitude":"-88.49390","Snowdepth":"26.000","Units":"in","Rept_Date":"2020-02-21 13"},"coordinates":[2052,6112]},{"type":"Point","properties":{"Station_ID":"GHMN3","Station_Nam":"PINKHAM NOTCH","Latitude":"44.25800","Longitude":"-71.25250","Snowdepth":"26.000","Units":"in","Rept_Date":"2020-02-21 11"},"coordinates":[6099,5570]},{"type":"Point","properties":{"Station_ID":"FLNW3","Station_Nam":"FLORENCE","Latitude":"45.93360","Longitude":"-88.25830","Snowdepth":"26.000","Units":"in","Rept_Date":"2020-02-21 13"},"coordinates":[2108,6563]},{"type":"Point","properties":{"Station_ID":"COKM5","Station_Nam":"COOK","Latitude":"47.85060","Longitude":"-92.69250","Snowdepth":"26.000","Units":"in","Rept_Date":"2020-02-21 12"},"coordinates":[1067,7700]},{"type":"Point","properties":{"Station_ID":"CARM1","Station_Nam":"CARIBOU WFO","Latitude":"46.86810","Longitude":"-68.01250","Snowdepth":"26.000","Units":"in","Rept_Date":"2020-02-22 04"},"coordinates":[6859,7117]},{"type":"Point","properties":{"Station_ID":"BNDM5","Station_Nam":"ELY 25E","Latitude":"47.97190","Longitude":"-91.44860","Snowdepth":"26.000","Units":"in","Rept_Date":"2020-02-21 13"},"coordinates":[1359,7772]},{"type":"Point","properties":{"Station_ID":"AVLV1","Station_Nam":"AVERILL","Latitude":"45.00570","Longitude":"-71.69030","Snowdepth":"26.000","Units":"in","Rept_Date":"2020-02-21 13"},"coordinates":[5996,6013]},{"type":"Point","properties":{"Station_ID":"CAN-NB-96","Station_Nam":"SAINT-IGNACE 2.6 NE, CAN","Latitude":"46.71424","Longitude":"-65.05609","Snowdepth":"25.600","Units":"in","Rept_Date":"2020-02-21 11"},"coordinates":[7553,7026]},{"type":"Point","properties":{"Station_ID":"WRSM5","Station_Nam":"WRENSHALL","Latitude":"46.61550","Longitude":"-92.38380","Snowdepth":"25.000","Units":"in","Rept_Date":"2020-02-21 14"},"coordinates":[1139,6968]},{"type":"Point","properties":{"Station_ID":"WI-BY-14","Station_Nam":"ASHLAND 9.8 W, WI","Latitude":"46.59742","Longitude":"-91.07856","Snowdepth":"25.000","Units":"in","Rept_Date":"2020-02-21 12"},"coordinates":[1446,6957]},{"type":"Point","properties":{"Station_ID":"VT-BN-12","Station_Nam":"STAMFORD 5.0 NNE, VT","Latitude":"42.82000","Longitude":"-73.02000","Snowdepth":"25.000","Units":"in","Rept_Date":"2020-02-21 21"},"coordinates":[5684,4717]},{"type":"Point","properties":{"Station_ID":"VANM1","Station_Nam":"VAN BUREN","Latitude":"47.16600","Longitude":"-67.93900","Snowdepth":"25.000","Units":"in","Rept_Date":"2020-02-21 12"},"coordinates":[6876,7294]},{"type":"Point","properties":{"Station_ID":"TOGM5","Station_Nam":"CELINA 2E","Latitude":"47.86630","Longitude":"-93.02660","Snowdepth":"25.000","Units":"in","Rept_Date":"2020-02-21 15"},"coordinates":[989,7709]},{"type":"Point","properties":{"Station_ID":"MI-HG-1","Station_Nam":"HOUGHTON 1.6 ESE, MI","Latitude":"47.10774","Longitude":"-88.52940","Snowdepth":"25.000","Units":"in","Rept_Date":"2020-02-21 13"},"coordinates":[2044,7260]},{"type":"Point","properties":{"Station_ID":"ME-PN-45","Station_Nam":"MILLINOCKET 2.7 ESE, ME","Latitude":"45.65002","Longitude":"-68.64472","Snowdepth":"25.000","Units":"in","Rept_Date":"2020-02-21 13"},"coordinates":[6711,6395]},{"type":"Point","properties":{"Station_ID":"GNFM5","Station_Nam":"GUNFLINT LAKE","Latitude":"48.16670","Longitude":"-90.88750","Snowdepth":"25.000","Units":"in","Rept_Date":"2020-02-21 13"},"coordinates":[1491,7888]},{"type":"Point","properties":{"Station_ID":"CAN-NS-60","Station_Nam":"SYDNEY FORKS, CAN","Latitude":"46.05645","Longitude":"-60.31510","Snowdepth":"25.000","Units":"in","Rept_Date":"2020-02-21 13"},"coordinates":[8666,6636]},{"type":"Point","properties":{"Station_ID":"BRMM5","Station_Nam":"BRIMSON 2S","Latitude":"47.24720","Longitude":"-91.86240","Snowdepth":"25.000","Units":"in","Rept_Date":"2020-02-22 01"},"coordinates":[1262,7342]},{"type":"Point","properties":{"Station_ID":"BBEM4","Station_Nam":"BIG BAY 9SW","Latitude":"46.74620","Longitude":"-87.88160","Snowdepth":"25.000","Units":"in","Rept_Date":"2020-02-21 13"},"coordinates":[2196,7045]},{"type":"Point","properties":{"Station_ID":"SVBQ6","Station_Nam":"SAVANT BASE","Latitude":"50.28730","Longitude":"-90.65670","Snowdepth":"24.960","Units":"in","Rept_Date":"2020-02-22 06"},"coordinates":[1545,9145]},{"type":"Point","properties":{"Station_ID":"TRIQ6","Station_Nam":"TRIO LAKE","Latitude":"49.22880","Longitude":"-87.22920","Snowdepth":"24.840","Units":"in","Rept_Date":"2020-02-22 06"},"coordinates":[2349,8518]},{"type":"Point","properties":{"Station_ID":"AUDQ6","Station_Nam":"AUDEN","Latitude":"48.52600","Longitude":"-82.57570","Snowdepth":"24.760","Units":"in","Rept_Date":"2020-02-22 06"},"coordinates":[3441,8101]},{"type":"Point","properties":{"Station_ID":"WI-IR-3","Station_Nam":"PENCE 0.1 E, WI","Latitude":"46.41555","Longitude":"-90.27013","Snowdepth":"24.500","Units":"in","Rept_Date":"2020-02-21 13"},"coordinates":[1635,6849]},{"type":"Point","properties":{"Station_ID":"NH-CR-11","Station_Nam":"NORTH CONWAY 1.4 SSW, NH","Latitude":"44.03556","Longitude":"-71.14010","Snowdepth":"24.500","Units":"in","Rept_Date":"2020-02-21 12"},"coordinates":[6125,5438]},{"type":"Point","properties":{"Station_ID":"MN-SL-15","Station_Nam":"CHISHOLM 0.4 WSW, MN","Latitude":"47.48557","Longitude":"-92.88690","Snowdepth":"24.500","Units":"in","Rept_Date":"2020-02-21 13"},"coordinates":[1021,7484]},{"type":"Point","properties":{"Station_ID":"MN-SL-108","Station_Nam":"IRON JUNCTION 3.4 NNW, MN","Latitude":"47.46150","Longitude":"-92.63130","Snowdepth":"24.500","Units":"in","Rept_Date":"2020-02-21 14"},"coordinates":[1081,7469]},{"type":"Point","properties":{"Station_ID":"MN-IT-23","Station_Nam":"BOVEY 13.4 N, MN","Latitude":"47.48855","Longitude":"-93.43497","Snowdepth":"24.500","Units":"in","Rept_Date":"2020-02-21 13"},"coordinates":[893,7485]},{"type":"Point","properties":{"Station_ID":"MN-IT-17","Station_Nam":"GRAND RAPIDS 6.1 N, MN","Latitude":"47.31165","Longitude":"-93.55036","Snowdepth":"24.500","Units":"in","Rept_Date":"2020-02-21 13"},"coordinates":[866,7381]},{"type":"Point","properties":{"Station_ID":"RANM1","Station_Nam":"RANGELEY","Latitude":"44.98910","Longitude":"-70.67190","Snowdepth":"24.000","Units":"in","Rept_Date":"2020-02-21 11"},"coordinates":[6235,6003]},{"type":"Point","properties":{"Station_ID":"PTBN3","Station_Nam":"PITTSBURG RESERVOIR","Latitude":"45.04690","Longitude":"-71.38300","Snowdepth":"24.000","Units":"in","Rept_Date":"2020-02-21 12"},"coordinates":[6068,6037]},{"type":"Point","properties":{"Station_ID":"NY-HR-18","Station_Nam":"SALISBURY CENTER 1.8 NW, NY","Latitude":"43.16260","Longitude":"-74.80880","Snowdepth":"24.000","Units":"in","Rept_Date":"2020-02-21 11"},"coordinates":[5264,4920]},{"type":"Point","properties":{"Station_ID":"MN-CK-6","Station_Nam":"GRAND MARAIS 4.4 W, MN","Latitude":"47.74865","Longitude":"-90.43760","Snowdepth":"24.000","Units":"in","Rept_Date":"2020-02-21 13"},"coordinates":[1596,7640]},{"type":"Point","properties":{"Station_ID":"MI-GG-4","Station_Nam":"WATERSMEET 5.0 SE, MI","Latitude":"46.20333","Longitude":"-89.13170","Snowdepth":"24.000","Units":"in","Rept_Date":"2020-02-21 14"},"coordinates":[1903,6723]},{"type":"Point","properties":{"Station_ID":"LBKV1","Station_Nam":"LYE BROOK","Latitude":"43.05000","Longitude":"-73.03330","Snowdepth":"24.000","Units":"in","Rept_Date":"2020-02-22 06"},"coordinates":[5681,4853]},{"type":"Point","properties":{"Station_ID":"HRVM4","Station_Nam":"HARVEY","Latitude":"46.49080","Longitude":"-87.35470","Snowdepth":"24.000","Units":"in","Rept_Date":"2020-02-21 12"},"coordinates":[2320,6894]},{"type":"Point","properties":{"Station_ID":"GGRM4","Station_Nam":"GREEN GARDEN NO.2","Latitude":"46.45330","Longitude":"-87.30380","Snowdepth":"24.000","Units":"in","Rept_Date":"2020-02-21 11"},"coordinates":[2332,6871]},{"type":"Point","properties":{"Station_ID":"DLHM5","Station_Nam":"DULUTH NWS","Latitude":"46.83680","Longitude":"-92.21080","Snowdepth":"24.000","Units":"in","Rept_Date":"2020-02-22 06"},"coordinates":[1180,7099]},{"type":"Point","properties":{"Station_ID":"DLH","Station_Nam":"DULUTH, MN","Latitude":"46.83690","Longitude":"-92.21030","Snowdepth":"24.000","Units":"in","Rept_Date":"2020-02-22 00"},"coordinates":[1180,7099]},{"type":"Point","properties":{"Station_ID":"DFXM1","Station_Nam":"DOVER-FOXCROFT","Latitude":"45.18720","Longitude":"-69.18350","Snowdepth":"24.000","Units":"in","Rept_Date":"2020-02-21 12"},"coordinates":[6584,6121]},{"type":"Point","properties":{"Station_ID":"CORV1","Station_Nam":"CORINTH","Latitude":"44.00690","Longitude":"-72.31940","Snowdepth":"24.000","Units":"in","Rept_Date":"2020-02-21 12"},"coordinates":[5848,5421]},{"type":"Point","properties":{"Station_ID":"CAN-PE-19","Station_Nam":"CHARLOTTETOWN 6.5 NNW, CAN","Latitude":"46.29235","Longitude":"-63.17271","Snowdepth":"24.000","Units":"in","Rept_Date":"2020-02-21 12"},"coordinates":[7995,6776]},{"type":"Point","properties":{"Station_ID":"CAN-NB-18","Station_Nam":"MCLEOD HILL 1.1 ENE, CA","Latitude":"46.02725","Longitude":"-66.67460","Snowdepth":"24.000","Units":"in","Rept_Date":"2020-02-21 12"},"coordinates":[7173,6619]},{"type":"Point","properties":{"Station_ID":"AURW3","Station_Nam":"AURORA","Latitude":"45.77000","Longitude":"-88.11810","Snowdepth":"24.000","Units":"in","Rept_Date":"2020-02-21 13"},"coordinates":[2141,6466]},{"type":"Point","properties":{"Station_ID":"MI-OT-17","Station_Nam":"GAYLORD 4.1 S, MI","Latitude":"44.96388","Longitude":"-84.68467","Snowdepth":"23.500","Units":"in","Rept_Date":"2020-02-21 12"},"coordinates":[2946,5988]},{"type":"Point","properties":{"Station_ID":"KABQ6","Station_Nam":"CAB LAKE","Latitude":"49.59950","Longitude":"-89.17990","Snowdepth":"23.390","Units":"in","Rept_Date":"2020-02-22 06"},"coordinates":[1891,8737]},{"type":"Point","properties":{"Station_ID":"WTRM4","Station_Nam":"WATERSMEET 12WSW","Latitude":"46.22310","Longitude":"-89.40850","Snowdepth":"23.000","Units":"in","Rept_Date":"2020-02-21 12"},"coordinates":[1838,6735]},{"type":"Point","properties":{"Station_ID":"VT-BN-3","Station_Nam":"LANDGROVE 1.1 NNE, VT","Latitude":"43.29092","Longitude":"-72.83260","Snowdepth":"23.000","Units":"in","Rept_Date":"2020-02-21 12"},"coordinates":[5728,4996]},{"type":"Point","properties":{"Station_ID":"RSTW3","Station_Nam":"ROSHOLT","Latitude":"44.62710","Longitude":"-89.30600","Snowdepth":"23.000","Units":"in","Rept_Date":"2020-02-21 11"},"coordinates":[1862,5788]},{"type":"Point","properties":{"Station_ID":"RHIW3","Station_Nam":"RHINELANDER","Latitude":"45.59860","Longitude":"-89.45080","Snowdepth":"23.000","Units":"in","Rept_Date":"2020-02-21 13"},"coordinates":[1828,6365]},{"type":"Point","properties":{"Station_ID":"NY-FK-7","Station_Nam":"SARANAC LAKE 6.2 N, NY","Latitude":"44.41359","Longitude":"-74.15211","Snowdepth":"23.000","Units":"in","Rept_Date":"2020-02-21 12"},"coordinates":[5418,5662]},{"type":"Point","properties":{"Station_ID":"NH-CR-26","Station_Nam":"CENTER SANDWICH 4.9 E, NH","Latitude":"43.80976","Longitude":"-71.34150","Snowdepth":"23.000","Units":"in","Rept_Date":"2020-02-21 12"},"coordinates":[6078,5304]},{"type":"Point","properties":{"Station_ID":"NH-CR-15","Station_Nam":"JACKSON 3.7 NW, NH","Latitude":"44.19069","Longitude":"-71.22598","Snowdepth":"23.000","Units":"in","Rept_Date":"2020-02-21 12"},"coordinates":[6105,5530]},{"type":"Point","properties":{"Station_ID":"MHNM5","Station_Nam":"MAHNOMEN,MN","Latitude":"47.31670","Longitude":"-95.98330","Snowdepth":"23.000","Units":"in","Rept_Date":"2020-02-21 19"},"coordinates":[295,7384]},{"type":"Point","properties":{"Station_ID":"LPLN6","Station_Nam":"LAKE PLACID 2 S","Latitude":"44.30420","Longitude":"-73.98390","Snowdepth":"23.000","Units":"in","Rept_Date":"2020-02-21 13"},"coordinates":[5458,5597]},{"type":"Point","properties":{"Station_ID":"LNCM1","Station_Nam":"LINCOLN WATER DISTRICT","Latitude":"45.32410","Longitude":"-68.58300","Snowdepth":"23.000","Units":"in","Rept_Date":"2020-02-21 12"},"coordinates":[6725,6202]},{"type":"Point","properties":{"Station_ID":"IRMM4","Station_Nam":"WWTP","Latitude":"46.46670","Longitude":"-90.18330","Snowdepth":"23.000","Units":"in","Rept_Date":"2020-02-21 13"},"coordinates":[1656,6879]},{"type":"Point","properties":{"Station_ID":"INDN6","Station_Nam":"INDIAN LAKE","Latitude":"43.75500","Longitude":"-74.27560","Snowdepth":"23.000","Units":"in","Rept_Date":"2020-02-21 13"},"coordinates":[5389,5271]},{"type":"Point","properties":{"Station_ID":"FISM1","Station_Nam":"FORT KENT COOP","Latitude":"47.23850","Longitude":"-68.61240","Snowdepth":"23.000","Units":"in","Rept_Date":"2020-02-21 12"},"coordinates":[6718,7337]},{"type":"Point","properties":{"Station_ID":"ESDN3","Station_Nam":"EAST SANDWICH","Latitude":"43.80990","Longitude":"-71.34250","Snowdepth":"23.000","Units":"in","Rept_Date":"2020-02-21 11"},"coordinates":[6078,5304]},{"type":"Point","properties":{"Station_ID":"EGRW3","Station_Nam":"EAGLE RIVER-SOUTH","Latitude":"45.91360","Longitude":"-89.24360","Snowdepth":"23.000","Units":"in","Rept_Date":"2020-02-21 13"},"coordinates":[1876,6551]},{"type":"Point","properties":{"Station_ID":"BRDM1","Station_Nam":"BRIDGEWATER","Latitude":"46.42870","Longitude":"-67.84370","Snowdepth":"23.000","Units":"in","Rept_Date":"2020-02-21 23"},"coordinates":[6899,6857]},{"type":"Point","properties":{"Station_ID":"ASTW3","Station_Nam":"ATHELSTANE","Latitude":"45.42500","Longitude":"-88.05750","Snowdepth":"23.000","Units":"in","Rept_Date":"2020-02-21 12"},"coordinates":[2155,6262]},{"type":"Point","properties":{"Station_ID":"CAN-NB-2","Station_Nam":"GRAFTON 2.7 NNE, CA","Latitude":"46.17062","Longitude":"-67.55330","Snowdepth":"22.500","Units":"in","Rept_Date":"2020-02-21 10"},"coordinates":[6967,6704]},{"type":"Point","properties":{"Station_ID":"QMD","Station_Nam":"QMD","Latitude":"49.29060","Longitude":"-75.84500","Snowdepth":"22.205","Units":"in","Rept_Date":"2020-02-21 12"},"coordinates":[5021,8554]},{"type":"Point","properties":{"Station_ID":"QTV","Station_Nam":"QTV","Latitude":"49.66000","Longitude":"-69.35690","Snowdepth":"22.087","Units":"in","Rept_Date":"2020-02-21 12"},"coordinates":[6544,8773]},{"type":"Point","properties":{"Station_ID":"WTRW3","Station_Nam":"WINTER","Latitude":"45.79920","Longitude":"-90.99470","Snowdepth":"22.000","Units":"in","Rept_Date":"2020-02-21 15"},"coordinates":[1465,6484]},{"type":"Point","properties":{"Station_ID":"WI-DG-20","Station_Nam":"SOLON SPRINGS 1.2 W, WI","Latitude":"46.35217","Longitude":"-91.84405","Snowdepth":"22.000","Units":"in","Rept_Date":"2020-02-21 13"},"coordinates":[1266,6812]},{"type":"Point","properties":{"Station_ID":"WI-BY-2","Station_Nam":"MELLEN 18.6 SW, WI","Latitude":"46.16937","Longitude":"-90.98090","Snowdepth":"22.000","Units":"in","Rept_Date":"2020-02-21 13"},"coordinates":[1469,6703]},{"type":"Point","properties":{"Station_ID":"VT-OL-9","Station_Nam":"GREENSBORO 2.1 NNW, VT","Latitude":"44.60528","Longitude":"-72.30940","Snowdepth":"22.000","Units":"in","Rept_Date":"2020-02-21 12"},"coordinates":[5851,5776]},{"type":"Point","properties":{"Station_ID":"VT-CL-14","Station_Nam":"LYNDONVILLE 1.1 W, VT","Latitude":"44.53582","Longitude":"-72.02867","Snowdepth":"22.000","Units":"in","Rept_Date":"2020-02-21 12"},"coordinates":[5917,5734]},{"type":"Point","properties":{"Station_ID":"TOHM5","Station_Nam":"TWO HARBORS WWTP","Latitude":"47.01760","Longitude":"-91.66480","Snowdepth":"22.000","Units":"in","Rept_Date":"2020-02-21 13"},"coordinates":[1308,7206]},{"type":"Point","properties":{"Station_ID":"SULW3","Station_Nam":"SUMMIT LAKE","Latitude":"45.37880","Longitude":"-89.19410","Snowdepth":"22.000","Units":"in","Rept_Date":"2020-02-21 11"},"coordinates":[1888,6234]},{"type":"Point","properties":{"Station_ID":"SSMM4","Station_Nam":"SAULT STE MARIE","Latitude":"46.48660","Longitude":"-84.40250","Snowdepth":"22.000","Units":"in","Rept_Date":"2020-02-21 13"},"coordinates":[3013,6891]},{"type":"Point","properties":{"Station_ID":"RGNM1","Station_Nam":"RANGELEY 2NW","Latitude":"44.98940","Longitude":"-70.67220","Snowdepth":"22.000","Units":"in","Rept_Date":"2020-02-21 11"},"coordinates":[6235,6003]},{"type":"Point","properties":{"Station_ID":"PKGM5","Station_Nam":"POKEGANA LK DAM","Latitude":"47.25080","Longitude":"-93.58610","Snowdepth":"22.000","Units":"in","Rept_Date":"2020-02-21 14"},"coordinates":[857,7344]},{"type":"Point","properties":{"Station_ID":"NH-CR-27","Station_Nam":"TAMWORTH 0.4 NNW, NH","Latitude":"43.86449","Longitude":"-71.26610","Snowdepth":"22.000","Units":"in","Rept_Date":"2020-02-21 12"},"coordinates":[6096,5336]},{"type":"Point","properties":{"Station_ID":"MI-OT-16","Station_Nam":"GAYLORD 2.2 SSE, MI","Latitude":"44.99441","Longitude":"-84.65820","Snowdepth":"22.000","Units":"in","Rept_Date":"2020-02-21 14"},"coordinates":[2953,6006]},{"type":"Point","properties":{"Station_ID":"KINM1","Station_Nam":"KINGFIELD","Latitude":"44.95950","Longitude":"-70.17530","Snowdepth":"22.000","Units":"in","Rept_Date":"2020-02-21 15"},"coordinates":[6352,5986]},{"type":"Point","properties":{"Station_ID":"ESGM1","Station_Nam":"EAST SANGERVILLE","Latitude":"45.13690","Longitude":"-69.28060","Snowdepth":"22.000","Units":"in","Rept_Date":"2020-02-21 12"},"coordinates":[6562,6091]},{"type":"Point","properties":{"Station_ID":"ELYM5","Station_Nam":"ELY","Latitude":"47.90560","Longitude":"-91.82830","Snowdepth":"22.000","Units":"in","Rept_Date":"2020-02-21 15"},"coordinates":[1270,7733]},{"type":"Point","properties":{"Station_ID":"CSLM5","Station_Nam":"CASS LAKE,MN","Latitude":"47.38470","Longitude":"-94.61470","Snowdepth":"22.000","Units":"in","Rept_Date":"2020-02-21 14"},"coordinates":[616,7424]},{"type":"Point","properties":{"Station_ID":"CMKW3","Station_Nam":"CLAM LAKE 4W","Latitude":"46.16940","Longitude":"-90.98080","Snowdepth":"22.000","Units":"in","Rept_Date":"2020-02-21 13"},"coordinates":[1469,6703]},{"type":"Point","properties":{"Station_ID":"CEFM4","Station_Nam":"EXPERIMENT FARM #2","Latitude":"46.33330","Longitude":"-86.91670","Snowdepth":"22.000","Units":"in","Rept_Date":"2020-02-21 13"},"coordinates":[2422,6800]},{"type":"Point","properties":{"Station_ID":"BTLN3","Station_Nam":"BARTLETT","Latitude":"44.08380","Longitude":"-71.29340","Snowdepth":"22.000","Units":"in","Rept_Date":"2020-02-21 12"},"coordinates":[6089,5466]},{"type":"Point","properties":{"Station_ID":"AROM4","Station_Nam":"ARNOLD,MI","Latitude":"46.06670","Longitude":"-87.48330","Snowdepth":"22.000","Units":"in","Rept_Date":"2020-02-21 14"},"coordinates":[2290,6642]},{"type":"Point","properties":{"Station_ID":"AGNW3","Station_Nam":"ARGONNE-1.5 NW","Latitude":"45.67360","Longitude":"-88.90380","Snowdepth":"22.000","Units":"in","Rept_Date":"2020-02-21 13"},"coordinates":[1956,6409]},{"type":"Point","properties":{"Station_ID":"QCX","Station_Nam":"QCX","Latitude":"51.32830","Longitude":"-70.08060","Snowdepth":"21.968","Units":"in","Rept_Date":"2020-02-21 12"},"coordinates":[6374,9763]},{"type":"Point","properties":{"Station_ID":"MN-IT-1","Station_Nam":"GRAND RAPIDS 2.0 E, MN","Latitude":"47.22266","Longitude":"-93.49600","Snowdepth":"21.500","Units":"in","Rept_Date":"2020-02-21 12"},"coordinates":[878,7328]},{"type":"Point","properties":{"Station_ID":"QMA","Station_Nam":"QMA","Latitude":"50.10330","Longitude":"-70.47190","Snowdepth":"21.102","Units":"in","Rept_Date":"2020-02-21 12"},"coordinates":[6282,9036]},{"type":"Point","properties":{"Station_ID":"WNBM5","Station_Nam":"DAM","Latitude":"47.43060","Longitude":"-94.05000","Snowdepth":"21.000","Units":"in","Rept_Date":"2020-02-21 14"},"coordinates":[748,7451]},{"type":"Point","properties":{"Station_ID":"WLKW3","Station_Nam":"WHITE LAKE 1 SE","Latitude":"45.14520","Longitude":"-88.74160","Snowdepth":"21.000","Units":"in","Rept_Date":"2020-02-21 14"},"coordinates":[1994,6096]},{"type":"Point","properties":{"Station_ID":"WI-AS-4","Station_Nam":"ASHLAND 0.5 WNW, WI","Latitude":"46.58240","Longitude":"-90.88390","Snowdepth":"21.000","Units":"in","Rept_Date":"2020-02-21 13"},"coordinates":[1491,6948]},{"type":"Point","properties":{"Station_ID":"VT-OL-2","Station_Nam":"BARTON 3.0 ENE, VT","Latitude":"44.75863","Longitude":"-72.11680","Snowdepth":"21.000","Units":"in","Rept_Date":"2020-02-21 12"},"coordinates":[5896,5866]},{"type":"Point","properties":{"Station_ID":"SAUW3","Station_Nam":"WAUSAU WSAW TV","Latitude":"44.94630","Longitude":"-89.62220","Snowdepth":"21.000","Units":"in","Rept_Date":"2020-02-22 04"},"coordinates":[1788,5978]},{"type":"Point","properties":{"Station_ID":"RRVM4","Station_Nam":"RAPID RIVER 9S","Latitude":"45.78750","Longitude":"-86.93920","Snowdepth":"21.000","Units":"in","Rept_Date":"2020-02-21 16"},"coordinates":[2417,6477]},{"type":"Point","properties":{"Station_ID":"RHLW3","Station_Nam":"RHINELANDER 4NE","Latitude":"45.65270","Longitude":"-89.30740","Snowdepth":"21.000","Units":"in","Rept_Date":"2020-02-21 12"},"coordinates":[1861,6397]},{"type":"Point","properties":{"Station_ID":"NUMN3","Station_Nam":"NORTHUMBERLAND","Latitude":"44.52830","Longitude":"-71.50440","Snowdepth":"21.000","Units":"in","Rept_Date":"2020-02-21 13"},"coordinates":[6040,5730]},{"type":"Point","properties":{"Station_ID":"NCON3","Station_Nam":"NORTH CONWAY","Latitude":"44.05620","Longitude":"-71.12970","Snowdepth":"21.000","Units":"in","Rept_Date":"2020-02-21 13"},"coordinates":[6128,5450]},{"type":"Point","properties":{"Station_ID":"NCBN6","Station_Nam":"NEWCOMB","Latitude":"43.97070","Longitude":"-74.22200","Snowdepth":"21.000","Units":"in","Rept_Date":"2020-02-21 14"},"coordinates":[5402,5399]},{"type":"Point","properties":{"Station_ID":"MTQM4","Station_Nam":"MANISTIQUE WWTP","Latitude":"45.95120","Longitude":"-86.25130","Snowdepth":"21.000","Units":"in","Rept_Date":"2020-02-21 12"},"coordinates":[2579,6574]},{"type":"Point","properties":{"Station_ID":"MRAM4","Station_Nam":"MORAN","Latitude":"45.99030","Longitude":"-84.83610","Snowdepth":"21.000","Units":"in","Rept_Date":"2020-02-21 13"},"coordinates":[2911,6597]},{"type":"Point","properties":{"Station_ID":"ME-OX-2","Station_Nam":"HARTFORD 1.4 N, ME","Latitude":"44.39318","Longitude":"-70.34760","Snowdepth":"21.000","Units":"in","Rept_Date":"2020-02-21 12"},"coordinates":[6311,5650]},{"type":"Point","properties":{"Station_ID":"LILM1","Station_Nam":"LILLE","Latitude":"47.27770","Longitude":"-68.10520","Snowdepth":"21.000","Units":"in","Rept_Date":"2020-02-21 12"},"coordinates":[6837,7360]},{"type":"Point","properties":{"Station_ID":"LEIM5","Station_Nam":"ORR 3E","Latitude":"48.05810","Longitude":"-92.75220","Snowdepth":"21.000","Units":"in","Rept_Date":"2020-02-21 12"},"coordinates":[1053,7823]},{"type":"Point","properties":{"Station_ID":"KABM5","Station_Nam":"KABETOGAMA LAKE VISITOR CTR","Latitude":"48.40880","Longitude":"-93.04840","Snowdepth":"21.000","Units":"in","Rept_Date":"2020-02-21 13"},"coordinates":[983,8031]},{"type":"Point","properties":{"Station_ID":"GMRM5","Station_Nam":"GRAND MARIAS WATER TREATMENT PLANT","Latitude":"47.75180","Longitude":"-90.32820","Snowdepth":"21.000","Units":"in","Rept_Date":"2020-02-21 14"},"coordinates":[1622,7642]},{"type":"Point","properties":{"Station_ID":"FARM1","Station_Nam":"FARMINGTON","Latitude":"44.68930","Longitude":"-70.15640","Snowdepth":"21.000","Units":"in","Rept_Date":"2020-02-21 12"},"coordinates":[6356,5825]},{"type":"Point","properties":{"Station_ID":"EMBM5","Station_Nam":"EMBARASS,MN","Latitude":"47.65810","Longitude":"-92.19580","Snowdepth":"21.000","Units":"in","Rept_Date":"2020-02-21 12"},"coordinates":[1184,7586]},{"type":"Point","properties":{"Station_ID":"COUW3","Station_Nam":"COUDERAY,WI","Latitude":"45.86670","Longitude":"-91.45000","Snowdepth":"21.000","Units":"in","Rept_Date":"2020-02-21 22"},"coordinates":[1359,6524]},{"type":"Point","properties":{"Station_ID":"CLKM4","Station_Nam":"CLARKSBURG","Latitude":"46.49910","Longitude":"-87.84500","Snowdepth":"21.000","Units":"in","Rept_Date":"2020-02-21 12"},"coordinates":[2205,6899]},{"type":"Point","properties":{"Station_ID":"BOON6","Station_Nam":"BOONVILLE 4 SSW","Latitude":"43.43610","Longitude":"-75.36970","Snowdepth":"21.000","Units":"in","Rept_Date":"2020-02-21 12"},"coordinates":[5132,5082]},{"type":"Point","properties":{"Station_ID":"AWXW3","Station_Nam":"ASHLAND","Latitude":"46.58240","Longitude":"-90.88390","Snowdepth":"21.000","Units":"in","Rept_Date":"2020-02-21 13"},"coordinates":[1491,6948]},{"type":"Point","properties":{"Station_ID":"AVTW3","Station_Nam":"ARBOR VITAE-JOHNSON LAKE","Latitude":"45.89940","Longitude":"-89.72670","Snowdepth":"21.000","Units":"in","Rept_Date":"2020-02-21 12"},"coordinates":[1763,6543]},{"type":"Point","properties":{"Station_ID":"AUW","Station_Nam":"WAUSAU MUNICIPAL AIRPORT","Latitude":"44.92580","Longitude":"-89.62560","Snowdepth":"21.000","Units":"in","Rept_Date":"2020-02-21 12"},"coordinates":[1787,5966]},{"type":"Point","properties":{"Station_ID":"ANJM4","Station_Nam":"SNOW PAID OBSERVER FOR KANJ","Latitude":"46.48670","Longitude":"-84.40260","Snowdepth":"21.000","Units":"in","Rept_Date":"2020-02-21 18"},"coordinates":[3013,6891]},{"type":"Point","properties":{"Station_ID":"ANJ","Station_Nam":"SAULT STE MARIE","Latitude":"46.46670","Longitude":"-84.36670","Snowdepth":"21.000","Units":"in","Rept_Date":"2020-02-22 00"},"coordinates":[3021,6879]},{"type":"Point","properties":{"Station_ID":"SOCQ6","Station_Nam":"SOCKET LAKE","Latitude":"50.77870","Longitude":"-91.79300","Snowdepth":"20.910","Units":"in","Rept_Date":"2020-02-22 06"},"coordinates":[1278,9437]},{"type":"Point","properties":{"Station_ID":"QYR","Station_Nam":"QYR","Latitude":"48.87220","Longitude":"-75.61470","Snowdepth":"20.787","Units":"in","Rept_Date":"2020-02-21 12"},"coordinates":[5075,8306]},{"type":"Point","properties":{"Station_ID":"VT-WS-30","Station_Nam":"WOODBURY 3.4 NNW, VT","Latitude":"44.48825","Longitude":"-72.43258","Snowdepth":"20.500","Units":"in","Rept_Date":"2020-02-21 12"},"coordinates":[5822,5706]},{"type":"Point","properties":{"Station_ID":"NY-FK-9","Station_Nam":"GABRIELS 1.3 SE, NY","Latitude":"44.41934","Longitude":"-74.16194","Snowdepth":"20.500","Units":"in","Rept_Date":"2020-02-21 12"},"coordinates":[5416,5665]},{"type":"Point","properties":{"Station_ID":"MN-BK-6","Station_Nam":"LAKE PARK 6.0 S, MN","Latitude":"46.79850","Longitude":"-96.12180","Snowdepth":"20.500","Units":"in","Rept_Date":"2020-02-21 13"},"coordinates":[262,7076]},{"type":"Point","properties":{"Station_ID":"ME-CM-98","Station_Nam":"SEBAGO 2.4 ESE, ME","Latitude":"43.88000","Longitude":"-70.63000","Snowdepth":"20.500","Units":"in","Rept_Date":"2020-02-21 15"},"coordinates":[6245,5345]},{"type":"Point","properties":{"Station_ID":"CAN-QC-37","Station_Nam":"LAVAL 3.8 SSW, CAN","Latitude":"45.55358","Longitude":"-73.76976","Snowdepth":"20.500","Units":"in","Rept_Date":"2020-02-21 13"},"coordinates":[5508,6338]},{"type":"Point","properties":{"Station_ID":"QLP","Station_Nam":"QLP","Latitude":"48.13920","Longitude":"-72.63830","Snowdepth":"20.433","Units":"in","Rept_Date":"2020-02-21 12"},"coordinates":[5774,7871]},{"type":"Point","properties":{"Station_ID":"ZNOM4","Station_Nam":"NORWAY","Latitude":"45.77810","Longitude":"-87.89560","Snowdepth":"20.000","Units":"in","Rept_Date":"2020-02-22 01"},"coordinates":[2193,6471]},{"type":"Point","properties":{"Station_ID":"WTNM4","Station_Nam":"WATTON 2WSW","Latitude":"46.52660","Longitude":"-88.64240","Snowdepth":"20.000","Units":"in","Rept_Date":"2020-02-21 13"},"coordinates":[2017,6915]},{"type":"Point","properties":{"Station_ID":"WI-SR-1","Station_Nam":"HAYWARD 9.2 NNE, WI","Latitude":"46.13255","Longitude":"-91.40500","Snowdepth":"20.000","Units":"in","Rept_Date":"2020-02-21 12"},"coordinates":[1369,6681]},{"type":"Point","properties":{"Station_ID":"VT-ES-3","Station_Nam":"LUNENBURG 2.3 NNW, VT","Latitude":"44.49324","Longitude":"-71.70446","Snowdepth":"20.000","Units":"in","Rept_Date":"2020-02-21 10"},"coordinates":[5993,5709]},{"type":"Point","properties":{"Station_ID":"TMWN3","Station_Nam":"TAMWORTH 4","Latitude":"43.86390","Longitude":"-71.26610","Snowdepth":"20.000","Units":"in","Rept_Date":"2020-02-21 12"},"coordinates":[6096,5336]},{"type":"Point","properties":{"Station_ID":"TAKW3","Station_Nam":"RICE RESERVOIR NO. 2","Latitude":"45.53770","Longitude":"-89.73220","Snowdepth":"20.000","Units":"in","Rept_Date":"2020-02-21 13"},"coordinates":[1762,6328]},{"type":"Point","properties":{"Station_ID":"PEKN6","Station_Nam":"PECK LAKE","Latitude":"43.11500","Longitude":"-74.42360","Snowdepth":"20.000","Units":"in","Rept_Date":"2020-02-21 12"},"coordinates":[5355,4892]},{"type":"Point","properties":{"Station_ID":"NY-ES-6","Station_Nam":"OLMSTEDVILLE 4.6 NNE, NY","Latitude":"43.83350","Longitude":"-73.89780","Snowdepth":"20.000","Units":"in","Rept_Date":"2020-02-21 13"},"coordinates":[5478,5318]},{"type":"Point","properties":{"Station_ID":"NH-GR-49","Station_Nam":"PLYMOUTH 3.7 N, NH","Latitude":"43.79048","Longitude":"-71.68413","Snowdepth":"20.000","Units":"in","Rept_Date":"2020-02-21 12"},"coordinates":[5997,5292]},{"type":"Point","properties":{"Station_ID":"MI-DL-1","Station_Nam":"GARDEN CORNERS 0.8 NW, MI","Latitude":"45.89815","Longitude":"-86.54850","Snowdepth":"20.000","Units":"in","Rept_Date":"2020-02-21 13"},"coordinates":[2509,6542]},{"type":"Point","properties":{"Station_ID":"ME-FR-4","Station_Nam":"NEW SHARON 2.0 NW, ME","Latitude":"44.66582","Longitude":"-70.02720","Snowdepth":"20.000","Units":"in","Rept_Date":"2020-02-21 12"},"coordinates":[6386,5811]},{"type":"Point","properties":{"Station_ID":"GDCM4","Station_Nam":"GARDEN CORNERS","Latitude":"45.89830","Longitude":"-86.54850","Snowdepth":"20.000","Units":"in","Rept_Date":"2020-02-21 13"},"coordinates":[2509,6542]},{"type":"Point","properties":{"Station_ID":"CAN-NS-103","Station_Nam":"TRAFALGAR 4.9 WSW, CAN","Latitude":"45.26217","Longitude":"-62.72285","Snowdepth":"20.000","Units":"in","Rept_Date":"2020-02-21 12"},"coordinates":[8101,6165]},{"type":"Point","properties":{"Station_ID":"CAN-NB-13","Station_Nam":"BATHURST 3.8 NW, CAN","Latitude":"47.64212","Longitude":"-65.68756","Snowdepth":"20.000","Units":"in","Rept_Date":"2020-02-21 09"},"coordinates":[7405,7577]},{"type":"Point","properties":{"Station_ID":"BREW3","Station_Nam":"SURING","Latitude":"44.99580","Longitude":"-88.37860","Snowdepth":"20.000","Units":"in","Rept_Date":"2020-02-21 14"},"coordinates":[2079,6007]},{"type":"Point","properties":{"Station_ID":"BFHW3","Station_Nam":"BAYFIELD FISH HATCHERY","Latitude":"46.78670","Longitude":"-90.86420","Snowdepth":"20.000","Units":"in","Rept_Date":"2020-02-21 14"},"coordinates":[1496,7069]},{"type":"Point","properties":{"Station_ID":"APXM4","Station_Nam":"GAYLORD 9SSW","Latitude":"44.90720","Longitude":"-84.71880","Snowdepth":"20.000","Units":"in","Rept_Date":"2020-02-22 06"},"coordinates":[2938,5955]},{"type":"Point","properties":{"Station_ID":"WI-ON-6","Station_Nam":"RHINELANDER 5.2 N, WI","Latitude":"45.71388","Longitude":"-89.42150","Snowdepth":"19.500","Units":"in","Rept_Date":"2020-02-21 14"},"coordinates":[1835,6433]},{"type":"Point","properties":{"Station_ID":"WI-BY-1","Station_Nam":"BAYFIELD 8.8 N, WI","Latitude":"46.93855","Longitude":"-90.83490","Snowdepth":"19.500","Units":"in","Rept_Date":"2020-02-21 13"},"coordinates":[1503,7159]},{"type":"Point","properties":{"Station_ID":"MI-CX-7","Station_Nam":"EAST JORDAN 2.1 NNW, MI","Latitude":"45.18639","Longitude":"-85.14750","Snowdepth":"19.500","Units":"in","Rept_Date":"2020-02-21 13"},"coordinates":[2838,6120]},{"type":"Point","properties":{"Station_ID":"QTM","Station_Nam":"QTM","Latitude":"51.05780","Longitude":"-72.57190","Snowdepth":"19.331","Units":"in","Rept_Date":"2020-02-21 12"},"coordinates":[5789,9602]},{"type":"Point","properties":{"Station_ID":"QLI","Station_Nam":"QLI","Latitude":"50.27080","Longitude":"-73.92280","Snowdepth":"19.331","Units":"in","Rept_Date":"2020-02-21 12"},"coordinates":[5472,9135]},{"type":"Point","properties":{"Station_ID":"QLM","Station_Nam":"QLM","Latitude":"48.92030","Longitude":"-70.25280","Snowdepth":"19.213","Units":"in","Rept_Date":"2020-02-21 12"},"coordinates":[6333,8335]},{"type":"Point","properties":{"Station_ID":"XPLM5","Station_Nam":"PINE LAKE, MN","Latitude":"47.70000","Longitude":"-95.60000","Snowdepth":"19.000","Units":"in","Rept_Date":"2020-02-21 21"},"coordinates":[385,7611]},{"type":"Point","properties":{"Station_ID":"WI-RS-1","Station_Nam":"LADYSMITH 2.8 WNW, WI","Latitude":"45.48180","Longitude":"-91.14680","Snowdepth":"19.000","Units":"in","Rept_Date":"2020-02-21 13"},"coordinates":[1430,6295]},{"type":"Point","properties":{"Station_ID":"WI-PR-2","Station_Nam":"BUTTERNUT 5.9 SW, WI","Latitude":"45.96501","Longitude":"-90.59750","Snowdepth":"19.000","Units":"in","Rept_Date":"2020-02-21 12"},"coordinates":[1559,6582]},{"type":"Point","properties":{"Station_ID":"WI-LN-2","Station_Nam":"MERRILL 7.0 W, WI","Latitude":"45.17746","Longitude":"-89.84820","Snowdepth":"19.000","Units":"in","Rept_Date":"2020-02-21 12"},"coordinates":[1734,6115]},{"type":"Point","properties":{"Station_ID":"WHFN6","Station_Nam":"WILMINGTON 2W","Latitude":"44.39310","Longitude":"-73.85890","Snowdepth":"19.000","Units":"in","Rept_Date":"2020-02-21 13"},"coordinates":[5487,5650]},{"type":"Point","properties":{"Station_ID":"WASW3","Station_Nam":"WASHINGTON IS","Latitude":"45.35800","Longitude":"-86.89110","Snowdepth":"19.000","Units":"in","Rept_Date":"2020-02-21 12"},"coordinates":[2428,6222]},{"type":"Point","properties":{"Station_ID":"VT-WS-15","Station_Nam":"EAST CALAIS 1.5 SW, VT","Latitude":"44.35523","Longitude":"-72.45540","Snowdepth":"19.000","Units":"in","Rept_Date":"2020-02-21 12"},"coordinates":[5816,5627]},{"type":"Point","properties":{"Station_ID":"VT-OL-5","Station_Nam":"DERBY CENTER 1.8 NW, VT","Latitude":"44.97200","Longitude":"-72.14780","Snowdepth":"19.000","Units":"in","Rept_Date":"2020-02-21 12"},"coordinates":[5889,5993]},{"type":"Point","properties":{"Station_ID":"TWNM5","Station_Nam":"TWIN VALLEY,MN","Latitude":"47.23330","Longitude":"-96.28330","Snowdepth":"19.000","Units":"in","Rept_Date":"2020-02-21 19"},"coordinates":[224,7334]},{"type":"Point","properties":{"Station_ID":"STMM4","Station_Nam":"STAMBAUGH 2SSE","Latitude":"46.05550","Longitude":"-88.62780","Snowdepth":"19.000","Units":"in","Rept_Date":"2020-02-21 13"},"coordinates":[2021,6636]},{"type":"Point","properties":{"Station_ID":"SHIW3","Station_Nam":"SHIOCTON","Latitude":"44.43890","Longitude":"-88.58390","Snowdepth":"19.000","Units":"in","Rept_Date":"2020-02-21 13"},"coordinates":[2031,5677]},{"type":"Point","properties":{"Station_ID":"NH-CS-7","Station_Nam":"LANCASTER 0.5 N, NH","Latitude":"44.49611","Longitude":"-71.57640","Snowdepth":"19.000","Units":"in","Rept_Date":"2020-02-21 12"},"coordinates":[6023,5711]},{"type":"Point","properties":{"Station_ID":"MLLW3","Station_Nam":"MERRILL 8W","Latitude":"45.17810","Longitude":"-89.84810","Snowdepth":"19.000","Units":"in","Rept_Date":"2020-02-21 12"},"coordinates":[1735,6115]},{"type":"Point","properties":{"Station_ID":"MIEM4","Station_Nam":"MICHIGAMME 3WNW","Latitude":"46.54530","Longitude":"-88.18000","Snowdepth":"19.000","Units":"in","Rept_Date":"2020-02-21 13"},"coordinates":[2126,6926]},{"type":"Point","properties":{"Station_ID":"INL","Station_Nam":"FALLS INTERNATIONAL ARPT","Latitude":"48.56640","Longitude":"-93.40310","Snowdepth":"19.000","Units":"in","Rept_Date":"2020-02-22 00"},"coordinates":[900,8125]},{"type":"Point","properties":{"Station_ID":"IFSM5","Station_Nam":"INTERNATIONAL FALLS SNOW","Latitude":"48.57780","Longitude":"-93.39640","Snowdepth":"19.000","Units":"in","Rept_Date":"2020-02-21 12"},"coordinates":[902,8131]},{"type":"Point","properties":{"Station_ID":"EJNM4","Station_Nam":"EAST JORDAN 2NW","Latitude":"45.18630","Longitude":"-85.14770","Snowdepth":"19.000","Units":"in","Rept_Date":"2020-02-21 13"},"coordinates":[2838,6120]},{"type":"Point","properties":{"Station_ID":"BOWW3","Station_Nam":"STOCKBRIDGE-MUNSEE RESERVATION","Latitude":"44.87000","Longitude":"-88.90440","Snowdepth":"19.000","Units":"in","Rept_Date":"2020-02-21 14"},"coordinates":[1956,5933]},{"type":"Point","properties":{"Station_ID":"BETM1","Station_Nam":"BETHEL 6 SSE","Latitude":"44.32000","Longitude":"-70.75680","Snowdepth":"19.000","Units":"in","Rept_Date":"2020-02-21 12"},"coordinates":[6215,5606]},{"type":"Point","properties":{"Station_ID":"ATY","Station_Nam":"WATERTOWN MUNICIPAL AIRPORT","Latitude":"44.91420","Longitude":"-97.15440","Snowdepth":"19.000","Units":"in","Rept_Date":"2020-02-21 12"},"coordinates":[20,5959]},{"type":"Point","properties":{"Station_ID":"CAN-QC-51","Station_Nam":"BELOEIL 0.7 NW, CAN","Latitude":"45.58049","Longitude":"-73.21218","Snowdepth":"18.900","Units":"in","Rept_Date":"2020-02-21 12"},"coordinates":[5639,6354]},{"type":"Point","properties":{"Station_ID":"QIQ","Station_Nam":"QIQ","Latitude":"49.82390","Longitude":"-68.54310","Snowdepth":"18.819","Units":"in","Rept_Date":"2020-02-21 12"},"coordinates":[6735,8870]},{"type":"Point","properties":{"Station_ID":"QCO","Station_Nam":"QCO","Latitude":"51.45280","Longitude":"-72.20110","Snowdepth":"18.504","Units":"in","Rept_Date":"2020-02-21 12"},"coordinates":[5876,9836]},{"type":"Point","properties":{"Station_ID":"VT-WS-33","Station_Nam":"WAITSFIELD 3.5 WNW, VT","Latitude":"44.20052","Longitude":"-72.89421","Snowdepth":"18.500","Units":"in","Rept_Date":"2020-02-21 13"},"coordinates":[5713,5535]},{"type":"Point","properties":{"Station_ID":"WWWW3","Station_Nam":"WAUPACA","Latitude":"44.35470","Longitude":"-89.05920","Snowdepth":"18.000","Units":"in","Rept_Date":"2020-02-21 14"},"coordinates":[1920,5627]},{"type":"Point","properties":{"Station_ID":"WSFW3","Station_Nam":"TOWN OF WESTFORD","Latitude":"43.47190","Longitude":"-88.88250","Snowdepth":"18.000","Units":"in","Rept_Date":"2020-02-21 12"},"coordinates":[1961,5103]},{"type":"Point","properties":{"Station_ID":"WORV1","Station_Nam":"WORCESTER 2 W","Latitude":"44.37470","Longitude":"-72.58220","Snowdepth":"18.000","Units":"in","Rept_Date":"2020-02-21 12"},"coordinates":[5787,5639]},{"type":"Point","properties":{"Station_ID":"WI-TY-2","Station_Nam":"SHELDON 8.1 ENE, WI","Latitude":"45.35598","Longitude":"-90.80296","Snowdepth":"18.000","Units":"in","Rept_Date":"2020-02-21 13"},"coordinates":[1510,6221]},{"type":"Point","properties":{"Station_ID":"WI-PR-6","Station_Nam":"PHILLIPS 1.3 S, WI","Latitude":"45.67677","Longitude":"-90.39543","Snowdepth":"18.000","Units":"in","Rept_Date":"2020-02-21 12"},"coordinates":[1606,6411]},{"type":"Point","properties":{"Station_ID":"WI-DD-16","Station_Nam":"BEAVER DAM 2.4 WNW, WI","Latitude":"43.47210","Longitude":"-88.88280","Snowdepth":"18.000","Units":"in","Rept_Date":"2020-02-21 12"},"coordinates":[1961,5103]},{"type":"Point","properties":{"Station_ID":"VT-WS-10","Station_Nam":"NORTHFIELD 1.5 N, VT","Latitude":"44.16986","Longitude":"-72.65200","Snowdepth":"18.000","Units":"in","Rept_Date":"2020-02-21 12"},"coordinates":[5770,5517]},{"type":"Point","properties":{"Station_ID":"VT-WR-2","Station_Nam":"POMFRET 2.6 N, VT","Latitude":"43.74230","Longitude":"-72.52550","Snowdepth":"18.000","Units":"in","Rept_Date":"2020-02-21 12"},"coordinates":[5800,5264]},{"type":"Point","properties":{"Station_ID":"VT-OG-11","Station_Nam":"VERSHIRE 1.5 ESE, VT","Latitude":"43.96138","Longitude":"-72.29777","Snowdepth":"18.000","Units":"in","Rept_Date":"2020-02-21 13"},"coordinates":[5853,5394]},{"type":"Point","properties":{"Station_ID":"RARM4","Station_Nam":"RAPID RIVER 1 SW","Latitude":"45.91500","Longitude":"-86.98800","Snowdepth":"18.000","Units":"in","Rept_Date":"2020-02-21 12"},"coordinates":[2406,6552]},{"type":"Point","properties":{"Station_ID":"PERV1","Station_Nam":"PERU","Latitude":"43.26670","Longitude":"-72.90000","Snowdepth":"18.000","Units":"in","Rept_Date":"2020-02-21 12"},"coordinates":[5712,4982]},{"type":"Point","properties":{"Station_ID":"NY-ES-11","Station_Nam":"VERMONTVILLE 2.8 S, NY","Latitude":"44.41205","Longitude":"-74.06760","Snowdepth":"18.000","Units":"in","Rept_Date":"2020-02-21 12"},"coordinates":[5438,5661]},{"type":"Point","properties":{"Station_ID":"NUMM5","Station_Nam":"NEW ULM 3SE","Latitude":"44.29450","Longitude":"-94.40840","Snowdepth":"18.000","Units":"in","Rept_Date":"2020-02-21 12"},"coordinates":[664,5591]},{"type":"Point","properties":{"Station_ID":"NH-MR-41","Station_Nam":"NEWBURY 1.6 NW, NH","Latitude":"43.33667","Longitude":"-72.06060","Snowdepth":"18.000","Units":"in","Rept_Date":"2020-02-21 12"},"coordinates":[5909,5023]},{"type":"Point","properties":{"Station_ID":"NH-CR-9","Station_Nam":"MADISON 1.7 SE, NH","Latitude":"43.87928","Longitude":"-71.12660","Snowdepth":"18.000","Units":"in","Rept_Date":"2020-02-21 12"},"coordinates":[6128,5345]},{"type":"Point","properties":{"Station_ID":"MN-MW-8","Station_Nam":"AUSTIN 2.4 W, MN","Latitude":"43.67190","Longitude":"-93.02280","Snowdepth":"18.000","Units":"in","Rept_Date":"2020-02-21 13"},"coordinates":[989,5222]},{"type":"Point","properties":{"Station_ID":"MI-CP-14","Station_Nam":"SAULT STE. MARIE 2.2 E, MI","Latitude":"46.48933","Longitude":"-84.31971","Snowdepth":"18.000","Units":"in","Rept_Date":"2020-02-21 13"},"coordinates":[3032,6893]},{"type":"Point","properties":{"Station_ID":"JCBM4","Station_Nam":"JACOBSVILLE","Latitude":"47.00830","Longitude":"-88.43180","Snowdepth":"18.000","Units":"in","Rept_Date":"2020-02-21 12"},"coordinates":[2067,7201]},{"type":"Point","properties":{"Station_ID":"INDM5","Station_Nam":"INDUS,MN","Latitude":"48.61670","Longitude":"-93.90000","Snowdepth":"18.000","Units":"in","Rept_Date":"2020-02-21 14"},"coordinates":[784,8154]},{"type":"Point","properties":{"Station_ID":"HRTM1","Station_Nam":"HARTFORD","Latitude":"44.37440","Longitude":"-70.31620","Snowdepth":"18.000","Units":"in","Rept_Date":"2020-02-21 12"},"coordinates":[6318,5639]},{"type":"Point","properties":{"Station_ID":"HGHN6","Station_Nam":"HIGHMARKET","Latitude":"43.57520","Longitude":"-75.52070","Snowdepth":"18.000","Units":"in","Rept_Date":"2020-02-21 10"},"coordinates":[5097,5165]},{"type":"Point","properties":{"Station_ID":"COTM5","Station_Nam":"COTTON","Latitude":"47.16870","Longitude":"-92.46290","Snowdepth":"18.000","Units":"in","Rept_Date":"2020-02-21 13"},"coordinates":[1121,7296]},{"type":"Point","properties":{"Station_ID":"CHRM4","Station_Nam":"CHARLEVOIX","Latitude":"45.31720","Longitude":"-85.26720","Snowdepth":"18.000","Units":"in","Rept_Date":"2020-02-21 13"},"coordinates":[2810,6198]},{"type":"Point","properties":{"Station_ID":"ASTM5","Station_Nam":"AUSTIN WASTE WATER TREATMENT FACILITY","Latitude":"43.65420","Longitude":"-92.97390","Snowdepth":"18.000","Units":"in","Rept_Date":"2020-02-21 13"},"coordinates":[1001,5211]},{"type":"Point","properties":{"Station_ID":"ABGW3","Station_Nam":"AMBERG 9 E","Latitude":"45.48250","Longitude":"-87.81190","Snowdepth":"18.000","Units":"in","Rept_Date":"2020-02-21 12"},"coordinates":[2212,6296]},{"type":"Point","properties":{"Station_ID":"CAN-ON-757","Station_Nam":"SAULT STE. MARIE 2.8 ESE - GLFC, CAN","Latitude":"46.50300","Longitude":"-84.30300","Snowdepth":"17.800","Units":"in","Rept_Date":"2020-02-21 13"},"coordinates":[3036,6901]},{"type":"Point","properties":{"Station_ID":"WI-PT-8","Station_Nam":"RUDOLPH 2.1 NNE, WI","Latitude":"44.52553","Longitude":"-89.78677","Snowdepth":"17.500","Units":"in","Rept_Date":"2020-02-21 11"},"coordinates":[1749,5728]},{"type":"Point","properties":{"Station_ID":"WI-DN-1","Station_Nam":"BOYCEVILLE 3.3 N, WI","Latitude":"45.08913","Longitude":"-92.02760","Snowdepth":"17.500","Units":"in","Rept_Date":"2020-02-21 13"},"coordinates":[1223,6062]},{"type":"Point","properties":{"Station_ID":"MN-CW-22","Station_Nam":"FORT RIPLEY 0.8 N, MN","Latitude":"46.18089","Longitude":"-94.36510","Snowdepth":"17.500","Units":"in","Rept_Date":"2020-02-21 13"},"coordinates":[674,6710]},{"type":"Point","properties":{"Station_ID":"CAN-NB-97","Station_Nam":"NEW MARYLAND 0.6 NW, CAN","Latitude":"45.90112","Longitude":"-66.68739","Snowdepth":"17.300","Units":"in","Rept_Date":"2020-02-21 11"},"coordinates":[7170,6544]},{"type":"Point","properties":{"Station_ID":"WUNW3","Station_Nam":"WAUSAU-NORTHEAST","Latitude":"44.97310","Longitude":"-89.61690","Snowdepth":"17.000","Units":"in","Rept_Date":"2020-02-21 12"},"coordinates":[1789,5994]},{"type":"Point","properties":{"Station_ID":"WSKW3","Station_Nam":"WAUSAUKEE","Latitude":"45.38020","Longitude":"-87.95660","Snowdepth":"17.000","Units":"in","Rept_Date":"2020-02-21 14"},"coordinates":[2178,6235]},{"type":"Point","properties":{"Station_ID":"WNDM1","Station_Nam":"WINDHAM 2NW","Latitude":"43.85670","Longitude":"-70.46630","Snowdepth":"17.000","Units":"in","Rept_Date":"2020-02-21 12"},"coordinates":[6283,5332]},{"type":"Point","properties":{"Station_ID":"WI-BT-14","Station_Nam":"OAKLAND 9.0 ENE, WI","Latitude":"45.95184","Longitude":"-92.21653","Snowdepth":"17.000","Units":"in","Rept_Date":"2020-02-21 13"},"coordinates":[1179,6574]},{"type":"Point","properties":{"Station_ID":"VT-WR-17","Station_Nam":"ROCHESTER 2.3 NE, VT","Latitude":"43.89418","Longitude":"-72.76992","Snowdepth":"17.000","Units":"in","Rept_Date":"2020-02-21 12"},"coordinates":[5743,5354]},{"type":"Point","properties":{"Station_ID":"VT-CH-4","Station_Nam":"UNDERHILL 4.4 NNE, VT","Latitude":"44.58774","Longitude":"-72.92250","Snowdepth":"17.000","Units":"in","Rept_Date":"2020-02-21 12"},"coordinates":[5707,5765]},{"type":"Point","properties":{"Station_ID":"SHHW3","Station_Nam":"SHAWANO 2SSW","Latitude":"44.76310","Longitude":"-88.61830","Snowdepth":"17.000","Units":"in","Rept_Date":"2020-02-21 14"},"coordinates":[2023,5869]},{"type":"Point","properties":{"Station_ID":"RHRW3","Station_Nam":"RHINELANDER WJFW TV-12","Latitude":"45.62220","Longitude":"-89.41000","Snowdepth":"17.000","Units":"in","Rept_Date":"2020-02-22 04"},"coordinates":[1837,6379]},{"type":"Point","properties":{"Station_ID":"RHI","Station_Nam":"RHINELANDER-ONEIDA COUNTY AIRPORT","Latitude":"45.63080","Longitude":"-89.46530","Snowdepth":"17.000","Units":"in","Rept_Date":"2020-02-21 12"},"coordinates":[1824,6384]},{"type":"Point","properties":{"Station_ID":"PLUM5","Station_Nam":"CLEARWATER RIVER AT PLUMMER","Latitude":"47.92330","Longitude":"-96.04610","Snowdepth":"17.000","Units":"in","Rept_Date":"2020-02-21 21"},"coordinates":[280,7743]},{"type":"Point","properties":{"Station_ID":"OCON6","Station_Nam":"OSCEOLA","Latitude":"43.49910","Longitude":"-75.71210","Snowdepth":"17.000","Units":"in","Rept_Date":"2020-02-21 12"},"coordinates":[5052,5120]},{"type":"Point","properties":{"Station_ID":"NUNV1","Station_Nam":"NORTH UNDERHILL","Latitude":"44.58760","Longitude":"-72.92150","Snowdepth":"17.000","Units":"in","Rept_Date":"2020-02-21 12"},"coordinates":[5707,5765]},{"type":"Point","properties":{"Station_ID":"NCKN6","Station_Nam":"NORTH CREEK 5 SE","Latitude":"43.66110","Longitude":"-73.89690","Snowdepth":"17.000","Units":"in","Rept_Date":"2020-02-21 12"},"coordinates":[5478,5216]},{"type":"Point","properties":{"Station_ID":"MQRW3","Station_Nam":"MINOCQUA","Latitude":"45.88630","Longitude":"-89.73220","Snowdepth":"17.000","Units":"in","Rept_Date":"2020-02-21 12"},"coordinates":[1762,6535]},{"type":"Point","properties":{"Station_ID":"MN7M8EBJ","Station_Nam":"LUTSEN 15.7 NNW","Latitude":"47.85324","Longitude":"-89.92908","Snowdepth":"17.000","Units":"in","Rept_Date":"2020-02-21 14"},"coordinates":[1715,7702]},{"type":"Point","properties":{"Station_ID":"MI-OT-4","Station_Nam":"GAYLORD 1.7 WNW, MI","Latitude":"45.03280","Longitude":"-84.71090","Snowdepth":"17.000","Units":"in","Rept_Date":"2020-02-21 13"},"coordinates":[2940,6029]},{"type":"Point","properties":{"Station_ID":"ME-CM-86","Station_Nam":"POWNAL 4.1 S, ME","Latitude":"43.85370","Longitude":"-70.17210","Snowdepth":"17.000","Units":"in","Rept_Date":"2020-02-21 12"},"coordinates":[6352,5330]},{"type":"Point","properties":{"Station_ID":"ME-CM-3","Station_Nam":"NEW GLOUCESTER 3.0 SE, ME","Latitude":"43.92372","Longitude":"-70.25790","Snowdepth":"17.000","Units":"in","Rept_Date":"2020-02-21 12"},"coordinates":[6332,5371]},{"type":"Point","properties":{"Station_ID":"ME-CM-125","Station_Nam":"CUMBERLAND CENTER 4.4 NW, ME","Latitude":"43.84640","Longitude":"-70.31340","Snowdepth":"17.000","Units":"in","Rept_Date":"2020-02-21 12"},"coordinates":[6319,5325]},{"type":"Point","properties":{"Station_ID":"MALN6","Station_Nam":"MALONE","Latitude":"44.84180","Longitude":"-74.30600","Snowdepth":"17.000","Units":"in","Rept_Date":"2020-02-21 12"},"coordinates":[5382,5916]},{"type":"Point","properties":{"Station_ID":"KLKM4","Station_Nam":"KALKASKA","Latitude":"44.72800","Longitude":"-85.17270","Snowdepth":"17.000","Units":"in","Rept_Date":"2020-02-21 13"},"coordinates":[2832,5848]},{"type":"Point","properties":{"Station_ID":"JKMM1","Station_Nam":"JACKMAN","Latitude":"45.62600","Longitude":"-70.24600","Snowdepth":"17.000","Units":"in","Rept_Date":"2020-02-21 12"},"coordinates":[6335,6381]},{"type":"Point","properties":{"Station_ID":"GLRM5","Station_Nam":"GLACIAL RIDGE","Latitude":"47.71670","Longitude":"-96.26670","Snowdepth":"17.000","Units":"in","Rept_Date":"2020-02-22 06"},"coordinates":[228,7621]},{"type":"Point","properties":{"Station_ID":"GLLM5","Station_Nam":"GULL LAKE DAM","Latitude":"46.41190","Longitude":"-94.35000","Snowdepth":"17.000","Units":"in","Rept_Date":"2020-02-21 14"},"coordinates":[678,6847]},{"type":"Point","properties":{"Station_ID":"GAYM4","Station_Nam":"GAYLORD","Latitude":"45.03320","Longitude":"-84.71130","Snowdepth":"17.000","Units":"in","Rept_Date":"2020-02-21 13"},"coordinates":[2940,6029]},{"type":"Point","properties":{"Station_ID":"DURM1","Station_Nam":"DURHAM","Latitude":"43.99960","Longitude":"-70.09630","Snowdepth":"17.000","Units":"in","Rept_Date":"2020-02-21 12"},"coordinates":[6370,5416]},{"type":"Point","properties":{"Station_ID":"CAN-PE-7","Station_Nam":"MORELL 1.4 NNW, CA","Latitude":"46.42741","Longitude":"-62.70870","Snowdepth":"17.000","Units":"in","Rept_Date":"2020-02-21 12"},"coordinates":[8104,6856]},{"type":"Point","properties":{"Station_ID":"CAN-ON-42","Station_Nam":"VANKLEEK HILL 3.4 S, CA","Latitude":"45.48987","Longitude":"-74.64570","Snowdepth":"17.000","Units":"in","Rept_Date":"2020-02-21 12"},"coordinates":[5302,6300]},{"type":"Point","properties":{"Station_ID":"ME-CM-54","Station_Nam":"WINDHAM 3.9 NW, ME","Latitude":"43.85787","Longitude":"-70.46200","Snowdepth":"16.800","Units":"in","Rept_Date":"2020-02-21 12"},"coordinates":[6284,5332]},{"type":"Point","properties":{"Station_ID":"MI-BZ-1","Station_Nam":"BENZONIA 5.3 S, MI","Latitude":"44.53976","Longitude":"-86.10650","Snowdepth":"16.500","Units":"in","Rept_Date":"2020-02-21 14"},"coordinates":[2613,5737]},{"type":"Point","properties":{"Station_ID":"CAN-NB-16","Station_Nam":"DORCHESTER 1.0 SSE, CAN","Latitude":"45.89160","Longitude":"-64.51269","Snowdepth":"16.300","Units":"in","Rept_Date":"2020-02-21 12"},"coordinates":[7681,6538]},{"type":"Point","properties":{"Station_ID":"QWG","Station_Nam":"QWG","Latitude":"48.48890","Longitude":"-73.45940","Snowdepth":"16.260","Units":"in","Rept_Date":"2020-02-21 12"},"coordinates":[5581,8079]},{"type":"Point","properties":{"Station_ID":"CATQ6","Station_Nam":"CAT LAKE","Latitude":"51.72690","Longitude":"-91.82210","Snowdepth":"16.020","Units":"in","Rept_Date":"2020-02-22 06"},"coordinates":[1271,9999]},{"type":"Point","properties":{"Station_ID":"STPW3","Station_Nam":"STEVENS POINT","Latitude":"44.51130","Longitude":"-89.58550","Snowdepth":"16.000","Units":"in","Rept_Date":"2020-02-21 13"},"coordinates":[1796,5720]},{"type":"Point","properties":{"Station_ID":"RLKW3","Station_Nam":"REST LAKE","Latitude":"46.12220","Longitude":"-89.87720","Snowdepth":"16.000","Units":"in","Rept_Date":"2020-02-21 14"},"coordinates":[1728,6675]},{"type":"Point","properties":{"Station_ID":"PULW3","Station_Nam":"PULASKI WWTP","Latitude":"44.67830","Longitude":"-88.22750","Snowdepth":"16.000","Units":"in","Rept_Date":"2020-02-21 12"},"coordinates":[2115,5819]},{"type":"Point","properties":{"Station_ID":"PRNW3","Station_Nam":"PRENTICE,WI","Latitude":"45.54780","Longitude":"-90.30000","Snowdepth":"16.000","Units":"in","Rept_Date":"2020-02-21 14"},"coordinates":[1628,6334]},{"type":"Point","properties":{"Station_ID":"NY-SR-22","Station_Nam":"GREENFIELD CENTER 1.6 W, NY","Latitude":"43.12684","Longitude":"-73.87860","Snowdepth":"16.000","Units":"in","Rept_Date":"2020-02-21 13"},"coordinates":[5482,4899]},{"type":"Point","properties":{"Station_ID":"NY-OG-12","Station_Nam":"CLAY 4.6 NW, NY","Latitude":"43.20000","Longitude":"-76.26000","Snowdepth":"16.000","Units":"in","Rept_Date":"2020-02-21 12"},"coordinates":[4924,4942]},{"type":"Point","properties":{"Station_ID":"NH-MR-6","Station_Nam":"DANBURY 2.2 ESE, NH","Latitude":"43.52000","Longitude":"-71.81900","Snowdepth":"16.000","Units":"in","Rept_Date":"2020-02-21 13"},"coordinates":[5966,5132]},{"type":"Point","properties":{"Station_ID":"NH-GR-47","Station_Nam":"LITTLETON 7.3 W, NH","Latitude":"44.31847","Longitude":"-71.91086","Snowdepth":"16.000","Units":"in","Rept_Date":"2020-02-21 13"},"coordinates":[5944,5605]},{"type":"Point","properties":{"Station_ID":"MN-BM-15","Station_Nam":"BEMIDJI 7.8 ENE, MN","Latitude":"47.52043","Longitude":"-94.72121","Snowdepth":"16.000","Units":"in","Rept_Date":"2020-02-21 13"},"coordinates":[591,7504]},{"type":"Point","properties":{"Station_ID":"ME-AN-32","Station_Nam":"WINTHROP 9.4 W, ME","Latitude":"44.30476","Longitude":"-70.15835","Snowdepth":"16.000","Units":"in","Rept_Date":"2020-02-21 12"},"coordinates":[6356,5597]},{"type":"Point","properties":{"Station_ID":"ILEW3","Station_Nam":"STILES 1S","Latitude":"44.84190","Longitude":"-88.05420","Snowdepth":"16.000","Units":"in","Rept_Date":"2020-02-21 13"},"coordinates":[2156,5916]},{"type":"Point","properties":{"Station_ID":"HOLW3","Station_Nam":"HOLCOMBE","Latitude":"45.22370","Longitude":"-91.12700","Snowdepth":"16.000","Units":"in","Rept_Date":"2020-02-21 13"},"coordinates":[1434,6142]},{"type":"Point","properties":{"Station_ID":"GFDN6","Station_Nam":"CHASES LAKE","Latitude":"43.75920","Longitude":"-75.29980","Snowdepth":"16.000","Units":"in","Rept_Date":"2020-02-21 11"},"coordinates":[5149,5274]},{"type":"Point","properties":{"Station_ID":"FLDM5","Station_Nam":"FLOODWOOD,MN","Latitude":"47.00000","Longitude":"-92.91670","Snowdepth":"16.000","Units":"in","Rept_Date":"2020-02-21 14"},"coordinates":[1014,7196]},{"type":"Point","properties":{"Station_ID":"EPTW3","Station_Nam":"EAU PLEINE TENDER","Latitude":"44.77220","Longitude":"-89.76720","Snowdepth":"16.000","Units":"in","Rept_Date":"2020-02-21 13"},"coordinates":[1753,5875]},{"type":"Point","properties":{"Station_ID":"DTVM4","Station_Nam":"DETOUR VILLAGE","Latitude":"45.99830","Longitude":"-83.90130","Snowdepth":"16.000","Units":"in","Rept_Date":"2020-02-21 13"},"coordinates":[3130,6602]},{"type":"Point","properties":{"Station_ID":"COLN3","Station_Nam":"COLEBROOK 3SW","Latitude":"44.86100","Longitude":"-71.53920","Snowdepth":"16.000","Units":"in","Rept_Date":"2020-02-21 12"},"coordinates":[6031,5927]},{"type":"Point","properties":{"Station_ID":"BRLN3","Station_Nam":"BERLIN","Latitude":"44.45350","Longitude":"-71.18540","Snowdepth":"16.000","Units":"in","Rept_Date":"2020-02-21 12"},"coordinates":[6115,5686]},{"type":"Point","properties":{"Station_ID":"BRAM5","Station_Nam":"BRAINERD","Latitude":"46.34320","Longitude":"-94.20900","Snowdepth":"16.000","Units":"in","Rept_Date":"2020-02-21 13"},"coordinates":[711,6806]},{"type":"Point","properties":{"Station_ID":"BFSW3","Station_Nam":"BIG FALLS-5 NW","Latitude":"44.63980","Longitude":"-89.11330","Snowdepth":"16.000","Units":"in","Rept_Date":"2020-02-21 13"},"coordinates":[1907,5796]},{"type":"Point","properties":{"Station_ID":"BDMW3","Station_Nam":"BEAVER DAM 1 N","Latitude":"43.46860","Longitude":"-88.83970","Snowdepth":"16.000","Units":"in","Rept_Date":"2020-02-21 13"},"coordinates":[1971,5101]},{"type":"Point","properties":{"Station_ID":"MFU","Station_Nam":"MFU","Latitude":"51.52170","Longitude":"-66.91110","Snowdepth":"15.748","Units":"in","Rept_Date":"2020-02-21 12"},"coordinates":[7118,9877]},{"type":"Point","properties":{"Station_ID":"VT-WS-19","Station_Nam":"WATERBURY 3.0 NW, VT","Latitude":"44.36060","Longitude":"-72.80770","Snowdepth":"15.500","Units":"in","Rept_Date":"2020-02-21 11"},"coordinates":[5734,5630]},{"type":"Point","properties":{"Station_ID":"SD-CD-30","Station_Nam":"WATERTOWN 2.3 E, SD","Latitude":"44.91604","Longitude":"-97.11925","Snowdepth":"15.500","Units":"in","Rept_Date":"2020-02-21 13"},"coordinates":[28,5960]},{"type":"Point","properties":{"Station_ID":"NH-GR-1","Station_Nam":"BRISTOL 0.4 SSE, NH","Latitude":"43.59490","Longitude":"-71.74140","Snowdepth":"15.500","Units":"in","Rept_Date":"2020-02-21 12"},"coordinates":[5984,5176]},{"type":"Point","properties":{"Station_ID":"VT-CL-23","Station_Nam":"RYEGATE 1.5 N, VT","Latitude":"44.23024","Longitude":"-72.10523","Snowdepth":"15.200","Units":"in","Rept_Date":"2020-02-21 12"},"coordinates":[5899,5553]},{"type":"Point","properties":{"Station_ID":"XGLM5","Station_Nam":"GOOD LAKE, MN","Latitude":"48.00000","Longitude":"-95.50000","Snowdepth":"15.000","Units":"in","Rept_Date":"2020-02-21 21"},"coordinates":[408,7789]},{"type":"Point","properties":{"Station_ID":"XBLM5","Station_Nam":"BLACK RIVE-POLK, MN","Latitude":"48.00000","Longitude":"-96.40000","Snowdepth":"15.000","Units":"in","Rept_Date":"2020-02-21 21"},"coordinates":[197,7789]},{"type":"Point","properties":{"Station_ID":"WNNM5","Station_Nam":"WINNEBAGO","Latitude":"43.76920","Longitude":"-94.18730","Snowdepth":"15.000","Units":"in","Rept_Date":"2020-02-21 14"},"coordinates":[716,5280]},{"type":"Point","properties":{"Station_ID":"WI-TR-8","Station_Nam":"ETTRICK 4.0 WNW, WI","Latitude":"44.19004","Longitude":"-91.34249","Snowdepth":"15.000","Units":"in","Rept_Date":"2020-02-21 13"},"coordinates":[1384,5529]},{"type":"Point","properties":{"Station_ID":"WI-SR-5","Station_Nam":"HAYWARD 9.7 NE, WI","Latitude":"46.12030","Longitude":"-91.35370","Snowdepth":"15.000","Units":"in","Rept_Date":"2020-02-21 14"},"coordinates":[1381,6674]},{"type":"Point","properties":{"Station_ID":"WI-EC-23","Station_Nam":"EAU CLAIRE 3.7 S, WI","Latitude":"44.76858","Longitude":"-91.49898","Snowdepth":"15.000","Units":"in","Rept_Date":"2020-02-21 14"},"coordinates":[1347,5872]},{"type":"Point","properties":{"Station_ID":"WELM5","Station_Nam":"WELLS","Latitude":"43.74680","Longitude":"-93.73680","Snowdepth":"15.000","Units":"in","Rept_Date":"2020-02-21 14"},"coordinates":[822,5266]},{"type":"Point","properties":{"Station_ID":"TOPN6","Station_Nam":"TUPPER LAKE SUNMOUNT","Latitude":"44.23070","Longitude":"-74.43820","Snowdepth":"15.000","Units":"in","Rept_Date":"2020-02-21 12"},"coordinates":[5351,5553]},{"type":"Point","properties":{"Station_ID":"STRW3","Station_Nam":"STRATFORD 1NW","Latitude":"44.81750","Longitude":"-90.08990","Snowdepth":"15.000","Units":"in","Rept_Date":"2020-02-21 13"},"coordinates":[1678,5901]},{"type":"Point","properties":{"Station_ID":"PRGN6","Station_Nam":"PERRYSBURG","Latitude":"42.46470","Longitude":"-79.00310","Snowdepth":"15.000","Units":"in","Rept_Date":"2020-02-21 12"},"coordinates":[4280,4506]},{"type":"Point","properties":{"Station_ID":"PKFW3","Station_Nam":"PARK FALLS,WI","Latitude":"45.93360","Longitude":"-90.45060","Snowdepth":"15.000","Units":"in","Rept_Date":"2020-02-21 14"},"coordinates":[1593,6563]},{"type":"Point","properties":{"Station_ID":"OSAI4","Station_Nam":"OSAGE","Latitude":"43.27940","Longitude":"-92.81060","Snowdepth":"15.000","Units":"in","Rept_Date":"2020-02-21 13"},"coordinates":[1039,4989]},{"type":"Point","properties":{"Station_ID":"NONW3","Station_Nam":"NEW LONDON","Latitude":"44.35890","Longitude":"-88.71890","Snowdepth":"15.000","Units":"in","Rept_Date":"2020-02-21 12"},"coordinates":[2000,5629]},{"type":"Point","properties":{"Station_ID":"NH-MR-60","Station_Nam":"SOUTH SUTTON 1.3 SE, NH","Latitude":"43.29531","Longitude":"-71.90238","Snowdepth":"15.000","Units":"in","Rept_Date":"2020-02-21 13"},"coordinates":[5946,4999]},{"type":"Point","properties":{"Station_ID":"MWTM1","Station_Nam":"MILLINOCKET WWTP","Latitude":"45.64030","Longitude":"-68.67480","Snowdepth":"15.000","Units":"in","Rept_Date":"2020-02-21 11"},"coordinates":[6704,6389]},{"type":"Point","properties":{"Station_ID":"MNG0GYSN","Station_Nam":"LONSDALE 1.1 SSW","Latitude":"44.46445","Longitude":"-93.43293","Snowdepth":"15.000","Units":"in","Rept_Date":"2020-02-21 12"},"coordinates":[893,5692]},{"type":"Point","properties":{"Station_ID":"MNEY8CTB","Station_Nam":"MIDLAND JUNCTION 2.2 ENE","Latitude":"44.33041","Longitude":"-91.95891","Snowdepth":"15.000","Units":"in","Rept_Date":"2020-02-21 14"},"coordinates":[1239,5613]},{"type":"Point","properties":{"Station_ID":"MN-SH-10","Station_Nam":"BIG LAKE 5.6 NNE, MN","Latitude":"45.41409","Longitude":"-93.69190","Snowdepth":"15.000","Units":"in","Rept_Date":"2020-02-21 13"},"coordinates":[832,6255]},{"type":"Point","properties":{"Station_ID":"MN-RC-1","Station_Nam":"MONTGOMERY 3.2 ENE, MN","Latitude":"44.46400","Longitude":"-93.51980","Snowdepth":"15.000","Units":"in","Rept_Date":"2020-02-21 11"},"coordinates":[873,5692]},{"type":"Point","properties":{"Station_ID":"MN-BK-10","Station_Nam":"DETROIT LAKES 5.7 N, MN","Latitude":"46.88666","Longitude":"-95.84444","Snowdepth":"15.000","Units":"in","Rept_Date":"2020-02-21 10"},"coordinates":[327,7128]},{"type":"Point","properties":{"Station_ID":"ME-YK-67","Station_Nam":"CORNISH 5.6 ESE, ME","Latitude":"43.78308","Longitude":"-70.69539","Snowdepth":"15.000","Units":"in","Rept_Date":"2020-02-21 12"},"coordinates":[6230,5288]},{"type":"Point","properties":{"Station_ID":"JOHV1","Station_Nam":"JOHNSON 2 N","Latitude":"44.65790","Longitude":"-72.67850","Snowdepth":"15.000","Units":"in","Rept_Date":"2020-02-21 12"},"coordinates":[5764,5807]},{"type":"Point","properties":{"Station_ID":"JEFV1","Station_Nam":"JEFFERSONVILLE","Latitude":"44.58430","Longitude":"-72.78700","Snowdepth":"15.000","Units":"in","Rept_Date":"2020-02-21 12"},"coordinates":[5739,5763]},{"type":"Point","properties":{"Station_ID":"JEFN3","Station_Nam":"JEFFERSON","Latitude":"44.41690","Longitude":"-71.50080","Snowdepth":"15.000","Units":"in","Rept_Date":"2020-02-21 12"},"coordinates":[6040,5664]},{"type":"Point","properties":{"Station_ID":"GMDM5","Station_Nam":"GRAND MEADOW","Latitude":"43.70740","Longitude":"-92.56440","Snowdepth":"15.000","Units":"in","Rept_Date":"2020-02-21 12"},"coordinates":[1097,5243]},{"type":"Point","properties":{"Station_ID":"FEDM5","Station_Nam":"LEECH LAKE DAM","Latitude":"47.24670","Longitude":"-94.22280","Snowdepth":"15.000","Units":"in","Rept_Date":"2020-02-21 14"},"coordinates":[708,7342]},{"type":"Point","properties":{"Station_ID":"EPMW3","Station_Nam":"EPHRAIM-1 NE WWTP","Latitude":"45.17080","Longitude":"-87.15360","Snowdepth":"15.000","Units":"in","Rept_Date":"2020-02-21 16"},"coordinates":[2367,6111]},{"type":"Point","properties":{"Station_ID":"ENGM4","Station_Nam":"ENGADINE MDOT","Latitude":"46.12800","Longitude":"-85.56960","Snowdepth":"15.000","Units":"in","Rept_Date":"2020-02-21 12"},"coordinates":[2739,6679]},{"type":"Point","properties":{"Station_ID":"ENFV1","Station_Nam":"ENOSBURG FALLS 2","Latitude":"44.90960","Longitude":"-72.81370","Snowdepth":"15.000","Units":"in","Rept_Date":"2020-02-21 10"},"coordinates":[5732,5956]},{"type":"Point","properties":{"Station_ID":"CAN-PE-3","Station_Nam":"WELLINGTON 1.6 NE, CA","Latitude":"46.46672","Longitude":"-63.98920","Snowdepth":"15.000","Units":"in","Rept_Date":"2020-02-21 11"},"coordinates":[7803,6879]},{"type":"Point","properties":{"Station_ID":"CAN-ON-245","Station_Nam":"PHELPSTON 3.1 ESE, CAN","Latitude":"44.50564","Longitude":"-79.81035","Snowdepth":"15.000","Units":"in","Rept_Date":"2020-02-21 11"},"coordinates":[4090,5716]},{"type":"Point","properties":{"Station_ID":"CAN-ON-208","Station_Nam":"PAKENHAM 7.8 NNW, CAN","Latitude":"45.39166","Longitude":"-76.34111","Snowdepth":"15.000","Units":"in","Rept_Date":"2020-02-21 12"},"coordinates":[4904,6242]},{"type":"Point","properties":{"Station_ID":"BENN6","Station_Nam":"BENNETTS BRIDGE","Latitude":"43.53180","Longitude":"-75.95260","Snowdepth":"15.000","Units":"in","Rept_Date":"2020-02-21 12"},"coordinates":[4996,5139]},{"type":"Point","properties":{"Station_ID":"BEAW3","Station_Nam":"BEAVER DAM,WI","Latitude":"43.45000","Longitude":"-88.85000","Snowdepth":"15.000","Units":"in","Rept_Date":"2020-02-21 13"},"coordinates":[1969,5090]},{"type":"Point","properties":{"Station_ID":"ATW","Station_Nam":"OUTAGAMIE COUNTY AIRPORT","Latitude":"44.25750","Longitude":"-88.51940","Snowdepth":"15.000","Units":"in","Rept_Date":"2020-02-21 12"},"coordinates":[2046,5569]},{"type":"Point","properties":{"Station_ID":"APPW3","Station_Nam":"APPLETON","Latitude":"44.27690","Longitude":"-88.43770","Snowdepth":"15.000","Units":"in","Rept_Date":"2020-02-21 12"},"coordinates":[2066,5581]},{"type":"Point","properties":{"Station_ID":"ALBM5","Station_Nam":"ALBERT LEA 3 SE","Latitude":"43.60640","Longitude":"-93.30190","Snowdepth":"15.000","Units":"in","Rept_Date":"2020-02-21 14"},"coordinates":[924,5183]},{"type":"Point","properties":{"Station_ID":"CAN-NS-163","Station_Nam":"SYDNEY MINES 2.2 WNW, CAN","Latitude":"46.24851","Longitude":"-60.25161","Snowdepth":"14.600","Units":"in","Rept_Date":"2020-02-21 12"},"coordinates":[8681,6750]},{"type":"Point","properties":{"Station_ID":"WI-WH-7","Station_Nam":"WILD ROSE 0.5 E, WI","Latitude":"44.17764","Longitude":"-89.23812","Snowdepth":"14.500","Units":"in","Rept_Date":"2020-02-21 13"},"coordinates":[1878,5522]},{"type":"Point","properties":{"Station_ID":"NY-WR-10","Station_Nam":"WARRENSBURG 2.1 WNW, NY","Latitude":"43.51784","Longitude":"-73.81069","Snowdepth":"14.500","Units":"in","Rept_Date":"2020-02-21 13"},"coordinates":[5498,5131]},{"type":"Point","properties":{"Station_ID":"NY-MD-10","Station_Nam":"CAZENOVIA 2.9 SE, NY","Latitude":"42.90003","Longitude":"-75.81140","Snowdepth":"14.500","Units":"in","Rept_Date":"2020-02-21 12"},"coordinates":[5029,4764]},{"type":"Point","properties":{"Station_ID":"NH-MR-45","Station_Nam":"NORTHFIELD 2.8 E, NH","Latitude":"43.43945","Longitude":"-71.53730","Snowdepth":"14.500","Units":"in","Rept_Date":"2020-02-21 12"},"coordinates":[6032,5084]},{"type":"Point","properties":{"Station_ID":"MN-PK-15","Station_Nam":"MENTOR 2.5 SSW, MN","Latitude":"47.66625","Longitude":"-96.17328","Snowdepth":"14.500","Units":"in","Rept_Date":"2020-02-21 14"},"coordinates":[250,7591]},{"type":"Point","properties":{"Station_ID":"CAN-MB-32","Station_Nam":"PINAWA 1.0 SW, CA","Latitude":"50.14747","Longitude":"-95.89020","Snowdepth":"14.500","Units":"in","Rept_Date":"2020-02-21 13"},"coordinates":[316,9062]},{"type":"Point","properties":{"Station_ID":"CAN-NB-6","Station_Nam":"FREDERICTON 5.1 SSE, CAN","Latitude":"45.91895","Longitude":"-66.62685","Snowdepth":"14.200","Units":"in","Rept_Date":"2020-02-21 10"},"coordinates":[7184,6555]},{"type":"Point","properties":{"Station_ID":"WTBW3","Station_Nam":"WEST BEND PUBLIC WORKS","Latitude":"43.41110","Longitude":"-88.19380","Snowdepth":"14.000","Units":"in","Rept_Date":"2020-02-21 16"},"coordinates":[2123,5067]},{"type":"Point","properties":{"Station_ID":"WLKM5","Station_Nam":"AH-GWAH-CHING","Latitude":"47.15000","Longitude":"-94.65000","Snowdepth":"14.000","Units":"in","Rept_Date":"2020-02-21 11"},"coordinates":[608,7285]},{"type":"Point","properties":{"Station_ID":"WLDM5","Station_Nam":"WILD RIVER STATE PARK","Latitude":"45.52310","Longitude":"-92.74890","Snowdepth":"14.000","Units":"in","Rept_Date":"2020-02-21 14"},"coordinates":[1054,6320]},{"type":"Point","properties":{"Station_ID":"WIPW3","Station_Nam":"WISCONSIN RAPIDS-SOUTHEAST","Latitude":"44.38190","Longitude":"-89.80470","Snowdepth":"14.000","Units":"in","Rept_Date":"2020-02-21 12"},"coordinates":[1745,5643]},{"type":"Point","properties":{"Station_ID":"WI-WN-9","Station_Nam":"NEENAH 1.1 ENE, WI","Latitude":"44.17370","Longitude":"-88.45130","Snowdepth":"14.000","Units":"in","Rept_Date":"2020-02-21 13"},"coordinates":[2062,5520]},{"type":"Point","properties":{"Station_ID":"WI-GN-5","Station_Nam":"MONTICELLO 2.2 SE, WI","Latitude":"42.71990","Longitude":"-89.56360","Snowdepth":"14.000","Units":"in","Rept_Date":"2020-02-21 13"},"coordinates":[1801,4657]},{"type":"Point","properties":{"Station_ID":"WI-CH-7","Station_Nam":"CHIPPEWA FALLS 1.2 E, WI","Latitude":"44.92920","Longitude":"-91.36730","Snowdepth":"14.000","Units":"in","Rept_Date":"2020-02-21 13"},"coordinates":[1378,5968]},{"type":"Point","properties":{"Station_ID":"WI-CB-5","Station_Nam":"PORTAGE 7.2 SW, WI","Latitude":"43.47933","Longitude":"-89.57370","Snowdepth":"14.000","Units":"in","Rept_Date":"2020-02-21 13"},"coordinates":[1799,5108]},{"type":"Point","properties":{"Station_ID":"WAIV1","Station_Nam":"WAITSFIELD","Latitude":"44.17560","Longitude":"-72.79610","Snowdepth":"14.000","Units":"in","Rept_Date":"2020-02-21 11"},"coordinates":[5736,5521]},{"type":"Point","properties":{"Station_ID":"VT-WS-11","Station_Nam":"WAITSFIELD 1.8 SE, VT","Latitude":"44.17551","Longitude":"-72.79540","Snowdepth":"14.000","Units":"in","Rept_Date":"2020-02-21 11"},"coordinates":[5737,5521]},{"type":"Point","properties":{"Station_ID":"VT-LM-7","Station_Nam":"HYDE PARK 2.9 NE, VT","Latitude":"44.62080","Longitude":"-72.57250","Snowdepth":"14.000","Units":"in","Rept_Date":"2020-02-21 12"},"coordinates":[5789,5785]},{"type":"Point","properties":{"Station_ID":"UVDV1","Station_Nam":"NERON SITE AT UNION VILLAGE DAM","Latitude":"43.79140","Longitude":"-72.25720","Snowdepth":"14.000","Units":"in","Rept_Date":"2020-02-21 13"},"coordinates":[5863,5293]},{"type":"Point","properties":{"Station_ID":"TCEM4","Station_Nam":"TRAVERSE CITY 5ESE","Latitude":"44.73370","Longitude":"-85.51180","Snowdepth":"14.000","Units":"in","Rept_Date":"2020-02-21 12"},"coordinates":[2752,5852]},{"type":"Point","properties":{"Station_ID":"SPOW3","Station_Nam":"SPOONER,WI","Latitude":"45.82360","Longitude":"-91.70000","Snowdepth":"14.000","Units":"in","Rept_Date":"2020-02-21 14"},"coordinates":[1300,6498]},{"type":"Point","properties":{"Station_ID":"SJBV1","Station_Nam":"SAINT JOHNSBURY","Latitude":"44.42000","Longitude":"-72.01940","Snowdepth":"14.000","Units":"in","Rept_Date":"2020-02-21 21"},"coordinates":[5919,5666]},{"type":"Point","properties":{"Station_ID":"SBNM5","Station_Nam":"SABIN","Latitude":"46.77690","Longitude":"-96.65610","Snowdepth":"14.000","Units":"in","Rept_Date":"2020-02-21 14"},"coordinates":[137,7063]},{"type":"Point","properties":{"Station_ID":"SANI4","Station_Nam":"ST ANSGAR","Latitude":"43.38170","Longitude":"-92.92320","Snowdepth":"14.000","Units":"in","Rept_Date":"2020-02-21 12"},"coordinates":[1013,5050]},{"type":"Point","properties":{"Station_ID":"RST","Station_Nam":"ROCHESTER INTERNATIONAL ARPT","Latitude":"43.90890","Longitude":"-92.49780","Snowdepth":"14.000","Units":"in","Rept_Date":"2020-02-22 00"},"coordinates":[1113,5363]},{"type":"Point","properties":{"Station_ID":"RSRM5","Station_Nam":"ROCHESTER AP 2NE","Latitude":"43.92810","Longitude":"-92.47580","Snowdepth":"14.000","Units":"in","Rept_Date":"2020-02-21 18"},"coordinates":[1118,5374]},{"type":"Point","properties":{"Station_ID":"ROWM3","Station_Nam":"ROWE 3NE","Latitude":"42.73500","Longitude":"-72.86920","Snowdepth":"14.000","Units":"in","Rept_Date":"2020-02-21 12"},"coordinates":[5719,4666]},{"type":"Point","properties":{"Station_ID":"POLM1","Station_Nam":"POLAND","Latitude":"44.00700","Longitude":"-70.36140","Snowdepth":"14.000","Units":"in","Rept_Date":"2020-02-21 12"},"coordinates":[6308,5421]},{"type":"Point","properties":{"Station_ID":"PLOW3","Station_Nam":"PLOVER","Latitude":"44.44280","Longitude":"-89.54530","Snowdepth":"14.000","Units":"in","Rept_Date":"2020-02-21 13"},"coordinates":[1806,5679]},{"type":"Point","properties":{"Station_ID":"PLFV1","Station_Nam":"PLAINFIELD","Latitude":"44.27610","Longitude":"-72.41500","Snowdepth":"14.000","Units":"in","Rept_Date":"2020-02-21 12"},"coordinates":[5826,5580]},{"type":"Point","properties":{"Station_ID":"NELW3","Station_Nam":"NEILLSVILLE 3ESE","Latitude":"44.53780","Longitude":"-90.53500","Snowdepth":"14.000","Units":"in","Rept_Date":"2020-02-21 13"},"coordinates":[1573,5736]},{"type":"Point","properties":{"Station_ID":"ND-CS-25","Station_Nam":"FARGO 2.1 N, ND","Latitude":"46.90816","Longitude":"-96.77937","Snowdepth":"14.000","Units":"in","Rept_Date":"2020-02-21 14"},"coordinates":[108,7141]},{"type":"Point","properties":{"Station_ID":"MYOM4","Station_Nam":"MIO WWTP","Latitude":"44.64660","Longitude":"-84.11580","Snowdepth":"14.000","Units":"in","Rept_Date":"2020-02-21 13"},"coordinates":[3080,5800]},{"type":"Point","properties":{"Station_ID":"MN-SE-2","Station_Nam":"OWATONNA 0.8 E, MN","Latitude":"44.09170","Longitude":"-93.21380","Snowdepth":"14.000","Units":"in","Rept_Date":"2020-02-21 12"},"coordinates":[945,5471]},{"type":"Point","properties":{"Station_ID":"MI-GT-25","Station_Nam":"TRAVERSE CITY 4.7 ESE, MI","Latitude":"44.73370","Longitude":"-85.51189","Snowdepth":"14.000","Units":"in","Rept_Date":"2020-02-21 12"},"coordinates":[2752,5852]},{"type":"Point","properties":{"Station_ID":"MFDW3","Station_Nam":"MARSHFIELD EXP FARM","Latitude":"44.64110","Longitude":"-90.13330","Snowdepth":"14.000","Units":"in","Rept_Date":"2020-02-21 13"},"coordinates":[1668,5797]},{"type":"Point","properties":{"Station_ID":"ME-AN-43","Station_Nam":"LISBON 0.6 S, ME","Latitude":"44.02320","Longitude":"-70.10550","Snowdepth":"14.000","Units":"in","Rept_Date":"2020-02-21 12"},"coordinates":[6368,5430]},{"type":"Point","properties":{"Station_ID":"LODW3","Station_Nam":"LODI","Latitude":"43.32170","Longitude":"-89.53110","Snowdepth":"14.000","Units":"in","Rept_Date":"2020-02-21 13"},"coordinates":[1809,5014]},{"type":"Point","properties":{"Station_ID":"LNGM5","Station_Nam":"LONG PRAIRIE","Latitude":"45.96460","Longitude":"-94.88920","Snowdepth":"14.000","Units":"in","Rept_Date":"2020-02-21 12"},"coordinates":[551,6582]},{"type":"Point","properties":{"Station_ID":"LBRM5","Station_Nam":"LAKE BRONSON DAM","Latitude":"48.72410","Longitude":"-96.62180","Snowdepth":"14.000","Units":"in","Rept_Date":"2020-02-21 14"},"coordinates":[145,8218]},{"type":"Point","properties":{"Station_ID":"KSEM4","Station_Nam":"KALKASKA 11SE","Latitude":"44.58970","Longitude":"-85.04860","Snowdepth":"14.000","Units":"in","Rept_Date":"2020-02-21 13"},"coordinates":[2861,5766]},{"type":"Point","properties":{"Station_ID":"HYTS2","Station_Nam":"HAYTI 1W","Latitude":"44.66330","Longitude":"-97.22670","Snowdepth":"14.000","Units":"in","Rept_Date":"2020-02-21 14"},"coordinates":[3,5810]},{"type":"Point","properties":{"Station_ID":"HTLM4","Station_Nam":"SNOW PAID OBSERVER FOR KHTL","Latitude":"44.34470","Longitude":"-84.67730","Snowdepth":"14.000","Units":"in","Rept_Date":"2020-02-21 18"},"coordinates":[2948,5621]},{"type":"Point","properties":{"Station_ID":"HTL","Station_Nam":"ROSCOMMON COUNTY AIRPORT","Latitude":"44.35000","Longitude":"-84.66670","Snowdepth":"14.000","Units":"in","Rept_Date":"2020-02-22 00"},"coordinates":[2951,5624]},{"type":"Point","properties":{"Station_ID":"HMYM1","Station_Nam":"HARMONY","Latitude":"44.94660","Longitude":"-69.54560","Snowdepth":"14.000","Units":"in","Rept_Date":"2020-02-21 12"},"coordinates":[6499,5978]},{"type":"Point","properties":{"Station_ID":"GYX","Station_Nam":"PORTLAND, ME","Latitude":"43.89250","Longitude":"-70.25500","Snowdepth":"14.000","Units":"in","Rept_Date":"2020-02-21 12"},"coordinates":[6333,5353]},{"type":"Point","properties":{"Station_ID":"GRMM1","Station_Nam":"GORHAM","Latitude":"43.67440","Longitude":"-70.43900","Snowdepth":"14.000","Units":"in","Rept_Date":"2020-02-21 12"},"coordinates":[6290,5223]},{"type":"Point","properties":{"Station_ID":"GRFN8","Station_Nam":"UNIVERSITY","Latitude":"47.93330","Longitude":"-97.08330","Snowdepth":"14.000","Units":"in","Rept_Date":"2020-02-22 06"},"coordinates":[36,7749]},{"type":"Point","properties":{"Station_ID":"GRBM5","Station_Nam":"GRAND RAPIDS 12N","Latitude":"47.39800","Longitude":"-93.51330","Snowdepth":"14.000","Units":"in","Rept_Date":"2020-02-21 13"},"coordinates":[874,7432]},{"type":"Point","properties":{"Station_ID":"FORW3","Station_Nam":"FORESTVILLE-4E","Latitude":"44.69780","Longitude":"-87.39690","Snowdepth":"14.000","Units":"in","Rept_Date":"2020-02-21 13"},"coordinates":[2310,5830]},{"type":"Point","properties":{"Station_ID":"FLAM4","Station_Nam":"FIFE LAKE 2WNW","Latitude":"44.58480","Longitude":"-85.36530","Snowdepth":"14.000","Units":"in","Rept_Date":"2020-02-21 12"},"coordinates":[2787,5763]},{"type":"Point","properties":{"Station_ID":"CTNW3","Station_Nam":"CASHTON 3NNW","Latitude":"43.78600","Longitude":"-90.79520","Snowdepth":"14.000","Units":"in","Rept_Date":"2020-02-21 14"},"coordinates":[1512,5290]},{"type":"Point","properties":{"Station_ID":"CNTW3","Station_Nam":"CLINTONVILLE","Latitude":"44.62270","Longitude":"-88.74830","Snowdepth":"14.000","Units":"in","Rept_Date":"2020-02-21 13"},"coordinates":[1993,5786]},{"type":"Point","properties":{"Station_ID":"CNKN6","Station_Nam":"CONKLINGVILLE DAM","Latitude":"43.32030","Longitude":"-73.92560","Snowdepth":"14.000","Units":"in","Rept_Date":"2020-02-21 13"},"coordinates":[5471,5013]},{"type":"Point","properties":{"Station_ID":"BALW3","Station_Nam":"BALDWIN","Latitude":"44.96330","Longitude":"-92.39050","Snowdepth":"14.000","Units":"in","Rept_Date":"2020-02-21 13"},"coordinates":[1138,5988]},{"type":"Point","properties":{"Station_ID":"APLW3","Station_Nam":"APPLETON WHBY RADIO","Latitude":"44.25110","Longitude":"-88.36440","Snowdepth":"14.000","Units":"in","Rept_Date":"2020-02-21 14"},"coordinates":[2083,5565]},{"type":"Point","properties":{"Station_ID":"ALXM5","Station_Nam":"ALEXANDRIA","Latitude":"45.87820","Longitude":"-95.38270","Snowdepth":"14.000","Units":"in","Rept_Date":"2020-02-21 12"},"coordinates":[436,6530]},{"type":"Point","properties":{"Station_ID":"CAN-QC-16","Station_Nam":"SAINT-ARMAND 3.6 W, CAN","Latitude":"45.02631","Longitude":"-73.08795","Snowdepth":"13.900","Units":"in","Rept_Date":"2020-02-21 12"},"coordinates":[5668,6025]},{"type":"Point","properties":{"Station_ID":"CAN-NB-98","Station_Nam":"HOYT 4.2 S, CAN","Latitude":"45.54763","Longitude":"-66.55440","Snowdepth":"13.800","Units":"in","Rept_Date":"2020-02-21 11"},"coordinates":[7201,6334]},{"type":"Point","properties":{"Station_ID":"VT-LM-1","Station_Nam":"STOWE 0.2 SW, VT","Latitude":"44.46399","Longitude":"-72.69070","Snowdepth":"13.500","Units":"in","Rept_Date":"2020-02-21 12"},"coordinates":[5761,5692]},{"type":"Point","properties":{"Station_ID":"NY-OG-46","Station_Nam":"BALDWINSVILLE 3.5 NE, NY","Latitude":"43.19506","Longitude":"-76.28830","Snowdepth":"13.500","Units":"in","Rept_Date":"2020-02-21 13"},"coordinates":[4917,4939]},{"type":"Point","properties":{"Station_ID":"NY-ER-166","Station_Nam":"BOSTON 2.5 NE, NY","Latitude":"42.65480","Longitude":"-78.70300","Snowdepth":"13.500","Units":"in","Rept_Date":"2020-02-21 12"},"coordinates":[4350,4619]},{"type":"Point","properties":{"Station_ID":"MI-GT-21","Station_Nam":"KINGSLEY 2.7 ENE, MI","Latitude":"44.59871","Longitude":"-85.48426","Snowdepth":"13.500","Units":"in","Rept_Date":"2020-02-21 13"},"coordinates":[2759,5772]},{"type":"Point","properties":{"Station_ID":"MA-HS-7","Station_Nam":"PLAINFIELD 2.2 SW, MA","Latitude":"42.49272","Longitude":"-72.94540","Snowdepth":"13.500","Units":"in","Rept_Date":"2020-02-21 13"},"coordinates":[5701,4523]},{"type":"Point","properties":{"Station_ID":"FTHQ6","Station_Nam":"FORT HOPE","Latitude":"51.55820","Longitude":"-87.90510","Snowdepth":"13.230","Units":"in","Rept_Date":"2020-02-22 06"},"coordinates":[2191,9899]},{"type":"Point","properties":{"Station_ID":"ZITW3","Station_Nam":"FREMONT","Latitude":"44.22200","Longitude":"-88.78300","Snowdepth":"13.000","Units":"in","Rept_Date":"2020-02-21 12"},"coordinates":[1984,5548]},{"type":"Point","properties":{"Station_ID":"WTHM1","Station_Nam":"WINTHROP","Latitude":"44.30650","Longitude":"-69.97010","Snowdepth":"13.000","Units":"in","Rept_Date":"2020-02-21 13"},"coordinates":[6400,5598]},{"type":"Point","properties":{"Station_ID":"WSWN6","Station_Nam":"WARSAW","Latitude":"42.74220","Longitude":"-78.20850","Snowdepth":"13.000","Units":"in","Rept_Date":"2020-02-21 12"},"coordinates":[4466,4671]},{"type":"Point","properties":{"Station_ID":"WIRW3","Station_Nam":"WIS RAPIDS GRAND AV B","Latitude":"44.39940","Longitude":"-89.83050","Snowdepth":"13.000","Units":"in","Rept_Date":"2020-02-21 13"},"coordinates":[1739,5653]},{"type":"Point","properties":{"Station_ID":"WI-WN-5","Station_Nam":"OSHKOSH 5.2 N, WI","Latitude":"44.09351","Longitude":"-88.55310","Snowdepth":"13.000","Units":"in","Rept_Date":"2020-02-21 13"},"coordinates":[2038,5472]},{"type":"Point","properties":{"Station_ID":"WI-VR-1","Station_Nam":"HILLSBORO 0.5 WSW, WI","Latitude":"43.65138","Longitude":"-90.34753","Snowdepth":"13.000","Units":"in","Rept_Date":"2020-02-21 13"},"coordinates":[1617,5210]},{"type":"Point","properties":{"Station_ID":"WI-GL-4","Station_Nam":"GREEN LAKE 0.8 E, WI","Latitude":"43.84369","Longitude":"-88.94066","Snowdepth":"13.000","Units":"in","Rept_Date":"2020-02-21 13"},"coordinates":[1947,5324]},{"type":"Point","properties":{"Station_ID":"VT-CH-11","Station_Nam":"UNDERHILL 5.1 NNE, VT","Latitude":"44.59811","Longitude":"-72.91880","Snowdepth":"13.000","Units":"in","Rept_Date":"2020-02-21 13"},"coordinates":[5708,5771]},{"type":"Point","properties":{"Station_ID":"TURM1","Station_Nam":"TURNER","Latitude":"44.28220","Longitude":"-70.25610","Snowdepth":"13.000","Units":"in","Rept_Date":"2020-02-21 12"},"coordinates":[6333,5584]},{"type":"Point","properties":{"Station_ID":"TOPM1","Station_Nam":"TOPSFIELD","Latitude":"45.43470","Longitude":"-67.72020","Snowdepth":"13.000","Units":"in","Rept_Date":"2020-02-21 12"},"coordinates":[6928,6267]},{"type":"Point","properties":{"Station_ID":"TETM5","Station_Nam":"TETTEGOUCHE STATE PARK","Latitude":"47.33900","Longitude":"-91.19590","Snowdepth":"13.000","Units":"in","Rept_Date":"2020-02-21 14"},"coordinates":[1418,7397]},{"type":"Point","properties":{"Station_ID":"TCMM4","Station_Nam":"TRAVERSE CITY MUNSON","Latitude":"44.76070","Longitude":"-85.64430","Snowdepth":"13.000","Units":"in","Rept_Date":"2020-02-21 11"},"coordinates":[2721,5868]},{"type":"Point","properties":{"Station_ID":"TAHW3","Station_Nam":"TAYCHEEDAH","Latitude":"43.83390","Longitude":"-88.34690","Snowdepth":"13.000","Units":"in","Rept_Date":"2020-02-21 12"},"coordinates":[2087,5318]},{"type":"Point","properties":{"Station_ID":"SLRW3","Station_Nam":"SLINGER","Latitude":"43.33390","Longitude":"-88.29780","Snowdepth":"13.000","Units":"in","Rept_Date":"2020-02-21 13"},"coordinates":[2098,5022]},{"type":"Point","properties":{"Station_ID":"SLNV1","Station_Nam":"SOUTH LINCOLN","Latitude":"44.07460","Longitude":"-72.97180","Snowdepth":"13.000","Units":"in","Rept_Date":"2020-02-21 12"},"coordinates":[5695,5461]},{"type":"Point","properties":{"Station_ID":"SIBI4","Station_Nam":"SIBLEY","Latitude":"43.40470","Longitude":"-95.74830","Snowdepth":"13.000","Units":"in","Rept_Date":"2020-02-21 13"},"coordinates":[350,5064]},{"type":"Point","properties":{"Station_ID":"RRLW3","Station_Nam":"MERRILL,WI","Latitude":"45.17860","Longitude":"-89.66170","Snowdepth":"13.000","Units":"in","Rept_Date":"2020-02-21 14"},"coordinates":[1778,6116]},{"type":"Point","properties":{"Station_ID":"RKNW3","Station_Nam":"MARKESAN","Latitude":"43.70280","Longitude":"-88.99890","Snowdepth":"13.000","Units":"in","Rept_Date":"2020-02-21 13"},"coordinates":[1934,5240]},{"type":"Point","properties":{"Station_ID":"RCEM5","Station_Nam":"RICE","Latitude":"45.75760","Longitude":"-94.20720","Snowdepth":"13.000","Units":"in","Rept_Date":"2020-02-21 13"},"coordinates":[711,6459]},{"type":"Point","properties":{"Station_ID":"PARM4","Station_Nam":"PARENT BAY","Latitude":"45.79610","Longitude":"-86.40110","Snowdepth":"13.000","Units":"in","Rept_Date":"2020-02-21 15"},"coordinates":[2543,6482]},{"type":"Point","properties":{"Station_ID":"OOHW3","Station_Nam":"OSHKOSH 5 N","Latitude":"44.09360","Longitude":"-88.55310","Snowdepth":"13.000","Units":"in","Rept_Date":"2020-02-21 13"},"coordinates":[2038,5472]},{"type":"Point","properties":{"Station_ID":"OKHW3","Station_Nam":"OSHKOSH,WI","Latitude":"44.03330","Longitude":"-88.55560","Snowdepth":"13.000","Units":"in","Rept_Date":"2020-02-21 13"},"coordinates":[2038,5436]},{"type":"Point","properties":{"Station_ID":"NY-ES-7","Station_Nam":"KEESEVILLE 0.8 SE, NY","Latitude":"44.49504","Longitude":"-73.47109","Snowdepth":"13.000","Units":"in","Rept_Date":"2020-02-21 12"},"coordinates":[5578,5710]},{"type":"Point","properties":{"Station_ID":"NY-ER-77","Station_Nam":"COLDEN 2.4 ENE, NY","Latitude":"42.65088","Longitude":"-78.61060","Snowdepth":"13.000","Units":"in","Rept_Date":"2020-02-21 13"},"coordinates":[4372,4616]},{"type":"Point","properties":{"Station_ID":"NVLV1","Station_Nam":"NASHVILLE","Latitude":"44.44970","Longitude":"-72.92640","Snowdepth":"13.000","Units":"in","Rept_Date":"2020-02-21 12"},"coordinates":[5706,5683]},{"type":"Point","properties":{"Station_ID":"MXON6","Station_Nam":"MEXICO","Latitude":"43.43830","Longitude":"-76.26560","Snowdepth":"13.000","Units":"in","Rept_Date":"2020-02-21 12"},"coordinates":[4922,5083]},{"type":"Point","properties":{"Station_ID":"MWN","Station_Nam":"MOUNT WASHINGTON","Latitude":"44.26670","Longitude":"-71.30000","Snowdepth":"13.000","Units":"in","Rept_Date":"2020-02-22 05"},"coordinates":[6088,5575]},{"type":"Point","properties":{"Station_ID":"MSCM5","Station_Nam":"MINNESOTA CITY","Latitude":"44.16000","Longitude":"-91.81220","Snowdepth":"13.000","Units":"in","Rept_Date":"2020-02-21 14"},"coordinates":[1274,5511]},{"type":"Point","properties":{"Station_ID":"MONW3","Station_Nam":"MONROE,WI","Latitude":"42.60000","Longitude":"-89.66670","Snowdepth":"13.000","Units":"in","Rept_Date":"2020-02-21 13"},"coordinates":[1777,4586]},{"type":"Point","properties":{"Station_ID":"MN-OL-18","Station_Nam":"ROCHESTER 2.6 NE, MN","Latitude":"44.03975","Longitude":"-92.43750","Snowdepth":"13.000","Units":"in","Rept_Date":"2020-02-21 12"},"coordinates":[1127,5440]},{"type":"Point","properties":{"Station_ID":"MN-FM-10","Station_Nam":"WYKOFF 3.1 NW, MN","Latitude":"43.74340","Longitude":"-92.30650","Snowdepth":"13.000","Units":"in","Rept_Date":"2020-02-21 13"},"coordinates":[1158,5264]},{"type":"Point","properties":{"Station_ID":"MEDW3","Station_Nam":"MEDFORD","Latitude":"45.13080","Longitude":"-90.34390","Snowdepth":"13.000","Units":"in","Rept_Date":"2020-02-21 14"},"coordinates":[1618,6087]},{"type":"Point","properties":{"Station_ID":"ME-AN-41","Station_Nam":"AUBURN 2.1 NNW, ME","Latitude":"44.11275","Longitude":"-70.26452","Snowdepth":"13.000","Units":"in","Rept_Date":"2020-02-21 12"},"coordinates":[6331,5483]},