{"type":"Topology","objects":{"snowdepth_geo":{"type":"GeometryCollection","name":"snowdepth","crs":{"type":"name","properties":{"name":"urn:ogc:def:crs:OGC:1.3:CRS84"}},"geometries":[{"type":"Point","properties":{"Station_ID":"PRKM4","Station_Nam":"MUNISING EAST","Latitude":"46.42580","Longitude":"-86.62000","Snowdepth":"76.500","Units":"in","Rept_Date":"2021-02-01 06"},"coordinates":[2429,6786]},{"type":"Point","properties":{"Station_ID":"MI-IH-47","Station_Nam":"EDGEMONT PARK 0.7 NNE, MI","Latitude":"42.75557","Longitude":"-84.58680","Snowdepth":"60.000","Units":"in","Rept_Date":"2021-01-31 12"},"coordinates":[2894,4562]},{"type":"Point","properties":{"Station_ID":"MMNV1","Station_Nam":"MT. MANSFIELD","Latitude":"44.52480","Longitude":"-72.81540","Snowdepth":"36.000","Units":"in","Rept_Date":"2021-01-31 21"},"coordinates":[5586,5634]},{"type":"Point","properties":{"Station_ID":"HTLN3","Station_Nam":"HERMIT LAKE SNOWPLOT","Latitude":"44.26130","Longitude":"-71.28330","Snowdepth":"35.000","Units":"in","Rept_Date":"2021-01-31 10"},"coordinates":[5936,5474]},{"type":"Point","properties":{"Station_ID":"RDFN6","Station_Nam":"REDFIELD 8N","Latitude":"43.64130","Longitude":"-75.88400","Snowdepth":"33.000","Units":"in","Rept_Date":"2021-01-31 12"},"coordinates":[4884,5099]},{"type":"Point","properties":{"Station_ID":"HGHN6","Station_Nam":"HIGHMARKET","Latitude":"43.60510","Longitude":"-75.55430","Snowdepth":"32.000","Units":"in","Rept_Date":"2021-01-31 11"},"coordinates":[4959,5077]},{"type":"Point","properties":{"Station_ID":"HLSN3","Station_Nam":"HERMIT LAKE SNOTEL","Latitude":"44.26130","Longitude":"-71.28320","Snowdepth":"30.310","Units":"in","Rept_Date":"2021-02-01 06"},"coordinates":[5936,5474]},{"type":"Point","properties":{"Station_ID":"VT-WR-17","Station_Nam":"ROCHESTER 2.3 NE, VT","Latitude":"43.89418","Longitude":"-72.76992","Snowdepth":"26.000","Units":"in","Rept_Date":"2021-01-31 12"},"coordinates":[5596,5252]},{"type":"Point","properties":{"Station_ID":"PDLM4","Station_Nam":"PAINESDALE","Latitude":"47.04160","Longitude":"-88.67170","Snowdepth":"26.000","Units":"in","Rept_Date":"2021-01-31 13"},"coordinates":[1959,7159]},{"type":"Point","properties":{"Station_ID":"WI-MW-14","Station_Nam":"MILWAUKEE 3.6 NNW, WI","Latitude":"43.11300","Longitude":"-87.98730","Snowdepth":"25.000","Units":"in","Rept_Date":"2021-01-31 13"},"coordinates":[2116,4779]},{"type":"Point","properties":{"Station_ID":"PTLQ6","Station_Nam":"PORTAGE LAKE","Latitude":"49.06950","Longitude":"-86.65940","Snowdepth":"23.500","Units":"in","Rept_Date":"2021-02-01 06"},"coordinates":[2420,8388]},{"type":"Point","properties":{"Station_ID":"TRIQ6","Station_Nam":"TRIO LAKE","Latitude":"49.22880","Longitude":"-87.22920","Snowdepth":"23.270","Units":"in","Rept_Date":"2021-02-01 06"},"coordinates":[2289,8485]},{"type":"Point","properties":{"Station_ID":"WLFM5","Station_Nam":"WOLF RIDGE ENVIRON LEARNING CENTER","Latitude":"47.38240","Longitude":"-91.19730","Snowdepth":"23.000","Units":"in","Rept_Date":"2021-01-31 13"},"coordinates":[1382,7366]},{"type":"Point","properties":{"Station_ID":"NH-CS-10","Station_Nam":"RANDOLPH 1.4 NE, NH","Latitude":"44.38824","Longitude":"-71.26950","Snowdepth":"22.500","Units":"in","Rept_Date":"2021-01-31 12"},"coordinates":[5939,5551]},{"type":"Point","properties":{"Station_ID":"QLB","Station_Nam":"QLB","Latitude":"50.72360","Longitude":"-75.10000","Snowdepth":"22.362","Units":"in","Rept_Date":"2021-01-31 12"},"coordinates":[5063,9391]},{"type":"Point","properties":{"Station_ID":"QGO","Station_Nam":"QGO","Latitude":"48.85500","Longitude":"-74.20640","Snowdepth":"22.087","Units":"in","Rept_Date":"2021-01-31 12"},"coordinates":[5268,8258]},{"type":"Point","properties":{"Station_ID":"VT-BN-12","Station_Nam":"STAMFORD 5.0 NNE, VT","Latitude":"42.82000","Longitude":"-73.02000","Snowdepth":"22.000","Units":"in","Rept_Date":"2021-01-31 21"},"coordinates":[5539,4601]},{"type":"Point","properties":{"Station_ID":"PERV1","Station_Nam":"PERU","Latitude":"43.26670","Longitude":"-72.90000","Snowdepth":"22.000","Units":"in","Rept_Date":"2021-01-31 12"},"coordinates":[5566,4872]},{"type":"Point","properties":{"Station_ID":"NGLW3","Station_Nam":"NEW GLARUS","Latitude":"42.83500","Longitude":"-89.62080","Snowdepth":"22.000","Units":"in","Rept_Date":"2021-01-31 13"},"coordinates":[1742,4610]},{"type":"Point","properties":{"Station_ID":"LBKV1","Station_Nam":"LYE BROOK","Latitude":"43.05000","Longitude":"-73.03330","Snowdepth":"22.000","Units":"in","Rept_Date":"2021-02-01 05"},"coordinates":[5536,4740]},{"type":"Point","properties":{"Station_ID":"KSGM4","Station_Nam":"KEARSARGE","Latitude":"47.27520","Longitude":"-88.41700","Snowdepth":"22.000","Units":"in","Rept_Date":"2021-01-31 13"},"coordinates":[2018,7301]},{"type":"Point","properties":{"Station_ID":"GMSM4","Station_Nam":"GRAND MARAIS 10S","Latitude":"46.50940","Longitude":"-85.96310","Snowdepth":"22.000","Units":"in","Rept_Date":"2021-01-31 12"},"coordinates":[2579,6837]},{"type":"Point","properties":{"Station_ID":"AUDQ6","Station_Nam":"AUDEN","Latitude":"48.52600","Longitude":"-82.57570","Snowdepth":"21.610","Units":"in","Rept_Date":"2021-02-01 06"},"coordinates":[3354,8059]},{"type":"Point","properties":{"Station_ID":"NY-HR-18","Station_Nam":"SALISBURY CENTER 1.8 NW, NY","Latitude":"43.16260","Longitude":"-74.80880","Snowdepth":"21.500","Units":"in","Rept_Date":"2021-01-31 12"},"coordinates":[5130,4809]},{"type":"Point","properties":{"Station_ID":"DVLQ6","Station_Nam":"DEVIOUS LAKE","Latitude":"49.19890","Longitude":"-87.76440","Snowdepth":"21.460","Units":"in","Rept_Date":"2021-02-01 06"},"coordinates":[2167,8467]},{"type":"Point","properties":{"Station_ID":"MONW3","Station_Nam":"MONROE,WI","Latitude":"42.60000","Longitude":"-89.66670","Snowdepth":"21.000","Units":"in","Rept_Date":"2021-01-31 13"},"coordinates":[1732,4468]},{"type":"Point","properties":{"Station_ID":"QCO","Station_Nam":"QCO","Latitude":"51.45280","Longitude":"-72.20110","Snowdepth":"20.433","Units":"in","Rept_Date":"2021-01-31 12"},"coordinates":[5726,9833]},{"type":"Point","properties":{"Station_ID":"ROWM3","Station_Nam":"ROWE 3NE","Latitude":"42.73500","Longitude":"-72.86920","Snowdepth":"20.000","Units":"in","Rept_Date":"2021-01-31 12"},"coordinates":[5574,4549]},{"type":"Point","properties":{"Station_ID":"OCON6","Station_Nam":"OSCEOLA","Latitude":"43.50370","Longitude":"-75.72170","Snowdepth":"20.000","Units":"in","Rept_Date":"2021-01-31 13"},"coordinates":[4921,5015]},{"type":"Point","properties":{"Station_ID":"GFDN6","Station_Nam":"CHASES LAKE","Latitude":"43.75920","Longitude":"-75.29980","Snowdepth":"20.000","Units":"in","Rept_Date":"2021-01-31 11"},"coordinates":[5018,5170]},{"type":"Point","properties":{"Station_ID":"DARW3","Station_Nam":"DARLINGTON","Latitude":"42.67780","Longitude":"-90.11860","Snowdepth":"20.000","Units":"in","Rept_Date":"2021-01-31 15"},"coordinates":[1628,4515]},{"type":"Point","properties":{"Station_ID":"CAN-ON-245","Station_Nam":"PHELPSTON 3.1 ESE, CAN","Latitude":"44.50564","Longitude":"-79.81035","Snowdepth":"20.000","Units":"in","Rept_Date":"2021-01-31 13"},"coordinates":[3986,5623]},{"type":"Point","properties":{"Station_ID":"NY-LW-12","Station_Nam":"CHASES LAKE COOP, NY","Latitude":"43.75924","Longitude":"-75.29982","Snowdepth":"19.500","Units":"in","Rept_Date":"2021-01-31 11"},"coordinates":[5018,5170]},{"type":"Point","properties":{"Station_ID":"SOCQ6","Station_Nam":"SOCKET LAKE","Latitude":"50.77870","Longitude":"-91.79300","Snowdepth":"19.170","Units":"in","Rept_Date":"2021-02-01 06"},"coordinates":[1245,9424]},{"type":"Point","properties":{"Station_ID":"WI-MW-46","Station_Nam":"WAUWATOSA 1.9 E, WI","Latitude":"43.05863","Longitude":"-87.99600","Snowdepth":"19.000","Units":"in","Rept_Date":"2021-01-31 13"},"coordinates":[2114,4746]},{"type":"Point","properties":{"Station_ID":"VT-BN-3","Station_Nam":"LANDGROVE 1.1 NNE, VT","Latitude":"43.29092","Longitude":"-72.83260","Snowdepth":"19.000","Units":"in","Rept_Date":"2021-01-31 12"},"coordinates":[5582,4886]},{"type":"Point","properties":{"Station_ID":"TWOM5","Station_Nam":"TWO HARBORS,MN","Latitude":"47.12580","Longitude":"-91.70750","Snowdepth":"19.000","Units":"in","Rept_Date":"2021-02-01 01"},"coordinates":[1265,7211]},{"type":"Point","properties":{"Station_ID":"NY-HM-1","Station_Nam":"SPECULATOR 10.0 SSW, NY","Latitude":"43.45133","Longitude":"-74.47120","Snowdepth":"19.000","Units":"in","Rept_Date":"2021-01-31 12"},"coordinates":[5207,4984]},{"type":"Point","properties":{"Station_ID":"IL-SP-27","Station_Nam":"DAVIS 2.7 N, IL","Latitude":"42.46110","Longitude":"-89.40890","Snowdepth":"19.000","Units":"in","Rept_Date":"2021-01-31 13"},"coordinates":[1791,4383]},{"type":"Point","properties":{"Station_ID":"QTM","Station_Nam":"QTM","Latitude":"51.05780","Longitude":"-72.57190","Snowdepth":"18.386","Units":"in","Rept_Date":"2021-01-31 12"},"coordinates":[5642,9593]},{"type":"Point","properties":{"Station_ID":"QOU","Station_Nam":"QOU","Latitude":"50.79250","Longitude":"-69.67470","Snowdepth":"18.307","Units":"in","Rept_Date":"2021-01-31 12"},"coordinates":[6304,9433]},{"type":"Point","properties":{"Station_ID":"QNCM4","Station_Nam":"QUINCY HILL","Latitude":"47.13640","Longitude":"-88.57950","Snowdepth":"18.000","Units":"in","Rept_Date":"2021-01-31 12"},"coordinates":[1980,7217]},{"type":"Point","properties":{"Station_ID":"MWN","Station_Nam":"MOUNT WASHINGTON","Latitude":"44.26670","Longitude":"-71.30000","Snowdepth":"18.000","Units":"in","Rept_Date":"2021-01-31 12"},"coordinates":[5932,5478]},{"type":"Point","properties":{"Station_ID":"MI-HG-20","Station_Nam":"CALUMET 1.1 SSW, MI","Latitude":"47.23165","Longitude":"-88.45823","Snowdepth":"18.000","Units":"in","Rept_Date":"2021-01-31 11"},"coordinates":[2008,7275]},{"type":"Point","properties":{"Station_ID":"KMWN","Station_Nam":"MOUNT WASHINGTON","Latitude":"44.26666","Longitude":"-71.30000","Snowdepth":"18.000","Units":"in","Rept_Date":"2021-02-01 06"},"coordinates":[5932,5478]},{"type":"Point","properties":{"Station_ID":"HURW3","Station_Nam":"HURLEY","Latitude":"46.46250","Longitude":"-90.19550","Snowdepth":"18.000","Units":"in","Rept_Date":"2021-01-31 14"},"coordinates":[1611,6809]},{"type":"Point","properties":{"Station_ID":"BOON6","Station_Nam":"BOONVILLE 4 SSW","Latitude":"43.43610","Longitude":"-75.36970","Snowdepth":"18.000","Units":"in","Rept_Date":"2021-01-31 12"},"coordinates":[5002,4974]},{"type":"Point","properties":{"Station_ID":"SVBQ6","Station_Nam":"SAVANT BASE","Latitude":"50.28730","Longitude":"-90.65670","Snowdepth":"17.720","Units":"in","Rept_Date":"2021-02-01 06"},"coordinates":[1505,9127]},{"type":"Point","properties":{"Station_ID":"WI-KN-16","Station_Nam":"SALEM 0.9 ESE, WI","Latitude":"42.55160","Longitude":"-88.09374","Snowdepth":"17.000","Units":"in","Rept_Date":"2021-01-31 16"},"coordinates":[2092,4438]},{"type":"Point","properties":{"Station_ID":"WI-DA-35","Station_Nam":"MADISON 5.5 N, WI","Latitude":"43.15858","Longitude":"-89.37280","Snowdepth":"17.000","Units":"in","Rept_Date":"2021-01-31 14"},"coordinates":[1799,4806]},{"type":"Point","properties":{"Station_ID":"UGRW3","Station_Nam":"UNION GROVE,WI","Latitude":"42.70000","Longitude":"-88.03220","Snowdepth":"17.000","Units":"in","Rept_Date":"2021-01-31 14"},"coordinates":[2106,4528]},{"type":"Point","properties":{"Station_ID":"SPTI4","Station_Nam":"STRAWBERRY POINT","Latitude":"42.68530","Longitude":"-91.53300","Snowdepth":"17.000","Units":"in","Rept_Date":"2021-01-31 13"},"coordinates":[1305,4519]},{"type":"Point","properties":{"Station_ID":"KENW3","Station_Nam":"WATER POLLUTION CONTROL PLANT","Latitude":"42.55000","Longitude":"-87.81420","Snowdepth":"17.000","Units":"in","Rept_Date":"2021-02-01 06"},"coordinates":[2155,4437]},{"type":"Point","properties":{"Station_ID":"IWOM4","Station_Nam":"IRONWOOD#2","Latitude":"46.46520","Longitude":"-90.13820","Snowdepth":"17.000","Units":"in","Rept_Date":"2021-01-31 13"},"coordinates":[1624,6810]},{"type":"Point","properties":{"Station_ID":"IL-SP-7","Station_Nam":"DAVIS 0.5 N, IL","Latitude":"42.42919","Longitude":"-89.41730","Snowdepth":"17.000","Units":"in","Rept_Date":"2021-01-31 15"},"coordinates":[1789,4364]},{"type":"Point","properties":{"Station_ID":"IL-BN-19","Station_Nam":"BELVIDERE 5.0 NNW, IL","Latitude":"42.32071","Longitude":"-88.88282","Snowdepth":"17.000","Units":"in","Rept_Date":"2021-01-31 13"},"coordinates":[1911,4298]},{"type":"Point","properties":{"Station_ID":"GNLM4","Station_Nam":"GREENLAND 6N","Latitude":"46.87360","Longitude":"-89.10060","Snowdepth":"17.000","Units":"in","Rept_Date":"2021-01-31 13"},"coordinates":[1861,7058]},{"type":"Point","properties":{"Station_ID":"DEKI2","Station_Nam":"SOUTH BRANCH KISHWAUKEE RIVER AT DEKALB","Latitude":"41.93110","Longitude":"-88.75970","Snowdepth":"17.000","Units":"in","Rept_Date":"2021-01-31 13"},"coordinates":[1939,4062]},{"type":"Point","properties":{"Station_ID":"BERM4","Station_Nam":"BERGLAND DAM","Latitude":"46.58690","Longitude":"-89.54750","Snowdepth":"17.000","Units":"in","Rept_Date":"2021-01-31 13"},"coordinates":[1759,6884]},{"type":"Point","properties":{"Station_ID":"NY-OD-2","Station_Nam":"POINT ROCK 0.6 SE, NY","Latitude":"43.37335","Longitude":"-75.53840","Snowdepth":"16.500","Units":"in","Rept_Date":"2021-01-31 13"},"coordinates":[4963,4936]},{"type":"Point","properties":{"Station_ID":"NY-HM-10","Station_Nam":"LAKE PLEASANT 2.3 WSW, NY","Latitude":"43.45490","Longitude":"-74.45287","Snowdepth":"16.500","Units":"in","Rept_Date":"2021-01-31 12"},"coordinates":[5211,4986]},{"type":"Point","properties":{"Station_ID":"NY-ER-65","Station_Nam":"BOSTON 1.5 NE, NY","Latitude":"42.65470","Longitude":"-78.72010","Snowdepth":"16.500","Units":"in","Rept_Date":"2021-01-31 12"},"coordinates":[4235,4501]},{"type":"Point","properties":{"Station_ID":"NY-ER-166","Station_Nam":"BOSTON 2.5 NE, NY","Latitude":"42.65480","Longitude":"-78.70300","Snowdepth":"16.500","Units":"in","Rept_Date":"2021-01-31 12"},"coordinates":[4239,4501]},{"type":"Point","properties":{"Station_ID":"WI-WK-74","Station_Nam":"BROOKFIELD 2.8 SSW, WI","Latitude":"43.02390","Longitude":"-88.13760","Snowdepth":"16.100","Units":"in","Rept_Date":"2021-01-31 15"},"coordinates":[2081,4725]},{"type":"Point","properties":{"Station_ID":"IL-CK-288","Station_Nam":"ROSELLE 0.8 N, IL","Latitude":"41.99255","Longitude":"-88.08422","Snowdepth":"16.100","Units":"in","Rept_Date":"2021-01-31 13"},"coordinates":[2094,4099]},{"type":"Point","properties":{"Station_ID":"OGIQ6","Station_Nam":"OGOKI CAMP","Latitude":"50.76680","Longitude":"-87.85820","Snowdepth":"16.020","Units":"in","Rept_Date":"2021-02-01 06"},"coordinates":[2145,9417]},{"type":"Point","properties":{"Station_ID":"WSFW3","Station_Nam":"TOWN OF WESTFORD","Latitude":"43.47190","Longitude":"-88.88250","Snowdepth":"16.000","Units":"in","Rept_Date":"2021-01-31 13"},"coordinates":[1911,4996]},{"type":"Point","properties":{"Station_ID":"WRSN6","Station_Nam":"WARSAW 6SW","Latitude":"42.68550","Longitude":"-78.22020","Snowdepth":"16.000","Units":"in","Rept_Date":"2021-01-31 12"},"coordinates":[4350,4519]},{"type":"Point","properties":{"Station_ID":"WI-WK-34","Station_Nam":"MUKWONAGO 5.3 W, WI","Latitude":"42.85380","Longitude":"-88.43550","Snowdepth":"16.000","Units":"in","Rept_Date":"2021-01-31 13"},"coordinates":[2013,4621]},{"type":"Point","properties":{"Station_ID":"WI-MW-43","Station_Nam":"BROWN DEER 0.8 NW, WI","Latitude":"43.18438","Longitude":"-87.98401","Snowdepth":"16.000","Units":"in","Rept_Date":"2021-01-31 13"},"coordinates":[2117,4822]},{"type":"Point","properties":{"Station_ID":"WI-IW-3","Station_Nam":"MINERAL POINT 7.3 ENE, WI","Latitude":"42.91400","Longitude":"-90.05700","Snowdepth":"16.000","Units":"in","Rept_Date":"2021-01-31 13"},"coordinates":[1643,4658]},{"type":"Point","properties":{"Station_ID":"WI-DD-16","Station_Nam":"BEAVER DAM 2.4 WNW, WI","Latitude":"43.47210","Longitude":"-88.88280","Snowdepth":"16.000","Units":"in","Rept_Date":"2021-01-31 13"},"coordinates":[1911,4996]},{"type":"Point","properties":{"Station_ID":"VT-WS-33","Station_Nam":"WAITSFIELD 3.5 WNW, VT","Latitude":"44.20052","Longitude":"-72.89421","Snowdepth":"16.000","Units":"in","Rept_Date":"2021-01-31 13"},"coordinates":[5568,5438]},{"type":"Point","properties":{"Station_ID":"VT-WR-2","Station_Nam":"POMFRET 2.6 N, VT","Latitude":"43.74230","Longitude":"-72.52550","Snowdepth":"16.000","Units":"in","Rept_Date":"2021-01-31 12"},"coordinates":[5652,5160]},{"type":"Point","properties":{"Station_ID":"TOPN6","Station_Nam":"TUPPER LAKE SUNMOUNT","Latitude":"44.23070","Longitude":"-74.43820","Snowdepth":"16.000","Units":"in","Rept_Date":"2021-01-31 12"},"coordinates":[5215,5456]},{"type":"Point","properties":{"Station_ID":"STOI2","Station_Nam":"STOCKTON 3 NNE","Latitude":"42.40050","Longitude":"-89.99580","Snowdepth":"16.000","Units":"in","Rept_Date":"2021-02-01 03"},"coordinates":[1657,4347]},{"type":"Point","properties":{"Station_ID":"PTBN3","Station_Nam":"PITTSBURG RESERVOIR","Latitude":"45.04690","Longitude":"-71.38300","Snowdepth":"16.000","Units":"in","Rept_Date":"2021-01-31 12"},"coordinates":[5913,5951]},{"type":"Point","properties":{"Station_ID":"NY-ER-56","Station_Nam":"COLDEN 1.4 NNW, NY","Latitude":"42.64740","Longitude":"-78.71120","Snowdepth":"16.000","Units":"in","Rept_Date":"2021-01-31 12"},"coordinates":[4237,4496]},{"type":"Point","properties":{"Station_ID":"MWOW3","Station_Nam":"MUKWONAGO","Latitude":"42.85380","Longitude":"-88.43550","Snowdepth":"16.000","Units":"in","Rept_Date":"2021-01-31 13"},"coordinates":[2013,4621]},{"type":"Point","properties":{"Station_ID":"MNSM4","Station_Nam":"MUNISING","Latitude":"46.41210","Longitude":"-86.66250","Snowdepth":"16.000","Units":"in","Rept_Date":"2021-01-31 11"},"coordinates":[2419,6778]},{"type":"Point","properties":{"Station_ID":"MN-SL-108","Station_Nam":"IRON JUNCTION 3.4 NNW, MN","Latitude":"47.46150","Longitude":"-92.63130","Snowdepth":"16.000","Units":"in","Rept_Date":"2021-01-31 11"},"coordinates":[1054,7414]},{"type":"Point","properties":{"Station_ID":"MKE","Station_Nam":"GEN MITCHELL INTL AIRPORT","Latitude":"42.94720","Longitude":"-87.89670","Snowdepth":"16.000","Units":"in","Rept_Date":"2021-02-01 00"},"coordinates":[2137,4678]},{"type":"Point","properties":{"Station_ID":"LPLN6","Station_Nam":"LAKE PLACID 2 S","Latitude":"44.30420","Longitude":"-73.98390","Snowdepth":"16.000","Units":"in","Rept_Date":"2021-01-31 13"},"coordinates":[5319,5500]},{"type":"Point","properties":{"Station_ID":"IL-DP-155","Station_Nam":"MEDINAH 1.0 SSW, IL","Latitude":"41.96360","Longitude":"-88.06590","Snowdepth":"16.000","Units":"in","Rept_Date":"2021-01-31 14"},"coordinates":[2098,4082]},{"type":"Point","properties":{"Station_ID":"HERM4","Station_Nam":"HERMAN,MI","Latitude":"46.65000","Longitude":"-88.33330","Snowdepth":"16.000","Units":"in","Rept_Date":"2021-01-31 13"},"coordinates":[2037,6922]},{"type":"Point","properties":{"Station_ID":"GATW3","Station_Nam":"GRAFTON WWTP","Latitude":"43.30810","Longitude":"-87.95530","Snowdepth":"16.000","Units":"in","Rept_Date":"2021-01-31 17"},"coordinates":[2123,4897]},{"type":"Point","properties":{"Station_ID":"CODN6","Station_Nam":"COLDEN","Latitude":"42.64720","Longitude":"-78.71110","Snowdepth":"16.000","Units":"in","Rept_Date":"2021-01-31 12"},"coordinates":[4237,4496]},{"type":"Point","properties":{"Station_ID":"BLTW3","Station_Nam":"BELOIT,WI","Latitude":"42.50000","Longitude":"-89.03330","Snowdepth":"16.000","Units":"in","Rept_Date":"2021-01-31 13"},"coordinates":[1877,4407]},{"type":"Point","properties":{"Station_ID":"AVLV1","Station_Nam":"AVERILL","Latitude":"45.00570","Longitude":"-71.69030","Snowdepth":"16.000","Units":"in","Rept_Date":"2021-01-31 13"},"coordinates":[5843,5926]},{"type":"Point","properties":{"Station_ID":"CAN-MB-368","Station_Nam":"WHITESHELL 1.3 NE, CAN","Latitude":"49.74405","Longitude":"-95.19123","Snowdepth":"15.600","Units":"in","Rept_Date":"2021-01-31 14"},"coordinates":[468,8797]},{"type":"Point","properties":{"Station_ID":"WI-RK-12","Station_Nam":"JANESVILLE 3.1 W, WI","Latitude":"42.67576","Longitude":"-89.07614","Snowdepth":"15.500","Units":"in","Rept_Date":"2021-01-31 13"},"coordinates":[1867,4514]},{"type":"Point","properties":{"Station_ID":"ME-FR-2","Station_Nam":"TEMPLE 1.8 W, ME","Latitude":"44.68329","Longitude":"-70.26420","Snowdepth":"15.500","Units":"in","Rept_Date":"2021-01-31 12"},"coordinates":[6169,5730]},{"type":"Point","properties":{"Station_ID":"CAN-QC-51","Station_Nam":"BELOEIL 0.7 NW, CAN","Latitude":"45.58049","Longitude":"-73.21218","Snowdepth":"15.400","Units":"in","Rept_Date":"2021-01-31 12"},"coordinates":[5495,6274]},{"type":"Point","properties":{"Station_ID":"QWE","Station_Nam":"QWE","Latitude":"47.84610","Longitude":"-73.80670","Snowdepth":"15.354","Units":"in","Rept_Date":"2021-01-31 12"},"coordinates":[5359,7647]},{"type":"Point","properties":{"Station_ID":"WI-RK-6","Station_Nam":"EVANSVILLE 0.4 E, WI","Latitude":"42.77913","Longitude":"-89.29020","Snowdepth":"15.100","Units":"in","Rept_Date":"2021-01-31 12"},"coordinates":[1818,4576]},{"type":"Point","properties":{"Station_ID":"WTBW3","Station_Nam":"WEST BEND PUBLIC WORKS","Latitude":"43.41110","Longitude":"-88.19380","Snowdepth":"15.000","Units":"in","Rept_Date":"2021-01-31 13"},"coordinates":[2069,4959]},{"type":"Point","properties":{"Station_ID":"WODI2","Station_Nam":"WOODSTOCK","Latitude":"42.36280","Longitude":"-88.53140","Snowdepth":"15.000","Units":"in","Rept_Date":"2021-01-31 13"},"coordinates":[1991,4324]},{"type":"Point","properties":{"Station_ID":"WNDP1","Station_Nam":"WINDBER COUNTY CLUB","Latitude":"40.28780","Longitude":"-78.77530","Snowdepth":"15.000","Units":"in","Rept_Date":"2021-01-31 12"},"coordinates":[4223,3066]},{"type":"Point","properties":{"Station_ID":"WI-SB-10","Station_Nam":"RANDOM LAKE 0.5 SSE, WI","Latitude":"43.54812","Longitude":"-87.95050","Snowdepth":"15.000","Units":"in","Rept_Date":"2021-01-31 14"},"coordinates":[2124,5042]},{"type":"Point","properties":{"Station_ID":"WI-MW-18","Station_Nam":"WEST ALLIS 0.7 SSE, WI","Latitude":"42.99802","Longitude":"-88.02380","Snowdepth":"15.000","Units":"in","Rept_Date":"2021-01-31 14"},"coordinates":[2108,4709]},{"type":"Point","properties":{"Station_ID":"WI-DA-99","Station_Nam":"FITCHBURG 1.1 NW, WI","Latitude":"42.99740","Longitude":"-89.44046","Snowdepth":"15.000","Units":"in","Rept_Date":"2021-01-31 13"},"coordinates":[1784,4708]},{"type":"Point","properties":{"Station_ID":"WI-DA-45","Station_Nam":"MADISON 6.1 W, WI","Latitude":"43.06948","Longitude":"-89.50788","Snowdepth":"15.000","Units":"in","Rept_Date":"2021-01-31 13"},"coordinates":[1768,4752]},{"type":"Point","properties":{"Station_ID":"VT-WH-19","Station_Nam":"EAST DOVER 1.8 N, VT","Latitude":"42.97658","Longitude":"-72.77637","Snowdepth":"15.000","Units":"in","Rept_Date":"2021-01-31 13"},"coordinates":[5595,4696]},{"type":"Point","properties":{"Station_ID":"VT-OL-1","Station_Nam":"WESTFIELD 0.7 WNW, VT","Latitude":"44.89160","Longitude":"-72.44350","Snowdepth":"15.000","Units":"in","Rept_Date":"2021-01-31 12"},"coordinates":[5671,5856]},{"type":"Point","properties":{"Station_ID":"SGVN6","Station_Nam":"SPRINGVILLE","Latitude":"42.54970","Longitude":"-78.57670","Snowdepth":"15.000","Units":"in","Rept_Date":"2021-01-31 23"},"coordinates":[4268,4437]},{"type":"Point","properties":{"Station_ID":"RCHW3","Station_Nam":"RICHRIELD,WI","Latitude":"43.21080","Longitude":"-88.20940","Snowdepth":"15.000","Units":"in","Rept_Date":"2021-01-31 12"},"coordinates":[2065,4838]},{"type":"Point","properties":{"Station_ID":"RANM1","Station_Nam":"RANGELEY","Latitude":"44.98910","Longitude":"-70.67190","Snowdepth":"15.000","Units":"in","Rept_Date":"2021-01-31 14"},"coordinates":[6076,5916]},{"type":"Point","properties":{"Station_ID":"PEKN6","Station_Nam":"PECK LAKE","Latitude":"43.11500","Longitude":"-74.42360","Snowdepth":"15.000","Units":"in","Rept_Date":"2021-01-31 12"},"coordinates":[5218,4780]},{"type":"Point","properties":{"Station_ID":"NY-SR-22","Station_Nam":"GREENFIELD CENTER 1.6 W, NY","Latitude":"43.12684","Longitude":"-73.87860","Snowdepth":"15.000","Units":"in","Rept_Date":"2021-01-31 12"},"coordinates":[5343,4787]},{"type":"Point","properties":{"Station_ID":"NY-FK-9","Station_Nam":"GABRIELS 1.3 SE, NY","Latitude":"44.41934","Longitude":"-74.16194","Snowdepth":"15.000","Units":"in","Rept_Date":"2021-01-31 12"},"coordinates":[5278,5570]},{"type":"Point","properties":{"Station_ID":"NY-ES-6","Station_Nam":"OLMSTEDVILLE 4.6 NNE, NY","Latitude":"43.83350","Longitude":"-73.89780","Snowdepth":"15.000","Units":"in","Rept_Date":"2021-01-31 13"},"coordinates":[5338,5215]},{"type":"Point","properties":{"Station_ID":"NY-ER-194","Station_Nam":"GLENWOOD 1.0 SE, NY","Latitude":"42.60740","Longitude":"-78.64610","Snowdepth":"15.000","Units":"in","Rept_Date":"2021-01-31 12"},"coordinates":[4252,4472]},{"type":"Point","properties":{"Station_ID":"MRBW3","Station_Nam":"MT HOREB","Latitude":"42.98030","Longitude":"-89.73940","Snowdepth":"15.000","Units":"in","Rept_Date":"2021-01-31 13"},"coordinates":[1715,4698]},{"type":"Point","properties":{"Station_ID":"MQT","Station_Nam":"MARQUETTE, MI","Latitude":"46.53140","Longitude":"-87.54920","Snowdepth":"15.000","Units":"in","Rept_Date":"2021-02-01 06"},"coordinates":[2216,6850]},{"type":"Point","properties":{"Station_ID":"MN-SL-105","Station_Nam":"DULUTH 11.8 NNE, MN","Latitude":"46.94680","Longitude":"-92.03925","Snowdepth":"15.000","Units":"in","Rept_Date":"2021-01-31 14"},"coordinates":[1189,7102]},{"type":"Point","properties":{"Station_ID":"MDWI2","Station_Nam":"BURBANK,IL","Latitude":"41.73330","Longitude":"-87.76670","Snowdepth":"15.000","Units":"in","Rept_Date":"2021-02-01 06"},"coordinates":[2166,3942]},{"type":"Point","properties":{"Station_ID":"KORD","Station_Nam":"CHICAGO OHARE INTERNATIONAL","Latitude":"41.98333","Longitude":"-87.91666","Snowdepth":"15.000","Units":"in","Rept_Date":"2021-02-01 06"},"coordinates":[2132,4094]},{"type":"Point","properties":{"Station_ID":"KABM5","Station_Nam":"KABETOGAMA LAKE VISITOR CTR","Latitude":"48.40880","Longitude":"-93.04840","Snowdepth":"15.000","Units":"in","Rept_Date":"2021-01-31 13"},"coordinates":[958,7988]},{"type":"Point","properties":{"Station_ID":"JEFV1","Station_Nam":"JEFFERSONVILLE","Latitude":"44.58430","Longitude":"-72.78700","Snowdepth":"15.000","Units":"in","Rept_Date":"2021-01-31 12"},"coordinates":[5592,5670]},{"type":"Point","properties":{"Station_ID":"IL-MCH-13","Station_Nam":"BULL VALLEY 2.5 WNW, IL","Latitude":"42.32455","Longitude":"-88.39460","Snowdepth":"15.000","Units":"in","Rept_Date":"2021-01-31 14"},"coordinates":[2023,4301]},{"type":"Point","properties":{"Station_ID":"IL-JD-8","Station_Nam":"STOCKTON 3.4 NNE, IL","Latitude":"42.39960","Longitude":"-89.99020","Snowdepth":"15.000","Units":"in","Rept_Date":"2021-01-31 13"},"coordinates":[1658,4346]},{"type":"Point","properties":{"Station_ID":"IL-DP-87","Station_Nam":"ROSELLE 1.2 ESE, IL","Latitude":"41.97664","Longitude":"-88.05980","Snowdepth":"15.000","Units":"in","Rept_Date":"2021-01-31 16"},"coordinates":[2099,4090]},{"type":"Point","properties":{"Station_ID":"GTTI4","Station_Nam":"LOCK & DAM 10","Latitude":"42.78580","Longitude":"-91.09970","Snowdepth":"15.000","Units":"in","Rept_Date":"2021-01-31 14"},"coordinates":[1404,4580]},{"type":"Point","properties":{"Station_ID":"EHYM3","Station_Nam":"EAST HAWLEY","Latitude":"42.57410","Longitude":"-72.86790","Snowdepth":"15.000","Units":"in","Rept_Date":"2021-01-31 13"},"coordinates":[5574,4452]},{"type":"Point","properties":{"Station_ID":"CLIW3","Station_Nam":"CLINTON,WI","Latitude":"42.60000","Longitude":"-88.88330","Snowdepth":"15.000","Units":"in","Rept_Date":"2021-01-31 13"},"coordinates":[1911,4468]},{"type":"Point","properties":{"Station_ID":"BEAW3","Station_Nam":"BEAVER DAM,WI","Latitude":"43.45000","Longitude":"-88.85000","Snowdepth":"15.000","Units":"in","Rept_Date":"2021-01-31 15"},"coordinates":[1919,4983]},{"type":"Point","properties":{"Station_ID":"KABQ6","Station_Nam":"CAB LAKE","Latitude":"49.59950","Longitude":"-89.17990","Snowdepth":"14.920","Units":"in","Rept_Date":"2021-02-01 06"},"coordinates":[1843,8710]},{"type":"Point","properties":{"Station_ID":"WI-DA-87","Station_Nam":"DUNKIRK 0.1 NW, WI","Latitude":"42.88356","Longitude":"-89.21056","Snowdepth":"14.600","Units":"in","Rept_Date":"2021-01-31 12"},"coordinates":[1836,4639]},{"type":"Point","properties":{"Station_ID":"MLZ","Station_Nam":"MLZ","Latitude":"50.66170","Longitude":"-68.82360","Snowdepth":"14.567","Units":"in","Rept_Date":"2021-01-31 12"},"coordinates":[6499,9353]},{"type":"Point","properties":{"Station_ID":"WI-OZ-17","Station_Nam":"WEST BEND 7.3 E, WI","Latitude":"43.42860","Longitude":"-88.03870","Snowdepth":"14.500","Units":"in","Rept_Date":"2021-01-31 13"},"coordinates":[2104,4970]},{"type":"Point","properties":{"Station_ID":"WI-OZ-12","Station_Nam":"PORT WASHINGTON 0.5 S, WI","Latitude":"43.38610","Longitude":"-87.87900","Snowdepth":"14.500","Units":"in","Rept_Date":"2021-01-31 13"},"coordinates":[2141,4944]},{"type":"Point","properties":{"Station_ID":"IL-CR-12","Station_Nam":"MOUNT CARROLL 6.8 NNW, IL","Latitude":"42.18735","Longitude":"-90.02185","Snowdepth":"14.500","Units":"in","Rept_Date":"2021-01-31 13"},"coordinates":[1651,4218]},{"type":"Point","properties":{"Station_ID":"QMD","Station_Nam":"QMD","Latitude":"49.29060","Longitude":"-75.84500","Snowdepth":"14.370","Units":"in","Rept_Date":"2021-01-31 12"},"coordinates":[4893,8522]},{"type":"Point","properties":{"Station_ID":"MI-BG-3","Station_Nam":"THREE LAKES, MI","Latitude":"46.55730","Longitude":"-88.20770","Snowdepth":"14.200","Units":"in","Rept_Date":"2021-01-31 13"},"coordinates":[2065,6866]},{"type":"Point","properties":{"Station_ID":"WSTW3","Station_Nam":"WEST BEND -FIRE","Latitude":"43.43138","Longitude":"-88.16111","Snowdepth":"14.000","Units":"in","Rept_Date":"2021-01-31 13"},"coordinates":[2076,4971]},{"type":"Point","properties":{"Station_ID":"WPKW3","Station_Nam":"SW-WHITNAL PARK","Latitude":"42.91670","Longitude":"-88.03330","Snowdepth":"14.000","Units":"in","Rept_Date":"2021-01-31 16"},"coordinates":[2105,4660]},{"type":"Point","properties":{"Station_ID":"WORV1","Station_Nam":"WORCESTER 2 W","Latitude":"44.37470","Longitude":"-72.58220","Snowdepth":"14.000","Units":"in","Rept_Date":"2021-01-31 12"},"coordinates":[5639,5543]},{"type":"Point","properties":{"Station_ID":"WI-WW-26","Station_Nam":"WHITEWATER 4.7 SSE, WI","Latitude":"42.77690","Longitude":"-88.68760","Snowdepth":"14.000","Units":"in","Rept_Date":"2021-01-31 13"},"coordinates":[1956,4575]},{"type":"Point","properties":{"Station_ID":"WI-WK-61","Station_Nam":"HARTLAND 5.0 NNE, WI","Latitude":"43.16351","Longitude":"-88.30400","Snowdepth":"14.000","Units":"in","Rept_Date":"2021-01-31 12"},"coordinates":[2043,4809]},{"type":"Point","properties":{"Station_ID":"WI-RC-3","Station_Nam":"RACINE 2.3 WSW, WI","Latitude":"42.71124","Longitude":"-87.84570","Snowdepth":"14.000","Units":"in","Rept_Date":"2021-01-31 13"},"coordinates":[2148,4535]},{"type":"Point","properties":{"Station_ID":"WI-PC-25","Station_Nam":"ELLSWORTH 2.6 SW, WI","Latitude":"44.71119","Longitude":"-92.51849","Snowdepth":"14.000","Units":"in","Rept_Date":"2021-01-31 13"},"coordinates":[1080,5747]},{"type":"Point","properties":{"Station_ID":"WI-LF-6","Station_Nam":"SOUTH WAYNE 3.9 SSW, WI","Latitude":"42.51173","Longitude":"-89.89555","Snowdepth":"14.000","Units":"in","Rept_Date":"2021-01-31 13"},"coordinates":[1679,4414]},{"type":"Point","properties":{"Station_ID":"WI-KN-18","Station_Nam":"TWIN LAKES 1.5 NE, WI","Latitude":"42.53541","Longitude":"-88.23863","Snowdepth":"14.000","Units":"in","Rept_Date":"2021-01-31 15"},"coordinates":[2058,4428]},{"type":"Point","properties":{"Station_ID":"WI-KN-14","Station_Nam":"PLEASANT PRAIRIE 2.1 E, WI","Latitude":"42.52250","Longitude":"-87.84053","Snowdepth":"14.000","Units":"in","Rept_Date":"2021-01-31 13"},"coordinates":[2149,4421]},{"type":"Point","properties":{"Station_ID":"WI-BY-29","Station_Nam":"BAYFIELD 5.1 NNW, WI","Latitude":"46.88063","Longitude":"-90.85854","Snowdepth":"14.000","Units":"in","Rept_Date":"2021-01-31 14"},"coordinates":[1459,7062]},{"type":"Point","properties":{"Station_ID":"WI-BY-14","Station_Nam":"ASHLAND 9.8 W, WI","Latitude":"46.59742","Longitude":"-91.07856","Snowdepth":"14.000","Units":"in","Rept_Date":"2021-01-31 12"},"coordinates":[1409,6890]},{"type":"Point","properties":{"Station_ID":"WAIV1","Station_Nam":"WAITSFIELD","Latitude":"44.17560","Longitude":"-72.79610","Snowdepth":"14.000","Units":"in","Rept_Date":"2021-01-31 12"},"coordinates":[5590,5423]},{"type":"Point","properties":{"Station_ID":"VT-WS-30","Station_Nam":"WOODBURY 3.4 NNW, VT","Latitude":"44.48825","Longitude":"-72.43258","Snowdepth":"14.000","Units":"in","Rept_Date":"2021-01-31 12"},"coordinates":[5673,5612]},{"type":"Point","properties":{"Station_ID":"VT-WS-23","Station_Nam":"CABOT 2.3 E, VT","Latitude":"44.39807","Longitude":"-72.26570","Snowdepth":"14.000","Units":"in","Rept_Date":"2021-01-31 13"},"coordinates":[5712,5557]},{"type":"Point","properties":{"Station_ID":"VT-WS-11","Station_Nam":"WAITSFIELD 1.8 SE, VT","Latitude":"44.17551","Longitude":"-72.79540","Snowdepth":"14.000","Units":"in","Rept_Date":"2021-01-31 12"},"coordinates":[5590,5422]},{"type":"Point","properties":{"Station_ID":"VT-WH-30","Station_Nam":"MARLBORO 2.0 NNE, VT","Latitude":"42.88484","Longitude":"-72.70935","Snowdepth":"14.000","Units":"in","Rept_Date":"2021-01-31 13"},"coordinates":[5610,4640]},{"type":"Point","properties":{"Station_ID":"VT-OL-2","Station_Nam":"BARTON 3.0 ENE, VT","Latitude":"44.75863","Longitude":"-72.11680","Snowdepth":"14.000","Units":"in","Rept_Date":"2021-01-31 12"},"coordinates":[5746,5776]},{"type":"Point","properties":{"Station_ID":"UPSW3","Station_Nam":"UPSON,WI","Latitude":"46.36780","Longitude":"-90.41220","Snowdepth":"14.000","Units":"in","Rept_Date":"2021-02-01 00"},"coordinates":[1561,6751]},{"type":"Point","properties":{"Station_ID":"SNYI4","Station_Nam":"STANLEY","Latitude":"42.63330","Longitude":"-91.86320","Snowdepth":"14.000","Units":"in","Rept_Date":"2021-01-31 13"},"coordinates":[1229,4488]},{"type":"Point","properties":{"Station_ID":"SAVW3","Station_Nam":"SAUKVILLE WWTP","Latitude":"43.37470","Longitude":"-87.93940","Snowdepth":"14.000","Units":"in","Rept_Date":"2021-01-31 12"},"coordinates":[2127,4937]},{"type":"Point","properties":{"Station_ID":"ROCW3","Station_Nam":"ROCHESTER WWTP","Latitude":"42.72690","Longitude":"-88.22580","Snowdepth":"14.000","Units":"in","Rept_Date":"2021-01-31 14"},"coordinates":[2061,4545]},{"type":"Point","properties":{"Station_ID":"RGNM1","Station_Nam":"RANGELEY 2NW","Latitude":"44.98940","Longitude":"-70.67220","Snowdepth":"14.000","Units":"in","Rept_Date":"2021-01-31 15"},"coordinates":[6076,5916]},{"type":"Point","properties":{"Station_ID":"NY-FK-7","Station_Nam":"SARANAC LAKE 6.2 N, NY","Latitude":"44.41359","Longitude":"-74.15211","Snowdepth":"14.000","Units":"in","Rept_Date":"2021-01-31 13"},"coordinates":[5280,5567]},{"type":"Point","properties":{"Station_ID":"NY-ES-11","Station_Nam":"VERMONTVILLE 2.8 S, NY","Latitude":"44.41205","Longitude":"-74.06760","Snowdepth":"14.000","Units":"in","Rept_Date":"2021-01-31 12"},"coordinates":[5299,5566]},{"type":"Point","properties":{"Station_ID":"NH-CS-4","Station_Nam":"PITTSBURG 6.1 NE, NH","Latitude":"45.11060","Longitude":"-71.29760","Snowdepth":"14.000","Units":"in","Rept_Date":"2021-01-31 12"},"coordinates":[5933,5989]},{"type":"Point","properties":{"Station_ID":"MRLV1","Station_Nam":"MARLBORO","Latitude":"42.86000","Longitude":"-72.72000","Snowdepth":"14.000","Units":"in","Rept_Date":"2021-01-31 13"},"coordinates":[5608,4625]},{"type":"Point","properties":{"Station_ID":"MHRI4","Station_Nam":"MANCHESTER #2","Latitude":"42.47320","Longitude":"-91.45160","Snowdepth":"14.000","Units":"in","Rept_Date":"2021-01-31 13"},"coordinates":[1324,4391]},{"type":"Point","properties":{"Station_ID":"MDDW3","Station_Nam":"MIDDLETON,WI","Latitude":"43.09060","Longitude":"-89.51470","Snowdepth":"14.000","Units":"in","Rept_Date":"2021-01-31 13"},"coordinates":[1767,4765]},{"type":"Point","properties":{"Station_ID":"LOWN6","Station_Nam":"LOWVILLE","Latitude":"43.79280","Longitude":"-75.48290","Snowdepth":"14.000","Units":"in","Rept_Date":"2021-01-31 12"},"coordinates":[4976,5191]},{"type":"Point","properties":{"Station_ID":"LGEW3","Station_Nam":"LAKE GENEVA, WI","Latitude":"42.60000","Longitude":"-88.43440","Snowdepth":"14.000","Units":"in","Rept_Date":"2021-01-31 13"},"coordinates":[2014,4468]},{"type":"Point","properties":{"Station_ID":"LEIM5","Station_Nam":"ORR 3E","Latitude":"48.05810","Longitude":"-92.75220","Snowdepth":"14.000","Units":"in","Rept_Date":"2021-01-31 12"},"coordinates":[1026,7776]},{"type":"Point","properties":{"Station_ID":"INL","Station_Nam":"FALLS INTERNATIONAL ARPT","Latitude":"48.56640","Longitude":"-93.40310","Snowdepth":"14.000","Units":"in","Rept_Date":"2021-02-01 00"},"coordinates":[877,8084]},{"type":"Point","properties":{"Station_ID":"IN-LP-7","Station_Nam":"LA PORTE 1.6 SW, IN","Latitude":"41.59040","Longitude":"-86.73430","Snowdepth":"14.000","Units":"in","Rept_Date":"2021-01-31 13"},"coordinates":[2402,3856]},{"type":"Point","properties":{"Station_ID":"IL-WN-32","Station_Nam":"ROCKFORD 5.5 S, IL","Latitude":"42.19058","Longitude":"-89.06040","Snowdepth":"14.000","Units":"in","Rept_Date":"2021-01-31 14"},"coordinates":[1870,4220]},{"type":"Point","properties":{"Station_ID":"IL-WN-26","Station_Nam":"ROCKFORD 1.5 ENE, IL","Latitude":"42.27775","Longitude":"-89.03590","Snowdepth":"14.000","Units":"in","Rept_Date":"2021-01-31 15"},"coordinates":[1876,4272]},{"type":"Point","properties":{"Station_ID":"IL-SP-6","Station_Nam":"FREEPORT 2.0 NW, IL","Latitude":"42.30955","Longitude":"-89.66370","Snowdepth":"14.000","Units":"in","Rept_Date":"2021-01-31 13"},"coordinates":[1732,4292]},{"type":"Point","properties":{"Station_ID":"IL-MCH-95","Station_Nam":"CARY 0.5 SSW, IL","Latitude":"42.20235","Longitude":"-88.25224","Snowdepth":"14.000","Units":"in","Rept_Date":"2021-01-31 13"},"coordinates":[2055,4227]},{"type":"Point","properties":{"Station_ID":"IL-LK-39","Station_Nam":"RIVERWOODS 0.4 ENE, IL","Latitude":"42.17264","Longitude":"-87.88840","Snowdepth":"14.000","Units":"in","Rept_Date":"2021-01-31 15"},"coordinates":[2138,4209]},{"type":"Point","properties":{"Station_ID":"IL-DP-100","Station_Nam":"BARTLETT 1.1 SE, IL","Latitude":"41.96924","Longitude":"-88.18730","Snowdepth":"14.000","Units":"in","Rept_Date":"2021-01-31 13"},"coordinates":[2070,4085]},{"type":"Point","properties":{"Station_ID":"IFSM5","Station_Nam":"INTERNATIONAL FALLS SNOW","Latitude":"48.57780","Longitude":"-93.39640","Snowdepth":"14.000","Units":"in","Rept_Date":"2021-02-01 06"},"coordinates":[879,8090]},{"type":"Point","properties":{"Station_ID":"IA-ST-3","Station_Nam":"PARK VIEW 0.2 WSW, IA","Latitude":"41.68855","Longitude":"-90.54380","Snowdepth":"14.000","Units":"in","Rept_Date":"2021-01-31 13"},"coordinates":[1531,3915]},{"type":"Point","properties":{"Station_ID":"IA-PK-3","Station_Nam":"DES MOINES 4.5 WNW, IA","Latitude":"41.60663","Longitude":"-93.69560","Snowdepth":"14.000","Units":"in","Rept_Date":"2021-01-31 13"},"coordinates":[810,3866]},{"type":"Point","properties":{"Station_ID":"GIBW3","Station_Nam":"GIBBSVILLE,WI","Latitude":"43.65670","Longitude":"-87.81170","Snowdepth":"14.000","Units":"in","Rept_Date":"2021-01-31 13"},"coordinates":[2156,5108]},{"type":"Point","properties":{"Station_ID":"FLDM5","Station_Nam":"FLOODWOOD,MN","Latitude":"47.00000","Longitude":"-92.91670","Snowdepth":"14.000","Units":"in","Rept_Date":"2021-01-31 14"},"coordinates":[988,7134]},{"type":"Point","properties":{"Station_ID":"ELYM5","Station_Nam":"ELY","Latitude":"47.90560","Longitude":"-91.82830","Snowdepth":"14.000","Units":"in","Rept_Date":"2021-01-31 14"},"coordinates":[1237,7683]},{"type":"Point","properties":{"Station_ID":"CAN-MB-32","Station_Nam":"PINAWA 1.0 SW, CA","Latitude":"50.14747","Longitude":"-95.89020","Snowdepth":"14.000","Units":"in","Rept_Date":"2021-01-31 13"},"coordinates":[308,9042]},{"type":"Point","properties":{"Station_ID":"BROW3","Station_Nam":"BRODHEAD,WI","Latitude":"42.61720","Longitude":"-89.38970","Snowdepth":"14.000","Units":"in","Rept_Date":"2021-01-31 13"},"coordinates":[1795,4478]},{"type":"Point","properties":{"Station_ID":"BNDM5","Station_Nam":"ELY 25E","Latitude":"47.97190","Longitude":"-91.44860","Snowdepth":"14.000","Units":"in","Rept_Date":"2021-01-31 13"},"coordinates":[1324,7723]},{"type":"Point","properties":{"Station_ID":"BBEM4","Station_Nam":"BIG BAY 9SW","Latitude":"46.74620","Longitude":"-87.88160","Snowdepth":"14.000","Units":"in","Rept_Date":"2021-01-31 13"},"coordinates":[2140,6980]},{"type":"Point","properties":{"Station_ID":"BARI2","Station_Nam":"CRABTREE NATURE CENTER","Latitude":"42.11530","Longitude":"-88.16390","Snowdepth":"14.000","Units":"in","Rept_Date":"2021-01-31 14"},"coordinates":[2075,4174]},{"type":"Point","properties":{"Station_ID":"BABM5","Station_Nam":"BABBITT","Latitude":"47.71210","Longitude":"-91.95330","Snowdepth":"14.000","Units":"in","Rept_Date":"2021-01-31 13"},"coordinates":[1209,7566]},{"type":"Point","properties":{"Station_ID":"WI-WW-2","Station_Nam":"LAKE GENEVA 0.6 ENE, WI","Latitude":"42.59169","Longitude":"-88.41770","Snowdepth":"13.800","Units":"in","Rept_Date":"2021-01-31 13"},"coordinates":[2017,4463]},{"type":"Point","properties":{"Station_ID":"WI-JF-17","Station_Nam":"JOHNSON CREEK 2.7 SSW, WI","Latitude":"43.04559","Longitude":"-88.79925","Snowdepth":"13.500","Units":"in","Rept_Date":"2021-01-31 14"},"coordinates":[1930,4738]},{"type":"Point","properties":{"Station_ID":"WI-IR-3","Station_Nam":"PENCE 0.1 E, WI","Latitude":"46.41555","Longitude":"-90.27013","Snowdepth":"13.500","Units":"in","Rept_Date":"2021-01-31 13"},"coordinates":[1594,6780]},{"type":"Point","properties":{"Station_ID":"WI-DA-39","Station_Nam":"MADISON 4.0 W, WI","Latitude":"43.07741","Longitude":"-89.46757","Snowdepth":"13.500","Units":"in","Rept_Date":"2021-01-31 13"},"coordinates":[1777,4757]},{"type":"Point","properties":{"Station_ID":"WI-BY-22","Station_Nam":"MASON 11.5 WNW, WI","Latitude":"46.50198","Longitude":"-91.28339","Snowdepth":"13.500","Units":"in","Rept_Date":"2021-01-31 14"},"coordinates":[1362,6832]},{"type":"Point","properties":{"Station_ID":"VT-WS-10","Station_Nam":"NORTHFIELD 1.5 N, VT","Latitude":"44.16986","Longitude":"-72.65200","Snowdepth":"13.500","Units":"in","Rept_Date":"2021-01-31 12"},"coordinates":[5623,5419]},{"type":"Point","properties":{"Station_ID":"VT-CL-14","Station_Nam":"LYNDONVILLE 1.1 W, VT","Latitude":"44.53582","Longitude":"-72.02867","Snowdepth":"13.500","Units":"in","Rept_Date":"2021-01-31 12"},"coordinates":[5766,5641]},{"type":"Point","properties":{"Station_ID":"MN-SL-18","Station_Nam":"DULUTH 1.4 NNW, MN","Latitude":"46.80321","Longitude":"-92.11240","Snowdepth":"13.500","Units":"in","Rept_Date":"2021-01-31 14"},"coordinates":[1172,7015]},{"type":"Point","properties":{"Station_ID":"IL-LK-16","Station_Nam":"BUFFALO GROVE 1.5 N, IL","Latitude":"42.18800","Longitude":"-87.95900","Snowdepth":"13.500","Units":"in","Rept_Date":"2021-01-31 13"},"coordinates":[2122,4218]},{"type":"Point","properties":{"Station_ID":"IA-JH-20","Station_Nam":"CORALVILLE 1.4 S, IA","Latitude":"41.67016","Longitude":"-91.60296","Snowdepth":"13.500","Units":"in","Rept_Date":"2021-01-31 14"},"coordinates":[1289,3904]},{"type":"Point","properties":{"Station_ID":"CAN-ON-42","Station_Nam":"VANKLEEK HILL 3.4 S, CA","Latitude":"45.48987","Longitude":"-74.64570","Snowdepth":"13.500","Units":"in","Rept_Date":"2021-01-31 12"},"coordinates":[5167,6219]},{"type":"Point","properties":{"Station_ID":"WI-CB-5","Station_Nam":"PORTAGE 7.2 SW, WI","Latitude":"43.47933","Longitude":"-89.57370","Snowdepth":"13.200","Units":"in","Rept_Date":"2021-01-31 13"},"coordinates":[1753,5001]},{"type":"Point","properties":{"Station_ID":"QLI","Station_Nam":"QLI","Latitude":"50.27080","Longitude":"-73.92280","Snowdepth":"13.189","Units":"in","Rept_Date":"2021-01-31 12"},"coordinates":[5333,9117]},{"type":"Point","properties":{"Station_ID":"CATQ6","Station_Nam":"CAT LAKE","Latitude":"51.72690","Longitude":"-91.82210","Snowdepth":"13.110","Units":"in","Rept_Date":"2021-02-01 06"},"coordinates":[1239,9999]},{"type":"Point","properties":{"Station_ID":"IL-KN-95","Station_Nam":"ELGIN 2.5 W, IL","Latitude":"42.04041","Longitude":"-88.33660","Snowdepth":"13.100","Units":"in","Rept_Date":"2021-01-31 13"},"coordinates":[2036,4128]},{"type":"Point","properties":{"Station_ID":"WSWN6","Station_Nam":"WARSAW","Latitude":"42.74220","Longitude":"-78.20850","Snowdepth":"13.000","Units":"in","Rept_Date":"2021-01-31 12"},"coordinates":[4352,4554]},{"type":"Point","properties":{"Station_ID":"WRSM5","Station_Nam":"WRENSHALL","Latitude":"46.61550","Longitude":"-92.38380","Snowdepth":"13.000","Units":"in","Rept_Date":"2021-01-31 14"},"coordinates":[1110,6901]},{"type":"Point","properties":{"Station_ID":"WI-WK-29","Station_Nam":"OCONOMOWOC 4.6 NE, WI","Latitude":"43.14621","Longitude":"-88.42860","Snowdepth":"13.000","Units":"in","Rept_Date":"2021-01-31 15"},"coordinates":[2015,4799]},{"type":"Point","properties":{"Station_ID":"WI-VL-9","Station_Nam":"LAND O' LAKES 11.7 W, WI","Latitude":"46.19023","Longitude":"-89.45790","Snowdepth":"13.000","Units":"in","Rept_Date":"2021-01-31 13"},"coordinates":[1780,6643]},{"type":"Point","properties":{"Station_ID":"WI-OZ-22","Station_Nam":"SAUKVILLE 0.9 SSW, WI","Latitude":"43.37254","Longitude":"-87.95009","Snowdepth":"13.000","Units":"in","Rept_Date":"2021-01-31 13"},"coordinates":[2124,4936]},{"type":"Point","properties":{"Station_ID":"WI-DA-31","Station_Nam":"DEERFIELD 0.6 N, WI","Latitude":"43.05958","Longitude":"-89.07340","Snowdepth":"13.000","Units":"in","Rept_Date":"2021-01-31 15"},"coordinates":[1867,4746]},{"type":"Point","properties":{"Station_ID":"WI-BY-2","Station_Nam":"MELLEN 18.6 SW, WI","Latitude":"46.16937","Longitude":"-90.98090","Snowdepth":"13.000","Units":"in","Rept_Date":"2021-01-31 13"},"coordinates":[1431,6631]},{"type":"Point","properties":{"Station_ID":"VT-WS-19","Station_Nam":"WATERBURY 3.0 NW, VT","Latitude":"44.36060","Longitude":"-72.80770","Snowdepth":"13.000","Units":"in","Rept_Date":"2021-01-31 11"},"coordinates":[5588,5535]},{"type":"Point","properties":{"Station_ID":"VT-ES-3","Station_Nam":"LUNENBURG 2.3 NNW, VT","Latitude":"44.49324","Longitude":"-71.70446","Snowdepth":"13.000","Units":"in","Rept_Date":"2021-01-31 11"},"coordinates":[5840,5615]},{"type":"Point","properties":{"Station_ID":"VT-AD-20","Station_Nam":"HANCOCK 0.3 S, VT","Latitude":"43.92166","Longitude":"-72.84042","Snowdepth":"13.000","Units":"in","Rept_Date":"2021-01-31 12"},"coordinates":[5580,5269]},{"type":"Point","properties":{"Station_ID":"SUAW3","Station_Nam":"SUAMICO","Latitude":"44.60190","Longitude":"-88.09780","Snowdepth":"13.000","Units":"in","Rept_Date":"2021-01-31 12"},"coordinates":[2091,5681]},{"type":"Point","properties":{"Station_ID":"SSMM4","Station_Nam":"SAULT STE MARIE","Latitude":"46.48660","Longitude":"-84.40250","Snowdepth":"13.000","Units":"in","Rept_Date":"2021-01-31 13"},"coordinates":[2936,6823]},{"type":"Point","properties":{"Station_ID":"SLNV1","Station_Nam":"SOUTH LINCOLN","Latitude":"44.07460","Longitude":"-72.97180","Snowdepth":"13.000","Units":"in","Rept_Date":"2021-01-31 12"},"coordinates":[5550,5361]},{"type":"Point","properties":{"Station_ID":"SEEW3","Station_Nam":"SOUTH MILWAUKEE WWTP","Latitude":"42.90110","Longitude":"-87.84940","Snowdepth":"13.000","Units":"in","Rept_Date":"2021-01-31 15"},"coordinates":[2147,4650]},{"type":"Point","properties":{"Station_ID":"PRDM4","Station_Nam":"PARADISE","Latitude":"46.60380","Longitude":"-85.03960","Snowdepth":"13.000","Units":"in","Rept_Date":"2021-01-31 11"},"coordinates":[2790,6894]},{"type":"Point","properties":{"Station_ID":"NY-ER-63","Station_Nam":"GLENWOOD 1.5 SE, NY","Latitude":"42.60195","Longitude":"-78.63910","Snowdepth":"13.000","Units":"in","Rept_Date":"2021-01-31 13"},"coordinates":[4254,4469]},{"type":"Point","properties":{"Station_ID":"NH-CS-19","Station_Nam":"CARROLL 4.6 NE, NH","Latitude":"44.33765","Longitude":"-71.46461","Snowdepth":"13.000","Units":"in","Rept_Date":"2021-01-31 12"},"coordinates":[5895,5521]},{"type":"Point","properties":{"Station_ID":"MN-SL-15","Station_Nam":"CHISHOLM 0.4 WSW, MN","Latitude":"47.48557","Longitude":"-92.88690","Snowdepth":"13.000","Units":"in","Rept_Date":"2021-01-31 13"},"coordinates":[995,7429]},{"type":"Point","properties":{"Station_ID":"MN-CK-18","Station_Nam":"GRAND MARAIS 4.4 WSW, MN","Latitude":"47.74462","Longitude":"-90.43796","Snowdepth":"13.000","Units":"in","Rept_Date":"2021-01-31 13"},"coordinates":[1555,7586]},{"type":"Point","properties":{"Station_ID":"ME-OX-34","Station_Nam":"ANDOVER 3.8 W, ME","Latitude":"44.64156","Longitude":"-70.82782","Snowdepth":"13.000","Units":"in","Rept_Date":"2021-01-31 12"},"coordinates":[6040,5705]},{"type":"Point","properties":{"Station_ID":"ME-AR-18","Station_Nam":"NEW SWEDEN 4.9 NNW, ME","Latitude":"47.01080","Longitude":"-68.14390","Snowdepth":"13.000","Units":"in","Rept_Date":"2021-01-31 12"},"coordinates":[6654,7141]},{"type":"Point","properties":{"Station_ID":"MALN6","Station_Nam":"MALONE","Latitude":"44.84180","Longitude":"-74.30600","Snowdepth":"13.000","Units":"in","Rept_Date":"2021-01-31 12"},"coordinates":[5245,5826]},{"type":"Point","properties":{"Station_ID":"LNOW3","Station_Nam":"LAND O LAKES","Latitude":"46.19000","Longitude":"-89.45700","Snowdepth":"13.000","Units":"in","Rept_Date":"2021-01-31 13"},"coordinates":[1780,6643]},{"type":"Point","properties":{"Station_ID":"LKZI2","Station_Nam":"LAKE ZURICH","Latitude":"42.19250","Longitude":"-88.06530","Snowdepth":"13.000","Units":"in","Rept_Date":"2021-01-31 13"},"coordinates":[2098,4221]},{"type":"Point","properties":{"Station_ID":"KMDW","Station_Nam":"CHICAGO MIDWAY AIRPORT","Latitude":"41.78333","Longitude":"-87.75000","Snowdepth":"13.000","Units":"in","Rept_Date":"2021-02-01 00"},"coordinates":[2170,3973]},{"type":"Point","properties":{"Station_ID":"ISLV1","Station_Nam":"ISLAND POND","Latitude":"44.81280","Longitude":"-71.89020","Snowdepth":"13.000","Units":"in","Rept_Date":"2021-01-31 15"},"coordinates":[5797,5809]},{"type":"Point","properties":{"Station_ID":"IRMM4","Station_Nam":"WWTP","Latitude":"46.46670","Longitude":"-90.18330","Snowdepth":"13.000","Units":"in","Rept_Date":"2021-01-31 13"},"coordinates":[1614,6811]},{"type":"Point","properties":{"Station_ID":"INDN6","Station_Nam":"INDIAN LAKE","Latitude":"43.75500","Longitude":"-74.27560","Snowdepth":"13.000","Units":"in","Rept_Date":"2021-01-31 13"},"coordinates":[5252,5168]},{"type":"Point","properties":{"Station_ID":"IL-CK-75","Station_Nam":"ELK GROVE VILLAGE 2.2 WSW, IL","Latitude":"41.99526","Longitude":"-88.05270","Snowdepth":"13.000","Units":"in","Rept_Date":"2021-01-31 13"},"coordinates":[2101,4101]},{"type":"Point","properties":{"Station_ID":"IL-CK-285","Station_Nam":"HARWOOD HEIGHTS 0.4 NNE, IL","Latitude":"41.97154","Longitude":"-87.80325","Snowdepth":"13.000","Units":"in","Rept_Date":"2021-01-31 13"},"coordinates":[2158,4087]},{"type":"Point","properties":{"Station_ID":"IL-CK-193","Station_Nam":"WINNETKA 0.8 ESE, IL","Latitude":"42.10164","Longitude":"-87.72900","Snowdepth":"13.000","Units":"in","Rept_Date":"2021-01-31 14"},"coordinates":[2175,4166]},{"type":"Point","properties":{"Station_ID":"IL-CK-180","Station_Nam":"PARK RIDGE 0.5 SSW, IL","Latitude":"42.00443","Longitude":"-87.84600","Snowdepth":"13.000","Units":"in","Rept_Date":"2021-01-31 13"},"coordinates":[2148,4107]},{"type":"Point","properties":{"Station_ID":"IA-ST-1","Station_Nam":"LE CLAIRE 1.8 NNE, IA","Latitude":"41.62355","Longitude":"-90.35140","Snowdepth":"13.000","Units":"in","Rept_Date":"2021-01-31 14"},"coordinates":[1575,3876]},{"type":"Point","properties":{"Station_ID":"IA-SH-6","Station_Nam":"KIRKMAN 1.0 SE, IA","Latitude":"41.71810","Longitude":"-95.25310","Snowdepth":"13.000","Units":"in","Rept_Date":"2021-01-31 13"},"coordinates":[454,3933]},{"type":"Point","properties":{"Station_ID":"GNDI4","Station_Nam":"GRUNDY CENTER,IA","Latitude":"42.35530","Longitude":"-92.77390","Snowdepth":"13.000","Units":"in","Rept_Date":"2021-01-31 15"},"coordinates":[1021,4319]},{"type":"Point","properties":{"Station_ID":"GLEI2","Station_Nam":"GLEN ELLYN 4S","Latitude":"41.82670","Longitude":"-88.05810","Snowdepth":"13.000","Units":"in","Rept_Date":"2021-01-31 19"},"coordinates":[2100,3999]},{"type":"Point","properties":{"Station_ID":"EKRI4","Station_Nam":"ELKADER 6SSW","Latitude":"42.77540","Longitude":"-91.45370","Snowdepth":"13.000","Units":"in","Rept_Date":"2021-01-31 13"},"coordinates":[1323,4574]},{"type":"Point","properties":{"Station_ID":"DLNW3","Station_Nam":"WALWORTH COUNTYMETROPOLITAN SEWERAGE DISTRICT (DELEVAN)","Latitude":"42.63440","Longitude":"-88.66280","Snowdepth":"13.000","Units":"in","Rept_Date":"2021-01-31 14"},"coordinates":[1961,4488]},{"type":"Point","properties":{"Station_ID":"COKM5","Station_Nam":"COOK","Latitude":"47.85060","Longitude":"-92.69250","Snowdepth":"13.000","Units":"in","Rept_Date":"2021-01-31 12"},"coordinates":[1040,7650]},{"type":"Point","properties":{"Station_ID":"CMKW3","Station_Nam":"CLAM LAKE 4W","Latitude":"46.16940","Longitude":"-90.98080","Snowdepth":"13.000","Units":"in","Rept_Date":"2021-01-31 13"},"coordinates":[1431,6631]},{"type":"Point","properties":{"Station_ID":"CLUI4","Station_Nam":"CLUTIER,IA","Latitude":"42.08330","Longitude":"-92.40000","Snowdepth":"13.000","Units":"in","Rept_Date":"2021-01-31 13"},"coordinates":[1107,4154]},{"type":"Point","properties":{"Station_ID":"BDMW3","Station_Nam":"BEAVER DAM 1 N","Latitude":"43.46860","Longitude":"-88.83970","Snowdepth":"13.000","Units":"in","Rept_Date":"2021-01-31 17"},"coordinates":[1921,4994]},{"type":"Point","properties":{"Station_ID":"ANJM4","Station_Nam":"SNOW PAID OBSERVER FOR KANJ","Latitude":"46.48670","Longitude":"-84.40260","Snowdepth":"13.000","Units":"in","Rept_Date":"2021-01-31 18"},"coordinates":[2936,6823]},{"type":"Point","properties":{"Station_ID":"ANJ","Station_Nam":"SAULT STE MARIE","Latitude":"46.46670","Longitude":"-84.36670","Snowdepth":"13.000","Units":"in","Rept_Date":"2021-02-01 00"},"coordinates":[2944,6811]},{"type":"Point","properties":{"Station_ID":"AMOI4","Station_Nam":"ANAMOSA 3 SSW","Latitude":"42.07630","Longitude":"-91.30190","Snowdepth":"13.000","Units":"in","Rept_Date":"2021-01-31 13"},"coordinates":[1358,4150]},{"type":"Point","properties":{"Station_ID":"AFTW3","Station_Nam":"ROCK RIVER","Latitude":"42.61670","Longitude":"-89.06670","Snowdepth":"13.000","Units":"in","Rept_Date":"2021-01-31 13"},"coordinates":[1869,4478]},{"type":"Point","properties":{"Station_ID":"CAN-ON-491","Station_Nam":"MILVERTON 1.1 ESE- CANWARN, CAN","Latitude":"43.56074","Longitude":"-80.90887","Snowdepth":"12.800","Units":"in","Rept_Date":"2021-01-31 11"},"coordinates":[3735,5050]},{"type":"Point","properties":{"Station_ID":"MN-IS-18","Station_Nam":"BRAHAM 0.7 SW, MN","Latitude":"45.71379","Longitude":"-93.18095","Snowdepth":"12.700","Units":"in","Rept_Date":"2021-01-31 14"},"coordinates":[928,6355]},{"type":"Point","properties":{"Station_ID":"WI-WK-73","Station_Nam":"MENOMONEE FALLS 3.2 NNW, WI","Latitude":"43.18817","Longitude":"-88.15555","Snowdepth":"12.500","Units":"in","Rept_Date":"2021-01-31 13"},"coordinates":[2077,4824]},{"type":"Point","properties":{"Station_ID":"WI-WB-2","Station_Nam":"STONE LAKE 2.0 NW, WI","Latitude":"45.85960","Longitude":"-91.57710","Snowdepth":"12.500","Units":"in","Rept_Date":"2021-01-31 13"},"coordinates":[1295,6443]},{"type":"Point","properties":{"Station_ID":"WI-SR-1","Station_Nam":"HAYWARD 9.2 NNE, WI","Latitude":"46.13255","Longitude":"-91.40500","Snowdepth":"12.500","Units":"in","Rept_Date":"2021-01-31 12"},"coordinates":[1334,6609]},{"type":"Point","properties":{"Station_ID":"WI-DA-46","Station_Nam":"MADISON 6.4 W, WI","Latitude":"43.08337","Longitude":"-89.51503","Snowdepth":"12.500","Units":"in","Rept_Date":"2021-01-31 13"},"coordinates":[1766,4761]},{"type":"Point","properties":{"Station_ID":"WI-DA-13","Station_Nam":"MADISON 3.7 WSW, WI","Latitude":"43.06230","Longitude":"-89.45650","Snowdepth":"12.500","Units":"in","Rept_Date":"2021-01-31 13"},"coordinates":[1780,4748]},{"type":"Point","properties":{"Station_ID":"NY-CR-1","Station_Nam":"FREETOWN 1.0 NE, NY","Latitude":"42.53299","Longitude":"-76.02111","Snowdepth":"12.500","Units":"in","Rept_Date":"2021-01-31 12"},"coordinates":[4853,4427]},{"type":"Point","properties":{"Station_ID":"IL-LK-69","Station_Nam":"HIGHWOOD 0.9 S, IL","Latitude":"42.19841","Longitude":"-87.81400","Snowdepth":"12.500","Units":"in","Rept_Date":"2021-01-31 13"},"coordinates":[2156,4224]},{"type":"Point","properties":{"Station_ID":"IL-CK-131","Station_Nam":"SCHAUMBURG 2.0 E, IL","Latitude":"42.03028","Longitude":"-88.04400","Snowdepth":"12.500","Units":"in","Rept_Date":"2021-01-31 13"},"coordinates":[2103,4122]},{"type":"Point","properties":{"Station_ID":"IA-CT-8","Station_Nam":"ELKADER 6.8 WSW, IA","Latitude":"42.81136","Longitude":"-91.52332","Snowdepth":"12.500","Units":"in","Rept_Date":"2021-01-31 14"},"coordinates":[1307,4596]},{"type":"Point","properties":{"Station_ID":"QCX","Station_Nam":"QCX","Latitude":"51.32830","Longitude":"-70.08060","Snowdepth":"12.244","Units":"in","Rept_Date":"2021-01-31 12"},"coordinates":[6211,9757]},{"type":"Point","properties":{"Station_ID":"CAN-QC-57","Station_Nam":"ACTON VALE 1.3 N, CAN","Latitude":"45.65868","Longitude":"-72.56645","Snowdepth":"12.200","Units":"in","Rept_Date":"2021-01-31 13"},"coordinates":[5643,6321]},{"type":"Point","properties":{"Station_ID":"CAN-ON-208","Station_Nam":"PAKENHAM 7.8 NNW, CAN","Latitude":"45.39166","Longitude":"-76.34111","Snowdepth":"12.200","Units":"in","Rept_Date":"2021-01-31 12"},"coordinates":[4779,6160]},{"type":"Point","properties":{"Station_ID":"WI-MW-68","Station_Nam":"GREENFIELD 0.7 SW, WI","Latitude":"42.95589","Longitude":"-88.01510","Snowdepth":"12.100","Units":"in","Rept_Date":"2021-01-31 13"},"coordinates":[2110,4683]},{"type":"Point","properties":{"Station_ID":"WI-WK-20","Station_Nam":"MUKWONAGO 0.5 N, WI","Latitude":"42.87385","Longitude":"-88.33180","Snowdepth":"12.000","Units":"in","Rept_Date":"2021-01-31 14"},"coordinates":[2037,4634]},{"type":"Point","properties":{"Station_ID":"WI-PR-2","Station_Nam":"BUTTERNUT 5.9 SW, WI","Latitude":"45.96501","Longitude":"-90.59750","Snowdepth":"12.000","Units":"in","Rept_Date":"2021-01-31 12"},"coordinates":[1519,6507]},{"type":"Point","properties":{"Station_ID":"WI-DD-14","Station_Nam":"THERESA 0.1 ESE, WI","Latitude":"43.51691","Longitude":"-88.45026","Snowdepth":"12.000","Units":"in","Rept_Date":"2021-01-31 13"},"coordinates":[2010,5023]},{"type":"Point","properties":{"Station_ID":"WI-DA-88","Station_Nam":"BLACK EARTH 3.1 SSE, WI","Latitude":"43.09290","Longitude":"-89.72889","Snowdepth":"12.000","Units":"in","Rept_Date":"2021-01-31 13"},"coordinates":[1718,4766]},{"type":"Point","properties":{"Station_ID":"WI-DA-33","Station_Nam":"OREGON 0.4 SSW, WI","Latitude":"42.92080","Longitude":"-89.38540","Snowdepth":"12.000","Units":"in","Rept_Date":"2021-01-31 13"},"coordinates":[1796,4662]},{"type":"Point","properties":{"Station_ID":"VT-BN-7","Station_Nam":"MANCHESTER 2.8 ENE, VT","Latitude":"43.17274","Longitude":"-73.01811","Snowdepth":"12.000","Units":"in","Rept_Date":"2021-01-31 12"},"coordinates":[5539,4815]},{"type":"Point","properties":{"Station_ID":"VNTI4","Station_Nam":"VINTON","Latitude":"42.17020","Longitude":"-92.00770","Snowdepth":"12.000","Units":"in","Rept_Date":"2021-01-31 13"},"coordinates":[1196,4207]},{"type":"Point","properties":{"Station_ID":"TOHM5","Station_Nam":"TWO HARBORS WWTP","Latitude":"47.01760","Longitude":"-91.66480","Snowdepth":"12.000","Units":"in","Rept_Date":"2021-01-31 13"},"coordinates":[1275,7145]},{"type":"Point","properties":{"Station_ID":"TOGM5","Station_Nam":"CELINA 2E","Latitude":"47.86630","Longitude":"-93.02660","Snowdepth":"12.000","Units":"in","Rept_Date":"2021-01-31 15"},"coordinates":[963,7659]},{"type":"Point","properties":{"Station_ID":"TLDI4","Station_Nam":"TOLEDO,IA","Latitude":"41.98330","Longitude":"-92.58330","Snowdepth":"12.000","Units":"in","Rept_Date":"2021-01-31 13"},"coordinates":[1065,4094]},{"type":"Point","properties":{"Station_ID":"SUTV1","Station_Nam":"SUTTON","Latitude":"44.61220","Longitude":"-72.04810","Snowdepth":"12.000","Units":"in","Rept_Date":"2021-01-31 13"},"coordinates":[5761,5687]},{"type":"Point","properties":{"Station_ID":"RLWM5","Station_Nam":"CAMP NORRIS DNR","Latitude":"48.61000","Longitude":"-95.18170","Snowdepth":"12.000","Units":"in","Rept_Date":"2021-01-31 15"},"coordinates":[470,8110]},{"type":"Point","properties":{"Station_ID":"RLKW3","Station_Nam":"REST LAKE","Latitude":"46.12220","Longitude":"-89.87720","Snowdepth":"12.000","Units":"in","Rept_Date":"2021-01-31 14"},"coordinates":[1684,6602]},{"type":"Point","properties":{"Station_ID":"PORW3","Station_Nam":"PORTAGE,WI","Latitude":"43.53190","Longitude":"-89.43780","Snowdepth":"12.000","Units":"in","Rept_Date":"2021-01-31 14"},"coordinates":[1784,5032]},{"type":"Point","properties":{"Station_ID":"PKBI4","Station_Nam":"PARKERSBURG,IA","Latitude":"42.59250","Longitude":"-92.77860","Snowdepth":"12.000","Units":"in","Rept_Date":"2021-01-31 13"},"coordinates":[1020,4463]},{"type":"Point","properties":{"Station_ID":"OLNI4","Station_Nam":"OELWEIN 1E","Latitude":"42.68010","Longitude":"-91.87510","Snowdepth":"12.000","Units":"in","Rept_Date":"2021-01-31 12"},"coordinates":[1227,4516]},{"type":"Point","properties":{"Station_ID":"NY-JF-30","Station_Nam":"WEST CARTHAGE 0.3 ENE, NY","Latitude":"43.97493","Longitude":"-75.61640","Snowdepth":"12.000","Units":"in","Rept_Date":"2021-01-31 12"},"coordinates":[4945,5301]},{"type":"Point","properties":{"Station_ID":"NUMN3","Station_Nam":"NORTHUMBERLAND","Latitude":"44.52830","Longitude":"-71.50440","Snowdepth":"12.000","Units":"in","Rept_Date":"2021-01-31 14"},"coordinates":[5886,5636]},{"type":"Point","properties":{"Station_ID":"NH-MR-41","Station_Nam":"NEWBURY 1.6 NW, NH","Latitude":"43.33667","Longitude":"-72.06060","Snowdepth":"12.000","Units":"in","Rept_Date":"2021-01-31 12"},"coordinates":[5758,4914]},{"type":"Point","properties":{"Station_ID":"NE-CA-2","Station_Nam":"ALVO 2.1 W, NE","Latitude":"40.86903","Longitude":"-96.42660","Snowdepth":"12.000","Units":"in","Rept_Date":"2021-01-31 14"},"coordinates":[186,3419]},{"type":"Point","properties":{"Station_ID":"MUNI2","Station_Nam":"MUNDELEIN,IL","Latitude":"42.25530","Longitude":"-88.07690","Snowdepth":"12.000","Units":"in","Rept_Date":"2021-01-31 13"},"coordinates":[2095,4259]},{"type":"Point","properties":{"Station_ID":"MSHI4","Station_Nam":"MARSHALLTOWN,IA","Latitude":"42.06670","Longitude":"-92.93330","Snowdepth":"12.000","Units":"in","Rept_Date":"2021-01-31 13"},"coordinates":[985,4144]},{"type":"Point","properties":{"Station_ID":"MRAM5","Station_Nam":"MORA","Latitude":"45.87760","Longitude":"-93.31470","Snowdepth":"12.000","Units":"in","Rept_Date":"2021-01-31 13"},"coordinates":[897,6454]},{"type":"Point","properties":{"Station_ID":"MN-GH-28","Station_Nam":"CANNON FALLS 0.5 SE, MN","Latitude":"44.50866","Longitude":"-92.89526","Snowdepth":"12.000","Units":"in","Rept_Date":"2021-01-31 14"},"coordinates":[993,5624]},{"type":"Point","properties":{"Station_ID":"MKX","Station_Nam":"MILWAUKEE, WI","Latitude":"42.96810","Longitude":"-88.54920","Snowdepth":"12.000","Units":"in","Rept_Date":"2021-02-01 06"},"coordinates":[1987,4691]},{"type":"Point","properties":{"Station_ID":"ME-SM-10","Station_Nam":"NORTH NEW PORTLAND 0.3 WSW, ME","Latitude":"44.92353","Longitude":"-70.02788","Snowdepth":"12.000","Units":"in","Rept_Date":"2021-01-31 12"},"coordinates":[6223,5876]},{"type":"Point","properties":{"Station_ID":"LVDW3","Station_Nam":"LAC VIEUX DESERT","Latitude":"46.12110","Longitude":"-89.07580","Snowdepth":"12.000","Units":"in","Rept_Date":"2021-01-31 15"},"coordinates":[1867,6602]},{"type":"Point","properties":{"Station_ID":"LANC007","Station_Nam":"DAVEY 1.2 NNW, NE","Latitude":"41.00320","Longitude":"-96.67630","Snowdepth":"12.000","Units":"in","Rept_Date":"2021-01-31 13"},"coordinates":[129,3500]},{"type":"Point","properties":{"Station_ID":"KRFD","Station_Nam":"GREATER ROCKFORD AIRPORT","Latitude":"42.20000","Longitude":"-89.10000","Snowdepth":"12.000","Units":"in","Rept_Date":"2021-02-01 06"},"coordinates":[1861,4225]},{"type":"Point","properties":{"Station_ID":"KMKE","Station_Nam":"GEN MITCHELL INTERNATIONAL  AIRPORT","Latitude":"42.95000","Longitude":"-87.90000","Snowdepth":"12.000","Units":"in","Rept_Date":"2021-02-01 06"},"coordinates":[2136,4680]},{"type":"Point","properties":{"Station_ID":"KGTB","Station_Nam":"FORT DRUM / WHEELER-SACK U. S. ARMY AIRFIELD","Latitude":"44.05000","Longitude":"-75.73333","Snowdepth":"12.000","Units":"in","Rept_Date":"2021-01-31 18"},"coordinates":[4918,5346]},{"type":"Point","properties":{"Station_ID":"JOHV1","Station_Nam":"JOHNSON 2 N","Latitude":"44.65790","Longitude":"-72.67850","Snowdepth":"12.000","Units":"in","Rept_Date":"2021-01-31 12"},"coordinates":[5617,5715]},{"type":"Point","properties":{"Station_ID":"IN-PT-3","Station_Nam":"VALPARAISO 2.0 WSW, IN","Latitude":"41.46741","Longitude":"-87.08750","Snowdepth":"12.000","Units":"in","Rept_Date":"2021-01-31 19"},"coordinates":[2322,3781]},{"type":"Point","properties":{"Station_ID":"IL-SP-26","Station_Nam":"FREEPORT 2.9 WSW, IL","Latitude":"42.26779","Longitude":"-89.68323","Snowdepth":"12.000","Units":"in","Rept_Date":"2021-01-31 14"},"coordinates":[1728,4266]},{"type":"Point","properties":{"Station_ID":"IL-SP-25","Station_Nam":"FREEPORT 1.7 NW, IL","Latitude":"42.30427","Longitude":"-89.66285","Snowdepth":"12.000","Units":"in","Rept_Date":"2021-01-31 13"},"coordinates":[1733,4288]},{"type":"Point","properties":{"Station_ID":"IL-LK-98","Station_Nam":"LINDENHURST 0.7 NNW, IL","Latitude":"42.42730","Longitude":"-88.03289","Snowdepth":"12.000","Units":"in","Rept_Date":"2021-01-31 13"},"coordinates":[2105,4363]},{"type":"Point","properties":{"Station_ID":"IL-LK-81","Station_Nam":"LAKE VILLA 2.3 WSW, IL","Latitude":"42.40532","Longitude":"-88.12380","Snowdepth":"12.000","Units":"in","Rept_Date":"2021-01-31 13"},"coordinates":[2085,4350]},{"type":"Point","properties":{"Station_ID":"IL-LK-42","Station_Nam":"GURNEE 1.6 W, IL","Latitude":"42.37776","Longitude":"-87.96740","Snowdepth":"12.000","Units":"in","Rept_Date":"2021-01-31 13"},"coordinates":[2120,4333]},{"type":"Point","properties":{"Station_ID":"IL-KN-22","Station_Nam":"GENEVA 1.0 SSW, IL","Latitude":"41.86823","Longitude":"-88.32032","Snowdepth":"12.000","Units":"in","Rept_Date":"2021-01-31 14"},"coordinates":[2040,4024]},{"type":"Point","properties":{"Station_ID":"IL-DP-127","Station_Nam":"DOWNERS GROVE 0.4 NNE, IL","Latitude":"41.80331","Longitude":"-88.01542","Snowdepth":"12.000","Units":"in","Rept_Date":"2021-01-31 13"},"coordinates":[2109,3985]},{"type":"Point","properties":{"Station_ID":"IL-CK-42","Station_Nam":"MOUNT PROSPECT 3.0 NE, IL","Latitude":"42.09618","Longitude":"-87.89670","Snowdepth":"12.000","Units":"in","Rept_Date":"2021-01-31 15"},"coordinates":[2137,4162]},{"type":"Point","properties":{"Station_ID":"IL-CK-345","Station_Nam":"FRANKLIN PARK 0.5 SSE, IL","Latitude":"41.92947","Longitude":"-87.87399","Snowdepth":"12.000","Units":"in","Rept_Date":"2021-01-31 14"},"coordinates":[2142,4061]},{"type":"Point","properties":{"Station_ID":"IL-CK-296","Station_Nam":"CHICAGO HEIGHTS 2.4 NNW, IL","Latitude":"41.54277","Longitude":"-87.65407","Snowdepth":"12.000","Units":"in","Rept_Date":"2021-01-31 14"},"coordinates":[2192,3827]},{"type":"Point","properties":{"Station_ID":"IL-CK-145","Station_Nam":"OAK PARK 1.5 S, IL","Latitude":"41.86592","Longitude":"-87.79280","Snowdepth":"12.000","Units":"in","Rept_Date":"2021-01-31 13"},"coordinates":[2160,4023]},{"type":"Point","properties":{"Station_ID":"IL-CK-121","Station_Nam":"PALATINE 1.3 E, IL","Latitude":"42.11385","Longitude":"-88.01780","Snowdepth":"12.000","Units":"in","Rept_Date":"2021-01-31 14"},"coordinates":[2109,4173]},{"type":"Point","properties":{"Station_ID":"IDAI4","Station_Nam":"INDIANOLA,IA","Latitude":"41.36670","Longitude":"-93.55000","Snowdepth":"12.000","Units":"in","Rept_Date":"2021-01-31 13"},"coordinates":[844,3720]},{"type":"Point","properties":{"Station_ID":"IA-LN-7","Station_Nam":"CENTRAL CITY 6.7 W, IA","Latitude":"42.19830","Longitude":"-91.65430","Snowdepth":"12.000","Units":"in","Rept_Date":"2021-01-31 13"},"coordinates":[1277,4224]},{"type":"Point","properties":{"Station_ID":"IA-JH-1","Station_Nam":"SOLON 0.3 ESE, IA","Latitude":"41.80398","Longitude":"-91.48910","Snowdepth":"12.000","Units":"in","Rept_Date":"2021-01-31 13"},"coordinates":[1315,3985]},{"type":"Point","properties":{"Station_ID":"IA-BT-16","Station_Nam":"SHELLSBURG 2.9 S, IA","Latitude":"42.05091","Longitude":"-91.87008","Snowdepth":"12.000","Units":"in","Rept_Date":"2021-01-31 13"},"coordinates":[1228,4135]},{"type":"Point","properties":{"Station_ID":"IA-BT-12","Station_Nam":"FAIRFAX 4.0 NW, IA","Latitude":"41.96223","Longitude":"-91.83675","Snowdepth":"12.000","Units":"in","Rept_Date":"2021-01-31 13"},"coordinates":[1235,4081]},{"type":"Point","properties":{"Station_ID":"HUBN3","Station_Nam":"HUBBARD BROOK","Latitude":"43.93330","Longitude":"-71.71670","Snowdepth":"12.000","Units":"in","Rept_Date":"2021-02-01 06"},"coordinates":[5837,5276]},{"type":"Point","properties":{"Station_ID":"GRWI4","Station_Nam":"GARWIN,IA","Latitude":"42.10000","Longitude":"-92.66670","Snowdepth":"12.000","Units":"in","Rept_Date":"2021-01-31 12"},"coordinates":[1046,4165]},{"type":"Point","properties":{"Station_ID":"EVRW3","Station_Nam":"EAGLE RIVER-4 E","Latitude":"45.91890","Longitude":"-89.15280","Snowdepth":"12.000","Units":"in","Rept_Date":"2021-01-31 13"},"coordinates":[1849,6479]},{"type":"Point","properties":{"Station_ID":"EAHV1","Station_Nam":"EAST HAVEN","Latitude":"44.64250","Longitude":"-71.89120","Snowdepth":"12.000","Units":"in","Rept_Date":"2021-01-31 12"},"coordinates":[5797,5705]},{"type":"Point","properties":{"Station_ID":"DUBI4","Station_Nam":"DUBUQUE #3","Latitude":"42.40870","Longitude":"-90.73250","Snowdepth":"12.000","Units":"in","Rept_Date":"2021-02-01 00"},"coordinates":[1488,4352]},{"type":"Point","properties":{"Station_ID":"DLHM5","Station_Nam":"DULUTH NWS","Latitude":"46.83680","Longitude":"-92.21080","Snowdepth":"12.000","Units":"in","Rept_Date":"2021-02-01 06"},"coordinates":[1150,7035]},{"type":"Point","properties":{"Station_ID":"DLH","Station_Nam":"DULUTH, MN","Latitude":"46.83690","Longitude":"-92.21030","Snowdepth":"12.000","Units":"in","Rept_Date":"2021-02-01 00"},"coordinates":[1150,7035]},{"type":"Point","properties":{"Station_ID":"DBQ","Station_Nam":"DUBUQUE REGIONAL AIRPORT","Latitude":"42.40310","Longitude":"-90.70920","Snowdepth":"12.000","Units":"in","Rept_Date":"2021-02-01 00"},"coordinates":[1493,4348]},{"type":"Point","properties":{"Station_ID":"CUSW3","Station_Nam":"COLUMBUS","Latitude":"43.32610","Longitude":"-89.00810","Snowdepth":"12.000","Units":"in","Rept_Date":"2021-01-31 16"},"coordinates":[1882,4908]},{"type":"Point","properties":{"Station_ID":"CRPI4","Station_Nam":"CEDAR RAPIDS NO 1","Latitude":"42.05000","Longitude":"-91.58810","Snowdepth":"12.000","Units":"in","Rept_Date":"2021-01-31 23"},"coordinates":[1292,4134]},{"type":"Point","properties":{"Station_ID":"CLKM4","Station_Nam":"CLARKSBURG","Latitude":"46.49910","Longitude":"-87.84500","Snowdepth":"12.000","Units":"in","Rept_Date":"2021-01-31 12"},"coordinates":[2148,6831]},{"type":"Point","properties":{"Station_ID":"BRAM1","Station_Nam":"BRASSUA DAM","Latitude":"45.66020","Longitude":"-69.81190","Snowdepth":"12.000","Units":"in","Rept_Date":"2021-01-31 12"},"coordinates":[6273,6322]},{"type":"Point","properties":{"Station_ID":"BGBM4","Station_Nam":"BIG BAY 1NW","Latitude":"46.83250","Longitude":"-87.75040","Snowdepth":"12.000","Units":"in","Rept_Date":"2021-01-31 13"},"coordinates":[2170,7033]},{"type":"Point","properties":{"Station_ID":"BBDW3","Station_Nam":"BIG BEND","Latitude":"42.88140","Longitude":"-88.20670","Snowdepth":"12.000","Units":"in","Rept_Date":"2021-01-31 13"},"coordinates":[2066,4638]},{"type":"Point","properties":{"Station_ID":"ATAN6","Station_Nam":"ATTICA 7 SW","Latitude":"42.81070","Longitude":"-78.39790","Snowdepth":"12.000","Units":"in","Rept_Date":"2021-01-31 11"},"coordinates":[4309,4595]},{"type":"Point","properties":{"Station_ID":"ARRI2","Station_Nam":"WATER DEPT","Latitude":"41.75000","Longitude":"-88.35000","Snowdepth":"12.000","Units":"in","Rept_Date":"2021-01-31 13"},"coordinates":[2033,3952]},{"type":"Point","properties":{"Station_ID":"ALO","Station_Nam":"WATERLOO MUNICIPAL AIRPORT","Latitude":"42.55690","Longitude":"-92.40000","Snowdepth":"12.000","Units":"in","Rept_Date":"2021-02-01 00"},"coordinates":[1107,4442]},{"type":"Point","properties":{"Station_ID":"QLP","Station_Nam":"QLP","Latitude":"48.13920","Longitude":"-72.63830","Snowdepth":"11.850","Units":"in","Rept_Date":"2021-01-31 12"},"coordinates":[5626,7825]},{"type":"Point","properties":{"Station_ID":"WI-WW-12","Station_Nam":"ELKHORN 0.4 ESE, WI","Latitude":"42.66970","Longitude":"-88.53170","Snowdepth":"11.700","Units":"in","Rept_Date":"2021-01-31 11"},"coordinates":[1991,4510]},{"type":"Point","properties":{"Station_ID":"NY-CR-5","Station_Nam":"MARATHON 1.0 NW, NY","Latitude":"42.45161","Longitude":"-76.04370","Snowdepth":"11.700","Units":"in","Rept_Date":"2021-01-31 12"},"coordinates":[4847,4378]},{"type":"Point","properties":{"Station_ID":"QGA","Station_Nam":"QGA","Latitude":"47.25640","Longitude":"-73.73810","Snowdepth":"11.653","Units":"in","Rept_Date":"2021-01-31 12"},"coordinates":[5375,7290]},{"type":"Point","properties":{"Station_ID":"WI-SB-26","Station_Nam":"SHEBOYGAN 1.7 NNE, WI","Latitude":"43.76601","Longitude":"-87.71164","Snowdepth":"11.500","Units":"in","Rept_Date":"2021-01-31 16"},"coordinates":[2179,5174]},{"type":"Point","properties":{"Station_ID":"WI-DG-20","Station_Nam":"SOLON SPRINGS 1.2 W, WI","Latitude":"46.35217","Longitude":"-91.84405","Snowdepth":"11.500","Units":"in","Rept_Date":"2021-01-31 13"},"coordinates":[1234,6742]},{"type":"Point","properties":{"Station_ID":"VT-WS-15","Station_Nam":"EAST CALAIS 1.5 SW, VT","Latitude":"44.35523","Longitude":"-72.45540","Snowdepth":"11.500","Units":"in","Rept_Date":"2021-01-31 12"},"coordinates":[5668,5531]},{"type":"Point","properties":{"Station_ID":"VT-OL-9","Station_Nam":"GREENSBORO 2.1 NNW, VT","Latitude":"44.60528","Longitude":"-72.30940","Snowdepth":"11.500","Units":"in","Rept_Date":"2021-01-31 12"},"coordinates":[5702,5683]},{"type":"Point","properties":{"Station_ID":"NY-OT-11","Station_Nam":"HARTWICK, NY","Latitude":"42.65990","Longitude":"-75.05000","Snowdepth":"11.500","Units":"in","Rept_Date":"2021-01-31 15"},"coordinates":[5075,4504]},{"type":"Point","properties":{"Station_ID":"NY-OS-21","Station_Nam":"PULASKI 0.5 NE, NY","Latitude":"43.56997","Longitude":"-76.11950","Snowdepth":"11.500","Units":"in","Rept_Date":"2021-01-31 11"},"coordinates":[4830,5055]},{"type":"Point","properties":{"Station_ID":"MN-IT-1","Station_Nam":"GRAND RAPIDS 2.0 E, MN","Latitude":"47.22266","Longitude":"-93.49600","Snowdepth":"11.500","Units":"in","Rept_Date":"2021-01-31 14"},"coordinates":[856,7269]},{"type":"Point","properties":{"Station_ID":"MI-HG-1","Station_Nam":"HOUGHTON 1.6 ESE, MI","Latitude":"47.10774","Longitude":"-88.52940","Snowdepth":"11.500","Units":"in","Rept_Date":"2021-01-31 13"},"coordinates":[1992,7200]},{"type":"Point","properties":{"Station_ID":"MI-AG-6","Station_Nam":"MUNISING 11.1 SSW, MI","Latitude":"46.27805","Longitude":"-86.75747","Snowdepth":"11.500","Units":"in","Rept_Date":"2021-01-31 12"},"coordinates":[2397,6697]},{"type":"Point","properties":{"Station_ID":"IN-PT-133","Station_Nam":"VALPARAISO 2.2 WNW, IN","Latitude":"41.49345","Longitude":"-87.08720","Snowdepth":"11.500","Units":"in","Rept_Date":"2021-01-31 13"},"coordinates":[2322,3797]},{"type":"Point","properties":{"Station_ID":"IL-DP-157","Station_Nam":"WEST CHICAGO 3.5 NNE, IL","Latitude":"41.93718","Longitude":"-88.19884","Snowdepth":"11.500","Units":"in","Rept_Date":"2021-01-31 14"},"coordinates":[2067,4066]},{"type":"Point","properties":{"Station_ID":"CAN-QC-47","Station_Nam":"SAINTE-FOY 1.8 ENE, CAN","Latitude":"46.76934","Longitude":"-71.27124","Snowdepth":"11.400","Units":"in","Rept_Date":"2021-01-31 12"},"coordinates":[5939,6994]},{"type":"Point","properties":{"Station_ID":"CAN-ON-452","Station_Nam":"CHATSWORTH 1.8 ENE - GSCA, CAN","Latitude":"44.46118","Longitude":"-80.87506","Snowdepth":"11.400","Units":"in","Rept_Date":"2021-01-31 12"},"coordinates":[3743,5596]},{"type":"Point","properties":{"Station_ID":"VT-OL-25","Station_Nam":"NEWPORT 1.5 WSW, VT","Latitude":"44.93059","Longitude":"-72.23731","Snowdepth":"11.300","Units":"in","Rept_Date":"2021-01-31 12"},"coordinates":[5718,5880]},{"type":"Point","properties":{"Station_ID":"IL-KN-78","Station_Nam":"GENEVA 1.3 SSW, IL","Latitude":"41.86442","Longitude":"-88.32320","Snowdepth":"11.300","Units":"in","Rept_Date":"2021-01-31 13"},"coordinates":[2039,4022]},{"type":"Point","properties":{"Station_ID":"CAN-ON-771","Station_Nam":"KENORA 8.7 NNE - CANWARN, CAN","Latitude":"49.84171","Longitude":"-94.44386","Snowdepth":"11.300","Units":"in","Rept_Date":"2021-01-31 14"},"coordinates":[639,8856]},{"type":"Point","properties":{"Station_ID":"QLM","Station_Nam":"QLM","Latitude":"48.92030","Longitude":"-70.25280","Snowdepth":"11.142","Units":"in","Rept_Date":"2021-01-31 12"},"coordinates":[6172,8298]},{"type":"Point","properties":{"Station_ID":"WTRM4","Station_Nam":"WATERSMEET 12WSW","Latitude":"46.22310","Longitude":"-89.40850","Snowdepth":"11.000","Units":"in","Rept_Date":"2021-01-31 12"},"coordinates":[1791,6663]},{"type":"Point","properties":{"Station_ID":"WTNM4","Station_Nam":"WATTON 2WSW","Latitude":"46.52660","Longitude":"-88.64240","Snowdepth":"11.000","Units":"in","Rept_Date":"2021-01-31 13"},"coordinates":[1966,6847]},{"type":"Point","properties":{"Station_ID":"WI-WS-5","Station_Nam":"JACKSON 0.2 WSW, WI","Latitude":"43.32007","Longitude":"-88.16820","Snowdepth":"11.000","Units":"in","Rept_Date":"2021-01-31 12"},"coordinates":[2074,4904]},{"type":"Point","properties":{"Station_ID":"WI-SC-21","Station_Nam":"CLEAR LAKE 4.0 S, WI","Latitude":"45.19250","Longitude":"-92.27860","Snowdepth":"11.000","Units":"in","Rept_Date":"2021-01-31 13"},"coordinates":[1134,6039]},{"type":"Point","properties":{"Station_ID":"WI-SB-18","Station_Nam":"PLYMOUTH 5.4 NE, WI","Latitude":"43.81185","Longitude":"-87.91054","Snowdepth":"11.000","Units":"in","Rept_Date":"2021-02-01 00"},"coordinates":[2133,5202]},{"type":"Point","properties":{"Station_ID":"WI-PR-6","Station_Nam":"PHILLIPS 1.3 S, WI","Latitude":"45.67677","Longitude":"-90.39543","Snowdepth":"11.000","Units":"in","Rept_Date":"2021-01-31 12"},"coordinates":[1565,6332]},{"type":"Point","properties":{"Station_ID":"WI-PK-33","Station_Nam":"FREDERIC 4.8 NE, WI","Latitude":"45.70970","Longitude":"-92.39950","Snowdepth":"11.000","Units":"in","Rept_Date":"2021-01-31 13"},"coordinates":[1107,6352]},{"type":"Point","properties":{"Station_ID":"WI-MW-1","Station_Nam":"SHOREWOOD 0.6 NW, WI","Latitude":"43.09780","Longitude":"-87.89300","Snowdepth":"11.000","Units":"in","Rept_Date":"2021-02-01 02"},"coordinates":[2137,4769]},{"type":"Point","properties":{"Station_ID":"WI-DA-60","Station_Nam":"MIDDLETON 0.8 SSW, WI","Latitude":"43.09292","Longitude":"-89.51258","Snowdepth":"11.000","Units":"in","Rept_Date":"2021-01-31 14"},"coordinates":[1767,4766]},{"type":"Point","properties":{"Station_ID":"WI-CB-4","Station_Nam":"PORTAGE 5.7 WSW, WI","Latitude":"43.51411","Longitude":"-89.56910","Snowdepth":"11.000","Units":"in","Rept_Date":"2021-01-31 13"},"coordinates":[1754,5022]},{"type":"Point","properties":{"Station_ID":"VT-CL-18","Station_Nam":"WHEELOCK 1.6 S, VT","Latitude":"44.56491","Longitude":"-72.08830","Snowdepth":"11.000","Units":"in","Rept_Date":"2021-01-31 12"},"coordinates":[5752,5658]},{"type":"Point","properties":{"Station_ID":"VT-CH-4","Station_Nam":"UNDERHILL 4.4 NNE, VT","Latitude":"44.58774","Longitude":"-72.92250","Snowdepth":"11.000","Units":"in","Rept_Date":"2021-01-31 12"},"coordinates":[5561,5672]},{"type":"Point","properties":{"Station_ID":"VQAW3","Station_Nam":"VIROQUA","Latitude":"43.55970","Longitude":"-90.87560","Snowdepth":"11.000","Units":"in","Rept_Date":"2021-01-31 13"},"coordinates":[1455,5049]},{"type":"Point","properties":{"Station_ID":"SWHI4","Station_Nam":"SWISHER #2","Latitude":"41.84970","Longitude":"-91.67650","Snowdepth":"11.000","Units":"in","Rept_Date":"2021-01-31 14"},"coordinates":[1272,4013]},{"type":"Point","properties":{"Station_ID":"PULN6","Station_Nam":"PULASKI","Latitude":"43.56960","Longitude":"-76.11630","Snowdepth":"11.000","Units":"in","Rept_Date":"2021-01-31 11"},"coordinates":[4831,5055]},{"type":"Point","properties":{"Station_ID":"PLEP1","Station_Nam":"PLEASANT MOUNT 1 W","Latitude":"41.73940","Longitude":"-75.44650","Snowdepth":"11.000","Units":"in","Rept_Date":"2021-01-31 13"},"coordinates":[4984,3946]},{"type":"Point","properties":{"Station_ID":"PDGM4","Station_Nam":"PAULDING","Latitude":"46.39760","Longitude":"-89.17940","Snowdepth":"11.000","Units":"in","Rept_Date":"2021-01-31 14"},"coordinates":[1843,6769]},{"type":"Point","properties":{"Station_ID":"NY-OT-31","Station_Nam":"MARYLAND 1.8 W, NY","Latitude":"42.53310","Longitude":"-74.92090","Snowdepth":"11.000","Units":"in","Rept_Date":"2021-01-31 13"},"coordinates":[5104,4427]},{"type":"Point","properties":{"Station_ID":"NY-MD-10","Station_Nam":"CAZENOVIA 2.9 SE, NY","Latitude":"42.90003","Longitude":"-75.81140","Snowdepth":"11.000","Units":"in","Rept_Date":"2021-01-31 12"},"coordinates":[4901,4649]},{"type":"Point","properties":{"Station_ID":"NY-BM-14","Station_Nam":"WHITNEY POINT 1.7 SSE, NY","Latitude":"42.30837","Longitude":"-75.95690","Snowdepth":"11.000","Units":"in","Rept_Date":"2021-01-31 12"},"coordinates":[4867,4291]},{"type":"Point","properties":{"Station_ID":"NUNV1","Station_Nam":"NORTH UNDERHILL","Latitude":"44.58760","Longitude":"-72.92150","Snowdepth":"11.000","Units":"in","Rept_Date":"2021-01-31 12"},"coordinates":[5562,5672]},{"type":"Point","properties":{"Station_ID":"NH-CR-26","Station_Nam":"CENTER SANDWICH 4.9 E, NH","Latitude":"43.80976","Longitude":"-71.34150","Snowdepth":"11.000","Units":"in","Rept_Date":"2021-01-31 12"},"coordinates":[5923,5201]},{"type":"Point","properties":{"Station_ID":"MN-SL-115","Station_Nam":"COTTON 5.7 ESE, MN","Latitude":"47.15142","Longitude":"-92.35772","Snowdepth":"11.000","Units":"in","Rept_Date":"2021-01-31 14"},"coordinates":[1116,7226]},{"type":"Point","properties":{"Station_ID":"MN-IT-23","Station_Nam":"BOVEY 13.4 N, MN","Latitude":"47.48855","Longitude":"-93.43497","Snowdepth":"11.000","Units":"in","Rept_Date":"2021-01-31 13"},"coordinates":[870,7430]},{"type":"Point","properties":{"Station_ID":"MN-CN-36","Station_Nam":"CLOQUET 3.4 ENE, MN","Latitude":"46.74146","Longitude":"-92.42698","Snowdepth":"11.000","Units":"in","Rept_Date":"2021-01-31 13"},"coordinates":[1100,6978]},{"type":"Point","properties":{"Station_ID":"MN-AA-76","Station_Nam":"NOWTHEN 2.9 SSE, MN","Latitude":"45.30360","Longitude":"-93.42620","Snowdepth":"11.000","Units":"in","Rept_Date":"2021-01-31 13"},"coordinates":[872,6106]},{"type":"Point","properties":{"Station_ID":"MIEM4","Station_Nam":"MICHIGAMME 3WNW","Latitude":"46.54530","Longitude":"-88.18000","Snowdepth":"11.000","Units":"in","Rept_Date":"2021-01-31 13"},"coordinates":[2072,6859]},{"type":"Point","properties":{"Station_ID":"MI-MQ-19","Station_Nam":"ISHPEMING 7.2 SW, MI","Latitude":"46.40550","Longitude":"-87.75670","Snowdepth":"11.000","Units":"in","Rept_Date":"2021-01-31 11"},"coordinates":[2169,6774]},{"type":"Point","properties":{"Station_ID":"MFWI2","Station_Nam":"MIDWAY COOP","Latitude":"41.73730","Longitude":"-87.77760","Snowdepth":"11.000","Units":"in","Rept_Date":"2021-01-31 12"},"coordinates":[2164,3945]},{"type":"Point","properties":{"Station_ID":"ME-SM-4","Station_Nam":"SOLON 3.9 ESE, ME","Latitude":"44.94705","Longitude":"-69.77790","Snowdepth":"11.000","Units":"in","Rept_Date":"2021-01-31 12"},"coordinates":[6281,5890]},{"type":"Point","properties":{"Station_ID":"ME-FR-4","Station_Nam":"NEW SHARON 2.0 NW, ME","Latitude":"44.66582","Longitude":"-70.02720","Snowdepth":"11.000","Units":"in","Rept_Date":"2021-01-31 12"},"coordinates":[6224,5720]},{"type":"Point","properties":{"Station_ID":"LYNW3","Station_Nam":"LYNXVILLE DAM 9","Latitude":"43.21180","Longitude":"-91.09850","Snowdepth":"11.000","Units":"in","Rept_Date":"2021-01-31 14"},"coordinates":[1404,4838]},{"type":"Point","properties":{"Station_ID":"LOTI2","Station_Nam":"ROMEOVILLE WFO","Latitude":"41.60440","Longitude":"-88.08580","Snowdepth":"11.000","Units":"in","Rept_Date":"2021-02-01 06"},"coordinates":[2093,3864]},{"type":"Point","properties":{"Station_ID":"LODW3","Station_Nam":"LODI","Latitude":"43.32170","Longitude":"-89.53110","Snowdepth":"11.000","Units":"in","Rept_Date":"2021-01-31 13"},"coordinates":[1763,4905]},{"type":"Point","properties":{"Station_ID":"LNK","Station_Nam":"LINCOLN MUNICIPAL AIRPORT","Latitude":"40.85080","Longitude":"-96.75920","Snowdepth":"11.000","Units":"in","Rept_Date":"2021-02-01 00"},"coordinates":[110,3408]},{"type":"Point","properties":{"Station_ID":"JACW3","Station_Nam":"JACKSON","Latitude":"43.31940","Longitude":"-88.16810","Snowdepth":"11.000","Units":"in","Rept_Date":"2021-01-31 12"},"coordinates":[2075,4904]},{"type":"Point","properties":{"Station_ID":"IL-WL-149","Station_Nam":"BULT FIELD-MONEE 4.9 SE, IL","Latitude":"41.37740","Longitude":"-87.67975","Snowdepth":"11.000","Units":"in","Rept_Date":"2021-01-31 14"},"coordinates":[2186,3727]},{"type":"Point","properties":{"Station_ID":"IL-KN-67","Station_Nam":"ST. CHARLES 6.0 NW, IL","Latitude":"41.98401","Longitude":"-88.38030","Snowdepth":"11.000","Units":"in","Rept_Date":"2021-01-31 13"},"coordinates":[2026,4094]},{"type":"Point","properties":{"Station_ID":"IL-KN-64","Station_Nam":"ST. CHARLES 0.1 E, IL","Latitude":"41.92010","Longitude":"-88.29900","Snowdepth":"11.000","Units":"in","Rept_Date":"2021-01-31 14"},"coordinates":[2045,4056]},{"type":"Point","properties":{"Station_ID":"IL-KN-5","Station_Nam":"BATAVIA 0.7 WSW, IL","Latitude":"41.84815","Longitude":"-88.31440","Snowdepth":"11.000","Units":"in","Rept_Date":"2021-01-31 12"},"coordinates":[2041,4012]},{"type":"Point","properties":{"Station_ID":"IL-KN-23","Station_Nam":"BATAVIA 1.5 WNW, IL","Latitude":"41.85937","Longitude":"-88.32750","Snowdepth":"11.000","Units":"in","Rept_Date":"2021-01-31 13"},"coordinates":[2038,4019]},{"type":"Point","properties":{"Station_ID":"IL-KN-124","Station_Nam":"AURORA 3.1 WSW, IL","Latitude":"41.75647","Longitude":"-88.35182","Snowdepth":"11.000","Units":"in","Rept_Date":"2021-01-31 14"},"coordinates":[2033,3956]},{"type":"Point","properties":{"Station_ID":"IL-KK-42","Station_Nam":"CHEBANSE 0.8 ENE, IL","Latitude":"41.00500","Longitude":"-87.89853","Snowdepth":"11.000","Units":"in","Rept_Date":"2021-01-31 10"},"coordinates":[2136,3501]},{"type":"Point","properties":{"Station_ID":"IL-HY-5","Station_Nam":"COAL VALLEY 1.9 SE, IL","Latitude":"41.43339","Longitude":"-90.41750","Snowdepth":"11.000","Units":"in","Rept_Date":"2021-01-31 13"},"coordinates":[1560,3761]},{"type":"Point","properties":{"Station_ID":"IL-DP-79","Station_Nam":"BURR RIDGE 1.9 SW, IL","Latitude":"41.73194","Longitude":"-87.94860","Snowdepth":"11.000","Units":"in","Rept_Date":"2021-01-31 13"},"coordinates":[2125,3942]},{"type":"Point","properties":{"Station_ID":"IL-DP-78","Station_Nam":"NAPERVILLE 2.4 SE, IL","Latitude":"41.74184","Longitude":"-88.11620","Snowdepth":"11.000","Units":"in","Rept_Date":"2021-01-31 13"},"coordinates":[2086,3948]},{"type":"Point","properties":{"Station_ID":"IL-DP-109","Station_Nam":"ELMHURST 0.8 ESE, IL","Latitude":"41.89287","Longitude":"-87.92960","Snowdepth":"11.000","Units":"in","Rept_Date":"2021-01-31 13"},"coordinates":[2129,4039]},{"type":"Point","properties":{"Station_ID":"IL-CK-94","Station_Nam":"LINCOLNWOOD 1.8 E, IL","Latitude":"42.00187","Longitude":"-87.69850","Snowdepth":"11.000","Units":"in","Rept_Date":"2021-01-31 13"},"coordinates":[2182,4105]},{"type":"Point","properties":{"Station_ID":"IL-CK-88","Station_Nam":"COUNTRYSIDE 0.8 ENE, IL","Latitude":"41.78231","Longitude":"-87.86220","Snowdepth":"11.000","Units":"in","Rept_Date":"2021-01-31 11"},"coordinates":[2144,3972]},{"type":"Point","properties":{"Station_ID":"IL-CK-50","Station_Nam":"PALOS PARK 1.3 SW, IL","Latitude":"41.65281","Longitude":"-87.86310","Snowdepth":"11.000","Units":"in","Rept_Date":"2021-01-31 13"},"coordinates":[2144,3894]},{"type":"Point","properties":{"Station_ID":"IA-ST-48","Station_Nam":"BETTENDORF 1.6 W, IA","Latitude":"41.56502","Longitude":"-90.50767","Snowdepth":"11.000","Units":"in","Rept_Date":"2021-01-31 13"},"coordinates":[1539,3840]},{"type":"Point","properties":{"Station_ID":"IA-JH-14","Station_Nam":"SWISHER 0.4 NNE, IA","Latitude":"41.84830","Longitude":"-91.69210","Snowdepth":"11.000","Units":"in","Rept_Date":"2021-01-31 14"},"coordinates":[1269,4012]},{"type":"Point","properties":{"Station_ID":"IA-BH-6","Station_Nam":"WATERLOO 1.9 SSE, IA","Latitude":"42.46500","Longitude":"-92.34100","Snowdepth":"11.000","Units":"in","Rept_Date":"2021-01-31 13"},"coordinates":[1120,4386]},{"type":"Point","properties":{"Station_ID":"HVJP1","Station_Nam":"HIDDEN VALLEY COOP","Latitude":"40.04200","Longitude":"-79.25660","Snowdepth":"11.000","Units":"in","Rept_Date":"2021-01-31 13"},"coordinates":[4113,2917]},{"type":"Point","properties":{"Station_ID":"HRTM1","Station_Nam":"HARTFORD","Latitude":"44.37440","Longitude":"-70.31620","Snowdepth":"11.000","Units":"in","Rept_Date":"2021-01-31 12"},"coordinates":[6157,5543]},{"type":"Point","properties":{"Station_ID":"HEBI2","Station_Nam":"HEBRON","Latitude":"42.46750","Longitude":"-88.48060","Snowdepth":"11.000","Units":"in","Rept_Date":"2021-01-31 13"},"coordinates":[2003,4387]},{"type":"Point","properties":{"Station_ID":"GHMN3","Station_Nam":"PINKHAM NOTCH","Latitude":"44.25800","Longitude":"-71.25250","Snowdepth":"11.000","Units":"in","Rept_Date":"2021-01-31 11"},"coordinates":[5943,5472]},{"type":"Point","properties":{"Station_ID":"GEOI2","Station_Nam":"GENOA,IL","Latitude":"42.08000","Longitude":"-88.70750","Snowdepth":"11.000","Units":"in","Rept_Date":"2021-01-31 13"},"coordinates":[1951,4152]},{"type":"Point","properties":{"Station_ID":"FARM1","Station_Nam":"FARMINGTON","Latitude":"44.68930","Longitude":"-70.15640","Snowdepth":"11.000","Units":"in","Rept_Date":"2021-01-31 12"},"coordinates":[6194,5734]},{"type":"Point","properties":{"Station_ID":"ESDN3","Station_Nam":"EAST SANDWICH","Latitude":"43.80990","Longitude":"-71.34250","Snowdepth":"11.000","Units":"in","Rept_Date":"2021-01-31 11"},"coordinates":[5923,5201]},{"type":"Point","properties":{"Station_ID":"ENFV1","Station_Nam":"ENOSBURG FALLS 2","Latitude":"44.90960","Longitude":"-72.81370","Snowdepth":"11.000","Units":"in","Rept_Date":"2021-01-31 12"},"coordinates":[5586,5867]},{"type":"Point","properties":{"Station_ID":"EMBM5","Station_Nam":"EMBARASS,MN","Latitude":"47.65810","Longitude":"-92.19580","Snowdepth":"11.000","Units":"in","Rept_Date":"2021-01-31 14"},"coordinates":[1153,7533]},{"type":"Point","properties":{"Station_ID":"EGRW3","Station_Nam":"EAGLE RIVER-SOUTH","Latitude":"45.91360","Longitude":"-89.24360","Snowdepth":"11.000","Units":"in","Rept_Date":"2021-01-31 13"},"coordinates":[1829,6476]},{"type":"Point","properties":{"Station_ID":"DVNI4","Station_Nam":"DAVENPORT WFO","Latitude":"41.61170","Longitude":"-90.58160","Snowdepth":"11.000","Units":"in","Rept_Date":"2021-02-01 06"},"coordinates":[1523,3869]},{"type":"Point","properties":{"Station_ID":"DVN","Station_Nam":"QUAD CITIES, IA","Latitude":"41.61030","Longitude":"-90.58830","Snowdepth":"11.000","Units":"in","Rept_Date":"2021-02-01 00"},"coordinates":[1521,3868]},{"type":"Point","properties":{"Station_ID":"CMRI4","Station_Nam":"CALMAR NE","Latitude":"43.18760","Longitude":"-91.86200","Snowdepth":"11.000","Units":"in","Rept_Date":"2021-01-31 13"},"coordinates":[1230,4824]},{"type":"Point","properties":{"Station_ID":"CLNI4","Station_Nam":"CLINTON NO 1","Latitude":"41.79470","Longitude":"-90.26390","Snowdepth":"11.000","Units":"in","Rept_Date":"2021-02-01 00"},"coordinates":[1595,3980]},{"type":"Point","properties":{"Station_ID":"CHMW3","Station_Nam":"MADISON,WI","Latitude":"43.06030","Longitude":"-89.47810","Snowdepth":"11.000","Units":"in","Rept_Date":"2021-01-31 13"},"coordinates":[1775,4747]},{"type":"Point","properties":{"Station_ID":"CDLM4","Station_Nam":"CADILLAC 9&10 NEWS","Latitude":"44.21130","Longitude":"-85.40860","Snowdepth":"11.000","Units":"in","Rept_Date":"2021-01-31 12"},"coordinates":[2706,5444]},{"type":"Point","properties":{"Station_ID":"CAN-NB-13","Station_Nam":"BATHURST 3.8 NW, CAN","Latitude":"47.64212","Longitude":"-65.68756","Snowdepth":"11.000","Units":"in","Rept_Date":"2021-01-31 11"},"coordinates":[7216,7523]},{"type":"Point","properties":{"Station_ID":"CAAW2","Station_Nam":"CANAAN VALLEY","Latitude":"39.05890","Longitude":"-79.44030","Snowdepth":"11.000","Units":"in","Rept_Date":"2021-01-31 14"},"coordinates":[4071,2322]},{"type":"Point","properties":{"Station_ID":"BRLN3","Station_Nam":"BERLIN","Latitude":"44.45350","Longitude":"-71.18540","Snowdepth":"11.000","Units":"in","Rept_Date":"2021-01-31 17"},"coordinates":[5959,5591]},{"type":"Point","properties":{"Station_ID":"BLVI4","Station_Nam":"MISSISSIPPI RIVER","Latitude":"42.26670","Longitude":"-90.41670","Snowdepth":"11.000","Units":"in","Rept_Date":"2021-01-31 12"},"coordinates":[1560,4266]},{"type":"Point","properties":{"Station_ID":"ALXI4","Station_Nam":"WATERLOO SNOW","Latitude":"42.53130","Longitude":"-92.37550","Snowdepth":"11.000","Units":"in","Rept_Date":"2021-02-01 06"},"coordinates":[1112,4426]},{"type":"Point","properties":{"Station_ID":"ALLW3","Station_Nam":"ALLENTON","Latitude":"43.42360","Longitude":"-88.35110","Snowdepth":"11.000","Units":"in","Rept_Date":"2021-01-31 17"},"coordinates":[2033,4967]},{"type":"Point","properties":{"Station_ID":"FTHQ6","Station_Nam":"FORT HOPE","Latitude":"51.55820","Longitude":"-87.90510","Snowdepth":"10.710","Units":"in","Rept_Date":"2021-01-31 20"},"coordinates":[2135,9897]},{"type":"Point","properties":{"Station_ID":"QTV","Station_Nam":"QTV","Latitude":"49.66000","Longitude":"-69.35690","Snowdepth":"10.709","Units":"in","Rept_Date":"2021-01-31 12"},"coordinates":[6377,8746]},{"type":"Point","properties":{"Station_ID":"WV-PR-10","Station_Nam":"TERRA ALTA 4.9 NNE, WV","Latitude":"39.51024","Longitude":"-79.51024","Snowdepth":"10.700","Units":"in","Rept_Date":"2021-01-31 13"},"coordinates":[4055,2595]},{"type":"Point","properties":{"Station_ID":"IL-DK-37","Station_Nam":"SYCAMORE 0.7 ESE, IL","Latitude":"41.97618","Longitude":"-88.68418","Snowdepth":"10.700","Units":"in","Rept_Date":"2021-01-31 13"},"coordinates":[1956,4090]},{"type":"Point","properties":{"Station_ID":"WI-VL-14","Station_Nam":"BOULDER JUNCTION 1.4 NE, WI","Latitude":"46.12840","Longitude":"-89.62470","Snowdepth":"10.500","Units":"in","Rept_Date":"2021-01-31 14"},"coordinates":[1741,6606]},{"type":"Point","properties":{"Station_ID":"WI-MW-23","Station_Nam":"GREENDALE 1.0 ENE, WI","Latitude":"42.94094","Longitude":"-87.98230","Snowdepth":"10.500","Units":"in","Rept_Date":"2021-01-31 14"},"coordinates":[2117,4674]},{"type":"Point","properties":{"Station_ID":"WI-JF-10","Station_Nam":"PALMYRA 1.5 N, WI","Latitude":"42.90084","Longitude":"-88.58620","Snowdepth":"10.500","Units":"in","Rept_Date":"2021-01-31 13"},"coordinates":[1979,4650]},{"type":"Point","properties":{"Station_ID":"WI-BT-14","Station_Nam":"OAKLAND 9.0 ENE, WI","Latitude":"45.95184","Longitude":"-92.21653","Snowdepth":"10.500","Units":"in","Rept_Date":"2021-01-31 13"},"coordinates":[1149,6499]},{"type":"Point","properties":{"Station_ID":"NY-TG-15","Station_Nam":"BERKSHIRE 1.9 ENE, NY","Latitude":"42.31910","Longitude":"-76.21940","Snowdepth":"10.500","Units":"in","Rept_Date":"2021-01-31 13"},"coordinates":[4807,4297]},{"type":"Point","properties":{"Station_ID":"NY-CN-2","Station_Nam":"NORWICH 5.7 NE, NY","Latitude":"42.58333","Longitude":"-75.43330","Snowdepth":"10.500","Units":"in","Rept_Date":"2021-01-31 13"},"coordinates":[4987,4458]},{"type":"Point","properties":{"Station_ID":"NE-SY-25","Station_Nam":"GRETNA 2.9 NNE, NE","Latitude":"41.17831","Longitude":"-96.21984","Snowdepth":"10.500","Units":"in","Rept_Date":"2021-01-31 14"},"coordinates":[233,3606]},{"type":"Point","properties":{"Station_ID":"MN-SL-175","Station_Nam":"DULUTH 4.6 NE, MN","Latitude":"46.83860","Longitude":"-92.05140","Snowdepth":"10.500","Units":"in","Rept_Date":"2021-01-31 13"},"coordinates":[1186,7036]},{"type":"Point","properties":{"Station_ID":"ME-SM-45","Station_Nam":"BRIGHTON PLANTATION 2.1 N, ME","Latitude":"45.07098","Longitude":"-69.69860","Snowdepth":"10.500","Units":"in","Rept_Date":"2021-01-31 12"},"coordinates":[6299,5965]},{"type":"Point","properties":{"Station_ID":"ME-FR-22","Station_Nam":"FARMINGTON 4.8 NNW, ME","Latitude":"44.73396","Longitude":"-70.18007","Snowdepth":"10.500","Units":"in","Rept_Date":"2021-01-31 14"},"coordinates":[6189,5761]},{"type":"Point","properties":{"Station_ID":"IN-PT-98","Station_Nam":"VALPARAISO 0.9 NNW, IN","Latitude":"41.48956","Longitude":"-87.05800","Snowdepth":"10.500","Units":"in","Rept_Date":"2021-01-31 13"},"coordinates":[2328,3795]},{"type":"Point","properties":{"Station_ID":"IL-WL-25","Station_Nam":"CRETE 2.6 E, IL","Latitude":"41.44681","Longitude":"-87.56570","Snowdepth":"10.500","Units":"in","Rept_Date":"2021-01-31 13"},"coordinates":[2212,3769]},{"type":"Point","properties":{"Station_ID":"IL-MCH-33","Station_Nam":"WOODSTOCK 3.8 SW, IL","Latitude":"42.27554","Longitude":"-88.49500","Snowdepth":"10.500","Units":"in","Rept_Date":"2021-01-31 14"},"coordinates":[2000,4271]},{"type":"Point","properties":{"Station_ID":"IL-KN-121","Station_Nam":"GENEVA 1.3 NW, IL","Latitude":"41.89380","Longitude":"-88.33500","Snowdepth":"10.500","Units":"in","Rept_Date":"2021-01-31 13"},"coordinates":[2036,4040]},{"type":"Point","properties":{"Station_ID":"IL-KD-34","Station_Nam":"PLAINFIELD 4.8 SW, IL","Latitude":"41.56779","Longitude":"-88.27010","Snowdepth":"10.500","Units":"in","Rept_Date":"2021-01-31 13"},"coordinates":[2051,3842]},{"type":"Point","properties":{"Station_ID":"WI-SK-2","Station_Nam":"ROCK SPRINGS 2.8 WSW, WI","Latitude":"43.45901","Longitude":"-89.96540","Snowdepth":"10.400","Units":"in","Rept_Date":"2021-01-31 13"},"coordinates":[1663,4988]},{"type":"Point","properties":{"Station_ID":"VT-AD-28","Station_Nam":"MONKTON 1.5 NE, VT","Latitude":"44.26760","Longitude":"-73.09940","Snowdepth":"10.300","Units":"in","Rept_Date":"2021-01-31 13"},"coordinates":[5521,5478]},{"type":"Point","properties":{"Station_ID":"WMTI4","Station_Nam":"FORT DODGE,IA","Latitude":"42.50610","Longitude":"-94.20110","Snowdepth":"10.000","Units":"in","Rept_Date":"2021-01-31 13"},"coordinates":[695,4411]},{"type":"Point","properties":{"Station_ID":"WI-WS-4","Station_Nam":"KEWASKUM 1.8 WNW, WI","Latitude":"43.52880","Longitude":"-88.26570","Snowdepth":"10.000","Units":"in","Rept_Date":"2021-01-31 13"},"coordinates":[2052,5031]},{"type":"Point","properties":{"Station_ID":"WI-WK-68","Station_Nam":"OCONOMOWOC 1.0 S, WI","Latitude":"43.09530","Longitude":"-88.48590","Snowdepth":"10.000","Units":"in","Rept_Date":"2021-01-31 14"},"coordinates":[2002,4768]},