{"type":"Topology","objects":{"snowdepth_geo":{"type":"GeometryCollection","name":"snowdepth","crs":{"type":"name","properties":{"name":"urn:ogc:def:crs:OGC:1.3:CRS84"}},"geometries":[{"type":"Point","properties":{"Station_ID":"IN-PT-3","Station_Nam":"VALPARAISO 2.0 WSW, IN","Latitude":"41.46741","Longitude":"-87.08750","Snowdepth":"90.000","Units":"in","Rept_Date":"2021-02-02 20"},"coordinates":[2382,3783]},{"type":"Point","properties":{"Station_ID":"PRKM4","Station_Nam":"MUNISING EAST","Latitude":"46.42580","Longitude":"-86.62000","Snowdepth":"76.500","Units":"in","Rept_Date":"2021-02-03 06"},"coordinates":[2492,6787]},{"type":"Point","properties":{"Station_ID":"HLSN3","Station_Nam":"HERMIT LAKE SNOTEL","Latitude":"44.26130","Longitude":"-71.28320","Snowdepth":"42.200","Units":"in","Rept_Date":"2021-02-03 06"},"coordinates":[6092,5476]},{"type":"Point","properties":{"Station_ID":"HTLN3","Station_Nam":"HERMIT LAKE SNOWPLOT","Latitude":"44.26130","Longitude":"-71.28330","Snowdepth":"39.000","Units":"in","Rept_Date":"2021-02-02 10"},"coordinates":[6092,5476]},{"type":"Point","properties":{"Station_ID":"MMNV1","Station_Nam":"MT. MANSFIELD","Latitude":"44.52480","Longitude":"-72.81540","Snowdepth":"38.000","Units":"in","Rept_Date":"2021-02-02 21"},"coordinates":[5732,5635]},{"type":"Point","properties":{"Station_ID":"BENN6","Station_Nam":"BENNETTS BRIDGE","Latitude":"43.53180","Longitude":"-75.95260","Snowdepth":"37.000","Units":"in","Rept_Date":"2021-02-02 12"},"coordinates":[4996,5034]},{"type":"Point","properties":{"Station_ID":"BELN4","Station_Nam":"BELVIDERE BRIDGE","Latitude":"40.82910","Longitude":"-75.08330","Snowdepth":"34.000","Units":"in","Rept_Date":"2021-02-02 12"},"coordinates":[5200,3396]},{"type":"Point","properties":{"Station_ID":"HGHN6","Station_Nam":"HIGHMARKET","Latitude":"43.60510","Longitude":"-75.55430","Snowdepth":"31.000","Units":"in","Rept_Date":"2021-02-02 11"},"coordinates":[5089,5078]},{"type":"Point","properties":{"Station_ID":"NJ-SS-59","Station_Nam":"NEWTON 0.3 W, NJ","Latitude":"41.05350","Longitude":"-74.75808","Snowdepth":"30.700","Units":"in","Rept_Date":"2021-02-02 12"},"coordinates":[5276,3532]},{"type":"Point","properties":{"Station_ID":"PERV1","Station_Nam":"PERU","Latitude":"43.26670","Longitude":"-72.90000","Snowdepth":"30.000","Units":"in","Rept_Date":"2021-02-02 12"},"coordinates":[5712,4873]},{"type":"Point","properties":{"Station_ID":"NY-HM-9","Station_Nam":"HOFFMEISTER 2.0 E, NY","Latitude":"43.38695","Longitude":"-74.67723","Snowdepth":"30.000","Units":"in","Rept_Date":"2021-02-02 13"},"coordinates":[5295,4946]},{"type":"Point","properties":{"Station_ID":"NY-GR-14","Station_Nam":"LEXINGTON 1.5 N, NY","Latitude":"42.26024","Longitude":"-74.35875","Snowdepth":"30.000","Units":"in","Rept_Date":"2021-02-02 12"},"coordinates":[5370,4263]},{"type":"Point","properties":{"Station_ID":"VT-BN-12","Station_Nam":"STAMFORD 5.0 NNE, VT","Latitude":"42.82000","Longitude":"-73.02000","Snowdepth":"29.000","Units":"in","Rept_Date":"2021-02-02 21"},"coordinates":[5684,4602]},{"type":"Point","properties":{"Station_ID":"NJ-SS-52","Station_Nam":"NEWTON 0.9 S, NJ","Latitude":"41.04186","Longitude":"-74.75164","Snowdepth":"29.000","Units":"in","Rept_Date":"2021-02-02 12"},"coordinates":[5278,3525]},{"type":"Point","properties":{"Station_ID":"STRN6","Station_Nam":"STILLWATER RESERVOIR","Latitude":"43.89140","Longitude":"-75.03610","Snowdepth":"28.000","Units":"in","Rept_Date":"2021-02-02 13"},"coordinates":[5211,5251]},{"type":"Point","properties":{"Station_ID":"NH-CS-10","Station_Nam":"RANDOLPH 1.4 NE, NH","Latitude":"44.38824","Longitude":"-71.26950","Snowdepth":"28.000","Units":"in","Rept_Date":"2021-02-02 12"},"coordinates":[6095,5552]},{"type":"Point","properties":{"Station_ID":"EHYM3","Station_Nam":"EAST HAWLEY","Latitude":"42.57410","Longitude":"-72.86790","Snowdepth":"28.000","Units":"in","Rept_Date":"2021-02-02 13"},"coordinates":[5720,4453]},{"type":"Point","properties":{"Station_ID":"NJ-SS-54","Station_Nam":"SPARTA TWP 3.6 SSW, NJ","Latitude":"41.00503","Longitude":"-74.66358","Snowdepth":"27.500","Units":"in","Rept_Date":"2021-02-02 12"},"coordinates":[5298,3503]},{"type":"Point","properties":{"Station_ID":"NY-DL-28","Station_Nam":"FLEISCHMANNS 5.7 N, NY","Latitude":"42.23779","Longitude":"-74.52335","Snowdepth":"27.000","Units":"in","Rept_Date":"2021-02-02 12"},"coordinates":[5331,4249]},{"type":"Point","properties":{"Station_ID":"MA-BE-21","Station_Nam":"CHESHIRE 0.5 NNW, MA","Latitude":"42.56315","Longitude":"-73.15701","Snowdepth":"27.000","Units":"in","Rept_Date":"2021-02-02 12"},"coordinates":[5652,4447]},{"type":"Point","properties":{"Station_ID":"NY-SH-11","Station_Nam":"JEFFERSON 0.2 S, NY","Latitude":"42.47912","Longitude":"-74.61071","Snowdepth":"26.500","Units":"in","Rept_Date":"2021-02-02 12"},"coordinates":[5311,4396]},{"type":"Point","properties":{"Station_ID":"NJ-PS-38","Station_Nam":"BLOOMINGDALE 1.6 S, NJ","Latitude":"41.00731","Longitude":"-74.33104","Snowdepth":"26.200","Units":"in","Rept_Date":"2021-02-02 13"},"coordinates":[5376,3504]},{"type":"Point","properties":{"Station_ID":"VT-WR-17","Station_Nam":"ROCHESTER 2.3 NE, VT","Latitude":"43.89418","Longitude":"-72.76992","Snowdepth":"26.000","Units":"in","Rept_Date":"2021-02-02 12"},"coordinates":[5743,5253]},{"type":"Point","properties":{"Station_ID":"MA-HS-7","Station_Nam":"PLAINFIELD 2.2 SW, MA","Latitude":"42.49272","Longitude":"-72.94540","Snowdepth":"26.000","Units":"in","Rept_Date":"2021-02-02 13"},"coordinates":[5701,4404]},{"type":"Point","properties":{"Station_ID":"PA-BR-7","Station_Nam":"FLEETWOOD 2.0 ESE, PA","Latitude":"40.44292","Longitude":"-75.78720","Snowdepth":"25.800","Units":"in","Rept_Date":"2021-02-02 13"},"coordinates":[5034,3162]},{"type":"Point","properties":{"Station_ID":"NY-HR-18","Station_Nam":"SALISBURY CENTER 1.8 NW, NY","Latitude":"43.16260","Longitude":"-74.80880","Snowdepth":"25.500","Units":"in","Rept_Date":"2021-02-02 11"},"coordinates":[5264,4810]},{"type":"Point","properties":{"Station_ID":"VT-WH-19","Station_Nam":"EAST DOVER 1.8 N, VT","Latitude":"42.97658","Longitude":"-72.77637","Snowdepth":"25.000","Units":"in","Rept_Date":"2021-02-02 12"},"coordinates":[5741,4697]},{"type":"Point","properties":{"Station_ID":"ROWM3","Station_Nam":"ROWE 3NE","Latitude":"42.73500","Longitude":"-72.86920","Snowdepth":"25.000","Units":"in","Rept_Date":"2021-02-02 12"},"coordinates":[5719,4551]},{"type":"Point","properties":{"Station_ID":"PDLM4","Station_Nam":"PAINESDALE","Latitude":"47.04160","Longitude":"-88.67170","Snowdepth":"25.000","Units":"in","Rept_Date":"2021-02-02 13"},"coordinates":[2011,7160]},{"type":"Point","properties":{"Station_ID":"LBKV1","Station_Nam":"LYE BROOK","Latitude":"43.05000","Longitude":"-73.03330","Snowdepth":"25.000","Units":"in","Rept_Date":"2021-02-03 05"},"coordinates":[5681,4742]},{"type":"Point","properties":{"Station_ID":"PA-PK-22","Station_Nam":"MILFORD 8.7 NW, PA","Latitude":"41.42018","Longitude":"-74.90953","Snowdepth":"24.500","Units":"in","Rept_Date":"2021-02-02 12"},"coordinates":[5240,3754]},{"type":"Point","properties":{"Station_ID":"NY-HM-1","Station_Nam":"SPECULATOR 10.0 SSW, NY","Latitude":"43.45133","Longitude":"-74.47120","Snowdepth":"24.500","Units":"in","Rept_Date":"2021-02-02 12"},"coordinates":[5343,4985]},{"type":"Point","properties":{"Station_ID":"NJ-SS-1","Station_Nam":"ANDOVER TWP 1.7 W, NJ","Latitude":"41.01974","Longitude":"-74.76110","Snowdepth":"24.500","Units":"in","Rept_Date":"2021-02-02 12"},"coordinates":[5275,3511]},{"type":"Point","properties":{"Station_ID":"VT-WH-30","Station_Nam":"MARLBORO 2.0 NNE, VT","Latitude":"42.88484","Longitude":"-72.70935","Snowdepth":"24.000","Units":"in","Rept_Date":"2021-02-02 13"},"coordinates":[5757,4642]},{"type":"Point","properties":{"Station_ID":"SPRP1","Station_Nam":"SPRINGTOWN 1 NNE","Latitude":"40.57110","Longitude":"-75.27810","Snowdepth":"24.000","Units":"in","Rept_Date":"2021-02-02 12"},"coordinates":[5154,3240]},{"type":"Point","properties":{"Station_ID":"RKHN6","Station_Nam":"ROCK HILL 3 SW","Latitude":"41.59170","Longitude":"-74.61410","Snowdepth":"24.000","Units":"in","Rept_Date":"2021-02-02 12"},"coordinates":[5310,3858]},{"type":"Point","properties":{"Station_ID":"PHON6","Station_Nam":"PHOENICIA 2SW","Latitude":"42.06420","Longitude":"-74.34080","Snowdepth":"24.000","Units":"in","Rept_Date":"2021-02-02 12"},"coordinates":[5374,4144]},{"type":"Point","properties":{"Station_ID":"PA-WN-2","Station_Nam":"MOSCOW 9.7 ESE, PA","Latitude":"41.29084","Longitude":"-75.35500","Snowdepth":"24.000","Units":"in","Rept_Date":"2021-02-02 19"},"coordinates":[5136,3676]},{"type":"Point","properties":{"Station_ID":"NY-TG-20","Station_Nam":"CANDOR 1.8 N, NY","Latitude":"42.25308","Longitude":"-76.33780","Snowdepth":"24.000","Units":"in","Rept_Date":"2021-02-02 12"},"coordinates":[4905,4259]},{"type":"Point","properties":{"Station_ID":"NJ-WR-5","Station_Nam":"HACKETTSTOWN 0.8 W, NJ","Latitude":"40.85155","Longitude":"-74.84030","Snowdepth":"24.000","Units":"in","Rept_Date":"2021-02-02 12"},"coordinates":[5257,3410]},{"type":"Point","properties":{"Station_ID":"NJ-MS-98","Station_Nam":"HARDING TWP 2.4 W, NJ","Latitude":"40.74165","Longitude":"-74.54592","Snowdepth":"24.000","Units":"in","Rept_Date":"2021-02-02 12"},"coordinates":[5326,3343]},{"type":"Point","properties":{"Station_ID":"NJ-MS-87","Station_Nam":"MOUNT ARLINGTON 0.8 S, NJ","Latitude":"40.90789","Longitude":"-74.64077","Snowdepth":"24.000","Units":"in","Rept_Date":"2021-02-02 12"},"coordinates":[5304,3444]},{"type":"Point","properties":{"Station_ID":"MRLV1","Station_Nam":"MARLBORO","Latitude":"42.86000","Longitude":"-72.72000","Snowdepth":"24.000","Units":"in","Rept_Date":"2021-02-02 13"},"coordinates":[5754,4626]},{"type":"Point","properties":{"Station_ID":"MA-WR-70","Station_Nam":"GRAFTON 1.5 W, MA","Latitude":"42.20354","Longitude":"-71.71255","Snowdepth":"24.000","Units":"in","Rept_Date":"2021-02-02 13"},"coordinates":[5991,4229]},{"type":"Point","properties":{"Station_ID":"CNDP1","Station_Nam":"CANADENSIS","Latitude":"41.18980","Longitude":"-75.23830","Snowdepth":"24.000","Units":"in","Rept_Date":"2021-02-02 12"},"coordinates":[5163,3614]},{"type":"Point","properties":{"Station_ID":"BOON6","Station_Nam":"BOONVILLE 4 SSW","Latitude":"43.43610","Longitude":"-75.36970","Snowdepth":"24.000","Units":"in","Rept_Date":"2021-02-02 12"},"coordinates":[5132,4976]},{"type":"Point","properties":{"Station_ID":"TRIQ6","Station_Nam":"TRIO LAKE","Latitude":"49.22880","Longitude":"-87.22920","Snowdepth":"23.390","Units":"in","Rept_Date":"2021-02-03 06"},"coordinates":[2349,8485]},{"type":"Point","properties":{"Station_ID":"PTLQ6","Station_Nam":"PORTAGE LAKE","Latitude":"49.06950","Longitude":"-86.65940","Snowdepth":"23.230","Units":"in","Rept_Date":"2021-02-03 06"},"coordinates":[2483,8389]},{"type":"Point","properties":{"Station_ID":"WNDP1","Station_Nam":"WINDBER COUNTY CLUB","Latitude":"40.28780","Longitude":"-78.77530","Snowdepth":"23.000","Units":"in","Rept_Date":"2021-02-02 12"},"coordinates":[4333,3068]},{"type":"Point","properties":{"Station_ID":"WI-MW-14","Station_Nam":"MILWAUKEE 3.6 NNW, WI","Latitude":"43.11300","Longitude":"-87.98730","Snowdepth":"23.000","Units":"in","Rept_Date":"2021-02-02 11"},"coordinates":[2171,4780]},{"type":"Point","properties":{"Station_ID":"PA-NH-8","Station_Nam":"MARTINS CREEK 0.2 E, PA","Latitude":"40.78285","Longitude":"-75.18270","Snowdepth":"23.000","Units":"in","Rept_Date":"2021-02-02 12"},"coordinates":[5176,3368]},{"type":"Point","properties":{"Station_ID":"NJ-SS-57","Station_Nam":"SPARTA TWP 3.3 NW, NJ","Latitude":"41.08217","Longitude":"-74.67110","Snowdepth":"23.000","Units":"in","Rept_Date":"2021-02-02 13"},"coordinates":[5296,3549]},{"type":"Point","properties":{"Station_ID":"NJ-PS-15","Station_Nam":"WAYNE TWP 0.8 SSW, NJ","Latitude":"40.93690","Longitude":"-74.25150","Snowdepth":"23.000","Units":"in","Rept_Date":"2021-02-02 12"},"coordinates":[5395,3461]},{"type":"Point","properties":{"Station_ID":"MA-WR-56","Station_Nam":"STERLING 4.3 NW, MA","Latitude":"42.47540","Longitude":"-71.81140","Snowdepth":"22.800","Units":"in","Rept_Date":"2021-02-02 12"},"coordinates":[5968,4393]},{"type":"Point","properties":{"Station_ID":"PA-MN-16","Station_Nam":"MOUNT POCONO 0.7 N, PA","Latitude":"41.13190","Longitude":"-75.35804","Snowdepth":"22.500","Units":"in","Rept_Date":"2021-02-02 12"},"coordinates":[5135,3579]},{"type":"Point","properties":{"Station_ID":"PA-BR-41","Station_Nam":"FLEETWOOD 4.8 ESE, PA","Latitude":"40.42150","Longitude":"-75.74132","Snowdepth":"22.500","Units":"in","Rept_Date":"2021-02-02 12"},"coordinates":[5045,3149]},{"type":"Point","properties":{"Station_ID":"NJ-WR-42","Station_Nam":"KNOWLTON TWP 1.7 S, NJ","Latitude":"40.90560","Longitude":"-75.05880","Snowdepth":"22.500","Units":"in","Rept_Date":"2021-02-02 13"},"coordinates":[5205,3442]},{"type":"Point","properties":{"Station_ID":"QLB","Station_Nam":"QLB","Latitude":"50.72360","Longitude":"-75.10000","Snowdepth":"22.087","Units":"in","Rept_Date":"2021-02-02 12"},"coordinates":[5196,9391]},{"type":"Point","properties":{"Station_ID":"WLFM5","Station_Nam":"WOLF RIDGE ENVIRON LEARNING CENTER","Latitude":"47.38240","Longitude":"-91.19730","Snowdepth":"22.000","Units":"in","Rept_Date":"2021-02-02 13"},"coordinates":[1418,7367]},{"type":"Point","properties":{"Station_ID":"STOW3","Station_Nam":"STOUGHTON,WI","Latitude":"42.91670","Longitude":"-89.21670","Snowdepth":"22.000","Units":"in","Rept_Date":"2021-02-02 13"},"coordinates":[1883,4661]},{"type":"Point","properties":{"Station_ID":"PA-BR-28","Station_Nam":"MOHRSVILLE 2.2 SW, PA","Latitude":"40.45150","Longitude":"-76.00700","Snowdepth":"22.000","Units":"in","Rept_Date":"2021-02-02 13"},"coordinates":[4983,3167]},{"type":"Point","properties":{"Station_ID":"NY-OD-2","Station_Nam":"POINT ROCK 0.6 SE, NY","Latitude":"43.37335","Longitude":"-75.53840","Snowdepth":"22.000","Units":"in","Rept_Date":"2021-02-02 13"},"coordinates":[5093,4938]},{"type":"Point","properties":{"Station_ID":"NJ-SM-11","Station_Nam":"BEDMINSTER TWP 2.9 ESE, NJ","Latitude":"40.65634","Longitude":"-74.63050","Snowdepth":"22.000","Units":"in","Rept_Date":"2021-02-02 14"},"coordinates":[5306,3291]},{"type":"Point","properties":{"Station_ID":"NJ-PS-14","Station_Nam":"HAWTHORNE 1.0 SSE, NJ","Latitude":"40.94364","Longitude":"-74.15230","Snowdepth":"22.000","Units":"in","Rept_Date":"2021-02-02 12"},"coordinates":[5418,3465]},{"type":"Point","properties":{"Station_ID":"NJ-MS-94","Station_Nam":"JEFFERSON TWP 4.4 SW, NJ","Latitude":"40.96404","Longitude":"-74.62162","Snowdepth":"22.000","Units":"in","Rept_Date":"2021-02-02 12"},"coordinates":[5308,3478]},{"type":"Point","properties":{"Station_ID":"NJ-MS-73","Station_Nam":"RANDOLPH TWP 2.2 SW, NJ","Latitude":"40.81729","Longitude":"-74.60490","Snowdepth":"22.000","Units":"in","Rept_Date":"2021-02-02 12"},"coordinates":[5312,3389]},{"type":"Point","properties":{"Station_ID":"NJ-MS-63","Station_Nam":"MINE HILL TWP 1.1 ENE, NJ","Latitude":"40.88183","Longitude":"-74.57940","Snowdepth":"22.000","Units":"in","Rept_Date":"2021-02-02 12"},"coordinates":[5318,3428]},{"type":"Point","properties":{"Station_ID":"NJ-MS-6","Station_Nam":"ROCKAWAY 0.4 NNW, NJ","Latitude":"40.90184","Longitude":"-74.51890","Snowdepth":"22.000","Units":"in","Rept_Date":"2021-02-02 13"},"coordinates":[5332,3440]},{"type":"Point","properties":{"Station_ID":"ESTN4","Station_Nam":"PHILLIPSBURG-EASTON BRIDGE","Latitude":"40.69550","Longitude":"-75.19990","Snowdepth":"22.000","Units":"in","Rept_Date":"2021-02-02 12"},"coordinates":[5172,3315]},{"type":"Point","properties":{"Station_ID":"QGO","Station_Nam":"QGO","Latitude":"48.85500","Longitude":"-74.20640","Snowdepth":"21.693","Units":"in","Rept_Date":"2021-02-02 12"},"coordinates":[5405,8259]},{"type":"Point","properties":{"Station_ID":"VT-WR-2","Station_Nam":"POMFRET 2.6 N, VT","Latitude":"43.74230","Longitude":"-72.52550","Snowdepth":"21.500","Units":"in","Rept_Date":"2021-02-02 12"},"coordinates":[5800,5161]},{"type":"Point","properties":{"Station_ID":"PA-CB-33","Station_Nam":"LAKE HARMONY 2.4 WNW, PA","Latitude":"41.07333","Longitude":"-75.63317","Snowdepth":"21.500","Units":"in","Rept_Date":"2021-02-02 12"},"coordinates":[5071,3544]},{"type":"Point","properties":{"Station_ID":"NY-GR-7","Station_Nam":"GREENVILLE 0.7 E, NY","Latitude":"42.41400","Longitude":"-74.00900","Snowdepth":"21.500","Units":"in","Rept_Date":"2021-02-02 12"},"coordinates":[5452,4356]},{"type":"Point","properties":{"Station_ID":"NJ-MS-60","Station_Nam":"CHESTER TWP 0.6 ENE, NJ","Latitude":"40.78174","Longitude":"-74.67380","Snowdepth":"21.500","Units":"in","Rept_Date":"2021-02-02 12"},"coordinates":[5296,3367]},{"type":"Point","properties":{"Station_ID":"NJ-MS-42","Station_Nam":"RANDOLPH TWP 2.0 E, NJ","Latitude":"40.83980","Longitude":"-74.54320","Snowdepth":"21.500","Units":"in","Rept_Date":"2021-02-02 13"},"coordinates":[5326,3402]},{"type":"Point","properties":{"Station_ID":"AUDQ6","Station_Nam":"AUDEN","Latitude":"48.52600","Longitude":"-82.57570","Snowdepth":"21.420","Units":"in","Rept_Date":"2021-02-03 06"},"coordinates":[3441,8060]},{"type":"Point","properties":{"Station_ID":"DVLQ6","Station_Nam":"DEVIOUS LAKE","Latitude":"49.19890","Longitude":"-87.76440","Snowdepth":"21.140","Units":"in","Rept_Date":"2021-02-03 06"},"coordinates":[2224,8467]},{"type":"Point","properties":{"Station_ID":"WHFN6","Station_Nam":"WILMINGTON 2W","Latitude":"44.39310","Longitude":"-73.85890","Snowdepth":"21.000","Units":"in","Rept_Date":"2021-02-02 13"},"coordinates":[5487,5555]},{"type":"Point","properties":{"Station_ID":"RGLN4","Station_Nam":"REIGELSVILLE","Latitude":"40.59450","Longitude":"-75.18970","Snowdepth":"21.000","Units":"in","Rept_Date":"2021-02-02 12"},"coordinates":[5175,3254]},{"type":"Point","properties":{"Station_ID":"PA-NH-15","Station_Nam":"PORTLAND 2.7 WNW, PA","Latitude":"40.93750","Longitude":"-75.14450","Snowdepth":"21.000","Units":"in","Rept_Date":"2021-02-02 12"},"coordinates":[5185,3462]},{"type":"Point","properties":{"Station_ID":"PA-NH-12","Station_Nam":"BETHLEHEM 1.8 NW, PA","Latitude":"40.64611","Longitude":"-75.39222","Snowdepth":"21.000","Units":"in","Rept_Date":"2021-02-02 13"},"coordinates":[5127,3285]},{"type":"Point","properties":{"Station_ID":"PA-LH-5","Station_Nam":"SCHNECKSVILLE 2.7 SW, PA","Latitude":"40.64739","Longitude":"-75.65050","Snowdepth":"21.000","Units":"in","Rept_Date":"2021-02-02 12"},"coordinates":[5067,3286]},{"type":"Point","properties":{"Station_ID":"NY-HM-10","Station_Nam":"LAKE PLEASANT 2.3 WSW, NY","Latitude":"43.45490","Longitude":"-74.45287","Snowdepth":"21.000","Units":"in","Rept_Date":"2021-02-02 12"},"coordinates":[5348,4987]},{"type":"Point","properties":{"Station_ID":"NJ-SS-3","Station_Nam":"VERNON TWP 1.7 N, NJ","Latitude":"41.22151","Longitude":"-74.48800","Snowdepth":"21.000","Units":"in","Rept_Date":"2021-02-02 12"},"coordinates":[5339,3634]},{"type":"Point","properties":{"Station_ID":"NJ-PS-42","Station_Nam":"WAYNE TWP 2.3 ESE, NJ","Latitude":"40.93060","Longitude":"-74.20700","Snowdepth":"21.000","Units":"in","Rept_Date":"2021-02-02 13"},"coordinates":[5405,3457]},{"type":"Point","properties":{"Station_ID":"NJ-MS-4","Station_Nam":"ROCKAWAY TWP 0.7 NE, NJ","Latitude":"40.96583","Longitude":"-74.48780","Snowdepth":"21.000","Units":"in","Rept_Date":"2021-02-02 13"},"coordinates":[5339,3479]},{"type":"Point","properties":{"Station_ID":"NFKC3","Station_Nam":"NORFOLK","Latitude":"41.97250","Longitude":"-73.22080","Snowdepth":"21.000","Units":"in","Rept_Date":"2021-02-02 13"},"coordinates":[5637,4089]},{"type":"Point","properties":{"Station_ID":"MA-MD-51","Station_Nam":"MAYNARD 0.7 ESE, MA","Latitude":"42.42027","Longitude":"-71.44484","Snowdepth":"21.000","Units":"in","Rept_Date":"2021-02-02 12"},"coordinates":[6054,4360]},{"type":"Point","properties":{"Station_ID":"KSGM4","Station_Nam":"KEARSARGE","Latitude":"47.27520","Longitude":"-88.41700","Snowdepth":"21.000","Units":"in","Rept_Date":"2021-02-02 13"},"coordinates":[2070,7302]},{"type":"Point","properties":{"Station_ID":"IL-CK-288","Station_Nam":"ROSELLE 0.8 N, IL","Latitude":"41.99255","Longitude":"-88.08422","Snowdepth":"21.000","Units":"in","Rept_Date":"2021-02-02 13"},"coordinates":[2148,4101]},{"type":"Point","properties":{"Station_ID":"HGHN4","Station_Nam":"HIGHLAND LAKES 1SW","Latitude":"41.16330","Longitude":"-74.45930","Snowdepth":"21.000","Units":"in","Rept_Date":"2021-02-02 11"},"coordinates":[5346,3598]},{"type":"Point","properties":{"Station_ID":"PA-MN-14","Station_Nam":"SAYLORSBURG 4.0 W, PA","Latitude":"40.89333","Longitude":"-75.39916","Snowdepth":"20.900","Units":"in","Rept_Date":"2021-02-02 12"},"coordinates":[5126,3435]},{"type":"Point","properties":{"Station_ID":"NJ-SS-60","Station_Nam":"VERNON TWP 2.7 SSE, NJ","Latitude":"41.16332","Longitude":"-74.45938","Snowdepth":"20.600","Units":"in","Rept_Date":"2021-02-02 10"},"coordinates":[5346,3598]},{"type":"Point","properties":{"Station_ID":"VT-BN-7","Station_Nam":"MANCHESTER 2.8 ENE, VT","Latitude":"43.17274","Longitude":"-73.01811","Snowdepth":"20.500","Units":"in","Rept_Date":"2021-02-02 12"},"coordinates":[5684,4816]},{"type":"Point","properties":{"Station_ID":"NY-DT-34","Station_Nam":"HOPEWELL JUNCTION 2.8 NE, NY","Latitude":"41.61016","Longitude":"-73.75855","Snowdepth":"20.500","Units":"in","Rept_Date":"2021-02-02 11"},"coordinates":[5511,3869]},{"type":"Point","properties":{"Station_ID":"NJ-MS-102","Station_Nam":"CHATHAM 0.6 NE, NJ","Latitude":"40.74671","Longitude":"-74.37661","Snowdepth":"20.500","Units":"in","Rept_Date":"2021-02-02 12"},"coordinates":[5366,3346]},{"type":"Point","properties":{"Station_ID":"MA-HS-14","Station_Nam":"PLAINFIELD 2.4 ESE, MA","Latitude":"42.49792","Longitude":"-72.87769","Snowdepth":"20.500","Units":"in","Rept_Date":"2021-02-02 12"},"coordinates":[5717,4407]},{"type":"Point","properties":{"Station_ID":"QCO","Station_Nam":"QCO","Latitude":"51.45280","Longitude":"-72.20110","Snowdepth":"20.433","Units":"in","Rept_Date":"2021-02-02 12"},"coordinates":[5876,9833]},{"type":"Point","properties":{"Station_ID":"NJ-SM-5","Station_Nam":"BRIDGEWATER TWP 3.3 NW, NJ","Latitude":"40.62625","Longitude":"-74.65350","Snowdepth":"20.200","Units":"in","Rept_Date":"2021-02-02 12"},"coordinates":[5301,3273]},{"type":"Point","properties":{"Station_ID":"F8114_MADIS","Station_Nam":"FW8114 BRIDGEWATER","Latitude":"40.62650","Longitude":"-74.65470","Snowdepth":"20.200","Units":"in","Rept_Date":"2021-02-02 12"},"coordinates":[5300,3273]},{"type":"Point","properties":{"Station_ID":"VT-WS-33","Station_Nam":"WAITSFIELD 3.5 WNW, VT","Latitude":"44.20052","Longitude":"-72.89421","Snowdepth":"20.000","Units":"in","Rept_Date":"2021-02-02 13"},"coordinates":[5713,5439]},{"type":"Point","properties":{"Station_ID":"SUXN4","Station_Nam":"SUSSEX 1 NW","Latitude":"41.21840","Longitude":"-74.62070","Snowdepth":"20.000","Units":"in","Rept_Date":"2021-02-02 12"},"coordinates":[5308,3632]},{"type":"Point","properties":{"Station_ID":"PJRN6","Station_Nam":"PORT JERVIS","Latitude":"41.38910","Longitude":"-74.69050","Snowdepth":"20.000","Units":"in","Rept_Date":"2021-02-02 12"},"coordinates":[5292,3735]},{"type":"Point","properties":{"Station_ID":"PEKN6","Station_Nam":"PECK LAKE","Latitude":"43.11500","Longitude":"-74.42360","Snowdepth":"20.000","Units":"in","Rept_Date":"2021-02-02 12"},"coordinates":[5355,4781]},{"type":"Point","properties":{"Station_ID":"PA-LH-21","Station_Nam":"EMMAUS 2.9 S, PA","Latitude":"40.49429","Longitude":"-75.48767","Snowdepth":"20.000","Units":"in","Rept_Date":"2021-02-02 13"},"coordinates":[5105,3193]},{"type":"Point","properties":{"Station_ID":"PA-LH-17","Station_Nam":"SCHNECKSVILLE 1.7 ENE, PA","Latitude":"40.68480","Longitude":"-75.58870","Snowdepth":"20.000","Units":"in","Rept_Date":"2021-02-02 13"},"coordinates":[5081,3309]},{"type":"Point","properties":{"Station_ID":"PA-BR-21","Station_Nam":"ALBURTIS 4.7 SW, PA","Latitude":"40.46515","Longitude":"-75.66820","Snowdepth":"20.000","Units":"in","Rept_Date":"2021-02-02 12"},"coordinates":[5062,3175]},{"type":"Point","properties":{"Station_ID":"OKLM2","Station_Nam":"SINES DEEP CREEK LAKE","Latitude":"39.52270","Longitude":"-79.41310","Snowdepth":"20.000","Units":"in","Rept_Date":"2021-02-02 12"},"coordinates":[4184,2604]},{"type":"Point","properties":{"Station_ID":"OCON6","Station_Nam":"OSCEOLA","Latitude":"43.50370","Longitude":"-75.72170","Snowdepth":"20.000","Units":"in","Rept_Date":"2021-02-02 13"},"coordinates":[5050,5017]},{"type":"Point","properties":{"Station_ID":"NY-BM-21","Station_Nam":"WINDSOR 8.0 SE, NY","Latitude":"42.00992","Longitude":"-75.51420","Snowdepth":"20.000","Units":"in","Rept_Date":"2021-02-02 12"},"coordinates":[5099,4111]},{"type":"Point","properties":{"Station_ID":"NY-AB-1","Station_Nam":"ALTAMONT 2.7 SSW, NY","Latitude":"42.66696","Longitude":"-74.05090","Snowdepth":"20.000","Units":"in","Rept_Date":"2021-02-02 12"},"coordinates":[5442,4510]},{"type":"Point","properties":{"Station_ID":"NJ-WR-1","Station_Nam":"GREENWICH TWP 1.6 S, NJ","Latitude":"40.65545","Longitude":"-75.11670","Snowdepth":"20.000","Units":"in","Rept_Date":"2021-02-02 12"},"coordinates":[5192,3291]},{"type":"Point","properties":{"Station_ID":"NJ-SS-7","Station_Nam":"HARDYSTON TWP 3.2 SE, NJ","Latitude":"41.08903","Longitude":"-74.53990","Snowdepth":"20.000","Units":"in","Rept_Date":"2021-02-02 13"},"coordinates":[5327,3553]},{"type":"Point","properties":{"Station_ID":"NJ-SM-68","Station_Nam":"MANVILLE 0.6 W, NJ","Latitude":"40.54261","Longitude":"-74.60065","Snowdepth":"20.000","Units":"in","Rept_Date":"2021-02-02 11"},"coordinates":[5313,3222]},{"type":"Point","properties":{"Station_ID":"NJ-BG-23","Station_Nam":"OAKLAND 0.9 SSE, NJ","Latitude":"41.01905","Longitude":"-74.23340","Snowdepth":"20.000","Units":"in","Rept_Date":"2021-02-02 13"},"coordinates":[5399,3511]},{"type":"Point","properties":{"Station_ID":"NH-CR-26","Station_Nam":"CENTER SANDWICH 4.9 E, NH","Latitude":"43.80976","Longitude":"-71.34150","Snowdepth":"20.000","Units":"in","Rept_Date":"2021-02-02 12"},"coordinates":[6078,5202]},{"type":"Point","properties":{"Station_ID":"LPLN6","Station_Nam":"LAKE PLACID 2 S","Latitude":"44.30420","Longitude":"-73.98390","Snowdepth":"20.000","Units":"in","Rept_Date":"2021-02-02 13"},"coordinates":[5458,5502]},{"type":"Point","properties":{"Station_ID":"GFDN6","Station_Nam":"CHASES LAKE","Latitude":"43.75920","Longitude":"-75.29980","Snowdepth":"20.000","Units":"in","Rept_Date":"2021-02-02 11"},"coordinates":[5149,5171]},{"type":"Point","properties":{"Station_ID":"ESDN3","Station_Nam":"EAST SANDWICH","Latitude":"43.80990","Longitude":"-71.34250","Snowdepth":"20.000","Units":"in","Rept_Date":"2021-02-02 11"},"coordinates":[6078,5202]},{"type":"Point","properties":{"Station_ID":"CT-HR-31","Station_Nam":"BRISTOL 2.7 WNW, CT","Latitude":"41.70138","Longitude":"-72.98527","Snowdepth":"20.000","Units":"in","Rept_Date":"2021-02-02 12"},"coordinates":[5692,3924]},{"type":"Point","properties":{"Station_ID":"PA-NH-20","Station_Nam":"BETHLEHEM 2.3 NW, PA","Latitude":"40.64775","Longitude":"-75.40261","Snowdepth":"19.800","Units":"in","Rept_Date":"2021-02-02 13"},"coordinates":[5125,3286]},{"type":"Point","properties":{"Station_ID":"VT-OL-12","Station_Nam":"GREENSBORO 3.9 NNE, VT","Latitude":"44.63100","Longitude":"-72.28000","Snowdepth":"19.500","Units":"in","Rept_Date":"2021-02-02 12"},"coordinates":[5858,5700]},{"type":"Point","properties":{"Station_ID":"NY-TM-42","Station_Nam":"ITHACA 6.4 E, NY","Latitude":"42.43350","Longitude":"-76.37860","Snowdepth":"19.500","Units":"in","Rept_Date":"2021-02-02 12"},"coordinates":[4896,4368]},{"type":"Point","properties":{"Station_ID":"NY-LW-12","Station_Nam":"CHASES LAKE COOP, NY","Latitude":"43.75924","Longitude":"-75.29982","Snowdepth":"19.500","Units":"in","Rept_Date":"2021-02-02 11"},"coordinates":[5149,5171]},{"type":"Point","properties":{"Station_ID":"NJ-SM-86","Station_Nam":"BRIDGEWATER TWP 3.1 SW, NJ","Latitude":"40.56607","Longitude":"-74.65406","Snowdepth":"19.500","Units":"in","Rept_Date":"2021-02-02 12"},"coordinates":[5300,3237]},{"type":"Point","properties":{"Station_ID":"ME-FR-2","Station_Nam":"TEMPLE 1.8 W, ME","Latitude":"44.68329","Longitude":"-70.26420","Snowdepth":"19.500","Units":"in","Rept_Date":"2021-02-02 12"},"coordinates":[6331,5731]},{"type":"Point","properties":{"Station_ID":"MA-MD-162","Station_Nam":"LINCOLN 1.7 NW, MA","Latitude":"42.43513","Longitude":"-71.32221","Snowdepth":"19.200","Units":"in","Rept_Date":"2021-02-02 11"},"coordinates":[6082,4369]},{"type":"Point","properties":{"Station_ID":"WV-PR-10","Station_Nam":"TERRA ALTA 4.9 NNE, WV","Latitude":"39.51024","Longitude":"-79.51024","Snowdepth":"19.000","Units":"in","Rept_Date":"2021-02-02 13"},"coordinates":[4161,2597]},{"type":"Point","properties":{"Station_ID":"NY-UL-31","Station_Nam":"HURLEY 2.2 S, NY","Latitude":"41.88149","Longitude":"-74.05626","Snowdepth":"19.000","Units":"in","Rept_Date":"2021-02-02 12"},"coordinates":[5441,4034]},{"type":"Point","properties":{"Station_ID":"NY-OR-21","Station_Nam":"PORT JERVIS 2.9 ESE, NY","Latitude":"41.35990","Longitude":"-74.64090","Snowdepth":"19.000","Units":"in","Rept_Date":"2021-02-02 11"},"coordinates":[5304,3718]},{"type":"Point","properties":{"Station_ID":"NY-OR-17","Station_Nam":"PINE BUSH 3.4 WSW, NY","Latitude":"41.58796","Longitude":"-74.35766","Snowdepth":"19.000","Units":"in","Rept_Date":"2021-02-02 14"},"coordinates":[5370,3856]},{"type":"Point","properties":{"Station_ID":"NY-DT-32","Station_Nam":"MILLBROOK 2.5 NE, NY","Latitude":"41.81000","Longitude":"-73.65900","Snowdepth":"19.000","Units":"in","Rept_Date":"2021-02-02 11"},"coordinates":[5534,3990]},{"type":"Point","properties":{"Station_ID":"NY-DL-25","Station_Nam":"HOBART 4.8 ESE, NY","Latitude":"42.35230","Longitude":"-74.57830","Snowdepth":"19.000","Units":"in","Rept_Date":"2021-02-02 12"},"coordinates":[5318,4319]},{"type":"Point","properties":{"Station_ID":"NJ-SS-39","Station_Nam":"WANTAGE TWP 1.6 SE, NJ","Latitude":"41.22830","Longitude":"-74.60330","Snowdepth":"19.000","Units":"in","Rept_Date":"2021-02-02 12"},"coordinates":[5312,3638]},{"type":"Point","properties":{"Station_ID":"NJ-SM-63","Station_Nam":"FRANKLIN TWP 2.7 NE, NJ","Latitude":"40.49979","Longitude":"-74.51140","Snowdepth":"19.000","Units":"in","Rept_Date":"2021-02-02 12"},"coordinates":[5334,3196]},{"type":"Point","properties":{"Station_ID":"NJ-MS-71","Station_Nam":"DENVILLE TWP 1.5 ESE, NJ","Latitude":"40.88053","Longitude":"-74.46310","Snowdepth":"19.000","Units":"in","Rept_Date":"2021-02-02 12"},"coordinates":[5345,3427]},{"type":"Point","properties":{"Station_ID":"NJ-MS-19","Station_Nam":"LONG HILL TWP 1.8 WSW, NJ","Latitude":"40.67134","Longitude":"-74.51750","Snowdepth":"19.000","Units":"in","Rept_Date":"2021-02-02 14"},"coordinates":[5332,3300]},{"type":"Point","properties":{"Station_ID":"NJ-BG-17","Station_Nam":"GLEN ROCK 0.7 SSE, NJ","Latitude":"40.95109","Longitude":"-74.11830","Snowdepth":"19.000","Units":"in","Rept_Date":"2021-02-02 13"},"coordinates":[5426,3470]},{"type":"Point","properties":{"Station_ID":"NH-MR-41","Station_Nam":"NEWBURY 1.6 NW, NH","Latitude":"43.33667","Longitude":"-72.06060","Snowdepth":"19.000","Units":"in","Rept_Date":"2021-02-02 12"},"coordinates":[5909,4915]},{"type":"Point","properties":{"Station_ID":"NCBN6","Station_Nam":"NEWCOMB","Latitude":"43.97070","Longitude":"-74.22200","Snowdepth":"19.000","Units":"in","Rept_Date":"2021-02-02 12"},"coordinates":[5402,5299]},{"type":"Point","properties":{"Station_ID":"MONW3","Station_Nam":"MONROE,WI","Latitude":"42.60000","Longitude":"-89.66670","Snowdepth":"19.000","Units":"in","Rept_Date":"2021-02-02 13"},"coordinates":[1777,4469]},{"type":"Point","properties":{"Station_ID":"LGHP1","Station_Nam":"LEHIGHTON 1SSW","Latitude":"40.82230","Longitude":"-75.69620","Snowdepth":"19.000","Units":"in","Rept_Date":"2021-02-02 13"},"coordinates":[5056,3392]},{"type":"Point","properties":{"Station_ID":"BOON4","Station_Nam":"BOONTON 1 SE AT RESERVOIR","Latitude":"40.89170","Longitude":"-74.39640","Snowdepth":"19.000","Units":"in","Rept_Date":"2021-02-02 12"},"coordinates":[5361,3434]},{"type":"Point","properties":{"Station_ID":"ACVN6","Station_Nam":"ALCOVE DAM","Latitude":"42.46970","Longitude":"-73.92670","Snowdepth":"19.000","Units":"in","Rept_Date":"2021-02-02 13"},"coordinates":[5471,4390]},{"type":"Point","properties":{"Station_ID":"QFT","Station_Nam":"QFT","Latitude":"50.83280","Longitude":"-74.40390","Snowdepth":"18.819","Units":"in","Rept_Date":"2021-02-02 12"},"coordinates":[5359,9457]},{"type":"Point","properties":{"Station_ID":"PA-CB-16","Station_Nam":"JIM THORPE 1.1 NNE, PA","Latitude":"40.88582","Longitude":"-75.73320","Snowdepth":"18.800","Units":"in","Rept_Date":"2021-02-02 13"},"coordinates":[5047,3430]},{"type":"Point","properties":{"Station_ID":"PA-LH-1","Station_Nam":"SLATINGTON 6.0 WSW, PA","Latitude":"40.70822","Longitude":"-75.70887","Snowdepth":"18.700","Units":"in","Rept_Date":"2021-02-02 12"},"coordinates":[5053,3323]},{"type":"Point","properties":{"Station_ID":"VT-WS-7","Station_Nam":"MIDDLESEX 3.1 ENE, VT","Latitude":"44.31799","Longitude":"-72.62650","Snowdepth":"18.500","Units":"in","Rept_Date":"2021-02-02 13"},"coordinates":[5776,5510]},{"type":"Point","properties":{"Station_ID":"NY-TM-45","Station_Nam":"NEWFIELD HAMLET 4.3 S, NY","Latitude":"42.29650","Longitude":"-76.60676","Snowdepth":"18.500","Units":"in","Rept_Date":"2021-02-02 14"},"coordinates":[4842,4285]},{"type":"Point","properties":{"Station_ID":"NY-OR-2","Station_Nam":"CORNWALL ON HUDSON 0.6 NNW, NY","Latitude":"41.44687","Longitude":"-74.02140","Snowdepth":"18.500","Units":"in","Rept_Date":"2021-02-02 12"},"coordinates":[5449,3770]},{"type":"Point","properties":{"Station_ID":"NY-MD-16","Station_Nam":"CHITTENANGO 2.1 ESE, NY","Latitude":"43.03297","Longitude":"-75.83480","Snowdepth":"18.500","Units":"in","Rept_Date":"2021-02-02 13"},"coordinates":[5023,4731]},{"type":"Point","properties":{"Station_ID":"NJ-MS-82","Station_Nam":"MENDHAM 1.5 W, NJ","Latitude":"40.77272","Longitude":"-74.62908","Snowdepth":"18.500","Units":"in","Rept_Date":"2021-02-02 14"},"coordinates":[5306,3362]},{"type":"Point","properties":{"Station_ID":"NJ-BG-56","Station_Nam":"FAIR LAWN 1.2 SE, NJ","Latitude":"40.92170","Longitude":"-74.10440","Snowdepth":"18.500","Units":"in","Rept_Date":"2021-02-02 13"},"coordinates":[5429,3452]},{"type":"Point","properties":{"Station_ID":"IL-DP-155","Station_Nam":"MEDINAH 1.0 SSW, IL","Latitude":"41.96360","Longitude":"-88.06590","Snowdepth":"18.500","Units":"in","Rept_Date":"2021-02-02 12"},"coordinates":[2153,4083]},{"type":"Point","properties":{"Station_ID":"CT-LT-33","Station_Nam":"TORRINGTON 1.1 SSE, CT","Latitude":"41.82100","Longitude":"-73.12012","Snowdepth":"18.500","Units":"in","Rept_Date":"2021-02-02 12"},"coordinates":[5660,3997]},{"type":"Point","properties":{"Station_ID":"CAN-ON-245","Station_Nam":"PHELPSTON 3.1 ESE, CAN","Latitude":"44.50564","Longitude":"-79.81035","Snowdepth":"18.500","Units":"in","Rept_Date":"2021-02-02 13"},"coordinates":[4090,5624]},{"type":"Point","properties":{"Station_ID":"NJ-MD-45","Station_Nam":"WOODBRIDGE TWP 1.1 NNE, NJ","Latitude":"40.57591","Longitude":"-74.28470","Snowdepth":"18.400","Units":"in","Rept_Date":"2021-02-02 11"},"coordinates":[5387,3243]},{"type":"Point","properties":{"Station_ID":"SOCQ6","Station_Nam":"SOCKET LAKE","Latitude":"50.77870","Longitude":"-91.79300","Snowdepth":"18.390","Units":"in","Rept_Date":"2021-02-03 06"},"coordinates":[1278,9424]},{"type":"Point","properties":{"Station_ID":"PA-LC-28","Station_Nam":"CLARKS GREEN 0.5 N, PA","Latitude":"41.50670","Longitude":"-75.69530","Snowdepth":"18.300","Units":"in","Rept_Date":"2021-02-02 14"},"coordinates":[5056,3807]},{"type":"Point","properties":{"Station_ID":"QTM","Station_Nam":"QTM","Latitude":"51.05780","Longitude":"-72.57190","Snowdepth":"18.228","Units":"in","Rept_Date":"2021-02-02 12"},"coordinates":[5789,9594]},{"type":"Point","properties":{"Station_ID":"QOU","Station_Nam":"QOU","Latitude":"50.79250","Longitude":"-69.67470","Snowdepth":"18.189","Units":"in","Rept_Date":"2021-02-02 12"},"coordinates":[6469,9433]},{"type":"Point","properties":{"Station_ID":"NJ-ES-18","Station_Nam":"MAPLEWOOD TWP 0.9 SE, NJ","Latitude":"40.72446","Longitude":"-74.25954","Snowdepth":"18.100","Units":"in","Rept_Date":"2021-02-02 13"},"coordinates":[5393,3333]},{"type":"Point","properties":{"Station_ID":"VT-WS-30","Station_Nam":"WOODBURY 3.4 NNW, VT","Latitude":"44.48825","Longitude":"-72.43258","Snowdepth":"18.000","Units":"in","Rept_Date":"2021-02-02 12"},"coordinates":[5822,5613]},{"type":"Point","properties":{"Station_ID":"PLVP1","Station_Nam":"BLUE MARSH LAKE","Latitude":"40.38020","Longitude":"-76.02740","Snowdepth":"18.000","Units":"in","Rept_Date":"2021-02-02 12"},"coordinates":[4978,3124]},{"type":"Point","properties":{"Station_ID":"NY-WC-11","Station_Nam":"PEEKSKILL 0.4 N, NY","Latitude":"41.29442","Longitude":"-73.92290","Snowdepth":"18.000","Units":"in","Rept_Date":"2021-02-02 13"},"coordinates":[5472,3678]},{"type":"Point","properties":{"Station_ID":"NY-PT-2","Station_Nam":"BEACON 4.2 ESE, NY","Latitude":"41.48070","Longitude":"-73.89110","Snowdepth":"18.000","Units":"in","Rept_Date":"2021-02-02 12"},"coordinates":[5479,3791]},{"type":"Point","properties":{"Station_ID":"NY-OR-19","Station_Nam":"GREENWOOD LAKE 3.0 SW, NY","Latitude":"41.18900","Longitude":"-74.32650","Snowdepth":"18.000","Units":"in","Rept_Date":"2021-02-02 13"},"coordinates":[5377,3614]},{"type":"Point","properties":{"Station_ID":"NY-DT-29","Station_Nam":"POUGHKEEPSIE 5.3 S, NY","Latitude":"41.61955","Longitude":"-73.91306","Snowdepth":"18.000","Units":"in","Rept_Date":"2021-02-02 14"},"coordinates":[5474,3875]},{"type":"Point","properties":{"Station_ID":"NY-DL-32","Station_Nam":"DELHI 6.6 WNW, NY","Latitude":"42.32118","Longitude":"-75.02991","Snowdepth":"18.000","Units":"in","Rept_Date":"2021-02-02 14"},"coordinates":[5212,4300]},{"type":"Point","properties":{"Station_ID":"NJ-UN-37","Station_Nam":"ELIZABETH 2.3 W, NJ","Latitude":"40.66234","Longitude":"-74.23562","Snowdepth":"18.000","Units":"in","Rept_Date":"2021-02-02 12"},"coordinates":[5399,3295]},{"type":"Point","properties":{"Station_ID":"NH-CR-41","Station_Nam":"ALBANY 2.8 SW, NH","Latitude":"43.92648","Longitude":"-71.21556","Snowdepth":"18.000","Units":"in","Rept_Date":"2021-02-02 13"},"coordinates":[6107,5273]},{"type":"Point","properties":{"Station_ID":"NH-CH-20","Station_Nam":"RINDGE 3.2 ESE, NH","Latitude":"42.73100","Longitude":"-71.95200","Snowdepth":"18.000","Units":"in","Rept_Date":"2021-02-02 12"},"coordinates":[5935,4548]},{"type":"Point","properties":{"Station_ID":"MA-WR-55","Station_Nam":"HARVARD 2.1 S, MA","Latitude":"42.46891","Longitude":"-71.58360","Snowdepth":"18.000","Units":"in","Rept_Date":"2021-02-02 12"},"coordinates":[6021,4390]},{"type":"Point","properties":{"Station_ID":"MA-HS-2","Station_Nam":"WESTHAMPTON 1.8 SW, MA","Latitude":"42.27943","Longitude":"-72.78700","Snowdepth":"18.000","Units":"in","Rept_Date":"2021-02-02 13"},"coordinates":[5739,4275]},{"type":"Point","properties":{"Station_ID":"MA-ES-66","Station_Nam":"NORTH ANDOVER 0.3 NW, MA","Latitude":"42.70375","Longitude":"-71.12029","Snowdepth":"18.000","Units":"in","Rept_Date":"2021-02-02 13"},"coordinates":[6130,4532]},{"type":"Point","properties":{"Station_ID":"MA-ES-48","Station_Nam":"ANDOVER 0.6 E, MA","Latitude":"42.65659","Longitude":"-71.13048","Snowdepth":"18.000","Units":"in","Rept_Date":"2021-02-02 10"},"coordinates":[6127,4503]},{"type":"Point","properties":{"Station_ID":"MA-ES-10","Station_Nam":"ANDOVER 1.5 W, MA","Latitude":"42.64830","Longitude":"-71.17280","Snowdepth":"18.000","Units":"in","Rept_Date":"2021-02-02 12"},"coordinates":[6117,4498]},{"type":"Point","properties":{"Station_ID":"LAUP1","Station_Nam":"1.5MI S OF RT 30 ON SMIT (LAUREL RIDGE)","Latitude":"40.05000","Longitude":"-79.22060","Snowdepth":"18.000","Units":"in","Rept_Date":"2021-02-02 12"},"coordinates":[4229,2924]},{"type":"Point","properties":{"Station_ID":"IL-SP-27","Station_Nam":"DAVIS 2.7 N, IL","Latitude":"42.46110","Longitude":"-89.40890","Snowdepth":"18.000","Units":"in","Rept_Date":"2021-02-02 13"},"coordinates":[1838,4385]},{"type":"Point","properties":{"Station_ID":"BKBW2","Station_Nam":"DAVIS.","Latitude":"39.09830","Longitude":"-79.43190","Snowdepth":"18.000","Units":"in","Rept_Date":"2021-02-02 12"},"coordinates":[4179,2347]},{"type":"Point","properties":{"Station_ID":"SVBQ6","Station_Nam":"SAVANT BASE","Latitude":"50.28730","Longitude":"-90.65670","Snowdepth":"17.600","Units":"in","Rept_Date":"2021-02-03 06"},"coordinates":[1545,9127]},{"type":"Point","properties":{"Station_ID":"NY-TM-27","Station_Nam":"GROTON 3.2 SSW, NY","Latitude":"42.54725","Longitude":"-76.39960","Snowdepth":"17.500","Units":"in","Rept_Date":"2021-02-02 13"},"coordinates":[4891,4437]},{"type":"Point","properties":{"Station_ID":"NY-OT-31","Station_Nam":"MARYLAND 1.8 W, NY","Latitude":"42.53310","Longitude":"-74.92090","Snowdepth":"17.500","Units":"in","Rept_Date":"2021-02-02 13"},"coordinates":[5238,4428]},{"type":"Point","properties":{"Station_ID":"NY-ES-6","Station_Nam":"OLMSTEDVILLE 4.6 NNE, NY","Latitude":"43.83350","Longitude":"-73.89780","Snowdepth":"17.500","Units":"in","Rept_Date":"2021-02-02 13"},"coordinates":[5478,5216]},{"type":"Point","properties":{"Station_ID":"NJ-SM-2","Station_Nam":"BERNARDS TWP 0.9 ENE, NJ","Latitude":"40.68306","Longitude":"-74.55240","Snowdepth":"17.500","Units":"in","Rept_Date":"2021-02-02 12"},"coordinates":[5324,3307]},{"type":"Point","properties":{"Station_ID":"NJ-MS-59","Station_Nam":"MADISON 0.8 WSW, NJ","Latitude":"40.75239","Longitude":"-74.42972","Snowdepth":"17.500","Units":"in","Rept_Date":"2021-02-02 12"},"coordinates":[5353,3349]},{"type":"Point","properties":{"Station_ID":"NJ-ES-31","Station_Nam":"MONTCLAIR 0.7 N, NJ","Latitude":"40.83534","Longitude":"-74.20896","Snowdepth":"17.500","Units":"in","Rept_Date":"2021-02-02 13"},"coordinates":[5405,3400]},{"type":"Point","properties":{"Station_ID":"MA-MD-12","Station_Nam":"ACTON 1.3 SW, MA","Latitude":"42.46746","Longitude":"-71.48200","Snowdepth":"17.500","Units":"in","Rept_Date":"2021-02-02 12"},"coordinates":[6045,4389]},{"type":"Point","properties":{"Station_ID":"CT-NH-75","Station_Nam":"MERIDEN 2.8 WSW, CT","Latitude":"41.52584","Longitude":"-72.84698","Snowdepth":"17.500","Units":"in","Rept_Date":"2021-02-02 12"},"coordinates":[5725,3818]},{"type":"Point","properties":{"Station_ID":"NJ-MD-95","Station_Nam":"MIDDLESEX 0.1 ENE, NJ","Latitude":"40.57520","Longitude":"-74.49890","Snowdepth":"17.400","Units":"in","Rept_Date":"2021-02-02 13"},"coordinates":[5337,3242]},{"type":"Point","properties":{"Station_ID":"WAIV1","Station_Nam":"WAITSFIELD","Latitude":"44.17560","Longitude":"-72.79610","Snowdepth":"17.000","Units":"in","Rept_Date":"2021-02-02 11"},"coordinates":[5736,5424]},{"type":"Point","properties":{"Station_ID":"VT-WS-23","Station_Nam":"CABOT 2.3 E, VT","Latitude":"44.39807","Longitude":"-72.26570","Snowdepth":"17.000","Units":"in","Rept_Date":"2021-02-02 12"},"coordinates":[5861,5558]},{"type":"Point","properties":{"Station_ID":"VT-WS-11","Station_Nam":"WAITSFIELD 1.8 SE, VT","Latitude":"44.17551","Longitude":"-72.79540","Snowdepth":"17.000","Units":"in","Rept_Date":"2021-02-02 11"},"coordinates":[5737,5424]},{"type":"Point","properties":{"Station_ID":"VT-OL-1","Station_Nam":"WESTFIELD 0.7 WNW, VT","Latitude":"44.89160","Longitude":"-72.44350","Snowdepth":"17.000","Units":"in","Rept_Date":"2021-02-02 13"},"coordinates":[5819,5857]},{"type":"Point","properties":{"Station_ID":"USBP1","Station_Nam":"USBP1","Latitude":"40.06110","Longitude":"-77.73330","Snowdepth":"17.000","Units":"in","Rept_Date":"2021-02-02 12"},"coordinates":[4578,2931]},{"type":"Point","properties":{"Station_ID":"SPTI4","Station_Nam":"STRAWBERRY POINT","Latitude":"42.68530","Longitude":"-91.53300","Snowdepth":"17.000","Units":"in","Rept_Date":"2021-02-02 13"},"coordinates":[1339,4521]},{"type":"Point","properties":{"Station_ID":"SHHN6","Station_Nam":"SCHOHARIE VILLAGE","Latitude":"42.66500","Longitude":"-74.30360","Snowdepth":"17.000","Units":"in","Rept_Date":"2021-02-02 14"},"coordinates":[5383,4508]},{"type":"Point","properties":{"Station_ID":"ROSN6","Station_Nam":"ROSENDALE","Latitude":"41.84310","Longitude":"-74.08640","Snowdepth":"17.000","Units":"in","Rept_Date":"2021-02-02 16"},"coordinates":[5434,4010]},{"type":"Point","properties":{"Station_ID":"QNCM4","Station_Nam":"QUINCY HILL","Latitude":"47.13640","Longitude":"-88.57950","Snowdepth":"17.000","Units":"in","Rept_Date":"2021-02-02 12"},"coordinates":[2032,7218]},{"type":"Point","properties":{"Station_ID":"PA-CN-10","Station_Nam":"BELLEFONTE 4.3 E, PA","Latitude":"40.92492","Longitude":"-77.68690","Snowdepth":"17.000","Units":"in","Rept_Date":"2021-02-02 13"},"coordinates":[4589,3454]},{"type":"Point","properties":{"Station_ID":"PA-BR-16","Station_Nam":"MOHNTON 2.8 SSW, PA","Latitude":"40.24693","Longitude":"-75.99810","Snowdepth":"17.000","Units":"in","Rept_Date":"2021-02-02 13"},"coordinates":[4985,3043]},{"type":"Point","properties":{"Station_ID":"NY-WC-18","Station_Nam":"ARMONK 0.3 SE, NY","Latitude":"41.12996","Longitude":"-73.70816","Snowdepth":"17.000","Units":"in","Rept_Date":"2021-02-02 13"},"coordinates":[5522,3578]},{"type":"Point","properties":{"Station_ID":"NY-TM-5","Station_Nam":"FREEVILLE 1.5 NE, NY","Latitude":"42.52530","Longitude":"-76.32180","Snowdepth":"17.000","Units":"in","Rept_Date":"2021-02-02 12"},"coordinates":[4909,4424]},{"type":"Point","properties":{"Station_ID":"NY-SR-22","Station_Nam":"GREENFIELD CENTER 1.6 W, NY","Latitude":"43.12684","Longitude":"-73.87860","Snowdepth":"17.000","Units":"in","Rept_Date":"2021-02-02 13"},"coordinates":[5482,4788]},{"type":"Point","properties":{"Station_ID":"NY-SF-142","Station_Nam":"SETAUKET-EAST SETAUKET 1.0 S, NY","Latitude":"40.91566","Longitude":"-73.10181","Snowdepth":"17.000","Units":"in","Rept_Date":"2021-02-02 14"},"coordinates":[5665,3448]},{"type":"Point","properties":{"Station_ID":"NY-QN-33","Station_Nam":"HOWARD BEACH 0.4 NNW, NY","Latitude":"40.66209","Longitude":"-73.84134","Snowdepth":"17.000","Units":"in","Rept_Date":"2021-02-02 12"},"coordinates":[5491,3295]},{"type":"Point","properties":{"Station_ID":"NY-OR-18","Station_Nam":"WALDEN 1.3 S, NY","Latitude":"41.54102","Longitude":"-74.18790","Snowdepth":"17.000","Units":"in","Rept_Date":"2021-02-02 12"},"coordinates":[5410,3827]},{"type":"Point","properties":{"Station_ID":"NY-MD-10","Station_Nam":"CAZENOVIA 2.9 SE, NY","Latitude":"42.90003","Longitude":"-75.81140","Snowdepth":"17.000","Units":"in","Rept_Date":"2021-02-02 12"},"coordinates":[5029,4651]},{"type":"Point","properties":{"Station_ID":"NY-CR-1","Station_Nam":"FREETOWN 1.0 NE, NY","Latitude":"42.53299","Longitude":"-76.02111","Snowdepth":"17.000","Units":"in","Rept_Date":"2021-02-02 12"},"coordinates":[4980,4428]},{"type":"Point","properties":{"Station_ID":"NY-CN-2","Station_Nam":"NORWICH 5.7 NE, NY","Latitude":"42.58333","Longitude":"-75.43330","Snowdepth":"17.000","Units":"in","Rept_Date":"2021-02-02 13"},"coordinates":[5118,4459]},{"type":"Point","properties":{"Station_ID":"NY-BM-14","Station_Nam":"WHITNEY POINT 1.7 SSE, NY","Latitude":"42.30837","Longitude":"-75.95690","Snowdepth":"17.000","Units":"in","Rept_Date":"2021-02-02 12"},"coordinates":[4995,4292]},{"type":"Point","properties":{"Station_ID":"NJ-SM-4","Station_Nam":"BERNARDS TWP 0.6 NNW, NJ","Latitude":"40.68340","Longitude":"-74.57310","Snowdepth":"17.000","Units":"in","Rept_Date":"2021-02-02 12"},"coordinates":[5319,3308]},{"type":"Point","properties":{"Station_ID":"NJ-MS-105","Station_Nam":"MORRISTOWN 0.7 WNW, NJ","Latitude":"40.80150","Longitude":"-74.48795","Snowdepth":"17.000","Units":"in","Rept_Date":"2021-02-02 14"},"coordinates":[5339,3379]},{"type":"Point","properties":{"Station_ID":"NJ-ES-41","Station_Nam":"LIVINGSTON TWP 2.0 NNE, NJ","Latitude":"40.81007","Longitude":"-74.30946","Snowdepth":"17.000","Units":"in","Rept_Date":"2021-02-02 12"},"coordinates":[5381,3384]},{"type":"Point","properties":{"Station_ID":"NJ-BG-3","Station_Nam":"TENAFLY 1.3 W, NJ","Latitude":"40.91467","Longitude":"-73.97750","Snowdepth":"17.000","Units":"in","Rept_Date":"2021-02-02 12"},"coordinates":[5459,3448]},{"type":"Point","properties":{"Station_ID":"MI-HG-20","Station_Nam":"CALUMET 1.1 SSW, MI","Latitude":"47.23165","Longitude":"-88.45823","Snowdepth":"17.000","Units":"in","Rept_Date":"2021-02-02 11"},"coordinates":[2061,7275]},{"type":"Point","properties":{"Station_ID":"MA-MD-45","Station_Nam":"WILMINGTON 1.5 NE, MA","Latitude":"42.57302","Longitude":"-71.14417","Snowdepth":"17.000","Units":"in","Rept_Date":"2021-02-02 12"},"coordinates":[6124,4453]},{"type":"Point","properties":{"Station_ID":"MA-MD-115","Station_Nam":"HUDSON 1.4 NW, MA","Latitude":"42.40372","Longitude":"-71.58680","Snowdepth":"17.000","Units":"in","Rept_Date":"2021-02-02 12"},"coordinates":[6020,4350]},{"type":"Point","properties":{"Station_ID":"MA-MD-104","Station_Nam":"LITTLETON 2.8 NNW, MA","Latitude":"42.57170","Longitude":"-71.49910","Snowdepth":"17.000","Units":"in","Rept_Date":"2021-02-02 12"},"coordinates":[6041,4452]},{"type":"Point","properties":{"Station_ID":"MA-FR-17","Station_Nam":"BUCKLAND 1.8 ESE, MA","Latitude":"42.58900","Longitude":"-72.75110","Snowdepth":"17.000","Units":"in","Rept_Date":"2021-02-02 13"},"coordinates":[5747,4462]},{"type":"Point","properties":{"Station_ID":"MA-FR-13","Station_Nam":"CONWAY 2.9 NW, MA","Latitude":"42.54419","Longitude":"-72.72743","Snowdepth":"17.000","Units":"in","Rept_Date":"2021-02-02 12"},"coordinates":[5753,4435]},{"type":"Point","properties":{"Station_ID":"MA-ES-61","Station_Nam":"AMESBURY 2.6 WSW, MA","Latitude":"42.84016","Longitude":"-70.97477","Snowdepth":"17.000","Units":"in","Rept_Date":"2021-02-02 12"},"coordinates":[6164,4614]},{"type":"Point","properties":{"Station_ID":"JAPN3","Station_Nam":"JAFFREY SILVER RANCH AIRPARK","Latitude":"42.80880","Longitude":"-72.00530","Snowdepth":"17.000","Units":"in","Rept_Date":"2021-02-02 12"},"coordinates":[5922,4595]},{"type":"Point","properties":{"Station_ID":"IWOM4","Station_Nam":"IRONWOOD#2","Latitude":"46.46520","Longitude":"-90.13820","Snowdepth":"17.000","Units":"in","Rept_Date":"2021-02-02 13"},"coordinates":[1666,6811]},{"type":"Point","properties":{"Station_ID":"HVJP1","Station_Nam":"HIDDEN VALLEY COOP","Latitude":"40.04200","Longitude":"-79.25660","Snowdepth":"17.000","Units":"in","Rept_Date":"2021-02-02 13"},"coordinates":[4220,2919]},{"type":"Point","properties":{"Station_ID":"HRTM1","Station_Nam":"HARTFORD","Latitude":"44.37440","Longitude":"-70.31620","Snowdepth":"17.000","Units":"in","Rept_Date":"2021-02-02 12"},"coordinates":[6318,5544]},{"type":"Point","properties":{"Station_ID":"HCKN3","Station_Nam":"HANCOCK","Latitude":"42.96940","Longitude":"-71.95290","Snowdepth":"17.000","Units":"in","Rept_Date":"2021-02-02 12"},"coordinates":[5934,4693]},{"type":"Point","properties":{"Station_ID":"GHMN3","Station_Nam":"PINKHAM NOTCH","Latitude":"44.25800","Longitude":"-71.25250","Snowdepth":"17.000","Units":"in","Rept_Date":"2021-02-02 10"},"coordinates":[6099,5474]},{"type":"Point","properties":{"Station_ID":"GERW3","Station_Nam":"GERMANTOWN,WI","Latitude":"43.21670","Longitude":"-88.11670","Snowdepth":"17.000","Units":"in","Rept_Date":"2021-02-02 13"},"coordinates":[2141,4843]},{"type":"Point","properties":{"Station_ID":"FVLN6","Station_Nam":"FREEVILLE,NY","Latitude":"42.51670","Longitude":"-76.33330","Snowdepth":"17.000","Units":"in","Rept_Date":"2021-02-02 13"},"coordinates":[4906,4418]},{"type":"Point","properties":{"Station_ID":"FARM1","Station_Nam":"FARMINGTON","Latitude":"44.68930","Longitude":"-70.15640","Snowdepth":"17.000","Units":"in","Rept_Date":"2021-02-02 12"},"coordinates":[6356,5735]},{"type":"Point","properties":{"Station_ID":"EWR","Station_Nam":"NEWARK INTL AIRPORT","Latitude":"40.69250","Longitude":"-74.16860","Snowdepth":"17.000","Units":"in","Rept_Date":"2021-02-02 12"},"coordinates":[5414,3313]},{"type":"Point","properties":{"Station_ID":"CT-LT-9","Station_Nam":"NEW HARTFORD CENTER 3.2 SW, CT","Latitude":"41.84170","Longitude":"-73.00920","Snowdepth":"17.000","Units":"in","Rept_Date":"2021-02-02 12"},"coordinates":[5686,4009]},{"type":"Point","properties":{"Station_ID":"CT-HR-15","Station_Nam":"SOUTHINGTON 3.0 E, CT","Latitude":"41.60798","Longitude":"-72.82220","Snowdepth":"17.000","Units":"in","Rept_Date":"2021-02-02 12"},"coordinates":[5730,3868]},{"type":"Point","properties":{"Station_ID":"CLQM5","Station_Nam":"CLOQUET","Latitude":"46.70470","Longitude":"-92.52530","Snowdepth":"17.000","Units":"in","Rept_Date":"2021-02-02 14"},"coordinates":[1106,6956]},{"type":"Point","properties":{"Station_ID":"CCON6","Station_Nam":"CALLICOON CENTER","Latitude":"41.82750","Longitude":"-74.95060","Snowdepth":"17.000","Units":"in","Rept_Date":"2021-02-02 13"},"coordinates":[5231,4001]},{"type":"Point","properties":{"Station_ID":"BLGW3","Station_Nam":"BELGIUM WWTP","Latitude":"43.51310","Longitude":"-87.85440","Snowdepth":"17.000","Units":"in","Rept_Date":"2021-02-02 13"},"coordinates":[2202,5022]},{"type":"Point","properties":{"Station_ID":"BAKC3","Station_Nam":"BAKERSVILLE","Latitude":"41.84180","Longitude":"-73.00850","Snowdepth":"17.000","Units":"in","Rept_Date":"2021-02-02 12"},"coordinates":[5687,4010]},{"type":"Point","properties":{"Station_ID":"NJ-ES-40","Station_Nam":"VERONA TWP 0.8 W, NJ","Latitude":"40.83260","Longitude":"-74.25830","Snowdepth":"16.600","Units":"in","Rept_Date":"2021-02-02 13"},"coordinates":[5393,3398]},{"type":"Point","properties":{"Station_ID":"WI-DA-35","Station_Nam":"MADISON 5.5 N, WI","Latitude":"43.15858","Longitude":"-89.37280","Snowdepth":"16.500","Units":"in","Rept_Date":"2021-02-02 14"},"coordinates":[1846,4807]},{"type":"Point","properties":{"Station_ID":"VT-WS-10","Station_Nam":"NORTHFIELD 1.5 N, VT","Latitude":"44.16986","Longitude":"-72.65200","Snowdepth":"16.500","Units":"in","Rept_Date":"2021-02-02 12"},"coordinates":[5770,5420]},{"type":"Point","properties":{"Station_ID":"PA-BR-29","Station_Nam":"READING 4.7 WSW, PA","Latitude":"40.31120","Longitude":"-76.00980","Snowdepth":"16.500","Units":"in","Rept_Date":"2021-02-02 13"},"coordinates":[4982,3082]},{"type":"Point","properties":{"Station_ID":"NY-MD-22","Station_Nam":"ONEIDA 0.4 NW, NY","Latitude":"43.08012","Longitude":"-75.66860","Snowdepth":"16.500","Units":"in","Rept_Date":"2021-02-02 12"},"coordinates":[5062,4760]},{"type":"Point","properties":{"Station_ID":"NY-FK-9","Station_Nam":"GABRIELS 1.3 SE, NY","Latitude":"44.41934","Longitude":"-74.16194","Snowdepth":"16.500","Units":"in","Rept_Date":"2021-02-02 12"},"coordinates":[5416,5571]},{"type":"Point","properties":{"Station_ID":"NY-ES-11","Station_Nam":"VERMONTVILLE 2.8 S, NY","Latitude":"44.41205","Longitude":"-74.06760","Snowdepth":"16.500","Units":"in","Rept_Date":"2021-02-02 12"},"coordinates":[5438,5567]},{"type":"Point","properties":{"Station_ID":"NJ-PS-12","Station_Nam":"LITTLE FALLS TWP 0.5 WNW, NJ","Latitude":"40.87963","Longitude":"-74.22700","Snowdepth":"16.500","Units":"in","Rept_Date":"2021-02-02 12"},"coordinates":[5401,3427]},{"type":"Point","properties":{"Station_ID":"MA-WR-41","Station_Nam":"AUBURN 2.6 SW, MA","Latitude":"42.17336","Longitude":"-71.86869","Snowdepth":"16.500","Units":"in","Rept_Date":"2021-02-02 14"},"coordinates":[5954,4210]},{"type":"Point","properties":{"Station_ID":"MA-MD-156","Station_Nam":"MARLBOROUGH 2.8 ENE, MA","Latitude":"42.37021","Longitude":"-71.50011","Snowdepth":"16.500","Units":"in","Rept_Date":"2021-02-02 11"},"coordinates":[6041,4330]},{"type":"Point","properties":{"Station_ID":"MA-BE-24","Station_Nam":"HANCOCK 3.6 NNE, MA","Latitude":"42.59130","Longitude":"-73.29530","Snowdepth":"16.500","Units":"in","Rept_Date":"2021-02-02 17"},"coordinates":[5619,4464]},{"type":"Point","properties":{"Station_ID":"CT-LT-29","Station_Nam":"GOSHEN 0.5 NW, CT","Latitude":"41.83707","Longitude":"-73.23003","Snowdepth":"16.500","Units":"in","Rept_Date":"2021-02-02 11"},"coordinates":[5635,4007]},{"type":"Point","properties":{"Station_ID":"NY-NS-42","Station_Nam":"ALBERTSON 0.2 SSE, NY","Latitude":"40.76913","Longitude":"-73.64748","Snowdepth":"16.400","Units":"in","Rept_Date":"2021-02-02 13"},"coordinates":[5537,3360]},{"type":"Point","properties":{"Station_ID":"NJ-ES-19","Station_Nam":"WEST CALDWELL TWP 1.3 NE, NJ","Latitude":"40.86150","Longitude":"-74.27750","Snowdepth":"16.400","Units":"in","Rept_Date":"2021-02-02 14"},"coordinates":[5389,3416]},{"type":"Point","properties":{"Station_ID":"PA-BF-24","Station_Nam":"BURLINGTON 6.1 SW, PA","Latitude":"41.71848","Longitude":"-76.68963","Snowdepth":"16.100","Units":"in","Rept_Date":"2021-02-02 12"},"coordinates":[4823,3935]},{"type":"Point","properties":{"Station_ID":"WRTN4","Station_Nam":"WETSVILLE 4 NE","Latitude":"40.45200","Longitude":"-74.77910","Snowdepth":"16.000","Units":"in","Rept_Date":"2021-02-02 12"},"coordinates":[5271,3167]},{"type":"Point","properties":{"Station_ID":"WORV1","Station_Nam":"WORCESTER 2 W","Latitude":"44.37470","Longitude":"-72.58220","Snowdepth":"16.000","Units":"in","Rept_Date":"2021-02-02 12"},"coordinates":[5787,5544]},{"type":"Point","properties":{"Station_ID":"WI-RC-3","Station_Nam":"RACINE 2.3 WSW, WI","Latitude":"42.71124","Longitude":"-87.84570","Snowdepth":"16.000","Units":"in","Rept_Date":"2021-02-02 13"},"coordinates":[2204,4536]},{"type":"Point","properties":{"Station_ID":"VT-WR-19","Station_Nam":"HARTLAND 1.4 SW, VT","Latitude":"43.52591","Longitude":"-72.41903","Snowdepth":"16.000","Units":"in","Rept_Date":"2021-02-02 13"},"coordinates":[5825,5030]},{"type":"Point","properties":{"Station_ID":"VT-WH-29","Station_Nam":"BRATTLEBORO 0.7 S, VT","Latitude":"42.84030","Longitude":"-72.55580","Snowdepth":"16.000","Units":"in","Rept_Date":"2021-02-02 12"},"coordinates":[5793,4615]},{"type":"Point","properties":{"Station_ID":"SGVN6","Station_Nam":"SPRINGVILLE","Latitude":"42.54970","Longitude":"-78.57670","Snowdepth":"16.000","Units":"in","Rept_Date":"2021-02-02 23"},"coordinates":[4380,4438]},{"type":"Point","properties":{"Station_ID":"RCHW3","Station_Nam":"RICHRIELD,WI","Latitude":"43.21080","Longitude":"-88.20940","Snowdepth":"16.000","Units":"in","Rept_Date":"2021-02-02 12"},"coordinates":[2119,4839]},{"type":"Point","properties":{"Station_ID":"PTBN3","Station_Nam":"PITTSBURG RESERVOIR","Latitude":"45.04690","Longitude":"-71.38300","Snowdepth":"16.000","Units":"in","Rept_Date":"2021-02-02 12"},"coordinates":[6068,5952]},{"type":"Point","properties":{"Station_ID":"PA-BR-25","Station_Nam":"HAMBURG 0.7 NNW, PA","Latitude":"40.56646","Longitude":"-75.98620","Snowdepth":"16.000","Units":"in","Rept_Date":"2021-02-02 12"},"coordinates":[4988,3237]},{"type":"Point","properties":{"Station_ID":"PA-BR-2","Station_Nam":"READING 3.5 SW, PA","Latitude":"40.31625","Longitude":"-75.98866","Snowdepth":"16.000","Units":"in","Rept_Date":"2021-02-02 12"},"coordinates":[4987,3085]},{"type":"Point","properties":{"Station_ID":"NY-UL-28","Station_Nam":"KERHONKSON 3.7 N, NY","Latitude":"41.83214","Longitude":"-74.30115","Snowdepth":"16.000","Units":"in","Rept_Date":"2021-02-02 12"},"coordinates":[5383,4004]},{"type":"Point","properties":{"Station_ID":"NY-UL-16","Station_Nam":"ROSENDALE VILLAGE 1.8 WNW, NY","Latitude":"41.86083","Longitude":"-74.10750","Snowdepth":"16.000","Units":"in","Rept_Date":"2021-02-02 14"},"coordinates":[5429,4021]},{"type":"Point","properties":{"Station_ID":"NY-TG-26","Station_Nam":"CANDOR 0.7 NW, NY","Latitude":"42.23428","Longitude":"-76.34758","Snowdepth":"16.000","Units":"in","Rept_Date":"2021-02-02 12"},"coordinates":[4903,4247]},{"type":"Point","properties":{"Station_ID":"NY-TG-15","Station_Nam":"BERKSHIRE 1.9 ENE, NY","Latitude":"42.31910","Longitude":"-76.21940","Snowdepth":"16.000","Units":"in","Rept_Date":"2021-02-02 13"},"coordinates":[4933,4299]},{"type":"Point","properties":{"Station_ID":"NY-OT-11","Station_Nam":"HARTWICK, NY","Latitude":"42.65990","Longitude":"-75.05000","Snowdepth":"16.000","Units":"in","Rept_Date":"2021-02-02 16"},"coordinates":[5208,4505]},{"type":"Point","properties":{"Station_ID":"NY-ER-166","Station_Nam":"BOSTON 2.5 NE, NY","Latitude":"42.65480","Longitude":"-78.70300","Snowdepth":"16.000","Units":"in","Rept_Date":"2021-02-02 12"},"coordinates":[4350,4502]},{"type":"Point","properties":{"Station_ID":"NY-DT-35","Station_Nam":"PLEASANT VALLEY 1.7 S, NY","Latitude":"41.72370","Longitude":"-73.82100","Snowdepth":"16.000","Units":"in","Rept_Date":"2021-02-03 05"},"coordinates":[5496,3938]},{"type":"Point","properties":{"Station_ID":"NY-DT-12","Station_Nam":"LAGRANGEVILLE 3.4 NE, NY","Latitude":"41.68460","Longitude":"-73.72050","Snowdepth":"16.000","Units":"in","Rept_Date":"2021-02-02 12"},"coordinates":[5520,3914]},{"type":"Point","properties":{"Station_ID":"NY-CR-5","Station_Nam":"MARATHON 1.0 NW, NY","Latitude":"42.45161","Longitude":"-76.04370","Snowdepth":"16.000","Units":"in","Rept_Date":"2021-02-02 12"},"coordinates":[4974,4379]},{"type":"Point","properties":{"Station_ID":"NJ-SM-84","Station_Nam":"BRANCHBURG TWP 2.0 NE, NJ","Latitude":"40.58600","Longitude":"-74.69200","Snowdepth":"16.000","Units":"in","Rept_Date":"2021-02-02 13"},"coordinates":[5292,3249]},{"type":"Point","properties":{"Station_ID":"NJ-SM-82","Station_Nam":"WARREN TWP 1.3 W, NJ","Latitude":"40.63473","Longitude":"-74.53892","Snowdepth":"16.000","Units":"in","Rept_Date":"2021-02-02 13"},"coordinates":[5327,3278]},{"type":"Point","properties":{"Station_ID":"NJ-SM-26","Station_Nam":"FRANKLIN TWP 3.1 NE, NJ","Latitude":"40.51233","Longitude":"-74.51740","Snowdepth":"16.000","Units":"in","Rept_Date":"2021-02-02 11"},"coordinates":[5333,3204]},{"type":"Point","properties":{"Station_ID":"MTLT1","Station_Nam":"GATLINBURG,TN","Latitude":"35.65500","Longitude":"-83.44110","Snowdepth":"16.000","Units":"in","Rept_Date":"2021-02-02 13"},"coordinates":[3238,261]},{"type":"Point","properties":{"Station_ID":"MN-SL-108","Station_Nam":"IRON JUNCTION 3.4 NNW, MN","Latitude":"47.46150","Longitude":"-92.63130","Snowdepth":"16.000","Units":"in","Rept_Date":"2021-02-02 12"},"coordinates":[1081,7415]},{"type":"Point","properties":{"Station_ID":"MA-WR-18","Station_Nam":"NORTHBOROUGH 0.6 SSE, MA","Latitude":"42.30367","Longitude":"-71.64620","Snowdepth":"16.000","Units":"in","Rept_Date":"2021-02-02 13"},"coordinates":[6006,4289]},{"type":"Point","properties":{"Station_ID":"LLLM3","Station_Nam":"LOWELL","Latitude":"42.64090","Longitude":"-71.36370","Snowdepth":"16.000","Units":"in","Rept_Date":"2021-02-02 11"},"coordinates":[6073,4494]},{"type":"Point","properties":{"Station_ID":"KEWR","Station_Nam":"NEWARK INTERNATIONAL  AIRPORT","Latitude":"40.68333","Longitude":"-74.16666","Snowdepth":"16.000","Units":"in","Rept_Date":"2021-02-03 06"},"coordinates":[5415,3308]},{"type":"Point","properties":{"Station_ID":"KABM5","Station_Nam":"KABETOGAMA LAKE VISITOR CTR","Latitude":"48.40880","Longitude":"-93.04840","Snowdepth":"16.000","Units":"in","Rept_Date":"2021-02-02 13"},"coordinates":[983,7989]},{"type":"Point","properties":{"Station_ID":"JEFV1","Station_Nam":"JEFFERSONVILLE","Latitude":"44.58430","Longitude":"-72.78700","Snowdepth":"16.000","Units":"in","Rept_Date":"2021-02-02 12"},"coordinates":[5739,5671]},{"type":"Point","properties":{"Station_ID":"IL-MCH-95","Station_Nam":"CARY 0.5 SSW, IL","Latitude":"42.20235","Longitude":"-88.25224","Snowdepth":"16.000","Units":"in","Rept_Date":"2021-02-02 13"},"coordinates":[2109,4228]},{"type":"Point","properties":{"Station_ID":"IL-DP-127","Station_Nam":"DOWNERS GROVE 0.4 NNE, IL","Latitude":"41.80331","Longitude":"-88.01542","Snowdepth":"16.000","Units":"in","Rept_Date":"2021-02-02 13"},"coordinates":[2165,3986]},{"type":"Point","properties":{"Station_ID":"IL-BN-19","Station_Nam":"BELVIDERE 5.0 NNW, IL","Latitude":"42.32071","Longitude":"-88.88282","Snowdepth":"16.000","Units":"in","Rept_Date":"2021-02-02 13"},"coordinates":[1961,4300]},{"type":"Point","properties":{"Station_ID":"HSNN4","Station_Nam":"0.2 MI E OF HARRISON P.O. PASSAIC RVR","Latitude":"40.74810","Longitude":"-74.15200","Snowdepth":"16.000","Units":"in","Rept_Date":"2021-02-02 12"},"coordinates":[5418,3347]},{"type":"Point","properties":{"Station_ID":"CT-NH-77","Station_Nam":"SOUTHBURY 2.3 W, CT","Latitude":"41.47830","Longitude":"-73.25798","Snowdepth":"16.000","Units":"in","Rept_Date":"2021-02-02 13"},"coordinates":[5628,3789]},{"type":"Point","properties":{"Station_ID":"CT-NH-47","Station_Nam":"SEYMOUR 1.5 NE, CT","Latitude":"41.40313","Longitude":"-73.04835","Snowdepth":"16.000","Units":"in","Rept_Date":"2021-02-02 12"},"coordinates":[5677,3744]},{"type":"Point","properties":{"Station_ID":"CODN6","Station_Nam":"COLDEN","Latitude":"42.64720","Longitude":"-78.71110","Snowdepth":"16.000","Units":"in","Rept_Date":"2021-02-02 12"},"coordinates":[4348,4498]},{"type":"Point","properties":{"Station_ID":"CAAW2","Station_Nam":"CANAAN VALLEY","Latitude":"39.05890","Longitude":"-79.44030","Snowdepth":"16.000","Units":"in","Rept_Date":"2021-02-02 14"},"coordinates":[4177,2323]},{"type":"Point","properties":{"Station_ID":"BRKI4","Station_Nam":"BROOKLYN,IA","Latitude":"41.72830","Longitude":"-92.43330","Snowdepth":"16.000","Units":"in","Rept_Date":"2021-02-02 13"},"coordinates":[1128,3941]},{"type":"Point","properties":{"Station_ID":"BBEM4","Station_Nam":"BIG BAY 9SW","Latitude":"46.74620","Longitude":"-87.88160","Snowdepth":"16.000","Units":"in","Rept_Date":"2021-02-02 13"},"coordinates":[2196,6981]},{"type":"Point","properties":{"Station_ID":"OGIQ6","Station_Nam":"OGOKI CAMP","Latitude":"50.76680","Longitude":"-87.85820","Snowdepth":"15.910","Units":"in","Rept_Date":"2021-02-03 06"},"coordinates":[2202,9417]},{"type":"Point","properties":{"Station_ID":"MA-WR-88","Station_Nam":"LEICESTER 2.5 WSW, MA","Latitude":"42.23742","Longitude":"-71.94612","Snowdepth":"15.600","Units":"in","Rept_Date":"2021-02-02 12"},"coordinates":[5936,4249]},{"type":"Point","properties":{"Station_ID":"NY-SF-100","Station_Nam":"PORT JEFFERSON STATION 0.3 SSW, NY","Latitude":"40.91996","Longitude":"-73.06940","Snowdepth":"15.500","Units":"in","Rept_Date":"2021-02-02 13"},"coordinates":[5672,3451]},{"type":"Point","properties":{"Station_ID":"NY-RL-8","Station_Nam":"STONY POINT 0.7 NW, NY","Latitude":"41.23490","Longitude":"-74.00790","Snowdepth":"15.500","Units":"in","Rept_Date":"2021-02-02 12"},"coordinates":[5452,3642]},{"type":"Point","properties":{"Station_ID":"NY-ER-65","Station_Nam":"BOSTON 1.5 NE, NY","Latitude":"42.65470","Longitude":"-78.72010","Snowdepth":"15.500","Units":"in","Rept_Date":"2021-02-02 12"},"coordinates":[4346,4502]},{"type":"Point","properties":{"Station_ID":"NY-ER-56","Station_Nam":"COLDEN 1.4 NNW, NY","Latitude":"42.64740","Longitude":"-78.71120","Snowdepth":"15.500","Units":"in","Rept_Date":"2021-02-02 12"},"coordinates":[4348,4498]},{"type":"Point","properties":{"Station_ID":"NY-ER-195","Station_Nam":"SPRINGVILLE 0.4 NE, NY","Latitude":"42.51351","Longitude":"-78.66492","Snowdepth":"15.500","Units":"in","Rept_Date":"2021-02-03 05"},"coordinates":[4359,4417]},{"type":"Point","properties":{"Station_ID":"NJ-UN-36","Station_Nam":"CLARK TWP 1.3 ENE, NJ","Latitude":"40.62605","Longitude":"-74.28967","Snowdepth":"15.500","Units":"in","Rept_Date":"2021-02-02 14"},"coordinates":[5386,3273]},{"type":"Point","properties":{"Station_ID":"NJ-UN-14","Station_Nam":"WESTFIELD 0.6 NE, NJ","Latitude":"40.65882","Longitude":"-74.33580","Snowdepth":"15.500","Units":"in","Rept_Date":"2021-02-02 13"},"coordinates":[5375,3293]},{"type":"Point","properties":{"Station_ID":"NJ-SM-67","Station_Nam":"FRANKLIN TWP 2.4 ENE, NJ","Latitude":"40.49170","Longitude":"-74.51077","Snowdepth":"15.500","Units":"in","Rept_Date":"2021-02-02 13"},"coordinates":[5334,3192]},{"type":"Point","properties":{"Station_ID":"NJ-HN-19","Station_Nam":"LEBANON 3.2 SW, NJ","Latitude":"40.60637","Longitude":"-74.87100","Snowdepth":"15.500","Units":"in","Rept_Date":"2021-02-02 12"},"coordinates":[5250,3261]},{"type":"Point","properties":{"Station_ID":"NJ-HN-12","Station_Nam":"HOLLAND TWP 2.6 NNE, NJ","Latitude":"40.63168","Longitude":"-75.10450","Snowdepth":"15.500","Units":"in","Rept_Date":"2021-02-02 12"},"coordinates":[5195,3276]},{"type":"Point","properties":{"Station_ID":"NH-MR-60","Station_Nam":"SOUTH SUTTON 1.3 SE, NH","Latitude":"43.29531","Longitude":"-71.90238","Snowdepth":"15.500","Units":"in","Rept_Date":"2021-02-02 13"},"coordinates":[5946,4890]},{"type":"Point","properties":{"Station_ID":"MA-WR-89","Station_Nam":"HOLDEN 0.9 SSE, MA","Latitude":"42.33809","Longitude":"-71.85686","Snowdepth":"15.500","Units":"in","Rept_Date":"2021-02-02 12"},"coordinates":[5957,4310]},{"type":"Point","properties":{"Station_ID":"MA-WR-28","Station_Nam":"BERLIN 1.3 WSW, MA","Latitude":"42.37750","Longitude":"-71.65830","Snowdepth":"15.500","Units":"in","Rept_Date":"2021-02-02 13"},"coordinates":[6004,4334]},{"type":"Point","properties":{"Station_ID":"IL-CK-285","Station_Nam":"HARWOOD HEIGHTS 0.4 NNE, IL","Latitude":"41.97154","Longitude":"-87.80325","Snowdepth":"15.500","Units":"in","Rept_Date":"2021-02-02 13"},"coordinates":[2214,4088]},{"type":"Point","properties":{"Station_ID":"CT-HR-65","Station_Nam":"NEWINGTON 1.9 SSW, CT","Latitude":"41.66021","Longitude":"-72.74087","Snowdepth":"15.500","Units":"in","Rept_Date":"2021-02-02 12"},"coordinates":[5749,3900]},{"type":"Point","properties":{"Station_ID":"QWE","Station_Nam":"QWE","Latitude":"47.84610","Longitude":"-73.80670","Snowdepth":"15.315","Units":"in","Rept_Date":"2021-02-02 12"},"coordinates":[5499,7648]},{"type":"Point","properties":{"Station_ID":"PA-CLM-7","Station_Nam":"ESPY 0.8 S, PA","Latitude":"40.99288","Longitude":"-76.41502","Snowdepth":"15.300","Units":"in","Rept_Date":"2021-02-02 12"},"coordinates":[4887,3495]},{"type":"Point","properties":{"Station_ID":"MLZ","Station_Nam":"MLZ","Latitude":"50.66170","Longitude":"-68.82360","Snowdepth":"15.157","Units":"in","Rept_Date":"2021-02-02 12"},"coordinates":[6669,9354]},{"type":"Point","properties":{"Station_ID":"WI-RK-6","Station_Nam":"EVANSVILLE 0.4 E, WI","Latitude":"42.77913","Longitude":"-89.29020","Snowdepth":"15.100","Units":"in","Rept_Date":"2021-02-02 12"},"coordinates":[1865,4577]},{"type":"Point","properties":{"Station_ID":"IL-CK-193","Station_Nam":"WINNETKA 0.8 ESE, IL","Latitude":"42.10164","Longitude":"-87.72900","Snowdepth":"15.100","Units":"in","Rept_Date":"2021-02-02 14"},"coordinates":[2232,4167]},{"type":"Point","properties":{"Station_ID":"KABQ6","Station_Nam":"CAB LAKE","Latitude":"49.59950","Longitude":"-89.17990","Snowdepth":"15.080","Units":"in","Rept_Date":"2021-02-03 06"},"coordinates":[1891,8710]},{"type":"Point","properties":{"Station_ID":"WODI2","Station_Nam":"WOODSTOCK","Latitude":"42.36280","Longitude":"-88.53140","Snowdepth":"15.000","Units":"in","Rept_Date":"2021-02-02 13"},"coordinates":[2044,4325]},{"type":"Point","properties":{"Station_ID":"WI-WK-34","Station_Nam":"MUKWONAGO 5.3 W, WI","Latitude":"42.85380","Longitude":"-88.43550","Snowdepth":"15.000","Units":"in","Rept_Date":"2021-02-02 13"},"coordinates":[2066,4623]},{"type":"Point","properties":{"Station_ID":"WI-RK-12","Station_Nam":"JANESVILLE 3.1 W, WI","Latitude":"42.67576","Longitude":"-89.07614","Snowdepth":"15.000","Units":"in","Rept_Date":"2021-02-02 13"},"coordinates":[1916,4515]},{"type":"Point","properties":{"Station_ID":"WI-IW-3","Station_Nam":"MINERAL POINT 7.3 ENE, WI","Latitude":"42.91400","Longitude":"-90.05700","Snowdepth":"15.000","Units":"in","Rept_Date":"2021-02-02 13"},"coordinates":[1685,4659]},{"type":"Point","properties":{"Station_ID":"WDSV1","Station_Nam":"WOODSTOCK","Latitude":"43.63030","Longitude":"-72.50720","Snowdepth":"15.000","Units":"in","Rept_Date":"2021-02-02 13"},"coordinates":[5804,5093]},{"type":"Point","properties":{"Station_ID":"VT-WS-19","Station_Nam":"WATERBURY 3.0 NW, VT","Latitude":"44.36060","Longitude":"-72.80770","Snowdepth":"15.000","Units":"in","Rept_Date":"2021-02-02 11"},"coordinates":[5734,5536]},{"type":"Point","properties":{"Station_ID":"VT-WS-15","Station_Nam":"EAST CALAIS 1.5 SW, VT","Latitude":"44.35523","Longitude":"-72.45540","Snowdepth":"15.000","Units":"in","Rept_Date":"2021-02-02 12"},"coordinates":[5816,5532]},{"type":"Point","properties":{"Station_ID":"VT-WR-10","Station_Nam":"WEST WINDSOR 1.7 S, VT","Latitude":"43.46164","Longitude":"-72.49197","Snowdepth":"15.000","Units":"in","Rept_Date":"2021-02-02 12"},"coordinates":[5808,4991]},{"type":"Point","properties":{"Station_ID":"VT-AD-20","Station_Nam":"HANCOCK 0.3 S, VT","Latitude":"43.92166","Longitude":"-72.84042","Snowdepth":"15.000","Units":"in","Rept_Date":"2021-02-02 12"},"coordinates":[5726,5270]},{"type":"Point","properties":{"Station_ID":"STOI2","Station_Nam":"STOCKTON 3 NNE","Latitude":"42.40050","Longitude":"-89.99580","Snowdepth":"15.000","Units":"in","Rept_Date":"2021-02-03 03"},"coordinates":[1700,4348]},{"type":"Point","properties":{"Station_ID":"SLNV1","Station_Nam":"SOUTH LINCOLN","Latitude":"44.07460","Longitude":"-72.97180","Snowdepth":"15.000","Units":"in","Rept_Date":"2021-02-02 12"},"coordinates":[5695,5362]},{"type":"Point","properties":{"Station_ID":"SEEW3","Station_Nam":"SOUTH MILWAUKEE WWTP","Latitude":"42.90110","Longitude":"-87.84940","Snowdepth":"15.000","Units":"in","Rept_Date":"2021-02-02 13"},"coordinates":[2204,4651]},{"type":"Point","properties":{"Station_ID":"RANM1","Station_Nam":"RANGELEY","Latitude":"44.98910","Longitude":"-70.67190","Snowdepth":"15.000","Units":"in","Rept_Date":"2021-02-02 11"},"coordinates":[6235,5917]},{"type":"Point","properties":{"Station_ID":"PA-NM-2","Station_Nam":"MOUNT CARMEL 1.1 WNW, PA","Latitude":"40.79898","Longitude":"-76.43220","Snowdepth":"15.000","Units":"in","Rept_Date":"2021-02-02 12"},"coordinates":[4883,3378]},{"type":"Point","properties":{"Station_ID":"NY-WC-37","Station_Nam":"YORKTOWN HEIGHTS 1.6 E, NY","Latitude":"41.26961","Longitude":"-73.75164","Snowdepth":"15.000","Units":"in","Rept_Date":"2021-02-02 12"},"coordinates":[5512,3663]},{"type":"Point","properties":{"Station_ID":"NY-SF-147","Station_Nam":"SOUND BEACH 0.8 NNW, NY","Latitude":"40.96483","Longitude":"-72.97473","Snowdepth":"15.000","Units":"in","Rept_Date":"2021-02-02 12"},"coordinates":[5695,3478]},{"type":"Point","properties":{"Station_ID":"NY-FL-7","Station_Nam":"BROADALBIN 4.7 ESE, NY","Latitude":"43.03940","Longitude":"-74.10845","Snowdepth":"15.000","Units":"in","Rept_Date":"2021-02-02 14"},"coordinates":[5428,4735]},{"type":"Point","properties":{"Station_ID":"NY-FK-7","Station_Nam":"SARANAC LAKE 6.2 N, NY","Latitude":"44.41359","Longitude":"-74.15211","Snowdepth":"15.000","Units":"in","Rept_Date":"2021-02-02 11"},"coordinates":[5418,5568]},{"type":"Point","properties":{"Station_ID":"NY-DL-23","Station_Nam":"LONG EDDY 6.5 NNE, NY","Latitude":"41.93510","Longitude":"-75.07840","Snowdepth":"15.000","Units":"in","Rept_Date":"2021-02-02 13"},"coordinates":[5201,4066]},{"type":"Point","properties":{"Station_ID":"NY-CL-12","Station_Nam":"SARANAC 0.8 SSE, NY","Latitude":"44.63980","Longitude":"-73.73848","Snowdepth":"15.000","Units":"in","Rept_Date":"2021-02-02 12"},"coordinates":[5515,5705]},{"type":"Point","properties":{"Station_ID":"NOHV1","Station_Nam":"NORTH HARTLAND LAKE","Latitude":"43.60270","Longitude":"-72.36210","Snowdepth":"15.000","Units":"in","Rept_Date":"2021-02-02 12"},"coordinates":[5838,5076]},{"type":"Point","properties":{"Station_ID":"NJ-UN-34","Station_Nam":"WESTFIELD 1.2 SE, NJ","Latitude":"40.64090","Longitude":"-74.32540","Snowdepth":"15.000","Units":"in","Rept_Date":"2021-02-02 12"},"coordinates":[5378,3282]},{"type":"Point","properties":{"Station_ID":"NJ-HN-48","Station_Nam":"FLEMINGTON 1.9 SE, NJ","Latitude":"40.49230","Longitude":"-74.83050","Snowdepth":"15.000","Units":"in","Rept_Date":"2021-02-02 12"},"coordinates":[5259,3192]},{"type":"Point","properties":{"Station_ID":"NJ-HN-25","Station_Nam":"LEBANON 0.5 E, NJ","Latitude":"40.64180","Longitude":"-74.82490","Snowdepth":"15.000","Units":"in","Rept_Date":"2021-02-02 11"},"coordinates":[5260,3282]},{"type":"Point","properties":{"Station_ID":"NJ-HN-18","Station_Nam":"CLINTON TWP 3.9 N, NJ","Latitude":"40.68717","Longitude":"-74.85750","Snowdepth":"15.000","Units":"in","Rept_Date":"2021-02-02 13"},"coordinates":[5253,3310]},{"type":"Point","properties":{"Station_ID":"NJ-HN-10","Station_Nam":"FLEMINGTON 2.3 E, NJ","Latitude":"40.50830","Longitude":"-74.81520","Snowdepth":"15.000","Units":"in","Rept_Date":"2021-02-02 13"},"coordinates":[5263,3202]},{"type":"Point","properties":{"Station_ID":"NJ-BG-18","Station_Nam":"PALISADES PARK 0.2 WNW, NJ","Latitude":"40.84809","Longitude":"-74.00020","Snowdepth":"15.000","Units":"in","Rept_Date":"2021-02-02 14"},"coordinates":[5454,3407]},{"type":"Point","properties":{"Station_ID":"NH-SL-3","Station_Nam":"WEST UNITY 0.7 WSW, NH","Latitude":"43.28652","Longitude":"-72.32970","Snowdepth":"15.000","Units":"in","Rept_Date":"2021-02-02 12"},"coordinates":[5846,4885]},{"type":"Point","properties":{"Station_ID":"NH-CS-19","Station_Nam":"CARROLL 4.6 NE, NH","Latitude":"44.33765","Longitude":"-71.46461","Snowdepth":"15.000","Units":"in","Rept_Date":"2021-02-02 12"},"coordinates":[6049,5522]},{"type":"Point","properties":{"Station_ID":"MWOW3","Station_Nam":"MUKWONAGO","Latitude":"42.85380","Longitude":"-88.43550","Snowdepth":"15.000","Units":"in","Rept_Date":"2021-02-02 13"},"coordinates":[2066,4623]},{"type":"Point","properties":{"Station_ID":"MWN","Station_Nam":"MOUNT WASHINGTON","Latitude":"44.26670","Longitude":"-71.30000","Snowdepth":"15.000","Units":"in","Rept_Date":"2021-02-02 12"},"coordinates":[6088,5479]},{"type":"Point","properties":{"Station_ID":"MTCI2","Station_Nam":"MOUNT CARROLL","Latitude":"42.09800","Longitude":"-89.98410","Snowdepth":"15.000","Units":"in","Rept_Date":"2021-02-02 14"},"coordinates":[1703,4165]},{"type":"Point","properties":{"Station_ID":"MSRN3","Station_Nam":"MASCOMA RIVER","Latitude":"43.78330","Longitude":"-72.03330","Snowdepth":"15.000","Units":"in","Rept_Date":"2021-02-03 06"},"coordinates":[5916,5186]},{"type":"Point","properties":{"Station_ID":"MNSM4","Station_Nam":"MUNISING","Latitude":"46.41210","Longitude":"-86.66250","Snowdepth":"15.000","Units":"in","Rept_Date":"2021-02-02 11"},"coordinates":[2482,6779]},{"type":"Point","properties":{"Station_ID":"ME-FR-22","Station_Nam":"FARMINGTON 4.8 NNW, ME","Latitude":"44.73396","Longitude":"-70.18007","Snowdepth":"15.000","Units":"in","Rept_Date":"2021-02-02 14"},"coordinates":[6350,5762]},{"type":"Point","properties":{"Station_ID":"MD-GR-4","Station_Nam":"MC HENRY 4.8 SSE, MD","Latitude":"39.48539","Longitude":"-79.31830","Snowdepth":"15.000","Units":"in","Rept_Date":"2021-02-02 13"},"coordinates":[4206,2582]},{"type":"Point","properties":{"Station_ID":"MA-WR-44","Station_Nam":"WESTMINSTER 0.6 WSW, MA","Latitude":"42.54505","Longitude":"-71.91032","Snowdepth":"15.000","Units":"in","Rept_Date":"2021-02-02 12"},"coordinates":[5944,4436]},{"type":"Point","properties":{"Station_ID":"MA-MD-89","Station_Nam":"SUDBURY 3.6 W, MA","Latitude":"42.36394","Longitude":"-71.47012","Snowdepth":"15.000","Units":"in","Rept_Date":"2021-02-02 12"},"coordinates":[6048,4326]},{"type":"Point","properties":{"Station_ID":"MA-MD-107","Station_Nam":"FRAMINGHAM 1.7 E, MA","Latitude":"42.30516","Longitude":"-71.40471","Snowdepth":"15.000","Units":"in","Rept_Date":"2021-02-02 12"},"coordinates":[6063,4290]},{"type":"Point","properties":{"Station_ID":"LVRM1","Station_Nam":"LIVERMORE FALLS 1 E","Latitude":"44.47160","Longitude":"-70.15940","Snowdepth":"15.000","Units":"in","Rept_Date":"2021-02-02 12"},"coordinates":[6355,5603]},{"type":"Point","properties":{"Station_ID":"INDN6","Station_Nam":"INDIAN LAKE","Latitude":"43.75500","Longitude":"-74.27560","Snowdepth":"15.000","Units":"in","Rept_Date":"2021-02-02 13"},"coordinates":[5389,5169]},{"type":"Point","properties":{"Station_ID":"IL-MCH-43","Station_Nam":"ALGONQUIN 0.7 N, IL","Latitude":"42.17392","Longitude":"-88.29930","Snowdepth":"15.000","Units":"in","Rept_Date":"2021-02-02 12"},"coordinates":[2098,4211]},{"type":"Point","properties":{"Station_ID":"IL-MCH-13","Station_Nam":"BULL VALLEY 2.5 WNW, IL","Latitude":"42.32455","Longitude":"-88.39460","Snowdepth":"15.000","Units":"in","Rept_Date":"2021-02-02 14"},"coordinates":[2076,4302]},{"type":"Point","properties":{"Station_ID":"IL-LK-9","Station_Nam":"LAKE VILLA 1.1 SSW, IL","Latitude":"42.40305","Longitude":"-88.09050","Snowdepth":"15.000","Units":"in","Rept_Date":"2021-02-02 12"},"coordinates":[2147,4350]},{"type":"Point","properties":{"Station_ID":"IL-JD-8","Station_Nam":"STOCKTON 3.4 NNE, IL","Latitude":"42.39960","Longitude":"-89.99020","Snowdepth":"15.000","Units":"in","Rept_Date":"2021-02-02 13"},"coordinates":[1701,4348]},{"type":"Point","properties":{"Station_ID":"HERM4","Station_Nam":"HERMAN,MI","Latitude":"46.65000","Longitude":"-88.33330","Snowdepth":"15.000","Units":"in","Rept_Date":"2021-02-02 13"},"coordinates":[2090,6923]},{"type":"Point","properties":{"Station_ID":"HBGP1","Station_Nam":"HAMBURG","Latitude":"40.55150","Longitude":"-75.99100","Snowdepth":"15.000","Units":"in","Rept_Date":"2021-02-02 13"},"coordinates":[4987,3228]},{"type":"Point","properties":{"Station_ID":"GTTI4","Station_Nam":"LOCK & DAM 10","Latitude":"42.78580","Longitude":"-91.09970","Snowdepth":"15.000","Units":"in","Rept_Date":"2021-02-02 14"},"coordinates":[1441,4582]},{"type":"Point","properties":{"Station_ID":"GREN3","Station_Nam":"GREENVILLE 1 NNE","Latitude":"42.78270","Longitude":"-71.79850","Snowdepth":"15.000","Units":"in","Rept_Date":"2021-02-02 12"},"coordinates":[5971,4580]},{"type":"Point","properties":{"Station_ID":"GNLM4","Station_Nam":"GREENLAND 6N","Latitude":"46.87360","Longitude":"-89.10060","Snowdepth":"15.000","Units":"in","Rept_Date":"2021-02-02 13"},"coordinates":[1910,7058]},{"type":"Point","properties":{"Station_ID":"ELYM5","Station_Nam":"ELY","Latitude":"47.90560","Longitude":"-91.82830","Snowdepth":"15.000","Units":"in","Rept_Date":"2021-02-02 15"},"coordinates":[1270,7684]},{"type":"Point","properties":{"Station_ID":"DELN6","Station_Nam":"DELHI 2 SE","Latitude":"42.25580","Longitude":"-74.91270","Snowdepth":"15.000","Units":"in","Rept_Date":"2021-02-02 13"},"coordinates":[5240,4260]},{"type":"Point","properties":{"Station_ID":"DARW3","Station_Nam":"DARLINGTON","Latitude":"42.67780","Longitude":"-90.11860","Snowdepth":"15.000","Units":"in","Rept_Date":"2021-02-02 13"},"coordinates":[1671,4516]},{"type":"Point","properties":{"Station_ID":"CT-HR-29","Station_Nam":"SIMSBURY CENTER 0.8 S, CT","Latitude":"41.87116","Longitude":"-72.81123","Snowdepth":"15.000","Units":"in","Rept_Date":"2021-02-02 13"},"coordinates":[5733,4027]},{"type":"Point","properties":{"Station_ID":"CAN-QC-51","Station_Nam":"BELOEIL 0.7 NW, CAN","Latitude":"45.58049","Longitude":"-73.21218","Snowdepth":"15.000","Units":"in","Rept_Date":"2021-02-02 12"},"coordinates":[5639,6275]},{"type":"Point","properties":{"Station_ID":"BNDM5","Station_Nam":"ELY 25E","Latitude":"47.97190","Longitude":"-91.44860","Snowdepth":"15.000","Units":"in","Rept_Date":"2021-02-02 13"},"coordinates":[1359,7724]},{"type":"Point","properties":{"Station_ID":"BEAW3","Station_Nam":"BEAVER DAM,WI","Latitude":"43.45000","Longitude":"-88.85000","Snowdepth":"15.000","Units":"in","Rept_Date":"2021-02-02 13"},"coordinates":[1969,4984]},{"type":"Point","properties":{"Station_ID":"AVLV1","Station_Nam":"AVERILL","Latitude":"45.00570","Longitude":"-71.69030","Snowdepth":"15.000","Units":"in","Rept_Date":"2021-02-02 13"},"coordinates":[5996,5927]},{"type":"Point","properties":{"Station_ID":"CAN-MB-368","Station_Nam":"WHITESHELL 1.3 NE, CAN","Latitude":"49.74405","Longitude":"-95.19123","Snowdepth":"14.900","Units":"in","Rept_Date":"2021-02-02 14"},"coordinates":[481,8798]},{"type":"Point","properties":{"Station_ID":"QCU","Station_Nam":"QCU","Latitude":"47.82750","Longitude":"-76.59830","Snowdepth":"14.685","Units":"in","Rept_Date":"2021-02-02 12"},"coordinates":[4844,7636]},{"type":"Point","properties":{"Station_ID":"WI-OZ-12","Station_Nam":"PORT WASHINGTON 0.5 S, WI","Latitude":"43.38610","Longitude":"-87.87900","Snowdepth":"14.500","Units":"in","Rept_Date":"2021-02-02 13"},"coordinates":[2197,4945]},{"type":"Point","properties":{"Station_ID":"WI-MW-18","Station_Nam":"WEST ALLIS 0.7 SSE, WI","Latitude":"42.99802","Longitude":"-88.02380","Snowdepth":"14.500","Units":"in","Rept_Date":"2021-02-02 14"},"coordinates":[2163,4710]},{"type":"Point","properties":{"Station_ID":"WI-DA-99","Station_Nam":"FITCHBURG 1.1 NW, WI","Latitude":"42.99740","Longitude":"-89.44046","Snowdepth":"14.500","Units":"in","Rept_Date":"2021-02-02 13"},"coordinates":[1830,4710]},{"type":"Point","properties":{"Station_ID":"PA-SS-16","Station_Nam":"NEW MILFORD 1.6 SSE, PA","Latitude":"41.85540","Longitude":"-75.71110","Snowdepth":"14.500","Units":"in","Rept_Date":"2021-02-02 14"},"coordinates":[5052,4018]},{"type":"Point","properties":{"Station_ID":"NY-OT-29","Station_Nam":"NEW BERLIN 1.5 NE, NY","Latitude":"42.63689","Longitude":"-75.31090","Snowdepth":"14.500","Units":"in","Rept_Date":"2021-02-02 13"},"coordinates":[5146,4491]},{"type":"Point","properties":{"Station_ID":"NY-MG-5","Station_Nam":"AMSTERDAM 1.0 NNW, NY","Latitude":"42.95467","Longitude":"-74.20085","Snowdepth":"14.500","Units":"in","Rept_Date":"2021-02-02 14"},"coordinates":[5407,4684]},{"type":"Point","properties":{"Station_ID":"NJ-MD-62","Station_Nam":"OLD BRIDGE TWP 5.1 NE, NJ","Latitude":"40.45623","Longitude":"-74.24130","Snowdepth":"14.500","Units":"in","Rept_Date":"2021-02-02 12"},"coordinates":[5397,3170]},{"type":"Point","properties":{"Station_ID":"NJ-MD-43","Station_Nam":"WOODBRIDGE TWP 1.1 ESE, NJ","Latitude":"40.55540","Longitude":"-74.27400","Snowdepth":"14.500","Units":"in","Rept_Date":"2021-02-02 12"},"coordinates":[5390,3230]},{"type":"Point","properties":{"Station_ID":"ME-SM-4","Station_Nam":"SOLON 3.9 ESE, ME","Latitude":"44.94705","Longitude":"-69.77790","Snowdepth":"14.500","Units":"in","Rept_Date":"2021-02-02 12"},"coordinates":[6445,5891]},{"type":"Point","properties":{"Station_ID":"MA-WR-8","Station_Nam":"FITCHBURG 1.6 SSW, MA","Latitude":"42.56674","Longitude":"-71.82170","Snowdepth":"14.500","Units":"in","Rept_Date":"2021-02-02 11"},"coordinates":[5965,4449]},{"type":"Point","properties":{"Station_ID":"MA-MD-96","Station_Nam":"LEXINGTON 0.3 NE, MA","Latitude":"42.44944","Longitude":"-71.22791","Snowdepth":"14.500","Units":"in","Rept_Date":"2021-02-02 12"},"coordinates":[6105,4378]},{"type":"Point","properties":{"Station_ID":"MA-BE-3","Station_Nam":"STOCKBRIDGE .2 NNE, MA","Latitude":"42.28983","Longitude":"-73.31950","Snowdepth":"14.500","Units":"in","Rept_Date":"2021-02-02 11"},"coordinates":[5614,4281]},{"type":"Point","properties":{"Station_ID":"MA-BE-20","Station_Nam":"LEE 3.7 SE, MA","Latitude":"42.27242","Longitude":"-73.19763","Snowdepth":"14.500","Units":"in","Rept_Date":"2021-02-02 12"},"coordinates":[5642,4270]},{"type":"Point","properties":{"Station_ID":"IL-CK-75","Station_Nam":"ELK GROVE VILLAGE 2.2 WSW, IL","Latitude":"41.99526","Longitude":"-88.05270","Snowdepth":"14.500","Units":"in","Rept_Date":"2021-02-02 12"},"coordinates":[2156,4103]},{"type":"Point","properties":{"Station_ID":"CT-NH-43","Station_Nam":"WALLINGFORD CENTER 3.3 NNW, CT","Latitude":"41.49109","Longitude":"-72.85065","Snowdepth":"14.500","Units":"in","Rept_Date":"2021-02-02 12"},"coordinates":[5724,3797]},{"type":"Point","properties":{"Station_ID":"CT-HR-8","Station_Nam":"NORTH GRANBY 1.3 ENE, CT","Latitude":"42.02440","Longitude":"-72.82070","Snowdepth":"14.500","Units":"in","Rept_Date":"2021-02-02 12"},"coordinates":[5731,4120]},{"type":"Point","properties":{"Station_ID":"MA-MD-80","Station_Nam":"LINCOLN 1.5 SW, MA","Latitude":"42.40398","Longitude":"-71.32421","Snowdepth":"14.400","Units":"in","Rept_Date":"2021-02-02 12"},"coordinates":[6082,4350]},{"type":"Point","properties":{"Station_ID":"NY-UL-22","Station_Nam":"KINGSTON 2.1 N, NY","Latitude":"41.96103","Longitude":"-73.99576","Snowdepth":"14.200","Units":"in","Rept_Date":"2021-02-02 12"},"coordinates":[5455,4082]},{"type":"Point","properties":{"Station_ID":"CT-NH-68","Station_Nam":"CHESHIRE 1.5 ENE, CT","Latitude":"41.51842","Longitude":"-72.88412","Snowdepth":"14.200","Units":"in","Rept_Date":"2021-02-02 13"},"coordinates":[5716,3814]},{"type":"Point","properties":{"Station_ID":"QMD","Station_Nam":"QMD","Latitude":"49.29060","Longitude":"-75.84500","Snowdepth":"14.173","Units":"in","Rept_Date":"2021-02-02 12"},"coordinates":[5021,8523]},{"type":"Point","properties":{"Station_ID":"WV-PR-11","Station_Nam":"THOMAS 7.4 N, WV","Latitude":"39.25361","Longitude":"-79.51055","Snowdepth":"14.000","Units":"in","Rept_Date":"2021-02-02 12"},"coordinates":[4161,2441]},{"type":"Point","properties":{"Station_ID":"WSFW3","Station_Nam":"TOWN OF WESTFORD","Latitude":"43.47190","Longitude":"-88.88250","Snowdepth":"14.000","Units":"in","Rept_Date":"2021-02-02 13"},"coordinates":[1961,4997]},{"type":"Point","properties":{"Station_ID":"WI-WW-2","Station_Nam":"LAKE GENEVA 0.6 ENE, WI","Latitude":"42.59169","Longitude":"-88.41770","Snowdepth":"14.000","Units":"in","Rept_Date":"2021-02-02 13"},"coordinates":[2070,4464]},{"type":"Point","properties":{"Station_ID":"WI-KN-18","Station_Nam":"TWIN LAKES 1.5 NE, WI","Latitude":"42.53541","Longitude":"-88.23863","Snowdepth":"14.000","Units":"in","Rept_Date":"2021-02-02 13"},"coordinates":[2112,4430]},{"type":"Point","properties":{"Station_ID":"WI-DD-16","Station_Nam":"BEAVER DAM 2.4 WNW, WI","Latitude":"43.47210","Longitude":"-88.88280","Snowdepth":"14.000","Units":"in","Rept_Date":"2021-02-02 13"},"coordinates":[1961,4997]},{"type":"Point","properties":{"Station_ID":"WI-BY-29","Station_Nam":"BAYFIELD 5.1 NNW, WI","Latitude":"46.88063","Longitude":"-90.85854","Snowdepth":"14.000","Units":"in","Rept_Date":"2021-02-02 13"},"coordinates":[1497,7063]},{"type":"Point","properties":{"Station_ID":"VT-OL-9","Station_Nam":"GREENSBORO 2.1 NNW, VT","Latitude":"44.60528","Longitude":"-72.30940","Snowdepth":"14.000","Units":"in","Rept_Date":"2021-02-02 12"},"coordinates":[5851,5684]},{"type":"Point","properties":{"Station_ID":"VT-OL-2","Station_Nam":"BARTON 3.0 ENE, VT","Latitude":"44.75863","Longitude":"-72.11680","Snowdepth":"14.000","Units":"in","Rept_Date":"2021-02-02 12"},"coordinates":[5896,5777]},{"type":"Point","properties":{"Station_ID":"VT-ES-3","Station_Nam":"LUNENBURG 2.3 NNW, VT","Latitude":"44.49324","Longitude":"-71.70446","Snowdepth":"14.000","Units":"in","Rept_Date":"2021-02-02 12"},"coordinates":[5993,5616]},{"type":"Point","properties":{"Station_ID":"VT-CH-7","Station_Nam":"HUNTINGTON 1.1 E, VT","Latitude":"44.32488","Longitude":"-72.96570","Snowdepth":"14.000","Units":"in","Rept_Date":"2021-02-02 12"},"coordinates":[5697,5514]},{"type":"Point","properties":{"Station_ID":"VT-CH-13","Station_Nam":"RICHMOND 3.4 SSE, VT","Latitude":"44.36084","Longitude":"-72.96400","Snowdepth":"14.000","Units":"in","Rept_Date":"2021-02-02 12"},"coordinates":[5697,5536]},{"type":"Point","properties":{"Station_ID":"TOPN6","Station_Nam":"TUPPER LAKE SUNMOUNT","Latitude":"44.23070","Longitude":"-74.43820","Snowdepth":"14.000","Units":"in","Rept_Date":"2021-02-02 12"},"coordinates":[5351,5457]},{"type":"Point","properties":{"Station_ID":"TMWN3","Station_Nam":"TAMWORTH 4","Latitude":"43.86390","Longitude":"-71.26610","Snowdepth":"14.000","Units":"in","Rept_Date":"2021-02-02 12"},"coordinates":[6096,5235]},{"type":"Point","properties":{"Station_ID":"TLLM3","Station_Nam":"TULLY LAKE","Latitude":"42.63940","Longitude":"-72.22440","Snowdepth":"14.000","Units":"in","Rept_Date":"2021-02-02 12"},"coordinates":[5871,4493]},{"type":"Point","properties":{"Station_ID":"SNYI4","Station_Nam":"STANLEY","Latitude":"42.63330","Longitude":"-91.86320","Snowdepth":"14.000","Units":"in","Rept_Date":"2021-02-02 13"},"coordinates":[1262,4489]},{"type":"Point","properties":{"Station_ID":"SNOW2","Station_Nam":"SNOWSHOE","Latitude":"38.39900","Longitude":"-79.99490","Snowdepth":"14.000","Units":"in","Rept_Date":"2021-02-02 11"},"coordinates":[4047,1924]},{"type":"Point","properties":{"Station_ID":"ROCW3","Station_Nam":"ROCHESTER WWTP","Latitude":"42.72690","Longitude":"-88.22580","Snowdepth":"14.000","Units":"in","Rept_Date":"2021-02-02 11"},"coordinates":[2115,4546]},{"type":"Point","properties":{"Station_ID":"RGNM1","Station_Nam":"RANGELEY 2NW","Latitude":"44.98940","Longitude":"-70.67220","Snowdepth":"14.000","Units":"in","Rept_Date":"2021-02-02 11"},"coordinates":[6235,5917]},{"type":"Point","properties":{"Station_ID":"PLBP1","Station_Nam":"PHILIPSBURG,PA","Latitude":"40.87220","Longitude":"-78.21530","Snowdepth":"14.000","Units":"in","Rept_Date":"2021-02-02 12"},"coordinates":[4465,3422]},{"type":"Point","properties":{"Station_ID":"PGSP1","Station_Nam":"PINE GROVE","Latitude":"40.53220","Longitude":"-76.40660","Snowdepth":"14.000","Units":"in","Rept_Date":"2021-02-02 12"},"coordinates":[4889,3216]},{"type":"Point","properties":{"Station_ID":"PA-SC-8","Station_Nam":"VALLEY VIEW 0.5 W, PA","Latitude":"40.64369","Longitude":"-76.54847","Snowdepth":"14.000","Units":"in","Rept_Date":"2021-02-02 11"},"coordinates":[4856,3284]},{"type":"Point","properties":{"Station_ID":"PA-NM-3","Station_Nam":"MUNCY 4.7 SSE, PA","Latitude":"41.13610","Longitude":"-76.76508","Snowdepth":"14.000","Units":"in","Rept_Date":"2021-02-02 12"},"coordinates":[4805,3582]},{"type":"Point","properties":{"Station_ID":"PA-DP-14","Station_Nam":"MIDDLETOWN 2.9 NW, PA","Latitude":"40.23486","Longitude":"-76.76170","Snowdepth":"14.000","Units":"in","Rept_Date":"2021-02-02 13"},"coordinates":[4806,3036]},{"type":"Point","properties":{"Station_ID":"OAKN6","Station_Nam":"SHRUB OAK","Latitude":"41.33290","Longitude":"-73.83700","Snowdepth":"14.000","Units":"in","Rept_Date":"2021-02-02 11"},"coordinates":[5492,3701]},{"type":"Point","properties":{"Station_ID":"NYC","Station_Nam":"CENTRAL PARK","Latitude":"40.76670","Longitude":"-73.98330","Snowdepth":"14.000","Units":"in","Rept_Date":"2021-02-02 12"},"coordinates":[5458,3358]},{"type":"Point","properties":{"Station_ID":"NY-WC-20","Station_Nam":"SHRUB OAK 0.6 WNW, NY","Latitude":"41.33236","Longitude":"-73.83701","Snowdepth":"14.000","Units":"in","Rept_Date":"2021-02-02 11"},"coordinates":[5492,3701]},{"type":"Point","properties":{"Station_ID":"NY-UL-23","Station_Nam":"WEST HURLEY 0.1 S, NY","Latitude":"42.00455","Longitude":"-74.11094","Snowdepth":"14.000","Units":"in","Rept_Date":"2021-02-02 12"},"coordinates":[5428,4108]},{"type":"Point","properties":{"Station_ID":"NY-TM-4","Station_Nam":"GROTON 0.5 NW, NY","Latitude":"42.59127","Longitude":"-76.37200","Snowdepth":"14.000","Units":"in","Rept_Date":"2021-02-02 12"},"coordinates":[4897,4464]},{"type":"Point","properties":{"Station_ID":"NY-SL-6","Station_Nam":"HANNAWA FALLS 0.1 SW, NY","Latitude":"44.61154","Longitude":"-74.97190","Snowdepth":"14.000","Units":"in","Rept_Date":"2021-02-02 12"},"coordinates":[5226,5688]},{"type":"Point","properties":{"Station_ID":"NY-SF-73","Station_Nam":"BRIGHTWATERS 0.7 NNW, NY","Latitude":"40.72597","Longitude":"-73.27275","Snowdepth":"14.000","Units":"in","Rept_Date":"2021-02-02 12"},"coordinates":[5625,3333]},{"type":"Point","properties":{"Station_ID":"NY-ER-63","Station_Nam":"GLENWOOD 1.5 SE, NY","Latitude":"42.60195","Longitude":"-78.63910","Snowdepth":"14.000","Units":"in","Rept_Date":"2021-02-02 13"},"coordinates":[4365,4470]},{"type":"Point","properties":{"Station_ID":"NY-CB-8","Station_Nam":"LIVINGSTON 0.7 SSW, NY","Latitude":"42.13308","Longitude":"-73.78540","Snowdepth":"14.000","Units":"in","Rept_Date":"2021-02-02 12"},"coordinates":[5504,4186]},{"type":"Point","properties":{"Station_ID":"NWSM1","Station_Nam":"NEW SHARON","Latitude":"44.63520","Longitude":"-70.00020","Snowdepth":"14.000","Units":"in","Rept_Date":"2021-02-02 12"},"coordinates":[6393,5702]},{"type":"Point","properties":{"Station_ID":"NVLN6","Station_Nam":"NORTHVILLE","Latitude":"43.23330","Longitude":"-74.16670","Snowdepth":"14.000","Units":"in","Rept_Date":"2021-02-02 13"},"coordinates":[5415,4853]},{"type":"Point","properties":{"Station_ID":"NJ-SM-65","Station_Nam":"HILLSBOROUGH TWP 3.5 SE, NJ","Latitude":"40.46772","Longitude":"-74.62178","Snowdepth":"14.000","Units":"in","Rept_Date":"2021-02-02 13"},"coordinates":[5308,3177]},{"type":"Point","properties":{"Station_ID":"NJ-HN-9","Station_Nam":"FRANKLIN TWP 0.4 W, NJ","Latitude":"40.56633","Longitude":"-74.94430","Snowdepth":"14.000","Units":"in","Rept_Date":"2021-02-02 12"},"coordinates":[5232,3237]},{"type":"Point","properties":{"Station_ID":"NJ-HN-31","Station_Nam":"FRENCHTOWN 0.5 N, NJ","Latitude":"40.53420","Longitude":"-75.05590","Snowdepth":"14.000","Units":"in","Rept_Date":"2021-02-02 12"},"coordinates":[5206,3217]},{"type":"Point","properties":{"Station_ID":"NH-CR-27","Station_Nam":"TAMWORTH 0.4 NNW, NH","Latitude":"43.86449","Longitude":"-71.26610","Snowdepth":"14.000","Units":"in","Rept_Date":"2021-02-02 12"},"coordinates":[6096,5235]},{"type":"Point","properties":{"Station_ID":"NBRN4","Station_Nam":"NEW BRUNSWICK 3 SE","Latitude":"40.47280","Longitude":"-74.42260","Snowdepth":"14.000","Units":"in","Rept_Date":"2021-02-02 13"},"coordinates":[5355,3180]},{"type":"Point","properties":{"Station_ID":"MQT","Station_Nam":"MARQUETTE, MI","Latitude":"46.53140","Longitude":"-87.54920","Snowdepth":"14.000","Units":"in","Rept_Date":"2021-02-03 06"},"coordinates":[2274,6851]},{"type":"Point","properties":{"Station_ID":"MKE","Station_Nam":"GEN MITCHELL INTL AIRPORT","Latitude":"42.94720","Longitude":"-87.89670","Snowdepth":"14.000","Units":"in","Rept_Date":"2021-02-03 00"},"coordinates":[2192,4679]},{"type":"Point","properties":{"Station_ID":"MILM3","Station_Nam":"MILFORD","Latitude":"42.16330","Longitude":"-71.51190","Snowdepth":"14.000","Units":"in","Rept_Date":"2021-02-02 12"},"coordinates":[6038,4204]},{"type":"Point","properties":{"Station_ID":"MI-BG-3","Station_Nam":"THREE LAKES, MI","Latitude":"46.55730","Longitude":"-88.20770","Snowdepth":"14.000","Units":"in","Rept_Date":"2021-02-02 13"},"coordinates":[2119,6867]},{"type":"Point","properties":{"Station_ID":"MHRI4","Station_Nam":"MANCHESTER #2","Latitude":"42.47320","Longitude":"-91.45160","Snowdepth":"14.000","Units":"in","Rept_Date":"2021-02-02 13"},"coordinates":[1358,4392]},{"type":"Point","properties":{"Station_ID":"ME-FR-4","Station_Nam":"NEW SHARON 2.0 NW, ME","Latitude":"44.66582","Longitude":"-70.02720","Snowdepth":"14.000","Units":"in","Rept_Date":"2021-02-02 12"},"coordinates":[6386,5721]},{"type":"Point","properties":{"Station_ID":"MA-WR-58","Station_Nam":"LUNENBURG 0.6 NE, MA","Latitude":"42.60180","Longitude":"-71.71653","Snowdepth":"14.000","Units":"in","Rept_Date":"2021-02-02 13"},"coordinates":[5990,4470]},{"type":"Point","properties":{"Station_ID":"MA-MD-105","Station_Nam":"LITTLETON 0.9 WSW, MA","Latitude":"42.53090","Longitude":"-71.48830","Snowdepth":"14.000","Units":"in","Rept_Date":"2021-02-02 12"},"coordinates":[6043,4427]},{"type":"Point","properties":{"Station_ID":"LOWN6","Station_Nam":"LOWVILLE","Latitude":"43.79280","Longitude":"-75.48290","Snowdepth":"14.000","Units":"in","Rept_Date":"2021-02-02 12"},"coordinates":[5106,5192]},{"type":"Point","properties":{"Station_ID":"LGEW3","Station_Nam":"LAKE GENEVA, WI","Latitude":"42.60000","Longitude":"-88.43440","Snowdepth":"14.000","Units":"in","Rept_Date":"2021-02-02 13"},"coordinates":[2066,4469]},{"type":"Point","properties":{"Station_ID":"LEIM5","Station_Nam":"ORR 3E","Latitude":"48.05810","Longitude":"-92.75220","Snowdepth":"14.000","Units":"in","Rept_Date":"2021-02-02 12"},"coordinates":[1053,7776]},