{"type":"Topology","objects":{"snowdepth_geo":{"type":"GeometryCollection","name":"snowdepth","crs":{"type":"name","properties":{"name":"urn:ogc:def:crs:OGC:1.3:CRS84"}},"geometries":[{"type":"Point","properties":{"Station_ID":"MMSV1","Station_Nam":"MOUNT MANSFIELD","Latitude":"44.53330","Longitude":"-72.83330","Snowdepth":"81.000","Units":"in","Rept_Date":"2020-01-15 05"},"coordinates":[5728,4315]},{"type":"Point","properties":{"Station_ID":"PRKM4","Station_Nam":"MUNISING EAST","Latitude":"46.42580","Longitude":"-86.62000","Snowdepth":"76.500","Units":"in","Rept_Date":"2020-01-15 06"},"coordinates":[2492,5810]},{"type":"Point","properties":{"Station_ID":"OGIQ6","Station_Nam":"OGOKI CAMP","Latitude":"50.76680","Longitude":"-87.85820","Snowdepth":"61.100","Units":"in","Rept_Date":"2020-01-15 06"},"coordinates":[2202,9240]},{"type":"Point","properties":{"Station_ID":"AUDQ6","Station_Nam":"AUDEN","Latitude":"48.52600","Longitude":"-82.57570","Snowdepth":"47.640","Units":"in","Rept_Date":"2020-01-15 06"},"coordinates":[3441,7470]},{"type":"Point","properties":{"Station_ID":"DVLQ6","Station_Nam":"DEVIOUS LAKE","Latitude":"49.19890","Longitude":"-87.76440","Snowdepth":"43.460","Units":"in","Rept_Date":"2020-01-15 06"},"coordinates":[2224,8001]},{"type":"Point","properties":{"Station_ID":"PDLM4","Station_Nam":"PAINESDALE","Latitude":"47.04160","Longitude":"-88.67170","Snowdepth":"41.000","Units":"in","Rept_Date":"2020-01-14 13"},"coordinates":[2011,6297]},{"type":"Point","properties":{"Station_ID":"WLFM5","Station_Nam":"WOLF RIDGE ENVIRON LEARNING CENTER","Latitude":"47.38240","Longitude":"-91.19730","Snowdepth":"36.000","Units":"in","Rept_Date":"2020-01-14 13"},"coordinates":[1418,6566]},{"type":"Point","properties":{"Station_ID":"KSGM4","Station_Nam":"KEARSARGE","Latitude":"47.27520","Longitude":"-88.41700","Snowdepth":"32.000","Units":"in","Rept_Date":"2020-01-14 13"},"coordinates":[2070,6481]},{"type":"Point","properties":{"Station_ID":"QGO","Station_Nam":"QGO","Latitude":"48.85500","Longitude":"-74.20640","Snowdepth":"31.653","Units":"in","Rept_Date":"2020-01-14 12"},"coordinates":[5405,7730]},{"type":"Point","properties":{"Station_ID":"QWE","Station_Nam":"QWE","Latitude":"47.84610","Longitude":"-73.80670","Snowdepth":"31.614","Units":"in","Rept_Date":"2020-01-14 12"},"coordinates":[5499,6932]},{"type":"Point","properties":{"Station_ID":"QOU","Station_Nam":"QOU","Latitude":"50.79250","Longitude":"-69.67470","Snowdepth":"31.535","Units":"in","Rept_Date":"2020-01-14 12"},"coordinates":[6469,9261]},{"type":"Point","properties":{"Station_ID":"HTLN3","Station_Nam":"HERMIT LAKE SNOWPLOT","Latitude":"44.26130","Longitude":"-71.28330","Snowdepth":"31.000","Units":"in","Rept_Date":"2020-01-14 10"},"coordinates":[6092,4100]},{"type":"Point","properties":{"Station_ID":"MLZ","Station_Nam":"MLZ","Latitude":"50.66170","Longitude":"-68.82360","Snowdepth":"30.157","Units":"in","Rept_Date":"2020-01-14 12"},"coordinates":[6669,9157]},{"type":"Point","properties":{"Station_ID":"QCU","Station_Nam":"QCU","Latitude":"47.82750","Longitude":"-76.59830","Snowdepth":"29.764","Units":"in","Rept_Date":"2020-01-14 12"},"coordinates":[4844,6918]},{"type":"Point","properties":{"Station_ID":"CAN-NL-81","Station_Nam":"GRAND FALLS-WINDSOR 1.2 S, CAN","Latitude":"48.93123","Longitude":"-55.65333","Snowdepth":"29.100","Units":"in","Rept_Date":"2020-01-14 10"},"coordinates":[9760,7790]},{"type":"Point","properties":{"Station_ID":"QGD","Station_Nam":"QGD","Latitude":"51.11140","Longitude":"-67.13940","Snowdepth":"28.976","Units":"in","Rept_Date":"2020-01-14 12"},"coordinates":[7064,9513]},{"type":"Point","properties":{"Station_ID":"QNCM4","Station_Nam":"QUINCY HILL","Latitude":"47.13640","Longitude":"-88.57950","Snowdepth":"28.000","Units":"in","Rept_Date":"2020-01-14 12"},"coordinates":[2032,6372]},{"type":"Point","properties":{"Station_ID":"MQT","Station_Nam":"MARQUETTE, MI","Latitude":"46.53140","Longitude":"-87.54920","Snowdepth":"27.000","Units":"in","Rept_Date":"2020-01-15 06"},"coordinates":[2274,5893]},{"type":"Point","properties":{"Station_ID":"MI-BG-3","Station_Nam":"L'ANSE 17.8 SE, MI","Latitude":"46.55730","Longitude":"-88.20770","Snowdepth":"26.000","Units":"in","Rept_Date":"2020-01-14 13"},"coordinates":[2119,5914]},{"type":"Point","properties":{"Station_ID":"PTLQ6","Station_Nam":"PORTAGE LAKE","Latitude":"49.06950","Longitude":"-86.65940","Snowdepth":"25.550","Units":"in","Rept_Date":"2020-01-15 06"},"coordinates":[2483,7899]},{"type":"Point","properties":{"Station_ID":"NY-JF-30","Station_Nam":"WEST CARTHAGE 0.3 ENE, NY","Latitude":"43.97493","Longitude":"-75.61640","Snowdepth":"25.500","Units":"in","Rept_Date":"2020-01-14 12"},"coordinates":[5075,3873]},{"type":"Point","properties":{"Station_ID":"MN-SL-15","Station_Nam":"CHISHOLM 0.4 WSW, MN","Latitude":"47.48557","Longitude":"-92.88690","Snowdepth":"25.000","Units":"in","Rept_Date":"2020-01-14 13"},"coordinates":[1021,6647]},{"type":"Point","properties":{"Station_ID":"ILIM5","Station_Nam":"ISLAND LAKE","Latitude":"47.02400","Longitude":"-92.07000","Snowdepth":"25.000","Units":"in","Rept_Date":"2020-01-14 15"},"coordinates":[1213,6283]},{"type":"Point","properties":{"Station_ID":"BERM4","Station_Nam":"BERGLAND DAM","Latitude":"46.58690","Longitude":"-89.54750","Snowdepth":"25.000","Units":"in","Rept_Date":"2020-01-14 13"},"coordinates":[1805,5937]},{"type":"Point","properties":{"Station_ID":"QLB","Station_Nam":"QLB","Latitude":"50.72360","Longitude":"-75.10000","Snowdepth":"24.921","Units":"in","Rept_Date":"2020-01-14 12"},"coordinates":[5196,9206]},{"type":"Point","properties":{"Station_ID":"QTV","Station_Nam":"QTV","Latitude":"49.66000","Longitude":"-69.35690","Snowdepth":"24.055","Units":"in","Rept_Date":"2020-01-14 12"},"coordinates":[6544,8366]},{"type":"Point","properties":{"Station_ID":"UPSW3","Station_Nam":"UPSON,WI","Latitude":"46.36780","Longitude":"-90.41220","Snowdepth":"24.000","Units":"in","Rept_Date":"2020-01-15 00"},"coordinates":[1602,5764]},{"type":"Point","properties":{"Station_ID":"TOGM5","Station_Nam":"CELINA 2E","Latitude":"47.86630","Longitude":"-93.02660","Snowdepth":"24.000","Units":"in","Rept_Date":"2020-01-14 14"},"coordinates":[989,6948]},{"type":"Point","properties":{"Station_ID":"MN-SL-105","Station_Nam":"DULUTH 11.8 NNE, MN","Latitude":"46.94680","Longitude":"-92.03925","Snowdepth":"24.000","Units":"in","Rept_Date":"2020-01-14 13"},"coordinates":[1220,6222]},{"type":"Point","properties":{"Station_ID":"HURW3","Station_Nam":"HURLEY","Latitude":"46.46250","Longitude":"-90.19550","Snowdepth":"24.000","Units":"in","Rept_Date":"2020-01-14 14"},"coordinates":[1653,5839]},{"type":"Point","properties":{"Station_ID":"BABM5","Station_Nam":"BABBITT","Latitude":"47.71210","Longitude":"-91.95330","Snowdepth":"24.000","Units":"in","Rept_Date":"2020-01-14 13"},"coordinates":[1240,6826]},{"type":"Point","properties":{"Station_ID":"QYR","Station_Nam":"QYR","Latitude":"48.87220","Longitude":"-75.61470","Snowdepth":"23.937","Units":"in","Rept_Date":"2020-01-14 12"},"coordinates":[5075,7743]},{"type":"Point","properties":{"Station_ID":"TRIQ6","Station_Nam":"TRIO LAKE","Latitude":"49.22880","Longitude":"-87.22920","Snowdepth":"23.740","Units":"in","Rept_Date":"2020-01-15 06"},"coordinates":[2349,8025]},{"type":"Point","properties":{"Station_ID":"QCX","Station_Nam":"QCX","Latitude":"51.32830","Longitude":"-70.08060","Snowdepth":"23.268","Units":"in","Rept_Date":"2020-01-14 12"},"coordinates":[6374,9684]},{"type":"Point","properties":{"Station_ID":"WRSM5","Station_Nam":"WRENSHALL","Latitude":"46.61550","Longitude":"-92.38380","Snowdepth":"23.000","Units":"in","Rept_Date":"2020-01-14 14"},"coordinates":[1139,5960]},{"type":"Point","properties":{"Station_ID":"WI-IR-3","Station_Nam":"PENCE 0.1 E, WI","Latitude":"46.41555","Longitude":"-90.27013","Snowdepth":"23.000","Units":"in","Rept_Date":"2020-01-14 13"},"coordinates":[1635,5802]},{"type":"Point","properties":{"Station_ID":"MNSM4","Station_Nam":"MUNISING","Latitude":"46.41210","Longitude":"-86.66250","Snowdepth":"23.000","Units":"in","Rept_Date":"2020-01-14 11"},"coordinates":[2482,5799]},{"type":"Point","properties":{"Station_ID":"MN-IT-23","Station_Nam":"BOVEY 13.4 N, MN","Latitude":"47.48855","Longitude":"-93.43497","Snowdepth":"23.000","Units":"in","Rept_Date":"2020-01-14 13"},"coordinates":[893,6650]},{"type":"Point","properties":{"Station_ID":"ME-AR-23","Station_Nam":"MADAWASKA 2.5 E, ME","Latitude":"47.34933","Longitude":"-68.28141","Snowdepth":"23.000","Units":"in","Rept_Date":"2020-01-14 12"},"coordinates":[6796,6540]},{"type":"Point","properties":{"Station_ID":"IWOM4","Station_Nam":"IRONWOOD#2","Latitude":"46.46520","Longitude":"-90.13820","Snowdepth":"23.000","Units":"in","Rept_Date":"2020-01-14 13"},"coordinates":[1666,5841]},{"type":"Point","properties":{"Station_ID":"CSLM5","Station_Nam":"CASS LAKE,MN","Latitude":"47.38470","Longitude":"-94.61470","Snowdepth":"23.000","Units":"in","Rept_Date":"2020-01-14 14"},"coordinates":[616,6568]},{"type":"Point","properties":{"Station_ID":"CLQM5","Station_Nam":"CLOQUET","Latitude":"46.70470","Longitude":"-92.52530","Snowdepth":"23.000","Units":"in","Rept_Date":"2020-01-14 14"},"coordinates":[1106,6030]},{"type":"Point","properties":{"Station_ID":"BNDM5","Station_Nam":"ELY 25E","Latitude":"47.97190","Longitude":"-91.44860","Snowdepth":"23.000","Units":"in","Rept_Date":"2020-01-14 13"},"coordinates":[1359,7032]},{"type":"Point","properties":{"Station_ID":"SVBQ6","Station_Nam":"SAVANT BASE","Latitude":"50.28730","Longitude":"-90.65670","Snowdepth":"22.990","Units":"in","Rept_Date":"2020-01-15 06"},"coordinates":[1545,8861]},{"type":"Point","properties":{"Station_ID":"KABQ6","Station_Nam":"CAB LAKE","Latitude":"49.59950","Longitude":"-89.17990","Snowdepth":"22.950","Units":"in","Rept_Date":"2020-01-15 06"},"coordinates":[1891,8318]},{"type":"Point","properties":{"Station_ID":"WI-VL-10","Station_Nam":"LAND O LAKES 4.3 WNW, WI","Latitude":"46.17440","Longitude":"-89.30380","Snowdepth":"22.500","Units":"in","Rept_Date":"2020-01-14 13"},"coordinates":[1862,5611]},{"type":"Point","properties":{"Station_ID":"WTRW3","Station_Nam":"WINTER","Latitude":"45.79920","Longitude":"-90.99470","Snowdepth":"22.000","Units":"in","Rept_Date":"2020-01-14 15"},"coordinates":[1465,5315]},{"type":"Point","properties":{"Station_ID":"WI-WB-2","Station_Nam":"STONE LAKE 2.0 NW, WI","Latitude":"45.85960","Longitude":"-91.57710","Snowdepth":"22.000","Units":"in","Rept_Date":"2020-01-14 13"},"coordinates":[1329,5363]},{"type":"Point","properties":{"Station_ID":"WI-VL-9","Station_Nam":"LAND O' LAKES 11.7 W, WI","Latitude":"46.19023","Longitude":"-89.45790","Snowdepth":"22.000","Units":"in","Rept_Date":"2020-01-14 13"},"coordinates":[1826,5624]},{"type":"Point","properties":{"Station_ID":"PDGM4","Station_Nam":"PAULDING","Latitude":"46.39760","Longitude":"-89.17940","Snowdepth":"22.000","Units":"in","Rept_Date":"2020-01-14 14"},"coordinates":[1891,5788]},{"type":"Point","properties":{"Station_ID":"MI-MQ-19","Station_Nam":"ISHPEMING 7.2 SW, MI","Latitude":"46.40550","Longitude":"-87.75670","Snowdepth":"22.000","Units":"in","Rept_Date":"2020-01-14 11"},"coordinates":[2225,5794]},{"type":"Point","properties":{"Station_ID":"LNOW3","Station_Nam":"LAND O LAKES","Latitude":"46.19000","Longitude":"-89.45700","Snowdepth":"22.000","Units":"in","Rept_Date":"2020-01-14 13"},"coordinates":[1826,5624]},{"type":"Point","properties":{"Station_ID":"HVCN3","Station_Nam":"HARVARD CABIN SNOWPLOT","Latitude":"44.26630","Longitude":"-71.27790","Snowdepth":"22.000","Units":"in","Rept_Date":"2020-01-14 10"},"coordinates":[6093,4104]},{"type":"Point","properties":{"Station_ID":"GNLM4","Station_Nam":"GREENLAND 6N","Latitude":"46.87360","Longitude":"-89.10060","Snowdepth":"22.000","Units":"in","Rept_Date":"2020-01-14 13"},"coordinates":[1910,6164]},{"type":"Point","properties":{"Station_ID":"DLHM5","Station_Nam":"DULUTH NWS","Latitude":"46.83680","Longitude":"-92.21080","Snowdepth":"22.000","Units":"in","Rept_Date":"2020-01-15 06"},"coordinates":[1180,6135]},{"type":"Point","properties":{"Station_ID":"DLH","Station_Nam":"DULUTH, MN","Latitude":"46.83690","Longitude":"-92.21030","Snowdepth":"22.000","Units":"in","Rept_Date":"2020-01-15 00"},"coordinates":[1180,6135]},{"type":"Point","properties":{"Station_ID":"CAN-NB-11","Station_Nam":"MIRAMICHI 3.3 S, CAN","Latitude":"46.99343","Longitude":"-65.50690","Snowdepth":"22.000","Units":"in","Rept_Date":"2020-01-14 11"},"coordinates":[7447,6259]},{"type":"Point","properties":{"Station_ID":"BBEM4","Station_Nam":"BIG BAY 9SW","Latitude":"46.74620","Longitude":"-87.88160","Snowdepth":"22.000","Units":"in","Rept_Date":"2020-01-14 13"},"coordinates":[2196,6063]},{"type":"Point","properties":{"Station_ID":"QFT","Station_Nam":"QFT","Latitude":"50.83280","Longitude":"-74.40390","Snowdepth":"21.732","Units":"in","Rept_Date":"2020-01-14 12"},"coordinates":[5359,9292]},{"type":"Point","properties":{"Station_ID":"CAN-NL-82","Station_Nam":"GANDER 2.7 NW, CAN","Latitude":"48.97737","Longitude":"-54.63396","Snowdepth":"21.700","Units":"in","Rept_Date":"2020-01-14 10"},"coordinates":[9999,7826]},{"type":"Point","properties":{"Station_ID":"MI-HG-6","Station_Nam":"CALUMET 5.8 ENE, MI","Latitude":"47.27200","Longitude":"-88.33400","Snowdepth":"21.500","Units":"in","Rept_Date":"2020-01-14 11"},"coordinates":[2090,6479]},{"type":"Point","properties":{"Station_ID":"STGW3","Station_Nam":"ST GERMAIN","Latitude":"45.91550","Longitude":"-89.48940","Snowdepth":"21.000","Units":"in","Rept_Date":"2020-01-14 12"},"coordinates":[1819,5407]},{"type":"Point","properties":{"Station_ID":"MN-SL-18","Station_Nam":"DULUTH 1.4 NNW, MN","Latitude":"46.80321","Longitude":"-92.11240","Snowdepth":"21.000","Units":"in","Rept_Date":"2020-01-14 14"},"coordinates":[1203,6108]},{"type":"Point","properties":{"Station_ID":"MN-IT-11","Station_Nam":"NASHWAUK 11.5 N, MN","Latitude":"47.54496","Longitude":"-93.19420","Snowdepth":"21.000","Units":"in","Rept_Date":"2020-01-14 12"},"coordinates":[949,6694]},{"type":"Point","properties":{"Station_ID":"MAIW3","Station_Nam":"MADELINE ISLAND","Latitude":"46.78330","Longitude":"-90.76670","Snowdepth":"21.000","Units":"in","Rept_Date":"2020-01-14 14"},"coordinates":[1519,6093]},{"type":"Point","properties":{"Station_ID":"KISM4","Station_Nam":"K.I. SAWYER WWTP","Latitude":"46.33410","Longitude":"-87.37790","Snowdepth":"21.000","Units":"in","Rept_Date":"2020-01-14 13"},"coordinates":[2314,5738]},{"type":"Point","properties":{"Station_ID":"KABM5","Station_Nam":"KABETOGAMA LAKE VISITOR CTR","Latitude":"48.40880","Longitude":"-93.04840","Snowdepth":"21.000","Units":"in","Rept_Date":"2020-01-14 13"},"coordinates":[983,7377]},{"type":"Point","properties":{"Station_ID":"HERM4","Station_Nam":"HERMAN,MI","Latitude":"46.65000","Longitude":"-88.33330","Snowdepth":"21.000","Units":"in","Rept_Date":"2020-01-14 13"},"coordinates":[2090,5987]},{"type":"Point","properties":{"Station_ID":"EVRW3","Station_Nam":"EAGLE RIVER-4 E","Latitude":"45.91890","Longitude":"-89.15280","Snowdepth":"21.000","Units":"in","Rept_Date":"2020-01-14 12"},"coordinates":[1898,5409]},{"type":"Point","properties":{"Station_ID":"QIQ","Station_Nam":"QIQ","Latitude":"49.82390","Longitude":"-68.54310","Snowdepth":"20.827","Units":"in","Rept_Date":"2020-01-14 12"},"coordinates":[6735,8495]},{"type":"Point","properties":{"Station_ID":"QMA","Station_Nam":"QMA","Latitude":"50.10330","Longitude":"-70.47190","Snowdepth":"20.787","Units":"in","Rept_Date":"2020-01-14 12"},"coordinates":[6282,8716]},{"type":"Point","properties":{"Station_ID":"MI-HG-1","Station_Nam":"HOUGHTON 1.6 ESE, MI","Latitude":"47.10774","Longitude":"-88.52940","Snowdepth":"20.500","Units":"in","Rept_Date":"2020-01-14 13"},"coordinates":[2044,6349]},{"type":"Point","properties":{"Station_ID":"WNBM5","Station_Nam":"DAM","Latitude":"47.43060","Longitude":"-94.05000","Snowdepth":"20.000","Units":"in","Rept_Date":"2020-01-14 14"},"coordinates":[748,6604]},{"type":"Point","properties":{"Station_ID":"WI-BY-14","Station_Nam":"ASHLAND 9.8 W, WI","Latitude":"46.59742","Longitude":"-91.07856","Snowdepth":"20.000","Units":"in","Rept_Date":"2020-01-14 12"},"coordinates":[1446,5946]},{"type":"Point","properties":{"Station_ID":"TOHM5","Station_Nam":"TWO HARBORS WWTP","Latitude":"47.01760","Longitude":"-91.66480","Snowdepth":"20.000","Units":"in","Rept_Date":"2020-01-14 13"},"coordinates":[1308,6278]},{"type":"Point","properties":{"Station_ID":"RHIW3","Station_Nam":"RHINELANDER","Latitude":"45.59860","Longitude":"-89.45080","Snowdepth":"20.000","Units":"in","Rept_Date":"2020-01-14 13"},"coordinates":[1828,5156]},{"type":"Point","properties":{"Station_ID":"MCLN8","Station_Nam":"MC LEOD,ND","Latitude":"46.40250","Longitude":"-97.23810","Snowdepth":"20.000","Units":"in","Rept_Date":"2020-01-14 14"},"coordinates":[0,5792]},{"type":"Point","properties":{"Station_ID":"ELYM5","Station_Nam":"ELY","Latitude":"47.90560","Longitude":"-91.82830","Snowdepth":"20.000","Units":"in","Rept_Date":"2020-01-14 14"},"coordinates":[1270,6979]},{"type":"Point","properties":{"Station_ID":"QGA","Station_Nam":"QGA","Latitude":"47.25640","Longitude":"-73.73810","Snowdepth":"19.842","Units":"in","Rept_Date":"2020-01-14 12"},"coordinates":[5515,6466]},{"type":"Point","properties":{"Station_ID":"QLP","Station_Nam":"QLP","Latitude":"48.13920","Longitude":"-72.63830","Snowdepth":"19.803","Units":"in","Rept_Date":"2020-01-14 12"},"coordinates":[5774,7164]},{"type":"Point","properties":{"Station_ID":"CAN-NB-13","Station_Nam":"BATHURST 3.8 NW, CAN","Latitude":"47.64212","Longitude":"-65.68756","Snowdepth":"19.500","Units":"in","Rept_Date":"2020-01-14 11"},"coordinates":[7405,6771]},{"type":"Point","properties":{"Station_ID":"WTRM4","Station_Nam":"WATERSMEET 12WSW","Latitude":"46.22310","Longitude":"-89.40850","Snowdepth":"19.000","Units":"in","Rept_Date":"2020-01-14 12"},"coordinates":[1838,5650]},{"type":"Point","properties":{"Station_ID":"WI-VL-14","Station_Nam":"BOULDER JUNCTION 1.4 NE, WI","Latitude":"46.12840","Longitude":"-89.62470","Snowdepth":"19.000","Units":"in","Rept_Date":"2020-01-14 13"},"coordinates":[1787,5575]},{"type":"Point","properties":{"Station_ID":"WI-DG-20","Station_Nam":"SOLON SPRINGS 1.2 W, WI","Latitude":"46.35217","Longitude":"-91.84405","Snowdepth":"19.000","Units":"in","Rept_Date":"2020-01-14 13"},"coordinates":[1266,5752]},{"type":"Point","properties":{"Station_ID":"SUAW3","Station_Nam":"SUAMICO","Latitude":"44.60190","Longitude":"-88.09780","Snowdepth":"19.000","Units":"in","Rept_Date":"2020-01-14 12"},"coordinates":[2145,4369]},{"type":"Point","properties":{"Station_ID":"MN-BM-15","Station_Nam":"BEMIDJI 7.8 ENE, MN","Latitude":"47.52043","Longitude":"-94.72121","Snowdepth":"19.000","Units":"in","Rept_Date":"2020-01-14 13"},"coordinates":[591,6675]},{"type":"Point","properties":{"Station_ID":"LEIM5","Station_Nam":"ORR 3E","Latitude":"48.05810","Longitude":"-92.75220","Snowdepth":"19.000","Units":"in","Rept_Date":"2020-01-14 12"},"coordinates":[1053,7100]},{"type":"Point","properties":{"Station_ID":"INL","Station_Nam":"FALLS INTERNATIONAL ARPT","Latitude":"48.56640","Longitude":"-93.40310","Snowdepth":"19.000","Units":"in","Rept_Date":"2020-01-15 00"},"coordinates":[900,7502]},{"type":"Point","properties":{"Station_ID":"IFSM5","Station_Nam":"INTERNATIONAL FALLS SNOW","Latitude":"48.57780","Longitude":"-93.39640","Snowdepth":"19.000","Units":"in","Rept_Date":"2020-01-15 00"},"coordinates":[902,7511]},{"type":"Point","properties":{"Station_ID":"GDPM5","Station_Nam":"PIGEON RIVER AT MIDDLE FALLS","Latitude":"48.01220","Longitude":"-89.61610","Snowdepth":"19.000","Units":"in","Rept_Date":"2020-01-14 13"},"coordinates":[1789,7064]},{"type":"Point","properties":{"Station_ID":"EMBM5","Station_Nam":"EMBARASS,MN","Latitude":"47.65810","Longitude":"-92.19580","Snowdepth":"19.000","Units":"in","Rept_Date":"2020-01-14 12"},"coordinates":[1184,6784]},{"type":"Point","properties":{"Station_ID":"CAN-NB-105","Station_Nam":"SISSON BROOK 3.8 E, CAN","Latitude":"46.98305","Longitude":"-67.32532","Snowdepth":"18.900","Units":"in","Rept_Date":"2020-01-14 12"},"coordinates":[7020,6250]},{"type":"Point","properties":{"Station_ID":"QLM","Station_Nam":"QLM","Latitude":"48.92030","Longitude":"-70.25280","Snowdepth":"18.898","Units":"in","Rept_Date":"2020-01-14 12"},"coordinates":[6333,7781]},{"type":"Point","properties":{"Station_ID":"MFU","Station_Nam":"MFU","Latitude":"51.52170","Longitude":"-66.91110","Snowdepth":"18.583","Units":"in","Rept_Date":"2020-01-14 12"},"coordinates":[7118,9837]},{"type":"Point","properties":{"Station_ID":"SOCQ6","Station_Nam":"SOCKET LAKE","Latitude":"50.77870","Longitude":"-91.79300","Snowdepth":"18.540","Units":"in","Rept_Date":"2020-01-15 06"},"coordinates":[1278,9250]},{"type":"Point","properties":{"Station_ID":"MN-IT-19","Station_Nam":"COHASSET 7.6 NNW, MN","Latitude":"47.34204","Longitude":"-93.69765","Snowdepth":"18.500","Units":"in","Rept_Date":"2020-01-14 14"},"coordinates":[831,6534]},{"type":"Point","properties":{"Station_ID":"CATQ6","Station_Nam":"CAT LAKE","Latitude":"51.72690","Longitude":"-91.82210","Snowdepth":"18.230","Units":"in","Rept_Date":"2020-01-15 06"},"coordinates":[1271,9999]},{"type":"Point","properties":{"Station_ID":"SEBM5","Station_Nam":"SEBEKA","Latitude":"46.62540","Longitude":"-95.09670","Snowdepth":"18.000","Units":"in","Rept_Date":"2020-01-14 13"},"coordinates":[503,5968]},{"type":"Point","properties":{"Station_ID":"PKGM5","Station_Nam":"POKEGANA LK DAM","Latitude":"47.25080","Longitude":"-93.58610","Snowdepth":"18.000","Units":"in","Rept_Date":"2020-01-14 14"},"coordinates":[857,6462]},{"type":"Point","properties":{"Station_ID":"NYMM5","Station_Nam":"NEW YORK MILLS","Latitude":"46.50920","Longitude":"-95.37990","Snowdepth":"18.000","Units":"in","Rept_Date":"2020-01-14 13"},"coordinates":[436,5876]},{"type":"Point","properties":{"Station_ID":"MMNV1","Station_Nam":"MT. MANSFIELD","Latitude":"44.52480","Longitude":"-72.81540","Snowdepth":"18.000","Units":"in","Rept_Date":"2020-01-14 21"},"coordinates":[5732,4308]},{"type":"Point","properties":{"Station_ID":"FEDM5","Station_Nam":"LEECH LAKE DAM","Latitude":"47.24670","Longitude":"-94.22280","Snowdepth":"18.000","Units":"in","Rept_Date":"2020-01-14 14"},"coordinates":[708,6459]},{"type":"Point","properties":{"Station_ID":"EGRW3","Station_Nam":"EAGLE RIVER-SOUTH","Latitude":"45.91360","Longitude":"-89.24360","Snowdepth":"18.000","Units":"in","Rept_Date":"2020-01-14 13"},"coordinates":[1876,5405]},{"type":"Point","properties":{"Station_ID":"QMD","Station_Nam":"QMD","Latitude":"49.29060","Longitude":"-75.84500","Snowdepth":"17.992","Units":"in","Rept_Date":"2020-01-14 12"},"coordinates":[5021,8074]},{"type":"Point","properties":{"Station_ID":"QCO","Station_Nam":"QCO","Latitude":"51.45280","Longitude":"-72.20110","Snowdepth":"17.874","Units":"in","Rept_Date":"2020-01-14 12"},"coordinates":[5876,9782]},{"type":"Point","properties":{"Station_ID":"QTM","Station_Nam":"QTM","Latitude":"51.05780","Longitude":"-72.57190","Snowdepth":"17.716","Units":"in","Rept_Date":"2020-01-14 12"},"coordinates":[5789,9470]},{"type":"Point","properties":{"Station_ID":"CAN-PE-19","Station_Nam":"CHARLOTTETOWN 6.5 NNW, CAN","Latitude":"46.29235","Longitude":"-63.17271","Snowdepth":"17.700","Units":"in","Rept_Date":"2020-01-14 12"},"coordinates":[7995,5705]},{"type":"Point","properties":{"Station_ID":"QLI","Station_Nam":"QLI","Latitude":"50.27080","Longitude":"-73.92280","Snowdepth":"17.638","Units":"in","Rept_Date":"2020-01-14 12"},"coordinates":[5472,8848]},{"type":"Point","properties":{"Station_ID":"WI-ON-8","Station_Nam":"HAZELHURST 2.1 SSE, WI","Latitude":"45.78186","Longitude":"-89.70330","Snowdepth":"17.500","Units":"in","Rept_Date":"2020-01-14 13"},"coordinates":[1768,5301]},{"type":"Point","properties":{"Station_ID":"MN-SL-108","Station_Nam":"IRON JUNCTION 3.4 NNW, MN","Latitude":"47.46150","Longitude":"-92.63130","Snowdepth":"17.500","Units":"in","Rept_Date":"2020-01-14 13"},"coordinates":[1081,6628]},{"type":"Point","properties":{"Station_ID":"WI-BY-2","Station_Nam":"MELLEN 18.6 SW, WI","Latitude":"46.16937","Longitude":"-90.98090","Snowdepth":"17.300","Units":"in","Rept_Date":"2020-01-14 13"},"coordinates":[1469,5607]},{"type":"Point","properties":{"Station_ID":"VANM1","Station_Nam":"VAN BUREN","Latitude":"47.16600","Longitude":"-67.93900","Snowdepth":"17.000","Units":"in","Rept_Date":"2020-01-14 12"},"coordinates":[6876,6395]},{"type":"Point","properties":{"Station_ID":"IRMM4","Station_Nam":"WWTP","Latitude":"46.46670","Longitude":"-90.18330","Snowdepth":"17.000","Units":"in","Rept_Date":"2020-01-14 13"},"coordinates":[1656,5842]},{"type":"Point","properties":{"Station_ID":"GLDM4","Station_Nam":"GLADSTONE NO. 2","Latitude":"45.84330","Longitude":"-87.03910","Snowdepth":"17.000","Units":"in","Rept_Date":"2020-01-14 12"},"coordinates":[2394,5350]},{"type":"Point","properties":{"Station_ID":"CRVW3","Station_Nam":"CRIVITZ HIGH FALLS","Latitude":"45.35750","Longitude":"-88.19190","Snowdepth":"17.000","Units":"in","Rept_Date":"2020-01-14 13"},"coordinates":[2123,4966]},{"type":"Point","properties":{"Station_ID":"CRLM5","Station_Nam":"CROSS LAKE DAM","Latitude":"46.66930","Longitude":"-94.11060","Snowdepth":"17.000","Units":"in","Rept_Date":"2020-01-14 14"},"coordinates":[734,6002]},{"type":"Point","properties":{"Station_ID":"CMKW3","Station_Nam":"CLAM LAKE 4W","Latitude":"46.16940","Longitude":"-90.98080","Snowdepth":"17.000","Units":"in","Rept_Date":"2020-01-14 13"},"coordinates":[1469,5607]},{"type":"Point","properties":{"Station_ID":"CLKM4","Station_Nam":"CLARKSBURG","Latitude":"46.49910","Longitude":"-87.84500","Snowdepth":"17.000","Units":"in","Rept_Date":"2020-01-14 12"},"coordinates":[2205,5868]},{"type":"Point","properties":{"Station_ID":"CAN-NS-39","Station_Nam":"ST. ANNS 2.8 NW, CA","Latitude":"46.25082","Longitude":"-60.64340","Snowdepth":"17.000","Units":"in","Rept_Date":"2020-01-14 11"},"coordinates":[8589,5672]},{"type":"Point","properties":{"Station_ID":"ANTW3","Station_Nam":"ANTIGO,WI","Latitude":"45.13330","Longitude":"-89.15000","Snowdepth":"17.000","Units":"in","Rept_Date":"2020-01-14 14"},"coordinates":[1898,4789]},{"type":"Point","properties":{"Station_ID":"FTHQ6","Station_Nam":"FORT HOPE","Latitude":"51.55820","Longitude":"-87.90510","Snowdepth":"16.610","Units":"in","Rept_Date":"2020-01-15 06"},"coordinates":[2191,9866]},{"type":"Point","properties":{"Station_ID":"RBLW3","Station_Nam":"RIB LAKE","Latitude":"45.31530","Longitude":"-90.20640","Snowdepth":"16.000","Units":"in","Rept_Date":"2020-01-14 14"},"coordinates":[1650,4932]},{"type":"Point","properties":{"Station_ID":"MN4R4TSR","Station_Nam":"KNIFE RIVER 0.8 NNW","Latitude":"46.96007","Longitude":"-91.78365","Snowdepth":"16.000","Units":"in","Rept_Date":"2020-01-14 12"},"coordinates":[1280,6232]},{"type":"Point","properties":{"Station_ID":"MN-IT-7","Station_Nam":"GRAND RAPIDS 6.2 SSW, MN","Latitude":"47.13687","Longitude":"-93.56660","Snowdepth":"16.000","Units":"in","Rept_Date":"2020-01-14 12"},"coordinates":[862,6372]},{"type":"Point","properties":{"Station_ID":"MN-IT-1","Station_Nam":"GRAND RAPIDS 2.0 E, MN","Latitude":"47.22266","Longitude":"-93.49600","Snowdepth":"16.000","Units":"in","Rept_Date":"2020-01-14 12"},"coordinates":[878,6440]},{"type":"Point","properties":{"Station_ID":"MI-OT-17","Station_Nam":"GAYLORD 4.1 S, MI","Latitude":"44.96388","Longitude":"-84.68467","Snowdepth":"16.000","Units":"in","Rept_Date":"2020-01-14 12"},"coordinates":[2946,4655]},{"type":"Point","properties":{"Station_ID":"MI-GG-4","Station_Nam":"WATERSMEET 5.0 SE, MI","Latitude":"46.20333","Longitude":"-89.13170","Snowdepth":"16.000","Units":"in","Rept_Date":"2020-01-14 14"},"coordinates":[1903,5634]},{"type":"Point","properties":{"Station_ID":"INDM5","Station_Nam":"INDUS,MN","Latitude":"48.61670","Longitude":"-93.90000","Snowdepth":"16.000","Units":"in","Rept_Date":"2020-01-14 14"},"coordinates":[784,7541]},{"type":"Point","properties":{"Station_ID":"GGRM4","Station_Nam":"GREEN GARDEN NO.2","Latitude":"46.45330","Longitude":"-87.30380","Snowdepth":"16.000","Units":"in","Rept_Date":"2020-01-14 11"},"coordinates":[2332,5832]},{"type":"Point","properties":{"Station_ID":"COVM4","Station_Nam":"COVINGTON","Latitude":"46.55880","Longitude":"-88.54190","Snowdepth":"16.000","Units":"in","Rept_Date":"2020-01-14 13"},"coordinates":[2041,5915]},{"type":"Point","properties":{"Station_ID":"CARM1","Station_Nam":"CARIBOU WFO","Latitude":"46.86810","Longitude":"-68.01250","Snowdepth":"16.000","Units":"in","Rept_Date":"2020-01-15 05"},"coordinates":[6859,6160]},{"type":"Point","properties":{"Station_ID":"CAR","Station_Nam":"CARIBOU, ME","Latitude":"46.86830","Longitude":"-68.01360","Snowdepth":"16.000","Units":"in","Rept_Date":"2020-01-14 12"},"coordinates":[6859,6160]},{"type":"Point","properties":{"Station_ID":"BRAM5","Station_Nam":"BRAINERD","Latitude":"46.34320","Longitude":"-94.20900","Snowdepth":"16.000","Units":"in","Rept_Date":"2020-01-14 13"},"coordinates":[711,5745]},{"type":"Point","properties":{"Station_ID":"AGNW3","Station_Nam":"ARGONNE-1.5 NW","Latitude":"45.67360","Longitude":"-88.90380","Snowdepth":"16.000","Units":"in","Rept_Date":"2020-01-14 13"},"coordinates":[1956,5216]},{"type":"Point","properties":{"Station_ID":"CAN-NB-96","Station_Nam":"SAINT-IGNACE 2.6 NE, CAN","Latitude":"46.71424","Longitude":"-65.05609","Snowdepth":"15.700","Units":"in","Rept_Date":"2020-01-14 11"},"coordinates":[7553,6038]},{"type":"Point","properties":{"Station_ID":"MN-CK-6","Station_Nam":"GRAND MARAIS 4.4 W, MN","Latitude":"47.74865","Longitude":"-90.43760","Snowdepth":"15.500","Units":"in","Rept_Date":"2020-01-14 12"},"coordinates":[1596,6855]},{"type":"Point","properties":{"Station_ID":"WI-SR-1","Station_Nam":"HAYWARD 9.2 NNE, WI","Latitude":"46.13255","Longitude":"-91.40500","Snowdepth":"15.300","Units":"in","Rept_Date":"2020-01-14 12"},"coordinates":[1369,5578]},{"type":"Point","properties":{"Station_ID":"WRTS2","Station_Nam":"WATERTOWN,SD","Latitude":"44.90280","Longitude":"-97.11360","Snowdepth":"15.000","Units":"in","Rept_Date":"2020-01-14 15"},"coordinates":[29,4607]},{"type":"Point","properties":{"Station_ID":"WI-RS-1","Station_Nam":"LADYSMITH 2.8 WNW, WI","Latitude":"45.48180","Longitude":"-91.14680","Snowdepth":"15.000","Units":"in","Rept_Date":"2020-01-14 12"},"coordinates":[1430,5064]},{"type":"Point","properties":{"Station_ID":"WI-PR-8","Station_Nam":"PHILLIPS 0.4 SSW, WI","Latitude":"45.69086","Longitude":"-90.40200","Snowdepth":"15.000","Units":"in","Rept_Date":"2020-01-14 13"},"coordinates":[1605,5229]},{"type":"Point","properties":{"Station_ID":"WI-ON-6","Station_Nam":"RHINELANDER 5.2 N, WI","Latitude":"45.71388","Longitude":"-89.42150","Snowdepth":"15.000","Units":"in","Rept_Date":"2020-01-14 15"},"coordinates":[1835,5247]},{"type":"Point","properties":{"Station_ID":"WI-BY-1","Station_Nam":"BAYFIELD 8.8 N, WI","Latitude":"46.93855","Longitude":"-90.83490","Snowdepth":"15.000","Units":"in","Rept_Date":"2020-01-14 13"},"coordinates":[1503,6215]},{"type":"Point","properties":{"Station_ID":"SIWS2","Station_Nam":"SISSETON 3W","Latitude":"45.65870","Longitude":"-97.12450","Snowdepth":"15.000","Units":"in","Rept_Date":"2020-01-14 13"},"coordinates":[27,5204]},{"type":"Point","properties":{"Station_ID":"SD-RB-1","Station_Nam":"SISSETON 3.8 W, SD","Latitude":"45.65865","Longitude":"-97.12370","Snowdepth":"15.000","Units":"in","Rept_Date":"2020-01-14 13"},"coordinates":[27,5204]},{"type":"Point","properties":{"Station_ID":"RHLW3","Station_Nam":"RHINELANDER 4NE","Latitude":"45.65270","Longitude":"-89.30740","Snowdepth":"15.000","Units":"in","Rept_Date":"2020-01-14 12"},"coordinates":[1861,5199]},{"type":"Point","properties":{"Station_ID":"QWG","Station_Nam":"QWG","Latitude":"48.48890","Longitude":"-73.45940","Snowdepth":"15.000","Units":"in","Rept_Date":"2020-01-14 12"},"coordinates":[5581,7440]},{"type":"Point","properties":{"Station_ID":"OTTM5","Station_Nam":"OTTERTAIL,MN","Latitude":"46.41670","Longitude":"-95.56670","Snowdepth":"15.000","Units":"in","Rept_Date":"2020-01-14 23"},"coordinates":[392,5803]},{"type":"Point","properties":{"Station_ID":"MN2EOYHJ","Station_Nam":"OGILVIE 5.6 N","Latitude":"45.91288","Longitude":"-93.42259","Snowdepth":"15.000","Units":"in","Rept_Date":"2020-01-14 14"},"coordinates":[896,5405]},{"type":"Point","properties":{"Station_ID":"MN-CW-22","Station_Nam":"FORT RIPLEY 0.8 N, MN","Latitude":"46.18089","Longitude":"-94.36510","Snowdepth":"15.000","Units":"in","Rept_Date":"2020-01-14 13"},"coordinates":[674,5616]},{"type":"Point","properties":{"Station_ID":"MIEM4","Station_Nam":"MICHIGAMME 3WNW","Latitude":"46.54530","Longitude":"-88.18000","Snowdepth":"15.000","Units":"in","Rept_Date":"2020-01-14 13"},"coordinates":[2126,5904]},{"type":"Point","properties":{"Station_ID":"MI-AT-6","Station_Nam":"MANCELONA 0.5 ESE, MI","Latitude":"44.89981","Longitude":"-85.05100","Snowdepth":"15.000","Units":"in","Rept_Date":"2020-01-14 13"},"coordinates":[2860,4604]},{"type":"Point","properties":{"Station_ID":"ME-AR-15","Station_Nam":"PRESQUE ISLE 1.3 WSW, ME","Latitude":"46.67960","Longitude":"-68.01270","Snowdepth":"15.000","Units":"in","Rept_Date":"2020-01-14 12"},"coordinates":[6859,6011]},{"type":"Point","properties":{"Station_ID":"LILM1","Station_Nam":"LILLE","Latitude":"47.27770","Longitude":"-68.10520","Snowdepth":"15.000","Units":"in","Rept_Date":"2020-01-14 12"},"coordinates":[6837,6483]},{"type":"Point","properties":{"Station_ID":"HOLW3","Station_Nam":"HOLCOMBE","Latitude":"45.22370","Longitude":"-91.12700","Snowdepth":"15.000","Units":"in","Rept_Date":"2020-01-14 13"},"coordinates":[1434,4860]},{"type":"Point","properties":{"Station_ID":"FLNW3","Station_Nam":"FLORENCE","Latitude":"45.93360","Longitude":"-88.25830","Snowdepth":"15.000","Units":"in","Rept_Date":"2020-01-14 13"},"coordinates":[2108,5421]},{"type":"Point","properties":{"Station_ID":"COKM5","Station_Nam":"COOK","Latitude":"47.85060","Longitude":"-92.69250","Snowdepth":"15.000","Units":"in","Rept_Date":"2020-01-14 12"},"coordinates":[1067,6936]},{"type":"Point","properties":{"Station_ID":"CAN-PE-43","Station_Nam":"GLENCOE 0.3 W, CAN","Latitude":"46.20115","Longitude":"-62.81740","Snowdepth":"15.000","Units":"in","Rept_Date":"2020-01-14 12"},"coordinates":[8078,5633]},{"type":"Point","properties":{"Station_ID":"AURW3","Station_Nam":"AURORA","Latitude":"45.77000","Longitude":"-88.11810","Snowdepth":"15.000","Units":"in","Rept_Date":"2020-01-14 13"},"coordinates":[2141,5292]},{"type":"Point","properties":{"Station_ID":"ATY","Station_Nam":"WATERTOWN MUNICIPAL AIRPORT","Latitude":"44.91420","Longitude":"-97.15440","Snowdepth":"15.000","Units":"in","Rept_Date":"2020-01-15 00"},"coordinates":[20,4616]},{"type":"Point","properties":{"Station_ID":"ND-CS-1","Station_Nam":"WEST FARGO 3.8 SSE, ND","Latitude":"46.82750","Longitude":"-96.85280","Snowdepth":"14.500","Units":"in","Rept_Date":"2020-01-14 13"},"coordinates":[91,6127]},{"type":"Point","properties":{"Station_ID":"WI-PR-6","Station_Nam":"PHILLIPS 1.3 S, WI","Latitude":"45.67677","Longitude":"-90.39543","Snowdepth":"14.000","Units":"in","Rept_Date":"2020-01-14 12"},"coordinates":[1606,5218]},{"type":"Point","properties":{"Station_ID":"WI-CK-3","Station_Nam":"COLBY 5.9 WSW, WI","Latitude":"44.87209","Longitude":"-90.42463","Snowdepth":"14.000","Units":"in","Rept_Date":"2020-01-15 01"},"coordinates":[1599,4582]},{"type":"Point","properties":{"Station_ID":"WI-CH-3","Station_Nam":"CORNELL 4.1 W, WI","Latitude":"45.17024","Longitude":"-91.23610","Snowdepth":"14.000","Units":"in","Rept_Date":"2020-01-14 14"},"coordinates":[1409,4818]},{"type":"Point","properties":{"Station_ID":"WI-AS-4","Station_Nam":"ASHLAND 0.5 WNW, WI","Latitude":"46.58240","Longitude":"-90.88390","Snowdepth":"14.000","Units":"in","Rept_Date":"2020-01-14 13"},"coordinates":[1491,5934]},{"type":"Point","properties":{"Station_ID":"SD-BK-9","Station_Nam":"BRUCE 4.1 NE, SD","Latitude":"44.48479","Longitude":"-96.83750","Snowdepth":"14.000","Units":"in","Rept_Date":"2020-01-14 13"},"coordinates":[94,4276]},{"type":"Point","properties":{"Station_ID":"SBNM5","Station_Nam":"SABIN","Latitude":"46.77690","Longitude":"-96.65610","Snowdepth":"14.000","Units":"in","Rept_Date":"2020-01-14 15"},"coordinates":[137,6087]},{"type":"Point","properties":{"Station_ID":"RLWM5","Station_Nam":"CAMP NORRIS DNR","Latitude":"48.61000","Longitude":"-95.18170","Snowdepth":"14.000","Units":"in","Rept_Date":"2020-01-14 14"},"coordinates":[483,7536]},{"type":"Point","properties":{"Station_ID":"ND-CS-25","Station_Nam":"FARGO 2.1 N, ND","Latitude":"46.90816","Longitude":"-96.77937","Snowdepth":"14.000","Units":"in","Rept_Date":"2020-01-14 14"},"coordinates":[108,6191]},{"type":"Point","properties":{"Station_ID":"MN-CY-1","Station_Nam":"MOORHEAD 2.0 N, MN","Latitude":"46.88766","Longitude":"-96.74800","Snowdepth":"14.000","Units":"in","Rept_Date":"2020-01-14 13"},"coordinates":[115,6175]},{"type":"Point","properties":{"Station_ID":"MN-CW-16","Station_Nam":"TROMMALD 6.1 NW, MN","Latitude":"46.55849","Longitude":"-94.11723","Snowdepth":"14.000","Units":"in","Rept_Date":"2020-01-14 14"},"coordinates":[733,5915]},{"type":"Point","properties":{"Station_ID":"LTMW3","Station_Nam":"LAKE TOMAHAWK 2 SE","Latitude":"45.80750","Longitude":"-89.55830","Snowdepth":"14.000","Units":"in","Rept_Date":"2020-01-14 12"},"coordinates":[1803,5321]},{"type":"Point","properties":{"Station_ID":"HRVM4","Station_Nam":"HARVEY","Latitude":"46.49080","Longitude":"-87.35470","Snowdepth":"14.000","Units":"in","Rept_Date":"2020-01-14 12"},"coordinates":[2320,5861]},{"type":"Point","properties":{"Station_ID":"FDRN8","Station_Nam":"FARGO 3S","Latitude":"46.82930","Longitude":"-96.79620","Snowdepth":"14.000","Units":"in","Rept_Date":"2020-01-15 06"},"coordinates":[104,6129]},{"type":"Point","properties":{"Station_ID":"FAR","Station_Nam":"HECTOR INTERNATIONAL ARPT","Latitude":"46.91560","Longitude":"-96.81440","Snowdepth":"14.000","Units":"in","Rept_Date":"2020-01-15 00"},"coordinates":[100,6197]},{"type":"Point","properties":{"Station_ID":"CLBW3","Station_Nam":"COLBY 6SW","Latitude":"44.87080","Longitude":"-90.42480","Snowdepth":"14.000","Units":"in","Rept_Date":"2020-01-15 03"},"coordinates":[1599,4581]},{"type":"Point","properties":{"Station_ID":"CEFM4","Station_Nam":"EXPERIMENT FARM #2","Latitude":"46.33330","Longitude":"-86.91670","Snowdepth":"14.000","Units":"in","Rept_Date":"2020-01-14 13"},"coordinates":[2422,5737]},{"type":"Point","properties":{"Station_ID":"BRVM5","Station_Nam":"BROWNS VALLEY,MN","Latitude":"45.61670","Longitude":"-96.83330","Snowdepth":"14.000","Units":"in","Rept_Date":"2020-01-14 12"},"coordinates":[95,5171]},{"type":"Point","properties":{"Station_ID":"BAGM4","Station_Nam":"BARAGA 7NW","Latitude":"46.82100","Longitude":"-88.60590","Snowdepth":"14.000","Units":"in","Rept_Date":"2020-01-14 13"},"coordinates":[2026,6122]},{"type":"Point","properties":{"Station_ID":"AWXW3","Station_Nam":"ASHLAND","Latitude":"46.58240","Longitude":"-90.88390","Snowdepth":"14.000","Units":"in","Rept_Date":"2020-01-14 13"},"coordinates":[1491,5934]},{"type":"Point","properties":{"Station_ID":"CAN-QC-47","Station_Nam":"SAINTE-FOY 1.8 ENE, CAN","Latitude":"46.76934","Longitude":"-71.27124","Snowdepth":"13.600","Units":"in","Rept_Date":"2020-01-14 12"},"coordinates":[6094,6081]},{"type":"Point","properties":{"Station_ID":"WI-PR-2","Station_Nam":"BUTTERNUT 5.9 SW, WI","Latitude":"45.96501","Longitude":"-90.59750","Snowdepth":"13.500","Units":"in","Rept_Date":"2020-01-14 12"},"coordinates":[1559,5446]},{"type":"Point","properties":{"Station_ID":"WI-OC-1","Station_Nam":"MOUNTAIN 1.1 SW, WI","Latitude":"45.17239","Longitude":"-88.48990","Snowdepth":"13.500","Units":"in","Rept_Date":"2020-01-14 21"},"coordinates":[2053,4820]},{"type":"Point","properties":{"Station_ID":"MN-CW-8","Station_Nam":"BRAINERD 11.5 E, MN","Latitude":"46.38556","Longitude":"-93.95720","Snowdepth":"13.500","Units":"in","Rept_Date":"2020-01-14 13"},"coordinates":[770,5778]},{"type":"Point","properties":{"Station_ID":"MN-BK-10","Station_Nam":"DETROIT LAKES 5.7 N, MN","Latitude":"46.88666","Longitude":"-95.84444","Snowdepth":"13.500","Units":"in","Rept_Date":"2020-01-14 10"},"coordinates":[327,6174]},{"type":"Point","properties":{"Station_ID":"WTNM4","Station_Nam":"WATTON 2WSW","Latitude":"46.52660","Longitude":"-88.64240","Snowdepth":"13.000","Units":"in","Rept_Date":"2020-01-14 13"},"coordinates":[2017,5890]},{"type":"Point","properties":{"Station_ID":"WLKM5","Station_Nam":"AH-GWAH-CHING","Latitude":"47.15000","Longitude":"-94.65000","Snowdepth":"13.000","Units":"in","Rept_Date":"2020-01-14 12"},"coordinates":[608,6382]},{"type":"Point","properties":{"Station_ID":"WI-DN-1","Station_Nam":"BOYCEVILLE 3.3 N, WI","Latitude":"45.08913","Longitude":"-92.02760","Snowdepth":"13.000","Units":"in","Rept_Date":"2020-01-14 13"},"coordinates":[1223,4754]},{"type":"Point","properties":{"Station_ID":"TAKW3","Station_Nam":"RICE RESERVOIR NO. 2","Latitude":"45.53770","Longitude":"-89.73220","Snowdepth":"13.000","Units":"in","Rept_Date":"2020-01-14 13"},"coordinates":[1762,5108]},{"type":"Point","properties":{"Station_ID":"SULW3","Station_Nam":"SUMMIT LAKE","Latitude":"45.37880","Longitude":"-89.19410","Snowdepth":"13.000","Units":"in","Rept_Date":"2020-01-14 11"},"coordinates":[1888,4983]},{"type":"Point","properties":{"Station_ID":"STMM4","Station_Nam":"STAMBAUGH 2SSE","Latitude":"46.05550","Longitude":"-88.62780","Snowdepth":"13.000","Units":"in","Rept_Date":"2020-01-14 13"},"coordinates":[2021,5517]},{"type":"Point","properties":{"Station_ID":"MOUW3","Station_Nam":"MOUNTAIN 1 SW","Latitude":"45.17220","Longitude":"-88.49390","Snowdepth":"13.000","Units":"in","Rept_Date":"2020-01-14 21"},"coordinates":[2052,4819]},{"type":"Point","properties":{"Station_ID":"MN-AT-5","Station_Nam":"TAMARACK 1.4 SW, MN","Latitude":"46.63760","Longitude":"-93.14554","Snowdepth":"13.000","Units":"in","Rept_Date":"2020-01-14 11"},"coordinates":[961,5977]},{"type":"Point","properties":{"Station_ID":"JCBM4","Station_Nam":"JACOBSVILLE","Latitude":"47.00830","Longitude":"-88.43180","Snowdepth":"13.000","Units":"in","Rept_Date":"2020-01-14 12"},"coordinates":[2067,6270]},{"type":"Point","properties":{"Station_ID":"IMNM4","Station_Nam":"IRON MOUTAIN 5N","Latitude":"45.87580","Longitude":"-88.04030","Snowdepth":"13.000","Units":"in","Rept_Date":"2020-01-14 13"},"coordinates":[2159,5375]},{"type":"Point","properties":{"Station_ID":"GRFN8","Station_Nam":"UNIVERSITY","Latitude":"47.93330","Longitude":"-97.08330","Snowdepth":"13.000","Units":"in","Rept_Date":"2020-01-15 06"},"coordinates":[36,7001]},{"type":"Point","properties":{"Station_ID":"GRBM5","Station_Nam":"GRAND RAPIDS 12N","Latitude":"47.39800","Longitude":"-93.51330","Snowdepth":"13.000","Units":"in","Rept_Date":"2020-01-14 14"},"coordinates":[874,6578]},{"type":"Point","properties":{"Station_ID":"CNNW3","Station_Nam":"CRANDON","Latitude":"45.55110","Longitude":"-88.89830","Snowdepth":"13.000","Units":"in","Rept_Date":"2020-01-14 12"},"coordinates":[1957,5119]},{"type":"Point","properties":{"Station_ID":"CLGM5","Station_Nam":"COLLEGEVILLE ST JOHN","Latitude":"45.57940","Longitude":"-94.39200","Snowdepth":"13.000","Units":"in","Rept_Date":"2020-01-15 00"},"coordinates":[668,5141]},{"type":"Point","properties":{"Station_ID":"CBVM1","Station_Nam":"CARRABASSETT VALLEY","Latitude":"45.08040","Longitude":"-70.30310","Snowdepth":"13.000","Units":"in","Rept_Date":"2020-01-14 12"},"coordinates":[6322,4747]},{"type":"Point","properties":{"Station_ID":"CAN-NS-94","Station_Nam":"MARGAREE FORKS 2.6 SSE CBN, CAN","Latitude":"46.30937","Longitude":"-61.07603","Snowdepth":"12.600","Units":"in","Rept_Date":"2020-01-14 13"},"coordinates":[8487,5718]},{"type":"Point","properties":{"Station_ID":"WI-SR-5","Station_Nam":"HAYWARD 9.7 NE, WI","Latitude":"46.12030","Longitude":"-91.35370","Snowdepth":"12.500","Units":"in","Rept_Date":"2020-01-14 14"},"coordinates":[1381,5569]},{"type":"Point","properties":{"Station_ID":"WI-EC-23","Station_Nam":"EAU CLAIRE 3.7 S, WI","Latitude":"44.76858","Longitude":"-91.49898","Snowdepth":"12.000","Units":"in","Rept_Date":"2020-01-14 14"},"coordinates":[1347,4500]},{"type":"Point","properties":{"Station_ID":"WI-BT-14","Station_Nam":"OAKLAND 9.0 ENE, WI","Latitude":"45.95184","Longitude":"-92.21653","Snowdepth":"12.000","Units":"in","Rept_Date":"2020-01-14 13"},"coordinates":[1179,5435]},{"type":"Point","properties":{"Station_ID":"SSMM4","Station_Nam":"SAULT STE MARIE","Latitude":"46.48660","Longitude":"-84.40250","Snowdepth":"12.000","Units":"in","Rept_Date":"2020-01-14 13"},"coordinates":[3013,5858]},{"type":"Point","properties":{"Station_ID":"SD-RB-4","Station_Nam":"SISSETON 10.4 ENE, SD","Latitude":"45.69480","Longitude":"-96.83480","Snowdepth":"12.000","Units":"in","Rept_Date":"2020-01-14 13"},"coordinates":[95,5232]},{"type":"Point","properties":{"Station_ID":"SD-CD-30","Station_Nam":"WATERTOWN 2.3 E, SD","Latitude":"44.91604","Longitude":"-97.11925","Snowdepth":"12.000","Units":"in","Rept_Date":"2020-01-14 14"},"coordinates":[28,4617]},{"type":"Point","properties":{"Station_ID":"ONMM5","Station_Nam":"ONAMIA RANGER STATION","Latitude":"46.06770","Longitude":"-93.66660","Snowdepth":"12.000","Units":"in","Rept_Date":"2020-01-14 14"},"coordinates":[838,5527]},{"type":"Point","properties":{"Station_ID":"MQRW3","Station_Nam":"MINOCQUA","Latitude":"45.88630","Longitude":"-89.73220","Snowdepth":"12.000","Units":"in","Rept_Date":"2020-01-14 12"},"coordinates":[1762,5384]},{"type":"Point","properties":{"Station_ID":"MN6JKRHL","Station_Nam":"TOFTE 0.6 SSW","Latitude":"47.56557","Longitude":"-90.84117","Snowdepth":"12.000","Units":"in","Rept_Date":"2020-01-14 13"},"coordinates":[1501,6711]},{"type":"Point","properties":{"Station_ID":"MN-DS-9","Station_Nam":"ALEXANDRIA 0.5 W, MN","Latitude":"45.87828","Longitude":"-95.38273","Snowdepth":"12.000","Units":"in","Rept_Date":"2020-01-14 12"},"coordinates":[436,5377]},{"type":"Point","properties":{"Station_ID":"MLBS2","Station_Nam":"MILBANK","Latitude":"45.22040","Longitude":"-96.62530","Snowdepth":"12.000","Units":"in","Rept_Date":"2020-01-14 13"},"coordinates":[144,4858]},{"type":"Point","properties":{"Station_ID":"JMPW3","Station_Nam":"JUMP RIVER 1 NW","Latitude":"45.35610","Longitude":"-90.80250","Snowdepth":"12.000","Units":"in","Rept_Date":"2020-01-14 13"},"coordinates":[1511,4965]},{"type":"Point","properties":{"Station_ID":"COUW3","Station_Nam":"COUDERAY,WI","Latitude":"45.86670","Longitude":"-91.45000","Snowdepth":"12.000","Units":"in","Rept_Date":"2020-01-14 22"},"coordinates":[1359,5368]},{"type":"Point","properties":{"Station_ID":"BKEM5","Station_Nam":"BRECKENRIDGE 4NE","Latitude":"46.30470","Longitude":"-96.52170","Snowdepth":"12.000","Units":"in","Rept_Date":"2020-01-14 13"},"coordinates":[168,5714]},{"type":"Point","properties":{"Station_ID":"ASXW3","Station_Nam":"ASHLAND,WI","Latitude":"46.55220","Longitude":"-90.91610","Snowdepth":"12.000","Units":"in","Rept_Date":"2020-01-14 14"},"coordinates":[1484,5910]},{"type":"Point","properties":{"Station_ID":"AROM4","Station_Nam":"ARNOLD,MI","Latitude":"46.06670","Longitude":"-87.48330","Snowdepth":"12.000","Units":"in","Rept_Date":"2020-01-14 13"},"coordinates":[2290,5526]},{"type":"Point","properties":{"Station_ID":"ANJM4","Station_Nam":"SNOW PAID OBSERVER FOR KANJ","Latitude":"46.48670","Longitude":"-84.40260","Snowdepth":"12.000","Units":"in","Rept_Date":"2020-01-15 06"},"coordinates":[3013,5858]},{"type":"Point","properties":{"Station_ID":"ANJ","Station_Nam":"SAULT STE MARIE","Latitude":"46.46670","Longitude":"-84.36670","Snowdepth":"12.000","Units":"in","Rept_Date":"2020-01-15 00"},"coordinates":[3021,5842]},{"type":"Point","properties":{"Station_ID":"ALXM5","Station_Nam":"ALEXANDRIA","Latitude":"45.87820","Longitude":"-95.38270","Snowdepth":"12.000","Units":"in","Rept_Date":"2020-01-14 12"},"coordinates":[436,5377]},{"type":"Point","properties":{"Station_ID":"CAN-ON-757","Station_Nam":"SAULT STE. MARIE 2.8 ESE - GLFC, CAN","Latitude":"46.50300","Longitude":"-84.30300","Snowdepth":"11.700","Units":"in","Rept_Date":"2020-01-14 13"},"coordinates":[3036,5871]},{"type":"Point","properties":{"Station_ID":"MI-OT-16","Station_Nam":"GAYLORD 2.2 SSE, MI","Latitude":"44.99441","Longitude":"-84.65820","Snowdepth":"11.500","Units":"in","Rept_Date":"2020-01-14 14"},"coordinates":[2953,4679]},{"type":"Point","properties":{"Station_ID":"ZNOM4","Station_Nam":"NORWAY","Latitude":"45.77810","Longitude":"-87.89560","Snowdepth":"11.000","Units":"in","Rept_Date":"2020-01-14 13"},"coordinates":[2193,5298]},{"type":"Point","properties":{"Station_ID":"WLKW3","Station_Nam":"WHITE LAKE 1 SE","Latitude":"45.14520","Longitude":"-88.74160","Snowdepth":"11.000","Units":"in","Rept_Date":"2020-01-14 14"},"coordinates":[1994,4798]},{"type":"Point","properties":{"Station_ID":"WLDM5","Station_Nam":"WILD RIVER STATE PARK","Latitude":"45.52310","Longitude":"-92.74890","Snowdepth":"11.000","Units":"in","Rept_Date":"2020-01-14 14"},"coordinates":[1054,5097]},{"type":"Point","properties":{"Station_ID":"WILW3","Station_Nam":"RESERVOIR","Latitude":"45.70000","Longitude":"-89.83330","Snowdepth":"11.000","Units":"in","Rept_Date":"2020-01-14 12"},"coordinates":[1738,5236]},{"type":"Point","properties":{"Station_ID":"WI-MT-14","Station_Nam":"MOSINEE 2.7 WSW, WI","Latitude":"44.77240","Longitude":"-89.73441","Snowdepth":"11.000","Units":"in","Rept_Date":"2020-01-14 13"},"coordinates":[1761,4503]},{"type":"Point","properties":{"Station_ID":"RHRW3","Station_Nam":"RHINELANDER WJFW TV-12","Latitude":"45.62220","Longitude":"-89.41000","Snowdepth":"11.000","Units":"in","Rept_Date":"2020-01-15 04"},"coordinates":[1837,5175]},{"type":"Point","properties":{"Station_ID":"MN-CW-29","Station_Nam":"BRAINERD 7.7 SSE, MN","Latitude":"46.24996","Longitude":"-94.14576","Snowdepth":"11.000","Units":"in","Rept_Date":"2020-01-14 13"},"coordinates":[726,5671]},{"type":"Point","properties":{"Station_ID":"MI-OT-4","Station_Nam":"GAYLORD 1.7 WNW, MI","Latitude":"45.03280","Longitude":"-84.71090","Snowdepth":"11.000","Units":"in","Rept_Date":"2020-01-14 13"},"coordinates":[2940,4709]},{"type":"Point","properties":{"Station_ID":"LUCW3","Station_Nam":"LUCK","Latitude":"45.57330","Longitude":"-92.48520","Snowdepth":"11.000","Units":"in","Rept_Date":"2020-01-14 19"},"coordinates":[1116,5136]},{"type":"Point","properties":{"Station_ID":"LNGM5","Station_Nam":"LONG PRAIRIE","Latitude":"45.96460","Longitude":"-94.88920","Snowdepth":"11.000","Units":"in","Rept_Date":"2020-01-14 12"},"coordinates":[551,5446]},{"type":"Point","properties":{"Station_ID":"LADW3","Station_Nam":"LADYSMITH WTP","Latitude":"45.44290","Longitude":"-91.08970","Snowdepth":"11.000","Units":"in","Rept_Date":"2020-01-14 13"},"coordinates":[1443,5033]},{"type":"Point","properties":{"Station_ID":"KGFK","Station_Nam":"GRAND FORKS INTERNATIONAL","Latitude":"47.95000","Longitude":"-97.18333","Snowdepth":"11.000","Units":"in","Rept_Date":"2020-01-15 06"},"coordinates":[13,7014]},{"type":"Point","properties":{"Station_ID":"GLRM5","Station_Nam":"GLACIAL RIDGE","Latitude":"47.71670","Longitude":"-96.26670","Snowdepth":"11.000","Units":"in","Rept_Date":"2020-01-14 08"},"coordinates":[228,6830]},{"type":"Point","properties":{"Station_ID":"GFK","Station_Nam":"GRAND FORKS INTERNATIONAL AIRPORT","Latitude":"47.94920","Longitude":"-97.17610","Snowdepth":"11.000","Units":"in","Rept_Date":"2020-01-15 00"},"coordinates":[15,7014]},{"type":"Point","properties":{"Station_ID":"GAYM4","Station_Nam":"GAYLORD","Latitude":"45.03320","Longitude":"-84.71130","Snowdepth":"11.000","Units":"in","Rept_Date":"2020-01-14 13"},"coordinates":[2940,4710]},{"type":"Point","properties":{"Station_ID":"BRDM1","Station_Nam":"BRIDGEWATER","Latitude":"46.42870","Longitude":"-67.84370","Snowdepth":"11.000","Units":"in","Rept_Date":"2020-01-14 23"},"coordinates":[6899,5812]},{"type":"Point","properties":{"Station_ID":"ARTM5","Station_Nam":"ARTICHOKE LAKE 1 E","Latitude":"45.38560","Longitude":"-96.12570","Snowdepth":"11.000","Units":"in","Rept_Date":"2020-01-15 00"},"coordinates":[261,4988]},{"type":"Point","properties":{"Station_ID":"CAN-PE-7","Station_Nam":"MORELL 1.4 NNW, CA","Latitude":"46.42741","Longitude":"-62.70870","Snowdepth":"10.700","Units":"in","Rept_Date":"2020-01-14 12"},"coordinates":[8104,5811]},{"type":"Point","properties":{"Station_ID":"WI-CH-7","Station_Nam":"CHIPPEWA FALLS 1.2 E, WI","Latitude":"44.92920","Longitude":"-91.36730","Snowdepth":"10.500","Units":"in","Rept_Date":"2020-01-14 13"},"coordinates":[1378,4627]},{"type":"Point","properties":{"Station_ID":"ME-PN-45","Station_Nam":"MILLINOCKET 2.7 ESE, ME","Latitude":"45.65002","Longitude":"-68.64472","Snowdepth":"10.500","Units":"in","Rept_Date":"2020-01-14 12"},"coordinates":[6711,5197]},{"type":"Point","properties":{"Station_ID":"CAN-MB-32","Station_Nam":"PINAWA 1.0 SW, CA","Latitude":"50.14747","Longitude":"-95.89020","Snowdepth":"10.500","Units":"in","Rept_Date":"2020-01-14 13"},"coordinates":[316,8751]},{"type":"Point","properties":{"Station_ID":"WUNW3","Station_Nam":"WAUSAU-NORTHEAST","Latitude":"44.97310","Longitude":"-89.61690","Snowdepth":"10.000","Units":"in","Rept_Date":"2020-01-14 12"},"coordinates":[1789,4662]},{"type":"Point","properties":{"Station_ID":"WI-MT-1","Station_Nam":"SCHOFIELD 3.3 E, WI","Latitude":"44.91806","Longitude":"-89.54470","Snowdepth":"10.000","Units":"in","Rept_Date":"2020-01-14 13"},"coordinates":[1806,4619]},{"type":"Point","properties":{"Station_ID":"WI-LN-2","Station_Nam":"MERRILL 7.0 W, WI","Latitude":"45.17746","Longitude":"-89.84820","Snowdepth":"10.000","Units":"in","Rept_Date":"2020-01-14 12"},"coordinates":[1734,4824]},{"type":"Point","properties":{"Station_ID":"SUTV1","Station_Nam":"SUTTON","Latitude":"44.61220","Longitude":"-72.04810","Snowdepth":"10.000","Units":"in","Rept_Date":"2020-01-14 13"},"coordinates":[5912,4377]},{"type":"Point","properties":{"Station_ID":"RSTW3","Station_Nam":"ROSHOLT","Latitude":"44.62710","Longitude":"-89.30600","Snowdepth":"10.000","Units":"in","Rept_Date":"2020-01-14 13"},"coordinates":[1862,4389]},{"type":"Point","properties":{"Station_ID":"RRVM4","Station_Nam":"RAPID RIVER 9S","Latitude":"45.78750","Longitude":"-86.93920","Snowdepth":"10.000","Units":"in","Rept_Date":"2020-01-14 16"},"coordinates":[2417,5306]},{"type":"Point","properties":{"Station_ID":"OWEW3","Station_Nam":"OWEN 1E","Latitude":"44.94610","Longitude":"-90.55170","Snowdepth":"10.000","Units":"in","Rept_Date":"2020-01-14 13"},"coordinates":[1569,4641]},{"type":"Point","properties":{"Station_ID":"MN-SH-10","Station_Nam":"BIG LAKE 5.6 NNE, MN","Latitude":"45.41409","Longitude":"-93.69190","Snowdepth":"10.000","Units":"in","Rept_Date":"2020-01-14 11"},"coordinates":[832,5011]},{"type":"Point","properties":{"Station_ID":"MN-MR-4","Station_Nam":"LITTLE FALLS 1.2 SW, MN","Latitude":"45.96886","Longitude":"-94.37720","Snowdepth":"10.000","Units":"in","Rept_Date":"2020-01-14 13"},"coordinates":[672,5449]},{"type":"Point","properties":{"Station_ID":"MN-MR-13","Station_Nam":"LITTLE FALLS 8.0 NE, MN","Latitude":"46.06785","Longitude":"-94.24789","Snowdepth":"10.000","Units":"in","Rept_Date":"2020-01-14 13"},"coordinates":[702,5527]},{"type":"Point","properties":{"Station_ID":"MLLW3","Station_Nam":"MERRILL 8W","Latitude":"45.17810","Longitude":"-89.84810","Snowdepth":"10.000","Units":"in","Rept_Date":"2020-01-14 12"},"coordinates":[1735,4824]},{"type":"Point","properties":{"Station_ID":"MLCM5","Station_Nam":"MILACA","Latitude":"45.75320","Longitude":"-93.66170","Snowdepth":"10.000","Units":"in","Rept_Date":"2020-01-14 13"},"coordinates":[839,5279]},{"type":"Point","properties":{"Station_ID":"MEDW3","Station_Nam":"MEDFORD","Latitude":"45.13080","Longitude":"-90.34390","Snowdepth":"10.000","Units":"in","Rept_Date":"2020-01-14 14"},"coordinates":[1618,4787]},{"type":"Point","properties":{"Station_ID":"LGRN8","Station_Nam":"LIDGERWOOD,ND","Latitude":"46.06670","Longitude":"-97.16670","Snowdepth":"10.000","Units":"in","Rept_Date":"2020-01-14 13"},"coordinates":[17,5526]},{"type":"Point","properties":{"Station_ID":"LEWM4","Station_Nam":"LEWISTON 3W","Latitude":"44.88210","Longitude":"-84.36540","Snowdepth":"10.000","Units":"in","Rept_Date":"2020-01-14 13"},"coordinates":[3021,4590]},{"type":"Point","properties":{"Station_ID":"LBRM5","Station_Nam":"LAKE BRONSON DAM","Latitude":"48.72410","Longitude":"-96.62180","Snowdepth":"10.000","Units":"in","Rept_Date":"2020-01-14 14"},"coordinates":[145,7626]},{"type":"Point","properties":{"Station_ID":"ESAM4","Station_Nam":"ESCANABA","Latitude":"45.74380","Longitude":"-87.04060","Snowdepth":"10.000","Units":"in","Rept_Date":"2020-01-14 12"},"coordinates":[2393,5271]},{"type":"Point","properties":{"Station_ID":"EPTW3","Station_Nam":"EAU PLEINE TENDER","Latitude":"44.77220","Longitude":"-89.76720","Snowdepth":"10.000","Units":"in","Rept_Date":"2020-01-14 13"},"coordinates":[1753,4503]},{"type":"Point","properties":{"Station_ID":"ENGM4","Station_Nam":"ENGADINE MDOT","Latitude":"46.12800","Longitude":"-85.56960","Snowdepth":"10.000","Units":"in","Rept_Date":"2020-01-14 12"},"coordinates":[2739,5575]},{"type":"Point","properties":{"Station_ID":"ELRW3","Station_Nam":"EAU CLAIRE 3SW","Latitude":"44.78780","Longitude":"-91.51650","Snowdepth":"10.000","Units":"in","Rept_Date":"2020-01-15 06"},"coordinates":[1343,4516]},{"type":"Point","properties":{"Station_ID":"EAU","Station_Nam":"CHIPPEWA VALLEY REGIONAL AIRPORT","Latitude":"44.86650","Longitude":"-91.48790","Snowdepth":"10.000","Units":"in","Rept_Date":"2020-01-15 00"},"coordinates":[1350,4578]},{"type":"Point","properties":{"Station_ID":"CMBM5","Station_Nam":"CAMBRIDGE","Latitude":"45.55640","Longitude":"-93.23480","Snowdepth":"10.000","Units":"in","Rept_Date":"2020-01-14 14"},"coordinates":[940,5123]},{"type":"Point","properties":{"Station_ID":"CANM5","Station_Nam":"CANBY","Latitude":"44.71840","Longitude":"-96.26960","Snowdepth":"10.000","Units":"in","Rept_Date":"2020-01-14 14"},"coordinates":[227,4461]},{"type":"Point","properties":{"Station_ID":"CAN-ON-245","Station_Nam":"PHELPSTON 3.1 ESE, CAN","Latitude":"44.50564","Longitude":"-79.81035","Snowdepth":"10.000","Units":"in","Rept_Date":"2020-01-14 13"},"coordinates":[4090,4293]},{"type":"Point","properties":{"Station_ID":"BROS2","Station_Nam":"BROOKINGS,SD","Latitude":"44.31670","Longitude":"-96.76670","Snowdepth":"10.000","Units":"in","Rept_Date":"2020-01-14 14"},"coordinates":[111,4143]},{"type":"Point","properties":{"Station_ID":"APXM4","Station_Nam":"GAYLORD 9SSW","Latitude":"44.90720","Longitude":"-84.71880","Snowdepth":"10.000","Units":"in","Rept_Date":"2020-01-15 06"},"coordinates":[2938,4610]},{"type":"Point","properties":{"Station_ID":"CAN-NB-89","Station_Nam":"MEMRAMCOOK 4.0 W, CAN","Latitude":"46.01133","Longitude":"-64.60244","Snowdepth":"9.800","Units":"in","Rept_Date":"2020-01-14 13"},"coordinates":[7659,5483]},{"type":"Point","properties":{"Station_ID":"CAN-PE-50","Station_Nam":"BEDFORD CORNER 3.9 WNW, CAN","Latitude":"46.34628","Longitude":"-63.06157","Snowdepth":"9.600","Units":"in","Rept_Date":"2020-01-14 11"},"coordinates":[8021,5747]},{"type":"Point","properties":{"Station_ID":"CAN-PE-20","Station_Nam":"BONSHAW 6.6 NNE, CAN","Latitude":"46.25082","Longitude":"-63.33409","Snowdepth":"9.100","Units":"in","Rept_Date":"2020-01-14 12"},"coordinates":[7957,5672]},{"type":"Point","properties":{"Station_ID":"CAN-MB-298","Station_Nam":"GARDENTON 4.2 W - SRRCD, CAN","Latitude":"49.09480","Longitude":"-96.75446","Snowdepth":"9.100","Units":"in","Rept_Date":"2020-01-14 14"},"coordinates":[114,7919]},{"type":"Point","properties":{"Station_ID":"WDOM5","Station_Nam":"WINDOM","Latitude":"43.87700","Longitude":"-95.11590","Snowdepth":"9.000","Units":"in","Rept_Date":"2020-01-14 14"},"coordinates":[498,3796]},{"type":"Point","properties":{"Station_ID":"VT-OL-1","Station_Nam":"WESTFIELD 0.7 WNW, VT","Latitude":"44.89160","Longitude":"-72.44350","Snowdepth":"9.000","Units":"in","Rept_Date":"2020-01-14 12"},"coordinates":[5819,4598]},{"type":"Point","properties":{"Station_ID":"VT-CL-40","Station_Nam":"LYNDONVILLE 4.2 NNW, VT","Latitude":"44.59440","Longitude":"-72.02389","Snowdepth":"9.000","Units":"in","Rept_Date":"2020-01-14 12"},"coordinates":[5918,4363]},{"type":"Point","properties":{"Station_ID":"SSSS2","Station_Nam":"MILBANK-36MI.NW","Latitude":"45.66670","Longitude":"-97.00000","Snowdepth":"9.000","Units":"in","Rept_Date":"2020-01-15 04"},"coordinates":[56,5210]},{"type":"Point","properties":{"Station_ID":"SIBI4","Station_Nam":"SIBLEY","Latitude":"43.40470","Longitude":"-95.74830","Snowdepth":"9.000","Units":"in","Rept_Date":"2020-01-14 13"},"coordinates":[350,3423]},{"type":"Point","properties":{"Station_ID":"SAUW3","Station_Nam":"WAUSAU WSAW TV","Latitude":"44.94630","Longitude":"-89.62220","Snowdepth":"9.000","Units":"in","Rept_Date":"2020-01-15 03"},"coordinates":[1788,4641]},{"type":"Point","properties":{"Station_ID":"RRLW3","Station_Nam":"MERRILL,WI","Latitude":"45.17860","Longitude":"-89.66170","Snowdepth":"9.000","Units":"in","Rept_Date":"2020-01-14 14"},"coordinates":[1778,4824]},{"type":"Point","properties":{"Station_ID":"RCEM5","Station_Nam":"RICE","Latitude":"45.75760","Longitude":"-94.20720","Snowdepth":"9.000","Units":"in","Rept_Date":"2020-01-14 13"},"coordinates":[711,5282]},{"type":"Point","properties":{"Station_ID":"NELW3","Station_Nam":"NEILLSVILLE 3ESE","Latitude":"44.53780","Longitude":"-90.53500","Snowdepth":"9.000","Units":"in","Rept_Date":"2020-01-14 13"},"coordinates":[1573,4318]},{"type":"Point","properties":{"Station_ID":"MVDM5","Station_Nam":"MONTEVIDEO 1SW","Latitude":"44.93410","Longitude":"-95.74590","Snowdepth":"9.000","Units":"in","Rept_Date":"2020-01-14 13"},"coordinates":[350,4631]},{"type":"Point","properties":{"Station_ID":"MRAM5","Station_Nam":"MORA","Latitude":"45.87760","Longitude":"-93.31470","Snowdepth":"9.000","Units":"in","Rept_Date":"2020-01-14 13"},"coordinates":[921,5377]},{"type":"Point","properties":{"Station_ID":"MONS2","Station_Nam":"SIOUX FALLS-26MI.WNW","Latitude":"43.70190","Longitude":"-97.18330","Snowdepth":"9.000","Units":"in","Rept_Date":"2020-01-14 14"},"coordinates":[13,3658]},{"type":"Point","properties":{"Station_ID":"MN-SH-985","Station_Nam":"PRINCETON 3.3 WSW, MN","Latitude":"45.55211","Longitude":"-93.64481","Snowdepth":"9.000","Units":"in","Rept_Date":"2020-01-14 10"},"coordinates":[843,5120]},{"type":"Point","properties":{"Station_ID":"MN-ML-1","Station_Nam":"ONAMIA 4.3 NW, MN","Latitude":"46.10883","Longitude":"-93.73890","Snowdepth":"9.000","Units":"in","Rept_Date":"2020-01-14 14"},"coordinates":[821,5560]},{"type":"Point","properties":{"Station_ID":"MADM5","Station_Nam":"MADISON WWTP","Latitude":"45.00230","Longitude":"-96.16610","Snowdepth":"9.000","Units":"in","Rept_Date":"2020-01-14 14"},"coordinates":[252,4685]},{"type":"Point","properties":{"Station_ID":"JIMW3","Station_Nam":"JIM FALLS 3NW","Latitude":"45.08270","Longitude":"-91.33130","Snowdepth":"9.000","Units":"in","Rept_Date":"2020-01-14 12"},"coordinates":[1386,4749]},{"type":"Point","properties":{"Station_ID":"HYTS2","Station_Nam":"HAYTI 1W","Latitude":"44.66330","Longitude":"-97.22670","Snowdepth":"9.000","Units":"in","Rept_Date":"2020-01-14 14"},"coordinates":[3,4417]},{"type":"Point","properties":{"Station_ID":"FORM5","Station_Nam":"FOREST LAKE 5NE","Latitude":"45.33170","Longitude":"-92.89820","Snowdepth":"9.000","Units":"in","Rept_Date":"2020-01-14 13"},"coordinates":[1019,4945]},{"type":"Point","properties":{"Station_ID":"ETTW3","Station_Nam":"ETTRICK 4WNW","Latitude":"44.19000","Longitude":"-91.34240","Snowdepth":"9.000","Units":"in","Rept_Date":"2020-01-14 13"},"coordinates":[1384,4043]},{"type":"Point","properties":{"Station_ID":"CBLW3","Station_Nam":"CUMBERLAND","Latitude":"45.53310","Longitude":"-92.02260","Snowdepth":"9.000","Units":"in","Rept_Date":"2020-01-14 13"},"coordinates":[1224,5105]},{"type":"Point","properties":{"Station_ID":"CAN-NS-60","Station_Nam":"SYDNEY FORKS, CAN","Latitude":"46.05645","Longitude":"-60.31510","Snowdepth":"9.000","Units":"in","Rept_Date":"2020-01-14 13"},"coordinates":[8666,5518]},{"type":"Point","properties":{"Station_ID":"BREW3","Station_Nam":"SURING","Latitude":"44.99580","Longitude":"-88.37860","Snowdepth":"9.000","Units":"in","Rept_Date":"2020-01-14 16"},"coordinates":[2079,4680]},{"type":"Point","properties":{"Station_ID":"BMRW3","Station_Nam":"BLOOMER","Latitude":"45.09070","Longitude":"-91.48640","Snowdepth":"9.000","Units":"in","Rept_Date":"2020-01-14 14"},"coordinates":[1350,4755]},{"type":"Point","properties":{"Station_ID":"BALW3","Station_Nam":"BALDWIN","Latitude":"44.96330","Longitude":"-92.39050","Snowdepth":"9.000","Units":"in","Rept_Date":"2020-01-14 13"},"coordinates":[1138,4654]},{"type":"Point","properties":{"Station_ID":"8D3","Station_Nam":"SISSETON MUNICIPAL AP","Latitude":"45.67080","Longitude":"-96.99610","Snowdepth":"9.000","Units":"in","Rept_Date":"2020-01-15 00"},"coordinates":[57,5213]},{"type":"Point","properties":{"Station_ID":"WI-SC-21","Station_Nam":"CLEAR LAKE 4.0 S, WI","Latitude":"45.19250","Longitude":"-92.27860","Snowdepth":"8.500","Units":"in","Rept_Date":"2020-01-14 14"},"coordinates":[1164,4835]},{"type":"Point","properties":{"Station_ID":"MN-RM-5","Station_Nam":"ROSEVILLE 1.4 SSE, MN","Latitude":"44.99798","Longitude":"-93.13996","Snowdepth":"8.500","Units":"in","Rept_Date":"2020-01-14 13"},"coordinates":[962,4682]},{"type":"Point","properties":{"Station_ID":"CAN-NS-103","Station_Nam":"TRAFALGAR 4.9 WSW, CAN","Latitude":"45.26217","Longitude":"-62.72285","Snowdepth":"8.500","Units":"in","Rept_Date":"2020-01-14 12"},"coordinates":[8101,4891]},{"type":"Point","properties":{"Station_ID":"WSKW3","Station_Nam":"WAUSAUKEE","Latitude":"45.38020","Longitude":"-87.95660","Snowdepth":"8.000","Units":"in","Rept_Date":"2020-01-14 14"},"coordinates":[2178,4984]},{"type":"Point","properties":{"Station_ID":"WRUM5","Station_Nam":"WARROAD 4W","Latitude":"48.89600","Longitude":"-95.40700","Snowdepth":"8.000","Units":"in","Rept_Date":"2020-01-15 04"},"coordinates":[430,7762]},{"type":"Point","properties":{"Station_ID":"WMRM5","Station_Nam":"WILLMAR 5N","Latitude":"45.19010","Longitude":"-95.05860","Snowdepth":"8.000","Units":"in","Rept_Date":"2020-01-14 12"},"coordinates":[512,4834]},{"type":"Point","properties":{"Station_ID":"WI-PT-8","Station_Nam":"RUDOLPH 2.1 NNE, WI","Latitude":"44.52553","Longitude":"-89.78677","Snowdepth":"8.000","Units":"in","Rept_Date":"2020-01-14 11"},"coordinates":[1749,4308]},{"type":"Point","properties":{"Station_ID":"STRW3","Station_Nam":"STRATFORD 1NW","Latitude":"44.81750","Longitude":"-90.08990","Snowdepth":"8.000","Units":"in","Rept_Date":"2020-01-14 12"},"coordinates":[1678,4539]},{"type":"Point","properties":{"Station_ID":"SPCW3","Station_Nam":"SPENCER-WWTP","Latitude":"44.75390","Longitude":"-90.28920","Snowdepth":"8.000","Units":"in","Rept_Date":"2020-01-14 13"},"coordinates":[1631,4489]},{"type":"Point","properties":{"Station_ID":"SD-BK-7","Station_Nam":"BROOKINGS 0.2 SSW, SD","Latitude":"44.30389","Longitude":"-96.78780","Snowdepth":"8.000","Units":"in","Rept_Date":"2020-01-14 13"},"coordinates":[106,4133]},{"type":"Point","properties":{"Station_ID":"PBAN8","Station_Nam":"SITE 1-3MI.N","Latitude":"48.97420","Longitude":"-97.23860","Snowdepth":"8.000","Units":"in","Rept_Date":"2020-01-14 13"},"coordinates":[0,7824]},{"type":"Point","properties":{"Station_ID":"NH-CS-10","Station_Nam":"RANDOLPH 1.4 NE, NH","Latitude":"44.38824","Longitude":"-71.26950","Snowdepth":"8.000","Units":"in","Rept_Date":"2020-01-14 12"},"coordinates":[6095,4200]},{"type":"Point","properties":{"Station_ID":"MRQM4","Station_Nam":"MARQUETTE WFP","Latitude":"46.54580","Longitude":"-87.37950","Snowdepth":"8.000","Units":"in","Rept_Date":"2020-01-14 13"},"coordinates":[2314,5905]},{"type":"Point","properties":{"Station_ID":"MN-SR-29","Station_Nam":"ALBANY 3.8 S, MN","Latitude":"45.57441","Longitude":"-94.55543","Snowdepth":"8.000","Units":"in","Rept_Date":"2020-01-14 13"},"coordinates":[630,5137]},{"type":"Point","properties":{"Station_ID":"MN-HN-88","Station_Nam":"GOLDEN VALLEY 0.8 WSW, MN","Latitude":"44.98461","Longitude":"-93.37440","Snowdepth":"8.000","Units":"in","Rept_Date":"2020-01-14 13"},"coordinates":[907,4671]},{"type":"Point","properties":{"Station_ID":"MN-CG-16","Station_Nam":"NORTH BRANCH 1.3 NNW, MN","Latitude":"45.53121","Longitude":"-92.97110","Snowdepth":"8.000","Units":"in","Rept_Date":"2020-01-14 12"},"coordinates":[1002,5103]},{"type":"Point","properties":{"Station_ID":"MN-AA-76","Station_Nam":"NOWTHEN 2.9 SSE, MN","Latitude":"45.30360","Longitude":"-93.42620","Snowdepth":"8.000","Units":"in","Rept_Date":"2020-01-14 14"},"coordinates":[895,4923]},{"type":"Point","properties":{"Station_ID":"MI-DL-1","Station_Nam":"GARDEN CORNERS 0.8 NW, MI","Latitude":"45.89815","Longitude":"-86.54850","Snowdepth":"8.000","Units":"in","Rept_Date":"2020-01-14 13"},"coordinates":[2509,5393]},{"type":"Point","properties":{"Station_ID":"LACN3","Station_Nam":"LACONIA","Latitude":"43.53010","Longitude":"-71.46260","Snowdepth":"8.000","Units":"in","Rept_Date":"2020-01-14 12"},"coordinates":[6049,3522]},{"type":"Point","properties":{"Station_ID":"KLKM4","Station_Nam":"KALKASKA","Latitude":"44.72800","Longitude":"-85.17270","Snowdepth":"8.000","Units":"in","Rept_Date":"2020-01-14 13"},"coordinates":[2832,4468]},{"type":"Point","properties":{"Station_ID":"KINM1","Station_Nam":"KINGFIELD","Latitude":"44.95950","Longitude":"-70.17530","Snowdepth":"8.000","Units":"in","Rept_Date":"2020-01-14 13"},"coordinates":[6352,4651]},{"type":"Point","properties":{"Station_ID":"GDCM4","Station_Nam":"GARDEN CORNERS","Latitude":"45.89830","Longitude":"-86.54850","Snowdepth":"8.000","Units":"in","Rept_Date":"2020-01-14 13"},"coordinates":[2509,5393]},{"type":"Point","properties":{"Station_ID":"FLAM4","Station_Nam":"FIFE LAKE 2WNW","Latitude":"44.58480","Longitude":"-85.36530","Snowdepth":"8.000","Units":"in","Rept_Date":"2020-01-14 12"},"coordinates":[2787,4355]},{"type":"Point","properties":{"Station_ID":"ELKM5","Station_Nam":"ELK RIVER","Latitude":"45.30470","Longitude":"-93.58420","Snowdepth":"8.000","Units":"in","Rept_Date":"2020-01-14 13"},"coordinates":[858,4924]},{"type":"Point","properties":{"Station_ID":"EAHV1","Station_Nam":"EAST HAVEN","Latitude":"44.64250","Longitude":"-71.89120","Snowdepth":"8.000","Units":"in","Rept_Date":"2020-01-14 12"},"coordinates":[5949,4401]},{"type":"Point","properties":{"Station_ID":"DFXM1","Station_Nam":"DOVER-FOXCROFT","Latitude":"45.18720","Longitude":"-69.18350","Snowdepth":"8.000","Units":"in","Rept_Date":"2020-01-14 12"},"coordinates":[6584,4831]},{"type":"Point","properties":{"Station_ID":"CORV1","Station_Nam":"CORINTH","Latitude":"44.00690","Longitude":"-72.31940","Snowdepth":"8.000","Units":"in","Rept_Date":"2020-01-14 12"},"coordinates":[5848,3899]},{"type":"Point","properties":{"Station_ID":"ASTW3","Station_Nam":"ATHELSTANE","Latitude":"45.42500","Longitude":"-88.05750","Snowdepth":"8.000","Units":"in","Rept_Date":"2020-01-14 13"},"coordinates":[2155,5019]},{"type":"Point","properties":{"Station_ID":"ABGW3","Station_Nam":"AMBERG 9 E","Latitude":"45.48250","Longitude":"-87.81190","Snowdepth":"8.000","Units":"in","Rept_Date":"2020-01-14 12"},"coordinates":[2212,5065]},{"type":"Point","properties":{"Station_ID":"CAN-PE-36","Station_Nam":"SPRING VALLEY 1.5 SE - MCPEI, CAN","Latitude":"46.48997","Longitude":"-63.61226","Snowdepth":"7.900","Units":"in","Rept_Date":"2020-01-14 11"},"coordinates":[7892,5861]},{"type":"Point","properties":{"Station_ID":"QGT","Station_Nam":"QGT","Latitude":"49.64720","Longitude":"-67.62640","Snowdepth":"7.756","Units":"in","Rept_Date":"2020-01-14 12"},"coordinates":[6950,8356]},{"type":"Point","properties":{"Station_ID":"MI-GT-25","Station_Nam":"TRAVERSE CITY 4.7 ESE, MI","Latitude":"44.73370","Longitude":"-85.51189","Snowdepth":"7.500","Units":"in","Rept_Date":"2020-01-14 12"},"coordinates":[2752,4473]},{"type":"Point","properties":{"Station_ID":"CAN-PE-3","Station_Nam":"WELLINGTON 1.6 NE, CA","Latitude":"46.46672","Longitude":"-63.98920","Snowdepth":"7.500","Units":"in","Rept_Date":"2020-01-14 11"},"coordinates":[7803,5842]},{"type":"Point","properties":{"Station_ID":"WSFW3","Station_Nam":"TOWN OF WESTFORD","Latitude":"43.47190","Longitude":"-88.88250","Snowdepth":"7.000","Units":"in","Rept_Date":"2020-01-14 13"},"coordinates":[1961,3476]},{"type":"Point","properties":{"Station_ID":"WNNM5","Station_Nam":"WINNEBAGO","Latitude":"43.76920","Longitude":"-94.18730","Snowdepth":"7.000","Units":"in","Rept_Date":"2020-01-14 14"},"coordinates":[716,3711]},{"type":"Point","properties":{"Station_ID":"WI-DN-5","Station_Nam":"ELK MOUND 1.3 NE, WI","Latitude":"44.88627","Longitude":"-91.66680","Snowdepth":"7.000","Units":"in","Rept_Date":"2020-01-14 13"},"coordinates":[1308,4593]},{"type":"Point","properties":{"Station_ID":"WHTM5","Station_Nam":"WHEATON,MN","Latitude":"45.80000","Longitude":"-96.48330","Snowdepth":"7.000","Units":"in","Rept_Date":"2020-01-14 14"},"coordinates":[177,5316]},{"type":"Point","properties":{"Station_ID":"WACI4","Station_Nam":"WAUCOMA 1WNW","Latitude":"43.06030","Longitude":"-92.04890","Snowdepth":"7.000","Units":"in","Rept_Date":"2020-01-14 13"},"coordinates":[1218,3151]},{"type":"Point","properties":{"Station_ID":"UMNM5","Station_Nam":"UNIVERSITY OF MN ST. PAUL","Latitude":"44.99020","Longitude":"-93.17990","Snowdepth":"7.000","Units":"in","Rept_Date":"2020-01-14 14"},"coordinates":[953,4676]},{"type":"Point","properties":{"Station_ID":"TOPM1","Station_Nam":"TOPSFIELD","Latitude":"45.43470","Longitude":"-67.72020","Snowdepth":"7.000","Units":"in","Rept_Date":"2020-01-14 12"},"coordinates":[6928,5027]},{"type":"Point","properties":{"Station_ID":"TCEM4","Station_Nam":"TRAVERSE CITY 5ESE","Latitude":"44.73370","Longitude":"-85.51180","Snowdepth":"7.000","Units":"in","Rept_Date":"2020-01-14 12"},"coordinates":[2752,4473]},{"type":"Point","properties":{"Station_ID":"STC","Station_Nam":"ST. CLOUD REGIONAL AIRPORT","Latitude":"45.54330","Longitude":"-94.05140","Snowdepth":"7.000","Units":"in","Rept_Date":"2020-01-15 00"},"coordinates":[748,5113]},{"type":"Point","properties":{"Station_ID":"SD-MH-8","Station_Nam":"HARTFORD 6.4 S, SD","Latitude":"43.53128","Longitude":"-96.95020","Snowdepth":"7.000","Units":"in","Rept_Date":"2020-01-14 14"},"coordinates":[68,3523]},{"type":"Point","properties":{"Station_ID":"SCSM5","Station_Nam":"ST CLOUD STATE","Latitude":"45.55100","Longitude":"-94.14950","Snowdepth":"7.000","Units":"in","Rept_Date":"2020-01-14 13"},"coordinates":[725,5119]},{"type":"Point","properties":{"Station_ID":"RFDM5","Station_Nam":"ROCKFORD","Latitude":"45.08960","Longitude":"-93.73990","Snowdepth":"7.000","Units":"in","Rept_Date":"2020-01-14 13"},"coordinates":[821,4754]},{"type":"Point","properties":{"Station_ID":"MRAM4","Station_Nam":"MORAN","Latitude":"45.99030","Longitude":"-84.83610","Snowdepth":"7.000","Units":"in","Rept_Date":"2020-01-14 13"},"coordinates":[2911,5466]},{"type":"Point","properties":{"Station_ID":"MNG0GYSN","Station_Nam":"LONSDALE 1.1 SSW","Latitude":"44.46445","Longitude":"-93.43293","Snowdepth":"7.000","Units":"in","Rept_Date":"2020-01-14 12"},"coordinates":[893,4260]},{"type":"Point","properties":{"Station_ID":"MN228YHJ","Station_Nam":"RICE 2.8 ESE","Latitude":"45.73609","Longitude":"-94.17230","Snowdepth":"7.000","Units":"in","Rept_Date":"2020-01-14 13"},"coordinates":[720,5265]},{"type":"Point","properties":{"Station_ID":"MN-RM-2","Station_Nam":"NORTH SAINT PAUL 1.0 NNW, MN","Latitude":"45.02629","Longitude":"-93.00790","Snowdepth":"7.000","Units":"in","Rept_Date":"2020-01-14 13"},"coordinates":[993,4704]},{"type":"Point","properties":{"Station_ID":"MN-HN-6","Station_Nam":"LONG LAKE 0.2 WSW, MN","Latitude":"44.98290","Longitude":"-93.57360","Snowdepth":"7.000","Units":"in","Rept_Date":"2020-01-14 16"},"coordinates":[860,4670]},{"type":"Point","properties":{"Station_ID":"MN-CV-40","Station_Nam":"EXCELSIOR 0.8 S, MN","Latitude":"44.88996","Longitude":"-93.56646","Snowdepth":"7.000","Units":"in","Rept_Date":"2020-01-14 13"},"coordinates":[862,4596]},{"type":"Point","properties":{"Station_ID":"MIAM5","Station_Nam":"MILAN 1NW","Latitude":"45.12190","Longitude":"-95.92690","Snowdepth":"7.000","Units":"in","Rept_Date":"2020-01-15 00"},"coordinates":[308,4780]},{"type":"Point","properties":{"Station_ID":"MI-GT-21","Station_Nam":"KINGSLEY 2.7 ENE, MI","Latitude":"44.59871","Longitude":"-85.48426","Snowdepth":"7.000","Units":"in","Rept_Date":"2020-01-14 13"},"coordinates":[2759,4366]},{"type":"Point","properties":{"Station_ID":"MFDW3","Station_Nam":"MARSHFIELD EXP FARM","Latitude":"44.64110","Longitude":"-90.13330","Snowdepth":"7.000","Units":"in","Rept_Date":"2020-01-14 13"},"coordinates":[1668,4400]},{"type":"Point","properties":{"Station_ID":"LNCM1","Station_Nam":"LINCOLN WATER DISTRICT","Latitude":"45.32410","Longitude":"-68.58300","Snowdepth":"7.000","Units":"in","Rept_Date":"2020-01-14 12"},"coordinates":[6725,4939]},{"type":"Point","properties":{"Station_ID":"LKFM5","Station_Nam":"LAKEFIELD,MN","Latitude":"43.68330","Longitude":"-95.18330","Snowdepth":"7.000","Units":"in","Rept_Date":"2020-01-14 13"},"coordinates":[482,3643]},{"type":"Point","properties":{"Station_ID":"LAMM5","Station_Nam":"LAMBERTON SW RESEARCH AND OUTREACH CENTER","Latitude":"44.23950","Longitude":"-95.31520","Snowdepth":"7.000","Units":"in","Rept_Date":"2020-01-14 14"},"coordinates":[451,4082]},{"type":"Point","properties":{"Station_ID":"KIMM5","Station_Nam":"KIMBALL 3N","Latitude":"45.35330","Longitude":"-94.30560","Snowdepth":"7.000","Units":"in","Rept_Date":"2020-01-14 12"},"coordinates":[688,4963]},{"type":"Point","properties":{"Station_ID":"HUBN3","Station_Nam":"HUBBARD BROOK","Latitude":"43.93330","Longitude":"-71.71670","Snowdepth":"7.000","Units":"in","Rept_Date":"2020-01-14 20"},"coordinates":[5990,3840]},{"type":"Point","properties":{"Station_ID":"ENFV1","Station_Nam":"ENOSBURG FALLS 2","Latitude":"44.90960","Longitude":"-72.81370","Snowdepth":"7.000","Units":"in","Rept_Date":"2020-01-14 10"},"coordinates":[5732,4612]},{"type":"Point","properties":{"Station_ID":"ELWW3","Station_Nam":"ELLSWORTH 1E","Latitude":"44.73030","Longitude":"-92.45860","Snowdepth":"7.000","Units":"in","Rept_Date":"2020-01-14 13"},"coordinates":[1122,4470]},{"type":"Point","properties":{"Station_ID":"BRAM1","Station_Nam":"BRASSUA DAM","Latitude":"45.66020","Longitude":"-69.81190","Snowdepth":"7.000","Units":"in","Rept_Date":"2020-01-14 12"},"coordinates":[6437,5205]},{"type":"Point","properties":{"Station_ID":"AMDW3","Station_Nam":"ALMOND-5 NE","Latitude":"44.30830","Longitude":"-89.34640","Snowdepth":"7.000","Units":"in","Rept_Date":"2020-01-14 14"},"coordinates":[1852,4137]},{"type":"Point","properties":{"Station_ID":"CAN-NS-163","Station_Nam":"SYDNEY MINES 2.2 WNW, CAN","Latitude":"46.24851","Longitude":"-60.25161","Snowdepth":"6.700","Units":"in","Rept_Date":"2020-01-14 12"},"coordinates":[8681,5670]},{"type":"Point","properties":{"Station_ID":"MN-HN-19","Station_Nam":"EDINA 1.3 SW, MN","Latitude":"44.87830","Longitude":"-93.37890","Snowdepth":"6.600","Units":"in","Rept_Date":"2020-01-14 14"},"coordinates":[906,4587]},{"type":"Point","properties":{"Station_ID":"WI-WD-2","Station_Nam":"WISCONSIN RAPIDS 4.6 SSE, WI","Latitude":"44.33823","Longitude":"-89.78200","Snowdepth":"6.500","Units":"in","Rept_Date":"2020-01-14 13"},"coordinates":[1750,4160]},{"type":"Point","properties":{"Station_ID":"VT-WS-15","Station_Nam":"EAST CALAIS 1.5 SW, VT","Latitude":"44.35523","Longitude":"-72.45540","Snowdepth":"6.500","Units":"in","Rept_Date":"2020-01-14 12"},"coordinates":[5816,4174]},{"type":"Point","properties":{"Station_ID":"VT-OL-12","Station_Nam":"GREENSBORO 3.9 NNE, VT","Latitude":"44.63100","Longitude":"-72.28000","Snowdepth":"6.500","Units":"in","Rept_Date":"2020-01-14 12"},"coordinates":[5858,4392]},{"type":"Point","properties":{"Station_ID":"VT-OG-11","Station_Nam":"VERSHIRE 1.5 ESE, VT","Latitude":"43.96138","Longitude":"-72.29777","Snowdepth":"6.500","Units":"in","Rept_Date":"2020-01-14 13"},"coordinates":[5853,3863]},{"type":"Point","properties":{"Station_ID":"VT-CL-18","Station_Nam":"WHEELOCK 1.6 S, VT","Latitude":"44.56491","Longitude":"-72.08830","Snowdepth":"6.500","Units":"in","Rept_Date":"2020-01-14 12"},"coordinates":[5903,4340]},{"type":"Point","properties":{"Station_ID":"MN-WR-40","Station_Nam":"CLEARWATER 5.4 SSE, MN","Latitude":"45.34795","Longitude":"-94.03374","Snowdepth":"6.500","Units":"in","Rept_Date":"2020-01-14 14"},"coordinates":[752,4958]},{"type":"Point","properties":{"Station_ID":"MN-RM-99","Station_Nam":"ROSEVILLE 0.7 SSE, MN","Latitude":"45.00583","Longitude":"-93.15040","Snowdepth":"6.500","Units":"in","Rept_Date":"2020-01-14 13"},"coordinates":[959,4688]},{"type":"Point","properties":{"Station_ID":"MN-MC-16","Station_Nam":"HUTCHINSON 0.1 ENE, MN","Latitude":"44.88633","Longitude":"-94.37503","Snowdepth":"6.500","Units":"in","Rept_Date":"2020-01-14 13"},"coordinates":[672,4594]},{"type":"Point","properties":{"Station_ID":"MN-DK-70","Station_Nam":"EAGAN 2.0 NNW, MN","Latitude":"44.84322","Longitude":"-93.17899","Snowdepth":"6.500","Units":"in","Rept_Date":"2020-01-14 15"},"coordinates":[953,4559]},{"type":"Point","properties":{"Station_ID":"MN-AA-56","Station_Nam":"BLAINE 2.2 NNW, MN","Latitude":"45.19838","Longitude":"-93.22812","Snowdepth":"6.500","Units":"in","Rept_Date":"2020-01-14 13"},"coordinates":[941,4840]},{"type":"Point","properties":{"Station_ID":"CAN-PE-10","Station_Nam":"NEW LONDON 1.6 ENE, CA","Latitude":"46.46985","Longitude":"-63.49200","Snowdepth":"6.500","Units":"in","Rept_Date":"2020-01-14 12"},"coordinates":[7920,5845]},{"type":"Point","properties":{"Station_ID":"CAN-NB-64","Station_Nam":"KESWICK RIDGE 4.0 SE, CAN","Latitude":"45.97014","Longitude":"-66.85538","Snowdepth":"6.100","Units":"in","Rept_Date":"2020-01-14 12"},"coordinates":[7131,5450]},{"type":"Point","properties":{"Station_ID":"WRNM5","Station_Nam":"WORTHINGTON,MN","Latitude":"43.65440","Longitude":"-95.57920","Snowdepth":"6.000","Units":"in","Rept_Date":"2020-01-14 13"},"coordinates":[389,3620]},{"type":"Point","properties":{"Station_ID":"WI-PK-4","Station_Nam":"DRESSER 6.1 ESE, WI","Latitude":"45.32436","Longitude":"-92.52080","Snowdepth":"6.000","Units":"in","Rept_Date":"2020-01-14 14"},"coordinates":[1107,4940]},{"type":"Point","properties":{"Station_ID":"WI-PC-25","Station_Nam":"ELLSWORTH 2.6 SW, WI","Latitude":"44.71119","Longitude":"-92.51849","Snowdepth":"6.000","Units":"in","Rept_Date":"2020-01-14 13"},"coordinates":[1108,4455]},{"type":"Point","properties":{"Station_ID":"WI-IW-7","Station_Nam":"DODGEVILLE 2.7 NE, WI","Latitude":"42.99414","Longitude":"-90.09488","Snowdepth":"6.000","Units":"in","Rept_Date":"2020-01-14 13"},"coordinates":[1677,3098]},{"type":"Point","properties":{"Station_ID":"WACM5","Station_Nam":"WACONIA","Latitude":"44.85330","Longitude":"-93.80260","Snowdepth":"6.000","Units":"in","Rept_Date":"2020-01-14 12"},"coordinates":[806,4567]},{"type":"Point","properties":{"Station_ID":"THLM5","Station_Nam":"THEILMAN 1SSW","Latitude":"44.28130","Longitude":"-92.19430","Snowdepth":"6.000","Units":"in","Rept_Date":"2020-01-14 13"},"coordinates":[1184,4115]},{"type":"Point","properties":{"Station_ID":"STPW3","Station_Nam":"STEVENS POINT","Latitude":"44.51130","Longitude":"-89.58550","Snowdepth":"6.000","Units":"in","Rept_Date":"2020-01-14 13"},"coordinates":[1796,4297]},{"type":"Point","properties":{"Station_ID":"SNBI4","Station_Nam":"SANBORN,IA","Latitude":"43.18170","Longitude":"-95.66030","Snowdepth":"6.000","Units":"in","Rept_Date":"2020-01-14 14"},"coordinates":[370,3247]},{"type":"Point","properties":{"Station_ID":"RKWM1","Station_Nam":"MOOSEHEAD LAKE","Latitude":"45.58330","Longitude":"-69.71670","Snowdepth":"6.000","Units":"in","Rept_Date":"2020-01-14 12"},"coordinates":[6459,5144]},{"type":"Point","properties":{"Station_ID":"PIPM5","Station_Nam":"PIPESTONE,MN","Latitude":"44.01390","Longitude":"-96.32580","Snowdepth":"6.000","Units":"in","Rept_Date":"2020-01-14 14"},"coordinates":[214,3904]},{"type":"Point","properties":{"Station_ID":"OSAI4","Station_Nam":"OSAGE","Latitude":"43.27940","Longitude":"-92.81060","Snowdepth":"6.000","Units":"in","Rept_Date":"2020-01-14 13"},"coordinates":[1039,3324]},{"type":"Point","properties":{"Station_ID":"ORCI4","Station_Nam":"ORANGE CITY","Latitude":"43.00080","Longitude":"-96.05390","Snowdepth":"6.000","Units":"in","Rept_Date":"2020-01-14 13"},"coordinates":[278,3104]},{"type":"Point","properties":{"Station_ID":"ONAM4","Station_Nam":"ONAWAY 4N","Latitude":"45.41080","Longitude":"-84.22330","Snowdepth":"6.000","Units":"in","Rept_Date":"2020-01-14 23"},"coordinates":[3055,5008]},{"type":"Point","properties":{"Station_ID":"MTQM4","Station_Nam":"MANISTIQUE WWTP","Latitude":"45.95120","Longitude":"-86.25130","Snowdepth":"6.000","Units":"in","Rept_Date":"2020-01-14 12"},"coordinates":[2579,5435]},{"type":"Point","properties":{"Station_ID":"MPXM5","Station_Nam":"CHANHASSEN WSFO","Latitude":"44.84960","Longitude":"-93.56440","Snowdepth":"6.000","Units":"in","Rept_Date":"2020-01-15 06"},"coordinates":[862,4564]},{"type":"Point","properties":{"Station_ID":"MN0HS1SL","Station_Nam":"NORTH SAINT PAUL 1.6 NW","Latitude":"45.02800","Longitude":"-93.01506","Snowdepth":"6.000","Units":"in","Rept_Date":"2020-01-14 13"},"coordinates":[991,4705]},{"type":"Point","properties":{"Station_ID":"MN-WR-25","Station_Nam":"SAINT MICHAEL 2.0 ENE, MN","Latitude":"45.20820","Longitude":"-93.65280","Snowdepth":"6.000","Units":"in","Rept_Date":"2020-01-14 12"},"coordinates":[842,4848]},{"type":"Point","properties":{"Station_ID":"MN-WG-74","Station_Nam":"OAKDALE 0.4 S, MN","Latitude":"44.98208","Longitude":"-92.96510","Snowdepth":"6.000","Units":"in","Rept_Date":"2020-01-14 13"},"coordinates":[1003,4669]},{"type":"Point","properties":{"Station_ID":"MN-SL-139","Station_Nam":"DULUTH 1.2 SE, MN","Latitude":"46.77000","Longitude":"-92.08826","Snowdepth":"6.000","Units":"in","Rept_Date":"2020-01-14 12"},"coordinates":[1209,6082]},{"type":"Point","properties":{"Station_ID":"MN-SC-2","Station_Nam":"PRIOR LAKE 2.0 W, MN","Latitude":"44.71250","Longitude":"-93.46360","Snowdepth":"6.000","Units":"in","Rept_Date":"2020-01-14 12"},"coordinates":[886,4456]},{"type":"Point","properties":{"Station_ID":"MN-RM-63","Station_Nam":"NORTH SAINT PAUL 1.0 NW, MN","Latitude":"45.02410","Longitude":"-93.01400","Snowdepth":"6.000","Units":"in","Rept_Date":"2020-01-14 13"},"coordinates":[991,4702]},{"type":"Point","properties":{"Station_ID":"MN-RC-1","Station_Nam":"MONTGOMERY 3.2 ENE, MN","Latitude":"44.46400","Longitude":"-93.51980","Snowdepth":"6.000","Units":"in","Rept_Date":"2020-01-14 11"},"coordinates":[873,4260]},{"type":"Point","properties":{"Station_ID":"MN-HN-110","Station_Nam":"EDINA 1.9 SSE, MN","Latitude":"44.86875","Longitude":"-93.33940","Snowdepth":"6.000","Units":"in","Rept_Date":"2020-01-14 13"},"coordinates":[915,4580]},{"type":"Point","properties":{"Station_ID":"MI-CP-7","Station_Nam":"DRUMMOND 2.9 NE, MI","Latitude":"46.05329","Longitude":"-83.69060","Snowdepth":"6.000","Units":"in","Rept_Date":"2020-01-14 14"},"coordinates":[3180,5516]},{"type":"Point","properties":{"Station_ID":"MI-CF-9","Station_Nam":"GRAYLING 15.8 NE, MI","Latitude":"44.80464","Longitude":"-84.46313","Snowdepth":"6.000","Units":"in","Rept_Date":"2020-01-14 11"},"coordinates":[2998,4529]},{"type":"Point","properties":{"Station_ID":"MEMW3","Station_Nam":"MENOMONIE","Latitude":"44.87430","Longitude":"-91.93640","Snowdepth":"6.000","Units":"in","Rept_Date":"2020-01-14 13"},"coordinates":[1244,4584]},{"type":"Point","properties":{"Station_ID":"ME-FR-4","Station_Nam":"NEW SHARON 2.0 NW, ME","Latitude":"44.66582","Longitude":"-70.02720","Snowdepth":"6.000","Units":"in","Rept_Date":"2020-01-14 12"},"coordinates":[6386,4419]},{"type":"Point","properties":{"Station_ID":"IA-CW-3","Station_Nam":"NEW HAMPTON 0.3 NNW, IA","Latitude":"43.06428","Longitude":"-92.31595","Snowdepth":"6.000","Units":"in","Rept_Date":"2020-01-14 13"},"coordinates":[1155,3154]},{"type":"Point","properties":{"Station_ID":"EVYI4","Station_Nam":"EVERLY,IA","Latitude":"43.18330","Longitude":"-95.36670","Snowdepth":"6.000","Units":"in","Rept_Date":"2020-01-14 13"},"coordinates":[439,3248]},{"type":"Point","properties":{"Station_ID":"ESGM1","Station_Nam":"EAST SANGERVILLE","Latitude":"45.13690","Longitude":"-69.28060","Snowdepth":"6.000","Units":"in","Rept_Date":"2020-01-14 12"},"coordinates":[6562,4792]},{"type":"Point","properties":{"Station_ID":"EJDM4","Station_Nam":"EAST JORDAN","Latitude":"45.15190","Longitude":"-85.13220","Snowdepth":"6.000","Units":"in","Rept_Date":"2020-01-14 13"},"coordinates":[2841,4803]},{"type":"Point","properties":{"Station_ID":"CAN-ON-118","Station_Nam":"DURHAM 1.4 S, CAN","Latitude":"44.16525","Longitude":"-80.82064","Snowdepth":"6.000","Units":"in","Rept_Date":"2020-01-14 12"},"coordinates":[3853,4024]},{"type":"Point","properties":{"Station_ID":"AVLV1","Station_Nam":"AVERILL","Latitude":"45.00570","Longitude":"-71.69030","Snowdepth":"6.000","Units":"in","Rept_Date":"2020-01-14 13"},"coordinates":[5996,4688]},{"type":"Point","properties":{"Station_ID":"ALGI4","Station_Nam":"ALGONA,IA","Latitude":"43.06670","Longitude":"-94.30610","Snowdepth":"6.000","Units":"in","Rept_Date":"2020-01-14 13"},"coordinates":[688,3156]},{"type":"Point","properties":{"Station_ID":"MN-MK-12","Station_Nam":"WATKINS 3.2 WSW, MN","Latitude":"45.30107","Longitude":"-94.47460","Snowdepth":"5.700","Units":"in","Rept_Date":"2020-01-14 15"},"coordinates":[649,4921]},{"type":"Point","properties":{"Station_ID":"VT-OL-9","Station_Nam":"GREENSBORO 2.1 NNW, VT","Latitude":"44.60528","Longitude":"-72.30940","Snowdepth":"5.500","Units":"in","Rept_Date":"2020-01-14 12"},"coordinates":[5851,4371]},{"type":"Point","properties":{"Station_ID":"NH-GR-49","Station_Nam":"PLYMOUTH 3.7 N, NH","Latitude":"43.79048","Longitude":"-71.68413","Snowdepth":"5.500","Units":"in","Rept_Date":"2020-01-14 12"},"coordinates":[5997,3728]},{"type":"Point","properties":{"Station_ID":"MN-HN-30","Station_Nam":"PLYMOUTH 2.4 ENE, MN","Latitude":"45.04063","Longitude":"-93.41950","Snowdepth":"5.500","Units":"in","Rept_Date":"2020-01-14 13"},"coordinates":[896,4715]},{"type":"Point","properties":{"Station_ID":"MN-GH-3","Station_Nam":"LAKE CITY 1.2 NNW, MN","Latitude":"44.45597","Longitude":"-92.29070","Snowdepth":"5.500","Units":"in","Rept_Date":"2020-01-14 13"},"coordinates":[1161,4253]},{"type":"Point","properties":{"Station_ID":"MN-DK-73","Station_Nam":"LAKEVILLE 2.6 NNE, MN","Latitude":"44.71250","Longitude":"-93.23043","Snowdepth":"5.500","Units":"in","Rept_Date":"2020-01-14 13"},"coordinates":[941,4456]},{"type":"Point","properties":{"Station_ID":"MI-BZ-1","Station_Nam":"BENZONIA 5.3 S, MI","Latitude":"44.53976","Longitude":"-86.10650","Snowdepth":"5.500","Units":"in","Rept_Date":"2020-01-14 14"},"coordinates":[2613,4320]},{"type":"Point","properties":{"Station_ID":"IA-KS-4","Station_Nam":"ALGONA 0.7 SE, IA","Latitude":"43.06627","Longitude":"-94.22214","Snowdepth":"5.500","Units":"in","Rept_Date":"2020-01-14 13"},"coordinates":[708,3155]},{"type":"Point","properties":{"Station_ID":"WI-BN-6","Station_Nam":"SUAMICO 4.4 WNW, WI","Latitude":"44.66111","Longitude":"-88.11780","Snowdepth":"5.300","Units":"in","Rept_Date":"2020-01-14 13"},"coordinates":[2141,4416]},{"type":"Point","properties":{"Station_ID":"MN-FM-10","Station_Nam":"WYKOFF 3.1 NW, MN","Latitude":"43.74340","Longitude":"-92.30650","Snowdepth":"5.200","Units":"in","Rept_Date":"2020-01-14 13"},"coordinates":[1158,3690]},{"type":"Point","properties":{"Station_ID":"WRNW3","Station_Nam":"WARRENS 4WSW","Latitude":"44.10390","Longitude":"-90.58870","Snowdepth":"5.000","Units":"in","Rept_Date":"2020-01-14 13"},"coordinates":[1561,3975]},{"type":"Point","properties":{"Station_ID":"WLNM4","Station_Nam":"WELLSTON 1N","Latitude":"44.22940","Longitude":"-85.95690","Snowdepth":"5.000","Units":"in","Rept_Date":"2020-01-14 12"},"coordinates":[2648,4074]},{"type":"Point","properties":{"Station_ID":"WIRW3","Station_Nam":"WIS RAPIDS GRAND AV B","Latitude":"44.39940","Longitude":"-89.83050","Snowdepth":"5.000","Units":"in","Rept_Date":"2020-01-14 13"},"coordinates":[1739,4209]},{"type":"Point","properties":{"Station_ID":"WIPW3","Station_Nam":"WISCONSIN RAPIDS-SOUTHEAST","Latitude":"44.38190","Longitude":"-89.80470","Snowdepth":"5.000","Units":"in","Rept_Date":"2020-01-14 12"},"coordinates":[1745,4195]},{"type":"Point","properties":{"Station_ID":"WI-PC-5","Station_Nam":"RIVER FALLS 1.2 SSW, WI","Latitude":"44.84032","Longitude":"-92.63500","Snowdepth":"5.000","Units":"in","Rept_Date":"2020-01-14 13"},"coordinates":[1080,4557]},{"type":"Point","properties":{"Station_ID":"WI-MC-4","Station_Nam":"TWO RIVERS 1.4 N, WI","Latitude":"44.17617","Longitude":"-87.58330","Snowdepth":"5.000","Units":"in","Rept_Date":"2020-01-14 11"},"coordinates":[2266,4032]},{"type":"Point","properties":{"Station_ID":"WI-DD-5","Station_Nam":"THERESA 3.1 SE, WI","Latitude":"43.49201","Longitude":"-88.40165","Snowdepth":"5.000","Units":"in","Rept_Date":"2020-01-14 14"},"coordinates":[2074,3492]},{"type":"Point","properties":{"Station_ID":"WELM5","Station_Nam":"WELLS","Latitude":"43.74680","Longitude":"-93.73680","Snowdepth":"5.000","Units":"in","Rept_Date":"2020-01-14 14"},"coordinates":[822,3693]},{"type":"Point","properties":{"Station_ID":"WABM5","Station_Nam":"WABASHA","Latitude":"44.38500","Longitude":"-92.04860","Snowdepth":"5.000","Units":"in","Rept_Date":"2020-01-14 13"},"coordinates":[1218,4197]},{"type":"Point","properties":{"Station_ID":"VT-WR-2","Station_Nam":"POMFRET 2.6 N, VT","Latitude":"43.74230","Longitude":"-72.52550","Snowdepth":"5.000","Units":"in","Rept_Date":"2020-01-14 12"},"coordinates":[5800,3689]},{"type":"Point","properties":{"Station_ID":"VQAW3","Station_Nam":"VIROQUA","Latitude":"43.55970","Longitude":"-90.87560","Snowdepth":"5.000","Units":"in","Rept_Date":"2020-01-14 13"},"coordinates":[1493,3545]},{"type":"Point","properties":{"Station_ID":"TCYM5","Station_Nam":"TRACY,MN","Latitude":"44.23330","Longitude":"-95.61670","Snowdepth":"5.000","Units":"in","Rept_Date":"2020-01-14 14"},"coordinates":[381,4077]},{"type":"Point","properties":{"Station_ID":"TCMM4","Station_Nam":"TRAVERSE CITY MUNSON","Latitude":"44.76070","Longitude":"-85.64430","Snowdepth":"5.000","Units":"in","Rept_Date":"2020-01-14 11"},"coordinates":[2721,4494]},{"type":"Point","properties":{"Station_ID":"SD-MH-41","Station_Nam":"SIOUX FALLS 3.9 SW, SD","Latitude":"43.50475","Longitude":"-96.78660","Snowdepth":"5.000","Units":"in","Rept_Date":"2020-01-14 13"},"coordinates":[106,3502]},{"type":"Point","properties":{"Station_ID":"SCRW3","Station_Nam":"ST CROIX FALLS","Latitude":"45.41170","Longitude":"-92.64660","Snowdepth":"5.000","Units":"in","Rept_Date":"2020-01-14 13"},"coordinates":[1078,5009]},{"type":"Point","properties":{"Station_ID":"SANI4","Station_Nam":"ST ANSGAR","Latitude":"43.38170","Longitude":"-92.92320","Snowdepth":"5.000","Units":"in","Rept_Date":"2020-01-14 12"},"coordinates":[1013,3405]},{"type":"Point","properties":{"Station_ID":"RSMM5","Station_Nam":"ROSEMOUNT RESEARCH AND OUTREACH CENTER","Latitude":"44.71660","Longitude":"-93.09800","Snowdepth":"5.000","Units":"in","Rept_Date":"2020-01-14 14"},"coordinates":[972,4459]},{"type":"Point","properties":{"Station_ID":"RGNM1","Station_Nam":"RANGELEY 2NW","Latitude":"44.98940","Longitude":"-70.67220","Snowdepth":"5.000","Units":"in","Rept_Date":"2020-01-14 11"},"coordinates":[6235,4675]},{"type":"Point","properties":{"Station_ID":"PTNM5","Station_Nam":"PRESTON","Latitude":"43.67250","Longitude":"-92.07470","Snowdepth":"5.000","Units":"in","Rept_Date":"2020-01-14 14"},"coordinates":[1212,3634]},{"type":"Point","properties":{"Station_ID":"NUMN3","Station_Nam":"NORTHUMBERLAND","Latitude":"44.52830","Longitude":"-71.50440","Snowdepth":"5.000","Units":"in","Rept_Date":"2020-01-14 13"},"coordinates":[6040,4311]},{"type":"Point","properties":{"Station_ID":"NUMM5","Station_Nam":"NEW ULM 3SE","Latitude":"44.29450","Longitude":"-94.40840","Snowdepth":"5.000","Units":"in","Rept_Date":"2020-01-14 11"},"coordinates":[664,4126]},{"type":"Point","properties":{"Station_ID":"MSP","Station_Nam":"MINNEAPOLIS-ST PAUL INTL AP","Latitude":"44.88310","Longitude":"-93.22890","Snowdepth":"5.000","Units":"in","Rept_Date":"2020-01-15 00"},"coordinates":[941,4591]},{"type":"Point","properties":{"Station_ID":"MRRM5","Station_Nam":"MORRIS WC EXP STA","Latitude":"45.59010","Longitude":"-95.87450","Snowdepth":"5.000","Units":"in","Rept_Date":"2020-01-14 14"},"coordinates":[320,5150]},{"type":"Point","properties":{"Station_ID":"MRFS2","Station_Nam":"MADISON,SD","Latitude":"44.00000","Longitude":"-97.23330","Snowdepth":"5.000","Units":"in","Rept_Date":"2020-01-14 15"},"coordinates":[1,3893]},{"type":"Point","properties":{"Station_ID":"MRBW3","Station_Nam":"MT HOREB","Latitude":"42.98030","Longitude":"-89.73940","Snowdepth":"5.000","Units":"in","Rept_Date":"2020-01-14 13"},"coordinates":[1760,3087]},{"type":"Point","properties":{"Station_ID":"MNE9SLWI","Station_Nam":"LEAVENWORTH 5.4 S","Latitude":"44.14481","Longitude":"-94.78882","Snowdepth":"5.000","Units":"in","Rept_Date":"2020-01-14 13"},"coordinates":[575,4008]},{"type":"Point","properties":{"Station_ID":"MN-SR-32","Station_Nam":"SAINT CLOUD 2.2 NW, MN","Latitude":"45.57548","Longitude":"-94.17583","Snowdepth":"5.000","Units":"in","Rept_Date":"2020-01-14 13"},"coordinates":[719,5138]},{"type":"Point","properties":{"Station_ID":"MN-HS-4","Station_Nam":"CALEDONIA 5.4 S, MN","Latitude":"43.55696","Longitude":"-91.51300","Snowdepth":"5.000","Units":"in","Rept_Date":"2020-01-14 14"},"coordinates":[1344,3543]},{"type":"Point","properties":{"Station_ID":"MN-HN-31","Station_Nam":"MAPLE GROVE 1.0 NNE, MN","Latitude":"45.12261","Longitude":"-93.45790","Snowdepth":"5.000","Units":"in","Rept_Date":"2020-01-14 16"},"coordinates":[887,4780]},{"type":"Point","properties":{"Station_ID":"MN-BW-8","Station_Nam":"COMFREY 6.5 ENE, MN","Latitude":"44.15109","Longitude":"-94.78516","Snowdepth":"5.000","Units":"in","Rept_Date":"2020-01-14 14"},"coordinates":[576,4013]},{"type":"Point","properties":{"Station_ID":"MLRM5","Station_Nam":"MELROSE","Latitude":"45.67710","Longitude":"-94.80200","Snowdepth":"5.000","Units":"in","Rept_Date":"2020-01-14 13"},"coordinates":[572,5218]},{"type":"Point","properties":{"Station_ID":"ME-CM-86","Station_Nam":"POWNAL 4.1 S, ME","Latitude":"43.85370","Longitude":"-70.17210","Snowdepth":"5.000","Units":"in","Rept_Date":"2020-01-14 12"},"coordinates":[6352,3778]},{"type":"Point","properties":{"Station_ID":"MABM5","Station_Nam":"MABEL","Latitude":"43.52410","Longitude":"-91.76160","Snowdepth":"5.000","Units":"in","Rept_Date":"2020-01-14 13"},"coordinates":[1285,3517]},{"type":"Point","properties":{"Station_ID":"LNKM1","Station_Nam":"LINCOLN SANITARY DISTRICT/WTP","Latitude":"45.37520","Longitude":"-68.50820","Snowdepth":"5.000","Units":"in","Rept_Date":"2020-01-14 12"},"coordinates":[6743,4980]},{"type":"Point","properties":{"Station_ID":"LMLI4","Station_Nam":"LAKE MILLS,IA","Latitude":"43.40000","Longitude":"-93.53330","Snowdepth":"5.000","Units":"in","Rept_Date":"2020-01-14 13"},"coordinates":[870,3419]},{"type":"Point","properties":{"Station_ID":"KTVC","Station_Nam":"CHERRY CAPITAL AIRPORT","Latitude":"44.73333","Longitude":"-85.56666","Snowdepth":"5.000","Units":"in","Rept_Date":"2020-01-14 18"},"coordinates":[2739,4473]},{"type":"Point","properties":{"Station_ID":"KSEM4","Station_Nam":"KALKASKA 11SE","Latitude":"44.58970","Longitude":"-85.04860","Snowdepth":"5.000","Units":"in","Rept_Date":"2020-01-14 13"},"coordinates":[2861,4359]},