{"type":"Topology","objects":{"snowdepth_geo":{"type":"GeometryCollection","name":"snowdepth","crs":{"type":"name","properties":{"name":"urn:ogc:def:crs:OGC:1.3:CRS84"}},"geometries":[{"type":"Point","properties":{"Station_ID":"PRKM4","Station_Nam":"MUNISING EAST","Latitude":"46.42580","Longitude":"-86.62000","Snowdepth":"76.500","Units":"in","Rept_Date":"2020-12-04 06"},"coordinates":[3502,7371]},{"type":"Point","properties":{"Station_ID":"CHRO1","Station_Nam":"CHARDON,OH","Latitude":"41.58330","Longitude":"-81.18330","Snowdepth":"15.000","Units":"in","Rept_Date":"2020-12-03 13"},"coordinates":[5294,4971]},{"type":"Point","properties":{"Station_ID":"QOU","Station_Nam":"QOU","Latitude":"50.79250","Longitude":"-69.67470","Snowdepth":"14.094","Units":"in","Rept_Date":"2020-12-03 12"},"coordinates":[9088,9536]},{"type":"Point","properties":{"Station_ID":"OH-GG-11","Station_Nam":"MADISON 4.2 S, OH","Latitude":"41.71238","Longitude":"-81.03871","Snowdepth":"14.000","Units":"in","Rept_Date":"2020-12-03 12"},"coordinates":[5342,5035]},{"type":"Point","properties":{"Station_ID":"41.7124_081.0387","Station_Nam":"4 S Madison  CoCoRaHS (OH-GG-11)","Latitude":"41.71240","Longitude":"-81.03870","Snowdepth":"14.000","Units":"in","Rept_Date":"2020-12-03 12"},"coordinates":[5342,5035]},{"type":"Point","properties":{"Station_ID":"OH-CY-54","Station_Nam":"SEVEN HILLS 0.6 NNE, OH","Latitude":"41.38811","Longitude":"-81.67098","Snowdepth":"13.000","Units":"in","Rept_Date":"2020-12-03 12"},"coordinates":[5134,4874]},{"type":"Point","properties":{"Station_ID":"OH-CY-58","Station_Nam":"SOUTH EUCLID 0.2 ESE, OH","Latitude":"41.52358","Longitude":"-81.52191","Snowdepth":"12.500","Units":"in","Rept_Date":"2020-12-03 13"},"coordinates":[5183,4941]},{"type":"Point","properties":{"Station_ID":"CAN-ON-5","Station_Nam":"OWEN SOUND 1.5 NW - GSCA, CAN","Latitude":"44.57837","Longitude":"-80.95461","Snowdepth":"12.500","Units":"in","Rept_Date":"2020-12-03 13"},"coordinates":[5370,6455]},{"type":"Point","properties":{"Station_ID":"QCO","Station_Nam":"QCO","Latitude":"51.45280","Longitude":"-72.20110","Snowdepth":"12.126","Units":"in","Rept_Date":"2020-12-03 12"},"coordinates":[8255,9863]},{"type":"Point","properties":{"Station_ID":"OH-PT-9","Station_Nam":"HIRAM 0.4 N, OH","Latitude":"41.31595","Longitude":"-81.14340","Snowdepth":"12.000","Units":"in","Rept_Date":"2020-12-03 12"},"coordinates":[5308,4838]},{"type":"Point","properties":{"Station_ID":"41.3160_081.1434","Station_Nam":"N Hiram  CoCoRaHS (OH-PT-9)","Latitude":"41.31600","Longitude":"-81.14340","Snowdepth":"12.000","Units":"in","Rept_Date":"2020-12-03 12"},"coordinates":[5308,4838]},{"type":"Point","properties":{"Station_ID":"41.3151_081.1434","Station_Nam":"HIRAM (CLE2220)","Latitude":"41.31510","Longitude":"-81.14340","Snowdepth":"12.000","Units":"in","Rept_Date":"2020-12-03 15"},"coordinates":[5308,4838]},{"type":"Point","properties":{"Station_ID":"OH-GG-4","Station_Nam":"MONTVILLE 1.2 SSE, OH","Latitude":"41.59030","Longitude":"-81.04800","Snowdepth":"11.000","Units":"in","Rept_Date":"2020-12-03 11"},"coordinates":[5339,4974]},{"type":"Point","properties":{"Station_ID":"OBEO1","Station_Nam":"OBERLIN,OH","Latitude":"41.26670","Longitude":"-82.21670","Snowdepth":"11.000","Units":"in","Rept_Date":"2020-12-03 13"},"coordinates":[4954,4814]},{"type":"Point","properties":{"Station_ID":"MTLT1","Station_Nam":"GATLINBURG,TN","Latitude":"35.65500","Longitude":"-83.44110","Snowdepth":"11.000","Units":"in","Rept_Date":"2020-12-03 13"},"coordinates":[4550,2032]},{"type":"Point","properties":{"Station_ID":"QLB","Station_Nam":"QLB","Latitude":"50.72360","Longitude":"-75.10000","Snowdepth":"10.630","Units":"in","Rept_Date":"2020-12-03 12"},"coordinates":[7300,9502]},{"type":"Point","properties":{"Station_ID":"CAN-ON-452","Station_Nam":"CHATSWORTH 1.8 ENE - GSCA, CAN","Latitude":"44.46118","Longitude":"-80.87506","Snowdepth":"10.600","Units":"in","Rept_Date":"2020-12-03 12"},"coordinates":[5396,6397]},{"type":"Point","properties":{"Station_ID":"OH-CY-39","Station_Nam":"WESTLAKE 0.5 SSW, OH","Latitude":"41.44795","Longitude":"-81.93260","Snowdepth":"10.500","Units":"in","Rept_Date":"2020-12-03 13"},"coordinates":[5047,4904]},{"type":"Point","properties":{"Station_ID":"41.4480_081.9326","Station_Nam":"1 SSW Westlake  CoCoRaHS (OH-CY-39)","Latitude":"41.44800","Longitude":"-81.93260","Snowdepth":"10.500","Units":"in","Rept_Date":"2020-12-03 13"},"coordinates":[5047,4904]},{"type":"Point","properties":{"Station_ID":"HVJP1","Station_Nam":"HIDDEN VALLEY COOP","Latitude":"40.04200","Longitude":"-79.25660","Snowdepth":"10.000","Units":"in","Rept_Date":"2020-12-03 13"},"coordinates":[5930,4207]},{"type":"Point","properties":{"Station_ID":"CAN-ON-451","Station_Nam":"OWEN SOUND 1.2 N - GSCA, CAN","Latitude":"44.58092","Longitude":"-80.93025","Snowdepth":"10.000","Units":"in","Rept_Date":"2020-12-03 13"},"coordinates":[5378,6457]},{"type":"Point","properties":{"Station_ID":"QMD","Station_Nam":"QMD","Latitude":"49.29060","Longitude":"-75.84500","Snowdepth":"9.724","Units":"in","Rept_Date":"2020-12-03 12"},"coordinates":[7054,8791]},{"type":"Point","properties":{"Station_ID":"TRIQ6","Station_Nam":"TRIO LAKE","Latitude":"49.22880","Longitude":"-87.22920","Snowdepth":"9.720","Units":"in","Rept_Date":"2020-12-04 06"},"coordinates":[3302,8761]},{"type":"Point","properties":{"Station_ID":"QCX","Station_Nam":"QCX","Latitude":"51.32830","Longitude":"-70.08060","Snowdepth":"9.567","Units":"in","Rept_Date":"2020-12-03 12"},"coordinates":[8954,9801]},{"type":"Point","properties":{"Station_ID":"OH-LR-8","Station_Nam":"ELYRIA 0.4 SE, OH","Latitude":"41.37628","Longitude":"-82.09920","Snowdepth":"9.500","Units":"in","Rept_Date":"2020-12-03 12"},"coordinates":[4993,4868]},{"type":"Point","properties":{"Station_ID":"OH-CY-42","Station_Nam":"STRONGSVILLE 1.3 SE, OH","Latitude":"41.29815","Longitude":"-81.81507","Snowdepth":"9.500","Units":"in","Rept_Date":"2020-12-03 13"},"coordinates":[5086,4829]},{"type":"Point","properties":{"Station_ID":"OH-CY-24","Station_Nam":"PARMA 1.9 NNW, OH","Latitude":"41.40881","Longitude":"-81.74480","Snowdepth":"9.500","Units":"in","Rept_Date":"2020-12-03 13"},"coordinates":[5109,4884]},{"type":"Point","properties":{"Station_ID":"41.4088_081.7448","Station_Nam":"2 NNW Parma  CoCoRaHS (OH-CY-24)","Latitude":"41.40880","Longitude":"-81.74480","Snowdepth":"9.500","Units":"in","Rept_Date":"2020-12-03 13"},"coordinates":[5109,4884]},{"type":"Point","properties":{"Station_ID":"41.3763_082.0992","Station_Nam":"Elyria  Trained Spotter (CLE1010)","Latitude":"41.37628","Longitude":"-82.09918","Snowdepth":"9.500","Units":"in","Rept_Date":"2020-12-03 10"},"coordinates":[4993,4868]},{"type":"Point","properties":{"Station_ID":"41.2982_081.8151","Station_Nam":"1 SE Strongsville  Trained Spotter (CLE1180)","Latitude":"41.29818","Longitude":"-81.81507","Snowdepth":"9.500","Units":"in","Rept_Date":"2020-12-03 13"},"coordinates":[5086,4829]},{"type":"Point","properties":{"Station_ID":"QTM","Station_Nam":"QTM","Latitude":"51.05780","Longitude":"-72.57190","Snowdepth":"9.134","Units":"in","Rept_Date":"2020-12-03 12"},"coordinates":[8133,9667]},{"type":"Point","properties":{"Station_ID":"CAN-ON-491","Station_Nam":"MILVERTON 1.1 ESE- CANWARN, CAN","Latitude":"43.56074","Longitude":"-80.90887","Snowdepth":"9.100","Units":"in","Rept_Date":"2020-12-03 11"},"coordinates":[5385,5951]},{"type":"Point","properties":{"Station_ID":"SBOP1","Station_Nam":"SPRINGBORO","Latitude":"41.81660","Longitude":"-80.43330","Snowdepth":"9.000","Units":"in","Rept_Date":"2020-12-03 12"},"coordinates":[5542,5086]},{"type":"Point","properties":{"Station_ID":"PA-CW-8","Station_Nam":"SPRINGBORO 3.0 WNW, PA","Latitude":"41.81654","Longitude":"-80.42540","Snowdepth":"9.000","Units":"in","Rept_Date":"2020-12-03 12"},"coordinates":[5544,5086]},{"type":"Point","properties":{"Station_ID":"OH-LR-25","Station_Nam":"NORTH RIDGEVILLE 2.5 NE, OH","Latitude":"41.41550","Longitude":"-81.98440","Snowdepth":"9.000","Units":"in","Rept_Date":"2020-12-03 12"},"coordinates":[5030,4887]},{"type":"Point","properties":{"Station_ID":"OH-LK-9","Station_Nam":"WILLOUGHBY 2.9 SW, OH","Latitude":"41.61506","Longitude":"-81.44592","Snowdepth":"9.000","Units":"in","Rept_Date":"2020-12-03 12"},"coordinates":[5208,4986]},{"type":"Point","properties":{"Station_ID":"OH-ER-5","Station_Nam":"WAKEMAN 4.6 NNE, OH","Latitude":"41.31902","Longitude":"-82.37730","Snowdepth":"9.000","Units":"in","Rept_Date":"2020-12-03 12"},"coordinates":[4901,4840]},{"type":"Point","properties":{"Station_ID":"41.8166_080.4333","Station_Nam":"3 WNW Springboro  Co-Op Observer (SBOP1)","Latitude":"41.81660","Longitude":"-80.43330","Snowdepth":"9.000","Units":"in","Rept_Date":"2020-12-03 12"},"coordinates":[5542,5086]},{"type":"Point","properties":{"Station_ID":"41.8165_080.4254","Station_Nam":"3 WNW Springboro  CoCoRaHS (PA-CW-8)","Latitude":"41.81650","Longitude":"-80.42540","Snowdepth":"9.000","Units":"in","Rept_Date":"2020-12-03 12"},"coordinates":[5544,5086]},{"type":"Point","properties":{"Station_ID":"41.6151_081.4459","Station_Nam":"3 SW Willoughby  CoCoRaHS (OH-LK-9)","Latitude":"41.61510","Longitude":"-81.44590","Snowdepth":"9.000","Units":"in","Rept_Date":"2020-12-03 12"},"coordinates":[5208,4986]},{"type":"Point","properties":{"Station_ID":"41.4155_081.9844","Station_Nam":"3 NE North Ridgeville  CoCoRaHS (OH-LR-25)","Latitude":"41.41550","Longitude":"-81.98440","Snowdepth":"9.000","Units":"in","Rept_Date":"2020-12-03 12"},"coordinates":[5030,4887]},{"type":"Point","properties":{"Station_ID":"MLZ","Station_Nam":"MLZ","Latitude":"50.66170","Longitude":"-68.82360","Snowdepth":"8.425","Units":"in","Rept_Date":"2020-12-03 12"},"coordinates":[9369,9471]},{"type":"Point","properties":{"Station_ID":"WV-PR-10","Station_Nam":"TERRA ALTA 4.9 NNE, WV","Latitude":"39.51024","Longitude":"-79.51024","Snowdepth":"8.400","Units":"in","Rept_Date":"2020-12-03 13"},"coordinates":[5846,3943]},{"type":"Point","properties":{"Station_ID":"QMA","Station_Nam":"QMA","Latitude":"50.10330","Longitude":"-70.47190","Snowdepth":"8.307","Units":"in","Rept_Date":"2020-12-03 12"},"coordinates":[8825,9194]},{"type":"Point","properties":{"Station_ID":"PA-CW-18","Station_Nam":"CONNEAUT LAKE 1.3 WNW, PA","Latitude":"41.60816","Longitude":"-80.33371","Snowdepth":"8.000","Units":"in","Rept_Date":"2020-12-03 12"},"coordinates":[5575,4983]},{"type":"Point","properties":{"Station_ID":"41.6082_080.3337","Station_Nam":"1 WNW Conneaut Lake  CoCoRaHS (PA-CW-18)","Latitude":"41.60820","Longitude":"-80.33370","Snowdepth":"8.000","Units":"in","Rept_Date":"2020-12-03 12"},"coordinates":[5575,4983]},{"type":"Point","properties":{"Station_ID":"41.3476_082.0754","Station_Nam":"3 SE Elyria  Trained Spotter (X4130821)","Latitude":"41.34759","Longitude":"-82.07538","Snowdepth":"8.000","Units":"in","Rept_Date":"2020-12-03 13"},"coordinates":[5000,4854]},{"type":"Point","properties":{"Station_ID":"QGO","Station_Nam":"QGO","Latitude":"48.85500","Longitude":"-74.20640","Snowdepth":"7.795","Units":"in","Rept_Date":"2020-12-03 12"},"coordinates":[7594,8575]},{"type":"Point","properties":{"Station_ID":"DVLQ6","Station_Nam":"DEVIOUS LAKE","Latitude":"49.19890","Longitude":"-87.76440","Snowdepth":"7.760","Units":"in","Rept_Date":"2020-12-04 06"},"coordinates":[3125,8746]},{"type":"Point","properties":{"Station_ID":"PA-ER-15","Station_Nam":"NORTH EAST 2.0 S, PA","Latitude":"42.18390","Longitude":"-79.83230","Snowdepth":"7.600","Units":"in","Rept_Date":"2020-12-03 13"},"coordinates":[5740,5268]},{"type":"Point","properties":{"Station_ID":"42.1839_079.8323","Station_Nam":"2 S North East  CoCoRaHS (PA-ER-15)","Latitude":"42.18390","Longitude":"-79.83230","Snowdepth":"7.600","Units":"in","Rept_Date":"2020-12-03 13"},"coordinates":[5740,5268]},{"type":"Point","properties":{"Station_ID":"MFU","Station_Nam":"MFU","Latitude":"51.52170","Longitude":"-66.91110","Snowdepth":"7.520","Units":"in","Rept_Date":"2020-12-03 12"},"coordinates":[9999,9897]},{"type":"Point","properties":{"Station_ID":"OH-MD-2","Station_Nam":"BRUNSWICK 0.5 NE, OH","Latitude":"41.24980","Longitude":"-81.81330","Snowdepth":"7.500","Units":"in","Rept_Date":"2020-12-03 12"},"coordinates":[5087,4805]},{"type":"Point","properties":{"Station_ID":"OH-LK-11","Station_Nam":"MADISON 0.9 WSW, OH","Latitude":"41.76833","Longitude":"-81.06972","Snowdepth":"7.500","Units":"in","Rept_Date":"2020-12-03 12"},"coordinates":[5332,5062]},{"type":"Point","properties":{"Station_ID":"CAN-ON-620","Station_Nam":"GOODERHAM 3.4 SSW, CAN","Latitude":"44.87690","Longitude":"-78.39265","Snowdepth":"7.500","Units":"in","Rept_Date":"2020-12-03 12"},"coordinates":[6214,6603]},{"type":"Point","properties":{"Station_ID":"41.7683_081.0697","Station_Nam":"1 WSW Madison  CoCoRaHS (OH-LK-11)","Latitude":"41.76830","Longitude":"-81.06970","Snowdepth":"7.500","Units":"in","Rept_Date":"2020-12-03 11"},"coordinates":[5332,5062]},{"type":"Point","properties":{"Station_ID":"AUDQ6","Station_Nam":"AUDEN","Latitude":"48.52600","Longitude":"-82.57570","Snowdepth":"7.320","Units":"in","Rept_Date":"2020-12-04 06"},"coordinates":[4835,8412]},{"type":"Point","properties":{"Station_ID":"PTLQ6","Station_Nam":"PORTAGE LAKE","Latitude":"49.06950","Longitude":"-86.65940","Snowdepth":"7.090","Units":"in","Rept_Date":"2020-12-04 06"},"coordinates":[3489,8682]},{"type":"Point","properties":{"Station_ID":"SMRP1","Station_Nam":"SOMERSET,PA","Latitude":"40.00000","Longitude":"-79.08330","Snowdepth":"7.000","Units":"in","Rept_Date":"2020-12-03 13"},"coordinates":[5987,4186]},{"type":"Point","properties":{"Station_ID":"OH-PT-10","Station_Nam":"KENT 3.6 NE, OH","Latitude":"41.20083","Longitude":"-81.33890","Snowdepth":"7.000","Units":"in","Rept_Date":"2020-12-03 13"},"coordinates":[5243,4781]},{"type":"Point","properties":{"Station_ID":"MD-GR-9","Station_Nam":"MOUNTAIN LAKE PARK 0.4 E, MD","Latitude":"39.40407","Longitude":"-79.37220","Snowdepth":"7.000","Units":"in","Rept_Date":"2020-12-03 11"},"coordinates":[5891,3890]},{"type":"Point","properties":{"Station_ID":"MD-GR-4","Station_Nam":"MC HENRY 4.8 SSE, MD","Latitude":"39.48539","Longitude":"-79.31830","Snowdepth":"7.000","Units":"in","Rept_Date":"2020-12-03 13"},"coordinates":[5909,3931]},{"type":"Point","properties":{"Station_ID":"CLE","Station_Nam":"CLEVELAND, OH","Latitude":"41.41170","Longitude":"-81.84970","Snowdepth":"7.000","Units":"in","Rept_Date":"2020-12-04 00"},"coordinates":[5075,4886]},{"type":"Point","properties":{"Station_ID":"BKBW2","Station_Nam":"DAVIS.","Latitude":"39.09830","Longitude":"-79.43190","Snowdepth":"7.000","Units":"in","Rept_Date":"2020-12-03 12"},"coordinates":[5872,3739]},{"type":"Point","properties":{"Station_ID":"41.2008_081.3389","Station_Nam":"4 NE Kent  CoCoRaHS (OH-PT-10)","Latitude":"41.20080","Longitude":"-81.33890","Snowdepth":"7.000","Units":"in","Rept_Date":"2020-12-03 13"},"coordinates":[5243,4781]},{"type":"Point","properties":{"Station_ID":"PA-ER-2","Station_Nam":"ERIE 5.6 SW, PA","Latitude":"42.06086","Longitude":"-80.15260","Snowdepth":"6.600","Units":"in","Rept_Date":"2020-12-03 12"},"coordinates":[5634,5207]},{"type":"Point","properties":{"Station_ID":"QFT","Station_Nam":"QFT","Latitude":"50.83280","Longitude":"-74.40390","Snowdepth":"6.535","Units":"in","Rept_Date":"2020-12-03 12"},"coordinates":[7529,9556]},{"type":"Point","properties":{"Station_ID":"PA-FR-1","Station_Nam":"TIONESTA 7.3 SSE, PA","Latitude":"41.39404","Longitude":"-79.41310","Snowdepth":"6.500","Units":"in","Rept_Date":"2020-12-03 12"},"coordinates":[5878,4877]},{"type":"Point","properties":{"Station_ID":"OH-PT-8","Station_Nam":"STREETSBORO 2.1 SSW, OH","Latitude":"41.20976","Longitude":"-81.35480","Snowdepth":"6.500","Units":"in","Rept_Date":"2020-12-03 12"},"coordinates":[5238,4785]},{"type":"Point","properties":{"Station_ID":"OH-CY-14","Station_Nam":"CLEVELAND 7.0 SW, OH","Latitude":"41.45224","Longitude":"-81.81475","Snowdepth":"6.500","Units":"in","Rept_Date":"2020-12-04 03"},"coordinates":[5086,4906]},{"type":"Point","properties":{"Station_ID":"YNG","Station_Nam":"YOUNGSTOWN-WARREN REG AIRPRT","Latitude":"41.25890","Longitude":"-80.67610","Snowdepth":"6.000","Units":"in","Rept_Date":"2020-12-04 00"},"coordinates":[5462,4810]},{"type":"Point","properties":{"Station_ID":"WRRP1","Station_Nam":"ALLEGHENY RIVER AT WARREN","Latitude":"41.84380","Longitude":"-79.15000","Snowdepth":"6.000","Units":"in","Rept_Date":"2020-12-03 12"},"coordinates":[5965,5100]},{"type":"Point","properties":{"Station_ID":"PA-VN-22","Station_Nam":"FRANKLIN 1.4 SSW, PA","Latitude":"41.37283","Longitude":"-79.85013","Snowdepth":"6.000","Units":"in","Rept_Date":"2020-12-03 11"},"coordinates":[5734,4866]},{"type":"Point","properties":{"Station_ID":"NALN6","Station_Nam":"CATTARAUGUS","Latitude":"42.32450","Longitude":"-78.86700","Snowdepth":"6.000","Units":"in","Rept_Date":"2020-12-03 13"},"coordinates":[6058,5338]},{"type":"Point","properties":{"Station_ID":"LNVP1","Station_Nam":"PA FISH COMMISSION HATCHERY","Latitude":"41.65000","Longitude":"-80.43330","Snowdepth":"6.000","Units":"in","Rept_Date":"2020-12-03 12"},"coordinates":[5542,5004]},{"type":"Point","properties":{"Station_ID":"KZAP1","Station_Nam":"KINZUA","Latitude":"41.90060","Longitude":"-79.11860","Snowdepth":"6.000","Units":"in","Rept_Date":"2020-12-03 12"},"coordinates":[5975,5128]},{"type":"Point","properties":{"Station_ID":"CLQM5","Station_Nam":"CLOQUET","Latitude":"46.70470","Longitude":"-92.52530","Snowdepth":"6.000","Units":"in","Rept_Date":"2020-12-03 14"},"coordinates":[1556,7509]},{"type":"Point","properties":{"Station_ID":"CAAW2","Station_Nam":"CANAAN VALLEY","Latitude":"39.05890","Longitude":"-79.44030","Snowdepth":"6.000","Units":"in","Rept_Date":"2020-12-03 14"},"coordinates":[5869,3719]},{"type":"Point","properties":{"Station_ID":"BAYW2","Station_Nam":"BAYARD COOP","Latitude":"39.27280","Longitude":"-79.36830","Snowdepth":"6.000","Units":"in","Rept_Date":"2020-12-03 12"},"coordinates":[5893,3825]},{"type":"Point","properties":{"Station_ID":"41.6500_080.4333","Station_Nam":"PA FISH COMMISSION HATCHERY  CO-OP OBSERVER (LNVP1)","Latitude":"41.65000","Longitude":"-80.43330","Snowdepth":"6.000","Units":"in","Rept_Date":"2020-12-03 12"},"coordinates":[5542,5004]},{"type":"Point","properties":{"Station_ID":"41.2019_081.6342","Station_Nam":"1 N Bath  Trained Spotter (CLE2148)","Latitude":"41.20192","Longitude":"-81.63420","Snowdepth":"6.000","Units":"in","Rept_Date":"2020-12-03 12"},"coordinates":[5146,4782]},{"type":"Point","properties":{"Station_ID":"CAN-ON-784","Station_Nam":"KOMOKA 3.1 W, CAN","Latitude":"42.96000","Longitude":"-81.43805","Snowdepth":"5.700","Units":"in","Rept_Date":"2020-12-03 13"},"coordinates":[5211,5653]},{"type":"Point","properties":{"Station_ID":"NY-CQ-41","Station_Nam":"MAYVILLE 0.2 ESE, NY","Latitude":"42.25194","Longitude":"-79.49809","Snowdepth":"5.500","Units":"in","Rept_Date":"2020-12-03 12"},"coordinates":[5850,5302]},{"type":"Point","properties":{"Station_ID":"KABQ6","Station_Nam":"CAB LAKE","Latitude":"49.59950","Longitude":"-89.17990","Snowdepth":"5.280","Units":"in","Rept_Date":"2020-12-04 06"},"coordinates":[2659,8944]},{"type":"Point","properties":{"Station_ID":"QTV","Station_Nam":"QTV","Latitude":"49.66000","Longitude":"-69.35690","Snowdepth":"5.197","Units":"in","Rept_Date":"2020-12-03 12"},"coordinates":[9193,8974]},{"type":"Point","properties":{"Station_ID":"CAN-ON-477","Station_Nam":"CALEDONIA 0.3 NW - GRCA, CAN","Latitude":"43.07135","Longitude":"-79.95667","Snowdepth":"5.100","Units":"in","Rept_Date":"2020-12-03 12"},"coordinates":[5699,5708]},{"type":"Point","properties":{"Station_ID":"WV-PR-11","Station_Nam":"THOMAS 7.4 N, WV","Latitude":"39.25361","Longitude":"-79.51055","Snowdepth":"5.000","Units":"in","Rept_Date":"2020-12-03 12"},"coordinates":[5846,3816]},{"type":"Point","properties":{"Station_ID":"WNDP1","Station_Nam":"WINDBER COUNTY CLUB","Latitude":"40.28780","Longitude":"-78.77530","Snowdepth":"5.000","Units":"in","Rept_Date":"2020-12-03 12"},"coordinates":[6088,4328]},{"type":"Point","properties":{"Station_ID":"TSVP1","Station_Nam":"TITUSVILLE,PA","Latitude":"41.63330","Longitude":"-79.70000","Snowdepth":"5.000","Units":"in","Rept_Date":"2020-12-03 12"},"coordinates":[5783,4995]},{"type":"Point","properties":{"Station_ID":"PA-BV-11","Station_Nam":"NEW BRIGHTON 3.0 NE, PA","Latitude":"40.76937","Longitude":"-80.27285","Snowdepth":"5.000","Units":"in","Rept_Date":"2020-12-03 13"},"coordinates":[5595,4567]},{"type":"Point","properties":{"Station_ID":"PA-AL-1","Station_Nam":"BRIDGEVILLE 1.4 SW, PA","Latitude":"40.34174","Longitude":"-80.12290","Snowdepth":"5.000","Units":"in","Rept_Date":"2020-12-03 12"},"coordinates":[5644,4355]},{"type":"Point","properties":{"Station_ID":"OH-TR-4","Station_Nam":"NEWTON FALLS 0.6 N, OH","Latitude":"41.19773","Longitude":"-80.97210","Snowdepth":"5.000","Units":"in","Rept_Date":"2020-12-03 12"},"coordinates":[5364,4780]},{"type":"Point","properties":{"Station_ID":"OH-CY-21","Station_Nam":"BRECKSVILLE 1.7 SE, OH","Latitude":"41.29094","Longitude":"-81.59475","Snowdepth":"5.000","Units":"in","Rept_Date":"2020-12-03 12"},"coordinates":[5159,4826]},{"type":"Point","properties":{"Station_ID":"OH-AS-5","Station_Nam":"SULLIVAN 1.1 NNE, OH","Latitude":"41.04200","Longitude":"-82.21260","Snowdepth":"5.000","Units":"in","Rept_Date":"2020-12-03 12"},"coordinates":[4955,4702]},{"type":"Point","properties":{"Station_ID":"OGIQ6","Station_Nam":"OGOKI CAMP","Latitude":"50.76680","Longitude":"-87.85820","Snowdepth":"5.000","Units":"in","Rept_Date":"2020-12-04 06"},"coordinates":[3094,9523]},{"type":"Point","properties":{"Station_ID":"KYNG","Station_Nam":"YOUNGSTOWN-WARREN REG AIRPRT","Latitude":"41.25000","Longitude":"-80.66666","Snowdepth":"5.000","Units":"in","Rept_Date":"2020-12-04 00"},"coordinates":[5465,4805]},{"type":"Point","properties":{"Station_ID":"KCLE","Station_Nam":"CLEVELAND-HOPKINS INTERNATIONAL","Latitude":"41.40000","Longitude":"-81.85000","Snowdepth":"5.000","Units":"in","Rept_Date":"2020-12-04 06"},"coordinates":[5075,4880]},{"type":"Point","properties":{"Station_ID":"KANP1","Station_Nam":"KANE,PA","Latitude":"41.68330","Longitude":"-78.80000","Snowdepth":"5.000","Units":"in","Rept_Date":"2020-12-03 12"},"coordinates":[6080,5020]},{"type":"Point","properties":{"Station_ID":"CNLP1","Station_Nam":"CONNELLSVILLE","Latitude":"39.98810","Longitude":"-79.59280","Snowdepth":"5.000","Units":"in","Rept_Date":"2020-12-03 10"},"coordinates":[5819,4180]},{"type":"Point","properties":{"Station_ID":"CLUM4","Station_Nam":"CALUMET-TAMARACK","Latitude":"47.24550","Longitude":"-88.46790","Snowdepth":"5.000","Units":"in","Rept_Date":"2020-12-03 14"},"coordinates":[2893,7777]},{"type":"Point","properties":{"Station_ID":"41.2909_081.5948","Station_Nam":"2 SE Brecksville  CoCoRaHS (OH-CY-21)","Latitude":"41.29090","Longitude":"-81.59480","Snowdepth":"5.000","Units":"in","Rept_Date":"2020-12-03 12"},"coordinates":[5159,4826]},{"type":"Point","properties":{"Station_ID":"41.0420_082.2126","Station_Nam":"1 NNE Sullivan  CoCoRaHS (OH-AS-5)","Latitude":"41.04200","Longitude":"-82.21260","Snowdepth":"5.000","Units":"in","Rept_Date":"2020-12-03 12"},"coordinates":[4955,4702]},{"type":"Point","properties":{"Station_ID":"SOCQ6","Station_Nam":"SOCKET LAKE","Latitude":"50.77870","Longitude":"-91.79300","Snowdepth":"4.920","Units":"in","Rept_Date":"2020-12-04 06"},"coordinates":[1797,9529]},{"type":"Point","properties":{"Station_ID":"FTHQ6","Station_Nam":"FORT HOPE","Latitude":"51.55820","Longitude":"-87.90510","Snowdepth":"4.760","Units":"in","Rept_Date":"2020-12-04 06"},"coordinates":[3079,9915]},{"type":"Point","properties":{"Station_ID":"QLI","Station_Nam":"QLI","Latitude":"50.27080","Longitude":"-73.92280","Snowdepth":"4.724","Units":"in","Rept_Date":"2020-12-03 12"},"coordinates":[7688,9277]},{"type":"Point","properties":{"Station_ID":"WV-MG-16","Station_Nam":"MORGANTOWN 5.9 SW, WV","Latitude":"39.56615","Longitude":"-80.01490","Snowdepth":"4.700","Units":"in","Rept_Date":"2020-12-03 12"},"coordinates":[5680,3971]},{"type":"Point","properties":{"Station_ID":"CAN-ON-86","Station_Nam":"GUELPH 5.1 S - CANWARN, CAN","Latitude":"43.49691","Longitude":"-80.24385","Snowdepth":"4.700","Units":"in","Rept_Date":"2020-12-03 12"},"coordinates":[5604,5919]},{"type":"Point","properties":{"Station_ID":"PA-WT-42","Station_Nam":"LIGONIER 0.1 SE, PA","Latitude":"40.24319","Longitude":"-79.23526","Snowdepth":"4.500","Units":"in","Rept_Date":"2020-12-03 12"},"coordinates":[5937,4306]},{"type":"Point","properties":{"Station_ID":"PA-MR-12","Station_Nam":"HERMITAGE 2.2 SSW, PA","Latitude":"41.19941","Longitude":"-80.45645","Snowdepth":"4.500","Units":"in","Rept_Date":"2020-12-03 14"},"coordinates":[5534,4780]},{"type":"Point","properties":{"Station_ID":"PA-AL-108","Station_Nam":"CORAOPOLIS 2.0 WNW, PA","Latitude":"40.52560","Longitude":"-80.19665","Snowdepth":"4.500","Units":"in","Rept_Date":"2020-12-03 12"},"coordinates":[5620,4446]},{"type":"Point","properties":{"Station_ID":"NY-OD-2","Station_Nam":"POINT ROCK 0.6 SE, NY","Latitude":"43.37335","Longitude":"-75.53840","Snowdepth":"4.500","Units":"in","Rept_Date":"2020-12-03 12"},"coordinates":[7155,5858]},{"type":"Point","properties":{"Station_ID":"NY-CQ-39","Station_Nam":"GERRY 0.8 N, NY","Latitude":"42.20500","Longitude":"-79.24700","Snowdepth":"4.500","Units":"in","Rept_Date":"2020-12-03 13"},"coordinates":[5933,5279]},{"type":"Point","properties":{"Station_ID":"CATQ6","Station_Nam":"CAT LAKE","Latitude":"51.72690","Longitude":"-91.82210","Snowdepth":"4.490","Units":"in","Rept_Date":"2020-12-04 06"},"coordinates":[1788,9999]},{"type":"Point","properties":{"Station_ID":"SVBQ6","Station_Nam":"SAVANT BASE","Latitude":"50.28730","Longitude":"-90.65670","Snowdepth":"4.370","Units":"in","Rept_Date":"2020-12-04 06"},"coordinates":[2172,9285]},{"type":"Point","properties":{"Station_ID":"MRL","Station_Nam":"MRL","Latitude":"51.28330","Longitude":"-68.84060","Snowdepth":"4.252","Units":"in","Rept_Date":"2020-12-03 12"},"coordinates":[9363,9779]},{"type":"Point","properties":{"Station_ID":"MI-BG-3","Station_Nam":"THREE LAKES, MI","Latitude":"46.55730","Longitude":"-88.20770","Snowdepth":"4.200","Units":"in","Rept_Date":"2020-12-03 13"},"coordinates":[2979,7436]},{"type":"Point","properties":{"Station_ID":"WV-NC-4","Station_Nam":"CRAIGSVILLE 0.6 NE, WV","Latitude":"38.33698","Longitude":"-80.64520","Snowdepth":"4.000","Units":"in","Rept_Date":"2020-12-03 12"},"coordinates":[5472,3361]},{"type":"Point","properties":{"Station_ID":"WLFM5","Station_Nam":"WOLF RIDGE ENVIRON LEARNING CENTER","Latitude":"47.38240","Longitude":"-91.19730","Snowdepth":"4.000","Units":"in","Rept_Date":"2020-12-03 13"},"coordinates":[1994,7845]},{"type":"Point","properties":{"Station_ID":"TIOP1","Station_Nam":"TIONESTA DAM","Latitude":"41.47530","Longitude":"-79.44190","Snowdepth":"4.000","Units":"in","Rept_Date":"2020-12-03 12"},"coordinates":[5868,4917]},{"type":"Point","properties":{"Station_ID":"STWO1","Station_Nam":"MONROE FALLS","Latitude":"41.13110","Longitude":"-81.40000","Snowdepth":"4.000","Units":"in","Rept_Date":"2020-12-03 12"},"coordinates":[5223,4746]},{"type":"Point","properties":{"Station_ID":"SNOW2","Station_Nam":"SNOWSHOE","Latitude":"38.39900","Longitude":"-79.99490","Snowdepth":"4.000","Units":"in","Rept_Date":"2020-12-03 11"},"coordinates":[5686,3392]},{"type":"Point","properties":{"Station_ID":"RDFN6","Station_Nam":"REDFIELD 8N","Latitude":"43.64130","Longitude":"-75.88400","Snowdepth":"4.000","Units":"in","Rept_Date":"2020-12-03 12"},"coordinates":[7041,5991]},{"type":"Point","properties":{"Station_ID":"PRNW2","Station_Nam":"PARSONS 3SE","Latitude":"39.07360","Longitude":"-79.63400","Snowdepth":"4.000","Units":"in","Rept_Date":"2020-12-03 12"},"coordinates":[5805,3727]},{"type":"Point","properties":{"Station_ID":"PDLM4","Station_Nam":"PAINESDALE","Latitude":"47.04160","Longitude":"-88.67170","Snowdepth":"4.000","Units":"in","Rept_Date":"2020-12-03 13"},"coordinates":[2826,7676]},{"type":"Point","properties":{"Station_ID":"PA-FR-2","Station_Nam":"MARIENVILLE 5.3 W, PA","Latitude":"41.45710","Longitude":"-79.18150","Snowdepth":"4.000","Units":"in","Rept_Date":"2020-12-03 11"},"coordinates":[5954,4908]},{"type":"Point","properties":{"Station_ID":"PA-EL-1","Station_Nam":"ST. MARYS 1.7 SE, PA","Latitude":"41.41069","Longitude":"-78.53480","Snowdepth":"4.000","Units":"in","Rept_Date":"2020-12-03 11"},"coordinates":[6167,4885]},{"type":"Point","properties":{"Station_ID":"PA-BV-18","Station_Nam":"BEAVER 5.5 W, PA","Latitude":"40.70502","Longitude":"-80.41213","Snowdepth":"4.000","Units":"in","Rept_Date":"2020-12-03 12"},"coordinates":[5549,4535]},{"type":"Point","properties":{"Station_ID":"PA-BT-6","Station_Nam":"BUTLER 6.6 SW, PA","Latitude":"40.77069","Longitude":"-79.93850","Snowdepth":"4.000","Units":"in","Rept_Date":"2020-12-03 11"},"coordinates":[5705,4568]},{"type":"Point","properties":{"Station_ID":"OH-SM-39","Station_Nam":"TALLMADGE 0.8 NNE, OH","Latitude":"41.11402","Longitude":"-81.41970","Snowdepth":"4.000","Units":"in","Rept_Date":"2020-12-03 12"},"coordinates":[5217,4738]},{"type":"Point","properties":{"Station_ID":"OH-CB-18","Station_Nam":"WELLSVILLE 4.3 N, OH","Latitude":"40.66436","Longitude":"-80.64236","Snowdepth":"4.000","Units":"in","Rept_Date":"2020-12-03 14"},"coordinates":[5473,4515]},{"type":"Point","properties":{"Station_ID":"OCON6","Station_Nam":"OSCEOLA","Latitude":"43.50370","Longitude":"-75.72170","Snowdepth":"4.000","Units":"in","Rept_Date":"2020-12-03 13"},"coordinates":[7095,5923]},{"type":"Point","properties":{"Station_ID":"NY-ER-77","Station_Nam":"COLDEN 2.4 ENE, NY","Latitude":"42.65088","Longitude":"-78.61060","Snowdepth":"4.000","Units":"in","Rept_Date":"2020-12-03 13"},"coordinates":[6143,5500]},{"type":"Point","properties":{"Station_ID":"NY-ER-166","Station_Nam":"BOSTON 2.5 NE, NY","Latitude":"42.65480","Longitude":"-78.70300","Snowdepth":"4.000","Units":"in","Rept_Date":"2020-12-03 12"},"coordinates":[6112,5502]},{"type":"Point","properties":{"Station_ID":"NY-CQ-22","Station_Nam":"FREDONIA 0.8 WNW, NY","Latitude":"42.44414","Longitude":"-79.34610","Snowdepth":"4.000","Units":"in","Rept_Date":"2020-12-03 10"},"coordinates":[5900,5397]},{"type":"Point","properties":{"Station_ID":"MRVP1","Station_Nam":"MURRYSVILLE","Latitude":"40.41220","Longitude":"-79.72610","Snowdepth":"4.000","Units":"in","Rept_Date":"2020-12-03 12"},"coordinates":[5775,4390]},{"type":"Point","properties":{"Station_ID":"MI-HG-20","Station_Nam":"CALUMET 1.1 SSW, MI","Latitude":"47.23165","Longitude":"-88.45823","Snowdepth":"4.000","Units":"in","Rept_Date":"2020-12-03 11"},"coordinates":[2896,7771]},{"type":"Point","properties":{"Station_ID":"LTVN6","Station_Nam":"LITTLE VALLEY","Latitude":"42.24730","Longitude":"-78.81250","Snowdepth":"4.000","Units":"in","Rept_Date":"2020-12-03 12"},"coordinates":[6076,5300]},{"type":"Point","properties":{"Station_ID":"EBNP1","Station_Nam":"EBENSBURG,PA","Latitude":"40.46810","Longitude":"-78.72890","Snowdepth":"4.000","Units":"in","Rept_Date":"2020-12-03 13"},"coordinates":[6104,4418]},{"type":"Point","properties":{"Station_ID":"CFLP1","Station_Nam":"DAM","Latitude":"39.80000","Longitude":"-79.36670","Snowdepth":"4.000","Units":"in","Rept_Date":"2020-12-03 13"},"coordinates":[5893,4087]},{"type":"Point","properties":{"Station_ID":"CAN-ON-103","Station_Nam":"CALEDONIA 12.4 NW, CA","Latitude":"43.14246","Longitude":"-80.06960","Snowdepth":"4.000","Units":"in","Rept_Date":"2020-12-03 12"},"coordinates":[5662,5744]},{"type":"Point","properties":{"Station_ID":"41.1311_081.4000","Station_Nam":"MONROE FALLS  CO-OP OBSERVER (STWO1)","Latitude":"41.13110","Longitude":"-81.40000","Snowdepth":"4.000","Units":"in","Rept_Date":"2020-12-03 12"},"coordinates":[5223,4746]},{"type":"Point","properties":{"Station_ID":"41.1140_081.4197","Station_Nam":"1 NNE Tallmadge  CoCoRaHS (OH-SM-39)","Latitude":"41.11400","Longitude":"-81.41970","Snowdepth":"4.000","Units":"in","Rept_Date":"2020-12-03 12"},"coordinates":[5217,4738]},{"type":"Point","properties":{"Station_ID":"CAN-ON-646","Station_Nam":"MISSISSAUGA 6.4 SSE - CANWARN, CAN","Latitude":"43.53417","Longitude":"-79.62089","Snowdepth":"3.900","Units":"in","Rept_Date":"2020-12-03 13"},"coordinates":[5809,5938]},{"type":"Point","properties":{"Station_ID":"PA-WT-9","Station_Nam":"GREENSBURG 0.6 WNW, PA","Latitude":"40.31358","Longitude":"-79.55432","Snowdepth":"3.700","Units":"in","Rept_Date":"2020-12-03 13"},"coordinates":[5831,4341]},{"type":"Point","properties":{"Station_ID":"NY-HR-18","Station_Nam":"SALISBURY CENTER 1.8 NW, NY","Latitude":"43.16260","Longitude":"-74.80880","Snowdepth":"3.500","Units":"in","Rept_Date":"2020-12-03 11"},"coordinates":[7396,5754]},{"type":"Point","properties":{"Station_ID":"NY-ER-158","Station_Nam":"EAST AURORA 2.7 SSE, NY","Latitude":"42.72936","Longitude":"-78.60561","Snowdepth":"3.500","Units":"in","Rept_Date":"2020-12-03 12"},"coordinates":[6144,5539]},{"type":"Point","properties":{"Station_ID":"NY-CQ-34","Station_Nam":"KENNEDY 2.6 SE, NY","Latitude":"42.12567","Longitude":"-79.07235","Snowdepth":"3.500","Units":"in","Rept_Date":"2020-12-03 13"},"coordinates":[5990,5240]},{"type":"Point","properties":{"Station_ID":"NC-AS-2","Station_Nam":"CRESTON 2.8 SW, NC","Latitude":"36.40750","Longitude":"-81.66890","Snowdepth":"3.500","Units":"in","Rept_Date":"2020-12-03 14"},"coordinates":[5134,2405]},{"type":"Point","properties":{"Station_ID":"CAN-ON-525","Station_Nam":"WOODSTOCK 1.2 ENE, CAN","Latitude":"43.13734","Longitude":"-80.73688","Snowdepth":"3.500","Units":"in","Rept_Date":"2020-12-03 12"},"coordinates":[5442,5741]},{"type":"Point","properties":{"Station_ID":"QWG","Station_Nam":"QWG","Latitude":"48.48890","Longitude":"-73.45940","Snowdepth":"3.425","Units":"in","Rept_Date":"2020-12-03 12"},"coordinates":[7840,8394]},{"type":"Point","properties":{"Station_ID":"PA-AL-74","Station_Nam":"PITTSBURGH 3.6 NNW, PA","Latitude":"40.48879","Longitude":"-80.00055","Snowdepth":"3.300","Units":"in","Rept_Date":"2020-12-03 11"},"coordinates":[5684,4428]},{"type":"Point","properties":{"Station_ID":"WV-WT-1","Station_Nam":"NEW MARTINSVILLE 6.5 E, WV","Latitude":"39.64898","Longitude":"-80.73820","Snowdepth":"3.200","Units":"in","Rept_Date":"2020-12-03 13"},"coordinates":[5441,4012]},{"type":"Point","properties":{"Station_ID":"NY-NG-12","Station_Nam":"LOCKPORT 0.8 NE, NY","Latitude":"43.17645","Longitude":"-78.68340","Snowdepth":"3.200","Units":"in","Rept_Date":"2020-12-03 12"},"coordinates":[6119,5760]},{"type":"Point","properties":{"Station_ID":"OH-MD-1","Station_Nam":"WADSWORTH 4.7 WNW, OH","Latitude":"41.04276","Longitude":"-81.81930","Snowdepth":"3.100","Units":"in","Rept_Date":"2020-12-03 12"},"coordinates":[5085,4703]},{"type":"Point","properties":{"Station_ID":"CAN-ON-593","Station_Nam":"KITCHENER 4.5 E, CAN","Latitude":"43.45147","Longitude":"-80.43180","Snowdepth":"3.100","Units":"in","Rept_Date":"2020-12-03 12"},"coordinates":[5542,5897]},{"type":"Point","properties":{"Station_ID":"CAN-ON-46","Station_Nam":"WROXETER 0.3 WSW - MVCA, CAN","Latitude":"43.86365","Longitude":"-81.15225","Snowdepth":"3.100","Units":"in","Rept_Date":"2020-12-03 13"},"coordinates":[5305,6101]},{"type":"Point","properties":{"Station_ID":"CAN-ON-187","Station_Nam":"WATERLOO 1.9 E - UOFW, CAN","Latitude":"43.47024","Longitude":"-80.50634","Snowdepth":"3.100","Units":"in","Rept_Date":"2020-12-03 13"},"coordinates":[5518,5906]},{"type":"Point","properties":{"Station_ID":"CAN-MB-368","Station_Nam":"WHITESHELL 1.3 NE, CAN","Latitude":"49.74405","Longitude":"-95.19123","Snowdepth":"3.100","Units":"in","Rept_Date":"2020-12-03 14"},"coordinates":[677,9016]},{"type":"Point","properties":{"Station_ID":"41.0428_081.8193","Station_Nam":"5 WNW Wadsworth  CoCoRaHS (OH-MD-1)","Latitude":"41.04280","Longitude":"-81.81930","Snowdepth":"3.100","Units":"in","Rept_Date":"2020-12-03 10"},"coordinates":[5085,4703]},{"type":"Point","properties":{"Station_ID":"QWE","Station_Nam":"QWE","Latitude":"47.84610","Longitude":"-73.80670","Snowdepth":"3.071","Units":"in","Rept_Date":"2020-12-03 12"},"coordinates":[7726,8075]},{"type":"Point","properties":{"Station_ID":"WV-PR-8","Station_Nam":"KINGWOOD 0.6 E, WV","Latitude":"39.47199","Longitude":"-79.67155","Snowdepth":"3.000","Units":"in","Rept_Date":"2020-12-03 12"},"coordinates":[5793,3924]},{"type":"Point","properties":{"Station_ID":"WV-DD-1","Station_Nam":"CENTER POINT 2.2 NNW, WV","Latitude":"39.41954","Longitude":"-80.65610","Snowdepth":"3.000","Units":"in","Rept_Date":"2020-12-03 12"},"coordinates":[5468,3898]},{"type":"Point","properties":{"Station_ID":"PBZP1","Station_Nam":"MOON TOWNSHIP","Latitude":"40.53190","Longitude":"-80.21720","Snowdepth":"3.000","Units":"in","Rept_Date":"2020-12-03 12"},"coordinates":[5613,4449]},{"type":"Point","properties":{"Station_ID":"PA-BT-24","Station_Nam":"CABOT 0.3 N, PA","Latitude":"40.76870","Longitude":"-79.76690","Snowdepth":"3.000","Units":"in","Rept_Date":"2020-12-03 12"},"coordinates":[5761,4567]},{"type":"Point","properties":{"Station_ID":"PA-BT-15","Station_Nam":"FOX RUN 1.6 NNE, PA","Latitude":"40.72384","Longitude":"-80.07056","Snowdepth":"3.000","Units":"in","Rept_Date":"2020-12-03 11"},"coordinates":[5661,4545]},{"type":"Point","properties":{"Station_ID":"OSWP1","Station_Nam":"OSWAYO,PA","Latitude":"41.91670","Longitude":"-78.00000","Snowdepth":"3.000","Units":"in","Rept_Date":"2020-12-03 12"},"coordinates":[6344,5136]},{"type":"Point","properties":{"Station_ID":"OH-RS-8","Station_Nam":"CHILLICOTHE 5.8 NW, OH","Latitude":"39.38350","Longitude":"-83.07710","Snowdepth":"3.000","Units":"in","Rept_Date":"2020-12-03 12"},"coordinates":[4670,3880]},{"type":"Point","properties":{"Station_ID":"OH-FR-8","Station_Nam":"NEW ALBANY 2.8 SSE, OH","Latitude":"40.04029","Longitude":"-82.79800","Snowdepth":"3.000","Units":"in","Rept_Date":"2020-12-03 12"},"coordinates":[4762,4206]},{"type":"Point","properties":{"Station_ID":"NY-OS-38","Station_Nam":"MEXICO COOP, NY","Latitude":"43.43830","Longitude":"-76.26570","Snowdepth":"3.000","Units":"in","Rept_Date":"2020-12-03 12"},"coordinates":[6915,5890]},{"type":"Point","properties":{"Station_ID":"NY-HM-9","Station_Nam":"HOFFMEISTER 2.0 E, NY","Latitude":"43.38695","Longitude":"-74.67723","Snowdepth":"3.000","Units":"in","Rept_Date":"2020-12-03 13"},"coordinates":[7439,5865]},{"type":"Point","properties":{"Station_ID":"NC-ML-1","Station_Nam":"BAKERSVILLE 5.4 N, NC","Latitude":"36.09200","Longitude":"-82.17500","Snowdepth":"3.000","Units":"in","Rept_Date":"2020-12-03 12"},"coordinates":[4968,2249]},{"type":"Point","properties":{"Station_ID":"MXON6","Station_Nam":"MEXICO","Latitude":"43.43830","Longitude":"-76.26560","Snowdepth":"3.000","Units":"in","Rept_Date":"2020-12-03 12"},"coordinates":[6915,5890]},{"type":"Point","properties":{"Station_ID":"MOSO1","Station_Nam":"MOSQUITO CREEK DAM","Latitude":"41.28830","Longitude":"-80.76470","Snowdepth":"3.000","Units":"in","Rept_Date":"2020-12-03 12"},"coordinates":[5432,4824]},{"type":"Point","properties":{"Station_ID":"MN-CN-36","Station_Nam":"CLOQUET 3.4 ENE, MN","Latitude":"46.74146","Longitude":"-92.42698","Snowdepth":"3.000","Units":"in","Rept_Date":"2020-12-03 13"},"coordinates":[1588,7528]},{"type":"Point","properties":{"Station_ID":"MMTN7","Station_Nam":"MOUNT MITCHELL STATE PARK","Latitude":"35.75940","Longitude":"-82.27110","Snowdepth":"3.000","Units":"in","Rept_Date":"2020-12-03 13"},"coordinates":[4936,2084]},{"type":"Point","properties":{"Station_ID":"MFD","Station_Nam":"LAHM MUNICIPAL AIRPORT","Latitude":"40.82140","Longitude":"-82.51640","Snowdepth":"3.000","Units":"in","Rept_Date":"2020-12-04 00"},"coordinates":[4855,4593]},{"type":"Point","properties":{"Station_ID":"MCRW2","Station_Nam":"RUPERT 4N","Latitude":"38.01800","Longitude":"-80.68250","Snowdepth":"3.000","Units":"in","Rept_Date":"2020-12-03 12"},"coordinates":[5460,3203]},{"type":"Point","properties":{"Station_ID":"LPLN6","Station_Nam":"LAKE PLACID 2 S","Latitude":"44.30420","Longitude":"-73.98390","Snowdepth":"3.000","Units":"in","Rept_Date":"2020-12-03 13"},"coordinates":[7668,6319]},{"type":"Point","properties":{"Station_ID":"LEIM5","Station_Nam":"ORR 3E","Latitude":"48.05810","Longitude":"-92.75220","Snowdepth":"3.000","Units":"in","Rept_Date":"2020-12-03 12"},"coordinates":[1481,8180]},{"type":"Point","properties":{"Station_ID":"HVAW2","Station_Nam":"HACKER VALLEY","Latitude":"38.61950","Longitude":"-80.38210","Snowdepth":"3.000","Units":"in","Rept_Date":"2020-12-03 10"},"coordinates":[5559,3501]},{"type":"Point","properties":{"Station_ID":"HGHN6","Station_Nam":"HIGHMARKET","Latitude":"43.60510","Longitude":"-75.55430","Snowdepth":"3.000","Units":"in","Rept_Date":"2020-12-03 11"},"coordinates":[7150,5973]},{"type":"Point","properties":{"Station_ID":"HERM4","Station_Nam":"HERMAN,MI","Latitude":"46.65000","Longitude":"-88.33330","Snowdepth":"3.000","Units":"in","Rept_Date":"2020-12-03 13"},"coordinates":[2938,7482]},{"type":"Point","properties":{"Station_ID":"HBHM4","Station_Nam":"HARBOR BEACH,MI","Latitude":"43.83330","Longitude":"-82.63330","Snowdepth":"3.000","Units":"in","Rept_Date":"2020-12-03 13"},"coordinates":[4817,6086]},{"type":"Point","properties":{"Station_ID":"DLH","Station_Nam":"DULUTH, MN","Latitude":"46.83690","Longitude":"-92.21030","Snowdepth":"3.000","Units":"in","Rept_Date":"2020-12-04 00"},"coordinates":[1660,7575]},{"type":"Point","properties":{"Station_ID":"COKM5","Station_Nam":"COOK","Latitude":"47.85060","Longitude":"-92.69250","Snowdepth":"3.000","Units":"in","Rept_Date":"2020-12-03 12"},"coordinates":[1501,8077]},{"type":"Point","properties":{"Station_ID":"CLCO1","Station_Nam":"CHILLICOTHE 6 NW","Latitude":"39.38350","Longitude":"-83.07730","Snowdepth":"3.000","Units":"in","Rept_Date":"2020-12-03 12"},"coordinates":[4670,3880]},{"type":"Point","properties":{"Station_ID":"CAN-ON-220","Station_Nam":"DEEP RIVER 1.5 SE - MNRF, CAN","Latitude":"46.09592","Longitude":"-77.47853","Snowdepth":"3.000","Units":"in","Rept_Date":"2020-12-03 13"},"coordinates":[6516,7208]},{"type":"Point","properties":{"Station_ID":"BTNW2","Station_Nam":"BURTON","Latitude":"39.64670","Longitude":"-80.40670","Snowdepth":"3.000","Units":"in","Rept_Date":"2020-12-03 08"},"coordinates":[5550,4011]},{"type":"Point","properties":{"Station_ID":"BNDM5","Station_Nam":"ELY 25E","Latitude":"47.97190","Longitude":"-91.44860","Snowdepth":"3.000","Units":"in","Rept_Date":"2020-12-03 13"},"coordinates":[1911,8138]},{"type":"Point","properties":{"Station_ID":"BDFP1","Station_Nam":"BRADFORD,PA","Latitude":"41.95000","Longitude":"-78.73330","Snowdepth":"3.000","Units":"in","Rept_Date":"2020-12-03 13"},"coordinates":[6102,5152]},{"type":"Point","properties":{"Station_ID":"41.2883_080.7647","Station_Nam":"Mosquito Creek Lake  Co-Op Observer (MOSO1)","Latitude":"41.28830","Longitude":"-80.76470","Snowdepth":"3.000","Units":"in","Rept_Date":"2020-12-03 12"},"coordinates":[5432,4824]},{"type":"Point","properties":{"Station_ID":"NY-NG-30","Station_Nam":"LOCKPORT 2.5 ESE, NY","Latitude":"43.15207","Longitude":"-78.65338","Snowdepth":"2.900","Units":"in","Rept_Date":"2020-12-03 12"},"coordinates":[6128,5748]},{"type":"Point","properties":{"Station_ID":"CAN-ON-771","Station_Nam":"KENORA 8.7 NNE - CANWARN, CAN","Latitude":"49.84171","Longitude":"-94.44386","Snowdepth":"2.800","Units":"in","Rept_Date":"2020-12-03 13"},"coordinates":[923,9064]},{"type":"Point","properties":{"Station_ID":"CAN-ON-285","Station_Nam":"LEAMINGTON 3.0 N, CAN","Latitude":"42.07693","Longitude":"-82.59744","Snowdepth":"2.800","Units":"in","Rept_Date":"2020-12-03 11"},"coordinates":[4828,5215]},{"type":"Point","properties":{"Station_ID":"CAN-ON-248","Station_Nam":"WINDSOR 6.5 SE, CAN","Latitude":"42.24941","Longitude":"-82.99996","Snowdepth":"2.700","Units":"in","Rept_Date":"2020-12-03 12"},"coordinates":[4696,5301]},{"type":"Point","properties":{"Station_ID":"QLP","Station_Nam":"QLP","Latitude":"48.13920","Longitude":"-72.63830","Snowdepth":"2.638","Units":"in","Rept_Date":"2020-12-03 12"},"coordinates":[8111,8221]},{"type":"Point","properties":{"Station_ID":"PA-VN-5","Station_Nam":"SENECA 0.7 NNE, PA","Latitude":"41.38455","Longitude":"-79.69790","Snowdepth":"2.500","Units":"in","Rept_Date":"2020-12-03 12"},"coordinates":[5784,4872]},{"type":"Point","properties":{"Station_ID":"PA-MR-5","Station_Nam":"WEST MIDDLESEX 2.1 S, PA","Latitude":"41.14334","Longitude":"-80.45519","Snowdepth":"2.500","Units":"in","Rept_Date":"2020-12-03 12"},"coordinates":[5534,4753]},{"type":"Point","properties":{"Station_ID":"PA-ER-5","Station_Nam":"NORTH EAST 1.2 WNW, PA","Latitude":"42.22058","Longitude":"-79.85510","Snowdepth":"2.500","Units":"in","Rept_Date":"2020-12-03 13"},"coordinates":[5732,5287]},{"type":"Point","properties":{"Station_ID":"PA-CM-4","Station_Nam":"BELMONT 0.1 NE, PA","Latitude":"40.28347","Longitude":"-78.89010","Snowdepth":"2.500","Units":"in","Rept_Date":"2020-12-03 13"},"coordinates":[6050,4326]},{"type":"Point","properties":{"Station_ID":"PA-BT-40","Station_Nam":"CABOT 1.6 WNW, PA","Latitude":"40.77250","Longitude":"-79.79560","Snowdepth":"2.500","Units":"in","Rept_Date":"2020-12-03 12"},"coordinates":[5752,4569]},{"type":"Point","properties":{"Station_ID":"OH-MW-4","Station_Nam":"MOUNT GILEAD 4.9 ESE, OH","Latitude":"40.51426","Longitude":"-82.75561","Snowdepth":"2.500","Units":"in","Rept_Date":"2020-12-03 12"},"coordinates":[4776,4441]},{"type":"Point","properties":{"Station_ID":"NY-CR-1","Station_Nam":"FREETOWN 1.0 NE, NY","Latitude":"42.53299","Longitude":"-76.02111","Snowdepth":"2.500","Units":"in","Rept_Date":"2020-12-03 12"},"coordinates":[6996,5441]},{"type":"Point","properties":{"Station_ID":"IN-LP-73","Station_Nam":"MILL CREEK 1.9 NNE, IN","Latitude":"41.60739","Longitude":"-86.52419","Snowdepth":"2.500","Units":"in","Rept_Date":"2020-12-03 13"},"coordinates":[3534,4983]},{"type":"Point","properties":{"Station_ID":"42.2206_079.8551","Station_Nam":"1 WNW North East  CoCoRaHS (PA-ER-5)","Latitude":"42.22060","Longitude":"-79.85510","Snowdepth":"2.500","Units":"in","Rept_Date":"2020-12-03 13"},"coordinates":[5732,5287]},{"type":"Point","properties":{"Station_ID":"40.5143_082.7556","Station_Nam":"5 ESE Mount Gilead  CoCoRaHS (OH-MW-4)","Latitude":"40.51430","Longitude":"-82.75560","Snowdepth":"2.500","Units":"in","Rept_Date":"2020-12-03 11"},"coordinates":[4776,4441]},{"type":"Point","properties":{"Station_ID":"PA-AL-3","Station_Nam":"SOUTH FAYETTE 2 SE, PA","Latitude":"40.33810","Longitude":"-80.11590","Snowdepth":"2.200","Units":"in","Rept_Date":"2020-12-03 12"},"coordinates":[5646,4353]},{"type":"Point","properties":{"Station_ID":"YALM4","Station_Nam":"YALE,MI","Latitude":"43.15000","Longitude":"-82.80000","Snowdepth":"2.000","Units":"in","Rept_Date":"2020-12-03 11"},"coordinates":[4762,5747]},{"type":"Point","properties":{"Station_ID":"WYTM4","Station_Nam":"WYANDOTTE","Latitude":"42.20110","Longitude":"-83.16830","Snowdepth":"2.000","Units":"in","Rept_Date":"2020-12-03 13"},"coordinates":[4640,5277]},{"type":"Point","properties":{"Station_ID":"WV-GL-4","Station_Nam":"GLENVILLE 5.9 W, WV","Latitude":"38.95326","Longitude":"-80.94213","Snowdepth":"2.000","Units":"in","Rept_Date":"2020-12-03 12"},"coordinates":[5374,3667]},{"type":"Point","properties":{"Station_ID":"WV-DD-9","Station_Nam":"WEST UNION 2.9 SE, WV","Latitude":"39.27224","Longitude":"-80.73230","Snowdepth":"2.000","Units":"in","Rept_Date":"2020-12-03 12"},"coordinates":[5443,3825]},{"type":"Point","properties":{"Station_ID":"WRSN6","Station_Nam":"WARSAW 6SW","Latitude":"42.68550","Longitude":"-78.22020","Snowdepth":"2.000","Units":"in","Rept_Date":"2020-12-03 12"},"coordinates":[6271,5517]},{"type":"Point","properties":{"Station_ID":"WRSM5","Station_Nam":"WRENSHALL","Latitude":"46.61550","Longitude":"-92.38380","Snowdepth":"2.000","Units":"in","Rept_Date":"2020-12-03 14"},"coordinates":[1602,7465]},{"type":"Point","properties":{"Station_ID":"WLSN6","Station_Nam":"WALES","Latitude":"42.73920","Longitude":"-78.58780","Snowdepth":"2.000","Units":"in","Rept_Date":"2020-12-03 12"},"coordinates":[6150,5544]},{"type":"Point","properties":{"Station_ID":"WI-VL-9","Station_Nam":"LAND O' LAKES 11.7 W, WI","Latitude":"46.19023","Longitude":"-89.45790","Snowdepth":"2.000","Units":"in","Rept_Date":"2020-12-03 13"},"coordinates":[2567,7254]},{"type":"Point","properties":{"Station_ID":"TOGM5","Station_Nam":"CELINA 2E","Latitude":"47.86630","Longitude":"-93.02660","Snowdepth":"2.000","Units":"in","Rept_Date":"2020-12-03 15"},"coordinates":[1391,8085]},{"type":"Point","properties":{"Station_ID":"SPPP1","Station_Nam":"SLIPPERY ROCK","Latitude":"41.05600","Longitude":"-80.05950","Snowdepth":"2.000","Units":"in","Rept_Date":"2020-12-03 12"},"coordinates":[5665,4709]},{"type":"Point","properties":{"Station_ID":"SLTP1","Station_Nam":"LOYALHANNA LAKE STATE PARK","Latitude":"40.45860","Longitude":"-79.45030","Snowdepth":"2.000","Units":"in","Rept_Date":"2020-12-03 12"},"coordinates":[5866,4413]},{"type":"Point","properties":{"Station_ID":"SGVN6","Station_Nam":"SPRINGVILLE","Latitude":"42.54970","Longitude":"-78.57670","Snowdepth":"2.000","Units":"in","Rept_Date":"2020-12-04 00"},"coordinates":[6154,5450]},{"type":"Point","properties":{"Station_ID":"SBNN6","Station_Nam":"SANBORN","Latitude":"43.17050","Longitude":"-78.81810","Snowdepth":"2.000","Units":"in","Rept_Date":"2020-12-03 12"},"coordinates":[6074,5757]},{"type":"Point","properties":{"Station_ID":"RUHN6","Station_Nam":"RUSHFORD","Latitude":"42.39150","Longitude":"-78.24840","Snowdepth":"2.000","Units":"in","Rept_Date":"2020-12-03 11"},"coordinates":[6262,5371]},{"type":"Point","properties":{"Station_ID":"RDWP1","Station_Nam":"RIDGWAY,PA","Latitude":"41.41670","Longitude":"-78.75000","Snowdepth":"2.000","Units":"in","Rept_Date":"2020-12-03 12"},"coordinates":[6097,4888]},{"type":"Point","properties":{"Station_ID":"RCVW2","Station_Nam":"ROCK CAVE 2NE","Latitude":"38.85610","Longitude":"-80.30740","Snowdepth":"2.000","Units":"in","Rept_Date":"2020-12-03 13"},"coordinates":[5583,3619]},{"type":"Point","properties":{"Station_ID":"PNYP1","Station_Nam":"MAHONING LAKE","Latitude":"40.92500","Longitude":"-79.28250","Snowdepth":"2.000","Units":"in","Rept_Date":"2020-12-03 13"},"coordinates":[5921,4644]},{"type":"Point","properties":{"Station_ID":"PGLP1","Station_Nam":"GLENDALE LAKE","Latitude":"40.65000","Longitude":"-78.55000","Snowdepth":"2.000","Units":"in","Rept_Date":"2020-12-03 11"},"coordinates":[6162,4508]},{"type":"Point","properties":{"Station_ID":"PEKN6","Station_Nam":"PECK LAKE","Latitude":"43.11500","Longitude":"-74.42360","Snowdepth":"2.000","Units":"in","Rept_Date":"2020-12-03 12"},"coordinates":[7523,5730]},{"type":"Point","properties":{"Station_ID":"PALP1","Station_Nam":"PORT ALLEGANY,PA","Latitude":"41.81670","Longitude":"-78.28330","Snowdepth":"2.000","Units":"in","Rept_Date":"2020-12-03 11"},"coordinates":[6250,5086]},{"type":"Point","properties":{"Station_ID":"PA-WS-5","Station_Nam":"MCMURRAY 0.2 NE, PA","Latitude":"40.28311","Longitude":"-80.08570","Snowdepth":"2.000","Units":"in","Rept_Date":"2020-12-03 12"},"coordinates":[5656,4326]},{"type":"Point","properties":{"Station_ID":"PA-WS-29","Station_Nam":"FINLEYVILLE 0.9 NNW, PA","Latitude":"40.26329","Longitude":"-80.01128","Snowdepth":"2.000","Units":"in","Rept_Date":"2020-12-03 12"},"coordinates":[5681,4316]},{"type":"Point","properties":{"Station_ID":"PA-WS-25","Station_Nam":"DUNLEVY 0.1 SSE, PA","Latitude":"40.11073","Longitude":"-79.85778","Snowdepth":"2.000","Units":"in","Rept_Date":"2020-12-03 13"},"coordinates":[5731,4241]},{"type":"Point","properties":{"Station_ID":"PA-BT-27","Station_Nam":"SLIPPERY ROCK 5.2 SE, PA","Latitude":"41.00867","Longitude":"-80.00307","Snowdepth":"2.000","Units":"in","Rept_Date":"2020-12-03 13"},"coordinates":[5684,4686]},{"type":"Point","properties":{"Station_ID":"PA-AL-92","Station_Nam":"ASPINWALL 0.0 NW, PA","Latitude":"40.49283","Longitude":"-79.90432","Snowdepth":"2.000","Units":"in","Rept_Date":"2020-12-03 12"},"coordinates":[5716,4430]},{"type":"Point","properties":{"Station_ID":"OH-OT-9","Station_Nam":"PORT CLINTON 6.8 W, OH","Latitude":"41.52388","Longitude":"-83.06833","Snowdepth":"2.000","Units":"in","Rept_Date":"2020-12-03 13"},"coordinates":[4673,4941]},{"type":"Point","properties":{"Station_ID":"OH-JF-9","Station_Nam":"MOUNT PLEASANT 1.4 WSW, OH","Latitude":"40.16496","Longitude":"-80.82290","Snowdepth":"2.000","Units":"in","Rept_Date":"2020-12-03 12"},"coordinates":[5413,4268]},{"type":"Point","properties":{"Station_ID":"OH-FR-87","Station_Nam":"WESTERVILLE 4.3 ESE, OH","Latitude":"40.09415","Longitude":"-82.84499","Snowdepth":"2.000","Units":"in","Rept_Date":"2020-12-03 13"},"coordinates":[4747,4232]},{"type":"Point","properties":{"Station_ID":"OH-CW-3","Station_Nam":"BUCYRUS 1.0 NW, OH","Latitude":"40.81455","Longitude":"-82.98480","Snowdepth":"2.000","Units":"in","Rept_Date":"2020-12-03 12"},"coordinates":[4701,4590]},{"type":"Point","properties":{"Station_ID":"OH-CN-14","Station_Nam":"WILMINGTON 7.4 NNW, OH","Latitude":"39.54607","Longitude":"-83.87280","Snowdepth":"2.000","Units":"in","Rept_Date":"2020-12-03 12"},"coordinates":[4408,3961]},{"type":"Point","properties":{"Station_ID":"OH-CN-10","Station_Nam":"WILMINGTON 2.2 N, OH","Latitude":"39.47452","Longitude":"-83.83610","Snowdepth":"2.000","Units":"in","Rept_Date":"2020-12-03 12"},"coordinates":[4420,3925]},{"type":"Point","properties":{"Station_ID":"OH-CB-8","Station_Nam":"HANOVERTON 0.4 ENE, OH","Latitude":"40.75696","Longitude":"-80.92919","Snowdepth":"2.000","Units":"in","Rept_Date":"2020-12-03 09"},"coordinates":[5378,4561]},{"type":"Point","properties":{"Station_ID":"OH-AT-3","Station_Nam":"STEWART 4.6 NNE, OH","Latitude":"39.37182","Longitude":"-81.86620","Snowdepth":"2.000","Units":"in","Rept_Date":"2020-12-03 12"},"coordinates":[5069,3874]},{"type":"Point","properties":{"Station_ID":"OH-AL-5","Station_Nam":"LIMA 2.7 NE, OH","Latitude":"40.77390","Longitude":"-84.08000","Snowdepth":"2.000","Units":"in","Rept_Date":"2020-12-03 12"},"coordinates":[4340,4569]},{"type":"Point","properties":{"Station_ID":"NY-TM-4","Station_Nam":"GROTON 0.5 NW, NY","Latitude":"42.59127","Longitude":"-76.37200","Snowdepth":"2.000","Units":"in","Rept_Date":"2020-12-03 12"},"coordinates":[6880,5470]},{"type":"Point","properties":{"Station_ID":"NY-TM-27","Station_Nam":"GROTON 3.2 SSW, NY","Latitude":"42.54725","Longitude":"-76.39960","Snowdepth":"2.000","Units":"in","Rept_Date":"2020-12-03 12"},"coordinates":[6871,5448]},{"type":"Point","properties":{"Station_ID":"NY-OT-11","Station_Nam":"HARTWICK, NY","Latitude":"42.65990","Longitude":"-75.05000","Snowdepth":"2.000","Units":"in","Rept_Date":"2020-12-03 13"},"coordinates":[7316,5504]},{"type":"Point","properties":{"Station_ID":"NY-OG-46","Station_Nam":"BALDWINSVILLE 3.5 NE, NY","Latitude":"43.19506","Longitude":"-76.28830","Snowdepth":"2.000","Units":"in","Rept_Date":"2020-12-03 13"},"coordinates":[6908,5770]},{"type":"Point","properties":{"Station_ID":"NY-OD-43","Station_Nam":"HOLLAND PATENT 1.1 WNW, NY","Latitude":"43.24707","Longitude":"-75.27750","Snowdepth":"2.000","Units":"in","Rept_Date":"2020-12-03 12"},"coordinates":[7241,5795]},{"type":"Point","properties":{"Station_ID":"NY-NG-2","Station_Nam":"NORTH TONAWANDA 1.0 NNE, NY","Latitude":"43.05725","Longitude":"-78.86170","Snowdepth":"2.000","Units":"in","Rept_Date":"2020-12-03 12"},"coordinates":[6060,5701]},{"type":"Point","properties":{"Station_ID":"NY-ER-96","Station_Nam":"ELMA 2.7 WSW, NY","Latitude":"42.81004","Longitude":"-78.68130","Snowdepth":"2.000","Units":"in","Rept_Date":"2020-12-03 12"},"coordinates":[6119,5579]},{"type":"Point","properties":{"Station_ID":"NY-ER-63","Station_Nam":"GLENWOOD 1.5 SE, NY","Latitude":"42.60195","Longitude":"-78.63910","Snowdepth":"2.000","Units":"in","Rept_Date":"2020-12-03 13"},"coordinates":[6133,5476]},{"type":"Point","properties":{"Station_ID":"NY-ER-56","Station_Nam":"COLDEN 1.4 NNW, NY","Latitude":"42.64740","Longitude":"-78.71120","Snowdepth":"2.000","Units":"in","Rept_Date":"2020-12-03 12"},"coordinates":[6109,5498]},{"type":"Point","properties":{"Station_ID":"NY-CT-32","Station_Nam":"SALAMANCA 1.5 E, NY","Latitude":"42.16730","Longitude":"-78.69277","Snowdepth":"2.000","Units":"in","Rept_Date":"2020-12-03 12"},"coordinates":[6115,5260]},{"type":"Point","properties":{"Station_ID":"NY-CQ-35","Station_Nam":"FALCONER 0.3 WSW, NY","Latitude":"42.11766","Longitude":"-79.20278","Snowdepth":"2.000","Units":"in","Rept_Date":"2020-12-03 12"},"coordinates":[5947,5236]},{"type":"Point","properties":{"Station_ID":"NWLO1","Station_Nam":"NEW LEXINGTON 2 NW","Latitude":"39.73320","Longitude":"-82.21560","Snowdepth":"2.000","Units":"in","Rept_Date":"2020-12-03 12"},"coordinates":[4954,4054]},{"type":"Point","properties":{"Station_ID":"NTON6","Station_Nam":"NORTH TONAWANDA","Latitude":"43.05730","Longitude":"-78.86170","Snowdepth":"2.000","Units":"in","Rept_Date":"2020-12-03 12"},"coordinates":[6060,5701]},{"type":"Point","properties":{"Station_ID":"NEWO1","Station_Nam":"NEWPORT","Latitude":"39.39330","Longitude":"-81.21930","Snowdepth":"2.000","Units":"in","Rept_Date":"2020-12-03 13"},"coordinates":[5283,3885]},{"type":"Point","properties":{"Station_ID":"NC-WT-48","Station_Nam":"SEVEN DEVILS 0.1 E, NC","Latitude":"36.14965","Longitude":"-81.81214","Snowdepth":"2.000","Units":"in","Rept_Date":"2020-12-03 13"},"coordinates":[5087,2277]},{"type":"Point","properties":{"Station_ID":"NC-ML-15","Station_Nam":"BULADEAN 1.3 ESE, NC","Latitude":"36.10222","Longitude":"-82.17261","Snowdepth":"2.000","Units":"in","Rept_Date":"2020-12-03 13"},"coordinates":[4968,2254]},{"type":"Point","properties":{"Station_ID":"MNBW2","Station_Nam":"MT. NEBO 1S","Latitude":"38.18790","Longitude":"-80.84840","Snowdepth":"2.000","Units":"in","Rept_Date":"2020-12-03 12"},"coordinates":[5405,3287]},{"type":"Point","properties":{"Station_ID":"MN-SL-15","Station_Nam":"CHISHOLM 0.4 WSW, MN","Latitude":"47.48557","Longitude":"-92.88690","Snowdepth":"2.000","Units":"in","Rept_Date":"2020-12-03 13"},"coordinates":[1437,7897]},{"type":"Point","properties":{"Station_ID":"MN-SL-14","Station_Nam":"DULUTH 4.1 NNE, MN","Latitude":"46.83569","Longitude":"-92.06600","Snowdepth":"2.000","Units":"in","Rept_Date":"2020-12-03 12"},"coordinates":[1707,7574]},{"type":"Point","properties":{"Station_ID":"MN-SL-108","Station_Nam":"IRON JUNCTION 3.4 NNW, MN","Latitude":"47.46150","Longitude":"-92.63130","Snowdepth":"2.000","Units":"in","Rept_Date":"2020-12-03 12"},"coordinates":[1521,7885]},{"type":"Point","properties":{"Station_ID":"MN-CK-6","Station_Nam":"GRAND MARAIS 4.4 W, MN","Latitude":"47.74865","Longitude":"-90.43760","Snowdepth":"2.000","Units":"in","Rept_Date":"2020-12-03 13"},"coordinates":[2244,8027]},{"type":"Point","properties":{"Station_ID":"MIEM4","Station_Nam":"MICHIGAMME 3WNW","Latitude":"46.54530","Longitude":"-88.18000","Snowdepth":"2.000","Units":"in","Rept_Date":"2020-12-03 13"},"coordinates":[2988,7430]},{"type":"Point","properties":{"Station_ID":"MECN6","Station_Nam":"MECKLENBURG 4 SW","Latitude":"42.44220","Longitude":"-76.75740","Snowdepth":"2.000","Units":"in","Rept_Date":"2020-12-03 12"},"coordinates":[6753,5396]},{"type":"Point","properties":{"Station_ID":"MALN6","Station_Nam":"MALONE","Latitude":"44.84180","Longitude":"-74.30600","Snowdepth":"2.000","Units":"in","Rept_Date":"2020-12-03 12"},"coordinates":[7561,6586]},{"type":"Point","properties":{"Station_ID":"LNOW3","Station_Nam":"LAND O LAKES","Latitude":"46.19000","Longitude":"-89.45700","Snowdepth":"2.000","Units":"in","Rept_Date":"2020-12-03 13"},"coordinates":[2567,7254]},{"type":"Point","properties":{"Station_ID":"LAPP1","Station_Nam":"LAPORTE,PA","Latitude":"41.42470","Longitude":"-76.49250","Snowdepth":"2.000","Units":"in","Rept_Date":"2020-12-03 11"},"coordinates":[6841,4892]},{"type":"Point","properties":{"Station_ID":"KSGM4","Station_Nam":"KEARSARGE","Latitude":"47.27520","Longitude":"-88.41700","Snowdepth":"2.000","Units":"in","Rept_Date":"2020-12-03 13"},"coordinates":[2910,7792]},{"type":"Point","properties":{"Station_ID":"KNXI3","Station_Nam":"KNOX WWTP","Latitude":"41.30530","Longitude":"-86.62850","Snowdepth":"2.000","Units":"in","Rept_Date":"2020-12-03 13"},"coordinates":[3500,4833]},{"type":"Point","properties":{"Station_ID":"KMWN","Station_Nam":"MOUNT WASHINGTON","Latitude":"44.26666","Longitude":"-71.30000","Snowdepth":"2.000","Units":"in","Rept_Date":"2020-12-04 06"},"coordinates":[8552,6301]},{"type":"Point","properties":{"Station_ID":"KABM5","Station_Nam":"KABETOGAMA LAKE VISITOR CTR","Latitude":"48.40880","Longitude":"-93.04840","Snowdepth":"2.000","Units":"in","Rept_Date":"2020-12-03 13"},"coordinates":[1383,8354]},{"type":"Point","properties":{"Station_ID":"JSTN6","Station_Nam":"JAMESTOWN 4 ENE","Latitude":"42.11000","Longitude":"-79.15910","Snowdepth":"2.000","Units":"in","Rept_Date":"2020-12-03 12"},"coordinates":[5962,5232]},{"type":"Point","properties":{"Station_ID":"INL","Station_Nam":"FALLS INTERNATIONAL ARPT","Latitude":"48.56640","Longitude":"-93.40310","Snowdepth":"2.000","Units":"in","Rept_Date":"2020-12-04 00"},"coordinates":[1266,8432]},{"type":"Point","properties":{"Station_ID":"IFSM5","Station_Nam":"INTERNATIONAL FALLS SNOW","Latitude":"48.57780","Longitude":"-93.39640","Snowdepth":"2.000","Units":"in","Rept_Date":"2020-12-03 12"},"coordinates":[1269,8438]},{"type":"Point","properties":{"Station_ID":"HUNO1","Station_Nam":"HUNTSVILLE 3 N","Latitude":"40.47990","Longitude":"-83.81270","Snowdepth":"2.000","Units":"in","Rept_Date":"2020-12-03 12"},"coordinates":[4428,4424]},{"type":"Point","properties":{"Station_ID":"GEST1","Station_Nam":"GREENEVILLE,TN","Latitude":"36.10560","Longitude":"-82.84360","Snowdepth":"2.000","Units":"in","Rept_Date":"2020-12-03 13"},"coordinates":[4747,2255]},{"type":"Point","properties":{"Station_ID":"FUTN6","Station_Nam":"FULTON","Latitude":"43.30500","Longitude":"-76.39380","Snowdepth":"2.000","Units":"in","Rept_Date":"2020-12-03 12"},"coordinates":[6873,5824]},{"type":"Point","properties":{"Station_ID":"FRKN6","Station_Nam":"FRANKLINVILLE","Latitude":"42.32940","Longitude":"-78.46350","Snowdepth":"2.000","Units":"in","Rept_Date":"2020-12-03 12"},"coordinates":[6191,5340]},{"type":"Point","properties":{"Station_ID":"FLDM5","Station_Nam":"FLOODWOOD,MN","Latitude":"47.00000","Longitude":"-92.91670","Snowdepth":"2.000","Units":"in","Rept_Date":"2020-12-03 14"},"coordinates":[1427,7656]},{"type":"Point","properties":{"Station_ID":"FKNP1","Station_Nam":"FRANKLIN","Latitude":"41.39030","Longitude":"-79.82170","Snowdepth":"2.000","Units":"in","Rept_Date":"2020-12-03 14"},"coordinates":[5743,4875]},{"type":"Point","properties":{"Station_ID":"EMBM5","Station_Nam":"EMBARASS,MN","Latitude":"47.65810","Longitude":"-92.19580","Snowdepth":"2.000","Units":"in","Rept_Date":"2020-12-03 12"},"coordinates":[1664,7982]},{"type":"Point","properties":{"Station_ID":"CSPP1","Station_Nam":"COUDERSPORT 1 SW","Latitude":"41.77500","Longitude":"-78.04170","Snowdepth":"2.000","Units":"in","Rept_Date":"2020-12-03 12"},"coordinates":[6330,5066]},{"type":"Point","properties":{"Station_ID":"CRLM5","Station_Nam":"CROSS LAKE DAM","Latitude":"46.66930","Longitude":"-94.11060","Snowdepth":"2.000","Units":"in","Rept_Date":"2020-12-03 14"},"coordinates":[1033,7492]},{"type":"Point","properties":{"Station_ID":"COTM5","Station_Nam":"COTTON","Latitude":"47.16870","Longitude":"-92.46290","Snowdepth":"2.000","Units":"in","Rept_Date":"2020-12-03 13"},"coordinates":[1576,7739]},{"type":"Point","properties":{"Station_ID":"CODN6","Station_Nam":"COLDEN","Latitude":"42.64720","Longitude":"-78.71110","Snowdepth":"2.000","Units":"in","Rept_Date":"2020-12-03 12"},"coordinates":[6109,5498]},{"type":"Point","properties":{"Station_ID":"CLAP1","Station_Nam":"PINEY LAKE","Latitude":"41.19220","Longitude":"-79.43560","Snowdepth":"2.000","Units":"in","Rept_Date":"2020-12-03 12"},"coordinates":[5871,4777]},{"type":"Point","properties":{"Station_ID":"CJRP1","Station_Nam":"COUDERSPORT 7SE","Latitude":"41.73920","Longitude":"-77.97110","Snowdepth":"2.000","Units":"in","Rept_Date":"2020-12-03 12"},"coordinates":[6353,5048]},{"type":"Point","properties":{"Station_ID":"CAN-ON-33","Station_Nam":"BURLINGTON 1.7 W, CA","Latitude":"43.37134","Longitude":"-79.83550","Snowdepth":"2.000","Units":"in","Rept_Date":"2020-12-03 12"},"coordinates":[5739,5857]},{"type":"Point","properties":{"Station_ID":"CAN-ON-324","Station_Nam":"AMHERSTBURG 4.0 NNE, CAN","Latitude":"42.13151","Longitude":"-83.08810","Snowdepth":"2.000","Units":"in","Rept_Date":"2020-12-03 12"},"coordinates":[4667,5242]},{"type":"Point","properties":{"Station_ID":"CAN-MB-32","Station_Nam":"PINAWA 1.0 SW, CA","Latitude":"50.14747","Longitude":"-95.89020","Snowdepth":"2.000","Units":"in","Rept_Date":"2020-12-03 13"},"coordinates":[447,9216]},{"type":"Point","properties":{"Station_ID":"BYSO1","Station_Nam":"BUCYRUS,OH","Latitude":"40.81280","Longitude":"-82.96670","Snowdepth":"2.000","Units":"in","Rept_Date":"2020-12-03 12"},"coordinates":[4707,4589]},{"type":"Point","properties":{"Station_ID":"BENN6","Station_Nam":"BENNETTS BRIDGE","Latitude":"43.53180","Longitude":"-75.95260","Snowdepth":"2.000","Units":"in","Rept_Date":"2020-12-03 12"},"coordinates":[7019,5937]},{"type":"Point","properties":{"Station_ID":"AUBN6","Station_Nam":"AUBURN","Latitude":"42.93270","Longitude":"-76.54470","Snowdepth":"2.000","Units":"in","Rept_Date":"2020-12-03 11"},"coordinates":[6823,5640]},{"type":"Point","properties":{"Station_ID":"40.8146_082.9848","Station_Nam":"1 NW Bucyrus  CoCoRaHS (OH-CW-3)","Latitude":"40.81460","Longitude":"-82.98480","Snowdepth":"2.000","Units":"in","Rept_Date":"2020-12-03 11"},"coordinates":[4701,4590]},{"type":"Point","properties":{"Station_ID":"40.8128_082.9667","Station_Nam":"BUCYRUS  CO-OP OBSERVER (BYSO1)","Latitude":"40.81280","Longitude":"-82.96670","Snowdepth":"2.000","Units":"in","Rept_Date":"2020-12-03 12"},"coordinates":[4707,4589]},{"type":"Point","properties":{"Station_ID":"WI-SR-1","Station_Nam":"HAYWARD 9.2 NNE, WI","Latitude":"46.13255","Longitude":"-91.40500","Snowdepth":"1.800","Units":"in","Rept_Date":"2020-12-03 12"},"coordinates":[1925,7226]},{"type":"Point","properties":{"Station_ID":"PA-CR-1","Station_Nam":"EMPORIUM 2.6 S, PA","Latitude":"41.47342","Longitude":"-78.24330","Snowdepth":"1.800","Units":"in","Rept_Date":"2020-12-03 13"},"coordinates":[6264,4916]},{"type":"Point","properties":{"Station_ID":"NY-OG-12","Station_Nam":"CLAY 4.6 NW, NY","Latitude":"43.20000","Longitude":"-76.26000","Snowdepth":"1.800","Units":"in","Rept_Date":"2020-12-03 12"},"coordinates":[6917,5772]},{"type":"Point","properties":{"Station_ID":"NY-CY-31","Station_Nam":"SCIPIO CENTER 3.0 S, NY","Latitude":"42.74002","Longitude":"-76.55682","Snowdepth":"1.800","Units":"in","Rept_Date":"2020-12-03 12"},"coordinates":[6819,5544]},{"type":"Point","properties":{"Station_ID":"QLM","Station_Nam":"QLM","Latitude":"48.92030","Longitude":"-70.25280","Snowdepth":"1.772","Units":"in","Rept_Date":"2020-12-03 12"},"coordinates":[8897,8608]},{"type":"Point","properties":{"Station_ID":"NFGT1","Station_Nam":"NEW FOUND GAP","Latitude":"35.61080","Longitude":"-83.42890","Snowdepth":"1.610","Units":"in","Rept_Date":"2020-12-04 06"},"coordinates":[4554,2010]},{"type":"Point","properties":{"Station_ID":"CAN-ON-822","Station_Nam":"NIAGARA FALLS 5.9 SSE, CAN","Latitude":"43.05738","Longitude":"-79.05126","Snowdepth":"1.600","Units":"in","Rept_Date":"2020-12-03 13"},"coordinates":[5997,5701]},{"type":"Point","properties":{"Station_ID":"VT-RT-24","Station_Nam":"MIDDLETOWN SPRINGS 0.9 WNW, VT","Latitude":"43.49194","Longitude":"-73.13350","Snowdepth":"1.500","Units":"in","Rept_Date":"2020-12-03 12"},"coordinates":[7948,5917]},{"type":"Point","properties":{"Station_ID":"VT-OL-12","Station_Nam":"GREENSBORO 3.9 NNE, VT","Latitude":"44.63100","Longitude":"-72.28000","Snowdepth":"1.500","Units":"in","Rept_Date":"2020-12-03 13"},"coordinates":[8229,6481]},{"type":"Point","properties":{"Station_ID":"VT-OL-1","Station_Nam":"WESTFIELD 0.7 WNW, VT","Latitude":"44.89160","Longitude":"-72.44350","Snowdepth":"1.500","Units":"in","Rept_Date":"2020-12-03 12"},"coordinates":[8175,6611]},{"type":"Point","properties":{"Station_ID":"VT-CH-4","Station_Nam":"UNDERHILL 4.4 NNE, VT","Latitude":"44.58774","Longitude":"-72.92250","Snowdepth":"1.500","Units":"in","Rept_Date":"2020-12-03 12"},"coordinates":[8017,6460]},{"type":"Point","properties":{"Station_ID":"VT-CH-11","Station_Nam":"UNDERHILL 5.1 NNE, VT","Latitude":"44.59811","Longitude":"-72.91880","Snowdepth":"1.500","Units":"in","Rept_Date":"2020-12-03 14"},"coordinates":[8019,6465]},{"type":"Point","properties":{"Station_ID":"PA-WT-19","Station_Nam":"LEECHBURG 1.4 SW, PA","Latitude":"40.61529","Longitude":"-79.62137","Snowdepth":"1.500","Units":"in","Rept_Date":"2020-12-03 12"},"coordinates":[5809,4491]},{"type":"Point","properties":{"Station_ID":"OH-MK-12","Station_Nam":"NORWICH 1.1 SE, OH","Latitude":"39.97526","Longitude":"-81.77666","Snowdepth":"1.500","Units":"in","Rept_Date":"2020-12-03 12"},"coordinates":[5099,4174]},{"type":"Point","properties":{"Station_ID":"OH-HC-12","Station_Nam":"FINDLAY 0.4 WSW, OH","Latitude":"41.04010","Longitude":"-83.64919","Snowdepth":"1.500","Units":"in","Rept_Date":"2020-12-03 12"},"coordinates":[4482,4701]},{"type":"Point","properties":{"Station_ID":"OH-DR-1","Station_Nam":"BRADFORD 2.3 NW, OH","Latitude":"40.15262","Longitude":"-84.46130","Snowdepth":"1.500","Units":"in","Rept_Date":"2020-12-03 12"},"coordinates":[4214,4261]},{"type":"Point","properties":{"Station_ID":"OH-CC-4","Station_Nam":"FRESNO 2.2 NNE, OH","Latitude":"40.35825","Longitude":"-81.71925","Snowdepth":"1.500","Units":"in","Rept_Date":"2020-12-03 13"},"coordinates":[5118,4363]},{"type":"Point","properties":{"Station_ID":"OH-AL-10","Station_Nam":"LIMA 3.0 SSE, OH","Latitude":"40.70090","Longitude":"-84.09660","Snowdepth":"1.500","Units":"in","Rept_Date":"2020-12-03 12"},"coordinates":[4334,4533]},{"type":"Point","properties":{"Station_ID":"NY-WY-11","Station_Nam":"SILVER SPRINGS COOP, NY","Latitude":"42.70580","Longitude":"-78.09370","Snowdepth":"1.500","Units":"in","Rept_Date":"2020-12-03 12"},"coordinates":[6313,5527]},{"type":"Point","properties":{"Station_ID":"NY-TM-45","Station_Nam":"NEWFIELD HAMLET 4.3 S, NY","Latitude":"42.29650","Longitude":"-76.60676","Snowdepth":"1.500","Units":"in","Rept_Date":"2020-12-03 14"},"coordinates":[6803,5324]},{"type":"Point","properties":{"Station_ID":"NY-TG-15","Station_Nam":"BERKSHIRE 1.9 ENE, NY","Latitude":"42.31910","Longitude":"-76.21940","Snowdepth":"1.500","Units":"in","Rept_Date":"2020-12-03 13"},"coordinates":[6931,5335]},{"type":"Point","properties":{"Station_ID":"NY-OS-15","Station_Nam":"MINETTO 0.1 SE, NY","Latitude":"43.39771","Longitude":"-76.47960","Snowdepth":"1.500","Units":"in","Rept_Date":"2020-12-03 13"},"coordinates":[6845,5870]},{"type":"Point","properties":{"Station_ID":"NY-MD-10","Station_Nam":"CAZENOVIA 2.9 SE, NY","Latitude":"42.90003","Longitude":"-75.81140","Snowdepth":"1.500","Units":"in","Rept_Date":"2020-12-03 12"},"coordinates":[7065,5623]},{"type":"Point","properties":{"Station_ID":"NY-DL-28","Station_Nam":"FLEISCHMANNS 5.7 N, NY","Latitude":"42.23779","Longitude":"-74.52335","Snowdepth":"1.500","Units":"in","Rept_Date":"2020-12-03 12"},"coordinates":[7490,5295]},{"type":"Point","properties":{"Station_ID":"NY-CY-14","Station_Nam":"CAYUGA 4.0 NNE, NY","Latitude":"42.97516","Longitude":"-76.70720","Snowdepth":"1.500","Units":"in","Rept_Date":"2020-12-03 12"},"coordinates":[6770,5661]},{"type":"Point","properties":{"Station_ID":"MI-MB-9","Station_Nam":"NEW BALTIMORE 0.4 SSE, MI","Latitude":"42.67702","Longitude":"-82.73570","Snowdepth":"1.500","Units":"in","Rept_Date":"2020-12-03 13"},"coordinates":[4783,5513]},{"type":"Point","properties":{"Station_ID":"WV-WD-18","Station_Nam":"WALKER 2.1 SW, WV","Latitude":"39.15838","Longitude":"-81.41237","Snowdepth":"1.200","Units":"in","Rept_Date":"2020-12-03 12"},"coordinates":[5219,3769]},{"type":"Point","properties":{"Station_ID":"WYON6","Station_Nam":"WYOMING 3W","Latitude":"42.82020","Longitude":"-78.14780","Snowdepth":"1.000","Units":"in","Rept_Date":"2020-12-03 12"},"coordinates":[6295,5584]},{"type":"Point","properties":{"Station_ID":"WYNP1","Station_Nam":"WAYNESBURG","Latitude":"39.89860","Longitude":"-80.16560","Snowdepth":"1.000","Units":"in","Rept_Date":"2020-12-03 12"},"coordinates":[5630,4136]},{"type":"Point","properties":{"Station_ID":"WV-TY-3","Station_Nam":"MIDDLEBOURNE 3.2 ESE, WV","Latitude":"39.47000","Longitude":"-80.85706","Snowdepth":"1.000","Units":"in","Rept_Date":"2020-12-03 12"},"coordinates":[5402,3923]},{"type":"Point","properties":{"Station_ID":"WTNM4","Station_Nam":"WATTON 2WSW","Latitude":"46.52660","Longitude":"-88.64240","Snowdepth":"1.000","Units":"in","Rept_Date":"2020-12-03 13"},"coordinates":[2836,7421]},{"type":"Point","properties":{"Station_ID":"WSWN6","Station_Nam":"WARSAW","Latitude":"42.74220","Longitude":"-78.20850","Snowdepth":"1.000","Units":"in","Rept_Date":"2020-12-03 12"},"coordinates":[6275,5545]},{"type":"Point","properties":{"Station_ID":"WSTN6","Station_Nam":"WESTMORELAND 4 N","Latitude":"43.15950","Longitude":"-75.46110","Snowdepth":"1.000","Units":"in","Rept_Date":"2020-12-03 12"},"coordinates":[7181,5752]},{"type":"Point","properties":{"Station_ID":"WRUM5","Station_Nam":"WARROAD 4W","Latitude":"48.89600","Longitude":"-95.40700","Snowdepth":"1.000","Units":"in","Rept_Date":"2020-12-04 04"},"coordinates":[606,8596]},{"type":"Point","properties":{"Station_ID":"WONK1","Station_Nam":"WONSEVU","Latitude":"38.11150","Longitude":"-96.73120","Snowdepth":"1.000","Units":"in","Rept_Date":"2020-12-03 14"},"coordinates":[169,3250]},{"type":"Point","properties":{"Station_ID":"WI-IR-3","Station_Nam":"PENCE 0.1 E, WI","Latitude":"46.41555","Longitude":"-90.27013","Snowdepth":"1.000","Units":"in","Rept_Date":"2020-12-03 13"},"coordinates":[2299,7366]},{"type":"Point","properties":{"Station_ID":"WI-DG-20","Station_Nam":"SOLON SPRINGS 1.2 W, WI","Latitude":"46.35217","Longitude":"-91.84405","Snowdepth":"1.000","Units":"in","Rept_Date":"2020-12-03 13"},"coordinates":[1780,7335]},{"type":"Point","properties":{"Station_ID":"WI-BY-29","Station_Nam":"BAYFIELD 5.1 NNW, WI","Latitude":"46.88063","Longitude":"-90.85854","Snowdepth":"1.000","Units":"in","Rept_Date":"2020-12-03 13"},"coordinates":[2105,7597]},{"type":"Point","properties":{"Station_ID":"WHTN6","Station_Nam":"WHITESVILLE","Latitude":"42.05980","Longitude":"-77.75530","Snowdepth":"1.000","Units":"in","Rept_Date":"2020-12-03 12"},"coordinates":[6424,5207]},{"type":"Point","properties":{"Station_ID":"WHFN6","Station_Nam":"WILMINGTON 2W","Latitude":"44.39310","Longitude":"-73.85890","Snowdepth":"1.000","Units":"in","Rept_Date":"2020-12-03 13"},"coordinates":[7709,6364]},{"type":"Point","properties":{"Station_ID":"WARO1","Station_Nam":"WARREN 3 S","Latitude":"41.20160","Longitude":"-80.81000","Snowdepth":"1.000","Units":"in","Rept_Date":"2020-12-03 12"},"coordinates":[5418,4781]},{"type":"Point","properties":{"Station_ID":"VT-WS-30","Station_Nam":"WOODBURY 3.4 NNW, VT","Latitude":"44.48825","Longitude":"-72.43258","Snowdepth":"1.000","Units":"in","Rept_Date":"2020-12-03 12"},"coordinates":[8179,6411]},{"type":"Point","properties":{"Station_ID":"VT-WR-17","Station_Nam":"ROCHESTER 2.3 NE, VT","Latitude":"43.89418","Longitude":"-72.76992","Snowdepth":"1.000","Units":"in","Rept_Date":"2020-12-03 12"},"coordinates":[8068,6116]},{"type":"Point","properties":{"Station_ID":"VT-OL-9","Station_Nam":"GREENSBORO 2.1 NNW, VT","Latitude":"44.60528","Longitude":"-72.30940","Snowdepth":"1.000","Units":"in","Rept_Date":"2020-12-03 12"},"coordinates":[8220,6469]},{"type":"Point","properties":{"Station_ID":"VT-OL-2","Station_Nam":"BARTON 3.0 ENE, VT","Latitude":"44.75863","Longitude":"-72.11680","Snowdepth":"1.000","Units":"in","Rept_Date":"2020-12-03 12"},"coordinates":[8283,6545]},{"type":"Point","properties":{"Station_ID":"VT-OL-11","Station_Nam":"EAST CRAFTSBURY 0.8 NE, VT","Latitude":"44.65023","Longitude":"-72.32970","Snowdepth":"1.000","Units":"in","Rept_Date":"2020-12-03 13"},"coordinates":[8213,6491]},{"type":"Point","properties":{"Station_ID":"VT-BN-3","Station_Nam":"LANDGROVE 1.1 NNE, VT","Latitude":"43.29092","Longitude":"-72.83260","Snowdepth":"1.000","Units":"in","Rept_Date":"2020-12-03 13"},"coordinates":[8047,5817]},{"type":"Point","properties":{"Station_ID":"TYGW2","Station_Nam":"TYGART DAM","Latitude":"39.31340","Longitude":"-80.02990","Snowdepth":"1.000","Units":"in","Rept_Date":"2020-12-03 12"},"coordinates":[5675,3845]},{"type":"Point","properties":{"Station_ID":"TX-LT-2","Station_Nam":"MEXIA 9.4 SSE, TX","Latitude":"31.55614","Longitude":"-96.42510","Snowdepth":"1.000","Units":"in","Rept_Date":"2020-12-03 11"},"coordinates":[270,0]},{"type":"Point","properties":{"Station_ID":"TOPN6","Station_Nam":"TUPPER LAKE SUNMOUNT","Latitude":"44.23070","Longitude":"-74.43820","Snowdepth":"1.000","Units":"in","Rept_Date":"2020-12-03 12"},"coordinates":[7518,6283]},{"type":"Point","properties":{"Station_ID":"TOL","Station_Nam":"EUGENE F KRANZ TOLEDO EXPRESS","Latitude":"41.58750","Longitude":"-83.80530","Snowdepth":"1.000","Units":"in","Rept_Date":"2020-12-04 00"},"coordinates":[4430,4973]},{"type":"Point","properties":{"Station_ID":"SVSN6","Station_Nam":"SILVER SPRINGS 3N","Latitude":"42.70580","Longitude":"-78.09370","Snowdepth":"1.000","Units":"in","Rept_Date":"2020-12-03 12"},"coordinates":[6313,5527]},{"type":"Point","properties":{"Station_ID":"SUTV1","Station_Nam":"SUTTON","Latitude":"44.61220","Longitude":"-72.04810","Snowdepth":"1.000","Units":"in","Rept_Date":"2020-12-03 13"},"coordinates":[8306,6472]},{"type":"Point","properties":{"Station_ID":"SUAW3","Station_Nam":"SUAMICO","Latitude":"44.60190","Longitude":"-88.09780","Snowdepth":"1.000","Units":"in","Rept_Date":"2020-12-03 12"},"coordinates":[3015,6467]},{"type":"Point","properties":{"Station_ID":"SSMM4","Station_Nam":"SAULT STE MARIE","Latitude":"46.48660","Longitude":"-84.40250","Snowdepth":"1.000","Units":"in","Rept_Date":"2020-12-03 13"},"coordinates":[4233,7401]},{"type":"Point","properties":{"Station_ID":"SMBK1","Station_Nam":"SMILEYBERG 1N","Latitude":"37.53380","Longitude":"-96.88130","Snowdepth":"1.000","Units":"in","Rept_Date":"2020-12-03 13"},"coordinates":[120,2963]},{"type":"Point","properties":{"Station_ID":"SLNV1","Station_Nam":"SOUTH LINCOLN","Latitude":"44.07460","Longitude":"-72.97180","Snowdepth":"1.000","Units":"in","Rept_Date":"2020-12-03 12"},"coordinates":[8001,6206]},{"type":"Point","properties":{"Station_ID":"SLNP1","Station_Nam":"SALINA","Latitude":"40.51000","Longitude":"-79.54580","Snowdepth":"1.000","Units":"in","Rept_Date":"2020-12-03 12"},"coordinates":[5834,4439]},{"type":"Point","properties":{"Station_ID":"SILN6","Station_Nam":"SILVER CREEK","Latitude":"42.53800","Longitude":"-79.16990","Snowdepth":"1.000","Units":"in","Rept_Date":"2020-12-03 12"},"coordinates":[5958,5444]},{"type":"Point","properties":{"Station_ID":"ROWM3","Station_Nam":"ROWE 3NE","Latitude":"42.73500","Longitude":"-72.86920","Snowdepth":"1.000","Units":"in","Rept_Date":"2020-12-03 12"},"coordinates":[8035,5542]},{"type":"Point","properties":{"Station_ID":"RHAN6","Station_Nam":"ALLEGANY STATE PARK","Latitude":"42.10030","Longitude":"-78.74970","Snowdepth":"1.000","Units":"in","Rept_Date":"2020-12-03 12"},"coordinates":[6097,5227]},{"type":"Point","properties":{"Station_ID":"RDGI3","Station_Nam":"RIDGEVILLE 3SSE","Latitude":"40.25520","Longitude":"-84.99580","Snowdepth":"1.000","Units":"in","Rept_Date":"2020-12-03 12"},"coordinates":[4038,4312]},{"type":"Point","properties":{"Station_ID":"RAYO1","Station_Nam":"RAYMOND 4 NW","Latitude":"40.35110","Longitude":"-83.48490","Snowdepth":"1.000","Units":"in","Rept_Date":"2020-12-03 12"},"coordinates":[4536,4360]},{"type":"Point","properties":{"Station_ID":"POTK1","Station_Nam":"POTWIN","Latitude":"37.94110","Longitude":"-97.02220","Snowdepth":"1.000","Units":"in","Rept_Date":"2020-12-03 13"},"coordinates":[74,3165]},{"type":"Point","properties":{"Station_ID":"PLEP1","Station_Nam":"PLEASANT MOUNT 1 W","Latitude":"41.73940","Longitude":"-75.44650","Snowdepth":"1.000","Units":"in","Rept_Date":"2020-12-03 14"},"coordinates":[7185,5048]},{"type":"Point","properties":{"Station_ID":"PLBP1","Station_Nam":"PHILIPSBURG,PA","Latitude":"40.87220","Longitude":"-78.21530","Snowdepth":"1.000","Units":"in","Rept_Date":"2020-12-03 12"},"coordinates":[6273,4618]},{"type":"Point","properties":{"Station_ID":"PERV1","Station_Nam":"PERU","Latitude":"43.26670","Longitude":"-72.90000","Snowdepth":"1.000","Units":"in","Rept_Date":"2020-12-03 12"},"coordinates":[8025,5805]},{"type":"Point","properties":{"Station_ID":"PENN6","Station_Nam":"PENDLETON 1 NE","Latitude":"43.10100","Longitude":"-78.71380","Snowdepth":"1.000","Units":"in","Rept_Date":"2020-12-03 12"},"coordinates":[6108,5723]},{"type":"Point","properties":{"Station_ID":"PDGM4","Station_Nam":"PAULDING","Latitude":"46.39760","Longitude":"-89.17940","Snowdepth":"1.000","Units":"in","Rept_Date":"2020-12-03 13"},"coordinates":[2659,7357]},{"type":"Point","properties":{"Station_ID":"PA-AR-7","Station_Nam":"KITTANNING 1.3 SSW, PA","Latitude":"40.80945","Longitude":"-79.53059","Snowdepth":"1.000","Units":"in","Rept_Date":"2020-12-03 12"},"coordinates":[5839,4587]},{"type":"Point","properties":{"Station_ID":"OH-UN-4","Station_Nam":"RAYMOND 3.5 NW, OH","Latitude":"40.35110","Longitude":"-83.48491","Snowdepth":"1.000","Units":"in","Rept_Date":"2020-12-03 12"},"coordinates":[4536,4360]},{"type":"Point","properties":{"Station_ID":"OH-TS-14","Station_Nam":"UHRICHSVILLE 0.7 N, OH","Latitude":"40.40988","Longitude":"-81.35319","Snowdepth":"1.000","Units":"in","Rept_Date":"2020-12-03 12"},"coordinates":[5238,4389]},{"type":"Point","properties":{"Station_ID":"OH-TS-1","Station_Nam":"DOVER 4.6 WNW, OH","Latitude":"40.55070","Longitude":"-81.56400","Snowdepth":"1.000","Units":"in","Rept_Date":"2020-12-03 12"},"coordinates":[5169,4459]},{"type":"Point","properties":{"Station_ID":"OH-SD-2","Station_Nam":"FREMONT 2.2 ENE, OH","Latitude":"41.36582","Longitude":"-83.07538","Snowdepth":"1.000","Units":"in","Rept_Date":"2020-12-03 13"},"coordinates":[4671,4863]},{"type":"Point","properties":{"Station_ID":"OH-PT-12","Station_Nam":"MOGADORE 4.7 SE, OH","Latitude":"41.00849","Longitude":"-81.32900","Snowdepth":"1.000","Units":"in","Rept_Date":"2020-12-03 12"},"coordinates":[5246,4686]},{"type":"Point","properties":{"Station_ID":"OH-MY-39","Station_Nam":"CENTERVILLE 3.9 S, OH","Latitude":"39.58542","Longitude":"-84.14954","Snowdepth":"1.000","Units":"in","Rept_Date":"2020-12-03 12"},"coordinates":[4317,3980]},{"type":"Point","properties":{"Station_ID":"OH-LS-14","Station_Nam":"OREGON 2.8 SSW, OH","Latitude":"41.63050","Longitude":"-83.44110","Snowdepth":"1.000","Units":"in","Rept_Date":"2020-12-03 13"},"coordinates":[4550,4994]},{"type":"Point","properties":{"Station_ID":"OH-LC-26","Station_Nam":"KIRKERSVILLE 3.3 N, OH","Latitude":"39.99803","Longitude":"-82.59864","Snowdepth":"1.000","Units":"in","Rept_Date":"2020-12-03 12"},"coordinates":[4828,4185]},{"type":"Point","properties":{"Station_ID":"OH-HD-14","Station_Nam":"ADA 5.4 NE, OH","Latitude":"40.81306","Longitude":"-83.73830","Snowdepth":"1.000","Units":"in","Rept_Date":"2020-12-03 13"},"coordinates":[4452,4589]},{"type":"Point","properties":{"Station_ID":"OH-FL-15","Station_Nam":"SWANTON 1.3 SSW, OH","Latitude":"41.56522","Longitude":"-83.89969","Snowdepth":"1.000","Units":"in","Rept_Date":"2020-12-03 12"},"coordinates":[4399,4962]},{"type":"Point","properties":{"Station_ID":"OH-FL-13","Station_Nam":"SWANTON 4.0 S, OH","Latitude":"41.52721","Longitude":"-83.90665","Snowdepth":"1.000","Units":"in","Rept_Date":"2020-12-03 13"},"coordinates":[4397,4943]},{"type":"Point","properties":{"Station_ID":"OH-FF-26","Station_Nam":"PICKERINGTON 3.5 ENE, OH","Latitude":"39.91502","Longitude":"-82.71033","Snowdepth":"1.000","Units":"in","Rept_Date":"2020-12-03 13"},"coordinates":[4791,4144]},{"type":"Point","properties":{"Station_ID":"OH-DL-31","Station_Nam":"DELAWARE 1.9 ESE, OH","Latitude":"40.28862","Longitude":"-83.04854","Snowdepth":"1.000","Units":"in","Rept_Date":"2020-12-03 12"},"coordinates":[4680,4329]},{"type":"Point","properties":{"Station_ID":"OH-DL-30","Station_Nam":"GALENA 1.0 NNW, OH","Latitude":"40.23429","Longitude":"-82.88857","Snowdepth":"1.000","Units":"in","Rept_Date":"2020-12-04 00"},"coordinates":[4732,4302]},{"type":"Point","properties":{"Station_ID":"OH-CN-6","Station_Nam":"WILMINGTON 3.6 W, OH","Latitude":"39.44200","Longitude":"-83.89880","Snowdepth":"1.000","Units":"in","Rept_Date":"2020-12-04 00"},"coordinates":[4399,3909]},{"type":"Point","properties":{"Station_ID":"OH-AL-8","Station_Nam":"DELPHOS 2.3 ESE, OH","Latitude":"40.83350","Longitude":"-84.29820","Snowdepth":"1.000","Units":"in","Rept_Date":"2020-12-03 12"},"coordinates":[4268,4599]},{"type":"Point","properties":{"Station_ID":"NY-WY-10","Station_Nam":"WYOMING COOP, NY","Latitude":"42.82060","Longitude":"-78.14810","Snowdepth":"1.000","Units":"in","Rept_Date":"2020-12-03 12"},"coordinates":[6295,5584]},{"type":"Point","properties":{"Station_ID":"NY-SY-1","Station_Nam":"SMITH VALLEY 1.9 SE, NY","Latitude":"42.39072","Longitude":"-76.71760","Snowdepth":"1.000","Units":"in","Rept_Date":"2020-12-03 12"},"coordinates":[6766,5371]},{"type":"Point","properties":{"Station_ID":"NY-OG-72","Station_Nam":"LIVERPOOL 4.5 N, NY","Latitude":"43.17016","Longitude":"-76.22385","Snowdepth":"1.000","Units":"in","Rept_Date":"2020-12-03 13"},"coordinates":[6929,5757]},{"type":"Point","properties":{"Station_ID":"NY-OG-71","Station_Nam":"LIVERPOOL 6.1 NNW, NY","Latitude":"43.18876","Longitude":"-76.25193","Snowdepth":"1.000","Units":"in","Rept_Date":"2020-12-03 12"},"coordinates":[6920,5766]},{"type":"Point","properties":{"Station_ID":"NY-OD-21","Station_Nam":"ROME 4.8 SSE, NY","Latitude":"43.16000","Longitude":"-75.46000","Snowdepth":"1.000","Units":"in","Rept_Date":"2020-12-03 12"},"coordinates":[7181,5752]},{"type":"Point","properties":{"Station_ID":"NY-NG-22","Station_Nam":"NIAGARA FALLS 5.7 E, NY","Latitude":"43.08297","Longitude":"-78.90460","Snowdepth":"1.000","Units":"in","Rept_Date":"2020-12-03 14"},"coordinates":[6046,5714]},{"type":"Point","properties":{"Station_ID":"NY-LW-12","Station_Nam":"CHASES LAKE COOP, NY","Latitude":"43.75924","Longitude":"-75.29982","Snowdepth":"1.000","Units":"in","Rept_Date":"2020-12-03 11"},"coordinates":[7234,6049]},{"type":"Point","properties":{"Station_ID":"NY-HM-10","Station_Nam":"LAKE PLEASANT 2.3 WSW, NY","Latitude":"43.45490","Longitude":"-74.45287","Snowdepth":"1.000","Units":"in","Rept_Date":"2020-12-03 12"},"coordinates":[7513,5898]},{"type":"Point","properties":{"Station_ID":"NY-HM-1","Station_Nam":"SPECULATOR 10.0 SSW, NY","Latitude":"43.45133","Longitude":"-74.47120","Snowdepth":"1.000","Units":"in","Rept_Date":"2020-12-03 12"},"coordinates":[7507,5897]},{"type":"Point","properties":{"Station_ID":"NY-FK-9","Station_Nam":"GABRIELS 1.3 SE, NY","Latitude":"44.41934","Longitude":"-74.16194","Snowdepth":"1.000","Units":"in","Rept_Date":"2020-12-03 12"},"coordinates":[7609,6377]},{"type":"Point","properties":{"Station_ID":"NY-FK-7","Station_Nam":"SARANAC LAKE 6.2 N, NY","Latitude":"44.41359","Longitude":"-74.15211","Snowdepth":"1.000","Units":"in","Rept_Date":"2020-12-03 12"},"coordinates":[7612,6374]},{"type":"Point","properties":{"Station_ID":"NY-ES-11","Station_Nam":"VERMONTVILLE 2.8 S, NY","Latitude":"44.41205","Longitude":"-74.06760","Snowdepth":"1.000","Units":"in","Rept_Date":"2020-12-03 12"},"coordinates":[7640,6373]},{"type":"Point","properties":{"Station_ID":"NY-ER-50","Station_Nam":"EAST AURORA 0.1 ENE, NY","Latitude":"42.76750","Longitude":"-78.61580","Snowdepth":"1.000","Units":"in","Rept_Date":"2020-12-03 12"},"coordinates":[6141,5558]},{"type":"Point","properties":{"Station_ID":"NY-DL-32","Station_Nam":"DELHI 6.6 WNW, NY","Latitude":"42.32118","Longitude":"-75.02991","Snowdepth":"1.000","Units":"in","Rept_Date":"2020-12-03 12"},"coordinates":[7323,5336]},{"type":"Point","properties":{"Station_ID":"NY-CR-5","Station_Nam":"MARATHON 1.0 NW, NY","Latitude":"42.45161","Longitude":"-76.04370","Snowdepth":"1.000","Units":"in","Rept_Date":"2020-12-03 12"},"coordinates":[6989,5401]},{"type":"Point","properties":{"Station_ID":"NY-CQ-9","Station_Nam":"DUNKIRK 0.7 SW, NY","Latitude":"42.47167","Longitude":"-79.33360","Snowdepth":"1.000","Units":"in","Rept_Date":"2020-12-03 12"},"coordinates":[5904,5411]},{"type":"Point","properties":{"Station_ID":"NY-CN-9","Station_Nam":"NORWICH 5.4 W, NY","Latitude":"42.53356","Longitude":"-75.63060","Snowdepth":"1.000","Units":"in","Rept_Date":"2020-12-03 12"},"coordinates":[7125,5442]},{"type":"Point","properties":{"Station_ID":"NY-BM-14","Station_Nam":"WHITNEY POINT 1.7 SSE, NY","Latitude":"42.30837","Longitude":"-75.95690","Snowdepth":"1.000","Units":"in","Rept_Date":"2020-12-03 12"},"coordinates":[7017,5330]},{"type":"Point","properties":{"Station_ID":"NWKO1","Station_Nam":"NEWARK WATER WORKS","Latitude":"40.08750","Longitude":"-82.41280","Snowdepth":"1.000","Units":"in","Rept_Date":"2020-12-03 12"},"coordinates":[4889,4229]},{"type":"Point","properties":{"Station_ID":"NUNV1","Station_Nam":"NORTH UNDERHILL","Latitude":"44.58760","Longitude":"-72.92150","Snowdepth":"1.000","Units":"in","Rept_Date":"2020-12-03 12"},"coordinates":[8018,6460]},{"type":"Point","properties":{"Station_ID":"NRWN6","Station_Nam":"NORWICH","Latitude":"42.51170","Longitude":"-75.51970","Snowdepth":"1.000","Units":"in","Rept_Date":"2020-12-03 11"},"coordinates":[7161,5431]},{"type":"Point","properties":{"Station_ID":"NCBN6","Station_Nam":"NEWCOMB","Latitude":"43.97070","Longitude":"-74.22200","Snowdepth":"1.000","Units":"in","Rept_Date":"2020-12-03 14"},"coordinates":[7589,6154]},{"type":"Point","properties":{"Station_ID":"NC-MS-7","Station_Nam":"HOT SPRINGS 8.4 SSW, NC","Latitude":"35.78343","Longitude":"-82.89470","Snowdepth":"1.000","Units":"in","Rept_Date":"2020-12-03 14"},"coordinates":[4730,2096]},{"type":"Point","properties":{"Station_ID":"NC-MS-5","Station_Nam":"MARSHALL 13.6 NNW, NC","Latitude":"35.98208","Longitude":"-82.76720","Snowdepth":"1.000","Units":"in","Rept_Date":"2020-12-03 13"},"coordinates":[4772,2194]},{"type":"Point","properties":{"Station_ID":"NC-ML-2","Station_Nam":"BAKERSVILLE 2.5 SE, NC","Latitude":"35.98900","Longitude":"-82.12800","Snowdepth":"1.000","Units":"in","Rept_Date":"2020-12-03 13"},"coordinates":[4983,2197]},{"type":"Point","properties":{"Station_ID":"NC-AV-1","Station_Nam":"FLAT SPRINGS 1.2 E, NC","Latitude":"36.25250","Longitude":"-81.91330","Snowdepth":"1.000","Units":"in","Rept_Date":"2020-12-03 12"},"coordinates":[5054,2328]},{"type":"Point","properties":{"Station_ID":"MLIM4","Station_Nam":"MILAN WWTP","Latitude":"42.08140","Longitude":"-83.67750","Snowdepth":"1.000","Units":"in","Rept_Date":"2020-12-03 13"},"coordinates":[4472,5218]},{"type":"Point","properties":{"Station_ID":"MI-OK-123","Station_Nam":"CLARKSTON 1.6 N, MI","Latitude":"42.75894","Longitude":"-83.42334","Snowdepth":"1.000","Units":"in","Rept_Date":"2020-12-03 12"},"coordinates":[4556,5553]},{"type":"Point","properties":{"Station_ID":"MI-CP-14","Station_Nam":"SAULT STE. MARIE 2.2 E, MI","Latitude":"46.48933","Longitude":"-84.31971","Snowdepth":"1.000","Units":"in","Rept_Date":"2020-12-03 13"},"coordinates":[4261,7403]},{"type":"Point","properties":{"Station_ID":"MEDN6","Station_Nam":"MEDINA","Latitude":"43.20930","Longitude":"-78.38940","Snowdepth":"1.000","Units":"in","Rept_Date":"2020-12-03 13"},"coordinates":[6215,5777]},{"type":"Point","properties":{"Station_ID":"ME-SM-45","Station_Nam":"BRIGHTON PLANTATION 2.1 N, ME","Latitude":"45.07098","Longitude":"-69.69860","Snowdepth":"1.000","Units":"in","Rept_Date":"2020-12-03 12"},"coordinates":[9080,6700]},{"type":"Point","properties":{"Station_ID":"MDBW2","Station_Nam":"MIDDLEBOURNE 3 ESE","Latitude":"39.47000","Longitude":"-80.85710","Snowdepth":"1.000","Units":"in","Rept_Date":"2020-12-03 11"},"coordinates":[5402,3923]},{"type":"Point","properties":{"Station_ID":"MCHM4","Station_Nam":"MANCHESTER,MI","Latitude":"42.15000","Longitude":"-84.01670","Snowdepth":"1.000","Units":"in","Rept_Date":"2020-12-03 12"},"coordinates":[4361,5252]},{"type":"Point","properties":{"Station_ID":"MBGM7","Station_Nam":"MISSOURI BOTANICAL GARDENS","Latitude":"38.61280","Longitude":"-90.26080","Snowdepth":"1.000","Units":"in","Rept_Date":"2020-12-04 06"},"coordinates":[2302,3498]},{"type":"Point","properties":{"Station_ID":"MA-BE-21","Station_Nam":"CHESHIRE 0.5 NNW, MA","Latitude":"42.56315","Longitude":"-73.15701","Snowdepth":"1.000","Units":"in","Rept_Date":"2020-12-03 12"},"coordinates":[7940,5456]},{"type":"Point","properties":{"Station_ID":"LVDW3","Station_Nam":"LAC VIEUX DESERT","Latitude":"46.12110","Longitude":"-89.07580","Snowdepth":"1.000","Units":"in","Rept_Date":"2020-12-03 14"},"coordinates":[2693,7220]},{"type":"Point","properties":{"Station_ID":"LEXM4","Station_Nam":"LEXINGTON WATER PLANT","Latitude":"43.26310","Longitude":"-82.53280","Snowdepth":"1.000","Units":"in","Rept_Date":"2020-12-03 12"},"coordinates":[4850,5803]},{"type":"Point","properties":{"Station_ID":"LBRM5","Station_Nam":"LAKE BRONSON DAM","Latitude":"48.72410","Longitude":"-96.62180","Snowdepth":"1.000","Units":"in","Rept_Date":"2020-12-03 14"},"coordinates":[205,8510]},{"type":"Point","properties":{"Station_ID":"KSYR","Station_Nam":"SYRACUSE HANCOCK INTERNATIONAL  AIRPORT","Latitude":"43.11666","Longitude":"-76.10000","Snowdepth":"1.000","Units":"in","Rept_Date":"2020-12-03 12"},"coordinates":[6970,5731]},{"type":"Point","properties":{"Station_ID":"KS-HV-1","Station_Nam":"NEWTON 6.2 ESE, KS","Latitude":"37.99590","Longitude":"-97.24520","Snowdepth":"1.000","Units":"in","Rept_Date":"2020-12-03 13"},"coordinates":[0,3192]},{"type":"Point","properties":{"Station_ID":"KROC","Station_Nam":"GREATER ROCHESTER INTERNATIONAL","Latitude":"43.11666","Longitude":"-77.68333","Snowdepth":"1.000","Units":"in","Rept_Date":"2020-12-03 12"},"coordinates":[6448,5731]},{"type":"Point","properties":{"Station_ID":"KITO1","Station_Nam":"RAVENNA-KIRWAN TAILWATER","Latitude":"41.15690","Longitude":"-81.07190","Snowdepth":"1.000","Units":"in","Rept_Date":"2020-12-03 12"},"coordinates":[5331,4759]},{"type":"Point","properties":{"Station_ID":"KCAK","Station_Nam":"AKRON-CANTON REGIONAL AIRPORT","Latitude":"40.91666","Longitude":"-81.45000","Snowdepth":"1.000","Units":"in","Rept_Date":"2020-12-04 00"},"coordinates":[5207,4640]},{"type":"Point","properties":{"Station_ID":"JOHV1","Station_Nam":"JOHNSON 2 N","Latitude":"44.65790","Longitude":"-72.67850","Snowdepth":"1.000","Units":"in","Rept_Date":"2020-12-03 12"},"coordinates":[8098,6495]},{"type":"Point","properties":{"Station_ID":"IWOM4","Station_Nam":"IRONWOOD#2","Latitude":"46.46520","Longitude":"-90.13820","Snowdepth":"1.000","Units":"in","Rept_Date":"2020-12-03 13"},"coordinates":[2343,7391]},{"type":"Point","properties":{"Station_ID":"ITHN6","Station_Nam":"ITHACA,NY","Latitude":"42.45000","Longitude":"-76.45000","Snowdepth":"1.000","Units":"in","Rept_Date":"2020-12-03 12"},"coordinates":[6855,5400]},{"type":"Point","properties":{"Station_ID":"INDN6","Station_Nam":"INDIAN LAKE","Latitude":"43.75500","Longitude":"-74.27560","Snowdepth":"1.000","Units":"in","Rept_Date":"2020-12-03 13"},"coordinates":[7571,6047]},{"type":"Point","properties":{"Station_ID":"IN-LP-7","Station_Nam":"LA PORTE 1.6 SW, IN","Latitude":"41.59040","Longitude":"-86.73430","Snowdepth":"1.000","Units":"in","Rept_Date":"2020-12-03 13"},"coordinates":[3465,4974]},{"type":"Point","properties":{"Station_ID":"IAGN6","Station_Nam":"NIAGARA FALLS","Latitude":"43.08560","Longitude":"-78.97200","Snowdepth":"1.000","Units":"in","Rept_Date":"2020-12-03 13"},"coordinates":[6023,5715]},{"type":"Point","properties":{"Station_ID":"HURW3","Station_Nam":"HURLEY","Latitude":"46.46250","Longitude":"-90.19550","Snowdepth":"1.000","Units":"in","Rept_Date":"2020-12-03 14"},"coordinates":[2324,7389]},{"type":"Point","properties":{"Station_ID":"HUBN3","Station_Nam":"HUBBARD BROOK","Latitude":"43.93330","Longitude":"-71.71670","Snowdepth":"1.000","Units":"in","Rept_Date":"2020-12-04 06"},"coordinates":[8415,6136]},{"type":"Point","properties":{"Station_ID":"HLBK1","Station_Nam":"HILLSBORO","Latitude":"38.35690","Longitude":"-97.20250","Snowdepth":"1.000","Units":"in","Rept_Date":"2020-12-03 14"},"coordinates":[14,3371]},{"type":"Point","properties":{"Station_ID":"GRMP1","Station_Nam":"GRAMPIAN, PA","Latitude":"40.96660","Longitude":"-78.58710","Snowdepth":"1.000","Units":"in","Rept_Date":"2020-12-03 16"},"coordinates":[6150,4665]},{"type":"Point","properties":{"Station_ID":"GPFM4","Station_Nam":"GROSSE POINTE FARMS,MI","Latitude":"42.38330","Longitude":"-82.90000","Snowdepth":"1.000","Units":"in","Rept_Date":"2020-12-03 13"},"coordinates":[4729,5367]},{"type":"Point","properties":{"Station_ID":"GLLM5","Station_Nam":"GULL LAKE DAM","Latitude":"46.41190","Longitude":"-94.35000","Snowdepth":"1.000","Units":"in","Rept_Date":"2020-12-03 14"},"coordinates":[954,7364]},{"type":"Point","properties":{"Station_ID":"GHMN3","Station_Nam":"PINKHAM NOTCH","Latitude":"44.25800","Longitude":"-71.25250","Snowdepth":"1.000","Units":"in","Rept_Date":"2020-12-03 10"},"coordinates":[8568,6297]},{"type":"Point","properties":{"Station_ID":"GFDN6","Station_Nam":"CHASES LAKE","Latitude":"43.75920","Longitude":"-75.29980","Snowdepth":"1.000","Units":"in","Rept_Date":"2020-12-03 11"},"coordinates":[7234,6049]},{"type":"Point","properties":{"Station_ID":"FVLN6","Station_Nam":"FREEVILLE,NY","Latitude":"42.51670","Longitude":"-76.33330","Snowdepth":"1.000","Units":"in","Rept_Date":"2020-12-03 13"},"coordinates":[6893,5433]},{"type":"Point","properties":{"Station_ID":"FTSN7","Station_Nam":"FLAT SPRINGS 1E","Latitude":"36.25270","Longitude":"-81.91360","Snowdepth":"1.000","Units":"in","Rept_Date":"2020-12-03 12"},"coordinates":[5054,2328]},{"type":"Point","properties":{"Station_ID":"FLNM4","Station_Nam":"CASE DRAIN-BOARTMAN CRK","Latitude":"43.92670","Longitude":"-83.09360","Snowdepth":"1.000","Units":"in","Rept_Date":"2020-12-03 11"},"coordinates":[4665,6132]},{"type":"Point","properties":{"Station_ID":"FDCP1","Station_Nam":"CROOKED CREEK LAKE","Latitude":"40.71360","Longitude":"-79.51500","Snowdepth":"1.000","Units":"in","Rept_Date":"2020-12-03 12"},"coordinates":[5844,4540]},{"type":"Point","properties":{"Station_ID":"ELNW2","Station_Nam":"ELKINS AIRPORT SNOW OBSERVATION","Latitude":"38.93650","Longitude":"-79.84320","Snowdepth":"1.000","Units":"in","Rept_Date":"2020-12-03 12"},"coordinates":[5736,3659]},{"type":"Point","properties":{"Station_ID":"DNDM4","Station_Nam":"DUNDEE,MI","Latitude":"41.95000","Longitude":"-83.65000","Snowdepth":"1.000","Units":"in","Rept_Date":"2020-12-03 12"},"coordinates":[4481,5152]},{"type":"Point","properties":{"Station_ID":"DKKN6","Station_Nam":"DUNKIRK 1S","Latitude":"42.47180","Longitude":"-79.33370","Snowdepth":"1.000","Units":"in","Rept_Date":"2020-12-03 12"},"coordinates":[5904,5411]},{"type":"Point","properties":{"Station_ID":"DJBP1","Station_Nam":"DUBOIS 2S","Latitude":"41.09470","Longitude":"-78.75550","Snowdepth":"1.000","Units":"in","Rept_Date":"2020-12-03 13"},"coordinates":[6095,4728]},{"type":"Point","properties":{"Station_ID":"CSYK2","Station_Nam":"CRESSY","Latitude":"37.82980","Longitude":"-84.03500","Snowdepth":"1.000","Units":"in","Rept_Date":"2020-12-03 13"},"coordinates":[4354,3110]},{"type":"Point","properties":{"Station_ID":"COVP1","Station_Nam":"COVINGTON 2WSW","Latitude":"41.73330","Longitude":"-77.11670","Snowdepth":"1.000","Units":"in","Rept_Date":"2020-12-03 12"},"coordinates":[6635,5045]},