{"type":"Topology","objects":{"snowdepth_geo":{"type":"GeometryCollection","name":"snowdepth","crs":{"type":"name","properties":{"name":"urn:ogc:def:crs:OGC:1.3:CRS84"}},"geometries":[{"type":"Point","properties":{"Station_ID":"MMSV1","Station_Nam":"MOUNT MANSFIELD","Latitude":"44.53330","Longitude":"-72.83330","Snowdepth":"78.000","Units":"in","Rept_Date":"2019-11-20 05"},"coordinates":[7482,2836]},{"type":"Point","properties":{"Station_ID":"PRKM4","Station_Nam":"MUNISING EAST","Latitude":"46.42580","Longitude":"-86.62000","Snowdepth":"76.500","Units":"in","Rept_Date":"2019-11-20 06"},"coordinates":[2747,4721]},{"type":"Point","properties":{"Station_ID":"OGIQ6","Station_Nam":"OGOKI CAMP","Latitude":"50.76680","Longitude":"-87.85820","Snowdepth":"61.100","Units":"in","Rept_Date":"2019-11-20 06"},"coordinates":[2321,9043]},{"type":"Point","properties":{"Station_ID":"AUDQ6","Station_Nam":"AUDEN","Latitude":"48.52600","Longitude":"-82.57570","Snowdepth":"47.640","Units":"in","Rept_Date":"2019-11-20 06"},"coordinates":[4136,6812]},{"type":"Point","properties":{"Station_ID":"DVLQ6","Station_Nam":"DEVIOUS LAKE","Latitude":"49.19890","Longitude":"-87.76440","Snowdepth":"43.460","Units":"in","Rept_Date":"2019-11-20 06"},"coordinates":[2354,7482]},{"type":"Point","properties":{"Station_ID":"CAN-NB-18","Station_Nam":"MCLEOD HILL 1.1 ENE, CA","Latitude":"46.02725","Longitude":"-66.67460","Snowdepth":"20.000","Units":"in","Rept_Date":"2019-11-19 12"},"coordinates":[9598,4324]},{"type":"Point","properties":{"Station_ID":"ME-AR-18","Station_Nam":"NEW SWEDEN 4.9 NNW, ME","Latitude":"47.01080","Longitude":"-68.14390","Snowdepth":"10.500","Units":"in","Rept_Date":"2019-11-19 12"},"coordinates":[9093,5303]},{"type":"Point","properties":{"Station_ID":"ME-AR-23","Station_Nam":"MADAWASKA 2.5 E, ME","Latitude":"47.34933","Longitude":"-68.28141","Snowdepth":"10.000","Units":"in","Rept_Date":"2019-11-19 12"},"coordinates":[9046,5640]},{"type":"Point","properties":{"Station_ID":"LILM1","Station_Nam":"LILLE","Latitude":"47.27770","Longitude":"-68.10520","Snowdepth":"10.000","Units":"in","Rept_Date":"2019-11-19 12"},"coordinates":[9107,5569]},{"type":"Point","properties":{"Station_ID":"CARM1","Station_Nam":"CARIBOU WFO","Latitude":"46.86810","Longitude":"-68.01250","Snowdepth":"9.000","Units":"in","Rept_Date":"2019-11-20 05"},"coordinates":[9138,5161]},{"type":"Point","properties":{"Station_ID":"CAR","Station_Nam":"CARIBOU, ME","Latitude":"46.86830","Longitude":"-68.01360","Snowdepth":"9.000","Units":"in","Rept_Date":"2019-11-19 12"},"coordinates":[9138,5161]},{"type":"Point","properties":{"Station_ID":"AVLV1","Station_Nam":"AVERILL","Latitude":"45.00570","Longitude":"-71.69030","Snowdepth":"9.000","Units":"in","Rept_Date":"2019-11-19 13"},"coordinates":[7875,3307]},{"type":"Point","properties":{"Station_ID":"MWN","Station_Nam":"MOUNT WASHINGTON","Latitude":"44.26670","Longitude":"-71.30000","Snowdepth":"8.000","Units":"in","Rept_Date":"2019-11-20 05"},"coordinates":[8009,2571]},{"type":"Point","properties":{"Station_ID":"MMNV1","Station_Nam":"MT. MANSFIELD","Latitude":"44.52480","Longitude":"-72.81540","Snowdepth":"8.000","Units":"in","Rept_Date":"2019-11-19 21"},"coordinates":[7489,2828]},{"type":"Point","properties":{"Station_ID":"KSGM4","Station_Nam":"KEARSARGE","Latitude":"47.27520","Longitude":"-88.41700","Snowdepth":"8.000","Units":"in","Rept_Date":"2019-11-19 13"},"coordinates":[2130,5566]},{"type":"Point","properties":{"Station_ID":"KMWN","Station_Nam":"MOUNT WASHINGTON","Latitude":"44.26666","Longitude":"-71.30000","Snowdepth":"8.000","Units":"in","Rept_Date":"2019-11-20 06"},"coordinates":[8009,2571]},{"type":"Point","properties":{"Station_ID":"HURW3","Station_Nam":"HURLEY","Latitude":"46.46250","Longitude":"-90.19550","Snowdepth":"8.000","Units":"in","Rept_Date":"2019-11-19 14"},"coordinates":[1519,4757]},{"type":"Point","properties":{"Station_ID":"WHFN6","Station_Nam":"WILMINGTON 2W","Latitude":"44.39310","Longitude":"-73.85890","Snowdepth":"7.000","Units":"in","Rept_Date":"2019-11-19 13"},"coordinates":[7130,2697]},{"type":"Point","properties":{"Station_ID":"VT-OL-12","Station_Nam":"GREENSBORO 3.9 NNE, VT","Latitude":"44.63100","Longitude":"-72.28000","Snowdepth":"7.000","Units":"in","Rept_Date":"2019-11-19 11"},"coordinates":[7672,2934]},{"type":"Point","properties":{"Station_ID":"IWOM4","Station_Nam":"IRONWOOD#2","Latitude":"46.46520","Longitude":"-90.13820","Snowdepth":"7.000","Units":"in","Rept_Date":"2019-11-19 13"},"coordinates":[1538,4760]},{"type":"Point","properties":{"Station_ID":"HWLM4","Station_Nam":"HALFWAY LAKE","Latitude":"46.47480","Longitude":"-85.59250","Snowdepth":"7.000","Units":"in","Rept_Date":"2019-11-19 14"},"coordinates":[3100,4770]},{"type":"Point","properties":{"Station_ID":"HTLN3","Station_Nam":"HERMIT LAKE SNOWPLOT","Latitude":"44.26130","Longitude":"-71.28330","Snowdepth":"7.000","Units":"in","Rept_Date":"2019-11-19 11"},"coordinates":[8015,2566]},{"type":"Point","properties":{"Station_ID":"FISM1","Station_Nam":"FORT KENT COOP","Latitude":"47.23850","Longitude":"-68.61240","Snowdepth":"7.000","Units":"in","Rept_Date":"2019-11-19 12"},"coordinates":[8932,5530]},{"type":"Point","properties":{"Station_ID":"CAN-QC-47","Station_Nam":"SAINTE-FOY 1.8 ENE, CAN","Latitude":"46.76934","Longitude":"-71.27124","Snowdepth":"6.400","Units":"in","Rept_Date":"2019-11-19 12"},"coordinates":[8019,5063]},{"type":"Point","properties":{"Station_ID":"WRPW3","Station_Nam":"WATER PURIFICATION PLANT","Latitude":"44.38800","Longitude":"-89.80550","Snowdepth":"6.000","Units":"in","Rept_Date":"2019-11-19 12"},"coordinates":[1653,2692]},{"type":"Point","properties":{"Station_ID":"VT-OL-2","Station_Nam":"BARTON 3.0 ENE, VT","Latitude":"44.75863","Longitude":"-72.11680","Snowdepth":"6.000","Units":"in","Rept_Date":"2019-11-19 12"},"coordinates":[7729,3061]},{"type":"Point","properties":{"Station_ID":"PDLM4","Station_Nam":"PAINESDALE","Latitude":"47.04160","Longitude":"-88.67170","Snowdepth":"6.000","Units":"in","Rept_Date":"2019-11-19 13"},"coordinates":[2042,5334]},{"type":"Point","properties":{"Station_ID":"NY-SL-6","Station_Nam":"HANNAWA FALLS 0.1 SW, NY","Latitude":"44.61154","Longitude":"-74.97190","Snowdepth":"6.000","Units":"in","Rept_Date":"2019-11-19 12"},"coordinates":[6748,2914]},{"type":"Point","properties":{"Station_ID":"NY-JF-30","Station_Nam":"WEST CARTHAGE 0.3 ENE, NY","Latitude":"43.97493","Longitude":"-75.61640","Snowdepth":"6.000","Units":"in","Rept_Date":"2019-11-19 12"},"coordinates":[6526,2280]},{"type":"Point","properties":{"Station_ID":"NWCM4","Station_Nam":"NEWBERRY CITY","Latitude":"46.35720","Longitude":"-85.51780","Snowdepth":"6.000","Units":"in","Rept_Date":"2019-11-19 12"},"coordinates":[3125,4652]},{"type":"Point","properties":{"Station_ID":"NCBN6","Station_Nam":"NEWCOMB","Latitude":"43.97070","Longitude":"-74.22200","Snowdepth":"6.000","Units":"in","Rept_Date":"2019-11-19 13"},"coordinates":[7005,2276]},{"type":"Point","properties":{"Station_ID":"ME-AR-15","Station_Nam":"PRESQUE ISLE 1.3 WSW, ME","Latitude":"46.67960","Longitude":"-68.01270","Snowdepth":"6.000","Units":"in","Rept_Date":"2019-11-19 12"},"coordinates":[9138,4973]},{"type":"Point","properties":{"Station_ID":"HGHN6","Station_Nam":"HIGHMARKET","Latitude":"43.57520","Longitude":"-75.52070","Snowdepth":"6.000","Units":"in","Rept_Date":"2019-11-19 12"},"coordinates":[6559,1882]},{"type":"Point","properties":{"Station_ID":"CAN-NB-13","Station_Nam":"BATHURST 3.8 NW, CAN","Latitude":"47.64212","Longitude":"-65.68756","Snowdepth":"6.000","Units":"in","Rept_Date":"2019-11-19 11"},"coordinates":[9937,5932]},{"type":"Point","properties":{"Station_ID":"SVBQ6","Station_Nam":"SAVANT BASE","Latitude":"50.28730","Longitude":"-90.65670","Snowdepth":"5.670","Units":"in","Rept_Date":"2019-11-20 06"},"coordinates":[1360,8566]},{"type":"Point","properties":{"Station_ID":"NY-NG-12","Station_Nam":"LOCKPORT 0.8 NE, NY","Latitude":"43.17645","Longitude":"-78.68340","Snowdepth":"5.500","Units":"in","Rept_Date":"2019-11-19 12"},"coordinates":[5473,1485]},{"type":"Point","properties":{"Station_ID":"CAN-NB-2","Station_Nam":"GRAFTON 2.7 NNE, CA","Latitude":"46.17062","Longitude":"-67.55330","Snowdepth":"5.500","Units":"in","Rept_Date":"2019-11-19 11"},"coordinates":[9296,4467]},{"type":"Point","properties":{"Station_ID":"CAN-QC-51","Station_Nam":"BELOEIL 0.7 NW, CAN","Latitude":"45.58049","Longitude":"-73.21218","Snowdepth":"5.300","Units":"in","Rept_Date":"2019-11-19 12"},"coordinates":[7352,3879]},{"type":"Point","properties":{"Station_ID":"SOCQ6","Station_Nam":"SOCKET LAKE","Latitude":"50.77870","Longitude":"-91.79300","Snowdepth":"5.240","Units":"in","Rept_Date":"2019-11-20 06"},"coordinates":[970,9055]},{"type":"Point","properties":{"Station_ID":"MI-BG-3","Station_Nam":"L'ANSE 17.8 SE, MI","Latitude":"46.55730","Longitude":"-88.20770","Snowdepth":"5.200","Units":"in","Rept_Date":"2019-11-19 13"},"coordinates":[2201,4852]},{"type":"Point","properties":{"Station_ID":"MI-BZ-5","Station_Nam":"FRANKFORT 3.9 E, MI","Latitude":"44.63018","Longitude":"-86.15579","Snowdepth":"5.100","Units":"in","Rept_Date":"2019-11-19 12"},"coordinates":[2906,2933]},{"type":"Point","properties":{"Station_ID":"CAN-QC-16","Station_Nam":"SAINT-ARMAND 3.6 W, CAN","Latitude":"45.02631","Longitude":"-73.08795","Snowdepth":"5.100","Units":"in","Rept_Date":"2019-11-19 12"},"coordinates":[7395,3327]},{"type":"Point","properties":{"Station_ID":"VT-WS-30","Station_Nam":"WOODBURY 3.4 NNW, VT","Latitude":"44.48825","Longitude":"-72.43258","Snowdepth":"5.000","Units":"in","Rept_Date":"2019-11-19 12"},"coordinates":[7620,2792]},{"type":"Point","properties":{"Station_ID":"VT-OL-9","Station_Nam":"GREENSBORO 2.1 NNW, VT","Latitude":"44.60528","Longitude":"-72.30940","Snowdepth":"5.000","Units":"in","Rept_Date":"2019-11-19 12"},"coordinates":[7662,2908]},{"type":"Point","properties":{"Station_ID":"VT-OL-1","Station_Nam":"WESTFIELD 0.7 WNW, VT","Latitude":"44.89160","Longitude":"-72.44350","Snowdepth":"5.000","Units":"in","Rept_Date":"2019-11-19 12"},"coordinates":[7616,3193]},{"type":"Point","properties":{"Station_ID":"RLKW3","Station_Nam":"REST LAKE","Latitude":"46.12220","Longitude":"-89.87720","Snowdepth":"5.000","Units":"in","Rept_Date":"2019-11-19 14"},"coordinates":[1628,4418]},{"type":"Point","properties":{"Station_ID":"PTBN3","Station_Nam":"DAM WITHIN","Latitude":"45.05000","Longitude":"-71.38330","Snowdepth":"5.000","Units":"in","Rept_Date":"2019-11-19 12"},"coordinates":[7981,3351]},{"type":"Point","properties":{"Station_ID":"NY-FL-7","Station_Nam":"BROADALBIN 4.7 ESE, NY","Latitude":"43.03940","Longitude":"-74.10845","Snowdepth":"5.000","Units":"in","Rept_Date":"2019-11-19 14"},"coordinates":[7044,1349]},{"type":"Point","properties":{"Station_ID":"NY-FK-7","Station_Nam":"SARANAC LAKE 6.2 N, NY","Latitude":"44.41359","Longitude":"-74.15211","Snowdepth":"5.000","Units":"in","Rept_Date":"2019-11-19 12"},"coordinates":[7029,2717]},{"type":"Point","properties":{"Station_ID":"NY-ES-7","Station_Nam":"KEESEVILLE 0.8 SE, NY","Latitude":"44.49504","Longitude":"-73.47109","Snowdepth":"5.000","Units":"in","Rept_Date":"2019-11-19 12"},"coordinates":[7263,2798]},{"type":"Point","properties":{"Station_ID":"NWFM4","Station_Nam":"NW MICHIGAN RESEARCH FARM","Latitude":"44.88300","Longitude":"-85.67520","Snowdepth":"5.000","Units":"in","Rept_Date":"2019-11-19 13"},"coordinates":[3071,3185]},{"type":"Point","properties":{"Station_ID":"NPTV1","Station_Nam":"NEWPORT","Latitude":"44.94900","Longitude":"-72.19120","Snowdepth":"5.000","Units":"in","Rept_Date":"2019-11-19 12"},"coordinates":[7703,3250]},{"type":"Point","properties":{"Station_ID":"MAPM4","Station_Nam":"MAPLE CITY 1E","Latitude":"44.85500","Longitude":"-85.83520","Snowdepth":"5.000","Units":"in","Rept_Date":"2019-11-19 23"},"coordinates":[3016,3157]},{"type":"Point","properties":{"Station_ID":"LPLN6","Station_Nam":"LAKE PLACID 2 S","Latitude":"44.30420","Longitude":"-73.98390","Snowdepth":"5.000","Units":"in","Rept_Date":"2019-11-19 12"},"coordinates":[7087,2608]},{"type":"Point","properties":{"Station_ID":"KBTV","Station_Nam":"BURLINGTON INTERNATIONAL","Latitude":"44.46666","Longitude":"-73.15000","Snowdepth":"5.000","Units":"in","Rept_Date":"2019-11-19 18"},"coordinates":[7374,2770]},{"type":"Point","properties":{"Station_ID":"IRMM4","Station_Nam":"WWTP","Latitude":"46.46670","Longitude":"-90.18330","Snowdepth":"5.000","Units":"in","Rept_Date":"2019-11-19 13"},"coordinates":[1523,4761]},{"type":"Point","properties":{"Station_ID":"HERM4","Station_Nam":"HERMAN,MI","Latitude":"46.65000","Longitude":"-88.33330","Snowdepth":"5.000","Units":"in","Rept_Date":"2019-11-19 13"},"coordinates":[2158,4944]},{"type":"Point","properties":{"Station_ID":"FLAM4","Station_Nam":"FIFE LAKE 2WNW","Latitude":"44.58480","Longitude":"-85.36530","Snowdepth":"5.000","Units":"in","Rept_Date":"2019-11-19 12"},"coordinates":[3178,2888]},{"type":"Point","properties":{"Station_ID":"ENFV1","Station_Nam":"ENOSBURG FALLS 2","Latitude":"44.90960","Longitude":"-72.81370","Snowdepth":"5.000","Units":"in","Rept_Date":"2019-11-19 10"},"coordinates":[7489,3211]},{"type":"Point","properties":{"Station_ID":"BRDM1","Station_Nam":"BRIDGEWATER","Latitude":"46.42870","Longitude":"-67.84370","Snowdepth":"5.000","Units":"in","Rept_Date":"2019-11-19 23"},"coordinates":[9196,4724]},{"type":"Point","properties":{"Station_ID":"BOON6","Station_Nam":"BOONVILLE 4 SSW","Latitude":"43.43610","Longitude":"-75.36970","Snowdepth":"5.000","Units":"in","Rept_Date":"2019-11-19 12"},"coordinates":[6611,1744]},{"type":"Point","properties":{"Station_ID":"FTHQ6","Station_Nam":"FORT HOPE","Latitude":"51.55820","Longitude":"-87.90510","Snowdepth":"4.610","Units":"in","Rept_Date":"2019-11-20 06"},"coordinates":[2305,9831]},{"type":"Point","properties":{"Station_ID":"WI-IR-3","Station_Nam":"PENCE 0.1 E, WI","Latitude":"46.41555","Longitude":"-90.27013","Snowdepth":"4.500","Units":"in","Rept_Date":"2019-11-19 13"},"coordinates":[1493,4711]},{"type":"Point","properties":{"Station_ID":"VT-WS-7","Station_Nam":"MIDDLESEX 3.1 ENE, VT","Latitude":"44.31799","Longitude":"-72.62650","Snowdepth":"4.500","Units":"in","Rept_Date":"2019-11-19 13"},"coordinates":[7553,2622]},{"type":"Point","properties":{"Station_ID":"VT-WS-15","Station_Nam":"EAST CALAIS 1.5 SW, VT","Latitude":"44.35523","Longitude":"-72.45540","Snowdepth":"4.500","Units":"in","Rept_Date":"2019-11-19 12"},"coordinates":[7612,2659]},{"type":"Point","properties":{"Station_ID":"VT-OL-5","Station_Nam":"DERBY CENTER 1.8 NW, VT","Latitude":"44.97200","Longitude":"-72.14780","Snowdepth":"4.500","Units":"in","Rept_Date":"2019-11-19 12"},"coordinates":[7718,3273]},{"type":"Point","properties":{"Station_ID":"VT-ES-3","Station_Nam":"LUNENBURG 2.3 NNW, VT","Latitude":"44.49324","Longitude":"-71.70446","Snowdepth":"4.500","Units":"in","Rept_Date":"2019-11-19 09"},"coordinates":[7870,2797]},{"type":"Point","properties":{"Station_ID":"NY-SR-22","Station_Nam":"GREENFIELD CENTER 1.6 W, NY","Latitude":"43.12684","Longitude":"-73.87860","Snowdepth":"4.500","Units":"in","Rept_Date":"2019-11-19 14"},"coordinates":[7123,1436]},{"type":"Point","properties":{"Station_ID":"NY-FK-9","Station_Nam":"GABRIELS 1.3 SE, NY","Latitude":"44.41934","Longitude":"-74.16194","Snowdepth":"4.500","Units":"in","Rept_Date":"2019-11-19 12"},"coordinates":[7026,2723]},{"type":"Point","properties":{"Station_ID":"MI-MB-55","Station_Nam":"FRASER 1.2 N, MI","Latitude":"42.55697","Longitude":"-82.94938","Snowdepth":"4.500","Units":"in","Rept_Date":"2019-11-19 12"},"coordinates":[4008,869]},{"type":"Point","properties":{"Station_ID":"CAN-ON-42","Station_Nam":"VANKLEEK HILL 3.4 S, CA","Latitude":"45.48987","Longitude":"-74.64570","Snowdepth":"4.500","Units":"in","Rept_Date":"2019-11-19 12"},"coordinates":[6860,3789]},{"type":"Point","properties":{"Station_ID":"CATQ6","Station_Nam":"CAT LAKE","Latitude":"51.72690","Longitude":"-91.82210","Snowdepth":"4.290","Units":"in","Rept_Date":"2019-11-20 06"},"coordinates":[960,9999]},{"type":"Point","properties":{"Station_ID":"WI-VL-9","Station_Nam":"LAND O' LAKES 11.7 W, WI","Latitude":"46.19023","Longitude":"-89.45790","Snowdepth":"4.000","Units":"in","Rept_Date":"2019-11-19 13"},"coordinates":[1772,4486]},{"type":"Point","properties":{"Station_ID":"WI-VL-14","Station_Nam":"BOULDER JUNCTION 1.4 NE, WI","Latitude":"46.12840","Longitude":"-89.62470","Snowdepth":"4.000","Units":"in","Rept_Date":"2019-11-19 13"},"coordinates":[1715,4425]},{"type":"Point","properties":{"Station_ID":"VT-CH-11","Station_Nam":"UNDERHILL 5.1 NNE, VT","Latitude":"44.59811","Longitude":"-72.91880","Snowdepth":"4.000","Units":"in","Rept_Date":"2019-11-19 13"},"coordinates":[7453,2901]},{"type":"Point","properties":{"Station_ID":"SUTV1","Station_Nam":"SUTTON","Latitude":"44.61220","Longitude":"-72.04810","Snowdepth":"4.000","Units":"in","Rept_Date":"2019-11-19 13"},"coordinates":[7752,2915]},{"type":"Point","properties":{"Station_ID":"SSMM4","Station_Nam":"SAULT STE MARIE","Latitude":"46.48660","Longitude":"-84.40250","Snowdepth":"4.000","Units":"in","Rept_Date":"2019-11-19 13"},"coordinates":[3509,4781]},{"type":"Point","properties":{"Station_ID":"RGNM1","Station_Nam":"RANGELEY 2NW","Latitude":"44.98940","Longitude":"-70.67220","Snowdepth":"4.000","Units":"in","Rept_Date":"2019-11-19 11"},"coordinates":[8225,3291]},{"type":"Point","properties":{"Station_ID":"PDGM4","Station_Nam":"PAULDING","Latitude":"46.39760","Longitude":"-89.17940","Snowdepth":"4.000","Units":"in","Rept_Date":"2019-11-19 13"},"coordinates":[1868,4693]},{"type":"Point","properties":{"Station_ID":"NY-SR-16","Station_Nam":"BALLSTON SPA 2.9 ESE, NY","Latitude":"42.99000","Longitude":"-73.80000","Snowdepth":"4.000","Units":"in","Rept_Date":"2019-11-19 14"},"coordinates":[7150,1300]},{"type":"Point","properties":{"Station_ID":"NY-ER-158","Station_Nam":"EAST AURORA 2.7 SSE, NY","Latitude":"42.72936","Longitude":"-78.60561","Snowdepth":"4.000","Units":"in","Rept_Date":"2019-11-19 12"},"coordinates":[5500,1040]},{"type":"Point","properties":{"Station_ID":"NY-ER-138","Station_Nam":"EAST AURORA 3.4 NNE, NY","Latitude":"42.81400","Longitude":"-78.59670","Snowdepth":"4.000","Units":"in","Rept_Date":"2019-11-19 12"},"coordinates":[5503,1125]},{"type":"Point","properties":{"Station_ID":"NY-AB-54","Station_Nam":"ALTAMONT 2.9 SW, NY","Latitude":"42.68182","Longitude":"-74.08326","Snowdepth":"4.000","Units":"in","Rept_Date":"2019-11-19 12"},"coordinates":[7053,993]},{"type":"Point","properties":{"Station_ID":"NH-GR-47","Station_Nam":"LITTLETON 7.3 W, NH","Latitude":"44.31847","Longitude":"-71.91086","Snowdepth":"4.000","Units":"in","Rept_Date":"2019-11-19 13"},"coordinates":[7799,2623]},{"type":"Point","properties":{"Station_ID":"NH-CS-4","Station_Nam":"PITTSBURG 6.1 NE, NH","Latitude":"45.11060","Longitude":"-71.29760","Snowdepth":"4.000","Units":"in","Rept_Date":"2019-11-19 12"},"coordinates":[8010,3411]},{"type":"Point","properties":{"Station_ID":"NH-CS-10","Station_Nam":"RANDOLPH 1.4 NE, NH","Latitude":"44.38824","Longitude":"-71.26950","Snowdepth":"4.000","Units":"in","Rept_Date":"2019-11-19 12"},"coordinates":[8020,2692]},{"type":"Point","properties":{"Station_ID":"MNSM4","Station_Nam":"MUNISING","Latitude":"46.41210","Longitude":"-86.66250","Snowdepth":"4.000","Units":"in","Rept_Date":"2019-11-19 11"},"coordinates":[2732,4707]},{"type":"Point","properties":{"Station_ID":"MALN6","Station_Nam":"MALONE","Latitude":"44.84180","Longitude":"-74.30600","Snowdepth":"4.000","Units":"in","Rept_Date":"2019-11-19 12"},"coordinates":[6977,3144]},{"type":"Point","properties":{"Station_ID":"LNOW3","Station_Nam":"LAND O LAKES","Latitude":"46.19000","Longitude":"-89.45700","Snowdepth":"4.000","Units":"in","Rept_Date":"2019-11-19 13"},"coordinates":[1772,4486]},{"type":"Point","properties":{"Station_ID":"JOHV1","Station_Nam":"JOHNSON 2 N","Latitude":"44.65790","Longitude":"-72.67850","Snowdepth":"4.000","Units":"in","Rept_Date":"2019-11-19 12"},"coordinates":[7536,2960]},{"type":"Point","properties":{"Station_ID":"JEFV1","Station_Nam":"JEFFERSONVILLE","Latitude":"44.58430","Longitude":"-72.78700","Snowdepth":"4.000","Units":"in","Rept_Date":"2019-11-19 12"},"coordinates":[7498,2887]},{"type":"Point","properties":{"Station_ID":"JEFN3","Station_Nam":"JEFFERSON","Latitude":"44.41690","Longitude":"-71.50080","Snowdepth":"4.000","Units":"in","Rept_Date":"2019-11-19 12"},"coordinates":[7940,2721]},{"type":"Point","properties":{"Station_ID":"ISLV1","Station_Nam":"ISLAND POND","Latitude":"44.81280","Longitude":"-71.89020","Snowdepth":"4.000","Units":"in","Rept_Date":"2019-11-19 16"},"coordinates":[7806,3115]},{"type":"Point","properties":{"Station_ID":"INDN6","Station_Nam":"INDIAN LAKE","Latitude":"43.75500","Longitude":"-74.27560","Snowdepth":"4.000","Units":"in","Rept_Date":"2019-11-19 13"},"coordinates":[6987,2061]},{"type":"Point","properties":{"Station_ID":"GILV1","Station_Nam":"GILMAN","Latitude":"44.41120","Longitude":"-71.71860","Snowdepth":"4.000","Units":"in","Rept_Date":"2019-11-19 11"},"coordinates":[7865,2715]},{"type":"Point","properties":{"Station_ID":"DFXM1","Station_Nam":"DOVER-FOXCROFT","Latitude":"45.18720","Longitude":"-69.18350","Snowdepth":"4.000","Units":"in","Rept_Date":"2019-11-19 12"},"coordinates":[8736,3488]},{"type":"Point","properties":{"Station_ID":"COLN3","Station_Nam":"COLEBROOK 3SW","Latitude":"44.86100","Longitude":"-71.53920","Snowdepth":"4.000","Units":"in","Rept_Date":"2019-11-19 22"},"coordinates":[7927,3163]},{"type":"Point","properties":{"Station_ID":"CHRM4","Station_Nam":"CHARLEVOIX","Latitude":"45.31720","Longitude":"-85.26720","Snowdepth":"4.000","Units":"in","Rept_Date":"2019-11-19 13"},"coordinates":[3211,3617]},{"type":"Point","properties":{"Station_ID":"BRAM1","Station_Nam":"BRASSUA DAM","Latitude":"45.66020","Longitude":"-69.81190","Snowdepth":"4.000","Units":"in","Rept_Date":"2019-11-19 12"},"coordinates":[8520,3958]},{"type":"Point","properties":{"Station_ID":"ANJM4","Station_Nam":"SNOW PAID OBSERVER FOR KANJ","Latitude":"46.48670","Longitude":"-84.40260","Snowdepth":"4.000","Units":"in","Rept_Date":"2019-11-19 12"},"coordinates":[3508,4781]},{"type":"Point","properties":{"Station_ID":"ANJ","Station_Nam":"SAULT STE MARIE","Latitude":"46.46670","Longitude":"-84.36670","Snowdepth":"4.000","Units":"in","Rept_Date":"2019-11-20 00"},"coordinates":[3521,4761]},{"type":"Point","properties":{"Station_ID":"CAN-ON-132","Station_Nam":"ORANGEVILLE 5.1 SSW - CANWARN, CAN","Latitude":"43.87372","Longitude":"-80.13428","Snowdepth":"3.900","Units":"in","Rept_Date":"2019-11-19 12"},"coordinates":[4975,2180]},{"type":"Point","properties":{"Station_ID":"MI-WS-3","Station_Nam":"PLYMOUTH 5.4 W, MI","Latitude":"42.38279","Longitude":"-83.57120","Snowdepth":"3.800","Units":"in","Rept_Date":"2019-11-19 12"},"coordinates":[3794,695]},{"type":"Point","properties":{"Station_ID":"VT-LM-7","Station_Nam":"HYDE PARK 2.9 NE, VT","Latitude":"44.62080","Longitude":"-72.57250","Snowdepth":"3.500","Units":"in","Rept_Date":"2019-11-19 13"},"coordinates":[7572,2924]},{"type":"Point","properties":{"Station_ID":"VT-CL-18","Station_Nam":"WHEELOCK 1.6 S, VT","Latitude":"44.56491","Longitude":"-72.08830","Snowdepth":"3.500","Units":"in","Rept_Date":"2019-11-19 12"},"coordinates":[7738,2868]},{"type":"Point","properties":{"Station_ID":"VT-CL-14","Station_Nam":"LYNDONVILLE 1.1 W, VT","Latitude":"44.53582","Longitude":"-72.02867","Snowdepth":"3.500","Units":"in","Rept_Date":"2019-11-19 14"},"coordinates":[7759,2839]},{"type":"Point","properties":{"Station_ID":"VT-CH-4","Station_Nam":"UNDERHILL 4.4 NNE, VT","Latitude":"44.58774","Longitude":"-72.92250","Snowdepth":"3.500","Units":"in","Rept_Date":"2019-11-19 12"},"coordinates":[7452,2891]},{"type":"Point","properties":{"Station_ID":"VT-AD-24","Station_Nam":"MIDDLEBURY 0.3 N, VT","Latitude":"44.01808","Longitude":"-73.16844","Snowdepth":"3.500","Units":"in","Rept_Date":"2019-11-19 11"},"coordinates":[7367,2323]},{"type":"Point","properties":{"Station_ID":"NY-ER-166","Station_Nam":"BOSTON 2.5 NE, NY","Latitude":"42.65480","Longitude":"-78.70300","Snowdepth":"3.500","Units":"in","Rept_Date":"2019-11-19 12"},"coordinates":[5466,966]},{"type":"Point","properties":{"Station_ID":"MI-OT-17","Station_Nam":"GAYLORD 4.1 S, MI","Latitude":"44.96388","Longitude":"-84.68467","Snowdepth":"3.500","Units":"in","Rept_Date":"2019-11-19 12"},"coordinates":[3412,3265]},{"type":"Point","properties":{"Station_ID":"MI-OK-13","Station_Nam":"PLEASANT RIDGE 0.5 WNW, MI","Latitude":"42.47247","Longitude":"-83.15360","Snowdepth":"3.500","Units":"in","Rept_Date":"2019-11-19 13"},"coordinates":[3937,784]},{"type":"Point","properties":{"Station_ID":"ME-PN-45","Station_Nam":"MILLINOCKET 2.7 ESE, ME","Latitude":"45.65002","Longitude":"-68.64472","Snowdepth":"3.500","Units":"in","Rept_Date":"2019-11-19 12"},"coordinates":[8921,3948]},{"type":"Point","properties":{"Station_ID":"CAN-NB-6","Station_Nam":"FREDERICTON 5.1 SSE, CAN","Latitude":"45.91895","Longitude":"-66.62685","Snowdepth":"3.500","Units":"in","Rept_Date":"2019-11-19 11"},"coordinates":[9614,4216]},{"type":"Point","properties":{"Station_ID":"CAN-NB-64","Station_Nam":"KESWICK RIDGE 4.0 SE, CAN","Latitude":"45.97014","Longitude":"-66.85538","Snowdepth":"3.300","Units":"in","Rept_Date":"2019-11-19 12"},"coordinates":[9536,4267]},{"type":"Point","properties":{"Station_ID":"CAN-ON-86","Station_Nam":"GUELPH 5.1 S - CANWARN, CAN","Latitude":"43.49691","Longitude":"-80.24385","Snowdepth":"3.100","Units":"in","Rept_Date":"2019-11-19 12"},"coordinates":[4937,1805]},{"type":"Point","properties":{"Station_ID":"WYON6","Station_Nam":"WYOMING 3W","Latitude":"42.81750","Longitude":"-78.14810","Snowdepth":"3.000","Units":"in","Rept_Date":"2019-11-19 12"},"coordinates":[5657,1128]},{"type":"Point","properties":{"Station_ID":"WTRM4","Station_Nam":"WATERSMEET 12WSW","Latitude":"46.22310","Longitude":"-89.40850","Snowdepth":"3.000","Units":"in","Rept_Date":"2019-11-19 12"},"coordinates":[1789,4519]},{"type":"Point","properties":{"Station_ID":"VT-WS-19","Station_Nam":"WATERBURY 3.0 NW, VT","Latitude":"44.36060","Longitude":"-72.80770","Snowdepth":"3.000","Units":"in","Rept_Date":"2019-11-19 11"},"coordinates":[7491,2664]},{"type":"Point","properties":{"Station_ID":"VT-WS-10","Station_Nam":"NORTHFIELD 1.5 N, VT","Latitude":"44.16986","Longitude":"-72.65200","Snowdepth":"3.000","Units":"in","Rept_Date":"2019-11-19 12"},"coordinates":[7545,2475]},{"type":"Point","properties":{"Station_ID":"VT-WR-17","Station_Nam":"ROCHESTER 2.3 NE, VT","Latitude":"43.89418","Longitude":"-72.76992","Snowdepth":"3.000","Units":"in","Rept_Date":"2019-11-19 12"},"coordinates":[7504,2200]},{"type":"Point","properties":{"Station_ID":"VT-CL-23","Station_Nam":"RYEGATE 1.5 N, VT","Latitude":"44.23024","Longitude":"-72.10523","Snowdepth":"3.000","Units":"in","Rept_Date":"2019-11-19 12"},"coordinates":[7733,2535]},{"type":"Point","properties":{"Station_ID":"VT-CH-38","Station_Nam":"WILLISTON 0.2 WSW, VT","Latitude":"44.43669","Longitude":"-73.07154","Snowdepth":"3.000","Units":"in","Rept_Date":"2019-11-19 13"},"coordinates":[7401,2740]},{"type":"Point","properties":{"Station_ID":"VRGV1","Station_Nam":"VERGENNES","Latitude":"44.17190","Longitude":"-73.24720","Snowdepth":"3.000","Units":"in","Rept_Date":"2019-11-19 11"},"coordinates":[7340,2477]},{"type":"Point","properties":{"Station_ID":"TCEM4","Station_Nam":"TRAVERSE CITY 5ESE","Latitude":"44.73370","Longitude":"-85.51180","Snowdepth":"3.000","Units":"in","Rept_Date":"2019-11-19 12"},"coordinates":[3127,3036]},{"type":"Point","properties":{"Station_ID":"SVSN6","Station_Nam":"SILVER SPRINGS 3N","Latitude":"42.70580","Longitude":"-78.09370","Snowdepth":"3.000","Units":"in","Rept_Date":"2019-11-19 12"},"coordinates":[5676,1017]},{"type":"Point","properties":{"Station_ID":"SJBV1","Station_Nam":"SAINT JOHNSBURY","Latitude":"44.42000","Longitude":"-72.01940","Snowdepth":"3.000","Units":"in","Rept_Date":"2019-11-19 21"},"coordinates":[7762,2724]},{"type":"Point","properties":{"Station_ID":"RKWM1","Station_Nam":"MOOSEHEAD LAKE","Latitude":"45.58330","Longitude":"-69.71670","Snowdepth":"3.000","Units":"in","Rept_Date":"2019-11-19 12"},"coordinates":[8553,3882]},{"type":"Point","properties":{"Station_ID":"RANM1","Station_Nam":"RANGELEY,ME","Latitude":"44.96670","Longitude":"-70.65000","Snowdepth":"3.000","Units":"in","Rept_Date":"2019-11-19 11"},"coordinates":[8232,3268]},{"type":"Point","properties":{"Station_ID":"PRNW3","Station_Nam":"PRENTICE,WI","Latitude":"45.54780","Longitude":"-90.30000","Snowdepth":"3.000","Units":"in","Rept_Date":"2019-11-19 14"},"coordinates":[1483,3847]},{"type":"Point","properties":{"Station_ID":"NY-WY-10","Station_Nam":"WYOMING COOP, NY","Latitude":"42.82060","Longitude":"-78.14810","Snowdepth":"3.000","Units":"in","Rept_Date":"2019-11-19 12"},"coordinates":[5657,1131]},{"type":"Point","properties":{"Station_ID":"NY-WR-10","Station_Nam":"WARRENSBURG 2.1 WNW, NY","Latitude":"43.51784","Longitude":"-73.81069","Snowdepth":"3.000","Units":"in","Rept_Date":"2019-11-19 13"},"coordinates":[7147,1825]},{"type":"Point","properties":{"Station_ID":"NY-SC-16","Station_Nam":"NISKAYUNA 2.0 N, NY","Latitude":"42.84645","Longitude":"-73.89920","Snowdepth":"3.000","Units":"in","Rept_Date":"2019-11-19 12"},"coordinates":[7116,1157]},{"type":"Point","properties":{"Station_ID":"NY-GN-6","Station_Nam":"STAFFORD 1.8 NE, NY","Latitude":"42.99890","Longitude":"-78.04830","Snowdepth":"3.000","Units":"in","Rept_Date":"2019-11-19 12"},"coordinates":[5691,1309]},{"type":"Point","properties":{"Station_ID":"NVLV1","Station_Nam":"NASHVILLE","Latitude":"44.44970","Longitude":"-72.92640","Snowdepth":"3.000","Units":"in","Rept_Date":"2019-11-19 12"},"coordinates":[7450,2753]},{"type":"Point","properties":{"Station_ID":"NVLN6","Station_Nam":"NORTHVILLE","Latitude":"43.23330","Longitude":"-74.16670","Snowdepth":"3.000","Units":"in","Rept_Date":"2019-11-19 13"},"coordinates":[7024,1542]},{"type":"Point","properties":{"Station_ID":"NSFN3","Station_Nam":"NORTH STRATFORD","Latitude":"44.68190","Longitude":"-71.58570","Snowdepth":"3.000","Units":"in","Rept_Date":"2019-11-19 12"},"coordinates":[7911,2984]},{"type":"Point","properties":{"Station_ID":"NCKN6","Station_Nam":"NORTH CREEK 5 SE","Latitude":"43.66110","Longitude":"-73.89690","Snowdepth":"3.000","Units":"in","Rept_Date":"2019-11-19 12"},"coordinates":[7117,1968]},{"type":"Point","properties":{"Station_ID":"MIEM4","Station_Nam":"MICHIGAMME 3WNW","Latitude":"46.54530","Longitude":"-88.18000","Snowdepth":"3.000","Units":"in","Rept_Date":"2019-11-19 13"},"coordinates":[2211,4840]},{"type":"Point","properties":{"Station_ID":"MI-WS-53","Station_Nam":"CHELSEA 3.7 NNE, MI","Latitude":"42.36360","Longitude":"-83.99330","Snowdepth":"3.000","Units":"in","Rept_Date":"2019-11-19 13"},"coordinates":[3649,676]},{"type":"Point","properties":{"Station_ID":"MI-OT-4","Station_Nam":"GAYLORD 1.7 WNW, MI","Latitude":"45.03280","Longitude":"-84.71090","Snowdepth":"3.000","Units":"in","Rept_Date":"2019-11-19 13"},"coordinates":[3403,3334]},{"type":"Point","properties":{"Station_ID":"MI-OK-109","Station_Nam":"HIGHLAND 1.3 NE, MI","Latitude":"42.67877","Longitude":"-83.59361","Snowdepth":"3.000","Units":"in","Rept_Date":"2019-11-19 13"},"coordinates":[3786,990]},{"type":"Point","properties":{"Station_ID":"MI-LV-26","Station_Nam":"FENTON 6.2 WSW, MI","Latitude":"42.76832","Longitude":"-83.82928","Snowdepth":"3.000","Units":"in","Rept_Date":"2019-11-19 13"},"coordinates":[3705,1079]},{"type":"Point","properties":{"Station_ID":"MI-GT-25","Station_Nam":"TRAVERSE CITY 4.7 ESE, MI","Latitude":"44.73370","Longitude":"-85.51189","Snowdepth":"3.000","Units":"in","Rept_Date":"2019-11-19 12"},"coordinates":[3127,3036]},{"type":"Point","properties":{"Station_ID":"JKMM1","Station_Nam":"JACKMAN","Latitude":"45.62600","Longitude":"-70.24600","Snowdepth":"3.000","Units":"in","Rept_Date":"2019-11-19 12"},"coordinates":[8371,3924]},{"type":"Point","properties":{"Station_ID":"IBLM5","Station_Nam":"ISABELLA 14W","Latitude":"47.59360","Longitude":"-91.65140","Snowdepth":"3.000","Units":"in","Rept_Date":"2019-11-19 15"},"coordinates":[1019,5884]},{"type":"Point","properties":{"Station_ID":"GFDN6","Station_Nam":"CHASE LAKE","Latitude":"43.75920","Longitude":"-75.29980","Snowdepth":"3.000","Units":"in","Rept_Date":"2019-11-19 11"},"coordinates":[6635,2066]},{"type":"Point","properties":{"Station_ID":"GAYM4","Station_Nam":"GAYLORD","Latitude":"45.03320","Longitude":"-84.71130","Snowdepth":"3.000","Units":"in","Rept_Date":"2019-11-19 13"},"coordinates":[3402,3334]},{"type":"Point","properties":{"Station_ID":"ESGM1","Station_Nam":"EAST SANGERVILLE","Latitude":"45.13690","Longitude":"-69.28060","Snowdepth":"3.000","Units":"in","Rept_Date":"2019-11-19 12"},"coordinates":[8703,3437]},{"type":"Point","properties":{"Station_ID":"CORV1","Station_Nam":"CORINTH","Latitude":"44.00690","Longitude":"-72.31940","Snowdepth":"3.000","Units":"in","Rept_Date":"2019-11-19 12"},"coordinates":[7659,2312]},{"type":"Point","properties":{"Station_ID":"CNKN6","Station_Nam":"CONKLINGVILLE DAM","Latitude":"43.32030","Longitude":"-73.92560","Snowdepth":"3.000","Units":"in","Rept_Date":"2019-11-19 13"},"coordinates":[7107,1629]},{"type":"Point","properties":{"Station_ID":"CLKM4","Station_Nam":"CLARKSBURG","Latitude":"46.49910","Longitude":"-87.84500","Snowdepth":"3.000","Units":"in","Rept_Date":"2019-11-19 12"},"coordinates":[2326,4794]},{"type":"Point","properties":{"Station_ID":"CAN-ON-92","Station_Nam":"DUNROBIN 1.9 W - MVCA, CAN","Latitude":"45.42318","Longitude":"-76.04525","Snowdepth":"3.000","Units":"in","Rept_Date":"2019-11-19 12"},"coordinates":[6379,3722]},{"type":"Point","properties":{"Station_ID":"CAN-ON-245","Station_Nam":"PHELPSTON 3.1 ESE, CAN","Latitude":"44.50564","Longitude":"-79.81035","Snowdepth":"3.000","Units":"in","Rept_Date":"2019-11-19 12"},"coordinates":[5086,2809]},{"type":"Point","properties":{"Station_ID":"CAN-NB-11","Station_Nam":"MIRAMICHI 3.3 S, CAN","Latitude":"46.99343","Longitude":"-65.50690","Snowdepth":"3.000","Units":"in","Rept_Date":"2019-11-19 12"},"coordinates":[9999,5286]},{"type":"Point","properties":{"Station_ID":"BTV","Station_Nam":"BURLINGTON, VT","Latitude":"44.47140","Longitude":"-73.15330","Snowdepth":"3.000","Units":"in","Rept_Date":"2019-11-20 01"},"coordinates":[7373,2775]},{"type":"Point","properties":{"Station_ID":"ATAN6","Station_Nam":"ATTICA 7 SW","Latitude":"42.81070","Longitude":"-78.39790","Snowdepth":"3.000","Units":"in","Rept_Date":"2019-11-19 11"},"coordinates":[5571,1121]},{"type":"Point","properties":{"Station_ID":"MI-MD-10","Station_Nam":"MIDLAND 1.5 NNE, MI","Latitude":"43.64412","Longitude":"-84.21729","Snowdepth":"2.800","Units":"in","Rept_Date":"2019-11-19 11"},"coordinates":[3572,1951]},{"type":"Point","properties":{"Station_ID":"MI-AN-20","Station_Nam":"HOLLAND 5.3 WSW, MI","Latitude":"42.74900","Longitude":"-86.20200","Snowdepth":"2.700","Units":"in","Rept_Date":"2019-11-19 13"},"coordinates":[2890,1060]},{"type":"Point","properties":{"Station_ID":"TRIQ6","Station_Nam":"TRIO LAKE","Latitude":"49.22880","Longitude":"-87.22920","Snowdepth":"2.600","Units":"in","Rept_Date":"2019-11-20 06"},"coordinates":[2538,7512]},{"type":"Point","properties":{"Station_ID":"CAN-NB-97","Station_Nam":"NEW MARYLAND 0.6 NW, CAN","Latitude":"45.90112","Longitude":"-66.68739","Snowdepth":"2.600","Units":"in","Rept_Date":"2019-11-19 11"},"coordinates":[9594,4198]},{"type":"Point","properties":{"Station_ID":"VT-OG-11","Station_Nam":"VERSHIRE 1.5 ESE, VT","Latitude":"43.96138","Longitude":"-72.29777","Snowdepth":"2.500","Units":"in","Rept_Date":"2019-11-19 13"},"coordinates":[7666,2267]},{"type":"Point","properties":{"Station_ID":"VT-LM-1","Station_Nam":"STOWE 0.2 SW, VT","Latitude":"44.46399","Longitude":"-72.69070","Snowdepth":"2.500","Units":"in","Rept_Date":"2019-11-19 12"},"coordinates":[7531,2767]},{"type":"Point","properties":{"Station_ID":"VT-ES-1","Station_Nam":"GRANBY 1.4 NW, VT","Latitude":"44.58330","Longitude":"-71.77870","Snowdepth":"2.500","Units":"in","Rept_Date":"2019-11-19 13"},"coordinates":[7845,2886]},{"type":"Point","properties":{"Station_ID":"NY-WY-11","Station_Nam":"SILVER SPRINGS COOP, NY","Latitude":"42.70580","Longitude":"-78.09370","Snowdepth":"2.500","Units":"in","Rept_Date":"2019-11-19 12"},"coordinates":[5676,1017]},{"type":"Point","properties":{"Station_ID":"NY-SC-11","Station_Nam":"SCHENECTADY 3.3 E, NY","Latitude":"42.79382","Longitude":"-73.86390","Snowdepth":"2.500","Units":"in","Rept_Date":"2019-11-19 14"},"coordinates":[7128,1104]},{"type":"Point","properties":{"Station_ID":"NY-MG-4","Station_Nam":"FONDA 0.5 ENE, NY","Latitude":"42.95527","Longitude":"-74.36272","Snowdepth":"2.500","Units":"in","Rept_Date":"2019-11-19 13"},"coordinates":[6957,1265]},{"type":"Point","properties":{"Station_ID":"NY-ER-75","Station_Nam":"ELMA CENTER 0.7 SE, NY","Latitude":"42.81936","Longitude":"-78.62140","Snowdepth":"2.500","Units":"in","Rept_Date":"2019-11-19 14"},"coordinates":[5494,1130]},{"type":"Point","properties":{"Station_ID":"NY-ER-65","Station_Nam":"BOSTON 1.5 NE, NY","Latitude":"42.65470","Longitude":"-78.72010","Snowdepth":"2.500","Units":"in","Rept_Date":"2019-11-19 12"},"coordinates":[5460,966]},{"type":"Point","properties":{"Station_ID":"NY-ER-50","Station_Nam":"EAST AURORA 0.1 ENE, NY","Latitude":"42.76750","Longitude":"-78.61580","Snowdepth":"2.500","Units":"in","Rept_Date":"2019-11-19 12"},"coordinates":[5496,1078]},{"type":"Point","properties":{"Station_ID":"NY-ER-164","Station_Nam":"AKRON 0.9 NE, NY","Latitude":"43.02860","Longitude":"-78.48360","Snowdepth":"2.500","Units":"in","Rept_Date":"2019-11-19 12"},"coordinates":[5542,1338]},{"type":"Point","properties":{"Station_ID":"NY-DT-12","Station_Nam":"LAGRANGEVILLE 3.4 NE, NY","Latitude":"41.68460","Longitude":"-73.72050","Snowdepth":"2.500","Units":"in","Rept_Date":"2019-11-19 13"},"coordinates":[7178,0]},{"type":"Point","properties":{"Station_ID":"NY-AB-1","Station_Nam":"ALTAMONT 2.7 SSW, NY","Latitude":"42.66696","Longitude":"-74.05090","Snowdepth":"2.500","Units":"in","Rept_Date":"2019-11-19 12"},"coordinates":[7064,978]},{"type":"Point","properties":{"Station_ID":"MI-OT-16","Station_Nam":"GAYLORD 2.2 SSE, MI","Latitude":"44.99441","Longitude":"-84.65820","Snowdepth":"2.500","Units":"in","Rept_Date":"2019-11-19 14"},"coordinates":[3421,3296]},{"type":"Point","properties":{"Station_ID":"MI-HG-6","Station_Nam":"CALUMET 5.8 ENE, MI","Latitude":"47.27200","Longitude":"-88.33400","Snowdepth":"2.500","Units":"in","Rept_Date":"2019-11-19 11"},"coordinates":[2158,5563]},{"type":"Point","properties":{"Station_ID":"MI-GT-21","Station_Nam":"KINGSLEY 2.7 ENE, MI","Latitude":"44.59871","Longitude":"-85.48426","Snowdepth":"2.500","Units":"in","Rept_Date":"2019-11-19 12"},"coordinates":[3137,2902]},{"type":"Point","properties":{"Station_ID":"MI-CX-7","Station_Nam":"EAST JORDAN 2.1 NNW, MI","Latitude":"45.18639","Longitude":"-85.14750","Snowdepth":"2.500","Units":"in","Rept_Date":"2019-11-19 13"},"coordinates":[3253,3487]},{"type":"Point","properties":{"Station_ID":"WTNM4","Station_Nam":"WATTON 2WSW","Latitude":"46.52660","Longitude":"-88.64240","Snowdepth":"2.000","Units":"in","Rept_Date":"2019-11-19 13"},"coordinates":[2052,4821]},{"type":"Point","properties":{"Station_ID":"WRSN6","Station_Nam":"WARSAW 6SW","Latitude":"42.68550","Longitude":"-78.22020","Snowdepth":"2.000","Units":"in","Rept_Date":"2019-11-19 12"},"coordinates":[5632,997]},{"type":"Point","properties":{"Station_ID":"WORV1","Station_Nam":"WORCESTER 2 W","Latitude":"44.37470","Longitude":"-72.58220","Snowdepth":"2.000","Units":"in","Rept_Date":"2019-11-19 12"},"coordinates":[7569,2679]},{"type":"Point","properties":{"Station_ID":"WLSN6","Station_Nam":"WALES","Latitude":"42.73920","Longitude":"-78.58780","Snowdepth":"2.000","Units":"in","Rept_Date":"2019-11-19 12"},"coordinates":[5506,1050]},{"type":"Point","properties":{"Station_ID":"WLNM4","Station_Nam":"WELLSTON 1N","Latitude":"44.22940","Longitude":"-85.95690","Snowdepth":"2.000","Units":"in","Rept_Date":"2019-11-19 12"},"coordinates":[2975,2534]},{"type":"Point","properties":{"Station_ID":"WLFM5","Station_Nam":"WOLF RIDGE ENVIRON LEARNING CENTER","Latitude":"47.38240","Longitude":"-91.19730","Snowdepth":"2.000","Units":"in","Rept_Date":"2019-11-19 13"},"coordinates":[1175,5673]},{"type":"Point","properties":{"Station_ID":"WI-RS-1","Station_Nam":"LADYSMITH 2.8 WNW, WI","Latitude":"45.48180","Longitude":"-91.14680","Snowdepth":"2.000","Units":"in","Rept_Date":"2019-11-19 13"},"coordinates":[1192,3781]},{"type":"Point","properties":{"Station_ID":"WI-DG-16","Station_Nam":"POPLAR 2.0 E, WI","Latitude":"46.58390","Longitude":"-91.74620","Snowdepth":"2.000","Units":"in","Rept_Date":"2019-11-19 13"},"coordinates":[986,4878]},{"type":"Point","properties":{"Station_ID":"WAIV1","Station_Nam":"WAITSFIELD","Latitude":"44.17560","Longitude":"-72.79610","Snowdepth":"2.000","Units":"in","Rept_Date":"2019-11-19 12"},"coordinates":[7495,2480]},{"type":"Point","properties":{"Station_ID":"VT-WS-33","Station_Nam":"WAITSFIELD 3.5 WNW, VT","Latitude":"44.20052","Longitude":"-72.89421","Snowdepth":"2.000","Units":"in","Rept_Date":"2019-11-19 13"},"coordinates":[7462,2505]},{"type":"Point","properties":{"Station_ID":"VT-WS-11","Station_Nam":"WAITSFIELD 1.8 SE, VT","Latitude":"44.17551","Longitude":"-72.79540","Snowdepth":"2.000","Units":"in","Rept_Date":"2019-11-19 12"},"coordinates":[7495,2480]},{"type":"Point","properties":{"Station_ID":"VT-WR-18","Station_Nam":"ROCHESTER 2.2 ESE, VT","Latitude":"43.86265","Longitude":"-72.76677","Snowdepth":"2.000","Units":"in","Rept_Date":"2019-11-19 11"},"coordinates":[7505,2169]},{"type":"Point","properties":{"Station_ID":"VT-GI-3","Station_Nam":"ALBURGH 4.6 SSE, VT","Latitude":"44.91280","Longitude":"-73.26890","Snowdepth":"2.000","Units":"in","Rept_Date":"2019-11-19 14"},"coordinates":[7333,3214]},{"type":"Point","properties":{"Station_ID":"VT-CH-13","Station_Nam":"RICHMOND 3.4 SSE, VT","Latitude":"44.36084","Longitude":"-72.96400","Snowdepth":"2.000","Units":"in","Rept_Date":"2019-11-19 12"},"coordinates":[7438,2665]},{"type":"Point","properties":{"Station_ID":"TAKW3","Station_Nam":"RICE RESERVOIR NO. 2","Latitude":"45.53770","Longitude":"-89.73220","Snowdepth":"2.000","Units":"in","Rept_Date":"2019-11-19 13"},"coordinates":[1678,3836]},{"type":"Point","properties":{"Station_ID":"STIM4","Station_Nam":"ST IGNACE","Latitude":"45.86080","Longitude":"-84.71960","Snowdepth":"2.000","Units":"in","Rept_Date":"2019-11-19 12"},"coordinates":[3400,4158]},{"type":"Point","properties":{"Station_ID":"STGW3","Station_Nam":"ST GERMAIN","Latitude":"45.91550","Longitude":"-89.48940","Snowdepth":"2.000","Units":"in","Rept_Date":"2019-11-19 12"},"coordinates":[1761,4213]},{"type":"Point","properties":{"Station_ID":"SHHN6","Station_Nam":"SCHOHARIE VILLAGE","Latitude":"42.66500","Longitude":"-74.30360","Snowdepth":"2.000","Units":"in","Rept_Date":"2019-11-19 13"},"coordinates":[6977,976]},{"type":"Point","properties":{"Station_ID":"SBNN6","Station_Nam":"SANBORN","Latitude":"43.17050","Longitude":"-78.81810","Snowdepth":"2.000","Units":"in","Rept_Date":"2019-11-19 12"},"coordinates":[5427,1479]},{"type":"Point","properties":{"Station_ID":"PRGN6","Station_Nam":"PERRYSBURG","Latitude":"42.46470","Longitude":"-79.00310","Snowdepth":"2.000","Units":"in","Rept_Date":"2019-11-19 12"},"coordinates":[5363,777]},{"type":"Point","properties":{"Station_ID":"PLFV1","Station_Nam":"PLAINFIELD","Latitude":"44.27610","Longitude":"-72.41500","Snowdepth":"2.000","Units":"in","Rept_Date":"2019-11-19 12"},"coordinates":[7626,2580]},{"type":"Point","properties":{"Station_ID":"PLBN6","Station_Nam":"PLATTSBURGH COOP","Latitude":"44.69180","Longitude":"-73.45560","Snowdepth":"2.000","Units":"in","Rept_Date":"2019-11-19 12"},"coordinates":[7269,2994]},{"type":"Point","properties":{"Station_ID":"PEKN6","Station_Nam":"PECK LAKE","Latitude":"43.11500","Longitude":"-74.42360","Snowdepth":"2.000","Units":"in","Rept_Date":"2019-11-19 13"},"coordinates":[6936,1424]},{"type":"Point","properties":{"Station_ID":"NY-SR-4","Station_Nam":"SARATOGA SPRINGS 0.5 S, NY","Latitude":"43.06032","Longitude":"-73.78010","Snowdepth":"2.000","Units":"in","Rept_Date":"2019-11-19 12"},"coordinates":[7157,1370]},{"type":"Point","properties":{"Station_ID":"NY-RN-20","Station_Nam":"TROY 2.1 NNE, NY","Latitude":"42.75930","Longitude":"-73.65283","Snowdepth":"2.000","Units":"in","Rept_Date":"2019-11-19 15"},"coordinates":[7201,1070]},{"type":"Point","properties":{"Station_ID":"NY-OD-43","Station_Nam":"HOLLAND PATENT 1.1 WNW, NY","Latitude":"43.24707","Longitude":"-75.27750","Snowdepth":"2.000","Units":"in","Rept_Date":"2019-11-19 12"},"coordinates":[6643,1556]},{"type":"Point","properties":{"Station_ID":"NY-ER-86","Station_Nam":"TONAWANDA 1.5 NNE, NY","Latitude":"43.00507","Longitude":"-78.86600","Snowdepth":"2.000","Units":"in","Rept_Date":"2019-11-19 13"},"coordinates":[5410,1315]},{"type":"Point","properties":{"Station_ID":"NY-ER-178","Station_Nam":"WEST SENECA 2.5 SE, NY","Latitude":"42.81374","Longitude":"-78.71399","Snowdepth":"2.000","Units":"in","Rept_Date":"2019-11-19 12"},"coordinates":[5462,1124]},{"type":"Point","properties":{"Station_ID":"NY-ER-104","Station_Nam":"WILLIAMSVILLE 2.2 NNW, NY","Latitude":"42.99422","Longitude":"-78.75260","Snowdepth":"2.000","Units":"in","Rept_Date":"2019-11-19 14"},"coordinates":[5449,1304]},{"type":"Point","properties":{"Station_ID":"NY-DT-32","Station_Nam":"MILLBROOK 2.5 NE, NY","Latitude":"41.80954","Longitude":"-73.65880","Snowdepth":"2.000","Units":"in","Rept_Date":"2019-11-19 11"},"coordinates":[7199,124]},{"type":"Point","properties":{"Station_ID":"NY-DL-28","Station_Nam":"FLEISCHMANNS 5.7 N, NY","Latitude":"42.23779","Longitude":"-74.52335","Snowdepth":"2.000","Units":"in","Rept_Date":"2019-11-19 12"},"coordinates":[6902,551]},{"type":"Point","properties":{"Station_ID":"NY-DL-25","Station_Nam":"HOBART 4.8 ESE, NY","Latitude":"42.35230","Longitude":"-74.57830","Snowdepth":"2.000","Units":"in","Rept_Date":"2019-11-19 12"},"coordinates":[6883,665]},{"type":"Point","properties":{"Station_ID":"NWSM1","Station_Nam":"NEW SHARON","Latitude":"44.63520","Longitude":"-70.00020","Snowdepth":"2.000","Units":"in","Rept_Date":"2019-11-19 12"},"coordinates":[8456,2938]},{"type":"Point","properties":{"Station_ID":"NSKN6","Station_Nam":"NISKAYUNA","Latitude":"42.79580","Longitude":"-73.87670","Snowdepth":"2.000","Units":"in","Rept_Date":"2019-11-19 12"},"coordinates":[7124,1106]},{"type":"Point","properties":{"Station_ID":"MYOM4","Station_Nam":"MIO WWTP","Latitude":"44.64660","Longitude":"-84.11580","Snowdepth":"2.000","Units":"in","Rept_Date":"2019-11-19 13"},"coordinates":[3607,2949]},{"type":"Point","properties":{"Station_ID":"MXON6","Station_Nam":"MEXICO","Latitude":"43.43830","Longitude":"-76.26560","Snowdepth":"2.000","Units":"in","Rept_Date":"2019-11-19 12"},"coordinates":[6303,1746]},{"type":"Point","properties":{"Station_ID":"MRAM4","Station_Nam":"MORAN","Latitude":"45.99030","Longitude":"-84.83610","Snowdepth":"2.000","Units":"in","Rept_Date":"2019-11-19 13"},"coordinates":[3360,4287]},{"type":"Point","properties":{"Station_ID":"MI-WY-7","Station_Nam":"DEARBORN 3.5 NE, MI","Latitude":"42.35000","Longitude":"-83.17000","Snowdepth":"2.000","Units":"in","Rept_Date":"2019-11-19 12"},"coordinates":[3932,663]},{"type":"Point","properties":{"Station_ID":"MI-MC-4","Station_Nam":"ST. IGNACE 0.5SE, MI","Latitude":"45.86057","Longitude":"-84.71980","Snowdepth":"2.000","Units":"in","Rept_Date":"2019-11-19 12"},"coordinates":[3400,4158]},{"type":"Point","properties":{"Station_ID":"MI-HG-1","Station_Nam":"HOUGHTON 1.6 ESE, MI","Latitude":"47.10774","Longitude":"-88.52940","Snowdepth":"2.000","Units":"in","Rept_Date":"2019-11-19 13"},"coordinates":[2091,5400]},{"type":"Point","properties":{"Station_ID":"MI-GN-29","Station_Nam":"DAVISON 5.2 N, MI","Latitude":"43.10778","Longitude":"-83.51137","Snowdepth":"2.000","Units":"in","Rept_Date":"2019-11-19 14"},"coordinates":[3815,1417]},{"type":"Point","properties":{"Station_ID":"MI-CP-14","Station_Nam":"SAULT STE. MARIE 2.2 E, MI","Latitude":"46.48933","Longitude":"-84.31971","Snowdepth":"2.000","Units":"in","Rept_Date":"2019-11-19 13"},"coordinates":[3537,4784]},{"type":"Point","properties":{"Station_ID":"MEDN6","Station_Nam":"MEDINA","Latitude":"43.20930","Longitude":"-78.38940","Snowdepth":"2.000","Units":"in","Rept_Date":"2019-11-19 11"},"coordinates":[5574,1518]},{"type":"Point","properties":{"Station_ID":"ME-PN-55","Station_Nam":"ORONO 1.1 SSW, ME","Latitude":"44.87005","Longitude":"-68.69446","Snowdepth":"2.000","Units":"in","Rept_Date":"2019-11-19 12"},"coordinates":[8904,3172]},{"type":"Point","properties":{"Station_ID":"ME-PN-30","Station_Nam":"OLD TOWN 4.1 ESE, ME","Latitude":"44.93543","Longitude":"-68.65840","Snowdepth":"2.000","Units":"in","Rept_Date":"2019-11-19 13"},"coordinates":[8916,3237]},{"type":"Point","properties":{"Station_ID":"ME-FR-2","Station_Nam":"TEMPLE 1.8 W, ME","Latitude":"44.68329","Longitude":"-70.26420","Snowdepth":"2.000","Units":"in","Rept_Date":"2019-11-19 12"},"coordinates":[8365,2986]},{"type":"Point","properties":{"Station_ID":"LVDW3","Station_Nam":"LAC VIEUX DESERT","Latitude":"46.12110","Longitude":"-89.07580","Snowdepth":"2.000","Units":"in","Rept_Date":"2019-11-19 14"},"coordinates":[1903,4417]},{"type":"Point","properties":{"Station_ID":"LTMW3","Station_Nam":"LAKE TOMAHAWK 2 SE","Latitude":"45.80750","Longitude":"-89.55830","Snowdepth":"2.000","Units":"in","Rept_Date":"2019-11-19 12"},"coordinates":[1738,4105]},{"type":"Point","properties":{"Station_ID":"LNKM1","Station_Nam":"LINCOLN SANITARY DISTRICT/WTP","Latitude":"45.37520","Longitude":"-68.50820","Snowdepth":"2.000","Units":"in","Rept_Date":"2019-11-19 12"},"coordinates":[8968,3675]},{"type":"Point","properties":{"Station_ID":"LEXM4","Station_Nam":"LEXINGTON WATER PLANT","Latitude":"43.26310","Longitude":"-82.53280","Snowdepth":"2.000","Units":"in","Rept_Date":"2019-11-19 12"},"coordinates":[4151,1572]},{"type":"Point","properties":{"Station_ID":"LBKV1","Station_Nam":"LYE BROOK","Latitude":"43.05000","Longitude":"-73.03330","Snowdepth":"2.000","Units":"in","Rept_Date":"2019-11-20 06"},"coordinates":[7414,1360]},{"type":"Point","properties":{"Station_ID":"KTVC","Station_Nam":"CHERRY CAPITAL AIRPORT","Latitude":"44.73333","Longitude":"-85.56666","Snowdepth":"2.000","Units":"in","Rept_Date":"2019-11-20 00"},"coordinates":[3109,3036]},{"type":"Point","properties":{"Station_ID":"KROC","Station_Nam":"GREATER ROCHESTER INTERNATIONAL","Latitude":"43.11666","Longitude":"-77.68333","Snowdepth":"2.000","Units":"in","Rept_Date":"2019-11-19 18"},"coordinates":[5816,1426]},{"type":"Point","properties":{"Station_ID":"KGTB","Station_Nam":"FORT DRUM / WHEELER-SACK U. S. ARMY AIRFIELD","Latitude":"44.05000","Longitude":"-75.73333","Snowdepth":"2.000","Units":"in","Rept_Date":"2019-11-20 06"},"coordinates":[6486,2355]},{"type":"Point","properties":{"Station_ID":"HRVM4","Station_Nam":"HARVEY","Latitude":"46.49080","Longitude":"-87.35470","Snowdepth":"2.000","Units":"in","Rept_Date":"2019-11-19 12"},"coordinates":[2494,4785]},{"type":"Point","properties":{"Station_ID":"GPFM4","Station_Nam":"GROSSE POINTE FARMS,MI","Latitude":"42.38330","Longitude":"-82.90000","Snowdepth":"2.000","Units":"in","Rept_Date":"2019-11-19 13"},"coordinates":[4025,696]},{"type":"Point","properties":{"Station_ID":"GOVN6","Station_Nam":"GOUVERNEUR 3 NW","Latitude":"44.35400","Longitude":"-75.51230","Snowdepth":"2.000","Units":"in","Rept_Date":"2019-11-19 12"},"coordinates":[6562,2658]},{"type":"Point","properties":{"Station_ID":"GGRM4","Station_Nam":"GREEN GARDEN NO.2","Latitude":"46.45330","Longitude":"-87.30380","Snowdepth":"2.000","Units":"in","Rept_Date":"2019-11-19 11"},"coordinates":[2512,4748]},{"type":"Point","properties":{"Station_ID":"EVRW3","Station_Nam":"EAGLE RIVER-4 E","Latitude":"45.91890","Longitude":"-89.15280","Snowdepth":"2.000","Units":"in","Rept_Date":"2019-11-19 12"},"coordinates":[1877,4216]},{"type":"Point","properties":{"Station_ID":"EJNM4","Station_Nam":"EAST JORDAN 2NW","Latitude":"45.18630","Longitude":"-85.14770","Snowdepth":"2.000","Units":"in","Rept_Date":"2019-11-19 13"},"coordinates":[3253,3487]},{"type":"Point","properties":{"Station_ID":"DLSN6","Station_Nam":"DELANSON 2NE","Latitude":"42.76720","Longitude":"-74.17110","Snowdepth":"2.000","Units":"in","Rept_Date":"2019-11-19 12"},"coordinates":[7023,1078]},{"type":"Point","properties":{"Station_ID":"DBNM4","Station_Nam":"DEARBORN NO.2","Latitude":"42.34670","Longitude":"-83.17420","Snowdepth":"2.000","Units":"in","Rept_Date":"2019-11-19 12"},"coordinates":[3930,659]},{"type":"Point","properties":{"Station_ID":"CWLV1","Station_Nam":"CORNWALL","Latitude":"43.95730","Longitude":"-73.21060","Snowdepth":"2.000","Units":"in","Rept_Date":"2019-11-19 12"},"coordinates":[7353,2263]},{"type":"Point","properties":{"Station_ID":"CORM1","Station_Nam":"CORINNA","Latitude":"44.91980","Longitude":"-69.24180","Snowdepth":"2.000","Units":"in","Rept_Date":"2019-11-19 15"},"coordinates":[8716,3221]},{"type":"Point","properties":{"Station_ID":"CEFM4","Station_Nam":"EXPERIMENT FARM #2","Latitude":"46.33330","Longitude":"-86.91670","Snowdepth":"2.000","Units":"in","Rept_Date":"2019-11-19 13"},"coordinates":[2645,4629]},{"type":"Point","properties":{"Station_ID":"CAN-ON-491","Station_Nam":"MILVERTON 1.1 ESE- CANWARN, CAN","Latitude":"43.56074","Longitude":"-80.90887","Snowdepth":"2.000","Units":"in","Rept_Date":"2019-11-19 11"},"coordinates":[4709,1868]},{"type":"Point","properties":{"Station_ID":"CAN-ON-46","Station_Nam":"WROXETER 0.3 WSW - MVCA, CAN","Latitude":"43.86365","Longitude":"-81.15225","Snowdepth":"2.000","Units":"in","Rept_Date":"2019-11-19 13"},"coordinates":[4625,2170]},{"type":"Point","properties":{"Station_ID":"BUNM4","Station_Nam":"BURTON 4N","Latitude":"43.06750","Longitude":"-83.59190","Snowdepth":"2.000","Units":"in","Rept_Date":"2019-11-19 12"},"coordinates":[3787,1377]},{"type":"Point","properties":{"Station_ID":"BRLN3","Station_Nam":"BERLIN","Latitude":"44.45350","Longitude":"-71.18540","Snowdepth":"2.000","Units":"in","Rept_Date":"2019-11-19 12"},"coordinates":[8048,2757]},{"type":"Point","properties":{"Station_ID":"BNDM5","Station_Nam":"ELY 25E","Latitude":"47.97190","Longitude":"-91.44860","Snowdepth":"2.000","Units":"in","Rept_Date":"2019-11-19 13"},"coordinates":[1088,6260]},{"type":"Point","properties":{"Station_ID":"BENN6","Station_Nam":"BENNETTS BRIDGE","Latitude":"43.53180","Longitude":"-75.95260","Snowdepth":"2.000","Units":"in","Rept_Date":"2019-11-19 12"},"coordinates":[6411,1839]},{"type":"Point","properties":{"Station_ID":"AVTW3","Station_Nam":"ARBOR VITAE-JOHNSON LAKE","Latitude":"45.89940","Longitude":"-89.72670","Snowdepth":"2.000","Units":"in","Rept_Date":"2019-11-19 12"},"coordinates":[1680,4197]},{"type":"Point","properties":{"Station_ID":"ADFN6","Station_Nam":"WEST ALMOND 2NNE SNOW","Latitude":"42.33330","Longitude":"-77.86670","Snowdepth":"2.000","Units":"in","Rept_Date":"2019-11-19 13"},"coordinates":[5754,646]},{"type":"Point","properties":{"Station_ID":"ABNN6","Station_Nam":"ALBION","Latitude":"43.26330","Longitude":"-78.21520","Snowdepth":"2.000","Units":"in","Rept_Date":"2019-11-19 23"},"coordinates":[5634,1572]},{"type":"Point","properties":{"Station_ID":"PTLQ6","Station_Nam":"PORTAGE LAKE","Latitude":"49.06950","Longitude":"-86.65940","Snowdepth":"1.850","Units":"in","Rept_Date":"2019-11-20 06"},"coordinates":[2733,7353]},{"type":"Point","properties":{"Station_ID":"NY-HR-18","Station_Nam":"SALISBURY CENTER 1.8 NW, NY","Latitude":"43.16260","Longitude":"-74.80880","Snowdepth":"1.800","Units":"in","Rept_Date":"2019-11-19 11"},"coordinates":[6804,1472]},{"type":"Point","properties":{"Station_ID":"KABQ6","Station_Nam":"CAB LAKE","Latitude":"49.59950","Longitude":"-89.17990","Snowdepth":"1.770","Units":"in","Rept_Date":"2019-11-20 06"},"coordinates":[1868,7881]},{"type":"Point","properties":{"Station_ID":"NY-WS-8","Station_Nam":"GRANVILLE 9.5 SW, NY","Latitude":"43.31163","Longitude":"-73.39613","Snowdepth":"1.700","Units":"in","Rept_Date":"2019-11-19 20"},"coordinates":[7289,1620]},{"type":"Point","properties":{"Station_ID":"NY-SR-35","Station_Nam":"ROUND LAKE 4.1 NE, NY","Latitude":"42.97760","Longitude":"-73.73750","Snowdepth":"1.600","Units":"in","Rept_Date":"2019-11-19 12"},"coordinates":[7172,1287]},{"type":"Point","properties":{"Station_ID":"CAN-ON-646","Station_Nam":"MISSISSAUGA 6.4 SSE - CANWARN, CAN","Latitude":"43.53417","Longitude":"-79.62089","Snowdepth":"1.600","Units":"in","Rept_Date":"2019-11-19 13"},"coordinates":[5151,1842]},{"type":"Point","properties":{"Station_ID":"CAN-ON-120","Station_Nam":"DUNROBIN 5.8 NE MIVCA, CA","Latitude":"45.46243","Longitude":"-75.97120","Snowdepth":"1.600","Units":"in","Rept_Date":"2019-11-19 12"},"coordinates":[6405,3762]},{"type":"Point","properties":{"Station_ID":"WI-PR-2","Station_Nam":"BUTTERNUT 5.9 SW, WI","Latitude":"45.96501","Longitude":"-90.59750","Snowdepth":"1.500","Units":"in","Rept_Date":"2019-11-19 12"},"coordinates":[1381,4262]},{"type":"Point","properties":{"Station_ID":"VT-AD-20","Station_Nam":"HANCOCK 0.3 S, VT","Latitude":"43.92166","Longitude":"-72.84042","Snowdepth":"1.500","Units":"in","Rept_Date":"2019-11-19 12"},"coordinates":[7480,2227]},{"type":"Point","properties":{"Station_ID":"NY-OL-5","Station_Nam":"MEDINA 0.4 WNW, NY","Latitude":"43.22300","Longitude":"-78.39539","Snowdepth":"1.500","Units":"in","Rept_Date":"2019-11-19 13"},"coordinates":[5572,1532]},{"type":"Point","properties":{"Station_ID":"NY-NG-2","Station_Nam":"NORTH TONAWANDA 1.0 NNE, NY","Latitude":"43.05725","Longitude":"-78.86170","Snowdepth":"1.500","Units":"in","Rept_Date":"2019-11-19 12"},"coordinates":[5412,1367]},{"type":"Point","properties":{"Station_ID":"NY-GR-13","Station_Nam":"TANNERSVILLE 4.5 SSE, NY","Latitude":"42.13884","Longitude":"-74.08697","Snowdepth":"1.500","Units":"in","Rept_Date":"2019-11-19 12"},"coordinates":[7052,452]},{"type":"Point","properties":{"Station_ID":"NY-ER-60","Station_Nam":"BLASDELL 1.5 SSW, NY","Latitude":"42.77657","Longitude":"-78.84440","Snowdepth":"1.500","Units":"in","Rept_Date":"2019-11-19 12"},"coordinates":[5418,1087]},{"type":"Point","properties":{"Station_ID":"NY-CL-7","Station_Nam":"PERU 4.1 ESE, NY","Latitude":"44.56461","Longitude":"-73.45390","Snowdepth":"1.500","Units":"in","Rept_Date":"2019-11-19 11"},"coordinates":[7269,2868]},{"type":"Point","properties":{"Station_ID":"NH-CR-46","Station_Nam":"NORTH CONWAY 1.8 SSE, NH","Latitude":"44.02955","Longitude":"-71.11664","Snowdepth":"1.500","Units":"in","Rept_Date":"2019-11-19 15"},"coordinates":[8072,2335]},{"type":"Point","properties":{"Station_ID":"ME-KB-25","Station_Nam":"SIDNEY 2.6 NNW, ME","Latitude":"44.44985","Longitude":"-69.73840","Snowdepth":"1.500","Units":"in","Rept_Date":"2019-11-19 12"},"coordinates":[8546,2753]},{"type":"Point","properties":{"Station_ID":"ME-AN-32","Station_Nam":"WINTHROP 9.4 W, ME","Latitude":"44.30476","Longitude":"-70.15835","Snowdepth":"1.500","Units":"in","Rept_Date":"2019-11-19 12"},"coordinates":[8401,2609]},{"type":"Point","properties":{"Station_ID":"NY-WN-18","Station_Nam":"MACEDON 2.6 ESE, NY","Latitude":"43.05200","Longitude":"-77.25700","Snowdepth":"1.200","Units":"in","Rept_Date":"2019-11-19 12"},"coordinates":[5963,1362]},{"type":"Point","properties":{"Station_ID":"NY-GR-14","Station_Nam":"LEXINGTON 1.5 N, NY","Latitude":"42.26024","Longitude":"-74.35875","Snowdepth":"1.200","Units":"in","Rept_Date":"2019-11-19 12"},"coordinates":[6958,573]},{"type":"Point","properties":{"Station_ID":"CAN-NB-1","Station_Nam":"FREDERICTON 4.0 SSE, CA","Latitude":"45.92897","Longitude":"-66.62830","Snowdepth":"1.200","Units":"in","Rept_Date":"2019-11-19 11"},"coordinates":[9614,4226]},{"type":"Point","properties":{"Station_ID":"YGTN6","Station_Nam":"YOUNGSTOWN 2NE","Latitude":"43.26820","Longitude":"-79.01020","Snowdepth":"1.000","Units":"in","Rept_Date":"2019-11-19 12"},"coordinates":[5361,1577]},{"type":"Point","properties":{"Station_ID":"WYTM4","Station_Nam":"WYANDOTTE","Latitude":"42.20110","Longitude":"-83.16830","Snowdepth":"1.000","Units":"in","Rept_Date":"2019-11-19 13"},"coordinates":[3932,514]},{"type":"Point","properties":{"Station_ID":"WTHN6","Station_Nam":"WHITEHALL LOCK C12","Latitude":"43.55000","Longitude":"-73.40000","Snowdepth":"1.000","Units":"in","Rept_Date":"2019-11-19 13"},"coordinates":[7288,1857]},{"type":"Point","properties":{"Station_ID":"WI-VR-6","Station_Nam":"STODDARD 0.1 SW, WI","Latitude":"43.66050","Longitude":"-91.21930","Snowdepth":"1.000","Units":"in","Rept_Date":"2019-11-19 13"},"coordinates":[1167,1967]},{"type":"Point","properties":{"Station_ID":"WI-RK-12","Station_Nam":"JANESVILLE 3.1 W, WI","Latitude":"42.67576","Longitude":"-89.07614","Snowdepth":"1.000","Units":"in","Rept_Date":"2019-11-19 13"},"coordinates":[1903,987]},{"type":"Point","properties":{"Station_ID":"WI-PR-8","Station_Nam":"PHILLIPS 0.4 SSW, WI","Latitude":"45.69086","Longitude":"-90.40200","Snowdepth":"1.000","Units":"in","Rept_Date":"2019-11-19 13"},"coordinates":[1448,3989]},{"type":"Point","properties":{"Station_ID":"WI-PR-6","Station_Nam":"PHILLIPS 1.3 S, WI","Latitude":"45.67677","Longitude":"-90.39543","Snowdepth":"1.000","Units":"in","Rept_Date":"2019-11-19 12"},"coordinates":[1450,3975]},{"type":"Point","properties":{"Station_ID":"WI-ON-6","Station_Nam":"RHINELANDER 5.2 N, WI","Latitude":"45.71388","Longitude":"-89.42150","Snowdepth":"1.000","Units":"in","Rept_Date":"2019-11-19 14"},"coordinates":[1785,4012]},{"type":"Point","properties":{"Station_ID":"WI-GN-5","Station_Nam":"MONTICELLO 2.2 SE, WI","Latitude":"42.71990","Longitude":"-89.56360","Snowdepth":"1.000","Units":"in","Rept_Date":"2019-11-19 13"},"coordinates":[1736,1031]},{"type":"Point","properties":{"Station_ID":"WI-DG-20","Station_Nam":"SOLON SPRINGS 1.2 W, WI","Latitude":"46.35217","Longitude":"-91.84405","Snowdepth":"1.000","Units":"in","Rept_Date":"2019-11-19 13"},"coordinates":[952,4647]},{"type":"Point","properties":{"Station_ID":"WI-BY-2","Station_Nam":"MELLEN 18.6 SW, WI","Latitude":"46.16937","Longitude":"-90.98090","Snowdepth":"1.000","Units":"in","Rept_Date":"2019-11-19 13"},"coordinates":[1249,4465]},{"type":"Point","properties":{"Station_ID":"WI-BN-6","Station_Nam":"SUAMICO 4.4 WNW, WI","Latitude":"44.66111","Longitude":"-88.11780","Snowdepth":"1.000","Units":"in","Rept_Date":"2019-11-19 13"},"coordinates":[2232,2964]},{"type":"Point","properties":{"Station_ID":"WBSN6","Station_Nam":"WEBSTER 2 NE","Latitude":"43.24190","Longitude":"-77.38810","Snowdepth":"1.000","Units":"in","Rept_Date":"2019-11-20 01"},"coordinates":[5918,1551]},{"type":"Point","properties":{"Station_ID":"VQAW3","Station_Nam":"VIROQUA","Latitude":"43.55970","Longitude":"-90.87560","Snowdepth":"1.000","Units":"in","Rept_Date":"2019-11-19 13"},"coordinates":[1285,1867]},{"type":"Point","properties":{"Station_ID":"VICW3","Station_Nam":"DE SOTO 1SE","Latitude":"43.41620","Longitude":"-91.19400","Snowdepth":"1.000","Units":"in","Rept_Date":"2019-11-19 12"},"coordinates":[1176,1724]},{"type":"Point","properties":{"Station_ID":"VANM4","Station_Nam":"VANDERBILT 11ENE","Latitude":"45.17020","Longitude":"-84.43970","Snowdepth":"1.000","Units":"in","Rept_Date":"2019-11-19 13"},"coordinates":[3496,3471]},{"type":"Point","properties":{"Station_ID":"TURM1","Station_Nam":"TURNER","Latitude":"44.28220","Longitude":"-70.25610","Snowdepth":"1.000","Units":"in","Rept_Date":"2019-11-19 12"},"coordinates":[8368,2586]},{"type":"Point","properties":{"Station_ID":"TRYN6","Station_Nam":"TROY","Latitude":"42.75080","Longitude":"-73.68550","Snowdepth":"1.000","Units":"in","Rept_Date":"2019-11-19 14"},"coordinates":[7190,1062]},{"type":"Point","properties":{"Station_ID":"TOPM1","Station_Nam":"TOPSFIELD","Latitude":"45.43470","Longitude":"-67.72020","Snowdepth":"1.000","Units":"in","Rept_Date":"2019-11-19 12"},"coordinates":[9239,3734]},{"type":"Point","properties":{"Station_ID":"STDW3","Station_Nam":"STODDARD","Latitude":"43.66020","Longitude":"-91.21930","Snowdepth":"1.000","Units":"in","Rept_Date":"2019-11-19 13"},"coordinates":[1167,1967]},{"type":"Point","properties":{"Station_ID":"SGVN6","Station_Nam":"SPRINGVILLE","Latitude":"42.54970","Longitude":"-78.57670","Snowdepth":"1.000","Units":"in","Rept_Date":"2019-11-20 00"},"coordinates":[5510,861]},{"type":"Point","properties":{"Station_ID":"SCOM4","Station_Nam":"SCOTTVILLE 2 SE","Latitude":"43.93310","Longitude":"-86.24530","Snowdepth":"1.000","Units":"in","Rept_Date":"2019-11-19 12"},"coordinates":[2876,2239]},{"type":"Point","properties":{"Station_ID":"ROWM3","Station_Nam":"ROWE 3NE","Latitude":"42.73500","Longitude":"-72.86920","Snowdepth":"1.000","Units":"in","Rept_Date":"2019-11-19 12"},"coordinates":[7470,1046]},{"type":"Point","properties":{"Station_ID":"ROC","Station_Nam":"GREATER ROCHESTER INTL","Latitude":"43.11890","Longitude":"-77.67280","Snowdepth":"1.000","Units":"in","Rept_Date":"2019-11-20 06"},"coordinates":[5820,1428]},{"type":"Point","properties":{"Station_ID":"PVLN6","Station_Nam":"PAVILION 2","Latitude":"42.87340","Longitude":"-77.99260","Snowdepth":"1.000","Units":"in","Rept_Date":"2019-11-19 12"},"coordinates":[5710,1184]},{"type":"Point","properties":{"Station_ID":"POAM4","Station_Nam":"PORT AUSTIN WWTP","Latitude":"44.04670","Longitude":"-82.97030","Snowdepth":"1.000","Units":"in","Rept_Date":"2019-11-19 13"},"coordinates":[4000,2352]},{"type":"Point","properties":{"Station_ID":"PELW3","Station_Nam":"PELLA 3SE","Latitude":"44.73580","Longitude":"-88.73780","Snowdepth":"1.000","Units":"in","Rept_Date":"2019-11-19 11"},"coordinates":[2019,3038]},{"type":"Point","properties":{"Station_ID":"OCON6","Station_Nam":"OSCEOLA","Latitude":"43.49910","Longitude":"-75.71210","Snowdepth":"1.000","Units":"in","Rept_Date":"2019-11-19 12"},"coordinates":[6494,1807]},{"type":"Point","properties":{"Station_ID":"NY-RN-1","Station_Nam":"AVERILL PARK 0.9 WNW, NY","Latitude":"42.63910","Longitude":"-73.56980","Snowdepth":"1.000","Units":"in","Rept_Date":"2019-11-19 13"},"coordinates":[7229,950]},{"type":"Point","properties":{"Station_ID":"NY-OD-2","Station_Nam":"POINT ROCK 0.6 SE, NY","Latitude":"43.37335","Longitude":"-75.53840","Snowdepth":"1.000","Units":"in","Rept_Date":"2019-11-19 13"},"coordinates":[6553,1681]},{"type":"Point","properties":{"Station_ID":"NY-HR-16","Station_Nam":"ILION 0.7 WSW, NY","Latitude":"43.00880","Longitude":"-75.05390","Snowdepth":"1.000","Units":"in","Rept_Date":"2019-11-19 12"},"coordinates":[6720,1318]},{"type":"Point","properties":{"Station_ID":"NY-ER-102","Station_Nam":"CHEEKTOWAGA 2.7 NE, NY","Latitude":"42.94119","Longitude":"-78.71933","Snowdepth":"1.000","Units":"in","Rept_Date":"2019-11-19 12"},"coordinates":[5461,1251]},{"type":"Point","properties":{"Station_ID":"NY-CQ-39","Station_Nam":"GERRY 0.8 N, NY","Latitude":"42.20500","Longitude":"-79.24700","Snowdepth":"1.000","Units":"in","Rept_Date":"2019-11-19 13"},"coordinates":[5279,518]},{"type":"Point","properties":{"Station_ID":"NY-CQ-34","Station_Nam":"KENNEDY 2.6 SE, NY","Latitude":"42.12567","Longitude":"-79.07235","Snowdepth":"1.000","Units":"in","Rept_Date":"2019-11-19 13"},"coordinates":[5339,439]},{"type":"Point","properties":{"Station_ID":"NY-CQ-22","Station_Nam":"FREDONIA 0.8 WNW, NY","Latitude":"42.44414","Longitude":"-79.34610","Snowdepth":"1.000","Units":"in","Rept_Date":"2019-11-19 10"},"coordinates":[5245,756]},{"type":"Point","properties":{"Station_ID":"NY-AB-46","Station_Nam":"RAVENA 1.4 NNW, NY","Latitude":"42.49571","Longitude":"-73.82175","Snowdepth":"1.000","Units":"in","Rept_Date":"2019-11-19 14"},"coordinates":[7143,808]},{"type":"Point","properties":{"Station_ID":"NY-AB-23","Station_Nam":"ALBANY 0.7 SW, NY","Latitude":"42.66019","Longitude":"-73.81030","Snowdepth":"1.000","Units":"in","Rept_Date":"2019-11-19 12"},"coordinates":[7147,971]},{"type":"Point","properties":{"Station_ID":"NTON6","Station_Nam":"NORTH TONAWANDA","Latitude":"43.05730","Longitude":"-78.86170","Snowdepth":"1.000","Units":"in","Rept_Date":"2019-11-19 12"},"coordinates":[5412,1367]},{"type":"Point","properties":{"Station_ID":"NSNM1","Station_Nam":"NEW SHARON","Latitude":"44.63330","Longitude":"-70.00000","Snowdepth":"1.000","Units":"in","Rept_Date":"2019-11-19 11"},"coordinates":[8456,2936]},{"type":"Point","properties":{"Station_ID":"NH-GR-49","Station_Nam":"PLYMOUTH 3.7 N, NH","Latitude":"43.79048","Longitude":"-71.68413","Snowdepth":"1.000","Units":"in","Rept_Date":"2019-11-19 12"},"coordinates":[7877,2097]},{"type":"Point","properties":{"Station_ID":"NH-CR-11","Station_Nam":"NORTH CONWAY 1.4 SSW, NH","Latitude":"44.03556","Longitude":"-71.14010","Snowdepth":"1.000","Units":"in","Rept_Date":"2019-11-19 12"},"coordinates":[8064,2341]},{"type":"Point","properties":{"Station_ID":"NBLN6","Station_Nam":"LANSING MANOR","Latitude":"42.44860","Longitude":"-74.46530","Snowdepth":"1.000","Units":"in","Rept_Date":"2019-11-19 13"},"coordinates":[6922,761]},{"type":"Point","properties":{"Station_ID":"NAZW3","Station_Nam":"ST. NAZIANZ-2 W","Latitude":"44.00420","Longitude":"-87.96360","Snowdepth":"1.000","Units":"in","Rept_Date":"2019-11-19 13"},"coordinates":[2285,2310]},{"type":"Point","properties":{"Station_ID":"NALN6","Station_Nam":"CATTARAUGUS","Latitude":"42.32450","Longitude":"-78.86700","Snowdepth":"1.000","Units":"in","Rept_Date":"2019-11-19 13"},"coordinates":[5410,637]},{"type":"Point","properties":{"Station_ID":"MWTM1","Station_Nam":"MILLINOCKET WWTP","Latitude":"45.64030","Longitude":"-68.67480","Snowdepth":"1.000","Units":"in","Rept_Date":"2019-11-19 11"},"coordinates":[8911,3939]},{"type":"Point","properties":{"Station_ID":"MQT","Station_Nam":"MARQUETTE, MI","Latitude":"46.53140","Longitude":"-87.54920","Snowdepth":"1.000","Units":"in","Rept_Date":"2019-11-20 06"},"coordinates":[2428,4826]},{"type":"Point","properties":{"Station_ID":"MQRW3","Station_Nam":"MINOCQUA","Latitude":"45.88630","Longitude":"-89.73220","Snowdepth":"1.000","Units":"in","Rept_Date":"2019-11-19 12"},"coordinates":[1678,4184]},{"type":"Point","properties":{"Station_ID":"MN0HS1SL","Station_Nam":"NORTH SAINT PAUL 1.6 NW","Latitude":"45.02800","Longitude":"-93.01506","Snowdepth":"1.000","Units":"in","Rept_Date":"2019-11-19 13"},"coordinates":[550,3329]},{"type":"Point","properties":{"Station_ID":"MN0GWSNW","Station_Nam":"LAKE ELMO 2.9 SE","Latitude":"44.97220","Longitude":"-92.83065","Snowdepth":"1.000","Units":"in","Rept_Date":"2019-11-19 13"},"coordinates":[613,3273]},{"type":"Point","properties":{"Station_ID":"MN-WG-16","Station_Nam":"WOODBURY 1.7 N, MN","Latitude":"44.93054","Longitude":"-92.92490","Snowdepth":"1.000","Units":"in","Rept_Date":"2019-11-19 13"},"coordinates":[581,3232]},{"type":"Point","properties":{"Station_ID":"MN-SH-985","Station_Nam":"PRINCETON 3.3 WSW, MN","Latitude":"45.55211","Longitude":"-93.64481","Snowdepth":"1.000","Units":"in","Rept_Date":"2019-11-19 10"},"coordinates":[334,3851]},{"type":"Point","properties":{"Station_ID":"MN-ML-1","Station_Nam":"ONAMIA 4.3 NW, MN","Latitude":"46.10883","Longitude":"-93.73890","Snowdepth":"1.000","Units":"in","Rept_Date":"2019-11-19 14"},"coordinates":[302,4405]},{"type":"Point","properties":{"Station_ID":"MLCM5","Station_Nam":"MILACA","Latitude":"45.75320","Longitude":"-93.66170","Snowdepth":"1.000","Units":"in","Rept_Date":"2019-11-19 13"},"coordinates":[328,4051]},{"type":"Point","properties":{"Station_ID":"MI-WY-33","Station_Nam":"LIVONIA 2.3 NNW, MI","Latitude":"42.43100","Longitude":"-83.38190","Snowdepth":"1.000","Units":"in","Rept_Date":"2019-11-19 12"},"coordinates":[3859,743]},{"type":"Point","properties":{"Station_ID":"MI-WY-125","Station_Nam":"CANTON 2.7 N, MI","Latitude":"42.34732","Longitude":"-83.47286","Snowdepth":"1.000","Units":"in","Rept_Date":"2019-11-19 12"},"coordinates":[3828,660]},{"type":"Point","properties":{"Station_ID":"MI-WS-25","Station_Nam":"SALINE 3.8 SSW, MI","Latitude":"42.12618","Longitude":"-83.81090","Snowdepth":"1.000","Units":"in","Rept_Date":"2019-11-19 12"},"coordinates":[3712,440]},{"type":"Point","properties":{"Station_ID":"MI-WS-11","Station_Nam":"ANN ARBOR 2.1 WNW, MI","Latitude":"42.28323","Longitude":"-83.77150","Snowdepth":"1.000","Units":"in","Rept_Date":"2019-11-19 12"},"coordinates":[3725,596]},{"type":"Point","properties":{"Station_ID":"MI-SC-3","Station_Nam":"PORT HURON 1.6 W, MI","Latitude":"42.99617","Longitude":"-82.46430","Snowdepth":"1.000","Units":"in","Rept_Date":"2019-11-19 13"},"coordinates":[4174,1306]},{"type":"Point","properties":{"Station_ID":"MI-OK-94","Station_Nam":"FARMINGTON HILLS 1.4 N, MI","Latitude":"42.50660","Longitude":"-83.37910","Snowdepth":"1.000","Units":"in","Rept_Date":"2019-11-19 12"},"coordinates":[3860,818]},{"type":"Point","properties":{"Station_ID":"MI-OK-112","Station_Nam":"TROY 2.8 W, MI","Latitude":"42.57358","Longitude":"-83.19643","Snowdepth":"1.000","Units":"in","Rept_Date":"2019-11-19 12"},"coordinates":[3923,885]},{"type":"Point","properties":{"Station_ID":"MI-OC-3","Station_Nam":"HART 3 WSW, MI","Latitude":"43.67470","Longitude":"-86.42250","Snowdepth":"1.000","Units":"in","Rept_Date":"2019-11-19 12"},"coordinates":[2815,1982]},{"type":"Point","properties":{"Station_ID":"MI-MQ-2","Station_Nam":"MARQUETTE 6.5 SSE, MI","Latitude":"46.46461","Longitude":"-87.34064","Snowdepth":"1.000","Units":"in","Rept_Date":"2019-11-19 12"},"coordinates":[2499,4759]},{"type":"Point","properties":{"Station_ID":"MI-MQ-19","Station_Nam":"ISHPEMING 7.2 SW, MI","Latitude":"46.40550","Longitude":"-87.75670","Snowdepth":"1.000","Units":"in","Rept_Date":"2019-11-19 11"},"coordinates":[2356,4701]},{"type":"Point","properties":{"Station_ID":"MI-LN-16","Station_Nam":"CLINTON 0.5 NE, MI","Latitude":"42.07710","Longitude":"-83.96530","Snowdepth":"1.000","Units":"in","Rept_Date":"2019-11-19 12"},"coordinates":[3659,391]},{"type":"Point","properties":{"Station_ID":"MI-IC-6","Station_Nam":"NATIONAL CITY 4.5 NNE, MI","Latitude":"44.29330","Longitude":"-83.68410","Snowdepth":"1.000","Units":"in","Rept_Date":"2019-11-19 14"},"coordinates":[3755,2597]},{"type":"Point","properties":{"Station_ID":"MI-HR-10","Station_Nam":"BAY PORT 3.2 SSW, MI","Latitude":"43.80746","Longitude":"-83.40013","Snowdepth":"1.000","Units":"in","Rept_Date":"2019-11-19 13"},"coordinates":[3853,2114]},{"type":"Point","properties":{"Station_ID":"MI-CT-2","Station_Nam":"HASLETT 1.2 N, MI","Latitude":"42.76997","Longitude":"-84.40310","Snowdepth":"1.000","Units":"in","Rept_Date":"2019-11-19 12"},"coordinates":[3508,1081]},{"type":"Point","properties":{"Station_ID":"ME-PN-48","Station_Nam":"LOWELL 0.1 SW, ME","Latitude":"45.21149","Longitude":"-68.47496","Snowdepth":"1.000","Units":"in","Rept_Date":"2019-11-19 14"},"coordinates":[8979,3512]},{"type":"Point","properties":{"Station_ID":"ME-OX-30","Station_Nam":"BETHEL 0.8 SE, ME","Latitude":"44.39723","Longitude":"-70.77801","Snowdepth":"1.000","Units":"in","Rept_Date":"2019-11-19 12"},"coordinates":[8188,2701]},{"type":"Point","properties":{"Station_ID":"ME-FR-22","Station_Nam":"FARMINGTON 4.8 NNW, ME","Latitude":"44.73396","Longitude":"-70.18007","Snowdepth":"1.000","Units":"in","Rept_Date":"2019-11-19 14"},"coordinates":[8394,3036]},{"type":"Point","properties":{"Station_ID":"MDLM4","Station_Nam":"MIDLAND,MI","Latitude":"43.61670","Longitude":"-84.21670","Snowdepth":"1.000","Units":"in","Rept_Date":"2019-11-19 12"},"coordinates":[3572,1924]},{"type":"Point","properties":{"Station_ID":"MBS","Station_Nam":"MBS INTERNATIONAL AIRPORT","Latitude":"43.53310","Longitude":"-84.07970","Snowdepth":"1.000","Units":"in","Rept_Date":"2019-11-19 12"},"coordinates":[3619,1841]},{"type":"Point","properties":{"Station_ID":"MABM5","Station_Nam":"MABEL","Latitude":"43.52410","Longitude":"-91.76160","Snowdepth":"1.000","Units":"in","Rept_Date":"2019-11-19 12"},"coordinates":[981,1832]},{"type":"Point","properties":{"Station_ID":"MA-BE-19","Station_Nam":"ALFORD 1.9 SW, MA","Latitude":"42.21636","Longitude":"-73.44537","Snowdepth":"1.000","Units":"in","Rept_Date":"2019-11-19 13"},"coordinates":[7272,529]},{"type":"Point","properties":{"Station_ID":"LVRM1","Station_Nam":"LIVERMORE FALLS 1 E","Latitude":"44.47160","Longitude":"-70.15940","Snowdepth":"1.000","Units":"in","Rept_Date":"2019-11-19 12"},"coordinates":[8401,2775]},{"type":"Point","properties":{"Station_ID":"LUPM4","Station_Nam":"LUPTON 1S","Latitude":"44.41990","Longitude":"-84.02320","Snowdepth":"1.000","Units":"in","Rept_Date":"2019-11-19 13"},"coordinates":[3639,2724]},{"type":"Point","properties":{"Station_ID":"LTVN6","Station_Nam":"LITTLE VALLEY","Latitude":"42.24730","Longitude":"-78.81250","Snowdepth":"1.000","Units":"in","Rept_Date":"2019-11-19 12"},"coordinates":[5429,560]},{"type":"Point","properties":{"Station_ID":"LPTN6","Station_Nam":"LOCKPORT","Latitude":"43.18760","Longitude":"-78.60910","Snowdepth":"1.000","Units":"in","Rept_Date":"2019-11-20 00"},"coordinates":[5498,1497]},{"type":"Point","properties":{"Station_ID":"LPEM4","Station_Nam":"LAPEER,MI","Latitude":"43.06280","Longitude":"-83.33330","Snowdepth":"1.000","Units":"in","Rept_Date":"2019-11-19 14"},"coordinates":[3876,1372]},{"type":"Point","properties":{"Station_ID":"LEWM4","Station_Nam":"LEWISTON 3W","Latitude":"44.88210","Longitude":"-84.36540","Snowdepth":"1.000","Units":"in","Rept_Date":"2019-11-19 12"},"coordinates":[3521,3184]},{"type":"Point","properties":{"Station_ID":"LANW3","Station_Nam":"LANCASTER 4WSW","Latitude":"42.82780","Longitude":"-90.78890","Snowdepth":"1.000","Units":"in","Rept_Date":"2019-11-19 14"},"coordinates":[1315,1138]},{"type":"Point","properties":{"Station_ID":"LAFW3","Station_Nam":"LA FARGE","Latitude":"43.57340","Longitude":"-90.63200","Snowdepth":"1.000","Units":"in","Rept_Date":"2019-11-19 13"},"coordinates":[1369,1881]},{"type":"Point","properties":{"Station_ID":"LADW3","Station_Nam":"LADYSMITH WTP","Latitude":"45.44290","Longitude":"-91.08970","Snowdepth":"1.000","Units":"in","Rept_Date":"2019-11-19 13"},"coordinates":[1212,3742]},{"type":"Point","properties":{"Station_ID":"KINM1","Station_Nam":"KINGFIELD","Latitude":"44.95950","Longitude":"-70.17530","Snowdepth":"1.000","Units":"in","Rept_Date":"2019-11-19 14"},"coordinates":[8395,3261]},{"type":"Point","properties":{"Station_ID":"KBUF","Station_Nam":"GREATER BUFFALO INTERNATIONAL  AIRPORT","Latitude":"42.93333","Longitude":"-78.73333","Snowdepth":"1.000","Units":"in","Rept_Date":"2019-11-19 18"},"coordinates":[5456,1243]},{"type":"Point","properties":{"Station_ID":"KALB","Station_Nam":"ALBANY INTERNATIONAL AIRPORT","Latitude":"42.75000","Longitude":"-73.80000","Snowdepth":"1.000","Units":"in","Rept_Date":"2019-11-20 06"},"coordinates":[7150,1061]},{"type":"Point","properties":{"Station_ID":"JWTN6","Station_Nam":"EAST JEWETT","Latitude":"42.23430","Longitude":"-74.14430","Snowdepth":"1.000","Units":"in","Rept_Date":"2019-11-19 12"},"coordinates":[7032,547]},{"type":"Point","properties":{"Station_ID":"JCBM4","Station_Nam":"JACOBSVILLE","Latitude":"47.00830","Longitude":"-88.43180","Snowdepth":"1.000","Units":"in","Rept_Date":"2019-11-19 12"},"coordinates":[2124,5301]},{"type":"Point","properties":{"Station_ID":"INDM5","Station_Nam":"INDUS,MN","Latitude":"48.61670","Longitude":"-93.90000","Snowdepth":"1.000","Units":"in","Rept_Date":"2019-11-19 14"},"coordinates":[246,6902]},{"type":"Point","properties":{"Station_ID":"ILIM5","Station_Nam":"ISLAND LAKE","Latitude":"47.02400","Longitude":"-92.07000","Snowdepth":"1.000","Units":"in","Rept_Date":"2019-11-19 15"},"coordinates":[875,5316]},{"type":"Point","properties":{"Station_ID":"IL-SP-7","Station_Nam":"DAVIS 0.5 N, IL","Latitude":"42.42919","Longitude":"-89.41730","Snowdepth":"1.000","Units":"in","Rept_Date":"2019-11-19 13"},"coordinates":[1786,741]},{"type":"Point","properties":{"Station_ID":"HUBN3","Station_Nam":"HUBBARD BROOK","Latitude":"43.93330","Longitude":"-71.71670","Snowdepth":"1.000","Units":"in","Rept_Date":"2019-11-19 17"},"coordinates":[7866,2239]},{"type":"Point","properties":{"Station_ID":"HRTM4","Station_Nam":"HART,MI","Latitude":"43.70000","Longitude":"-86.36670","Snowdepth":"1.000","Units":"in","Rept_Date":"2019-11-19 12"},"coordinates":[2834,2007]},{"type":"Point","properties":{"Station_ID":"HRTM1","Station_Nam":"HARTFORD","Latitude":"44.37440","Longitude":"-70.31620","Snowdepth":"1.000","Units":"in","Rept_Date":"2019-11-19 12"},"coordinates":[8347,2678]},{"type":"Point","properties":{"Station_ID":"HMYM1","Station_Nam":"HARMONY","Latitude":"44.94660","Longitude":"-69.54560","Snowdepth":"1.000","Units":"in","Rept_Date":"2019-11-19 11"},"coordinates":[8612,3248]},{"type":"Point","properties":{"Station_ID":"HALM4","Station_Nam":"LOUD DAM","Latitude":"44.46250","Longitude":"-83.72190","Snowdepth":"1.000","Units":"in","Rept_Date":"2019-11-19 14"},"coordinates":[3742,2766]},{"type":"Point","properties":{"Station_ID":"GLNM4","Station_Nam":"GLENNIE 2SE","Latitude":"44.53580","Longitude":"-83.70220","Snowdepth":"1.000","Units":"in","Rept_Date":"2019-11-19 12"},"coordinates":[3749,2839]},{"type":"Point","properties":{"Station_ID":"FORM5","Station_Nam":"FOREST LAKE 5NE","Latitude":"45.33970","Longitude":"-92.91250","Snowdepth":"1.000","Units":"in","Rept_Date":"2019-11-19 13"},"coordinates":[585,3639]},{"type":"Point","properties":{"Station_ID":"FNT","Station_Nam":"FLINT BISHOP INTL AIRPORT","Latitude":"42.96560","Longitude":"-83.74360","Snowdepth":"1.000","Units":"in","Rept_Date":"2019-11-20 06"},"coordinates":[3735,1275]},{"type":"Point","properties":{"Station_ID":"FARM1","Station_Nam":"FARMINGTON","Latitude":"44.68930","Longitude":"-70.15640","Snowdepth":"1.000","Units":"in","Rept_Date":"2019-11-19 12"},"coordinates":[8402,2992]},{"type":"Point","properties":{"Station_ID":"ENGM4","Station_Nam":"ENGADINE MDOT","Latitude":"46.12800","Longitude":"-85.56960","Snowdepth":"1.000","Units":"in","Rept_Date":"2019-11-19 12"},"coordinates":[3108,4424]},{"type":"Point","properties":{"Station_ID":"ELYM5","Station_Nam":"ELY","Latitude":"47.90560","Longitude":"-91.82830","Snowdepth":"1.000","Units":"in","Rept_Date":"2019-11-19 14"},"coordinates":[958,6194]},{"type":"Point","properties":{"Station_ID":"EHYM3","Station_Nam":"EAST HAWLEY","Latitude":"42.57410","Longitude":"-72.86790","Snowdepth":"1.000","Units":"in","Rept_Date":"2019-11-19 12"},"coordinates":[7471,886]},{"type":"Point","properties":{"Station_ID":"DRNM4","Station_Nam":"DURAND WWTP","Latitude":"42.92690","Longitude":"-83.98940","Snowdepth":"1.000","Units":"in","Rept_Date":"2019-11-19 13"},"coordinates":[3650,1237]},{"type":"Point","properties":{"Station_ID":"DLHM5","Station_Nam":"DULUTH NWS","Latitude":"46.83680","Longitude":"-92.21080","Snowdepth":"1.000","Units":"in","Rept_Date":"2019-11-20 06"},"coordinates":[826,5130]},{"type":"Point","properties":{"Station_ID":"DLH","Station_Nam":"DULUTH, MN","Latitude":"46.83690","Longitude":"-92.21030","Snowdepth":"1.000","Units":"in","Rept_Date":"2019-11-20 00"},"coordinates":[827,5130]},{"type":"Point","properties":{"Station_ID":"DHMM1","Station_Nam":"DEDHAM","Latitude":"44.67880","Longitude":"-68.63560","Snowdepth":"1.000","Units":"in","Rept_Date":"2019-11-19 12"},"coordinates":[8924,2981]},{"type":"Point","properties":{"Station_ID":"COBN6","Station_Nam":"COBLESKILL 2ESE","Latitude":"42.66710","Longitude":"-74.44230","Snowdepth":"1.000","Units":"in","Rept_Date":"2019-11-19 12"},"coordinates":[6930,978]},{"type":"Point","properties":{"Station_ID":"CMKW3","Station_Nam":"CLAM LAKE 4W","Latitude":"46.16940","Longitude":"-90.98080","Snowdepth":"1.000","Units":"in","Rept_Date":"2019-11-19 13"},"coordinates":[1249,4465]},{"type":"Point","properties":{"Station_ID":"CLQM5","Station_Nam":"CLOQUET","Latitude":"46.70470","Longitude":"-92.52530","Snowdepth":"1.000","Units":"in","Rept_Date":"2019-11-19 14"},"coordinates":[718,4998]},{"type":"Point","properties":{"Station_ID":"CGPM4","Station_Nam":"DOLLAR BAY","Latitude":"47.11670","Longitude":"-88.51370","Snowdepth":"1.000","Units":"in","Rept_Date":"2019-11-19 13"},"coordinates":[2096,5409]},{"type":"Point","properties":{"Station_ID":"CBCW3","Station_Nam":"CUBA CITY","Latitude":"42.60010","Longitude":"-90.42370","Snowdepth":"1.000","Units":"in","Rept_Date":"2019-11-19 14"},"coordinates":[1440,912]},{"type":"Point","properties":{"Station_ID":"BSKN6","Station_Nam":"BUSKIRK","Latitude":"42.93610","Longitude":"-73.43250","Snowdepth":"1.000","Units":"in","Rept_Date":"2019-11-19 12"},"coordinates":[7277,1246]},{"type":"Point","properties":{"Station_ID":"BRMM5","Station_Nam":"BRIMSON 2S","Latitude":"47.24720","Longitude":"-91.86240","Snowdepth":"1.000","Units":"in","Rept_Date":"2019-11-20 01"},"coordinates":[946,5539]},{"type":"Point","properties":{"Station_ID":"BEUM4","Station_Nam":"BEULAH 7SSW","Latitude":"44.53160","Longitude":"-86.13110","Snowdepth":"1.000","Units":"in","Rept_Date":"2019-11-19 13"},"coordinates":[2915,2835]},{"type":"Point","properties":{"Station_ID":"BETM1","Station_Nam":"BETHEL 6 SSE","Latitude":"44.32000","Longitude":"-70.75680","Snowdepth":"1.000","Units":"in","Rept_Date":"2019-11-19 13"},"coordinates":[8196,2624]},{"type":"Point","properties":{"Station_ID":"BDAM4","Station_Nam":"BAD AXE,MI","Latitude":"43.81670","Longitude":"-83.00000","Snowdepth":"1.000","Units":"in","Rept_Date":"2019-11-19 12"},"coordinates":[3990,2123]},{"type":"Point","properties":{"Station_ID":"BAUM5","Station_Nam":"BAUDETTE,MN","Latitude":"48.71670","Longitude":"-94.61670","Snowdepth":"1.000","Units":"in","Rept_Date":"2019-11-19 21"},"coordinates":[0,7002]},{"type":"Point","properties":{"Station_ID":"BABM5","Station_Nam":"BABBITT","Latitude":"47.71210","Longitude":"-91.95330","Snowdepth":"1.000","Units":"in","Rept_Date":"2019-11-19 13"},"coordinates":[915,6002]},{"type":"Point","properties":{"Station_ID":"AUBM4","Station_Nam":"AUBURN 2NE","Latitude":"43.62530","Longitude":"-84.01890","Snowdepth":"1.000","Units":"in","Rept_Date":"2019-11-19 11"},"coordinates":[3640,1932]},{"type":"Point","properties":{"Station_ID":"ARBM4","Station_Nam":"UNIV OF MICH","Latitude":"42.30000","Longitude":"-83.71670","Snowdepth":"1.000","Units":"in","Rept_Date":"2019-11-19 23"},"coordinates":[3744,613]},{"type":"Point","properties":{"Station_ID":"APXM4","Station_Nam":"GAYLORD 9SSW","Latitude":"44.90720","Longitude":"-84.71880","Snowdepth":"1.000","Units":"in","Rept_Date":"2019-11-20 06"},"coordinates":[3400,3209]},{"type":"Point","properties":{"Station_ID":"APN","Station_Nam":"PHELPS COLLINS FIELD","Latitude":"45.07810","Longitude":"-83.56030","Snowdepth":"1.000","Units":"in","Rept_Date":"2019-11-20 00"},"coordinates":[3798,3379]},{"type":"Point","properties":{"Station_ID":"ALPM4","Station_Nam":"SNOW PAID OBSERVER FOR KAPN","Latitude":"45.03110","Longitude":"-83.55970","Snowdepth":"1.000","Units":"in","Rept_Date":"2019-11-19 12"},"coordinates":[3798,3332]},{"type":"Point","properties":{"Station_ID":"ALB","Station_Nam":"ALBANY INTL AP","Latitude":"42.74810","Longitude":"-73.80330","Snowdepth":"1.000","Units":"in","Rept_Date":"2019-11-20 00"},"coordinates":[7149,1059]},{"type":"Point","properties":{"Station_ID":"AGNW3","Station_Nam":"ARGONNE-1.5 NW","Latitude":"45.67360","Longitude":"-88.90380","Snowdepth":"1.000","Units":"in","Rept_Date":"2019-11-19 13"},"coordinates":[1962,3972]},{"type":"Point","properties":{"Station_ID":"ADEN6","Station_Nam":"WEST ALMOND 1E SNOW","Latitude":"42.30000","Longitude":"-77.86670","Snowdepth":"1.000","Units":"in","Rept_Date":"2019-11-19 13"},"coordinates":[5754,613]},{"type":"Point","properties":{"Station_ID":"ADCN6","Station_Nam":"ALFRED 1NW SNOW","Latitude":"42.26670","Longitude":"-77.80000","Snowdepth":"1.000","Units":"in","Rept_Date":"2019-11-19 13"},"coordinates":[5776,580]},{"type":"Point","properties":{"Station_ID":"ACVN6","Station_Nam":"ALCOVE DAM","Latitude":"42.46970","Longitude":"-73.92670","Snowdepth":"1.000","Units":"in","Rept_Date":"2019-11-19 13"},"coordinates":[7107,782]},{"type":"Point","properties":{"Station_ID":"AASM4","Station_Nam":"ANN ARBOR SE","Latitude":"42.24160","Longitude":"-83.69330","Snowdepth":"1.000","Units":"in","Rept_Date":"2019-11-19 12"},"coordinates":[3752,555]}]}},"arcs":[],"transform":{"scale":[0.0029112711271127105,0.0010043304330433042],"translate":[-94.6167,41.6846]}}