{"type":"Topology","objects":{"snowdepth_geo":{"type":"GeometryCollection","name":"snowdepth","crs":{"type":"name","properties":{"name":"urn:ogc:def:crs:OGC:1.3:CRS84"}},"geometries":[{"type":"Point","properties":{"Station_ID":"PRKM4","Station_Nam":"MUNISING EAST","Latitude":"46.42580","Longitude":"-86.62000","Snowdepth":"76.500","Units":"in","Rept_Date":"2020-12-25 06"},"coordinates":[3107,6710]},{"type":"Point","properties":{"Station_ID":"TRIQ6","Station_Nam":"TRIO LAKE","Latitude":"49.22880","Longitude":"-87.22920","Snowdepth":"45.240","Units":"in","Rept_Date":"2020-12-25 06"},"coordinates":[2928,8449]},{"type":"Point","properties":{"Station_ID":"AUDQ6","Station_Nam":"AUDEN","Latitude":"48.52600","Longitude":"-82.57570","Snowdepth":"28.740","Units":"in","Rept_Date":"2020-12-25 06"},"coordinates":[4290,8013]},{"type":"Point","properties":{"Station_ID":"PTLQ6","Station_Nam":"PORTAGE LAKE","Latitude":"49.06950","Longitude":"-86.65940","Snowdepth":"26.140","Units":"in","Rept_Date":"2020-12-25 06"},"coordinates":[3095,8350]},{"type":"Point","properties":{"Station_ID":"NH-MR-6","Station_Nam":"DANBURY 2.2 ESE, NH","Latitude":"43.52000","Longitude":"-71.81900","Snowdepth":"24.000","Units":"in","Rept_Date":"2020-12-24 13"},"coordinates":[7437,4907]},{"type":"Point","properties":{"Station_ID":"LKPN3","Station_Nam":"LAKEPORT 2","Latitude":"43.54910","Longitude":"-71.46450","Snowdepth":"24.000","Units":"in","Rept_Date":"2020-12-24 14"},"coordinates":[7541,4925]},{"type":"Point","properties":{"Station_ID":"VT-BN-3","Station_Nam":"LANDGROVE 1.1 NNE, VT","Latitude":"43.29092","Longitude":"-72.83260","Snowdepth":"23.000","Units":"in","Rept_Date":"2020-12-24 12"},"coordinates":[7140,4765]},{"type":"Point","properties":{"Station_ID":"DVLQ6","Station_Nam":"DEVIOUS LAKE","Latitude":"49.19890","Longitude":"-87.76440","Snowdepth":"22.830","Units":"in","Rept_Date":"2020-12-25 06"},"coordinates":[2772,8431]},{"type":"Point","properties":{"Station_ID":"NH-MR-41","Station_Nam":"NEWBURY 1.6 NW, NH","Latitude":"43.33667","Longitude":"-72.06060","Snowdepth":"20.300","Units":"in","Rept_Date":"2020-12-24 12"},"coordinates":[7366,4793]},{"type":"Point","properties":{"Station_ID":"QOU","Station_Nam":"QOU","Latitude":"50.79250","Longitude":"-69.67470","Snowdepth":"20.197","Units":"in","Rept_Date":"2020-12-24 12"},"coordinates":[8064,9419]},{"type":"Point","properties":{"Station_ID":"QLB","Station_Nam":"QLB","Latitude":"50.72360","Longitude":"-75.10000","Snowdepth":"18.779","Units":"in","Rept_Date":"2020-12-24 12"},"coordinates":[6477,9377]},{"type":"Point","properties":{"Station_ID":"QTM","Station_Nam":"QTM","Latitude":"51.05780","Longitude":"-72.57190","Snowdepth":"18.189","Units":"in","Rept_Date":"2020-12-24 12"},"coordinates":[7217,9584]},{"type":"Point","properties":{"Station_ID":"SNOW2","Station_Nam":"SNOWSHOE","Latitude":"38.39900","Longitude":"-79.99490","Snowdepth":"18.000","Units":"in","Rept_Date":"2020-12-24 11"},"coordinates":[5045,1730]},{"type":"Point","properties":{"Station_ID":"NY-OT-11","Station_Nam":"HARTWICK, NY","Latitude":"42.65990","Longitude":"-75.05000","Snowdepth":"17.500","Units":"in","Rept_Date":"2020-12-24 14"},"coordinates":[6492,4374]},{"type":"Point","properties":{"Station_ID":"MLZ","Station_Nam":"MLZ","Latitude":"50.66170","Longitude":"-68.82360","Snowdepth":"17.402","Units":"in","Rept_Date":"2020-12-24 12"},"coordinates":[8313,9338]},{"type":"Point","properties":{"Station_ID":"PERV1","Station_Nam":"PERU","Latitude":"43.26670","Longitude":"-72.90000","Snowdepth":"17.000","Units":"in","Rept_Date":"2020-12-24 12"},"coordinates":[7121,4750]},{"type":"Point","properties":{"Station_ID":"NY-WS-8","Station_Nam":"GRANVILLE 9.5 SW, NY","Latitude":"43.31163","Longitude":"-73.39613","Snowdepth":"17.000","Units":"in","Rept_Date":"2020-12-24 13"},"coordinates":[6975,4778]},{"type":"Point","properties":{"Station_ID":"NY-TG-15","Station_Nam":"BERKSHIRE 1.9 ENE, NY","Latitude":"42.31910","Longitude":"-76.21940","Snowdepth":"17.000","Units":"in","Rept_Date":"2020-12-24 13"},"coordinates":[6149,4162]},{"type":"Point","properties":{"Station_ID":"NY-SR-4","Station_Nam":"SARATOGA SPRINGS 0.5 S, NY","Latitude":"43.06032","Longitude":"-73.78010","Snowdepth":"16.500","Units":"in","Rept_Date":"2020-12-24 11"},"coordinates":[6863,4622]},{"type":"Point","properties":{"Station_ID":"QCU","Station_Nam":"QCU","Latitude":"47.82750","Longitude":"-76.59830","Snowdepth":"16.417","Units":"in","Rept_Date":"2020-12-24 12"},"coordinates":[6039,7580]},{"type":"Point","properties":{"Station_ID":"OGIQ6","Station_Nam":"OGOKI CAMP","Latitude":"50.76680","Longitude":"-87.85820","Snowdepth":"16.260","Units":"in","Rept_Date":"2020-12-25 06"},"coordinates":[2744,9403]},{"type":"Point","properties":{"Station_ID":"NY-BM-14","Station_Nam":"WHITNEY POINT 1.7 SSE, NY","Latitude":"42.30837","Longitude":"-75.95690","Snowdepth":"16.000","Units":"in","Rept_Date":"2020-12-24 12"},"coordinates":[6226,4155]},{"type":"Point","properties":{"Station_ID":"NH-GR-55","Station_Nam":"BRISTOL 3.7 E, NH","Latitude":"43.60517","Longitude":"-71.67158","Snowdepth":"16.000","Units":"in","Rept_Date":"2020-12-24 11"},"coordinates":[7480,4960]},{"type":"Point","properties":{"Station_ID":"HTLN3","Station_Nam":"HERMIT LAKE SNOWPLOT","Latitude":"44.26130","Longitude":"-71.28330","Snowdepth":"16.000","Units":"in","Rept_Date":"2020-12-24 09"},"coordinates":[7594,5367]},{"type":"Point","properties":{"Station_ID":"QGO","Station_Nam":"QGO","Latitude":"48.85500","Longitude":"-74.20640","Snowdepth":"15.984","Units":"in","Rept_Date":"2020-12-24 12"},"coordinates":[6738,8217]},{"type":"Point","properties":{"Station_ID":"NY-SC-2","Station_Nam":"SCOTIA 1.1 NW, NY","Latitude":"42.84473","Longitude":"-73.97480","Snowdepth":"15.500","Units":"in","Rept_Date":"2020-12-24 11"},"coordinates":[6806,4488]},{"type":"Point","properties":{"Station_ID":"NY-TG-20","Station_Nam":"CANDOR 1.8 N, NY","Latitude":"42.25308","Longitude":"-76.33780","Snowdepth":"15.000","Units":"in","Rept_Date":"2020-12-24 12"},"coordinates":[6115,4121]},{"type":"Point","properties":{"Station_ID":"NY-SR-35","Station_Nam":"ROUND LAKE 4.1 NE, NY","Latitude":"42.97760","Longitude":"-73.73750","Snowdepth":"15.000","Units":"in","Rept_Date":"2020-12-24 13"},"coordinates":[6876,4571]},{"type":"Point","properties":{"Station_ID":"NH-BK-29","Station_Nam":"SANBORNTON 2.3 WNW, NH","Latitude":"43.49730","Longitude":"-71.62800","Snowdepth":"15.000","Units":"in","Rept_Date":"2020-12-24 12"},"coordinates":[7493,4893]},{"type":"Point","properties":{"Station_ID":"MN-CN-23","Station_Nam":"HOLYOKE 2.7 ENE, MN","Latitude":"46.48520","Longitude":"-92.34030","Snowdepth":"15.000","Units":"in","Rept_Date":"2020-12-24 13"},"coordinates":[1433,6747]},{"type":"Point","properties":{"Station_ID":"HURW3","Station_Nam":"HURLEY","Latitude":"46.46250","Longitude":"-90.19550","Snowdepth":"15.000","Units":"in","Rept_Date":"2020-12-24 14"},"coordinates":[2061,6733]},{"type":"Point","properties":{"Station_ID":"VT-WR-16","Station_Nam":"HARTLAND 1.6 NW, VT","Latitude":"43.55472","Longitude":"-72.42371","Snowdepth":"14.500","Units":"in","Rept_Date":"2020-12-24 13"},"coordinates":[7260,4929]},{"type":"Point","properties":{"Station_ID":"VT-WH-17","Station_Nam":"ROCKINGHAM 1.1 NNE, VT","Latitude":"43.20388","Longitude":"-72.48222","Snowdepth":"14.500","Units":"in","Rept_Date":"2020-12-24 12"},"coordinates":[7243,4711]},{"type":"Point","properties":{"Station_ID":"SOCQ6","Station_Nam":"SOCKET LAKE","Latitude":"50.77870","Longitude":"-91.79300","Snowdepth":"14.130","Units":"in","Rept_Date":"2020-12-25 06"},"coordinates":[1593,9411]},{"type":"Point","properties":{"Station_ID":"WLFM5","Station_Nam":"WOLF RIDGE ENVIRON LEARNING CENTER","Latitude":"47.38240","Longitude":"-91.19730","Snowdepth":"14.000","Units":"in","Rept_Date":"2020-12-24 13"},"coordinates":[1767,7304]},{"type":"Point","properties":{"Station_ID":"NY-SR-16","Station_Nam":"BALLSTON SPA 2.9 ESE, NY","Latitude":"42.99000","Longitude":"-73.80000","Snowdepth":"14.000","Units":"in","Rept_Date":"2020-12-24 13"},"coordinates":[6857,4578]},{"type":"Point","properties":{"Station_ID":"NY-OT-31","Station_Nam":"MARYLAND 1.8 W, NY","Latitude":"42.53310","Longitude":"-74.92090","Snowdepth":"14.000","Units":"in","Rept_Date":"2020-12-24 13"},"coordinates":[6529,4295]},{"type":"Point","properties":{"Station_ID":"NH-RC-48","Station_Nam":"NORTHWOOD 2.9 WSW, NH","Latitude":"43.20114","Longitude":"-71.25750","Snowdepth":"14.000","Units":"in","Rept_Date":"2020-12-24 12"},"coordinates":[7601,4709]},{"type":"Point","properties":{"Station_ID":"NH-MR-60","Station_Nam":"SOUTH SUTTON 1.3 SE, NH","Latitude":"43.29531","Longitude":"-71.90238","Snowdepth":"14.000","Units":"in","Rept_Date":"2020-12-24 13"},"coordinates":[7412,4768]},{"type":"Point","properties":{"Station_ID":"NH-BK-9","Station_Nam":"MEREDITH 2.9 SSW, NH","Latitude":"43.62245","Longitude":"-71.53510","Snowdepth":"14.000","Units":"in","Rept_Date":"2020-12-24 12"},"coordinates":[7520,4971]},{"type":"Point","properties":{"Station_ID":"NH-BK-2","Station_Nam":"BELMONT 1.7 SW, NH","Latitude":"43.43556","Longitude":"-71.50690","Snowdepth":"14.000","Units":"in","Rept_Date":"2020-12-24 12"},"coordinates":[7528,4855]},{"type":"Point","properties":{"Station_ID":"ME-YK-3","Station_Nam":"HOLLIS CENTER 5.4 NW, ME","Latitude":"43.64750","Longitude":"-70.67510","Snowdepth":"14.000","Units":"in","Rept_Date":"2020-12-24 12"},"coordinates":[7772,4986]},{"type":"Point","properties":{"Station_ID":"HOLM1","Station_Nam":"HOLLIS","Latitude":"43.64750","Longitude":"-70.67490","Snowdepth":"14.000","Units":"in","Rept_Date":"2020-12-24 12"},"coordinates":[7772,4986]},{"type":"Point","properties":{"Station_ID":"CON","Station_Nam":"CONCORD MUNI ARPT","Latitude":"43.20280","Longitude":"-71.50220","Snowdepth":"14.000","Units":"in","Rept_Date":"2020-12-24 12"},"coordinates":[7530,4710]},{"type":"Point","properties":{"Station_ID":"VT-WH-19","Station_Nam":"EAST DOVER 1.8 N, VT","Latitude":"42.97658","Longitude":"-72.77637","Snowdepth":"13.500","Units":"in","Rept_Date":"2020-12-24 12"},"coordinates":[7157,4570]},{"type":"Point","properties":{"Station_ID":"VT-BN-7","Station_Nam":"MANCHESTER 2.8 ENE, VT","Latitude":"43.17274","Longitude":"-73.01811","Snowdepth":"13.500","Units":"in","Rept_Date":"2020-12-24 12"},"coordinates":[7086,4692]},{"type":"Point","properties":{"Station_ID":"NH-MR-4","Station_Nam":"BOW 1.6 NW, NH","Latitude":"43.14994","Longitude":"-71.55650","Snowdepth":"13.500","Units":"in","Rept_Date":"2020-12-24 12"},"coordinates":[7514,4678]},{"type":"Point","properties":{"Station_ID":"QCX","Station_Nam":"QCX","Latitude":"51.32830","Longitude":"-70.08060","Snowdepth":"13.425","Units":"in","Rept_Date":"2020-12-24 12"},"coordinates":[7945,9752]},{"type":"Point","properties":{"Station_ID":"KABQ6","Station_Nam":"CAB LAKE","Latitude":"49.59950","Longitude":"-89.17990","Snowdepth":"13.310","Units":"in","Rept_Date":"2020-12-25 06"},"coordinates":[2358,8679]},{"type":"Point","properties":{"Station_ID":"NH-MR-55","Station_Nam":"CANTERBURY 2.5 SSW, NH","Latitude":"43.30277","Longitude":"-71.57893","Snowdepth":"13.300","Units":"in","Rept_Date":"2020-12-24 13"},"coordinates":[7507,4772]},{"type":"Point","properties":{"Station_ID":"VT-RT-25","Station_Nam":"WALLINGFORD 2.7 SSW, VT","Latitude":"43.43371","Longitude":"-72.99031","Snowdepth":"13.100","Units":"in","Rept_Date":"2020-12-24 13"},"coordinates":[7094,4854]},{"type":"Point","properties":{"Station_ID":"WNDP1","Station_Nam":"WINDBER COUNTY CLUB","Latitude":"40.28780","Longitude":"-78.77530","Snowdepth":"13.000","Units":"in","Rept_Date":"2020-12-24 11"},"coordinates":[5402,2902]},{"type":"Point","properties":{"Station_ID":"VT-WR-10","Station_Nam":"WEST WINDSOR 1.7 S, VT","Latitude":"43.46164","Longitude":"-72.49197","Snowdepth":"13.000","Units":"in","Rept_Date":"2020-12-24 12"},"coordinates":[7240,4871]},{"type":"Point","properties":{"Station_ID":"PA-BF-20","Station_Nam":"SAYRE 0.7 S, PA","Latitude":"41.97510","Longitude":"-76.52100","Snowdepth":"13.000","Units":"in","Rept_Date":"2020-12-24 12"},"coordinates":[6061,3949]},{"type":"Point","properties":{"Station_ID":"NY-TG-26","Station_Nam":"CANDOR 0.7 NW, NY","Latitude":"42.23428","Longitude":"-76.34758","Snowdepth":"13.000","Units":"in","Rept_Date":"2020-12-24 12"},"coordinates":[6112,4109]},{"type":"Point","properties":{"Station_ID":"NY-OT-29","Station_Nam":"NEW BERLIN 1.5 NE, NY","Latitude":"42.63689","Longitude":"-75.31090","Snowdepth":"13.000","Units":"in","Rept_Date":"2020-12-24 13"},"coordinates":[6415,4359]},{"type":"Point","properties":{"Station_ID":"NY-BM-7","Station_Nam":"VESTAL 2.8 SSE, NY","Latitude":"42.04930","Longitude":"-76.02880","Snowdepth":"13.000","Units":"in","Rept_Date":"2020-12-24 14"},"coordinates":[6205,3995]},{"type":"Point","properties":{"Station_ID":"NY-AB-54","Station_Nam":"ALTAMONT 2.9 SW, NY","Latitude":"42.68182","Longitude":"-74.08326","Snowdepth":"13.000","Units":"in","Rept_Date":"2020-12-24 12"},"coordinates":[6774,4387]},{"type":"Point","properties":{"Station_ID":"NY-AB-10","Station_Nam":"RENSSELAERVILLE 2.1 NNW, NY","Latitude":"42.54548","Longitude":"-74.14750","Snowdepth":"13.000","Units":"in","Rept_Date":"2020-12-24 12"},"coordinates":[6756,4303]},{"type":"Point","properties":{"Station_ID":"NH-GR-1","Station_Nam":"BRISTOL 0.4 SSE, NH","Latitude":"43.59490","Longitude":"-71.74140","Snowdepth":"13.000","Units":"in","Rept_Date":"2020-12-24 12"},"coordinates":[7460,4954]},{"type":"Point","properties":{"Station_ID":"MN-SL-15","Station_Nam":"CHISHOLM 0.4 WSW, MN","Latitude":"47.48557","Longitude":"-92.88690","Snowdepth":"13.000","Units":"in","Rept_Date":"2020-12-24 13"},"coordinates":[1273,7368]},{"type":"Point","properties":{"Station_ID":"MMNV1","Station_Nam":"MT. MANSFIELD","Latitude":"44.52480","Longitude":"-72.81540","Snowdepth":"13.000","Units":"in","Rept_Date":"2020-12-24 21"},"coordinates":[7145,5531]},{"type":"Point","properties":{"Station_ID":"GNEN6","Station_Nam":"GREENE","Latitude":"42.32440","Longitude":"-75.77170","Snowdepth":"13.000","Units":"in","Rept_Date":"2020-12-24 12"},"coordinates":[6280,4165]},{"type":"Point","properties":{"Station_ID":"COVP1","Station_Nam":"COVINGTON 2WSW","Latitude":"41.73330","Longitude":"-77.11670","Snowdepth":"13.000","Units":"in","Rept_Date":"2020-12-24 12"},"coordinates":[5887,3799]},{"type":"Point","properties":{"Station_ID":"CLUM4","Station_Nam":"CALUMET-TAMARACK","Latitude":"47.24550","Longitude":"-88.46790","Snowdepth":"13.000","Units":"in","Rept_Date":"2020-12-24 14"},"coordinates":[2566,7219]},{"type":"Point","properties":{"Station_ID":"BERM4","Station_Nam":"BERGLAND DAM","Latitude":"46.58690","Longitude":"-89.54750","Snowdepth":"13.000","Units":"in","Rept_Date":"2020-12-24 13"},"coordinates":[2250,6810]},{"type":"Point","properties":{"Station_ID":"BDDN3","Station_Nam":"BRADFORD 2","Latitude":"43.25880","Longitude":"-72.00210","Snowdepth":"13.000","Units":"in","Rept_Date":"2020-12-24 16"},"coordinates":[7383,4745]},{"type":"Point","properties":{"Station_ID":"QYR","Station_Nam":"QYR","Latitude":"48.87220","Longitude":"-75.61470","Snowdepth":"12.913","Units":"in","Rept_Date":"2020-12-24 12"},"coordinates":[6326,8228]},{"type":"Point","properties":{"Station_ID":"QFT","Station_Nam":"QFT","Latitude":"50.83280","Longitude":"-74.40390","Snowdepth":"12.677","Units":"in","Rept_Date":"2020-12-24 12"},"coordinates":[6681,9444]},{"type":"Point","properties":{"Station_ID":"SVBQ6","Station_Nam":"SAVANT BASE","Latitude":"50.28730","Longitude":"-90.65670","Snowdepth":"12.640","Units":"in","Rept_Date":"2020-12-25 06"},"coordinates":[1926,9106]},{"type":"Point","properties":{"Station_ID":"NH-MR-45","Station_Nam":"NORTHFIELD 2.8 E, NH","Latitude":"43.43945","Longitude":"-71.53730","Snowdepth":"12.500","Units":"in","Rept_Date":"2020-12-24 12"},"coordinates":[7519,4857]},{"type":"Point","properties":{"Station_ID":"QMA","Station_Nam":"QMA","Latitude":"50.10330","Longitude":"-70.47190","Snowdepth":"12.165","Units":"in","Rept_Date":"2020-12-24 12"},"coordinates":[7831,8992]},{"type":"Point","properties":{"Station_ID":"WITN6","Station_Nam":"WHITNEY POINT DAM","Latitude":"42.34180","Longitude":"-75.96530","Snowdepth":"12.000","Units":"in","Rept_Date":"2020-12-24 12"},"coordinates":[6224,4176]},{"type":"Point","properties":{"Station_ID":"WALN6","Station_Nam":"WALTON 2","Latitude":"42.18470","Longitude":"-75.14550","Snowdepth":"12.000","Units":"in","Rept_Date":"2020-12-24 10"},"coordinates":[6464,4079]},{"type":"Point","properties":{"Station_ID":"VT-WR-2","Station_Nam":"POMFRET 2.6 N, VT","Latitude":"43.74230","Longitude":"-72.52550","Snowdepth":"12.000","Units":"in","Rept_Date":"2020-12-24 12"},"coordinates":[7230,5045]},{"type":"Point","properties":{"Station_ID":"VT-WR-17","Station_Nam":"ROCHESTER 2.3 NE, VT","Latitude":"43.89418","Longitude":"-72.76992","Snowdepth":"12.000","Units":"in","Rept_Date":"2020-12-24 12"},"coordinates":[7159,5139]},{"type":"Point","properties":{"Station_ID":"VT-WH-30","Station_Nam":"MARLBORO 2.0 NNE, VT","Latitude":"42.88484","Longitude":"-72.70935","Snowdepth":"12.000","Units":"in","Rept_Date":"2020-12-24 13"},"coordinates":[7176,4513]},{"type":"Point","properties":{"Station_ID":"VT-RT-7","Station_Nam":"RUTLAND 1.2 N, VT","Latitude":"43.62533","Longitude":"-72.97790","Snowdepth":"12.000","Units":"in","Rept_Date":"2020-12-24 12"},"coordinates":[7098,4973]},{"type":"Point","properties":{"Station_ID":"VT-RT-24","Station_Nam":"MIDDLETOWN SPRINGS 0.9 WNW, VT","Latitude":"43.49194","Longitude":"-73.13350","Snowdepth":"12.000","Units":"in","Rept_Date":"2020-12-24 12"},"coordinates":[7052,4890]},{"type":"Point","properties":{"Station_ID":"SHHN6","Station_Nam":"SCHOHARIE VILLAGE","Latitude":"42.66500","Longitude":"-74.30360","Snowdepth":"12.000","Units":"in","Rept_Date":"2020-12-24 12"},"coordinates":[6710,4377]},{"type":"Point","properties":{"Station_ID":"RUTV1","Station_Nam":"RUTLAND","Latitude":"43.62530","Longitude":"-72.97810","Snowdepth":"12.000","Units":"in","Rept_Date":"2020-12-24 12"},"coordinates":[7098,4972]},{"type":"Point","properties":{"Station_ID":"PHON6","Station_Nam":"PHOENICIA 2SW","Latitude":"42.06420","Longitude":"-74.34080","Snowdepth":"12.000","Units":"in","Rept_Date":"2020-12-24 12"},"coordinates":[6699,4004]},{"type":"Point","properties":{"Station_ID":"PDLM4","Station_Nam":"PAINESDALE","Latitude":"47.04160","Longitude":"-88.67170","Snowdepth":"12.000","Units":"in","Rept_Date":"2020-12-24 13"},"coordinates":[2506,7092]},{"type":"Point","properties":{"Station_ID":"PA-BF-14","Station_Nam":"SAYRE 2.8 WNW, PA","Latitude":"41.99750","Longitude":"-76.57260","Snowdepth":"12.000","Units":"in","Rept_Date":"2020-12-24 12"},"coordinates":[6046,3963]},{"type":"Point","properties":{"Station_ID":"OWAM5","Station_Nam":"OWATONNA","Latitude":"44.09760","Longitude":"-93.23180","Snowdepth":"12.000","Units":"in","Rept_Date":"2020-12-24 14"},"coordinates":[1172,5266]},{"type":"Point","properties":{"Station_ID":"NY-FL-7","Station_Nam":"BROADALBIN 4.7 ESE, NY","Latitude":"43.03940","Longitude":"-74.10845","Snowdepth":"12.000","Units":"in","Rept_Date":"2020-12-24 14"},"coordinates":[6767,4609]},{"type":"Point","properties":{"Station_ID":"NY-CR-1","Station_Nam":"FREETOWN 1.0 NE, NY","Latitude":"42.53299","Longitude":"-76.02111","Snowdepth":"12.000","Units":"in","Rept_Date":"2020-12-24 12"},"coordinates":[6207,4295]},{"type":"Point","properties":{"Station_ID":"NRWN6","Station_Nam":"NORWICH","Latitude":"42.51170","Longitude":"-75.51970","Snowdepth":"12.000","Units":"in","Rept_Date":"2020-12-24 11"},"coordinates":[6354,4282]},{"type":"Point","properties":{"Station_ID":"NH-SL-3","Station_Nam":"WEST UNITY 0.7 WSW, NH","Latitude":"43.28652","Longitude":"-72.32970","Snowdepth":"12.000","Units":"in","Rept_Date":"2020-12-24 12"},"coordinates":[7287,4762]},{"type":"Point","properties":{"Station_ID":"NH-BK-1","Station_Nam":"TILTON NORTHFIELD 3.3 NE, NH","Latitude":"43.48000","Longitude":"-71.55000","Snowdepth":"12.000","Units":"in","Rept_Date":"2020-12-24 12"},"coordinates":[7516,4882]},{"type":"Point","properties":{"Station_ID":"MRLV1","Station_Nam":"MARLBORO","Latitude":"42.86000","Longitude":"-72.72000","Snowdepth":"12.000","Units":"in","Rept_Date":"2020-12-24 13"},"coordinates":[7173,4498]},{"type":"Point","properties":{"Station_ID":"MLDN6","Station_Nam":"EMMONS","Latitude":"42.46940","Longitude":"-75.01050","Snowdepth":"12.000","Units":"in","Rept_Date":"2020-12-24 12"},"coordinates":[6503,4255]},{"type":"Point","properties":{"Station_ID":"LAUP1","Station_Nam":"1.5MI S OF RT 30 ON SMIT (LAUREL RIDGE)","Latitude":"40.05000","Longitude":"-79.22060","Snowdepth":"12.000","Units":"in","Rept_Date":"2020-12-24 12"},"coordinates":[5271,2754]},{"type":"Point","properties":{"Station_ID":"IWOM4","Station_Nam":"IRONWOOD#2","Latitude":"46.46520","Longitude":"-90.13820","Snowdepth":"12.000","Units":"in","Rept_Date":"2020-12-24 13"},"coordinates":[2077,6734]},{"type":"Point","properties":{"Station_ID":"HCKN3","Station_Nam":"HANCOCK","Latitude":"42.96940","Longitude":"-71.95290","Snowdepth":"12.000","Units":"in","Rept_Date":"2020-12-24 12"},"coordinates":[7398,4566]},{"type":"Point","properties":{"Station_ID":"BSKN6","Station_Nam":"BUSKIRK","Latitude":"42.93610","Longitude":"-73.43250","Snowdepth":"12.000","Units":"in","Rept_Date":"2020-12-24 12"},"coordinates":[6965,4545]},{"type":"Point","properties":{"Station_ID":"BNDM5","Station_Nam":"ELY 25E","Latitude":"47.97190","Longitude":"-91.44860","Snowdepth":"12.000","Units":"in","Rept_Date":"2020-12-24 13"},"coordinates":[1694,7669]},{"type":"Point","properties":{"Station_ID":"BFHW3","Station_Nam":"BAYFIELD FISH HATCHERY","Latitude":"46.78670","Longitude":"-90.86420","Snowdepth":"12.000","Units":"in","Rept_Date":"2020-12-24 14"},"coordinates":[1865,6934]},{"type":"Point","properties":{"Station_ID":"BABM5","Station_Nam":"BABBITT","Latitude":"47.71210","Longitude":"-91.95330","Snowdepth":"12.000","Units":"in","Rept_Date":"2020-12-24 13"},"coordinates":[1546,7508]},{"type":"Point","properties":{"Station_ID":"QLI","Station_Nam":"QLI","Latitude":"50.27080","Longitude":"-73.92280","Snowdepth":"11.693","Units":"in","Rept_Date":"2020-12-24 12"},"coordinates":[6821,9096]},{"type":"Point","properties":{"Station_ID":"VT-RT-1","Station_Nam":"WEST RUTLAND 1.2 N, VT","Latitude":"43.61068","Longitude":"-73.04660","Snowdepth":"11.500","Units":"in","Rept_Date":"2020-12-24 11"},"coordinates":[7078,4963]},{"type":"Point","properties":{"Station_ID":"NY-MG-5","Station_Nam":"AMSTERDAM 1.0 NNW, NY","Latitude":"42.95467","Longitude":"-74.20085","Snowdepth":"11.500","Units":"in","Rept_Date":"2020-12-24 13"},"coordinates":[6740,4556]},{"type":"Point","properties":{"Station_ID":"NY-CR-5","Station_Nam":"MARATHON 1.0 NW, NY","Latitude":"42.45161","Longitude":"-76.04370","Snowdepth":"11.500","Units":"in","Rept_Date":"2020-12-24 12"},"coordinates":[6201,4244]},{"type":"Point","properties":{"Station_ID":"NH-RC-18","Station_Nam":"DEERFIELD 3.2 WSW, NH","Latitude":"43.13350","Longitude":"-71.27940","Snowdepth":"11.500","Units":"in","Rept_Date":"2020-12-24 12"},"coordinates":[7595,4667]},{"type":"Point","properties":{"Station_ID":"MN-CK-6","Station_Nam":"GRAND MARAIS 4.4 W, MN","Latitude":"47.74865","Longitude":"-90.43760","Snowdepth":"11.500","Units":"in","Rept_Date":"2020-12-24 12"},"coordinates":[1990,7531]},{"type":"Point","properties":{"Station_ID":"QWE","Station_Nam":"QWE","Latitude":"47.84610","Longitude":"-73.80670","Snowdepth":"11.299","Units":"in","Rept_Date":"2020-12-24 12"},"coordinates":[6855,7591]},{"type":"Point","properties":{"Station_ID":"HLSN3","Station_Nam":"HERMIT LAKE SNOTEL","Latitude":"44.26130","Longitude":"-71.28320","Snowdepth":"11.260","Units":"in","Rept_Date":"2020-12-25 06"},"coordinates":[7594,5367]},{"type":"Point","properties":{"Station_ID":"WVYN6","Station_Nam":"WAVERLY","Latitude":"41.98470","Longitude":"-76.50140","Snowdepth":"11.000","Units":"in","Rept_Date":"2020-12-24 12"},"coordinates":[6067,3955]},{"type":"Point","properties":{"Station_ID":"WLLP1","Station_Nam":"WELLSBORO 4 SW","Latitude":"41.70030","Longitude":"-77.38940","Snowdepth":"11.000","Units":"in","Rept_Date":"2020-12-24 12"},"coordinates":[5807,3778]},{"type":"Point","properties":{"Station_ID":"TOGM5","Station_Nam":"CELINA 2E","Latitude":"47.86630","Longitude":"-93.02660","Snowdepth":"11.000","Units":"in","Rept_Date":"2020-12-24 15"},"coordinates":[1232,7604]},{"type":"Point","properties":{"Station_ID":"QNCM4","Station_Nam":"QUINCY HILL","Latitude":"47.13640","Longitude":"-88.57950","Snowdepth":"11.000","Units":"in","Rept_Date":"2020-12-24 13"},"coordinates":[2533,7151]},{"type":"Point","properties":{"Station_ID":"NY-SC-11","Station_Nam":"SCHENECTADY 3.3 E, NY","Latitude":"42.79382","Longitude":"-73.86390","Snowdepth":"11.000","Units":"in","Rept_Date":"2020-12-24 14"},"coordinates":[6839,4457]},{"type":"Point","properties":{"Station_ID":"NY-RN-20","Station_Nam":"TROY 2.1 NNE, NY","Latitude":"42.75930","Longitude":"-73.65283","Snowdepth":"11.000","Units":"in","Rept_Date":"2020-12-24 12"},"coordinates":[6900,4435]},{"type":"Point","properties":{"Station_ID":"NY-GR-7","Station_Nam":"GREENVILLE 0.7 E, NY","Latitude":"42.41400","Longitude":"-74.00900","Snowdepth":"11.000","Units":"in","Rept_Date":"2020-12-24 12"},"coordinates":[6796,4221]},{"type":"Point","properties":{"Station_ID":"NY-DL-32","Station_Nam":"DELHI 6.6 WNW, NY","Latitude":"42.32118","Longitude":"-75.02991","Snowdepth":"11.000","Units":"in","Rept_Date":"2020-12-24 12"},"coordinates":[6497,4163]},{"type":"Point","properties":{"Station_ID":"NY-AB-23","Station_Nam":"ALBANY 0.7 SW, NY","Latitude":"42.66019","Longitude":"-73.81030","Snowdepth":"11.000","Units":"in","Rept_Date":"2020-12-24 12"},"coordinates":[6854,4374]},{"type":"Point","properties":{"Station_ID":"NH-MR-63","Station_Nam":"SUTTON MILLS 0.1 ENE, NH","Latitude":"43.33522","Longitude":"-71.95126","Snowdepth":"11.000","Units":"in","Rept_Date":"2020-12-24 12"},"coordinates":[7398,4793]},{"type":"Point","properties":{"Station_ID":"NH-CS-10","Station_Nam":"RANDOLPH 1.4 NE, NH","Latitude":"44.38824","Longitude":"-71.26950","Snowdepth":"11.000","Units":"in","Rept_Date":"2020-12-24 12"},"coordinates":[7598,5446]},{"type":"Point","properties":{"Station_ID":"NH-CR-26","Station_Nam":"CENTER SANDWICH 4.9 E, NH","Latitude":"43.80976","Longitude":"-71.34150","Snowdepth":"11.000","Units":"in","Rept_Date":"2020-12-24 12"},"coordinates":[7577,5087]},{"type":"Point","properties":{"Station_ID":"ME-CM-125","Station_Nam":"GRAY 2.9 SSE, ME","Latitude":"43.84640","Longitude":"-70.31340","Snowdepth":"11.000","Units":"in","Rept_Date":"2020-12-24 12"},"coordinates":[7877,5110]},{"type":"Point","properties":{"Station_ID":"HERM4","Station_Nam":"HERMAN,MI","Latitude":"46.65000","Longitude":"-88.33330","Snowdepth":"11.000","Units":"in","Rept_Date":"2020-12-24 14"},"coordinates":[2605,6849]},{"type":"Point","properties":{"Station_ID":"GNLM4","Station_Nam":"GREENLAND 6N","Latitude":"46.87360","Longitude":"-89.10060","Snowdepth":"11.000","Units":"in","Rept_Date":"2020-12-24 13"},"coordinates":[2381,6988]},{"type":"Point","properties":{"Station_ID":"GNFM5","Station_Nam":"GUNFLINT LAKE","Latitude":"48.16670","Longitude":"-90.88750","Snowdepth":"11.000","Units":"in","Rept_Date":"2020-12-24 13"},"coordinates":[1858,7790]},{"type":"Point","properties":{"Station_ID":"ESDN3","Station_Nam":"EAST SANDWICH","Latitude":"43.80990","Longitude":"-71.34250","Snowdepth":"11.000","Units":"in","Rept_Date":"2020-12-24 11"},"coordinates":[7576,5087]},{"type":"Point","properties":{"Station_ID":"QTV","Station_Nam":"QTV","Latitude":"49.66000","Longitude":"-69.35690","Snowdepth":"10.748","Units":"in","Rept_Date":"2020-12-24 12"},"coordinates":[8157,8717]},{"type":"Point","properties":{"Station_ID":"NY-DL-24","Station_Nam":"WALTON 6.5 W, NY","Latitude":"42.16534","Longitude":"-75.25850","Snowdepth":"10.500","Units":"in","Rept_Date":"2020-12-24 12"},"coordinates":[6431,4067]},{"type":"Point","properties":{"Station_ID":"NH-MR-26","Station_Nam":"PITTSFIELD 0.2 SSW, NH","Latitude":"43.29880","Longitude":"-71.33450","Snowdepth":"10.500","Units":"in","Rept_Date":"2020-12-24 13"},"coordinates":[7579,4770]},{"type":"Point","properties":{"Station_ID":"MN-CK-18","Station_Nam":"GRAND MARAIS 4.4 WSW, MN","Latitude":"47.74462","Longitude":"-90.43796","Snowdepth":"10.500","Units":"in","Rept_Date":"2020-12-24 13"},"coordinates":[1990,7528]},{"type":"Point","properties":{"Station_ID":"QLP","Station_Nam":"QLP","Latitude":"48.13920","Longitude":"-72.63830","Snowdepth":"10.433","Units":"in","Rept_Date":"2020-12-24 12"},"coordinates":[7197,7773]},{"type":"Point","properties":{"Station_ID":"QWG","Station_Nam":"QWG","Latitude":"48.48890","Longitude":"-73.45940","Snowdepth":"10.118","Units":"in","Rept_Date":"2020-12-24 12"},"coordinates":[6957,7990]},{"type":"Point","properties":{"Station_ID":"WRSM5","Station_Nam":"WRENSHALL","Latitude":"46.61550","Longitude":"-92.38380","Snowdepth":"10.000","Units":"in","Rept_Date":"2020-12-24 14"},"coordinates":[1420,6828]},{"type":"Point","properties":{"Station_ID":"WOLN3","Station_Nam":"WOLFEBORO","Latitude":"43.59020","Longitude":"-71.20190","Snowdepth":"10.000","Units":"in","Rept_Date":"2020-12-24 12"},"coordinates":[7617,4951]},{"type":"Point","properties":{"Station_ID":"WDSV1","Station_Nam":"WOODSTOCK","Latitude":"43.63030","Longitude":"-72.50720","Snowdepth":"10.000","Units":"in","Rept_Date":"2020-12-24 13"},"coordinates":[7236,4976]},{"type":"Point","properties":{"Station_ID":"VT-BN-12","Station_Nam":"STAMFORD 5.0 NNE, VT","Latitude":"42.82000","Longitude":"-73.02000","Snowdepth":"10.000","Units":"in","Rept_Date":"2020-12-24 20"},"coordinates":[7086,4473]},{"type":"Point","properties":{"Station_ID":"TOHM5","Station_Nam":"TWO HARBORS WWTP","Latitude":"47.01760","Longitude":"-91.66480","Snowdepth":"10.000","Units":"in","Rept_Date":"2020-12-24 13"},"coordinates":[1631,7077]},{"type":"Point","properties":{"Station_ID":"RGNM1","Station_Nam":"RANGELEY 2NW","Latitude":"44.98940","Longitude":"-70.67220","Snowdepth":"10.000","Units":"in","Rept_Date":"2020-12-24 11"},"coordinates":[7772,5819]},{"type":"Point","properties":{"Station_ID":"NY-TG-5","Station_Nam":"BERKSHIRE 2.0 N, NY","Latitude":"42.33463","Longitude":"-76.18990","Snowdepth":"10.000","Units":"in","Rept_Date":"2020-12-24 12"},"coordinates":[6158,4172]},{"type":"Point","properties":{"Station_ID":"NY-CN-9","Station_Nam":"NORWICH 5.4 W, NY","Latitude":"42.53356","Longitude":"-75.63060","Snowdepth":"10.000","Units":"in","Rept_Date":"2020-12-24 12"},"coordinates":[6322,4295]},{"type":"Point","properties":{"Station_ID":"NY-BM-24","Station_Nam":"BINGHAMTON 1.3 ENE, NY","Latitude":"42.10981","Longitude":"-75.88580","Snowdepth":"10.000","Units":"in","Rept_Date":"2020-12-24 14"},"coordinates":[6247,4032]},{"type":"Point","properties":{"Station_ID":"NY-AB-56","Station_Nam":"ALBANY 2.4 WNW, NY","Latitude":"42.67617","Longitude":"-73.84364","Snowdepth":"10.000","Units":"in","Rept_Date":"2020-12-24 12"},"coordinates":[6845,4384]},{"type":"Point","properties":{"Station_ID":"NJ-MD-39","Station_Nam":"EAST BRUNSWICK TWP 3.3 NNE, NJ","Latitude":"40.47386","Longitude":"-74.40004","Snowdepth":"10.000","Units":"in","Rept_Date":"2020-12-24 12"},"coordinates":[6682,3017]},{"type":"Point","properties":{"Station_ID":"NH-GR-46","Station_Nam":"ASHLAND 2.4 NNW, NH","Latitude":"43.72963","Longitude":"-71.64213","Snowdepth":"10.000","Units":"in","Rept_Date":"2020-12-24 12"},"coordinates":[7489,5037]},{"type":"Point","properties":{"Station_ID":"MWN","Station_Nam":"MOUNT WASHINGTON","Latitude":"44.26670","Longitude":"-71.30000","Snowdepth":"10.000","Units":"in","Rept_Date":"2020-12-24 12"},"coordinates":[7589,5370]},{"type":"Point","properties":{"Station_ID":"MN-SL-175","Station_Nam":"DULUTH 4.6 NE, MN","Latitude":"46.83860","Longitude":"-92.05140","Snowdepth":"10.000","Units":"in","Rept_Date":"2020-12-24 18"},"coordinates":[1518,6966]},{"type":"Point","properties":{"Station_ID":"MN-SL-108","Station_Nam":"IRON JUNCTION 3.4 NNW, MN","Latitude":"47.46150","Longitude":"-92.63130","Snowdepth":"10.000","Units":"in","Rept_Date":"2020-12-24 13"},"coordinates":[1348,7353]},{"type":"Point","properties":{"Station_ID":"MN-SL-105","Station_Nam":"DULUTH 11.8 NNE, MN","Latitude":"46.94680","Longitude":"-92.03925","Snowdepth":"10.000","Units":"in","Rept_Date":"2020-12-24 14"},"coordinates":[1521,7033]},{"type":"Point","properties":{"Station_ID":"MN-CV-40","Station_Nam":"EXCELSIOR 0.8 S, MN","Latitude":"44.88996","Longitude":"-93.56646","Snowdepth":"10.000","Units":"in","Rept_Date":"2020-12-24 13"},"coordinates":[1074,5757]},{"type":"Point","properties":{"Station_ID":"MN-AA-93","Station_Nam":"EAST BETHEL 1.6 ESE, MN","Latitude":"45.31510","Longitude":"-93.17032","Snowdepth":"10.000","Units":"in","Rept_Date":"2020-12-24 14"},"coordinates":[1190,6021]},{"type":"Point","properties":{"Station_ID":"MN-AA-90","Station_Nam":"COON RAPIDS 1.1 SW, MN","Latitude":"45.16289","Longitude":"-93.32459","Snowdepth":"10.000","Units":"in","Rept_Date":"2020-12-24 13"},"coordinates":[1145,5926]},{"type":"Point","properties":{"Station_ID":"ME-AR-18","Station_Nam":"NEW SWEDEN 4.9 NNW, ME","Latitude":"47.01080","Longitude":"-68.14390","Snowdepth":"10.000","Units":"in","Rept_Date":"2020-12-24 12"},"coordinates":[8512,7073]},{"type":"Point","properties":{"Station_ID":"LEIM5","Station_Nam":"ORR 3E","Latitude":"48.05810","Longitude":"-92.75220","Snowdepth":"10.000","Units":"in","Rept_Date":"2020-12-24 12"},"coordinates":[1313,7723]},{"type":"Point","properties":{"Station_ID":"LAPP1","Station_Nam":"LAPORTE,PA","Latitude":"41.42470","Longitude":"-76.49250","Snowdepth":"10.000","Units":"in","Rept_Date":"2020-12-24 12"},"coordinates":[6070,3607]},{"type":"Point","properties":{"Station_ID":"LAPI3","Station_Nam":"LAPORTE","Latitude":"41.61160","Longitude":"-86.72970","Snowdepth":"10.000","Units":"in","Rept_Date":"2020-12-25 06"},"coordinates":[3075,3723]},{"type":"Point","properties":{"Station_ID":"IRMM4","Station_Nam":"WWTP","Latitude":"46.46670","Longitude":"-90.18330","Snowdepth":"10.000","Units":"in","Rept_Date":"2020-12-24 13"},"coordinates":[2064,6735]},{"type":"Point","properties":{"Station_ID":"HVJP1","Station_Nam":"HIDDEN VALLEY COOP","Latitude":"40.04200","Longitude":"-79.25660","Snowdepth":"10.000","Units":"in","Rept_Date":"2020-12-24 13"},"coordinates":[5261,2749]},{"type":"Point","properties":{"Station_ID":"ELYM5","Station_Nam":"ELY","Latitude":"47.90560","Longitude":"-91.82830","Snowdepth":"10.000","Units":"in","Rept_Date":"2020-12-24 14"},"coordinates":[1583,7628]},{"type":"Point","properties":{"Station_ID":"CT-NH-72","Station_Nam":"NORTHFORD 0.8 SW, CT","Latitude":"41.38554","Longitude":"-72.80240","Snowdepth":"10.000","Units":"in","Rept_Date":"2020-12-24 12"},"coordinates":[7149,3583]},{"type":"Point","properties":{"Station_ID":"COKM5","Station_Nam":"COOK","Latitude":"47.85060","Longitude":"-92.69250","Snowdepth":"10.000","Units":"in","Rept_Date":"2020-12-24 12"},"coordinates":[1330,7594]},{"type":"Point","properties":{"Station_ID":"CNTP1","Station_Nam":"CANTON","Latitude":"41.65160","Longitude":"-76.84630","Snowdepth":"10.000","Units":"in","Rept_Date":"2020-12-24 13"},"coordinates":[5966,3748]},{"type":"Point","properties":{"Station_ID":"CAN-MB-56","Station_Nam":"WINNIPEG 7.6 ENE, CAN","Latitude":"49.93264","Longitude":"-97.04752","Snowdepth":"10.000","Units":"in","Rept_Date":"2020-12-24 14"},"coordinates":[56,8886]},{"type":"Point","properties":{"Station_ID":"ALB","Station_Nam":"ALBANY INTL AP","Latitude":"42.74920","Longitude":"-73.80190","Snowdepth":"10.000","Units":"in","Rept_Date":"2020-12-25 00"},"coordinates":[6857,4429]},{"type":"Point","properties":{"Station_ID":"ABNM3","Station_Nam":"ASHBURNHAM NORTH","Latitude":"42.66170","Longitude":"-71.93590","Snowdepth":"10.000","Units":"in","Rept_Date":"2020-12-24 12"},"coordinates":[7403,4375]},{"type":"Point","properties":{"Station_ID":"NY-AB-59","Station_Nam":"ALBANY 2.4 W, NY","Latitude":"42.66840","Longitude":"-73.84706","Snowdepth":"9.900","Units":"in","Rept_Date":"2020-12-24 13"},"coordinates":[6844,4379]},{"type":"Point","properties":{"Station_ID":"WI-BY-29","Station_Nam":"BAYFIELD 5.1 NNW, WI","Latitude":"46.88063","Longitude":"-90.85854","Snowdepth":"9.500","Units":"in","Rept_Date":"2020-12-24 13"},"coordinates":[1867,6992]},{"type":"Point","properties":{"Station_ID":"NY-HR-18","Station_Nam":"SALISBURY CENTER 1.8 NW, NY","Latitude":"43.16260","Longitude":"-74.80880","Snowdepth":"9.500","Units":"in","Rept_Date":"2020-12-24 11"},"coordinates":[6562,4685]},{"type":"Point","properties":{"Station_ID":"ME-CM-143","Station_Nam":"PORTLAND 5.4 NW, ME","Latitude":"43.72010","Longitude":"-70.28710","Snowdepth":"9.500","Units":"in","Rept_Date":"2020-12-24 12"},"coordinates":[7885,5031]},{"type":"Point","properties":{"Station_ID":"MA-HS-7","Station_Nam":"PLAINFIELD 2.2 SW, MA","Latitude":"42.49272","Longitude":"-72.94540","Snowdepth":"9.500","Units":"in","Rept_Date":"2020-12-24 13"},"coordinates":[7107,4270]},{"type":"Point","properties":{"Station_ID":"MA-BE-21","Station_Nam":"CHESHIRE 0.5 NNW, MA","Latitude":"42.56315","Longitude":"-73.15701","Snowdepth":"9.500","Units":"in","Rept_Date":"2020-12-24 12"},"coordinates":[7045,4313]},{"type":"Point","properties":{"Station_ID":"QGD","Station_Nam":"QGD","Latitude":"51.11140","Longitude":"-67.13940","Snowdepth":"9.449","Units":"in","Rept_Date":"2020-12-24 12"},"coordinates":[8806,9617]},{"type":"Point","properties":{"Station_ID":"QLM","Station_Nam":"QLM","Latitude":"48.92030","Longitude":"-70.25280","Snowdepth":"9.409","Units":"in","Rept_Date":"2020-12-24 12"},"coordinates":[7895,8258]},{"type":"Point","properties":{"Station_ID":"WRIM5","Station_Nam":"WRIGHT 3E","Latitude":"46.68040","Longitude":"-92.95420","Snowdepth":"9.000","Units":"in","Rept_Date":"2020-12-24 12"},"coordinates":[1253,6868]},{"type":"Point","properties":{"Station_ID":"WI-SR-1","Station_Nam":"HAYWARD 9.2 NNE, WI","Latitude":"46.13255","Longitude":"-91.40500","Snowdepth":"9.000","Units":"in","Rept_Date":"2020-12-24 12"},"coordinates":[1707,6528]},{"type":"Point","properties":{"Station_ID":"WI-BY-15","Station_Nam":"BAYFIELD 1.7 SW, WI","Latitude":"46.79294","Longitude":"-90.84343","Snowdepth":"9.000","Units":"in","Rept_Date":"2020-12-24 13"},"coordinates":[1871,6938]},{"type":"Point","properties":{"Station_ID":"WI-BY-14","Station_Nam":"ASHLAND 9.8 W, WI","Latitude":"46.59742","Longitude":"-91.07856","Snowdepth":"9.000","Units":"in","Rept_Date":"2020-12-24 12"},"coordinates":[1802,6816]},{"type":"Point","properties":{"Station_ID":"VT-WH-29","Station_Nam":"BRATTLEBORO 0.7 S, VT","Latitude":"42.84030","Longitude":"-72.55580","Snowdepth":"9.000","Units":"in","Rept_Date":"2020-12-24 12"},"coordinates":[7221,4485]},{"type":"Point","properties":{"Station_ID":"TRYN6","Station_Nam":"TROY","Latitude":"42.75080","Longitude":"-73.68550","Snowdepth":"9.000","Units":"in","Rept_Date":"2020-12-24 12"},"coordinates":[6891,4430]},{"type":"Point","properties":{"Station_ID":"ROWM3","Station_Nam":"ROWE 3NE","Latitude":"42.73500","Longitude":"-72.86920","Snowdepth":"9.000","Units":"in","Rept_Date":"2020-12-24 12"},"coordinates":[7130,4420]},{"type":"Point","properties":{"Station_ID":"PRQM1","Station_Nam":"PRESQUE ISLE HILLTOP","Latitude":"46.68630","Longitude":"-67.99470","Snowdepth":"9.000","Units":"in","Rept_Date":"2020-12-24 12"},"coordinates":[8556,6872]},{"type":"Point","properties":{"Station_ID":"NY-CM-24","Station_Nam":"CHEMUNG 5.7 N, NY","Latitude":"42.09130","Longitude":"-76.62810","Snowdepth":"9.000","Units":"in","Rept_Date":"2020-12-24 14"},"coordinates":[6030,4021]},{"type":"Point","properties":{"Station_ID":"NY-AB-21","Station_Nam":"NWS ALBANY, NY","Latitude":"42.69180","Longitude":"-73.83110","Snowdepth":"9.000","Units":"in","Rept_Date":"2020-12-24 12"},"coordinates":[6848,4393]},{"type":"Point","properties":{"Station_ID":"NH-GR-49","Station_Nam":"PLYMOUTH 3.7 N, NH","Latitude":"43.79048","Longitude":"-71.68413","Snowdepth":"9.000","Units":"in","Rept_Date":"2020-12-24 12"},"coordinates":[7476,5075]},{"type":"Point","properties":{"Station_ID":"MN-HN-72","Station_Nam":"MAPLE GROVE 2.9 NE, MN","Latitude":"45.13953","Longitude":"-93.42070","Snowdepth":"9.000","Units":"in","Rept_Date":"2020-12-24 14"},"coordinates":[1117,5912]},{"type":"Point","properties":{"Station_ID":"MN-HN-298","Station_Nam":"EXCELSIOR 1.8 W, MN","Latitude":"44.89722","Longitude":"-93.60286","Snowdepth":"9.000","Units":"in","Rept_Date":"2020-12-24 13"},"coordinates":[1064,5762]},{"type":"Point","properties":{"Station_ID":"MN-GH-28","Station_Nam":"CANNON FALLS 0.5 SE, MN","Latitude":"44.50866","Longitude":"-92.89526","Snowdepth":"9.000","Units":"in","Rept_Date":"2020-12-24 14"},"coordinates":[1271,5521]},{"type":"Point","properties":{"Station_ID":"ME-YK-67","Station_Nam":"CORNISH 5.6 ESE, ME","Latitude":"43.78308","Longitude":"-70.69539","Snowdepth":"9.000","Units":"in","Rept_Date":"2020-12-24 12"},"coordinates":[7766,5070]},{"type":"Point","properties":{"Station_ID":"ME-OX-26","Station_Nam":"OXFORD 5.3 SW, ME","Latitude":"44.09787","Longitude":"-70.59612","Snowdepth":"9.000","Units":"in","Rept_Date":"2020-12-24 12"},"coordinates":[7795,5266]},{"type":"Point","properties":{"Station_ID":"ME-CM-18","Station_Nam":"PORTLAND 5.5 WNW, ME","Latitude":"43.70288","Longitude":"-70.30550","Snowdepth":"9.000","Units":"in","Rept_Date":"2020-12-24 12"},"coordinates":[7880,5021]},{"type":"Point","properties":{"Station_ID":"KMWN","Station_Nam":"MOUNT WASHINGTON","Latitude":"44.26666","Longitude":"-71.30000","Snowdepth":"9.000","Units":"in","Rept_Date":"2020-12-25 06"},"coordinates":[7589,5370]},{"type":"Point","properties":{"Station_ID":"INL","Station_Nam":"FALLS INTERNATIONAL ARPT","Latitude":"48.56640","Longitude":"-93.40310","Snowdepth":"9.000","Units":"in","Rept_Date":"2020-12-24 12"},"coordinates":[1122,8038]},{"type":"Point","properties":{"Station_ID":"IFSM5","Station_Nam":"INTERNATIONAL FALLS SNOW","Latitude":"48.57780","Longitude":"-93.39640","Snowdepth":"9.000","Units":"in","Rept_Date":"2020-12-24 12"},"coordinates":[1124,8045]},{"type":"Point","properties":{"Station_ID":"EHYM3","Station_Nam":"EAST HAWLEY","Latitude":"42.57410","Longitude":"-72.86790","Snowdepth":"9.000","Units":"in","Rept_Date":"2020-12-24 13"},"coordinates":[7130,4320]},{"type":"Point","properties":{"Station_ID":"COTM5","Station_Nam":"COTTON","Latitude":"47.16870","Longitude":"-92.46290","Snowdepth":"9.000","Units":"in","Rept_Date":"2020-12-24 13"},"coordinates":[1397,7171]},{"type":"Point","properties":{"Station_ID":"CORN6","Station_Nam":"CORNING","Latitude":"42.13410","Longitude":"-77.06910","Snowdepth":"9.000","Units":"in","Rept_Date":"2020-12-24 12"},"coordinates":[5901,4047]},{"type":"Point","properties":{"Station_ID":"COBN6","Station_Nam":"COBLESKILL 2ESE","Latitude":"42.66710","Longitude":"-74.44230","Snowdepth":"9.000","Units":"in","Rept_Date":"2020-12-24 12"},"coordinates":[6669,4378]},{"type":"Point","properties":{"Station_ID":"CJRP1","Station_Nam":"COUDERSPORT 7SE","Latitude":"41.73920","Longitude":"-77.97110","Snowdepth":"9.000","Units":"in","Rept_Date":"2020-12-24 12"},"coordinates":[5637,3802]},{"type":"Point","properties":{"Station_ID":"CARM1","Station_Nam":"CARIBOU WFO","Latitude":"46.86810","Longitude":"-68.01250","Snowdepth":"9.000","Units":"in","Rept_Date":"2020-12-25 05"},"coordinates":[8551,6984]},{"type":"Point","properties":{"Station_ID":"CAR","Station_Nam":"CARIBOU, ME","Latitude":"46.86830","Longitude":"-68.01360","Snowdepth":"9.000","Units":"in","Rept_Date":"2020-12-24 12"},"coordinates":[8550,6985]},{"type":"Point","properties":{"Station_ID":"FTHQ6","Station_Nam":"FORT HOPE","Latitude":"51.55820","Longitude":"-87.90510","Snowdepth":"8.860","Units":"in","Rept_Date":"2020-12-25 06"},"coordinates":[2731,9894]},{"type":"Point","properties":{"Station_ID":"MN-HN-270","Station_Nam":"MAPLE PLAIN 2.0 NNE, MN","Latitude":"45.03355","Longitude":"-93.64105","Snowdepth":"8.700","Units":"in","Rept_Date":"2020-12-24 13"},"coordinates":[1053,5846]},{"type":"Point","properties":{"Station_ID":"QMD","Station_Nam":"QMD","Latitude":"49.29060","Longitude":"-75.84500","Snowdepth":"8.622","Units":"in","Rept_Date":"2020-12-24 12"},"coordinates":[6259,8487]},{"type":"Point","properties":{"Station_ID":"PA-CR-1","Station_Nam":"EMPORIUM 2.6 S, PA","Latitude":"41.47342","Longitude":"-78.24330","Snowdepth":"8.500","Units":"in","Rept_Date":"2020-12-24 13"},"coordinates":[5557,3637]},{"type":"Point","properties":{"Station_ID":"NY-WR-10","Station_Nam":"WARRENSBURG 2.1 WNW, NY","Latitude":"43.51784","Longitude":"-73.81069","Snowdepth":"8.500","Units":"in","Rept_Date":"2020-12-24 13"},"coordinates":[6854,4906]},{"type":"Point","properties":{"Station_ID":"NY-TM-45","Station_Nam":"NEWFIELD HAMLET 4.3 S, NY","Latitude":"42.29650","Longitude":"-76.60676","Snowdepth":"8.500","Units":"in","Rept_Date":"2020-12-24 14"},"coordinates":[6036,4148]},{"type":"Point","properties":{"Station_ID":"NY-HM-10","Station_Nam":"LAKE PLEASANT 2.3 WSW, NY","Latitude":"43.45490","Longitude":"-74.45287","Snowdepth":"8.500","Units":"in","Rept_Date":"2020-12-24 12"},"coordinates":[6666,4867]},{"type":"Point","properties":{"Station_ID":"NH-HL-19","Station_Nam":"BROOKLINE 2.1 SW, NH","Latitude":"42.71235","Longitude":"-71.69760","Snowdepth":"8.500","Units":"in","Rept_Date":"2020-12-24 12"},"coordinates":[7472,4406]},{"type":"Point","properties":{"Station_ID":"MN-SL-139","Station_Nam":"DULUTH 1.2 SE, MN","Latitude":"46.77000","Longitude":"-92.08826","Snowdepth":"8.500","Units":"in","Rept_Date":"2020-12-24 12"},"coordinates":[1507,6924]},{"type":"Point","properties":{"Station_ID":"MN-IS-6","Station_Nam":"CAMBRIDGE 3.0 N, MN","Latitude":"45.60495","Longitude":"-93.23450","Snowdepth":"8.500","Units":"in","Rept_Date":"2020-12-24 13"},"coordinates":[1171,6201]},{"type":"Point","properties":{"Station_ID":"MN-HN-134","Station_Nam":"BROOKLYN CENTER 1.1 E, MN","Latitude":"45.06744","Longitude":"-93.29334","Snowdepth":"8.500","Units":"in","Rept_Date":"2020-12-24 13"},"coordinates":[1154,5867]},{"type":"Point","properties":{"Station_ID":"ME-AN-43","Station_Nam":"LISBON 0.6 S, ME","Latitude":"44.02320","Longitude":"-70.10550","Snowdepth":"8.500","Units":"in","Rept_Date":"2020-12-24 12"},"coordinates":[7938,5219]},{"type":"Point","properties":{"Station_ID":"CATQ6","Station_Nam":"CAT LAKE","Latitude":"51.72690","Longitude":"-91.82210","Snowdepth":"8.500","Units":"in","Rept_Date":"2020-12-25 06"},"coordinates":[1585,9999]},{"type":"Point","properties":{"Station_ID":"MI-BG-3","Station_Nam":"THREE LAKES, MI","Latitude":"46.55730","Longitude":"-88.20770","Snowdepth":"8.200","Units":"in","Rept_Date":"2020-12-24 13"},"coordinates":[2642,6792]},{"type":"Point","properties":{"Station_ID":"WLXP1","Station_Nam":"GLEN HAZEL,PA","Latitude":"41.56670","Longitude":"-78.60000","Snowdepth":"8.000","Units":"in","Rept_Date":"2020-12-24 12"},"coordinates":[5453,3695]},{"type":"Point","properties":{"Station_ID":"WI-PC-5","Station_Nam":"RIVER FALLS 1.2 SSW, WI","Latitude":"44.84032","Longitude":"-92.63500","Snowdepth":"8.000","Units":"in","Rept_Date":"2020-12-24 13"},"coordinates":[1347,5726]},{"type":"Point","properties":{"Station_ID":"WI-PC-10","Station_Nam":"RIVER FALLS 1.4 S, WI","Latitude":"44.83580","Longitude":"-92.62100","Snowdepth":"8.000","Units":"in","Rept_Date":"2020-12-24 13"},"coordinates":[1351,5724]},{"type":"Point","properties":{"Station_ID":"WI-BY-2","Station_Nam":"MELLEN 18.6 SW, WI","Latitude":"46.16937","Longitude":"-90.98090","Snowdepth":"8.000","Units":"in","Rept_Date":"2020-12-24 13"},"coordinates":[1831,6551]},{"type":"Point","properties":{"Station_ID":"TGRP1","Station_Nam":"TIOGA RIVER AT TIOGA","Latitude":"41.90830","Longitude":"-77.12920","Snowdepth":"8.000","Units":"in","Rept_Date":"2020-12-24 12"},"coordinates":[5883,3907]},{"type":"Point","properties":{"Station_ID":"STVP1","Station_Nam":"GEO B STEVENSON LAKE","Latitude":"41.40000","Longitude":"-78.01670","Snowdepth":"8.000","Units":"in","Rept_Date":"2020-12-24 12"},"coordinates":[5624,3592]},{"type":"Point","properties":{"Station_ID":"RVOP1","Station_Nam":"RENOVO,PA","Latitude":"41.33330","Longitude":"-77.73330","Snowdepth":"8.000","Units":"in","Rept_Date":"2020-12-24 12"},"coordinates":[5707,3550]},{"type":"Point","properties":{"Station_ID":"RKHN6","Station_Nam":"ROCK HILL 3 SW","Latitude":"41.59170","Longitude":"-74.61410","Snowdepth":"8.000","Units":"in","Rept_Date":"2020-12-24 12"},"coordinates":[6619,3711]},{"type":"Point","properties":{"Station_ID":"PLEP1","Station_Nam":"PLEASANT MOUNT 1 W","Latitude":"41.73940","Longitude":"-75.44650","Snowdepth":"8.000","Units":"in","Rept_Date":"2020-12-24 13"},"coordinates":[6376,3802]},{"type":"Point","properties":{"Station_ID":"PEKN6","Station_Nam":"PECK LAKE","Latitude":"43.11500","Longitude":"-74.42360","Snowdepth":"8.000","Units":"in","Rept_Date":"2020-12-24 12"},"coordinates":[6675,4656]},{"type":"Point","properties":{"Station_ID":"PA-PT-2","Station_Nam":"ROULETTE 1.8 NNE, PA","Latitude":"41.80759","Longitude":"-78.14140","Snowdepth":"8.000","Units":"in","Rept_Date":"2020-12-24 12"},"coordinates":[5587,3845]},{"type":"Point","properties":{"Station_ID":"NY-UL-28","Station_Nam":"KERHONKSON 3.7 N, NY","Latitude":"41.83214","Longitude":"-74.30115","Snowdepth":"8.000","Units":"in","Rept_Date":"2020-12-24 12"},"coordinates":[6711,3860]},{"type":"Point","properties":{"Station_ID":"NY-UL-23","Station_Nam":"WEST HURLEY 0.1 S, NY","Latitude":"42.00455","Longitude":"-74.11094","Snowdepth":"8.000","Units":"in","Rept_Date":"2020-12-24 12"},"coordinates":[6766,3967]},{"type":"Point","properties":{"Station_ID":"NY-ST-3","Station_Nam":"SOUTH CORNING 4.7 S, NY","Latitude":"42.05672","Longitude":"-77.04850","Snowdepth":"8.000","Units":"in","Rept_Date":"2020-12-24 14"},"coordinates":[5907,3999]},{"type":"Point","properties":{"Station_ID":"MSP","Station_Nam":"MINNEAPOLIS-ST PAUL INTL AP","Latitude":"44.88310","Longitude":"-93.22890","Snowdepth":"8.000","Units":"in","Rept_Date":"2020-12-25 00"},"coordinates":[1173,5753]},{"type":"Point","properties":{"Station_ID":"MN-SL-18","Station_Nam":"DULUTH 1.4 NNW, MN","Latitude":"46.80321","Longitude":"-92.11240","Snowdepth":"8.000","Units":"in","Rept_Date":"2020-12-24 14"},"coordinates":[1500,6944]},{"type":"Point","properties":{"Station_ID":"MN-SH-34","Station_Nam":"ZIMMERMAN 0.9 NNE, MN","Latitude":"45.45470","Longitude":"-93.59166","Snowdepth":"8.000","Units":"in","Rept_Date":"2020-12-24 12"},"coordinates":[1067,6108]},{"type":"Point","properties":{"Station_ID":"MN-IT-21","Station_Nam":"BOVEY 15.9 N, MN","Latitude":"47.52679","Longitude":"-93.40270","Snowdepth":"8.000","Units":"in","Rept_Date":"2020-12-24 13"},"coordinates":[1122,7393]},{"type":"Point","properties":{"Station_ID":"MN-IT-1","Station_Nam":"GRAND RAPIDS 2.0 E, MN","Latitude":"47.22266","Longitude":"-93.49600","Snowdepth":"8.000","Units":"in","Rept_Date":"2020-12-24 13"},"coordinates":[1095,7204]},{"type":"Point","properties":{"Station_ID":"MN-HN-240","Station_Nam":"BLOOMINGTON 3.1 E, MN","Latitude":"44.83704","Longitude":"-93.25318","Snowdepth":"8.000","Units":"in","Rept_Date":"2020-12-24 14"},"coordinates":[1166,5724]},{"type":"Point","properties":{"Station_ID":"MN-HN-222","Station_Nam":"MAPLE GROVE 1.2 NE, MN","Latitude":"45.11960","Longitude":"-93.44410","Snowdepth":"8.000","Units":"in","Rept_Date":"2020-12-24 13"},"coordinates":[1110,5900]},{"type":"Point","properties":{"Station_ID":"MN-CV-27","Station_Nam":"CHANHASSEN 3.4 NW, MN","Latitude":"44.88979","Longitude":"-93.60991","Snowdepth":"8.000","Units":"in","Rept_Date":"2020-12-24 14"},"coordinates":[1062,5757]},{"type":"Point","properties":{"Station_ID":"MN-CV-22","Station_Nam":"VICTORIA 1.6 WSW, MN","Latitude":"44.85670","Longitude":"-93.68640","Snowdepth":"8.000","Units":"in","Rept_Date":"2020-12-24 13"},"coordinates":[1039,5736]},{"type":"Point","properties":{"Station_ID":"MN-CV-1","Station_Nam":"CARVER 0.7 W, MN","Latitude":"44.75728","Longitude":"-93.64160","Snowdepth":"8.000","Units":"in","Rept_Date":"2020-12-24 13"},"coordinates":[1052,5675]},{"type":"Point","properties":{"Station_ID":"MN-CN-36","Station_Nam":"CLOQUET 3.4 ENE, MN","Latitude":"46.74146","Longitude":"-92.42698","Snowdepth":"8.000","Units":"in","Rept_Date":"2020-12-24 13"},"coordinates":[1408,6906]},{"type":"Point","properties":{"Station_ID":"MN-CG-16","Station_Nam":"NORTH BRANCH 1.3 NNW, MN","Latitude":"45.53121","Longitude":"-92.97110","Snowdepth":"8.000","Units":"in","Rept_Date":"2020-12-24 12"},"coordinates":[1249,6155]},{"type":"Point","properties":{"Station_ID":"MN-AA-85","Station_Nam":"LINO LAKES 1.8 W, MN","Latitude":"45.16640","Longitude":"-93.12063","Snowdepth":"8.000","Units":"in","Rept_Date":"2020-12-24 13"},"coordinates":[1205,5929]},{"type":"Point","properties":{"Station_ID":"MN-AA-73","Station_Nam":"ANOKA 6.5 N, MN","Latitude":"45.30231","Longitude":"-93.41459","Snowdepth":"8.000","Units":"in","Rept_Date":"2020-12-24 13"},"coordinates":[1119,6013]},{"type":"Point","properties":{"Station_ID":"MI-HG-20","Station_Nam":"CALUMET 1.1 SSW, MI","Latitude":"47.23165","Longitude":"-88.45823","Snowdepth":"8.000","Units":"in","Rept_Date":"2020-12-24 11"},"coordinates":[2569,7210]},{"type":"Point","properties":{"Station_ID":"MAYP1","Station_Nam":"MAHANOY CITY,PA","Latitude":"40.83330","Longitude":"-76.13330","Snowdepth":"8.000","Units":"in","Rept_Date":"2020-12-24 12"},"coordinates":[6175,3240]},{"type":"Point","properties":{"Station_ID":"MA-NF-1","Station_Nam":"NORWOOD 1.3 NW, MA","Latitude":"42.19738","Longitude":"-71.21526","Snowdepth":"8.000","Units":"in","Rept_Date":"2020-12-24 12"},"coordinates":[7614,4087]},{"type":"Point","properties":{"Station_ID":"MA-FR-17","Station_Nam":"BUCKLAND 1.8 ESE, MA","Latitude":"42.58900","Longitude":"-72.75110","Snowdepth":"8.000","Units":"in","Rept_Date":"2020-12-24 13"},"coordinates":[7164,4330]},{"type":"Point","properties":{"Station_ID":"KMSP","Station_Nam":"MINNEAPOLIS-ST PAUL INTERNATIONAL","Latitude":"44.86666","Longitude":"-93.21666","Snowdepth":"8.000","Units":"in","Rept_Date":"2020-12-24 18"},"coordinates":[1177,5743]},{"type":"Point","properties":{"Station_ID":"GLTP1","Station_Nam":"GALETON,PA","Latitude":"41.73330","Longitude":"-77.63330","Snowdepth":"8.000","Units":"in","Rept_Date":"2020-12-24 13"},"coordinates":[5736,3799]},{"type":"Point","properties":{"Station_ID":"EMRN6","Station_Nam":"ELMIRA","Latitude":"42.09970","Longitude":"-76.83580","Snowdepth":"8.000","Units":"in","Rept_Date":"2020-12-24 12"},"coordinates":[5969,4026]},{"type":"Point","properties":{"Station_ID":"DURM1","Station_Nam":"DURHAM","Latitude":"43.99960","Longitude":"-70.09630","Snowdepth":"8.000","Units":"in","Rept_Date":"2020-12-24 12"},"coordinates":[7941,5205]},{"type":"Point","properties":{"Station_ID":"DELN6","Station_Nam":"DELHI 2 SE","Latitude":"42.25580","Longitude":"-74.91270","Snowdepth":"8.000","Units":"in","Rept_Date":"2020-12-24 13"},"coordinates":[6532,4123]},{"type":"Point","properties":{"Station_ID":"CORV1","Station_Nam":"CORINTH","Latitude":"44.00690","Longitude":"-72.31940","Snowdepth":"8.000","Units":"in","Rept_Date":"2020-12-24 12"},"coordinates":[7290,5209]},{"type":"Point","properties":{"Station_ID":"CNRM1","Station_Nam":"CONNOR TWP","Latitude":"46.95830","Longitude":"-68.03330","Snowdepth":"8.000","Units":"in","Rept_Date":"2020-12-24 12"},"coordinates":[8544,7040]},{"type":"Point","properties":{"Station_ID":"CMKW3","Station_Nam":"CLAM LAKE 4W","Latitude":"46.16940","Longitude":"-90.98080","Snowdepth":"8.000","Units":"in","Rept_Date":"2020-12-24 13"},"coordinates":[1831,6551]},{"type":"Point","properties":{"Station_ID":"BKBW2","Station_Nam":"DAVIS.","Latitude":"39.09830","Longitude":"-79.43190","Snowdepth":"8.000","Units":"in","Rept_Date":"2020-12-24 12"},"coordinates":[5210,2164]},{"type":"Point","properties":{"Station_ID":"BBEM4","Station_Nam":"BIG BAY 9SW","Latitude":"46.74620","Longitude":"-87.88160","Snowdepth":"8.000","Units":"in","Rept_Date":"2020-12-24 13"},"coordinates":[2738,6909]},{"type":"Point","properties":{"Station_ID":"AWXW3","Station_Nam":"ASHLAND","Latitude":"46.58240","Longitude":"-90.88390","Snowdepth":"8.000","Units":"in","Rept_Date":"2020-12-24 13"},"coordinates":[1859,6807]},{"type":"Point","properties":{"Station_ID":"CAN-MB-368","Station_Nam":"WHITESHELL 1.3 NE, CAN","Latitude":"49.74405","Longitude":"-95.19123","Snowdepth":"7.900","Units":"in","Rept_Date":"2020-12-24 14"},"coordinates":[599,8769]},{"type":"Point","properties":{"Station_ID":"QGA","Station_Nam":"QGA","Latitude":"47.25640","Longitude":"-73.73810","Snowdepth":"7.874","Units":"in","Rept_Date":"2020-12-24 12"},"coordinates":[6875,7225]},{"type":"Point","properties":{"Station_ID":"MN-IT-7","Station_Nam":"GRAND RAPIDS 6.2 SSW, MN","Latitude":"47.13687","Longitude":"-93.56660","Snowdepth":"7.800","Units":"in","Rept_Date":"2020-12-24 12"},"coordinates":[1074,7151]},{"type":"Point","properties":{"Station_ID":"MFU","Station_Nam":"MFU","Latitude":"51.52170","Longitude":"-66.91110","Snowdepth":"7.716","Units":"in","Rept_Date":"2020-12-24 12"},"coordinates":[8873,9872]},{"type":"Point","properties":{"Station_ID":"WI-WB-16","Station_Nam":"SARONA 4.5 NNE, WI","Latitude":"45.77030","Longitude":"-91.76890","Snowdepth":"7.500","Units":"in","Rept_Date":"2020-12-24 13"},"coordinates":[1600,6303]},{"type":"Point","properties":{"Station_ID":"WI-AS-4","Station_Nam":"ASHLAND 0.5 WNW, WI","Latitude":"46.58240","Longitude":"-90.88390","Snowdepth":"7.500","Units":"in","Rept_Date":"2020-12-24 13"},"coordinates":[1859,6807]},{"type":"Point","properties":{"Station_ID":"NY-DL-23","Station_Nam":"LONG EDDY 6.5 NNE, NY","Latitude":"41.93510","Longitude":"-75.07840","Snowdepth":"7.500","Units":"in","Rept_Date":"2020-12-24 13"},"coordinates":[6483,3924]},{"type":"Point","properties":{"Station_ID":"NY-CB-16","Station_Nam":"VALATIE 2.9 N, NY","Latitude":"42.45655","Longitude":"-73.66812","Snowdepth":"7.500","Units":"in","Rept_Date":"2020-12-24 12"},"coordinates":[6896,4247]},{"type":"Point","properties":{"Station_ID":"NH-MR-25","Station_Nam":"CHICHESTER 2.7 SSW, NH","Latitude":"43.21150","Longitude":"-71.41430","Snowdepth":"7.500","Units":"in","Rept_Date":"2020-12-24 12"},"coordinates":[7555,4716]},{"type":"Point","properties":{"Station_ID":"NH-GR-56","Station_Nam":"EASTON 0.6 ESE, NH","Latitude":"44.14790","Longitude":"-71.78950","Snowdepth":"7.500","Units":"in","Rept_Date":"2020-12-24 13"},"coordinates":[7446,5297]},{"type":"Point","properties":{"Station_ID":"NH-CS-19","Station_Nam":"CARROLL 4.6 NE, NH","Latitude":"44.33765","Longitude":"-71.46461","Snowdepth":"7.500","Units":"in","Rept_Date":"2020-12-24 12"},"coordinates":[7541,5414]},{"type":"Point","properties":{"Station_ID":"MN-SL-115","Station_Nam":"COTTON 5.7 ESE, MN","Latitude":"47.15142","Longitude":"-92.35772","Snowdepth":"7.500","Units":"in","Rept_Date":"2020-12-24 14"},"coordinates":[1428,7160]},{"type":"Point","properties":{"Station_ID":"MN-IT-23","Station_Nam":"BOVEY 13.4 N, MN","Latitude":"47.48855","Longitude":"-93.43497","Snowdepth":"7.500","Units":"in","Rept_Date":"2020-12-24 13"},"coordinates":[1113,7369]},{"type":"Point","properties":{"Station_ID":"MN-AA-56","Station_Nam":"BLAINE 2.2 NNW, MN","Latitude":"45.19838","Longitude":"-93.22812","Snowdepth":"7.500","Units":"in","Rept_Date":"2020-12-24 14"},"coordinates":[1173,5948]},{"type":"Point","properties":{"Station_ID":"ME-YK-18","Station_Nam":"WELLS 3.5 SW, ME","Latitude":"43.30140","Longitude":"-70.64470","Snowdepth":"7.500","Units":"in","Rept_Date":"2020-12-24 12"},"coordinates":[7780,4772]},{"type":"Point","properties":{"Station_ID":"MA-WR-54","Station_Nam":"BARRE 1.4 NNE, MA","Latitude":"42.44082","Longitude":"-72.09591","Snowdepth":"7.500","Units":"in","Rept_Date":"2020-12-24 12"},"coordinates":[7356,4238]},{"type":"Point","properties":{"Station_ID":"MA-MD-126","Station_Nam":"MELROSE 0.5 NE, MA","Latitude":"42.46055","Longitude":"-71.05396","Snowdepth":"7.500","Units":"in","Rept_Date":"2020-12-24 12"},"coordinates":[7661,4250]},{"type":"Point","properties":{"Station_ID":"MA-FR-13","Station_Nam":"CONWAY 2.9 NW, MA","Latitude":"42.54419","Longitude":"-72.72743","Snowdepth":"7.500","Units":"in","Rept_Date":"2020-12-24 12"},"coordinates":[7171,4302]},{"type":"Point","properties":{"Station_ID":"MA-ES-58","Station_Nam":"MIDDLETON 1.4 SSW, MA","Latitude":"42.58133","Longitude":"-71.02707","Snowdepth":"7.500","Units":"in","Rept_Date":"2020-12-24 13"},"coordinates":[7669,4325]},{"type":"Point","properties":{"Station_ID":"MA-ES-48","Station_Nam":"ANDOVER 0.6 E, MA","Latitude":"42.65659","Longitude":"-71.13048","Snowdepth":"7.500","Units":"in","Rept_Date":"2020-12-24 10"},"coordinates":[7638,4371]},{"type":"Point","properties":{"Station_ID":"CT-HR-15","Station_Nam":"SOUTHINGTON 3.0 E, CT","Latitude":"41.60798","Longitude":"-72.82220","Snowdepth":"7.500","Units":"in","Rept_Date":"2020-12-24 12"},"coordinates":[7143,3721]},{"type":"Point","properties":{"Station_ID":"NY-UL-34","Station_Nam":"WALLKILL 3.7 E, NY","Latitude":"41.61840","Longitude":"-74.09380","Snowdepth":"7.400","Units":"in","Rept_Date":"2020-12-24 12"},"coordinates":[6771,3727]},{"type":"Point","properties":{"Station_ID":"MN-WR-19","Station_Nam":"ROCKFORD 1.0 NE, MN","Latitude":"45.10315","Longitude":"-93.73370","Snowdepth":"7.400","Units":"in","Rept_Date":"2020-12-24 14"},"coordinates":[1025,5889]},{"type":"Point","properties":{"Station_ID":"MN-HN-306","Station_Nam":"PLYMOUTH 2.8 WSW, MN","Latitude":"45.00330","Longitude":"-93.51140","Snowdepth":"7.400","Units":"in","Rept_Date":"2020-12-24 13"},"coordinates":[1090,5827]},{"type":"Point","properties":{"Station_ID":"VT-WR-22","Station_Nam":"ROCHESTER 0.3 NE, VT","Latitude":"43.87816","Longitude":"-72.80459","Snowdepth":"7.100","Units":"in","Rept_Date":"2020-12-24 12"},"coordinates":[7149,5129]},{"type":"Point","properties":{"Station_ID":"HPN04_MADIS","Station_Nam":"HANOVER","Latitude":"45.16770","Longitude":"-93.63430","Snowdepth":"7.100","Units":"in","Rept_Date":"2020-12-25 06"},"coordinates":[1054,5929]},{"type":"Point","properties":{"Station_ID":"CAN-NB-96","Station_Nam":"SAINT-IGNACE 2.6 NE, CAN","Latitude":"46.71424","Longitude":"-65.05609","Snowdepth":"7.100","Units":"in","Rept_Date":"2020-12-24 11"},"coordinates":[9415,6889]},{"type":"Point","properties":{"Station_ID":"WI-WB-2","Station_Nam":"STONE LAKE 2.0 NW, WI","Latitude":"45.85960","Longitude":"-91.57710","Snowdepth":"7.000","Units":"in","Rept_Date":"2020-12-24 13"},"coordinates":[1656,6359]},{"type":"Point","properties":{"Station_ID":"WI-DG-20","Station_Nam":"SOLON SPRINGS 1.2 W, WI","Latitude":"46.35217","Longitude":"-91.84405","Snowdepth":"7.000","Units":"in","Rept_Date":"2020-12-24 13"},"coordinates":[1578,6664]},{"type":"Point","properties":{"Station_ID":"WI-BY-6","Station_Nam":"BARNES 2.2 S, WI","Latitude":"46.30264","Longitude":"-91.50320","Snowdepth":"7.000","Units":"in","Rept_Date":"2020-12-24 13"},"coordinates":[1678,6634]},{"type":"Point","properties":{"Station_ID":"WI-BY-1","Station_Nam":"BAYFIELD 8.8 N, WI","Latitude":"46.93855","Longitude":"-90.83490","Snowdepth":"7.000","Units":"in","Rept_Date":"2020-12-24 13"},"coordinates":[1874,7028]},{"type":"Point","properties":{"Station_ID":"VT-OG-14","Station_Nam":"BRADFORD 2.2 NNW, VT","Latitude":"44.02268","Longitude":"-72.14756","Snowdepth":"7.000","Units":"in","Rept_Date":"2020-12-24 13"},"coordinates":[7341,5219]},{"type":"Point","properties":{"Station_ID":"VT-BN-13","Station_Nam":"NORTH BENNINGTON 0.5 N, VT","Latitude":"42.93714","Longitude":"-73.24389","Snowdepth":"7.000","Units":"in","Rept_Date":"2020-12-24 12"},"coordinates":[7020,4546]},{"type":"Point","properties":{"Station_ID":"VANM1","Station_Nam":"VAN BUREN","Latitude":"47.16600","Longitude":"-67.93900","Snowdepth":"7.000","Units":"in","Rept_Date":"2020-12-24 12"},"coordinates":[8572,7169]},{"type":"Point","properties":{"Station_ID":"TMWN3","Station_Nam":"TAMWORTH 4","Latitude":"43.86390","Longitude":"-71.26610","Snowdepth":"7.000","Units":"in","Rept_Date":"2020-12-24 12"},"coordinates":[7599,5121]},{"type":"Point","properties":{"Station_ID":"SRAW3","Station_Nam":"SARONA","Latitude":"45.80250","Longitude":"-91.86700","Snowdepth":"7.000","Units":"in","Rept_Date":"2020-12-24 14"},"coordinates":[1572,6323]},{"type":"Point","properties":{"Station_ID":"SHBN6","Station_Nam":"SHERBURNE","Latitude":"42.67730","Longitude":"-75.50660","Snowdepth":"7.000","Units":"in","Rept_Date":"2020-12-24 12"},"coordinates":[6358,4384]},{"type":"Point","properties":{"Station_ID":"SDLM3","Station_Nam":"SUNDERLAND","Latitude":"42.44480","Longitude":"-72.55290","Snowdepth":"7.000","Units":"in","Rept_Date":"2020-12-24 12"},"coordinates":[7222,4240]},{"type":"Point","properties":{"Station_ID":"RANM1","Station_Nam":"RANGELEY","Latitude":"44.98910","Longitude":"-70.67190","Snowdepth":"7.000","Units":"in","Rept_Date":"2020-12-24 11"},"coordinates":[7772,5819]},{"type":"Point","properties":{"Station_ID":"PWM","Station_Nam":"RESIDUAL OFFICE TO PORTLAND WSFO (GYX)","Latitude":"43.64610","Longitude":"-70.30920","Snowdepth":"7.000","Units":"in","Rept_Date":"2020-12-24 12"},"coordinates":[7879,4985]},{"type":"Point","properties":{"Station_ID":"PLBP1","Station_Nam":"PHILIPSBURG,PA","Latitude":"40.87220","Longitude":"-78.21530","Snowdepth":"7.000","Units":"in","Rept_Date":"2020-12-24 12"},"coordinates":[5566,3264]},{"type":"Point","properties":{"Station_ID":"PA-SS-16","Station_Nam":"NEW MILFORD 1.6 SSE, PA","Latitude":"41.85540","Longitude":"-75.71110","Snowdepth":"7.000","Units":"in","Rept_Date":"2020-12-24 14"},"coordinates":[6298,3874]},{"type":"Point","properties":{"Station_ID":"PA-EL-1","Station_Nam":"ST. MARYS 1.7 SE, PA","Latitude":"41.41069","Longitude":"-78.53480","Snowdepth":"7.000","Units":"in","Rept_Date":"2020-12-24 11"},"coordinates":[5472,3598]},{"type":"Point","properties":{"Station_ID":"PA-CB-33","Station_Nam":"LAKE HARMONY 2.4 WNW, PA","Latitude":"41.07333","Longitude":"-75.63317","Snowdepth":"7.000","Units":"in","Rept_Date":"2020-12-24 12"},"coordinates":[6321,3389]},{"type":"Point","properties":{"Station_ID":"OSWP1","Station_Nam":"OSWAYO,PA","Latitude":"41.91670","Longitude":"-78.00000","Snowdepth":"7.000","Units":"in","Rept_Date":"2020-12-24 12"},"coordinates":[5629,3912]},{"type":"Point","properties":{"Station_ID":"NYMM5","Station_Nam":"NEW YORK MILLS","Latitude":"46.50920","Longitude":"-95.37990","Snowdepth":"7.000","Units":"in","Rept_Date":"2020-12-24 13"},"coordinates":[544,6762]},{"type":"Point","properties":{"Station_ID":"NY-GR-6","Station_Nam":"FREEHOLD 3.4 E, NY","Latitude":"42.36045","Longitude":"-73.98350","Snowdepth":"7.000","Units":"in","Rept_Date":"2020-12-24 10"},"coordinates":[6804,4188]},{"type":"Point","properties":{"Station_ID":"NY-DT-24","Station_Nam":"RED HOOK 1.2 NNE, NY","Latitude":"42.00967","Longitude":"-73.86419","Snowdepth":"7.000","Units":"in","Rept_Date":"2020-12-24 12"},"coordinates":[6839,3970]},{"type":"Point","properties":{"Station_ID":"NY-DL-25","Station_Nam":"HOBART 4.8 ESE, NY","Latitude":"42.35230","Longitude":"-74.57830","Snowdepth":"7.000","Units":"in","Rept_Date":"2020-12-24 12"},"coordinates":[6630,4183]},{"type":"Point","properties":{"Station_ID":"NH-HL-25","Station_Nam":"AMHERST 3.7 NNE, NH","Latitude":"42.91409","Longitude":"-71.61020","Snowdepth":"7.000","Units":"in","Rept_Date":"2020-12-24 12"},"coordinates":[7498,4531]},{"type":"Point","properties":{"Station_ID":"NH-CR-27","Station_Nam":"TAMWORTH 0.4 NNW, NH","Latitude":"43.86449","Longitude":"-71.26610","Snowdepth":"7.000","Units":"in","Rept_Date":"2020-12-24 12"},"coordinates":[7599,5121]},{"type":"Point","properties":{"Station_ID":"NFKC3","Station_Nam":"NORFOLK","Latitude":"41.97250","Longitude":"-73.22080","Snowdepth":"7.000","Units":"in","Rept_Date":"2020-12-24 13"},"coordinates":[7027,3947]},{"type":"Point","properties":{"Station_ID":"MPXM5","Station_Nam":"CHANHASSEN WSFO","Latitude":"44.84960","Longitude":"-93.56440","Snowdepth":"7.000","Units":"in","Rept_Date":"2020-12-25 06"},"coordinates":[1075,5732]},{"type":"Point","properties":{"Station_ID":"MN-WR-25","Station_Nam":"SAINT MICHAEL 2.0 ENE, MN","Latitude":"45.20820","Longitude":"-93.65280","Snowdepth":"7.000","Units":"in","Rept_Date":"2020-12-24 12"},"coordinates":[1049,5955]},{"type":"Point","properties":{"Station_ID":"MN-RM-120","Station_Nam":"MAPLEWOOD 5.6 SSE, MN","Latitude":"44.90588","Longitude":"-92.99712","Snowdepth":"7.000","Units":"in","Rept_Date":"2020-12-24 15"},"coordinates":[1241,5767]},{"type":"Point","properties":{"Station_ID":"MN-IS-18","Station_Nam":"BRAHAM 0.7 SW, MN","Latitude":"45.71379","Longitude":"-93.18095","Snowdepth":"7.000","Units":"in","Rept_Date":"2020-12-24 14"},"coordinates":[1187,6268]},{"type":"Point","properties":{"Station_ID":"MN-HN-30","Station_Nam":"PLYMOUTH 2.4 ENE, MN","Latitude":"45.04063","Longitude":"-93.41950","Snowdepth":"7.000","Units":"in","Rept_Date":"2020-12-24 13"},"coordinates":[1117,5851]},{"type":"Point","properties":{"Station_ID":"MN-HN-22","Station_Nam":"MINNEAPOLIS 3.3 SW, MN","Latitude":"44.92886","Longitude":"-93.31632","Snowdepth":"7.000","Units":"in","Rept_Date":"2020-12-24 14"},"coordinates":[1148,5781]},{"type":"Point","properties":{"Station_ID":"MN-CW-22","Station_Nam":"FORT RIPLEY 0.8 N, MN","Latitude":"46.18089","Longitude":"-94.36510","Snowdepth":"7.000","Units":"in","Rept_Date":"2020-12-24 13"},"coordinates":[841,6558]},{"type":"Point","properties":{"Station_ID":"MN-CG-28","Station_Nam":"STANCHFIELD 4.9 ESE, MN","Latitude":"45.63631","Longitude":"-93.09058","Snowdepth":"7.000","Units":"in","Rept_Date":"2020-12-24 14"},"coordinates":[1214,6220]},{"type":"Point","properties":{"Station_ID":"MN-AT-5","Station_Nam":"TAMARACK 1.4 SW, MN","Latitude":"46.63760","Longitude":"-93.14554","Snowdepth":"7.000","Units":"in","Rept_Date":"2020-12-24 13"},"coordinates":[1197,6841]},{"type":"Point","properties":{"Station_ID":"MN-AA-76","Station_Nam":"NOWTHEN 2.9 SSE, MN","Latitude":"45.30360","Longitude":"-93.42620","Snowdepth":"7.000","Units":"in","Rept_Date":"2020-12-24 13"},"coordinates":[1115,6014]},{"type":"Point","properties":{"Station_ID":"MN-AA-4","Station_Nam":"SAINT FRANCIS 4.0 E, MN","Latitude":"45.40897","Longitude":"-93.30900","Snowdepth":"7.000","Units":"in","Rept_Date":"2020-12-24 13"},"coordinates":[1150,6079]},{"type":"Point","properties":{"Station_ID":"MN-AA-102","Station_Nam":"BLAINE 0.8 NE, MN","Latitude":"45.17186","Longitude":"-93.22732","Snowdepth":"7.000","Units":"in","Rept_Date":"2020-12-24 13"},"coordinates":[1174,5932]},{"type":"Point","properties":{"Station_ID":"MECN6","Station_Nam":"MECKLENBURG 4 SW","Latitude":"42.44220","Longitude":"-76.75740","Snowdepth":"7.000","Units":"in","Rept_Date":"2020-12-24 12"},"coordinates":[5992,4238]},{"type":"Point","properties":{"Station_ID":"ME-YK-65","Station_Nam":"NORTH BERWICK 5.3 W, ME","Latitude":"43.29801","Longitude":"-70.83956","Snowdepth":"7.000","Units":"in","Rept_Date":"2020-12-24 13"},"coordinates":[7723,4769]},{"type":"Point","properties":{"Station_ID":"ME-YK-5","Station_Nam":"KENNEBUNK 1.8 WNW, ME","Latitude":"43.39320","Longitude":"-70.58060","Snowdepth":"7.000","Units":"in","Rept_Date":"2020-12-24 12"},"coordinates":[7799,4828]},{"type":"Point","properties":{"Station_ID":"ME-YK-28","Station_Nam":"BIDDEFORD 1.5 NNE, ME","Latitude":"43.48679","Longitude":"-70.43470","Snowdepth":"7.000","Units":"in","Rept_Date":"2020-12-24 12"},"coordinates":[7842,4887]},{"type":"Point","properties":{"Station_ID":"ME-KB-53","Station_Nam":"READFIELD 2.0 NNE, ME","Latitude":"44.41620","Longitude":"-69.95190","Snowdepth":"7.000","Units":"in","Rept_Date":"2020-12-24 12"},"coordinates":[7983,5463]},{"type":"Point","properties":{"Station_ID":"ME-CM-86","Station_Nam":"POWNAL 4.1 S, ME","Latitude":"43.85370","Longitude":"-70.17210","Snowdepth":"7.000","Units":"in","Rept_Date":"2020-12-24 12"},"coordinates":[7919,5114]},{"type":"Point","properties":{"Station_ID":"ME-CM-3","Station_Nam":"NEW GLOUCESTER 3.0 SE, ME","Latitude":"43.92372","Longitude":"-70.25790","Snowdepth":"7.000","Units":"in","Rept_Date":"2020-12-24 12"},"coordinates":[7894,5158]},{"type":"Point","properties":{"Station_ID":"ME-CM-138","Station_Nam":"FREEPORT 3.0 ENE, ME","Latitude":"43.87733","Longitude":"-70.04650","Snowdepth":"7.000","Units":"in","Rept_Date":"2020-12-24 12"},"coordinates":[7955,5129]},{"type":"Point","properties":{"Station_ID":"ME-AR-15","Station_Nam":"PRESQUE ISLE 1.3 WSW, ME","Latitude":"46.67960","Longitude":"-68.01270","Snowdepth":"7.000","Units":"in","Rept_Date":"2020-12-24 12"},"coordinates":[8550,6867]},{"type":"Point","properties":{"Station_ID":"MA-ES-66","Station_Nam":"NORTH ANDOVER 0.3 NW, MA","Latitude":"42.70375","Longitude":"-71.12029","Snowdepth":"7.000","Units":"in","Rept_Date":"2020-12-24 13"},"coordinates":[7641,4401]},{"type":"Point","properties":{"Station_ID":"LUCW3","Station_Nam":"LUCK","Latitude":"45.57330","Longitude":"-92.48520","Snowdepth":"7.000","Units":"in","Rept_Date":"2020-12-24 18"},"coordinates":[1391,6181]},{"type":"Point","properties":{"Station_ID":"KEEN3","Station_Nam":"KEENE","Latitude":"42.93900","Longitude":"-72.32470","Snowdepth":"7.000","Units":"in","Rept_Date":"2020-12-24 11"},"coordinates":[7289,4547]},{"type":"Point","properties":{"Station_ID":"JPBM3","Station_Nam":"JAMAICA PLAIN","Latitude":"42.30310","Longitude":"-71.12400","Snowdepth":"7.000","Units":"in","Rept_Date":"2020-12-24 13"},"coordinates":[7640,4152]},{"type":"Point","properties":{"Station_ID":"JORM5","Station_Nam":"JORDAN 1SSW","Latitude":"44.65010","Longitude":"-93.63560","Snowdepth":"7.000","Units":"in","Rept_Date":"2020-12-24 11"},"coordinates":[1054,5608]},{"type":"Point","properties":{"Station_ID":"JKL","Station_Nam":"JACKSON, KY","Latitude":"37.59390","Longitude":"-83.31720","Snowdepth":"7.000","Units":"in","Rept_Date":"2020-12-25 06"},"coordinates":[4073,1230]},{"type":"Point","properties":{"Station_ID":"IPT","Station_Nam":"WILLIAMSPORT RGNL","Latitude":"41.24190","Longitude":"-76.92110","Snowdepth":"7.000","Units":"in","Rept_Date":"2020-12-24 12"},"coordinates":[5944,3494]},{"type":"Point","properties":{"Station_ID":"INDM5","Station_Nam":"INDUS,MN","Latitude":"48.61670","Longitude":"-93.90000","Snowdepth":"7.000","Units":"in","Rept_Date":"2020-12-24 14"},"coordinates":[977,8069]},{"type":"Point","properties":{"Station_ID":"HGHN6","Station_Nam":"HIGHMARKET","Latitude":"43.60510","Longitude":"-75.55430","Snowdepth":"7.000","Units":"in","Rept_Date":"2020-12-24 11"},"coordinates":[6344,4960]},{"type":"Point","properties":{"Station_ID":"GRMP1","Station_Nam":"GRAMPIAN, PA","Latitude":"40.96660","Longitude":"-78.58710","Snowdepth":"7.000","Units":"in","Rept_Date":"2020-12-24 11"},"coordinates":[5457,3323]},{"type":"Point","properties":{"Station_ID":"FBTM5","Station_Nam":"FARIBAULT","Latitude":"44.30920","Longitude":"-93.26600","Snowdepth":"7.000","Units":"in","Rept_Date":"2020-12-24 13"},"coordinates":[1162,5397]},{"type":"Point","properties":{"Station_ID":"ESGM1","Station_Nam":"EAST SANGERVILLE","Latitude":"45.13690","Longitude":"-69.28060","Snowdepth":"7.000","Units":"in","Rept_Date":"2020-12-24 12"},"coordinates":[8180,5910]},{"type":"Point","properties":{"Station_ID":"ESDN6","Station_Nam":"EAST SIDNEY","Latitude":"42.33290","Longitude":"-75.22960","Snowdepth":"7.000","Units":"in","Rept_Date":"2020-12-24 12"},"coordinates":[6439,4171]},{"type":"Point","properties":{"Station_ID":"EMBM5","Station_Nam":"EMBARASS,MN","Latitude":"47.65810","Longitude":"-92.19580","Snowdepth":"7.000","Units":"in","Rept_Date":"2020-12-24 12"},"coordinates":[1475,7475]},{"type":"Point","properties":{"Station_ID":"CT-MD-27","Station_Nam":"CLINTON 3.7 N, CT","Latitude":"41.32916","Longitude":"-72.51750","Snowdepth":"7.000","Units":"in","Rept_Date":"2020-12-24 12"},"coordinates":[7233,3548]},{"type":"Point","properties":{"Station_ID":"CT-LT-9","Station_Nam":"NEW HARTFORD CENTER 3.2 SW, CT","Latitude":"41.84170","Longitude":"-73.00920","Snowdepth":"7.000","Units":"in","Rept_Date":"2020-12-24 12"},"coordinates":[7089,3866]},{"type":"Point","properties":{"Station_ID":"CT-LT-34","Station_Nam":"WOODBURY CENTER 1.5 SSW, CT","Latitude":"41.52870","Longitude":"-73.22250","Snowdepth":"7.000","Units":"in","Rept_Date":"2020-12-24 12"},"coordinates":[7026,3672]},{"type":"Point","properties":{"Station_ID":"CQDP1","Station_Nam":"COWANESQUE DAM","Latitude":"41.99670","Longitude":"-77.15170","Snowdepth":"7.000","Units":"in","Rept_Date":"2020-12-24 12"},"coordinates":[5877,3962]},{"type":"Point","properties":{"Station_ID":"CAAW2","Station_Nam":"CANAAN VALLEY","Latitude":"39.05890","Longitude":"-79.44030","Snowdepth":"7.000","Units":"in","Rept_Date":"2020-12-24 14"},"coordinates":[5207,2139]},{"type":"Point","properties":{"Station_ID":"BLHM3","Station_Nam":"BLUE HILL COOP","Latitude":"42.21230","Longitude":"-71.11370","Snowdepth":"7.000","Units":"in","Rept_Date":"2020-12-24 12"},"coordinates":[7643,4096]},{"type":"Point","properties":{"Station_ID":"BAKC3","Station_Nam":"BAKERSVILLE","Latitude":"41.84180","Longitude":"-73.00850","Snowdepth":"7.000","Units":"in","Rept_Date":"2020-12-24 12"},"coordinates":[7089,3866]},{"type":"Point","properties":{"Station_ID":"ASBM3","Station_Nam":"ASHBURNHAM","Latitude":"42.61780","Longitude":"-71.91590","Snowdepth":"7.000","Units":"in","Rept_Date":"2020-12-24 12"},"coordinates":[7409,4347]},{"type":"Point","properties":{"Station_ID":"MRL","Station_Nam":"MRL","Latitude":"51.28330","Longitude":"-68.84060","Snowdepth":"6.968","Units":"in","Rept_Date":"2020-12-24 12"},"coordinates":[8308,9724]},{"type":"Point","properties":{"Station_ID":"HPN02_MADIS","Station_Nam":"MAPLE GROVE","Latitude":"45.11820","Longitude":"-93.42830","Snowdepth":"6.800","Units":"in","Rept_Date":"2020-12-25 06"},"coordinates":[1115,5899]},{"type":"Point","properties":{"Station_ID":"MN-HN-292","Station_Nam":"MINNETONKA 3.8 SW, MN","Latitude":"44.89704","Longitude":"-93.52072","Snowdepth":"6.600","Units":"in","Rept_Date":"2020-12-24 14"},"coordinates":[1088,5762]},{"type":"Point","properties":{"Station_ID":"MA-WR-44","Station_Nam":"WESTMINSTER 0.6 WSW, MA","Latitude":"42.54505","Longitude":"-71.91032","Snowdepth":"6.600","Units":"in","Rept_Date":"2020-12-24 12"},"coordinates":[7410,4302]},{"type":"Point","properties":{"Station_ID":"WI-PR-2","Station_Nam":"BUTTERNUT 5.9 SW, WI","Latitude":"45.96501","Longitude":"-90.59750","Snowdepth":"6.500","Units":"in","Rept_Date":"2020-12-24 12"},"coordinates":[1943,6424]},{"type":"Point","properties":{"Station_ID":"VT-OG-13","Station_Nam":"WEST FAIRLEE 1.8 ENE, VT","Latitude":"43.92138","Longitude":"-72.23051","Snowdepth":"6.500","Units":"in","Rept_Date":"2020-12-24 13"},"coordinates":[7316,5156]},{"type":"Point","properties":{"Station_ID":"PA-MN-16","Station_Nam":"MOUNT POCONO 0.7 N, PA","Latitude":"41.13190","Longitude":"-75.35804","Snowdepth":"6.500","Units":"in","Rept_Date":"2020-12-24 12"},"coordinates":[6401,3425]},{"type":"Point","properties":{"Station_ID":"NY-TM-42","Station_Nam":"ITHACA 6.4 E, NY","Latitude":"42.43350","Longitude":"-76.37860","Snowdepth":"6.500","Units":"in","Rept_Date":"2020-12-24 12"},"coordinates":[6103,4233]},{"type":"Point","properties":{"Station_ID":"NY-GR-5","Station_Nam":"NEW BALTIMORE 0.2 SE, NY","Latitude":"42.44294","Longitude":"-73.78660","Snowdepth":"6.500","Units":"in","Rept_Date":"2020-12-24 12"},"coordinates":[6861,4239]},{"type":"Point","properties":{"Station_ID":"NY-DT-37","Station_Nam":"RHINEBECK 3.4 N, NY","Latitude":"41.97735","Longitude":"-73.90559","Snowdepth":"6.500","Units":"in","Rept_Date":"2020-12-24 12"},"coordinates":[6826,3950]},{"type":"Point","properties":{"Station_ID":"NH-RC-79","Station_Nam":"NOTTINGHAM 1.2 S, NH","Latitude":"43.09778","Longitude":"-71.10256","Snowdepth":"6.500","Units":"in","Rept_Date":"2020-12-24 13"},"coordinates":[7646,4645]},{"type":"Point","properties":{"Station_ID":"MN-HN-31","Station_Nam":"MAPLE GROVE 1.0 NNE, MN","Latitude":"45.12261","Longitude":"-93.45790","Snowdepth":"6.500","Units":"in","Rept_Date":"2020-12-24 15"},"coordinates":[1106,5901]},{"type":"Point","properties":{"Station_ID":"MN-HN-241","Station_Nam":"MAPLE GROVE 1.4 WSW, MN","Latitude":"45.10451","Longitude":"-93.48950","Snowdepth":"6.500","Units":"in","Rept_Date":"2020-12-24 13"},"coordinates":[1097,5890]},{"type":"Point","properties":{"Station_ID":"ME-FR-2","Station_Nam":"TEMPLE 1.8 W, ME","Latitude":"44.68329","Longitude":"-70.26420","Snowdepth":"6.500","Units":"in","Rept_Date":"2020-12-24 12"},"coordinates":[7892,5629]},{"type":"Point","properties":{"Station_ID":"MA-WR-55","Station_Nam":"HARVARD 2.1 S, MA","Latitude":"42.46891","Longitude":"-71.58360","Snowdepth":"6.500","Units":"in","Rept_Date":"2020-12-24 12"},"coordinates":[7506,4255]},{"type":"Point","properties":{"Station_ID":"MA-MD-7","Station_Nam":"WINCHESTER 0.7 SE, MA","Latitude":"42.44594","Longitude":"-71.13580","Snowdepth":"6.500","Units":"in","Rept_Date":"2020-12-24 12"},"coordinates":[7637,4241]},{"type":"Point","properties":{"Station_ID":"MA-MD-12","Station_Nam":"ACTON 1.3 SW, MA","Latitude":"42.46746","Longitude":"-71.48200","Snowdepth":"6.500","Units":"in","Rept_Date":"2020-12-24 12"},"coordinates":[7535,4254]},{"type":"Point","properties":{"Station_ID":"MA-MD-107","Station_Nam":"FRAMINGHAM 1.7 E, MA","Latitude":"42.30516","Longitude":"-71.40471","Snowdepth":"6.500","Units":"in","Rept_Date":"2020-12-24 12"},"coordinates":[7558,4153]},{"type":"Point","properties":{"Station_ID":"MA-ES-41","Station_Nam":"DANVERS 0.8 ESE, MA","Latitude":"42.56849","Longitude":"-70.93526","Snowdepth":"6.500","Units":"in","Rept_Date":"2020-12-24 13"},"coordinates":[7695,4317]},{"type":"Point","properties":{"Station_ID":"CT-TL-40","Station_Nam":"COVENTRY 0.3 NNE, CT","Latitude":"41.78805","Longitude":"-72.33738","Snowdepth":"6.500","Units":"in","Rept_Date":"2020-12-24 12"},"coordinates":[7285,3833]},{"type":"Point","properties":{"Station_ID":"NY-MG-3","Station_Nam":"HESSVILLE 1.8 WSW, NY","Latitude":"42.86430","Longitude":"-74.72140","Snowdepth":"6.400","Units":"in","Rept_Date":"2020-12-24 13"},"coordinates":[6588,4500]},{"type":"Point","properties":{"Station_ID":"CT-FR-58","Station_Nam":"RIDGEFIELD 3.6 N, CT","Latitude":"41.32589","Longitude":"-73.48902","Snowdepth":"6.300","Units":"in","Rept_Date":"2020-12-24 11"},"coordinates":[6948,3546]},{"type":"Point","properties":{"Station_ID":"CAN-QC-47","Station_Nam":"SAINTE-FOY 1.8 ENE, CAN","Latitude":"46.76934","Longitude":"-71.27124","Snowdepth":"6.300","Units":"in","Rept_Date":"2020-12-24 12"},"coordinates":[7597,6923]},{"type":"Point","properties":{"Station_ID":"CAN-ON-220","Station_Nam":"DEEP RIVER 1.5 SE - MNRF, CAN","Latitude":"46.09592","Longitude":"-77.47853","Snowdepth":"6.300","Units":"in","Rept_Date":"2020-12-24 12"},"coordinates":[5781,6505]},{"type":"Point","properties":{"Station_ID":"NY-WC-37","Station_Nam":"YORKTOWN HEIGHTS 1.6 E, NY","Latitude":"41.26961","Longitude":"-73.75164","Snowdepth":"6.200","Units":"in","Rept_Date":"2020-12-24 13"},"coordinates":[6871,3511]},{"type":"Point","properties":{"Station_ID":"CAN-ON-771","Station_Nam":"KENORA 8.7 NNE - CANWARN, CAN","Latitude":"49.84171","Longitude":"-94.44386","Snowdepth":"6.200","Units":"in","Rept_Date":"2020-12-24 13"},"coordinates":[818,8829]},{"type":"Point","properties":{"Station_ID":"WTNM4","Station_Nam":"WATTON 2WSW","Latitude":"46.52660","Longitude":"-88.64240","Snowdepth":"6.000","Units":"in","Rept_Date":"2020-12-24 13"},"coordinates":[2515,6773]},{"type":"Point","properties":{"Station_ID":"WALM3","Station_Nam":"WALPOLE 2","Latitude":"42.16090","Longitude":"-71.24610","Snowdepth":"6.000","Units":"in","Rept_Date":"2020-12-24 12"},"coordinates":[7604,4064]},{"type":"Point","properties":{"Station_ID":"VT-OL-12","Station_Nam":"GREENSBORO 3.9 NNE, VT","Latitude":"44.63100","Longitude":"-72.28000","Snowdepth":"6.000","Units":"in","Rept_Date":"2020-12-24 13"},"coordinates":[7302,5596]},{"type":"Point","properties":{"Station_ID":"VT-AD-20","Station_Nam":"HANCOCK 0.3 S, VT","Latitude":"43.92166","Longitude":"-72.84042","Snowdepth":"6.000","Units":"in","Rept_Date":"2020-12-24 12"},"coordinates":[7138,5156]},{"type":"Point","properties":{"Station_ID":"SWEI4","Station_Nam":"SWEA CITY,IA","Latitude":"43.38530","Longitude":"-94.25000","Snowdepth":"6.000","Units":"in","Rept_Date":"2020-12-24 12"},"coordinates":[874,4824]},{"type":"Point","properties":{"Station_ID":"SUXN4","Station_Nam":"SUSSEX 1 NW","Latitude":"41.21840","Longitude":"-74.62070","Snowdepth":"6.000","Units":"in","Rept_Date":"2020-12-24 12"},"coordinates":[6617,3479]},{"type":"Point","properties":{"Station_ID":"ROBW3","Station_Nam":"ROBERTS WWTP","Latitude":"44.97070","Longitude":"-92.56200","Snowdepth":"6.000","Units":"in","Rept_Date":"2020-12-24 14"},"coordinates":[1368,5807]},{"type":"Point","properties":{"Station_ID":"RKWI4","Station_Nam":"ROCKWELL CITY,IA","Latitude":"42.40000","Longitude":"-94.61670","Snowdepth":"6.000","Units":"in","Rept_Date":"2020-12-24 13"},"coordinates":[767,4212]},{"type":"Point","properties":{"Station_ID":"RI-PR-51","Station_Nam":"NORTH SMITHFIELD 0.6 S, RI","Latitude":"41.95440","Longitude":"-71.54944","Snowdepth":"6.000","Units":"in","Rept_Date":"2020-12-24 11"},"coordinates":[7516,3936]},{"type":"Point","properties":{"Station_ID":"RI-PR-50","Station_Nam":"HARRISVILLE 1.2 SSE, RI","Latitude":"41.95128","Longitude":"-71.67171","Snowdepth":"6.000","Units":"in","Rept_Date":"2020-12-24 12"},"coordinates":[7480,3934]},{"type":"Point","properties":{"Station_ID":"RI-PR-28","Station_Nam":"NORTH SMITHFIELD 0.7 SE, RI","Latitude":"41.95910","Longitude":"-71.54201","Snowdepth":"6.000","Units":"in","Rept_Date":"2020-12-24 12"},"coordinates":[7518,3939]},{"type":"Point","properties":{"Station_ID":"PHEW3","Station_Nam":"PHELPS","Latitude":"46.06630","Longitude":"-89.07520","Snowdepth":"6.000","Units":"in","Rept_Date":"2020-12-24 13"},"coordinates":[2388,6487]},{"type":"Point","properties":{"Station_ID":"PDGM4","Station_Nam":"PAULDING","Latitude":"46.39760","Longitude":"-89.17940","Snowdepth":"6.000","Units":"in","Rept_Date":"2020-12-24 14"},"coordinates":[2358,6693]},{"type":"Point","properties":{"Station_ID":"PA-PK-22","Station_Nam":"MILFORD 8.7 NW, PA","Latitude":"41.42018","Longitude":"-74.90953","Snowdepth":"6.000","Units":"in","Rept_Date":"2020-12-24 12"},"coordinates":[6533,3604]},{"type":"Point","properties":{"Station_ID":"PA-MN-11","Station_Nam":"SAYLORSBURG 2.7 WNW, PA","Latitude":"40.90335","Longitude":"-75.37367","Snowdepth":"6.000","Units":"in","Rept_Date":"2020-12-24 14"},"coordinates":[6397,3284]},{"type":"Point","properties":{"Station_ID":"PA-CN-18","Station_Nam":"PORT MATILDA 2.2 ESE, PA","Latitude":"40.79117","Longitude":"-78.01180","Snowdepth":"6.000","Units":"in","Rept_Date":"2020-12-24 12"},"coordinates":[5625,3214]},{"type":"Point","properties":{"Station_ID":"NY-RN-24","Station_Nam":"NASSAU 4.2 ESE, NY","Latitude":"42.49091","Longitude":"-73.53462","Snowdepth":"6.000","Units":"in","Rept_Date":"2020-12-24 13"},"coordinates":[6935,4269]},{"type":"Point","properties":{"Station_ID":"NY-ES-6","Station_Nam":"OLMSTEDVILLE 4.6 NNE, NY","Latitude":"43.83350","Longitude":"-73.89780","Snowdepth":"6.000","Units":"in","Rept_Date":"2020-12-24 13"},"coordinates":[6829,5102]},{"type":"Point","properties":{"Station_ID":"NY-DT-34","Station_Nam":"HOPEWELL JUNCTION 2.8 NE, NY","Latitude":"41.61016","Longitude":"-73.75855","Snowdepth":"6.000","Units":"in","Rept_Date":"2020-12-24 11"},"coordinates":[6869,3722]},{"type":"Point","properties":{"Station_ID":"NH-CS-4","Station_Nam":"PITTSBURG 6.1 NE, NH","Latitude":"45.11060","Longitude":"-71.29760","Snowdepth":"6.000","Units":"in","Rept_Date":"2020-12-24 12"},"coordinates":[7589,5894]},{"type":"Point","properties":{"Station_ID":"NCKN6","Station_Nam":"NORTH CREEK 5 SE","Latitude":"43.66110","Longitude":"-73.89690","Snowdepth":"6.000","Units":"in","Rept_Date":"2020-12-24 12"},"coordinates":[6829,4995]},{"type":"Point","properties":{"Station_ID":"MQT","Station_Nam":"MARQUETTE, MI","Latitude":"46.53140","Longitude":"-87.54920","Snowdepth":"6.000","Units":"in","Rept_Date":"2020-12-25 06"},"coordinates":[2835,6776]},{"type":"Point","properties":{"Station_ID":"MN-SE-2","Station_Nam":"OWATONNA 0.8 E, MN","Latitude":"44.09170","Longitude":"-93.21380","Snowdepth":"6.000","Units":"in","Rept_Date":"2020-12-24 13"},"coordinates":[1178,5262]},{"type":"Point","properties":{"Station_ID":"MN-SC-2","Station_Nam":"PRIOR LAKE 2.0 W, MN","Latitude":"44.71250","Longitude":"-93.46360","Snowdepth":"6.000","Units":"in","Rept_Date":"2020-12-24 13"},"coordinates":[1104,5647]},{"type":"Point","properties":{"Station_ID":"MN-RM-101","Station_Nam":"FALCON HEIGHTS 0.4 NNW, MN","Latitude":"44.99563","Longitude":"-93.17928","Snowdepth":"6.000","Units":"in","Rept_Date":"2020-12-24 13"},"coordinates":[1188,5823]},{"type":"Point","properties":{"Station_ID":"MN-LS-13","Station_Nam":"NEW PRAGUE 1.0 S, MN","Latitude":"44.53277","Longitude":"-93.57254","Snowdepth":"6.000","Units":"in","Rept_Date":"2020-12-24 14"},"coordinates":[1073,5536]},{"type":"Point","properties":{"Station_ID":"MN-IT-19","Station_Nam":"COHASSET 7.6 NNW, MN","Latitude":"47.34204","Longitude":"-93.69765","Snowdepth":"6.000","Units":"in","Rept_Date":"2020-12-24 13"},"coordinates":[1036,7278]},{"type":"Point","properties":{"Station_ID":"MN-IS-21","Station_Nam":"ISANTI 5.0 SW, MN","Latitude":"45.43360","Longitude":"-93.30200","Snowdepth":"6.000","Units":"in","Rept_Date":"2020-12-24 14"},"coordinates":[1152,6094]},{"type":"Point","properties":{"Station_ID":"MN-HN-267","Station_Nam":"MINNEAPOLIS 2.5 SE, MN","Latitude":"44.93331","Longitude":"-93.23680","Snowdepth":"6.000","Units":"in","Rept_Date":"2020-12-24 13"},"coordinates":[1171,5784]},{"type":"Point","properties":{"Station_ID":"MN-HN-110","Station_Nam":"EDINA 1.9 SSE, MN","Latitude":"44.86875","Longitude":"-93.33940","Snowdepth":"6.000","Units":"in","Rept_Date":"2020-12-24 13"},"coordinates":[1141,5744]},{"type":"Point","properties":{"Station_ID":"MN-GH-4","Station_Nam":"NERSTRAND 4.2 E, MN","Latitude":"44.34247","Longitude":"-92.97920","Snowdepth":"6.000","Units":"in","Rept_Date":"2020-12-24 13"},"coordinates":[1246,5417]},{"type":"Point","properties":{"Station_ID":"MN-DK-73","Station_Nam":"LAKEVILLE 2.6 NNE, MN","Latitude":"44.71250","Longitude":"-93.23043","Snowdepth":"6.000","Units":"in","Rept_Date":"2020-12-24 13"},"coordinates":[1173,5647]},{"type":"Point","properties":{"Station_ID":"MN-DK-53","Station_Nam":"LAKEVILLE 3.8 ENE, MN","Latitude":"44.70423","Longitude":"-93.18460","Snowdepth":"6.000","Units":"in","Rept_Date":"2020-12-24 13"},"coordinates":[1186,5642]},{"type":"Point","properties":{"Station_ID":"MN-DK-104","Station_Nam":"HASTINGS 1.6 NW, MN","Latitude":"44.74458","Longitude":"-92.88035","Snowdepth":"6.000","Units":"in","Rept_Date":"2020-12-24 13"},"coordinates":[1275,5667]},{"type":"Point","properties":{"Station_ID":"MN-CK-3","Station_Nam":"TOFTE 4.9 NE, MN","Latitude":"47.62394","Longitude":"-90.76100","Snowdepth":"6.000","Units":"in","Rept_Date":"2020-12-24 13"},"coordinates":[1895,7453]},{"type":"Point","properties":{"Station_ID":"MN-BW-8","Station_Nam":"COMFREY 6.5 ENE, MN","Latitude":"44.15109","Longitude":"-94.78516","Snowdepth":"6.000","Units":"in","Rept_Date":"2020-12-24 13"},"coordinates":[718,5299]},{"type":"Point","properties":{"Station_ID":"MI-KW-2","Station_Nam":"DELAWARE 5.2 SW, MI","Latitude":"47.36928","Longitude":"-88.17919","Snowdepth":"6.000","Units":"in","Rept_Date":"2020-12-24 09"},"coordinates":[2650,7295]},{"type":"Point","properties":{"Station_ID":"MHT","Station_Nam":"MANCHESTER AIRPORT GRENIER INDSTRL ARPK","Latitude":"42.93440","Longitude":"-71.43690","Snowdepth":"6.000","Units":"in","Rept_Date":"2020-12-24 12"},"coordinates":[7549,4544]},{"type":"Point","properties":{"Station_ID":"ME-SG-1","Station_Nam":"BATH 1.1 WSW, ME","Latitude":"43.93063","Longitude":"-69.85730","Snowdepth":"6.000","Units":"in","Rept_Date":"2020-12-24 12"},"coordinates":[8011,5162]},{"type":"Point","properties":{"Station_ID":"ME-LN-26","Station_Nam":"TREVETT 0.3 NE, ME","Latitude":"43.88780","Longitude":"-69.66903","Snowdepth":"6.000","Units":"in","Rept_Date":"2020-12-24 12"},"coordinates":[8066,5135]},{"type":"Point","properties":{"Station_ID":"ME-CM-98","Station_Nam":"SEBAGO 2.4 ESE, ME","Latitude":"43.88000","Longitude":"-70.63000","Snowdepth":"6.000","Units":"in","Rept_Date":"2020-12-24 14"},"coordinates":[7785,5131]},{"type":"Point","properties":{"Station_ID":"MAPM4","Station_Nam":"MAPLE CITY 1E","Latitude":"44.85500","Longitude":"-85.83520","Snowdepth":"6.000","Units":"in","Rept_Date":"2020-12-24 23"},"coordinates":[3336,5735]},{"type":"Point","properties":{"Station_ID":"MA-WR-56","Station_Nam":"STERLING 4.3 NW, MA","Latitude":"42.47540","Longitude":"-71.81140","Snowdepth":"6.000","Units":"in","Rept_Date":"2020-12-24 12"},"coordinates":[7439,4259]},{"type":"Point","properties":{"Station_ID":"MA-PL-23","Station_Nam":"PEMBROKE 2.8 SW, MA","Latitude":"42.03841","Longitude":"-70.83937","Snowdepth":"6.000","Units":"in","Rept_Date":"2020-12-24 13"},"coordinates":[7723,3988]},{"type":"Point","properties":{"Station_ID":"MA-PL-22","Station_Nam":"EAST BRIDGEWATER 0.3 WSW, MA","Latitude":"42.03202","Longitude":"-70.95479","Snowdepth":"6.000","Units":"in","Rept_Date":"2020-12-24 12"},"coordinates":[7690,3984]},{"type":"Point","properties":{"Station_ID":"MA-MD-52","Station_Nam":"LEXINGTON 0.6 SW, MA","Latitude":"42.43983","Longitude":"-71.24047","Snowdepth":"6.000","Units":"in","Rept_Date":"2020-12-24 12"},"coordinates":[7606,4237]},{"type":"Point","properties":{"Station_ID":"MA-MD-51","Station_Nam":"MAYNARD 0.7 ESE, MA","Latitude":"42.42027","Longitude":"-71.44484","Snowdepth":"6.000","Units":"in","Rept_Date":"2020-12-24 12"},"coordinates":[7546,4225]},{"type":"Point","properties":{"Station_ID":"MA-MD-47","Station_Nam":"WEST TOWNSEND 0.5 W, MA","Latitude":"42.67623","Longitude":"-71.74983","Snowdepth":"6.000","Units":"in","Rept_Date":"2020-12-24 11"},"coordinates":[7457,4384]},{"type":"Point","properties":{"Station_ID":"MA-MD-42","Station_Nam":"HOLLISTON 0.8 S, MA","Latitude":"42.18820","Longitude":"-71.43390","Snowdepth":"6.000","Units":"in","Rept_Date":"2020-12-24 12"},"coordinates":[7550,4081]},{"type":"Point","properties":{"Station_ID":"MA-HD-28","Station_Nam":"WESTFIELD 2.8 SE, MA","Latitude":"42.10685","Longitude":"-72.72148","Snowdepth":"6.000","Units":"in","Rept_Date":"2020-12-24 11"},"coordinates":[7173,4030]},{"type":"Point","properties":{"Station_ID":"MA-FR-12","Station_Nam":"SUNDERLAND 1.3 SE, MA","Latitude":"42.45217","Longitude":"-72.56610","Snowdepth":"6.000","Units":"in","Rept_Date":"2020-12-24 12"},"coordinates":[7218,4245]},{"type":"Point","properties":{"Station_ID":"MA-FR-10","Station_Nam":"CONWAY 0.9 SW, MA","Latitude":"42.50879","Longitude":"-72.69730","Snowdepth":"6.000","Units":"in","Rept_Date":"2020-12-24 13"},"coordinates":[7180,4280]},{"type":"Point","properties":{"Station_ID":"MA-ES-70","Station_Nam":"NEWBURYPORT 0.6 N, MA","Latitude":"42.82278","Longitude":"-70.88940","Snowdepth":"6.000","Units":"in","Rept_Date":"2020-12-24 12"},"coordinates":[7709,4475]},{"type":"Point","properties":{"Station_ID":"MA-ES-22","Station_Nam":"ROCKPORT 1.0 E, MA","Latitude":"42.64483","Longitude":"-70.59913","Snowdepth":"6.000","Units":"in","Rept_Date":"2020-12-24 12"},"coordinates":[7794,4364]},{"type":"Point","properties":{"Station_ID":"MA-BR-30","Station_Nam":"TAUNTON 3.9 N, MA","Latitude":"41.95813","Longitude":"-71.08211","Snowdepth":"6.000","Units":"in","Rept_Date":"2020-12-24 12"},"coordinates":[7652,3938]},{"type":"Point","properties":{"Station_ID":"MA-BE-3","Station_Nam":"STOCKBRIDGE .2 NNE, MA","Latitude":"42.28983","Longitude":"-73.31950","Snowdepth":"6.000","Units":"in","Rept_Date":"2020-12-24 11"},"coordinates":[6998,4144]},{"type":"Point","properties":{"Station_ID":"MA-BE-11","Station_Nam":"GREAT BARRINGTON 3.0 N, MA","Latitude":"42.23790","Longitude":"-73.35030","Snowdepth":"6.000","Units":"in","Rept_Date":"2020-12-24 12"},"coordinates":[6989,4112]},{"type":"Point","properties":{"Station_ID":"LVRM1","Station_Nam":"LIVERMORE FALLS 1 E","Latitude":"44.47160","Longitude":"-70.15940","Snowdepth":"6.000","Units":"in","Rept_Date":"2020-12-24 12"},"coordinates":[7922,5498]},{"type":"Point","properties":{"Station_ID":"KCLE","Station_Nam":"CLEVELAND-HOPKINS INTERNATIONAL","Latitude":"41.40000","Longitude":"-81.85000","Snowdepth":"6.000","Units":"in","Rept_Date":"2020-12-25 06"},"coordinates":[4502,3592]},{"type":"Point","properties":{"Station_ID":"JAPN3","Station_Nam":"JAFFREY SILVER RANCH AIRPARK","Latitude":"42.80880","Longitude":"-72.00530","Snowdepth":"6.000","Units":"in","Rept_Date":"2020-12-24 12"},"coordinates":[7382,4466]},{"type":"Point","properties":{"Station_ID":"ISEM5","Station_Nam":"ISLE 12N","Latitude":"46.31970","Longitude":"-93.50140","Snowdepth":"6.000","Units":"in","Rept_Date":"2020-12-24 14"},"coordinates":[1093,6644]},{"type":"Point","properties":{"Station_ID":"IA-SX-9","Station_Nam":"ORANGE CITY 0.3 ENE, IA","Latitude":"43.00598","Longitude":"-96.05268","Snowdepth":"6.000","Units":"in","Rept_Date":"2020-12-24 14"},"coordinates":[347,4588]},{"type":"Point","properties":{"Station_ID":"HUDN3","Station_Nam":"HUDSON 1 SSE","Latitude":"42.78300","Longitude":"-71.41480","Snowdepth":"6.000","Units":"in","Rept_Date":"2020-12-24 12"},"coordinates":[7555,4450]},{"type":"Point","properties":{"Station_ID":"HUBN3","Station_Nam":"HUBBARD BROOK","Latitude":"43.93330","Longitude":"-71.71670","Snowdepth":"6.000","Units":"in","Rept_Date":"2020-12-25 06"},"coordinates":[7467,5164]},{"type":"Point","properties":{"Station_ID":"HRTM1","Station_Nam":"HARTFORD","Latitude":"44.37440","Longitude":"-70.31620","Snowdepth":"6.000","Units":"in","Rept_Date":"2020-12-24 12"},"coordinates":[7877,5437]},{"type":"Point","properties":{"Station_ID":"HRKM3","Station_Nam":"HARDWICK 2 ESE","Latitude":"42.34570","Longitude":"-72.15410","Snowdepth":"6.000","Units":"in","Rept_Date":"2020-12-24 13"},"coordinates":[7339,4179]},{"type":"Point","properties":{"Station_ID":"HPN11_MADIS","Station_Nam":"SAINT BONIFACIUS","Latitude":"44.89792","Longitude":"-93.73460","Snowdepth":"6.000","Units":"in","Rept_Date":"2020-12-25 06"},"coordinates":[1025,5762]},{"type":"Point","properties":{"Station_ID":"HPN08_MADIS","Station_Nam":"ORONO","Latitude":"44.93630","Longitude":"-93.62000","Snowdepth":"6.000","Units":"in","Rept_Date":"2020-12-25 06"},"coordinates":[1059,5786]},{"type":"Point","properties":{"Station_ID":"GYX","Station_Nam":"PORTLAND, ME","Latitude":"43.89250","Longitude":"-70.25500","Snowdepth":"6.000","Units":"in","Rept_Date":"2020-12-24 12"},"coordinates":[7894,5138]},{"type":"Point","properties":{"Station_ID":"GRFM3","Station_Nam":"GREENFIELD NO. 3","Latitude":"42.57190","Longitude":"-72.59750","Snowdepth":"6.000","Units":"in","Rept_Date":"2020-12-24 12"},"coordinates":[7209,4319]},{"type":"Point","properties":{"Station_ID":"FORM5","Station_Nam":"FOREST LAKE 5NE","Latitude":"45.33170","Longitude":"-92.89820","Snowdepth":"6.000","Units":"in","Rept_Date":"2020-12-24 13"},"coordinates":[1270,6031]},{"type":"Point","properties":{"Station_ID":"FISM1","Station_Nam":"FORT KENT COOP","Latitude":"47.23850","Longitude":"-68.61240","Snowdepth":"6.000","Units":"in","Rept_Date":"2020-12-24 12"},"coordinates":[8375,7214]},{"type":"Point","properties":{"Station_ID":"FCHM3","Station_Nam":"FITCHBURG COOP","Latitude":"42.61680","Longitude":"-71.80170","Snowdepth":"6.000","Units":"in","Rept_Date":"2020-12-24 13"},"coordinates":[7442,4347]},{"type":"Point","properties":{"Station_ID":"DFXM1","Station_Nam":"DOVER-FOXCROFT","Latitude":"45.18720","Longitude":"-69.18350","Snowdepth":"6.000","Units":"in","Rept_Date":"2020-12-24 12"},"coordinates":[8208,5942]},{"type":"Point","properties":{"Station_ID":"CT-TL-33","Station_Nam":"TOLLAND 3.6 NNE, CT","Latitude":"41.91859","Longitude":"-72.33910","Snowdepth":"6.000","Units":"in","Rept_Date":"2020-12-24 12"},"coordinates":[7285,3914]},