{"type":"Topology","objects":{"snowdepth_geo":{"type":"GeometryCollection","name":"snowdepth","crs":{"type":"name","properties":{"name":"urn:ogc:def:crs:OGC:1.3:CRS84"}},"geometries":[{"type":"Point","properties":{"Station_ID":"HUBN3","Station_Nam":"HUBBARD BROOK","Latitude":"43.93330","Longitude":"-71.71670","Snowdepth":"205.000","Units":"in","Rept_Date":"2019-11-14 06"},"coordinates":[7485,5185]},{"type":"Point","properties":{"Station_ID":"PRKM4","Station_Nam":"MUNISING EAST","Latitude":"46.42580","Longitude":"-86.62000","Snowdepth":"76.500","Units":"in","Rept_Date":"2019-11-14 06"},"coordinates":[3100,6725]},{"type":"Point","properties":{"Station_ID":"OGIQ6","Station_Nam":"OGOKI CAMP","Latitude":"50.76680","Longitude":"-87.85820","Snowdepth":"61.100","Units":"in","Rept_Date":"2019-11-14 06"},"coordinates":[2735,9406]},{"type":"Point","properties":{"Station_ID":"AUDQ6","Station_Nam":"AUDEN","Latitude":"48.52600","Longitude":"-82.57570","Snowdepth":"47.640","Units":"in","Rept_Date":"2019-11-14 06"},"coordinates":[4290,8022]},{"type":"Point","properties":{"Station_ID":"DVLQ6","Station_Nam":"DEVIOUS LAKE","Latitude":"49.19890","Longitude":"-87.76440","Snowdepth":"43.460","Units":"in","Rept_Date":"2019-11-14 06"},"coordinates":[2763,8438]},{"type":"Point","properties":{"Station_ID":"MAPM4","Station_Nam":"MAPLE CITY 1E","Latitude":"44.85500","Longitude":"-85.83520","Snowdepth":"22.000","Units":"in","Rept_Date":"2019-11-13 22"},"coordinates":[3331,5754]},{"type":"Point","properties":{"Station_ID":"GMSM4","Station_Nam":"GRAND MARAIS 10S","Latitude":"46.50940","Longitude":"-85.96310","Snowdepth":"20.000","Units":"in","Rept_Date":"2019-11-13 12"},"coordinates":[3293,6776]},{"type":"Point","properties":{"Station_ID":"NWFM4","Station_Nam":"NW MICHIGAN RESEARCH FARM","Latitude":"44.88300","Longitude":"-85.67520","Snowdepth":"17.000","Units":"in","Rept_Date":"2019-11-13 13"},"coordinates":[3378,5772]},{"type":"Point","properties":{"Station_ID":"CAN-NB-50","Station_Nam":"DOYLEVILLE 2.4 WNW, CAN","Latitude":"47.90803","Longitude":"-66.13279","Snowdepth":"17.000","Units":"in","Rept_Date":"2019-11-13 13"},"coordinates":[9128,7640]},{"type":"Point","properties":{"Station_ID":"QOU","Station_Nam":"QOU","Latitude":"50.79250","Longitude":"-69.67470","Snowdepth":"15.236","Units":"in","Rept_Date":"2019-11-13 12"},"coordinates":[8086,9422]},{"type":"Point","properties":{"Station_ID":"QMA","Station_Nam":"QMA","Latitude":"50.10330","Longitude":"-70.47190","Snowdepth":"13.386","Units":"in","Rept_Date":"2019-11-13 12"},"coordinates":[7851,8996]},{"type":"Point","properties":{"Station_ID":"LEXM4","Station_Nam":"LEXINGTON WATER PLANT","Latitude":"43.26310","Longitude":"-82.53280","Snowdepth":"13.000","Units":"in","Rept_Date":"2019-11-13 12"},"coordinates":[4302,4771]},{"type":"Point","properties":{"Station_ID":"QGD","Station_Nam":"QGD","Latitude":"51.11140","Longitude":"-67.13940","Snowdepth":"12.953","Units":"in","Rept_Date":"2019-11-13 12"},"coordinates":[8832,9619]},{"type":"Point","properties":{"Station_ID":"QGO","Station_Nam":"QGO","Latitude":"48.85500","Longitude":"-74.20640","Snowdepth":"12.598","Units":"in","Rept_Date":"2019-11-13 12"},"coordinates":[6752,8225]},{"type":"Point","properties":{"Station_ID":"NY-WN-10","Station_Nam":"WALWORTH 1.7 SW, NY","Latitude":"43.12500","Longitude":"-77.29900","Snowdepth":"12.500","Units":"in","Rept_Date":"2019-11-13 12"},"coordinates":[5842,4686]},{"type":"Point","properties":{"Station_ID":"KSGM4","Station_Nam":"KEARSARGE","Latitude":"47.27520","Longitude":"-88.41700","Snowdepth":"12.000","Units":"in","Rept_Date":"2019-11-13 13"},"coordinates":[2571,7249]},{"type":"Point","properties":{"Station_ID":"HWLM4","Station_Nam":"HALFWAY LAKE","Latitude":"46.47480","Longitude":"-85.59250","Snowdepth":"12.000","Units":"in","Rept_Date":"2019-11-13 14"},"coordinates":[3402,6755]},{"type":"Point","properties":{"Station_ID":"VANM1","Station_Nam":"VAN BUREN","Latitude":"47.16600","Longitude":"-67.93900","Snowdepth":"11.000","Units":"in","Rept_Date":"2019-11-13 12"},"coordinates":[8597,7182]},{"type":"Point","properties":{"Station_ID":"OH-GG-4","Station_Nam":"MONTVILLE 1.2 SSE, OH","Latitude":"41.59030","Longitude":"-81.04800","Snowdepth":"11.000","Units":"in","Rept_Date":"2019-11-13 12"},"coordinates":[4739,3738]},{"type":"Point","properties":{"Station_ID":"NY-SL-6","Station_Nam":"HANNAWA FALLS 0.1 SW, NY","Latitude":"44.61154","Longitude":"-74.97190","Snowdepth":"11.000","Units":"in","Rept_Date":"2019-11-13 12"},"coordinates":[6527,5604]},{"type":"Point","properties":{"Station_ID":"NY-MR-71","Station_Nam":"ROCHESTER 4.7 NE, NY","Latitude":"43.21668","Longitude":"-77.55016","Snowdepth":"11.000","Units":"in","Rept_Date":"2019-11-13 12"},"coordinates":[5768,4742]},{"type":"Point","properties":{"Station_ID":"NY-GN-13","Station_Nam":"BATAVIA 3.4 WSW, NY","Latitude":"42.98866","Longitude":"-78.24729","Snowdepth":"11.000","Units":"in","Rept_Date":"2019-11-13 13"},"coordinates":[5563,4602]},{"type":"Point","properties":{"Station_ID":"MNSM4","Station_Nam":"MUNISING","Latitude":"46.41210","Longitude":"-86.66250","Snowdepth":"11.000","Units":"in","Rept_Date":"2019-11-13 11"},"coordinates":[3087,6716]},{"type":"Point","properties":{"Station_ID":"FISM1","Station_Nam":"FORT KENT COOP","Latitude":"47.23850","Longitude":"-68.61240","Snowdepth":"11.000","Units":"in","Rept_Date":"2019-11-13 12"},"coordinates":[8398,7227]},{"type":"Point","properties":{"Station_ID":"QMD","Station_Nam":"QMD","Latitude":"49.29060","Longitude":"-75.84500","Snowdepth":"10.905","Units":"in","Rept_Date":"2019-11-13 12"},"coordinates":[6270,8494]},{"type":"Point","properties":{"Station_ID":"MLZ","Station_Nam":"MLZ","Latitude":"50.66170","Longitude":"-68.82360","Snowdepth":"10.866","Units":"in","Rept_Date":"2019-11-13 12"},"coordinates":[8336,9341]},{"type":"Point","properties":{"Station_ID":"MI-OW-2","Station_Nam":"HOLLAND 3.9 NNE, MI","Latitude":"42.82296","Longitude":"-86.06780","Snowdepth":"10.500","Units":"in","Rept_Date":"2019-11-13 11"},"coordinates":[3262,4499]},{"type":"Point","properties":{"Station_ID":"MI-BN-5","Station_Nam":"BUCHANAN 1.3 WNW, MI","Latitude":"41.83634","Longitude":"-86.38900","Snowdepth":"10.500","Units":"in","Rept_Date":"2019-11-13 13"},"coordinates":[3168,3890]},{"type":"Point","properties":{"Station_ID":"ME-AR-23","Station_Nam":"MADAWASKA 2.5 E, ME","Latitude":"47.34933","Longitude":"-68.28141","Snowdepth":"10.500","Units":"in","Rept_Date":"2019-11-13 12"},"coordinates":[8496,7295]},{"type":"Point","properties":{"Station_ID":"WI-IR-3","Station_Nam":"PENCE 0.1 E, WI","Latitude":"46.41555","Longitude":"-90.27013","Snowdepth":"10.000","Units":"in","Rept_Date":"2019-11-13 13"},"coordinates":[2026,6718]},{"type":"Point","properties":{"Station_ID":"SKAN6","Station_Nam":"SKANEATELES","Latitude":"42.94610","Longitude":"-76.43130","Snowdepth":"10.000","Units":"in","Rept_Date":"2019-11-13 13"},"coordinates":[6098,4575]},{"type":"Point","properties":{"Station_ID":"ROC","Station_Nam":"GREATER ROCHESTER INTL","Latitude":"43.11890","Longitude":"-77.67280","Snowdepth":"10.000","Units":"in","Rept_Date":"2019-11-14 06"},"coordinates":[5732,4682]},{"type":"Point","properties":{"Station_ID":"PRGN6","Station_Nam":"PERRYSBURG","Latitude":"42.46470","Longitude":"-79.00310","Snowdepth":"10.000","Units":"in","Rept_Date":"2019-11-13 12"},"coordinates":[5341,4278]},{"type":"Point","properties":{"Station_ID":"PDLM4","Station_Nam":"PAINESDALE","Latitude":"47.04160","Longitude":"-88.67170","Snowdepth":"10.000","Units":"in","Rept_Date":"2019-11-13 13"},"coordinates":[2496,7105]},{"type":"Point","properties":{"Station_ID":"OH-GG-17","Station_Nam":"CHAGRIN FALLS 5.2 ESE, OH","Latitude":"41.41352","Longitude":"-81.29255","Snowdepth":"10.000","Units":"in","Rept_Date":"2019-11-13 12"},"coordinates":[4667,3629]},{"type":"Point","properties":{"Station_ID":"NY-NG-12","Station_Nam":"LOCKPORT 0.8 NE, NY","Latitude":"43.17645","Longitude":"-78.68340","Snowdepth":"10.000","Units":"in","Rept_Date":"2019-11-13 12"},"coordinates":[5435,4718]},{"type":"Point","properties":{"Station_ID":"LILM1","Station_Nam":"LILLE","Latitude":"47.27770","Longitude":"-68.10520","Snowdepth":"10.000","Units":"in","Rept_Date":"2019-11-13 12"},"coordinates":[8548,7251]},{"type":"Point","properties":{"Station_ID":"KROC","Station_Nam":"GREATER ROCHESTER INTERNATIONAL","Latitude":"43.11666","Longitude":"-77.68333","Snowdepth":"10.000","Units":"in","Rept_Date":"2019-11-14 06"},"coordinates":[5729,4681]},{"type":"Point","properties":{"Station_ID":"IRMM4","Station_Nam":"WWTP","Latitude":"46.46670","Longitude":"-90.18330","Snowdepth":"10.000","Units":"in","Rept_Date":"2019-11-13 13"},"coordinates":[2051,6750]},{"type":"Point","properties":{"Station_ID":"BERM4","Station_Nam":"BERGLAND DAM","Latitude":"46.58690","Longitude":"-89.54750","Snowdepth":"10.000","Units":"in","Rept_Date":"2019-11-13 13"},"coordinates":[2238,6824]},{"type":"Point","properties":{"Station_ID":"ANJM4","Station_Nam":"SNOW PAID OBSERVER FOR KANJ","Latitude":"46.48670","Longitude":"-84.40260","Snowdepth":"10.000","Units":"in","Rept_Date":"2019-11-14 06"},"coordinates":[3752,6762]},{"type":"Point","properties":{"Station_ID":"NY-WN-9","Station_Nam":"MARION 2.0 NE, NY","Latitude":"43.16668","Longitude":"-77.16750","Snowdepth":"9.700","Units":"in","Rept_Date":"2019-11-13 12"},"coordinates":[5881,4712]},{"type":"Point","properties":{"Station_ID":"CAN-NB-38","Station_Nam":"GRAND FALLS 2.2 NE, CA","Latitude":"47.05701","Longitude":"-67.72630","Snowdepth":"9.700","Units":"in","Rept_Date":"2019-11-13 11"},"coordinates":[8659,7115]},{"type":"Point","properties":{"Station_ID":"NY-OG-61","Station_Nam":"SKANEATELES 0.8 NNW, NY","Latitude":"42.95538","Longitude":"-76.43362","Snowdepth":"9.500","Units":"in","Rept_Date":"2019-11-13 12"},"coordinates":[6097,4581]},{"type":"Point","properties":{"Station_ID":"QLM","Station_Nam":"QLM","Latitude":"48.92030","Longitude":"-70.25280","Snowdepth":"9.488","Units":"in","Rept_Date":"2019-11-13 12"},"coordinates":[7916,8265]},{"type":"Point","properties":{"Station_ID":"MI-AN-20","Station_Nam":"HOLLAND 5.3 WSW, MI","Latitude":"42.74900","Longitude":"-86.20200","Snowdepth":"9.400","Units":"in","Rept_Date":"2019-11-13 13"},"coordinates":[3223,4454]},{"type":"Point","properties":{"Station_ID":"CAN-ON-491","Station_Nam":"MILVERTON 1.1 ESE- CANWARN, CAN","Latitude":"43.56074","Longitude":"-80.90887","Snowdepth":"9.300","Units":"in","Rept_Date":"2019-11-13 11"},"coordinates":[4780,4955]},{"type":"Point","properties":{"Station_ID":"TCMM4","Station_Nam":"TRAVERSE CITY MUNSON","Latitude":"44.76070","Longitude":"-85.64430","Snowdepth":"9.000","Units":"in","Rept_Date":"2019-11-13 11"},"coordinates":[3387,5696]},{"type":"Point","properties":{"Station_ID":"RICM4","Station_Nam":"RICHMOND 4 NNW","Latitude":"42.87830","Longitude":"-82.79580","Snowdepth":"9.000","Units":"in","Rept_Date":"2019-11-13 13"},"coordinates":[4225,4533]},{"type":"Point","properties":{"Station_ID":"PRHM4","Station_Nam":"PORT HURON,MI","Latitude":"42.98330","Longitude":"-82.41670","Snowdepth":"9.000","Units":"in","Rept_Date":"2019-11-13 12"},"coordinates":[4337,4598]},{"type":"Point","properties":{"Station_ID":"OH-GG-11","Station_Nam":"MADISON 4.2 S, OH","Latitude":"41.71238","Longitude":"-81.03871","Snowdepth":"9.000","Units":"in","Rept_Date":"2019-11-13 12"},"coordinates":[4742,3813]},{"type":"Point","properties":{"Station_ID":"NY-GN-6","Station_Nam":"STAFFORD 1.8 NE, NY","Latitude":"42.99890","Longitude":"-78.04830","Snowdepth":"9.000","Units":"in","Rept_Date":"2019-11-13 11"},"coordinates":[5622,4608]},{"type":"Point","properties":{"Station_ID":"NY-ES-7","Station_Nam":"KEESEVILLE 0.8 SE, NY","Latitude":"44.49504","Longitude":"-73.47109","Snowdepth":"9.000","Units":"in","Rept_Date":"2019-11-13 12"},"coordinates":[6969,5532]},{"type":"Point","properties":{"Station_ID":"MALN6","Station_Nam":"MALONE","Latitude":"44.84180","Longitude":"-74.30600","Snowdepth":"9.000","Units":"in","Rept_Date":"2019-11-13 12"},"coordinates":[6723,5746]},{"type":"Point","properties":{"Station_ID":"LERN6","Station_Nam":"LE ROY 1E","Latitude":"42.97360","Longitude":"-77.96710","Snowdepth":"9.000","Units":"in","Rept_Date":"2019-11-13 13"},"coordinates":[5646,4592]},{"type":"Point","properties":{"Station_ID":"KTVC","Station_Nam":"CHERRY CAPITAL AIRPORT","Latitude":"44.73333","Longitude":"-85.56666","Snowdepth":"9.000","Units":"in","Rept_Date":"2019-11-14 00"},"coordinates":[3410,5679]},{"type":"Point","properties":{"Station_ID":"JOHV1","Station_Nam":"JOHNSON 2 N","Latitude":"44.65790","Longitude":"-72.67850","Snowdepth":"9.000","Units":"in","Rept_Date":"2019-11-13 12"},"coordinates":[7202,5633]},{"type":"Point","properties":{"Station_ID":"FLAM4","Station_Nam":"FIFE LAKE 2WNW","Latitude":"44.58480","Longitude":"-85.36530","Snowdepth":"9.000","Units":"in","Rept_Date":"2019-11-13 12"},"coordinates":[3469,5587]},{"type":"Point","properties":{"Station_ID":"CEFM4","Station_Nam":"EXPERIMENT FARM #2","Latitude":"46.33330","Longitude":"-86.91670","Snowdepth":"9.000","Units":"in","Rept_Date":"2019-11-13 13"},"coordinates":[3012,6667]},{"type":"Point","properties":{"Station_ID":"BUNM4","Station_Nam":"BURTON 4N","Latitude":"43.06750","Longitude":"-83.59190","Snowdepth":"9.000","Units":"in","Rept_Date":"2019-11-13 12"},"coordinates":[3991,4650]},{"type":"Point","properties":{"Station_ID":"ATMM4","Station_Nam":"ATLANTIC MINE 5NW","Latitude":"47.15440","Longitude":"-88.71670","Snowdepth":"9.000","Units":"in","Rept_Date":"2019-11-13 15"},"coordinates":[2483,7175]},{"type":"Point","properties":{"Station_ID":"ABNN6","Station_Nam":"ALBION","Latitude":"43.26330","Longitude":"-78.21520","Snowdepth":"9.000","Units":"in","Rept_Date":"2019-11-13 23"},"coordinates":[5573,4771]},{"type":"Point","properties":{"Station_ID":"CAN-QC-47","Station_Nam":"SAINTE-FOY 1.8 ENE, CAN","Latitude":"46.76934","Longitude":"-71.27124","Snowdepth":"8.700","Units":"in","Rept_Date":"2019-11-13 12"},"coordinates":[7616,6937]},{"type":"Point","properties":{"Station_ID":"CAN-ON-46","Station_Nam":"WROXETER 0.3 WSW - MVCA, CAN","Latitude":"43.86365","Longitude":"-81.15225","Snowdepth":"8.700","Units":"in","Rept_Date":"2019-11-13 13"},"coordinates":[4709,5142]},{"type":"Point","properties":{"Station_ID":"NY-ER-138","Station_Nam":"EAST AURORA 3.4 NNE, NY","Latitude":"42.81400","Longitude":"-78.59670","Snowdepth":"8.600","Units":"in","Rept_Date":"2019-11-13 12"},"coordinates":[5461,4494]},{"type":"Point","properties":{"Station_ID":"OH-GG-16","Station_Nam":"CHARDON 5.1 SSE, OH","Latitude":"41.50776","Longitude":"-81.18304","Snowdepth":"8.500","Units":"in","Rept_Date":"2019-11-13 12"},"coordinates":[4700,3687]},{"type":"Point","properties":{"Station_ID":"NY-ER-158","Station_Nam":"EAST AURORA 2.7 SSE, NY","Latitude":"42.72936","Longitude":"-78.60561","Snowdepth":"8.500","Units":"in","Rept_Date":"2019-11-13 13"},"coordinates":[5458,4441]},{"type":"Point","properties":{"Station_ID":"MI-VB-4","Station_Nam":"PAW PAW 3.6 NNE, MI","Latitude":"42.26582","Longitude":"-85.86190","Snowdepth":"8.500","Units":"in","Rept_Date":"2019-11-13 12"},"coordinates":[3323,4155]},{"type":"Point","properties":{"Station_ID":"MI-VB-13","Station_Nam":"PAW PAW 2.0 NE, MI","Latitude":"42.23743","Longitude":"-85.86171","Snowdepth":"8.500","Units":"in","Rept_Date":"2019-11-13 12"},"coordinates":[3323,4138]},{"type":"Point","properties":{"Station_ID":"MI-MB-55","Station_Nam":"FRASER 1.2 N, MI","Latitude":"42.55697","Longitude":"-82.94938","Snowdepth":"8.500","Units":"in","Rept_Date":"2019-11-13 12"},"coordinates":[4180,4335]},{"type":"Point","properties":{"Station_ID":"CAN-NB-13","Station_Nam":"BATHURST 3.8 NW, CAN","Latitude":"47.64212","Longitude":"-65.68756","Snowdepth":"8.500","Units":"in","Rept_Date":"2019-11-13 11"},"coordinates":[9259,7476]},{"type":"Point","properties":{"Station_ID":"QCX","Station_Nam":"QCX","Latitude":"51.32830","Longitude":"-70.08060","Snowdepth":"8.307","Units":"in","Rept_Date":"2019-11-13 12"},"coordinates":[7966,9753]},{"type":"Point","properties":{"Station_ID":"NY-ER-65","Station_Nam":"BOSTON 1.5 NE, NY","Latitude":"42.65470","Longitude":"-78.72010","Snowdepth":"8.300","Units":"in","Rept_Date":"2019-11-13 12"},"coordinates":[5424,4395]},{"type":"Point","properties":{"Station_ID":"MI-WS-3","Station_Nam":"PLYMOUTH 5.4 W, MI","Latitude":"42.38279","Longitude":"-83.57120","Snowdepth":"8.100","Units":"in","Rept_Date":"2019-11-13 12"},"coordinates":[3997,4227]},{"type":"Point","properties":{"Station_ID":"SCOM4","Station_Nam":"SCOTTVILLE 2 SE","Latitude":"43.93310","Longitude":"-86.24530","Snowdepth":"8.000","Units":"in","Rept_Date":"2019-11-13 12"},"coordinates":[3210,5185]},{"type":"Point","properties":{"Station_ID":"SBNN6","Station_Nam":"SANBORN","Latitude":"43.17050","Longitude":"-78.81810","Snowdepth":"8.000","Units":"in","Rept_Date":"2019-11-13 12"},"coordinates":[5395,4714]},{"type":"Point","properties":{"Station_ID":"OH-TR-4","Station_Nam":"NEWTON FALLS 0.6 N, OH","Latitude":"41.19773","Longitude":"-80.97210","Snowdepth":"8.000","Units":"in","Rept_Date":"2019-11-13 12"},"coordinates":[4762,3495]},{"type":"Point","properties":{"Station_ID":"OH-PT-9","Station_Nam":"HIRAM 0.4 N, OH","Latitude":"41.31595","Longitude":"-81.14340","Snowdepth":"8.000","Units":"in","Rept_Date":"2019-11-13 13"},"coordinates":[4711,3568]},{"type":"Point","properties":{"Station_ID":"OH-PT-13","Station_Nam":"MANTUA 1.0 NNW, OH","Latitude":"41.29421","Longitude":"-81.23160","Snowdepth":"8.000","Units":"in","Rept_Date":"2019-11-13 12"},"coordinates":[4685,3555]},{"type":"Point","properties":{"Station_ID":"NY-ER-86","Station_Nam":"TONAWANDA 1.5 NNE, NY","Latitude":"43.00507","Longitude":"-78.86600","Snowdepth":"8.000","Units":"in","Rept_Date":"2019-11-13 14"},"coordinates":[5381,4612]},{"type":"Point","properties":{"Station_ID":"NY-ER-60","Station_Nam":"BLASDELL 1.5 SSW, NY","Latitude":"42.77657","Longitude":"-78.84440","Snowdepth":"8.000","Units":"in","Rept_Date":"2019-11-13 12"},"coordinates":[5388,4471]},{"type":"Point","properties":{"Station_ID":"NY-ER-59","Station_Nam":"KENMORE 0.3 ESE, NY","Latitude":"42.96316","Longitude":"-78.86690","Snowdepth":"8.000","Units":"in","Rept_Date":"2019-11-13 12"},"coordinates":[5381,4586]},{"type":"Point","properties":{"Station_ID":"NY-ER-178","Station_Nam":"WEST SENECA 2.5 SE, NY","Latitude":"42.81374","Longitude":"-78.71399","Snowdepth":"8.000","Units":"in","Rept_Date":"2019-11-13 12"},"coordinates":[5426,4494]},{"type":"Point","properties":{"Station_ID":"NY-ER-13","Station_Nam":"WEST SENECA 2.3 NW, NY","Latitude":"42.85926","Longitude":"-78.78539","Snowdepth":"8.000","Units":"in","Rept_Date":"2019-11-13 12"},"coordinates":[5405,4522]},{"type":"Point","properties":{"Station_ID":"NY-ER-102","Station_Nam":"CHEEKTOWAGA 2.7 NE, NY","Latitude":"42.94119","Longitude":"-78.71933","Snowdepth":"8.000","Units":"in","Rept_Date":"2019-11-13 12"},"coordinates":[5424,4572]},{"type":"Point","properties":{"Station_ID":"NY-CT-2","Station_Nam":"RANDOLPH 1.1 ENE, NY","Latitude":"42.17056","Longitude":"-78.96120","Snowdepth":"8.000","Units":"in","Rept_Date":"2019-11-13 12"},"coordinates":[5353,4096]},{"type":"Point","properties":{"Station_ID":"NY-CL-7","Station_Nam":"PERU 4.1 ESE, NY","Latitude":"44.56461","Longitude":"-73.45390","Snowdepth":"8.000","Units":"in","Rept_Date":"2019-11-13 11"},"coordinates":[6974,5575]},{"type":"Point","properties":{"Station_ID":"NWCM4","Station_Nam":"NEWBERRY CITY","Latitude":"46.35720","Longitude":"-85.51780","Snowdepth":"8.000","Units":"in","Rept_Date":"2019-11-13 12"},"coordinates":[3424,6682]},{"type":"Point","properties":{"Station_ID":"NALN6","Station_Nam":"CATTARAUGUS","Latitude":"42.32450","Longitude":"-78.86700","Snowdepth":"8.000","Units":"in","Rept_Date":"2019-11-13 13"},"coordinates":[5381,4191]},{"type":"Point","properties":{"Station_ID":"MI-WY-7","Station_Nam":"DEARBORN 3.5 NE, MI","Latitude":"42.35000","Longitude":"-83.17000","Snowdepth":"8.000","Units":"in","Rept_Date":"2019-11-13 12"},"coordinates":[4115,4207]},{"type":"Point","properties":{"Station_ID":"MI-WS-42","Station_Nam":"ANN ARBOR 4.5 W, MI","Latitude":"42.27814","Longitude":"-83.81884","Snowdepth":"8.000","Units":"in","Rept_Date":"2019-11-13 12"},"coordinates":[3924,4163]},{"type":"Point","properties":{"Station_ID":"MI-VB-12","Station_Nam":"PAW PAW 0.7 ESE, MI","Latitude":"42.21583","Longitude":"-85.87741","Snowdepth":"8.000","Units":"in","Rept_Date":"2019-11-14 02"},"coordinates":[3318,4124]},{"type":"Point","properties":{"Station_ID":"MEDN6","Station_Nam":"MEDINA","Latitude":"43.20930","Longitude":"-78.38940","Snowdepth":"8.000","Units":"in","Rept_Date":"2019-11-13 11"},"coordinates":[5522,4738]},{"type":"Point","properties":{"Station_ID":"MCHM4","Station_Nam":"MANCHESTER,MI","Latitude":"42.15000","Longitude":"-84.01670","Snowdepth":"8.000","Units":"in","Rept_Date":"2019-11-13 12"},"coordinates":[3866,4084]},{"type":"Point","properties":{"Station_ID":"LPRM4","Station_Nam":"OAKDALE REGIONAL CENTER","Latitude":"43.05000","Longitude":"-83.35000","Snowdepth":"8.000","Units":"in","Rept_Date":"2019-11-13 12"},"coordinates":[4062,4639]},{"type":"Point","properties":{"Station_ID":"LPEM4","Station_Nam":"LAPEER,MI","Latitude":"43.06280","Longitude":"-83.33330","Snowdepth":"8.000","Units":"in","Rept_Date":"2019-11-13 17"},"coordinates":[4067,4647]},{"type":"Point","properties":{"Station_ID":"JEFV1","Station_Nam":"JEFFERSONVILLE","Latitude":"44.58430","Longitude":"-72.78700","Snowdepth":"8.000","Units":"in","Rept_Date":"2019-11-13 12"},"coordinates":[7170,5587]},{"type":"Point","properties":{"Station_ID":"JEFN3","Station_Nam":"JEFFERSON","Latitude":"44.41690","Longitude":"-71.50080","Snowdepth":"8.000","Units":"in","Rept_Date":"2019-11-13 12"},"coordinates":[7548,5484]},{"type":"Point","properties":{"Station_ID":"IN-EL-59","Station_Nam":"GOSHEN 1.2 SW, IN","Latitude":"41.56898","Longitude":"-85.85356","Snowdepth":"8.000","Units":"in","Rept_Date":"2019-11-13 12"},"coordinates":[3325,3725]},{"type":"Point","properties":{"Station_ID":"HURW3","Station_Nam":"HURLEY","Latitude":"46.46250","Longitude":"-90.19550","Snowdepth":"8.000","Units":"in","Rept_Date":"2019-11-13 14"},"coordinates":[2048,6747]},{"type":"Point","properties":{"Station_ID":"GPFM4","Station_Nam":"GROSSE POINTE FARMS,MI","Latitude":"42.38330","Longitude":"-82.90000","Snowdepth":"8.000","Units":"in","Rept_Date":"2019-11-13 13"},"coordinates":[4194,4228]},{"type":"Point","properties":{"Station_ID":"GNLM4","Station_Nam":"GREENLAND 6N","Latitude":"46.87360","Longitude":"-89.10060","Snowdepth":"8.000","Units":"in","Rept_Date":"2019-11-13 13"},"coordinates":[2370,7001]},{"type":"Point","properties":{"Station_ID":"DBNM4","Station_Nam":"DEARBORN NO.2","Latitude":"42.34670","Longitude":"-83.17420","Snowdepth":"8.000","Units":"in","Rept_Date":"2019-11-13 13"},"coordinates":[4114,4205]},{"type":"Point","properties":{"Station_ID":"CARM1","Station_Nam":"CARIBOU WFO","Latitude":"46.86810","Longitude":"-68.01250","Snowdepth":"8.000","Units":"in","Rept_Date":"2019-11-14 05"},"coordinates":[8575,6998]},{"type":"Point","properties":{"Station_ID":"BRAM1","Station_Nam":"BRASSUA DAM","Latitude":"45.66020","Longitude":"-69.81190","Snowdepth":"8.000","Units":"in","Rept_Date":"2019-11-13 12"},"coordinates":[8045,6252]},{"type":"Point","properties":{"Station_ID":"ARBM4","Station_Nam":"UNIV OF MICH","Latitude":"42.30000","Longitude":"-83.71670","Snowdepth":"8.000","Units":"in","Rept_Date":"2019-11-13 23"},"coordinates":[3954,4176]},{"type":"Point","properties":{"Station_ID":"ANJ","Station_Nam":"SAULT STE MARIE","Latitude":"46.46670","Longitude":"-84.36670","Snowdepth":"8.000","Units":"in","Rept_Date":"2019-11-14 00"},"coordinates":[3763,6750]},{"type":"Point","properties":{"Station_ID":"AASM4","Station_Nam":"ANN ARBOR SE","Latitude":"42.24160","Longitude":"-83.69330","Snowdepth":"8.000","Units":"in","Rept_Date":"2019-11-13 12"},"coordinates":[3961,4140]},{"type":"Point","properties":{"Station_ID":"MI-AT-6","Station_Nam":"MANCELONA 0.5 ESE, MI","Latitude":"44.89981","Longitude":"-85.05100","Snowdepth":"7.900","Units":"in","Rept_Date":"2019-11-13 13"},"coordinates":[3561,5782]},{"type":"Point","properties":{"Station_ID":"NY-CQ-5","Station_Nam":"KENNEDY 0.3 NE, NY","Latitude":"42.15935","Longitude":"-79.09670","Snowdepth":"7.800","Units":"in","Rept_Date":"2019-11-13 11"},"coordinates":[5313,4089]},{"type":"Point","properties":{"Station_ID":"CAN-QC-16","Station_Nam":"SAINT-ARMAND 3.6 W, CAN","Latitude":"45.02631","Longitude":"-73.08795","Snowdepth":"7.800","Units":"in","Rept_Date":"2019-11-13 12"},"coordinates":[7081,5860]},{"type":"Point","properties":{"Station_ID":"QWE","Station_Nam":"QWE","Latitude":"47.84610","Longitude":"-73.80670","Snowdepth":"7.795","Units":"in","Rept_Date":"2019-11-13 12"},"coordinates":[6870,7602]},{"type":"Point","properties":{"Station_ID":"QCO","Station_Nam":"QCO","Latitude":"51.45280","Longitude":"-72.20110","Snowdepth":"7.795","Units":"in","Rept_Date":"2019-11-13 12"},"coordinates":[7342,9830]},{"type":"Point","properties":{"Station_ID":"QTM","Station_Nam":"QTM","Latitude":"51.05780","Longitude":"-72.57190","Snowdepth":"7.559","Units":"in","Rept_Date":"2019-11-13 12"},"coordinates":[7233,9586]},{"type":"Point","properties":{"Station_ID":"MI-WS-41","Station_Nam":"ANN ARBOR 7.1 W, MI","Latitude":"42.26390","Longitude":"-83.86940","Snowdepth":"7.500","Units":"in","Rept_Date":"2019-11-13 12"},"coordinates":[3909,4154]},{"type":"Point","properties":{"Station_ID":"MI-OK-112","Station_Nam":"TROY 2.8 W, MI","Latitude":"42.57358","Longitude":"-83.19643","Snowdepth":"7.500","Units":"in","Rept_Date":"2019-11-13 12"},"coordinates":[4107,4345]},{"type":"Point","properties":{"Station_ID":"MI-MB-9","Station_Nam":"NEW BALTIMORE 0.4 SSE, MI","Latitude":"42.67702","Longitude":"-82.73570","Snowdepth":"7.500","Units":"in","Rept_Date":"2019-11-13 13"},"coordinates":[4243,4409]},{"type":"Point","properties":{"Station_ID":"MI-MB-7","Station_Nam":"SHELBY 0.4 SSE, MI","Latitude":"42.66594","Longitude":"-83.02870","Snowdepth":"7.500","Units":"in","Rept_Date":"2019-11-13 12"},"coordinates":[4156,4402]},{"type":"Point","properties":{"Station_ID":"QLP","Station_Nam":"QLP","Latitude":"48.13920","Longitude":"-72.63830","Snowdepth":"7.402","Units":"in","Rept_Date":"2019-11-13 12"},"coordinates":[7214,7783]},{"type":"Point","properties":{"Station_ID":"QCU","Station_Nam":"QCU","Latitude":"47.82750","Longitude":"-76.59830","Snowdepth":"7.402","Units":"in","Rept_Date":"2019-11-13 12"},"coordinates":[6049,7590]},{"type":"Point","properties":{"Station_ID":"CAN-QC-51","Station_Nam":"BELOEIL 0.7 NW, CAN","Latitude":"45.58049","Longitude":"-73.21218","Snowdepth":"7.300","Units":"in","Rept_Date":"2019-11-13 12"},"coordinates":[7045,6202]},{"type":"Point","properties":{"Station_ID":"NY-WN-18","Station_Nam":"MACEDON 2.6 ESE, NY","Latitude":"43.05200","Longitude":"-77.25700","Snowdepth":"7.200","Units":"in","Rept_Date":"2019-11-13 11"},"coordinates":[5855,4641]},{"type":"Point","properties":{"Station_ID":"NY-NG-30","Station_Nam":"LOCKPORT 2.5 ESE, NY","Latitude":"43.15207","Longitude":"-78.65338","Snowdepth":"7.200","Units":"in","Rept_Date":"2019-11-13 12"},"coordinates":[5444,4703]},{"type":"Point","properties":{"Station_ID":"NY-FK-9","Station_Nam":"GABRIELS 1.3 SE, NY","Latitude":"44.41934","Longitude":"-74.16194","Snowdepth":"7.200","Units":"in","Rept_Date":"2019-11-13 12"},"coordinates":[6765,5485]},{"type":"Point","properties":{"Station_ID":"QFT","Station_Nam":"QFT","Latitude":"50.83280","Longitude":"-74.40390","Snowdepth":"7.126","Units":"in","Rept_Date":"2019-11-13 12"},"coordinates":[6694,9447]},{"type":"Point","properties":{"Station_ID":"VT-OL-5","Station_Nam":"DERBY CENTER 1.8 NW, VT","Latitude":"44.97200","Longitude":"-72.14780","Snowdepth":"7.100","Units":"in","Rept_Date":"2019-11-13 12"},"coordinates":[7358,5827]},{"type":"Point","properties":{"Station_ID":"WYTM4","Station_Nam":"WYANDOTTE","Latitude":"42.20110","Longitude":"-83.16830","Snowdepth":"7.000","Units":"in","Rept_Date":"2019-11-13 13"},"coordinates":[4115,4115]},{"type":"Point","properties":{"Station_ID":"WYON6","Station_Nam":"WYOMING 3W","Latitude":"42.81750","Longitude":"-78.14810","Snowdepth":"7.000","Units":"in","Rept_Date":"2019-11-13 12"},"coordinates":[5593,4496]},{"type":"Point","properties":{"Station_ID":"WLSN6","Station_Nam":"WALES","Latitude":"42.73920","Longitude":"-78.58780","Snowdepth":"7.000","Units":"in","Rept_Date":"2019-11-13 12"},"coordinates":[5463,4447]},{"type":"Point","properties":{"Station_ID":"WLNM4","Station_Nam":"WELLSTON 1N","Latitude":"44.22940","Longitude":"-85.95690","Snowdepth":"7.000","Units":"in","Rept_Date":"2019-11-13 12"},"coordinates":[3295,5368]},{"type":"Point","properties":{"Station_ID":"WHKM4","Station_Nam":"WHITE LAKE,MI","Latitude":"42.69750","Longitude":"-83.47220","Snowdepth":"7.000","Units":"in","Rept_Date":"2019-11-14 06"},"coordinates":[4026,4422]},{"type":"Point","properties":{"Station_ID":"WHFN6","Station_Nam":"WILMINGTON 2W","Latitude":"44.39310","Longitude":"-73.85890","Snowdepth":"7.000","Units":"in","Rept_Date":"2019-11-13 13"},"coordinates":[6855,5469]},{"type":"Point","properties":{"Station_ID":"VT-GI-3","Station_Nam":"ALBURGH 4.6 SSE, VT","Latitude":"44.91280","Longitude":"-73.26890","Snowdepth":"7.000","Units":"in","Rept_Date":"2019-11-13 13"},"coordinates":[7028,5790]},{"type":"Point","properties":{"Station_ID":"VT-ES-3","Station_Nam":"LUNENBURG 2.3 NNW, VT","Latitude":"44.49324","Longitude":"-71.70446","Snowdepth":"7.000","Units":"in","Rept_Date":"2019-11-13 10"},"coordinates":[7489,5531]},{"type":"Point","properties":{"Station_ID":"VT-CH-4","Station_Nam":"UNDERHILL 4.4 NNE, VT","Latitude":"44.58774","Longitude":"-72.92250","Snowdepth":"7.000","Units":"in","Rept_Date":"2019-11-13 12"},"coordinates":[7130,5589]},{"type":"Point","properties":{"Station_ID":"SVSN6","Station_Nam":"SILVER SPRINGS 3N","Latitude":"42.70580","Longitude":"-78.09370","Snowdepth":"7.000","Units":"in","Rept_Date":"2019-11-13 12"},"coordinates":[5609,4427]},{"type":"Point","properties":{"Station_ID":"SILN6","Station_Nam":"SILVER CREEK","Latitude":"42.53800","Longitude":"-79.16990","Snowdepth":"7.000","Units":"in","Rept_Date":"2019-11-13 12"},"coordinates":[5292,4323]},{"type":"Point","properties":{"Station_ID":"SALM4","Station_Nam":"SALINE,MI","Latitude":"42.16670","Longitude":"-83.78330","Snowdepth":"7.000","Units":"in","Rept_Date":"2019-11-13 13"},"coordinates":[3934,4094]},{"type":"Point","properties":{"Station_ID":"RKWM1","Station_Nam":"MOOSEHEAD LAKE","Latitude":"45.58330","Longitude":"-69.71670","Snowdepth":"7.000","Units":"in","Rept_Date":"2019-11-13 12"},"coordinates":[8073,6204]},{"type":"Point","properties":{"Station_ID":"QNCM4","Station_Nam":"QUINCY HILL","Latitude":"47.13640","Longitude":"-88.57950","Snowdepth":"7.000","Units":"in","Rept_Date":"2019-11-13 12"},"coordinates":[2523,7164]},{"type":"Point","properties":{"Station_ID":"PA-ER-5","Station_Nam":"NORTH EAST 1.2 WNW, PA","Latitude":"42.22058","Longitude":"-79.85510","Snowdepth":"7.000","Units":"in","Rept_Date":"2019-11-13 13"},"coordinates":[5090,4127]},{"type":"Point","properties":{"Station_ID":"OH-PT-17","Station_Nam":"KENT 1.5 W, OH","Latitude":"41.14718","Longitude":"-81.39079","Snowdepth":"7.000","Units":"in","Rept_Date":"2019-11-13 12"},"coordinates":[4638,3464]},{"type":"Point","properties":{"Station_ID":"OH-PT-15","Station_Nam":"AURORA 2.0 W, OH","Latitude":"41.31224","Longitude":"-81.38221","Snowdepth":"7.000","Units":"in","Rept_Date":"2019-11-13 12"},"coordinates":[4641,3566]},{"type":"Point","properties":{"Station_ID":"OBEO1","Station_Nam":"OBERLIN,OH","Latitude":"41.26670","Longitude":"-82.21670","Snowdepth":"7.000","Units":"in","Rept_Date":"2019-11-13 13"},"coordinates":[4395,3538]},{"type":"Point","properties":{"Station_ID":"NY-WY-10","Station_Nam":"WYOMING COOP, NY","Latitude":"42.82060","Longitude":"-78.14810","Snowdepth":"7.000","Units":"in","Rept_Date":"2019-11-13 12"},"coordinates":[5593,4498]},{"type":"Point","properties":{"Station_ID":"NY-WN-6","Station_Nam":"PALMYRA 1.6 NW, NY","Latitude":"43.07950","Longitude":"-77.25260","Snowdepth":"7.000","Units":"in","Rept_Date":"2019-11-13 13"},"coordinates":[5856,4658]},{"type":"Point","properties":{"Station_ID":"NY-NG-2","Station_Nam":"NORTH TONAWANDA 1.0 NNE, NY","Latitude":"43.05725","Longitude":"-78.86170","Snowdepth":"7.000","Units":"in","Rept_Date":"2019-11-13 12"},"coordinates":[5383,4644]},{"type":"Point","properties":{"Station_ID":"NY-MD-10","Station_Nam":"CAZENOVIA 2.9 SE, NY","Latitude":"42.90003","Longitude":"-75.81140","Snowdepth":"7.000","Units":"in","Rept_Date":"2019-11-13 12"},"coordinates":[6280,4547]},{"type":"Point","properties":{"Station_ID":"NY-ER-75","Station_Nam":"ELMA CENTER 0.7 SE, NY","Latitude":"42.81936","Longitude":"-78.62140","Snowdepth":"7.000","Units":"in","Rept_Date":"2019-11-13 14"},"coordinates":[5453,4497]},{"type":"Point","properties":{"Station_ID":"NY-ER-50","Station_Nam":"EAST AURORA 0.1 ENE, NY","Latitude":"42.76750","Longitude":"-78.61580","Snowdepth":"7.000","Units":"in","Rept_Date":"2019-11-13 12"},"coordinates":[5455,4465]},{"type":"Point","properties":{"Station_ID":"NY-ER-39","Station_Nam":"HAMBURG 0.4 WSW, NY","Latitude":"42.72253","Longitude":"-78.84330","Snowdepth":"7.000","Units":"in","Rept_Date":"2019-11-13 12"},"coordinates":[5388,4437]},{"type":"Point","properties":{"Station_ID":"NY-ER-166","Station_Nam":"BOSTON 2.5 NE, NY","Latitude":"42.65480","Longitude":"-78.70300","Snowdepth":"7.000","Units":"in","Rept_Date":"2019-11-13 12"},"coordinates":[5429,4395]},{"type":"Point","properties":{"Station_ID":"NY-ER-151","Station_Nam":"CLARENCE CENTER 0.2 ESE, NY","Latitude":"43.00742","Longitude":"-78.62917","Snowdepth":"7.000","Units":"in","Rept_Date":"2019-11-13 12"},"coordinates":[5451,4613]},{"type":"Point","properties":{"Station_ID":"NY-ER-122","Station_Nam":"CHEEKTOWAGA 2.4 NW, NY","Latitude":"42.93457","Longitude":"-78.78295","Snowdepth":"7.000","Units":"in","Rept_Date":"2019-11-13 12"},"coordinates":[5406,4568]},{"type":"Point","properties":{"Station_ID":"NY-CT-22","Station_Nam":"FRANKLINVILLE 0.5 NNE, NY","Latitude":"42.34166","Longitude":"-78.45280","Snowdepth":"7.000","Units":"in","Rept_Date":"2019-11-13 13"},"coordinates":[5503,4202]},{"type":"Point","properties":{"Station_ID":"NY-CQ-9","Station_Nam":"DUNKIRK 0.7 SW, NY","Latitude":"42.47167","Longitude":"-79.33360","Snowdepth":"7.000","Units":"in","Rept_Date":"2019-11-13 12"},"coordinates":[5244,4282]},{"type":"Point","properties":{"Station_ID":"NY-CQ-27","Station_Nam":"SILVER CREEK 1.0 SSE, NY","Latitude":"42.53088","Longitude":"-79.15986","Snowdepth":"7.000","Units":"in","Rept_Date":"2019-11-13 12"},"coordinates":[5295,4319]},{"type":"Point","properties":{"Station_ID":"NY-CQ-22","Station_Nam":"FREDONIA 0.8 WNW, NY","Latitude":"42.44414","Longitude":"-79.34610","Snowdepth":"7.000","Units":"in","Rept_Date":"2019-11-13 10"},"coordinates":[5240,4265]},{"type":"Point","properties":{"Station_ID":"NUNV1","Station_Nam":"NORTH UNDERHILL","Latitude":"44.58760","Longitude":"-72.92150","Snowdepth":"7.000","Units":"in","Rept_Date":"2019-11-13 12"},"coordinates":[7130,5589]},{"type":"Point","properties":{"Station_ID":"NTON6","Station_Nam":"NORTH TONAWANDA","Latitude":"43.05730","Longitude":"-78.86170","Snowdepth":"7.000","Units":"in","Rept_Date":"2019-11-13 12"},"coordinates":[5383,4644]},{"type":"Point","properties":{"Station_ID":"NH-GR-47","Station_Nam":"LITTLETON 7.3 W, NH","Latitude":"44.31847","Longitude":"-71.91086","Snowdepth":"7.000","Units":"in","Rept_Date":"2019-11-13 13"},"coordinates":[7428,5423]},{"type":"Point","properties":{"Station_ID":"MI-SC-3","Station_Nam":"PORT HURON 1.6 W, MI","Latitude":"42.99617","Longitude":"-82.46430","Snowdepth":"7.000","Units":"in","Rept_Date":"2019-11-13 14"},"coordinates":[4323,4606]},{"type":"Point","properties":{"Station_ID":"MI-LV-26","Station_Nam":"FENTON 6.2 WSW, MI","Latitude":"42.76832","Longitude":"-83.82928","Snowdepth":"7.000","Units":"in","Rept_Date":"2019-11-13 13"},"coordinates":[3921,4465]},{"type":"Point","properties":{"Station_ID":"MI-GN-29","Station_Nam":"DAVISON 5.2 N, MI","Latitude":"43.10778","Longitude":"-83.51137","Snowdepth":"7.000","Units":"in","Rept_Date":"2019-11-13 14"},"coordinates":[4014,4675]},{"type":"Point","properties":{"Station_ID":"MI-CT-18","Station_Nam":"LAINGSBURG 2.1 NNW, MI","Latitude":"42.91661","Longitude":"-84.36803","Snowdepth":"7.000","Units":"in","Rept_Date":"2019-11-13 13"},"coordinates":[3762,4557]},{"type":"Point","properties":{"Station_ID":"LTVN6","Station_Nam":"LITTLE VALLEY","Latitude":"42.24730","Longitude":"-78.81250","Snowdepth":"7.000","Units":"in","Rept_Date":"2019-11-13 12"},"coordinates":[5397,4144]},{"type":"Point","properties":{"Station_ID":"LPTN6","Station_Nam":"LOCKPORT","Latitude":"43.18760","Longitude":"-78.60910","Snowdepth":"7.000","Units":"in","Rept_Date":"2019-11-14 00"},"coordinates":[5457,4724]},{"type":"Point","properties":{"Station_ID":"LPLN6","Station_Nam":"LAKE PLACID 2 S","Latitude":"44.30420","Longitude":"-73.98390","Snowdepth":"7.000","Units":"in","Rept_Date":"2019-11-13 12"},"coordinates":[6818,5414]},{"type":"Point","properties":{"Station_ID":"LKVN6","Station_Nam":"LAKE VIEW","Latitude":"42.73180","Longitude":"-78.92400","Snowdepth":"7.000","Units":"in","Rept_Date":"2019-11-13 13"},"coordinates":[5364,4443]},{"type":"Point","properties":{"Station_ID":"KBUF","Station_Nam":"GREATER BUFFALO INTERNATIONAL  AIRPORT","Latitude":"42.93333","Longitude":"-78.73333","Snowdepth":"7.000","Units":"in","Rept_Date":"2019-11-14 06"},"coordinates":[5420,4567]},{"type":"Point","properties":{"Station_ID":"IN-EL-39","Station_Nam":"GOSHEN 3.0 WSW, IN","Latitude":"41.55775","Longitude":"-85.88342","Snowdepth":"7.000","Units":"in","Rept_Date":"2019-11-13 12"},"coordinates":[3316,3718]},{"type":"Point","properties":{"Station_ID":"HERM4","Station_Nam":"HERMAN,MI","Latitude":"46.65000","Longitude":"-88.33330","Snowdepth":"7.000","Units":"in","Rept_Date":"2019-11-13 13"},"coordinates":[2596,6863]},{"type":"Point","properties":{"Station_ID":"FLNM4","Station_Nam":"CASE DRAIN-BOARTMAN CRK","Latitude":"43.92670","Longitude":"-83.09360","Snowdepth":"7.000","Units":"in","Rept_Date":"2019-11-13 11"},"coordinates":[4137,5181]},{"type":"Point","properties":{"Station_ID":"EKMI3","Station_Nam":"ELKHART PUBLIC WORKS & UT","Latitude":"41.67740","Longitude":"-86.00250","Snowdepth":"7.000","Units":"in","Rept_Date":"2019-11-14 06"},"coordinates":[3281,3792]},{"type":"Point","properties":{"Station_ID":"DRBM4","Station_Nam":"DEARBORN,MI","Latitude":"42.31670","Longitude":"-83.23330","Snowdepth":"7.000","Units":"in","Rept_Date":"2019-11-13 14"},"coordinates":[4096,4187]},{"type":"Point","properties":{"Station_ID":"DKKN6","Station_Nam":"DUNKIRK 1S","Latitude":"42.47170","Longitude":"-79.33360","Snowdepth":"7.000","Units":"in","Rept_Date":"2019-11-13 12"},"coordinates":[5244,4282]},{"type":"Point","properties":{"Station_ID":"CVWP1","Station_Nam":"CHANDLER VALLEY 1SE","Latitude":"41.93010","Longitude":"-79.29700","Snowdepth":"7.000","Units":"in","Rept_Date":"2019-11-13 12"},"coordinates":[5254,3948]},{"type":"Point","properties":{"Station_ID":"CODN6","Station_Nam":"COLDEN 1W","Latitude":"42.64720","Longitude":"-78.71110","Snowdepth":"7.000","Units":"in","Rept_Date":"2019-11-13 12"},"coordinates":[5427,4391]},{"type":"Point","properties":{"Station_ID":"CHRM4","Station_Nam":"CHARLEVOIX","Latitude":"45.31720","Longitude":"-85.26720","Snowdepth":"7.000","Units":"in","Rept_Date":"2019-11-13 13"},"coordinates":[3498,6040]},{"type":"Point","properties":{"Station_ID":"CARM4","Station_Nam":"REGIONAL CENTER","Latitude":"43.45000","Longitude":"-83.40000","Snowdepth":"7.000","Units":"in","Rept_Date":"2019-11-13 13"},"coordinates":[4047,4887]},{"type":"Point","properties":{"Station_ID":"CAN-ON-118","Station_Nam":"DURHAM 1.4 S, CAN","Latitude":"44.16525","Longitude":"-80.82064","Snowdepth":"7.000","Units":"in","Rept_Date":"2019-11-13 12"},"coordinates":[4806,5328]},{"type":"Point","properties":{"Station_ID":"BUF","Station_Nam":"BUFFALO, NY","Latitude":"42.94140","Longitude":"-78.71920","Snowdepth":"7.000","Units":"in","Rept_Date":"2019-11-14 06"},"coordinates":[5425,4572]},{"type":"Point","properties":{"Station_ID":"BGBM4","Station_Nam":"BIG BAY 1NW","Latitude":"46.83250","Longitude":"-87.75040","Snowdepth":"7.000","Units":"in","Rept_Date":"2019-11-13 13"},"coordinates":[2767,6976]},{"type":"Point","properties":{"Station_ID":"BDAM4","Station_Nam":"BAD AXE,MI","Latitude":"43.81670","Longitude":"-83.00000","Snowdepth":"7.000","Units":"in","Rept_Date":"2019-11-13 12"},"coordinates":[4165,5113]},{"type":"Point","properties":{"Station_ID":"APXM4","Station_Nam":"GAYLORD 9SSW","Latitude":"44.90720","Longitude":"-84.71880","Snowdepth":"7.000","Units":"in","Rept_Date":"2019-11-14 06"},"coordinates":[3659,5787]},{"type":"Point","properties":{"Station_ID":"MFU","Station_Nam":"MFU","Latitude":"51.52170","Longitude":"-66.91110","Snowdepth":"6.968","Units":"in","Rept_Date":"2019-11-13 12"},"coordinates":[8899,9872]},{"type":"Point","properties":{"Station_ID":"CAN-ON-9","Station_Nam":"WINDSOR 1.7 SE, CAN","Latitude":"42.28448","Longitude":"-83.03456","Snowdepth":"6.900","Units":"in","Rept_Date":"2019-11-13 12"},"coordinates":[4155,4167]},{"type":"Point","properties":{"Station_ID":"MI-HL-4","Station_Nam":"JONESVILLE 5.9 ENE, MI","Latitude":"42.01472","Longitude":"-84.56190","Snowdepth":"6.700","Units":"in","Rept_Date":"2019-11-13 13"},"coordinates":[3705,4000]},{"type":"Point","properties":{"Station_ID":"CAN-ON-86","Station_Nam":"GUELPH 5.1 S - CANWARN, CAN","Latitude":"43.49691","Longitude":"-80.24385","Snowdepth":"6.700","Units":"in","Rept_Date":"2019-11-13 12"},"coordinates":[4976,4916]},{"type":"Point","properties":{"Station_ID":"CAN-ON-466","Station_Nam":"PICTON 12.7 NNE, CAN","Latitude":"44.11197","Longitude":"-77.08426","Snowdepth":"6.700","Units":"in","Rept_Date":"2019-11-13 12"},"coordinates":[5906,5295]},{"type":"Point","properties":{"Station_ID":"MI-MB-54","Station_Nam":"UTICA 2.9 E, MI","Latitude":"42.63518","Longitude":"-82.96528","Snowdepth":"6.600","Units":"in","Rept_Date":"2019-11-13 12"},"coordinates":[4175,4383]},{"type":"Point","properties":{"Station_ID":"QWG","Station_Nam":"QWG","Latitude":"48.48890","Longitude":"-73.45940","Snowdepth":"6.575","Units":"in","Rept_Date":"2019-11-13 12"},"coordinates":[6972,7999]},{"type":"Point","properties":{"Station_ID":"WI-IR-4","Station_Nam":"MERCER 7.0 NNE, WI","Latitude":"46.26677","Longitude":"-90.03360","Snowdepth":"6.500","Units":"in","Rept_Date":"2019-11-13 13"},"coordinates":[2095,6626]},{"type":"Point","properties":{"Station_ID":"VT-OL-9","Station_Nam":"GREENSBORO 2.1 NNW, VT","Latitude":"44.60528","Longitude":"-72.30940","Snowdepth":"6.500","Units":"in","Rept_Date":"2019-11-13 12"},"coordinates":[7311,5600]},{"type":"Point","properties":{"Station_ID":"VT-OL-12","Station_Nam":"GREENSBORO 3.9 NNE, VT","Latitude":"44.63100","Longitude":"-72.28000","Snowdepth":"6.500","Units":"in","Rept_Date":"2019-11-13 11"},"coordinates":[7319,5616]},{"type":"Point","properties":{"Station_ID":"VT-CH-38","Station_Nam":"WILLISTON 0.2 WSW, VT","Latitude":"44.43669","Longitude":"-73.07154","Snowdepth":"6.500","Units":"in","Rept_Date":"2019-11-13 12"},"coordinates":[7086,5496]},{"type":"Point","properties":{"Station_ID":"VT-CH-11","Station_Nam":"UNDERHILL 5.1 NNE, VT","Latitude":"44.59811","Longitude":"-72.91880","Snowdepth":"6.500","Units":"in","Rept_Date":"2019-11-13 13"},"coordinates":[7131,5596]},{"type":"Point","properties":{"Station_ID":"PA-SM-1","Station_Nam":"HIDDEN VALLEY 0.3 ENE, PA","Latitude":"40.05844","Longitude":"-79.26156","Snowdepth":"6.500","Units":"in","Rept_Date":"2019-11-13 10"},"coordinates":[5265,2792]},{"type":"Point","properties":{"Station_ID":"OH-GG-7","Station_Nam":"MIDDLEFIELD 0.6 NE, OH","Latitude":"41.46438","Longitude":"-81.06520","Snowdepth":"6.500","Units":"in","Rept_Date":"2019-11-13 13"},"coordinates":[4734,3660]},{"type":"Point","properties":{"Station_ID":"NY-WY-11","Station_Nam":"SILVER SPRINGS COOP, NY","Latitude":"42.70580","Longitude":"-78.09370","Snowdepth":"6.500","Units":"in","Rept_Date":"2019-11-13 12"},"coordinates":[5609,4427]},{"type":"Point","properties":{"Station_ID":"NY-NG-22","Station_Nam":"NIAGARA FALLS 5.7 E, NY","Latitude":"43.08297","Longitude":"-78.90460","Snowdepth":"6.500","Units":"in","Rept_Date":"2019-11-13 12"},"coordinates":[5370,4660]},{"type":"Point","properties":{"Station_ID":"NY-ER-77","Station_Nam":"COLDEN 2.4 ENE, NY","Latitude":"42.65088","Longitude":"-78.61060","Snowdepth":"6.500","Units":"in","Rept_Date":"2019-11-13 13"},"coordinates":[5456,4393]},{"type":"Point","properties":{"Station_ID":"NY-ER-51","Station_Nam":"CLARENCE CENTER 0.9 N, NY","Latitude":"43.02096","Longitude":"-78.62890","Snowdepth":"6.500","Units":"in","Rept_Date":"2019-11-13 12"},"coordinates":[5451,4622]},{"type":"Point","properties":{"Station_ID":"MI-WS-11","Station_Nam":"ANN ARBOR 2.1 WNW, MI","Latitude":"42.28323","Longitude":"-83.77150","Snowdepth":"6.500","Units":"in","Rept_Date":"2019-11-13 13"},"coordinates":[3938,4166]},{"type":"Point","properties":{"Station_ID":"MI-SW-5","Station_Nam":"DURAND 6.2 WNW, MI","Latitude":"42.92995","Longitude":"-84.10460","Snowdepth":"6.500","Units":"in","Rept_Date":"2019-11-13 13"},"coordinates":[3840,4565]},{"type":"Point","properties":{"Station_ID":"MI-OK-13","Station_Nam":"PLEASANT RIDGE 0.5 WNW, MI","Latitude":"42.47247","Longitude":"-83.15360","Snowdepth":"6.500","Units":"in","Rept_Date":"2019-11-13 13"},"coordinates":[4120,4283]},{"type":"Point","properties":{"Station_ID":"MI-IH-34","Station_Nam":"MASON 5.8 ENE, MI","Latitude":"42.61430","Longitude":"-84.33813","Snowdepth":"6.500","Units":"in","Rept_Date":"2019-11-13 13"},"coordinates":[3771,4370]},{"type":"Point","properties":{"Station_ID":"MI-HG-6","Station_Nam":"CALUMET 5.8 ENE, MI","Latitude":"47.27200","Longitude":"-88.33400","Snowdepth":"6.500","Units":"in","Rept_Date":"2019-11-13 11"},"coordinates":[2595,7247]},{"type":"Point","properties":{"Station_ID":"MI-CX-7","Station_Nam":"EAST JORDAN 2.1 NNW, MI","Latitude":"45.18639","Longitude":"-85.14750","Snowdepth":"6.500","Units":"in","Rept_Date":"2019-11-13 13"},"coordinates":[3533,5959]},{"type":"Point","properties":{"Station_ID":"QGA","Station_Nam":"QGA","Latitude":"47.25640","Longitude":"-73.73810","Snowdepth":"6.496","Units":"in","Rept_Date":"2019-11-13 12"},"coordinates":[6890,7238]},{"type":"Point","properties":{"Station_ID":"MI-WY-125","Station_Nam":"CANTON 2.7 N, MI","Latitude":"42.34732","Longitude":"-83.47286","Snowdepth":"6.400","Units":"in","Rept_Date":"2019-11-13 12"},"coordinates":[4026,4205]},{"type":"Point","properties":{"Station_ID":"QTV","Station_Nam":"QTV","Latitude":"49.66000","Longitude":"-69.35690","Snowdepth":"6.339","Units":"in","Rept_Date":"2019-11-13 12"},"coordinates":[8179,8722]},{"type":"Point","properties":{"Station_ID":"CAN-ON-672","Station_Nam":"WHEATLEY 7.1 NNW, CAN","Latitude":"42.15600","Longitude":"-82.48147","Snowdepth":"6.300","Units":"in","Rept_Date":"2019-11-13 12"},"coordinates":[4317,4087]},{"type":"Point","properties":{"Station_ID":"CAN-ON-283","Station_Nam":"BELLE RIVER 1.1 ENE, CAN","Latitude":"42.29348","Longitude":"-82.69120","Snowdepth":"6.300","Units":"in","Rept_Date":"2019-11-13 13"},"coordinates":[4256,4172]},{"type":"Point","properties":{"Station_ID":"NY-LV-1","Station_Nam":"DANSVILLE 3.6 WSW, NY","Latitude":"42.53210","Longitude":"-77.75540","Snowdepth":"6.100","Units":"in","Rept_Date":"2019-11-13 11"},"coordinates":[5708,4320]},{"type":"Point","properties":{"Station_ID":"YALM4","Station_Nam":"YALE,MI","Latitude":"43.15000","Longitude":"-82.80000","Snowdepth":"6.000","Units":"in","Rept_Date":"2019-11-13 12"},"coordinates":[4224,4701]},{"type":"Point","properties":{"Station_ID":"WRSN6","Station_Nam":"WARSAW 6SW","Latitude":"42.68550","Longitude":"-78.22020","Snowdepth":"6.000","Units":"in","Rept_Date":"2019-11-13 12"},"coordinates":[5571,4414]},{"type":"Point","properties":{"Station_ID":"WBSN6","Station_Nam":"WEBSTER 2 NE","Latitude":"43.24190","Longitude":"-77.38810","Snowdepth":"6.000","Units":"in","Rept_Date":"2019-11-14 01"},"coordinates":[5816,4758]},{"type":"Point","properties":{"Station_ID":"WAIV1","Station_Nam":"WAITSFIELD","Latitude":"44.17560","Longitude":"-72.79610","Snowdepth":"6.000","Units":"in","Rept_Date":"2019-11-13 12"},"coordinates":[7167,5335]},{"type":"Point","properties":{"Station_ID":"VT-WS-30","Station_Nam":"WOODBURY 3.4 NNW, VT","Latitude":"44.48825","Longitude":"-72.43258","Snowdepth":"6.000","Units":"in","Rept_Date":"2019-11-13 12"},"coordinates":[7274,5528]},{"type":"Point","properties":{"Station_ID":"VT-WS-11","Station_Nam":"WAITSFIELD 1.8 SE, VT","Latitude":"44.17551","Longitude":"-72.79540","Snowdepth":"6.000","Units":"in","Rept_Date":"2019-11-13 12"},"coordinates":[7168,5335]},{"type":"Point","properties":{"Station_ID":"VT-OL-2","Station_Nam":"BARTON 3.0 ENE, VT","Latitude":"44.75863","Longitude":"-72.11680","Snowdepth":"6.000","Units":"in","Rept_Date":"2019-11-13 12"},"coordinates":[7367,5695]},{"type":"Point","properties":{"Station_ID":"VT-OL-1","Station_Nam":"WESTFIELD 0.7 WNW, VT","Latitude":"44.89160","Longitude":"-72.44350","Snowdepth":"6.000","Units":"in","Rept_Date":"2019-11-13 11"},"coordinates":[7271,5777]},{"type":"Point","properties":{"Station_ID":"VT-ES-1","Station_Nam":"GRANBY 1.4 NW, VT","Latitude":"44.58330","Longitude":"-71.77870","Snowdepth":"6.000","Units":"in","Rept_Date":"2019-11-13 13"},"coordinates":[7467,5587]},{"type":"Point","properties":{"Station_ID":"VT-CL-14","Station_Nam":"LYNDONVILLE 1.1 W, VT","Latitude":"44.53582","Longitude":"-72.02867","Snowdepth":"6.000","Units":"in","Rept_Date":"2019-11-13 13"},"coordinates":[7393,5557]},{"type":"Point","properties":{"Station_ID":"VSSM4","Station_Nam":"VASSAR,MI","Latitude":"43.36670","Longitude":"-83.58330","Snowdepth":"6.000","Units":"in","Rept_Date":"2019-11-13 12"},"coordinates":[3993,4835]},{"type":"Point","properties":{"Station_ID":"VRGV1","Station_Nam":"VERGENNES","Latitude":"44.17190","Longitude":"-73.24720","Snowdepth":"6.000","Units":"in","Rept_Date":"2019-11-13 11"},"coordinates":[7035,5332]},{"type":"Point","properties":{"Station_ID":"UPSW3","Station_Nam":"UPSON,WI","Latitude":"46.36780","Longitude":"-90.41220","Snowdepth":"6.000","Units":"in","Rept_Date":"2019-11-14 00"},"coordinates":[1984,6689]},{"type":"Point","properties":{"Station_ID":"TOPN6","Station_Nam":"TUPPER LAKE SUNMOUNT","Latitude":"44.23070","Longitude":"-74.43820","Snowdepth":"6.000","Units":"in","Rept_Date":"2019-11-13 12"},"coordinates":[6684,5369]},{"type":"Point","properties":{"Station_ID":"TIPM4","Station_Nam":"TIPTON,MI","Latitude":"42.03330","Longitude":"-84.10000","Snowdepth":"6.000","Units":"in","Rept_Date":"2019-11-13 13"},"coordinates":[3841,4011]},{"type":"Point","properties":{"Station_ID":"TCEM4","Station_Nam":"TRAVERSE CITY 5ESE","Latitude":"44.73370","Longitude":"-85.51180","Snowdepth":"6.000","Units":"in","Rept_Date":"2019-11-13 12"},"coordinates":[3426,5679]},{"type":"Point","properties":{"Station_ID":"SSMM4","Station_Nam":"SAULT STE MARIE","Latitude":"46.48660","Longitude":"-84.40250","Snowdepth":"6.000","Units":"in","Rept_Date":"2019-11-13 13"},"coordinates":[3752,6762]},{"type":"Point","properties":{"Station_ID":"SBOP1","Station_Nam":"SPRINGBORO","Latitude":"41.81660","Longitude":"-80.43330","Snowdepth":"6.000","Units":"in","Rept_Date":"2019-11-13 12"},"coordinates":[4920,3878]},{"type":"Point","properties":{"Station_ID":"PTBN3","Station_Nam":"DAM WITHIN","Latitude":"45.05000","Longitude":"-71.38330","Snowdepth":"6.000","Units":"in","Rept_Date":"2019-11-13 12"},"coordinates":[7583,5875]},{"type":"Point","properties":{"Station_ID":"PONM4","Station_Nam":"STATE HOSPITAL","Latitude":"42.65000","Longitude":"-83.30000","Snowdepth":"6.000","Units":"in","Rept_Date":"2019-11-13 12"},"coordinates":[4077,4392]},{"type":"Point","properties":{"Station_ID":"POAM4","Station_Nam":"PORT AUSTIN WWTP","Latitude":"44.04670","Longitude":"-82.97030","Snowdepth":"6.000","Units":"in","Rept_Date":"2019-11-13 13"},"coordinates":[4174,5255]},{"type":"Point","properties":{"Station_ID":"OLNN6","Station_Nam":"OLEAN","Latitude":"42.07370","Longitude":"-78.45180","Snowdepth":"6.000","Units":"in","Rept_Date":"2019-11-13 12"},"coordinates":[5503,4036]},{"type":"Point","properties":{"Station_ID":"OH-ER-5","Station_Nam":"WAKEMAN 4.6 NNE, OH","Latitude":"41.31902","Longitude":"-82.37730","Snowdepth":"6.000","Units":"in","Rept_Date":"2019-11-13 12"},"coordinates":[4348,3570]},{"type":"Point","properties":{"Station_ID":"NY-ER-96","Station_Nam":"ELMA 2.7 WSW, NY","Latitude":"42.81004","Longitude":"-78.68130","Snowdepth":"6.000","Units":"in","Rept_Date":"2019-11-13 12"},"coordinates":[5436,4491]},{"type":"Point","properties":{"Station_ID":"NY-ER-72","Station_Nam":"TONAWANDA 3.1 NE, NY","Latitude":"43.01368","Longitude":"-78.82960","Snowdepth":"6.000","Units":"in","Rept_Date":"2019-11-13 13"},"coordinates":[5392,4617]},{"type":"Point","properties":{"Station_ID":"NVLV1","Station_Nam":"NASHVILLE","Latitude":"44.44970","Longitude":"-72.92640","Snowdepth":"6.000","Units":"in","Rept_Date":"2019-11-13 12"},"coordinates":[7129,5504]},{"type":"Point","properties":{"Station_ID":"NPTV1","Station_Nam":"NEWPORT","Latitude":"44.94900","Longitude":"-72.19120","Snowdepth":"6.000","Units":"in","Rept_Date":"2019-11-13 12"},"coordinates":[7345,5812]},{"type":"Point","properties":{"Station_ID":"NCBN6","Station_Nam":"NEWCOMB","Latitude":"43.97070","Longitude":"-74.22200","Snowdepth":"6.000","Units":"in","Rept_Date":"2019-11-13 13"},"coordinates":[6748,5208]},{"type":"Point","properties":{"Station_ID":"MILM4","Station_Nam":"GM PROVING GD","Latitude":"42.58330","Longitude":"-83.70000","Snowdepth":"6.000","Units":"in","Rept_Date":"2019-11-14 05"},"coordinates":[3959,4351]},{"type":"Point","properties":{"Station_ID":"MI-WY-33","Station_Nam":"LIVONIA 2.3 NNW, MI","Latitude":"42.43100","Longitude":"-83.38190","Snowdepth":"6.000","Units":"in","Rept_Date":"2019-11-13 12"},"coordinates":[4053,4257]},{"type":"Point","properties":{"Station_ID":"MI-WS-28","Station_Nam":"DEXTER 0.3 ENE, MI","Latitude":"42.33367","Longitude":"-83.87510","Snowdepth":"6.000","Units":"in","Rept_Date":"2019-11-13 12"},"coordinates":[3907,4197]},{"type":"Point","properties":{"Station_ID":"MI-WS-25","Station_Nam":"SALINE 3.8 SSW, MI","Latitude":"42.12618","Longitude":"-83.81090","Snowdepth":"6.000","Units":"in","Rept_Date":"2019-11-13 12"},"coordinates":[3926,4069]},{"type":"Point","properties":{"Station_ID":"MI-JC-13","Station_Nam":"HANOVER 3.8 W, MI","Latitude":"42.10700","Longitude":"-84.62600","Snowdepth":"6.000","Units":"in","Rept_Date":"2019-11-13 12"},"coordinates":[3686,4057]},{"type":"Point","properties":{"Station_ID":"MI-HL-1","Station_Nam":"LITCHFIELD 0.3 ENE, MI","Latitude":"42.04528","Longitude":"-84.75310","Snowdepth":"6.000","Units":"in","Rept_Date":"2019-11-13 12"},"coordinates":[3649,4019]},{"type":"Point","properties":{"Station_ID":"MI-GT-25","Station_Nam":"TRAVERSE CITY 4.7 ESE, MI","Latitude":"44.73370","Longitude":"-85.51189","Snowdepth":"6.000","Units":"in","Rept_Date":"2019-11-13 12"},"coordinates":[3426,5679]},{"type":"Point","properties":{"Station_ID":"MI-GT-21","Station_Nam":"KINGSLEY 2.7 ENE, MI","Latitude":"44.59871","Longitude":"-85.48426","Snowdepth":"6.000","Units":"in","Rept_Date":"2019-11-13 11"},"coordinates":[3434,5596]},{"type":"Point","properties":{"Station_ID":"MI-CX-4","Station_Nam":"CHARLEVOIX 4.3 SSE, MI","Latitude":"45.25720","Longitude":"-85.21650","Snowdepth":"6.000","Units":"in","Rept_Date":"2019-11-13 12"},"coordinates":[3513,6003]},{"type":"Point","properties":{"Station_ID":"MI-AN-25","Station_Nam":"PLAINWELL 0.5 WSW, MI","Latitude":"42.44318","Longitude":"-85.65374","Snowdepth":"6.000","Units":"in","Rept_Date":"2019-11-13 12"},"coordinates":[3384,4265]},{"type":"Point","properties":{"Station_ID":"MI-AN-11","Station_Nam":"HOPKINS 0.6 NNE, MI","Latitude":"42.63430","Longitude":"-85.76120","Snowdepth":"6.000","Units":"in","Rept_Date":"2019-11-13 12"},"coordinates":[3352,4383]},{"type":"Point","properties":{"Station_ID":"LIDM4","Station_Nam":"LINDEN WWTP","Latitude":"42.81330","Longitude":"-83.80380","Snowdepth":"6.000","Units":"in","Rept_Date":"2019-11-13 13"},"coordinates":[3928,4493]},{"type":"Point","properties":{"Station_ID":"KZAP1","Station_Nam":"KINZUA","Latitude":"41.90060","Longitude":"-79.11860","Snowdepth":"6.000","Units":"in","Rept_Date":"2019-11-13 12"},"coordinates":[5307,3929]},{"type":"Point","properties":{"Station_ID":"KBTV","Station_Nam":"BURLINGTON INTERNATIONAL","Latitude":"44.46666","Longitude":"-73.15000","Snowdepth":"6.000","Units":"in","Rept_Date":"2019-11-14 00"},"coordinates":[7063,5515]},{"type":"Point","properties":{"Station_ID":"IN-KS-32","Station_Nam":"LEESBURG 6.7 ESE, IN","Latitude":"41.31009","Longitude":"-85.72290","Snowdepth":"6.000","Units":"in","Rept_Date":"2019-11-13 12"},"coordinates":[3364,3565]},{"type":"Point","properties":{"Station_ID":"HVJP1","Station_Nam":"HIDDEN VALLEY COOP","Latitude":"40.04200","Longitude":"-79.25660","Snowdepth":"6.000","Units":"in","Rept_Date":"2019-11-13 13"},"coordinates":[5266,2781]},{"type":"Point","properties":{"Station_ID":"HPKM4","Station_Nam":"HOPKINS 1 N","Latitude":"42.63520","Longitude":"-85.76100","Snowdepth":"6.000","Units":"in","Rept_Date":"2019-11-13 12"},"coordinates":[3352,4383]},{"type":"Point","properties":{"Station_ID":"HOLM4","Station_Nam":"HOLLAND,MI","Latitude":"42.80000","Longitude":"-86.11670","Snowdepth":"6.000","Units":"in","Rept_Date":"2019-11-13 11"},"coordinates":[3248,4485]},{"type":"Point","properties":{"Station_ID":"HGHN6","Station_Nam":"HIGHMARKET","Latitude":"43.57520","Longitude":"-75.52070","Snowdepth":"6.000","Units":"in","Rept_Date":"2019-11-13 10"},"coordinates":[6366,4964]},{"type":"Point","properties":{"Station_ID":"GOVN6","Station_Nam":"GOUVERNEUR 3 NW","Latitude":"44.35400","Longitude":"-75.51230","Snowdepth":"6.000","Units":"in","Rept_Date":"2019-11-13 12"},"coordinates":[6368,5445]},{"type":"Point","properties":{"Station_ID":"GODM4","Station_Nam":"GOODRICH","Latitude":"42.91640","Longitude":"-83.50970","Snowdepth":"6.000","Units":"in","Rept_Date":"2019-11-13 12"},"coordinates":[4015,4557]},{"type":"Point","properties":{"Station_ID":"FARM4","Station_Nam":"FARMINGTON,MI","Latitude":"42.46670","Longitude":"-83.36670","Snowdepth":"6.000","Units":"in","Rept_Date":"2019-11-13 12"},"coordinates":[4057,4279]},{"type":"Point","properties":{"Station_ID":"EJNM4","Station_Nam":"EAST JORDAN 2NW","Latitude":"45.18630","Longitude":"-85.14770","Snowdepth":"6.000","Units":"in","Rept_Date":"2019-11-13 13"},"coordinates":[3533,5959]},{"type":"Point","properties":{"Station_ID":"DTW","Station_Nam":"DETROIT METROPOLITAN","Latitude":"42.21220","Longitude":"-83.35330","Snowdepth":"6.000","Units":"in","Rept_Date":"2019-11-14 06"},"coordinates":[4061,4122]},{"type":"Point","properties":{"Station_ID":"CSSM4","Station_Nam":"CASS CITY,MI","Latitude":"43.58330","Longitude":"-83.18330","Snowdepth":"6.000","Units":"in","Rept_Date":"2019-11-13 11"},"coordinates":[4111,4969]},{"type":"Point","properties":{"Station_ID":"CAN-ON-33","Station_Nam":"BURLINGTON 1.7 W, CA","Latitude":"43.37134","Longitude":"-79.83550","Snowdepth":"6.000","Units":"in","Rept_Date":"2019-11-13 12"},"coordinates":[5096,4838]},{"type":"Point","properties":{"Station_ID":"CAN-ON-322","Station_Nam":"WINDSOR 4.0 NE, CAN","Latitude":"42.31785","Longitude":"-83.01522","Snowdepth":"6.000","Units":"in","Rept_Date":"2019-11-13 12"},"coordinates":[4160,4187]},{"type":"Point","properties":{"Station_ID":"CAN-ON-143","Station_Nam":"MOUNT FOREST 7.6 NNE, CAN","Latitude":"44.04116","Longitude":"-80.68934","Snowdepth":"6.000","Units":"in","Rept_Date":"2019-11-13 12"},"coordinates":[4845,5252]},{"type":"Point","properties":{"Station_ID":"BTV","Station_Nam":"BURLINGTON, VT","Latitude":"44.47140","Longitude":"-73.15330","Snowdepth":"6.000","Units":"in","Rept_Date":"2019-11-14 01"},"coordinates":[7062,5517]},{"type":"Point","properties":{"Station_ID":"BEUM4","Station_Nam":"BEULAH 7SSW","Latitude":"44.53160","Longitude":"-86.13110","Snowdepth":"6.000","Units":"in","Rept_Date":"2019-11-13 13"},"coordinates":[3244,5555]},{"type":"Point","properties":{"Station_ID":"AUBN6","Station_Nam":"AUBURN","Latitude":"42.93270","Longitude":"-76.54470","Snowdepth":"6.000","Units":"in","Rept_Date":"2019-11-13 12"},"coordinates":[6064,4567]},{"type":"Point","properties":{"Station_ID":"ATAN6","Station_Nam":"ATTICA 7 SW","Latitude":"42.81070","Longitude":"-78.39790","Snowdepth":"6.000","Units":"in","Rept_Date":"2019-11-13 11"},"coordinates":[5519,4492]},{"type":"Point","properties":{"Station_ID":"CAN-ON-452","Station_Nam":"CHATSWORTH 1.8 ENE - GSCA, CAN","Latitude":"44.46118","Longitude":"-80.87506","Snowdepth":"5.900","Units":"in","Rept_Date":"2019-11-13 12"},"coordinates":[4790,5511]},{"type":"Point","properties":{"Station_ID":"QYR","Station_Nam":"QYR","Latitude":"48.87220","Longitude":"-75.61470","Snowdepth":"5.630","Units":"in","Rept_Date":"2019-11-13 12"},"coordinates":[6338,8236]},{"type":"Point","properties":{"Station_ID":"PA-CW-8","Station_Nam":"SPRINGBORO 3.0 WNW, PA","Latitude":"41.81654","Longitude":"-80.42540","Snowdepth":"5.600","Units":"in","Rept_Date":"2019-11-13 12"},"coordinates":[4922,3878]},{"type":"Point","properties":{"Station_ID":"VT-LM-7","Station_Nam":"HYDE PARK 2.9 NE, VT","Latitude":"44.62080","Longitude":"-72.57250","Snowdepth":"5.500","Units":"in","Rept_Date":"2019-11-13 13"},"coordinates":[7233,5610]},{"type":"Point","properties":{"Station_ID":"NY-OL-5","Station_Nam":"MEDINA 0.4 WNW, NY","Latitude":"43.22300","Longitude":"-78.39539","Snowdepth":"5.500","Units":"in","Rept_Date":"2019-11-13 13"},"coordinates":[5520,4746]},{"type":"Point","properties":{"Station_ID":"NY-MR-21","Station_Nam":"PITTSFORD 4.0 SSE, NY","Latitude":"43.03498","Longitude":"-77.49450","Snowdepth":"5.500","Units":"in","Rept_Date":"2019-11-13 14"},"coordinates":[5785,4630]},{"type":"Point","properties":{"Station_ID":"NY-ES-6","Station_Nam":"OLMSTEDVILLE 4.6 NNE, NY","Latitude":"43.83350","Longitude":"-73.89780","Snowdepth":"5.500","Units":"in","Rept_Date":"2019-11-13 13"},"coordinates":[6843,5123]},{"type":"Point","properties":{"Station_ID":"NY-CQ-34","Station_Nam":"KENNEDY 2.6 SE, NY","Latitude":"42.12567","Longitude":"-79.07235","Snowdepth":"5.500","Units":"in","Rept_Date":"2019-11-13 13"},"coordinates":[5321,4069]},{"type":"Point","properties":{"Station_ID":"MI-WS-7","Station_Nam":"ANN ARBOR 3.1 SE, MI","Latitude":"42.23914","Longitude":"-83.69580","Snowdepth":"5.500","Units":"in","Rept_Date":"2019-11-13 12"},"coordinates":[3960,4139]},{"type":"Point","properties":{"Station_ID":"MI-OK-109","Station_Nam":"HIGHLAND 1.3 NE, MI","Latitude":"42.67877","Longitude":"-83.59361","Snowdepth":"5.500","Units":"in","Rept_Date":"2019-11-13 13"},"coordinates":[3990,4410]},{"type":"Point","properties":{"Station_ID":"MI-HR-10","Station_Nam":"BAY PORT 3.2 SSW, MI","Latitude":"43.80746","Longitude":"-83.40013","Snowdepth":"5.500","Units":"in","Rept_Date":"2019-11-13 13"},"coordinates":[4047,5107]},{"type":"Point","properties":{"Station_ID":"MI-ET-1","Station_Nam":"LANSING 3.8 WNW, MI","Latitude":"42.72243","Longitude":"-84.62690","Snowdepth":"5.500","Units":"in","Rept_Date":"2019-11-13 12"},"coordinates":[3686,4437]},{"type":"Point","properties":{"Station_ID":"MI-BG-3","Station_Nam":"L'ANSE 17.8 SE, MI","Latitude":"46.55730","Longitude":"-88.20770","Snowdepth":"5.500","Units":"in","Rept_Date":"2019-11-13 13"},"coordinates":[2633,6806]},{"type":"Point","properties":{"Station_ID":"IN-LP-7","Station_Nam":"LA PORTE 1.6 SW, IN","Latitude":"41.59040","Longitude":"-86.73430","Snowdepth":"5.500","Units":"in","Rept_Date":"2019-11-13 13"},"coordinates":[3066,3738]},{"type":"Point","properties":{"Station_ID":"CAN-ON-178","Station_Nam":"GODERICH 10.2 S - MVCA, CAN","Latitude":"43.64655","Longitude":"-81.70734","Snowdepth":"5.500","Units":"in","Rept_Date":"2019-11-13 13"},"coordinates":[4545,5008]},{"type":"Point","properties":{"Station_ID":"SVBQ6","Station_Nam":"SAVANT BASE","Latitude":"50.28730","Longitude":"-90.65670","Snowdepth":"5.390","Units":"in","Rept_Date":"2019-11-14 06"},"coordinates":[1912,9110]},{"type":"Point","properties":{"Station_ID":"PA-ER-2","Station_Nam":"ERIE 5.6 SW, PA","Latitude":"42.06086","Longitude":"-80.15260","Snowdepth":"5.200","Units":"in","Rept_Date":"2019-11-13 12"},"coordinates":[5003,4028]},{"type":"Point","properties":{"Station_ID":"OH-MD-1","Station_Nam":"WADSWORTH 4.7 WNW, OH","Latitude":"41.04276","Longitude":"-81.81930","Snowdepth":"5.100","Units":"in","Rept_Date":"2019-11-13 12"},"coordinates":[4512,3400]},{"type":"Point","properties":{"Station_ID":"CAN-ON-342","Station_Nam":"LURGAN BEACH 1.4 NNE - LHCC, CAN","Latitude":"44.09777","Longitude":"-81.72765","Snowdepth":"5.100","Units":"in","Rept_Date":"2019-11-13 12"},"coordinates":[4539,5287]},{"type":"Point","properties":{"Station_ID":"WTRM4","Station_Nam":"WATERSMEET 12WSW","Latitude":"46.22310","Longitude":"-89.40850","Snowdepth":"5.000","Units":"in","Rept_Date":"2019-11-13 12"},"coordinates":[2279,6599]},{"type":"Point","properties":{"Station_ID":"WRRP1","Station_Nam":"ALLEGHENY RIVER AT WARREN","Latitude":"41.84380","Longitude":"-79.15000","Snowdepth":"5.000","Units":"in","Rept_Date":"2019-11-13 12"},"coordinates":[5298,3894]},{"type":"Point","properties":{"Station_ID":"WORV1","Station_Nam":"WORCESTER 2 W","Latitude":"44.37470","Longitude":"-72.58220","Snowdepth":"5.000","Units":"in","Rept_Date":"2019-11-13 12"},"coordinates":[7230,5458]},{"type":"Point","properties":{"Station_ID":"WI-VL-10","Station_Nam":"LAND O LAKES 4.3 WNW, WI","Latitude":"46.17440","Longitude":"-89.30380","Snowdepth":"5.000","Units":"in","Rept_Date":"2019-11-13 13"},"coordinates":[2310,6569]},{"type":"Point","properties":{"Station_ID":"WI-GN-8","Station_Nam":"BRODHEAD 0.7 NNW, WI","Latitude":"42.62658","Longitude":"-89.38124","Snowdepth":"5.000","Units":"in","Rept_Date":"2019-11-13 14"},"coordinates":[2287,4378]},{"type":"Point","properties":{"Station_ID":"SUTV1","Station_Nam":"SUTTON","Latitude":"44.61220","Longitude":"-72.04810","Snowdepth":"5.000","Units":"in","Rept_Date":"2019-11-13 13"},"coordinates":[7387,5604]},{"type":"Point","properties":{"Station_ID":"SLNV1","Station_Nam":"SOUTH LINCOLN","Latitude":"44.07460","Longitude":"-72.97180","Snowdepth":"5.000","Units":"in","Rept_Date":"2019-11-13 12"},"coordinates":[7116,5272]},{"type":"Point","properties":{"Station_ID":"RLWM5","Station_Nam":"CAMP NORRIS DNR","Latitude":"48.61000","Longitude":"-95.18170","Snowdepth":"5.000","Units":"in","Rept_Date":"2019-11-13 14"},"coordinates":[580,8074]},{"type":"Point","properties":{"Station_ID":"RHAN6","Station_Nam":"ALLEGANY STATE PARK","Latitude":"42.10030","Longitude":"-78.74970","Snowdepth":"5.000","Units":"in","Rept_Date":"2019-11-13 12"},"coordinates":[5416,4053]},{"type":"Point","properties":{"Station_ID":"RGNM1","Station_Nam":"RANGELEY 2NW","Latitude":"44.98940","Longitude":"-70.67220","Snowdepth":"5.000","Units":"in","Rept_Date":"2019-11-13 11"},"coordinates":[7792,5837]},{"type":"Point","properties":{"Station_ID":"PYMI3","Station_Nam":"PLYMOUTH","Latitude":"41.33920","Longitude":"-86.33580","Snowdepth":"5.000","Units":"in","Rept_Date":"2019-11-13 10"},"coordinates":[3183,3583]},{"type":"Point","properties":{"Station_ID":"PDGM4","Station_Nam":"PAULDING","Latitude":"46.39760","Longitude":"-89.17940","Snowdepth":"5.000","Units":"in","Rept_Date":"2019-11-13 13"},"coordinates":[2347,6707]},{"type":"Point","properties":{"Station_ID":"OWSM4","Station_Nam":"OWOSSO,MI","Latitude":"42.96670","Longitude":"-84.20000","Snowdepth":"5.000","Units":"in","Rept_Date":"2019-11-13 12"},"coordinates":[3812,4588]},{"type":"Point","properties":{"Station_ID":"OH-MD-2","Station_Nam":"BRUNSWICK 0.5 NE, OH","Latitude":"41.24980","Longitude":"-81.81330","Snowdepth":"5.000","Units":"in","Rept_Date":"2019-11-13 12"},"coordinates":[4514,3528]},{"type":"Point","properties":{"Station_ID":"OH-AL-8","Station_Nam":"DELPHOS 2.3 ESE, OH","Latitude":"40.83350","Longitude":"-84.29820","Snowdepth":"5.000","Units":"in","Rept_Date":"2019-11-13 12"},"coordinates":[3783,3270]},{"type":"Point","properties":{"Station_ID":"NY-TM-42","Station_Nam":"ITHACA 6.4 E, NY","Latitude":"42.43350","Longitude":"-76.37860","Snowdepth":"5.000","Units":"in","Rept_Date":"2019-11-13 12"},"coordinates":[6113,4259]},{"type":"Point","properties":{"Station_ID":"NY-TG-15","Station_Nam":"BERKSHIRE 1.9 ENE, NY","Latitude":"42.31910","Longitude":"-76.21940","Snowdepth":"5.000","Units":"in","Rept_Date":"2019-11-13 13"},"coordinates":[6160,4188]},{"type":"Point","properties":{"Station_ID":"NY-OG-2","Station_Nam":"DE WITT 1.4 WSW, NY","Latitude":"43.03333","Longitude":"-76.10000","Snowdepth":"5.000","Units":"in","Rept_Date":"2019-11-13 12"},"coordinates":[6195,4629]},{"type":"Point","properties":{"Station_ID":"NY-FK-7","Station_Nam":"SARANAC LAKE 6.2 N, NY","Latitude":"44.41359","Longitude":"-74.15211","Snowdepth":"5.000","Units":"in","Rept_Date":"2019-11-13 12"},"coordinates":[6768,5482]},{"type":"Point","properties":{"Station_ID":"NY-DL-32","Station_Nam":"DELHI 6.6 WNW, NY","Latitude":"42.32118","Longitude":"-75.02991","Snowdepth":"5.000","Units":"in","Rept_Date":"2019-11-13 10"},"coordinates":[6510,4189]},{"type":"Point","properties":{"Station_ID":"NY-CQ-39","Station_Nam":"GERRY 0.8 N, NY","Latitude":"42.20500","Longitude":"-79.24700","Snowdepth":"5.000","Units":"in","Rept_Date":"2019-11-13 13"},"coordinates":[5269,4118]},{"type":"Point","properties":{"Station_ID":"NSFN3","Station_Nam":"NORTH STRATFORD","Latitude":"44.68190","Longitude":"-71.58570","Snowdepth":"5.000","Units":"in","Rept_Date":"2019-11-13 12"},"coordinates":[7524,5647]},{"type":"Point","properties":{"Station_ID":"NH-CS-10","Station_Nam":"RANDOLPH 1.4 NE, NH","Latitude":"44.38824","Longitude":"-71.26950","Snowdepth":"5.000","Units":"in","Rept_Date":"2019-11-13 12"},"coordinates":[7617,5466]},{"type":"Point","properties":{"Station_ID":"NCKN6","Station_Nam":"NORTH CREEK 5 SE","Latitude":"43.66110","Longitude":"-73.89690","Snowdepth":"5.000","Units":"in","Rept_Date":"2019-11-13 12"},"coordinates":[6843,5017]},{"type":"Point","properties":{"Station_ID":"MTCM4","Station_Nam":"MT. CLEMENS","Latitude":"42.59580","Longitude":"-82.90890","Snowdepth":"5.000","Units":"in","Rept_Date":"2019-11-13 12"},"coordinates":[4192,4359]},{"type":"Point","properties":{"Station_ID":"MI-OT-4","Station_Nam":"GAYLORD 1.7 WNW, MI","Latitude":"45.03280","Longitude":"-84.71090","Snowdepth":"5.000","Units":"in","Rept_Date":"2019-11-13 13"},"coordinates":[3661,5864]},{"type":"Point","properties":{"Station_ID":"MI-OK-35","Station_Nam":"WATERFORD 2.1 NW, MI","Latitude":"42.68742","Longitude":"-83.41320","Snowdepth":"5.000","Units":"in","Rept_Date":"2019-11-13 12"},"coordinates":[4043,4416]},{"type":"Point","properties":{"Station_ID":"MI-LN-16","Station_Nam":"CLINTON 0.5 NE, MI","Latitude":"42.07710","Longitude":"-83.96530","Snowdepth":"5.000","Units":"in","Rept_Date":"2019-11-13 12"},"coordinates":[3881,4039]},{"type":"Point","properties":{"Station_ID":"MI-KZ-6","Station_Nam":"WESTERN MICHIGAN UNIVERSITY, MI","Latitude":"42.28300","Longitude":"-85.61500","Snowdepth":"5.000","Units":"in","Rept_Date":"2019-11-14 05"},"coordinates":[3395,4166]},{"type":"Point","properties":{"Station_ID":"MI-HL-9","Station_Nam":"MONTGOMERY 1.9 SSE, MI","Latitude":"41.75167","Longitude":"-84.78952","Snowdepth":"5.000","Units":"in","Rept_Date":"2019-11-13 13"},"coordinates":[3638,3838]},{"type":"Point","properties":{"Station_ID":"MI-HG-1","Station_Nam":"HOUGHTON 1.6 ESE, MI","Latitude":"47.10774","Longitude":"-88.52940","Snowdepth":"5.000","Units":"in","Rept_Date":"2019-11-13 14"},"coordinates":[2538,7146]},{"type":"Point","properties":{"Station_ID":"MI-CT-2","Station_Nam":"HASLETT 1.2 N, MI","Latitude":"42.76997","Longitude":"-84.40310","Snowdepth":"5.000","Units":"in","Rept_Date":"2019-11-13 12"},"coordinates":[3752,4466]},{"type":"Point","properties":{"Station_ID":"MI-BN-3","Station_Nam":"BUCHANAN 1.4 ESE, MI","Latitude":"41.81829","Longitude":"-86.34230","Snowdepth":"5.000","Units":"in","Rept_Date":"2019-11-13 12"},"coordinates":[3181,3879]},{"type":"Point","properties":{"Station_ID":"KGTB","Station_Nam":"FORT DRUM / WHEELER-SACK U. S. ARMY AIRFIELD","Latitude":"44.05000","Longitude":"-75.73333","Snowdepth":"5.000","Units":"in","Rept_Date":"2019-11-14 00"},"coordinates":[6303,5257]},{"type":"Point","properties":{"Station_ID":"INDN6","Station_Nam":"INDIAN LAKE","Latitude":"43.75500","Longitude":"-74.27560","Snowdepth":"5.000","Units":"in","Rept_Date":"2019-11-13 13"},"coordinates":[6732,5075]},{"type":"Point","properties":{"Station_ID":"IN-SJ-17","Station_Nam":"WALKERTON 5.7 ENE, IN","Latitude":"41.50190","Longitude":"-86.38510","Snowdepth":"5.000","Units":"in","Rept_Date":"2019-11-13 12"},"coordinates":[3169,3683]},{"type":"Point","properties":{"Station_ID":"IN-KS-7","Station_Nam":"SYRACUSE 3.0 ESE, IN","Latitude":"41.40677","Longitude":"-85.69520","Snowdepth":"5.000","Units":"in","Rept_Date":"2019-11-13 13"},"coordinates":[3372,3624]},{"type":"Point","properties":{"Station_ID":"IN-KS-41","Station_Nam":"NORTH WEBSTER 2.3 N, IN","Latitude":"41.35866","Longitude":"-85.70060","Snowdepth":"5.000","Units":"in","Rept_Date":"2019-11-13 13"},"coordinates":[3370,3595]},{"type":"Point","properties":{"Station_ID":"IN-EL-8","Station_Nam":"WAKARUSA 2.4 NNE, IN","Latitude":"41.56551","Longitude":"-85.99330","Snowdepth":"5.000","Units":"in","Rept_Date":"2019-11-13 12"},"coordinates":[3284,3723]},{"type":"Point","properties":{"Station_ID":"GHMN3","Station_Nam":"PINKHAM NOTCH","Latitude":"44.25800","Longitude":"-71.25250","Snowdepth":"5.000","Units":"in","Rept_Date":"2019-11-13 11"},"coordinates":[7622,5386]},{"type":"Point","properties":{"Station_ID":"GFDN6","Station_Nam":"CHASE LAKE","Latitude":"43.75920","Longitude":"-75.29980","Snowdepth":"5.000","Units":"in","Rept_Date":"2019-11-13 11"},"coordinates":[6431,5078]},{"type":"Point","properties":{"Station_ID":"GAYM4","Station_Nam":"GAYLORD","Latitude":"45.03320","Longitude":"-84.71130","Snowdepth":"5.000","Units":"in","Rept_Date":"2019-11-13 13"},"coordinates":[3661,5864]},{"type":"Point","properties":{"Station_ID":"FRKN6","Station_Nam":"FRANKLINVILLE","Latitude":"42.32960","Longitude":"-78.46330","Snowdepth":"5.000","Units":"in","Rept_Date":"2019-11-13 12"},"coordinates":[5500,4194]},{"type":"Point","properties":{"Station_ID":"ESGM1","Station_Nam":"EAST SANGERVILLE","Latitude":"45.13690","Longitude":"-69.28060","Snowdepth":"5.000","Units":"in","Rept_Date":"2019-11-13 12"},"coordinates":[8202,5928]},{"type":"Point","properties":{"Station_ID":"EAHV1","Station_Nam":"EAST HAVEN","Latitude":"44.64250","Longitude":"-71.89120","Snowdepth":"5.000","Units":"in","Rept_Date":"2019-11-13 12"},"coordinates":[7434,5623]},{"type":"Point","properties":{"Station_ID":"DNVN6","Station_Nam":"DANSVILLE","Latitude":"42.56470","Longitude":"-77.71760","Snowdepth":"5.000","Units":"in","Rept_Date":"2019-11-13 13"},"coordinates":[5719,4340]},{"type":"Point","properties":{"Station_ID":"CAN-ON-719","Station_Nam":"HAGERSVILLE 6.0 ESE, CAN","Latitude":"42.93833","Longitude":"-79.98528","Snowdepth":"5.000","Units":"in","Rept_Date":"2019-11-14 05"},"coordinates":[5052,4570]},{"type":"Point","properties":{"Station_ID":"CAN-ON-42","Station_Nam":"VANKLEEK HILL 3.4 S, CA","Latitude":"45.48987","Longitude":"-74.64570","Snowdepth":"5.000","Units":"in","Rept_Date":"2019-11-13 12"},"coordinates":[6623,6147]},{"type":"Point","properties":{"Station_ID":"CAN-NB-2","Station_Nam":"GRAFTON 2.7 NNE, CA","Latitude":"46.17062","Longitude":"-67.55330","Snowdepth":"5.000","Units":"in","Rept_Date":"2019-11-13 10"},"coordinates":[8710,6567]},{"type":"Point","properties":{"Station_ID":"CAN-NB-18","Station_Nam":"MCLEOD HILL 1.1 ENE, CA","Latitude":"46.02725","Longitude":"-66.67460","Snowdepth":"5.000","Units":"in","Rept_Date":"2019-11-13 12"},"coordinates":[8969,6478]},{"type":"Point","properties":{"Station_ID":"BOON6","Station_Nam":"BOONVILLE 4 SSW","Latitude":"43.43610","Longitude":"-75.36970","Snowdepth":"5.000","Units":"in","Rept_Date":"2019-11-13 12"},"coordinates":[6410,4878]},{"type":"Point","properties":{"Station_ID":"BKBW2","Station_Nam":"DAVIS.","Latitude":"39.09830","Longitude":"-79.43190","Snowdepth":"5.000","Units":"in","Rept_Date":"2019-11-13 12"},"coordinates":[5215,2199]},{"type":"Point","properties":{"Station_ID":"BENN6","Station_Nam":"BENNETTS BRIDGE","Latitude":"43.53180","Longitude":"-75.95260","Snowdepth":"5.000","Units":"in","Rept_Date":"2019-11-13 12"},"coordinates":[6239,4937]},{"type":"Point","properties":{"Station_ID":"AVON6","Station_Nam":"AVON","Latitude":"42.92030","Longitude":"-77.75580","Snowdepth":"5.000","Units":"in","Rept_Date":"2019-11-13 12"},"coordinates":[5708,4559]},{"type":"Point","properties":{"Station_ID":"ALMM4","Station_Nam":"ALMA,MI","Latitude":"43.38330","Longitude":"-84.66670","Snowdepth":"5.000","Units":"in","Rept_Date":"2019-11-13 12"},"coordinates":[3674,4845]},{"type":"Point","properties":{"Station_ID":"SOCQ6","Station_Nam":"SOCKET LAKE","Latitude":"50.77870","Longitude":"-91.79300","Snowdepth":"4.800","Units":"in","Rept_Date":"2019-11-14 06"},"coordinates":[1578,9413]},{"type":"Point","properties":{"Station_ID":"CAN-ON-324","Station_Nam":"AMHERSTBURG 4.0 NNE, CAN","Latitude":"42.13151","Longitude":"-83.08810","Snowdepth":"4.700","Units":"in","Rept_Date":"2019-11-13 12"},"coordinates":[4139,4072]},{"type":"Point","properties":{"Station_ID":"CAN-ON-232","Station_Nam":"MILFORD 0.1 NNE - QUINTE CONSERVATION, CAN","Latitude":"43.93499","Longitude":"-77.09098","Snowdepth":"4.700","Units":"in","Rept_Date":"2019-11-13 13"},"coordinates":[5904,5186]},{"type":"Point","properties":{"Station_ID":"VT-WS-19","Station_Nam":"WATERBURY 3.0 NW, VT","Latitude":"44.36060","Longitude":"-72.80770","Snowdepth":"4.500","Units":"in","Rept_Date":"2019-11-13 11"},"coordinates":[7164,5449]},{"type":"Point","properties":{"Station_ID":"VT-WS-15","Station_Nam":"EAST CALAIS 1.5 SW, VT","Latitude":"44.35523","Longitude":"-72.45540","Snowdepth":"4.500","Units":"in","Rept_Date":"2019-11-13 12"},"coordinates":[7268,5446]},{"type":"Point","properties":{"Station_ID":"VT-WR-17","Station_Nam":"ROCHESTER 2.3 NE, VT","Latitude":"43.89418","Longitude":"-72.76992","Snowdepth":"4.500","Units":"in","Rept_Date":"2019-11-13 12"},"coordinates":[7175,5161]},{"type":"Point","properties":{"Station_ID":"VT-LM-1","Station_Nam":"STOWE 0.2 SW, VT","Latitude":"44.46399","Longitude":"-72.69070","Snowdepth":"4.500","Units":"in","Rept_Date":"2019-11-13 12"},"coordinates":[7198,5513]},{"type":"Point","properties":{"Station_ID":"VT-CL-23","Station_Nam":"RYEGATE 1.5 N, VT","Latitude":"44.23024","Longitude":"-72.10523","Snowdepth":"4.500","Units":"in","Rept_Date":"2019-11-13 12"},"coordinates":[7371,5368]},{"type":"Point","properties":{"Station_ID":"VT-CL-18","Station_Nam":"WHEELOCK 1.6 S, VT","Latitude":"44.56491","Longitude":"-72.08830","Snowdepth":"4.500","Units":"in","Rept_Date":"2019-11-13 12"},"coordinates":[7376,5575]},{"type":"Point","properties":{"Station_ID":"PA-WT-42","Station_Nam":"LIGONIER 0.1 SE, PA","Latitude":"40.24319","Longitude":"-79.23526","Snowdepth":"4.500","Units":"in","Rept_Date":"2019-11-13 12"},"coordinates":[5273,2906]},{"type":"Point","properties":{"Station_ID":"PA-CW-18","Station_Nam":"CONNEAUT LAKE 1.3 WNW, PA","Latitude":"41.60816","Longitude":"-80.33371","Snowdepth":"4.500","Units":"in","Rept_Date":"2019-11-13 12"},"coordinates":[4949,3749]},{"type":"Point","properties":{"Station_ID":"OH-PT-8","Station_Nam":"STREETSBORO 2.1 SSW, OH","Latitude":"41.20976","Longitude":"-81.35480","Snowdepth":"4.500","Units":"in","Rept_Date":"2019-11-13 12"},"coordinates":[4649,3503]},{"type":"Point","properties":{"Station_ID":"OH-AL-10","Station_Nam":"LIMA 3.0 SSE, OH","Latitude":"40.70090","Longitude":"-84.09660","Snowdepth":"4.500","Units":"in","Rept_Date":"2019-11-13 12"},"coordinates":[3842,3188]},{"type":"Point","properties":{"Station_ID":"NY-TM-38","Station_Nam":"TRUMANSBURG 0.4 WNW, NY","Latitude":"42.54205","Longitude":"-76.66870","Snowdepth":"4.500","Units":"in","Rept_Date":"2019-11-13 12"},"coordinates":[6028,4326]},{"type":"Point","properties":{"Station_ID":"NY-TM-27","Station_Nam":"GROTON 3.2 SSW, NY","Latitude":"42.54725","Longitude":"-76.39960","Snowdepth":"4.500","Units":"in","Rept_Date":"2019-11-13 11"},"coordinates":[6107,4329]},{"type":"Point","properties":{"Station_ID":"NY-LV-5","Station_Nam":"DANSVILLE 1.0 ENE, NY","Latitude":"42.56802","Longitude":"-77.67900","Snowdepth":"4.500","Units":"in","Rept_Date":"2019-11-13 12"},"coordinates":[5731,4342]},{"type":"Point","properties":{"Station_ID":"NH-CS-6","Station_Nam":"BERLIN 3.9 ESE, NH","Latitude":"44.47639","Longitude":"-71.17730","Snowdepth":"4.500","Units":"in","Rept_Date":"2019-11-13 12"},"coordinates":[7644,5521]},{"type":"Point","properties":{"Station_ID":"MI-OT-17","Station_Nam":"GAYLORD 4.1 S, MI","Latitude":"44.96388","Longitude":"-84.68467","Snowdepth":"4.500","Units":"in","Rept_Date":"2019-11-13 12"},"coordinates":[3669,5822]},{"type":"Point","properties":{"Station_ID":"MI-MT-9","Station_Nam":"FENWICK 3.3 E, MI","Latitude":"43.15067","Longitude":"-85.01435","Snowdepth":"4.500","Units":"in","Rept_Date":"2019-11-13 12"},"coordinates":[3572,4702]},{"type":"Point","properties":{"Station_ID":"MI-CP-14","Station_Nam":"SAULT STE. MARIE 2.2 E, MI","Latitude":"46.48933","Longitude":"-84.31971","Snowdepth":"4.500","Units":"in","Rept_Date":"2019-11-13 12"},"coordinates":[3777,6764]},{"type":"Point","properties":{"Station_ID":"MI-BN-4","Station_Nam":"NILES 2.7 W, MI","Latitude":"41.83705","Longitude":"-86.30050","Snowdepth":"4.500","Units":"in","Rept_Date":"2019-11-13 13"},"coordinates":[3194,3890]},{"type":"Point","properties":{"Station_ID":"ME-PN-45","Station_Nam":"MILLINOCKET 2.7 ESE, ME","Latitude":"45.65002","Longitude":"-68.64472","Snowdepth":"4.500","Units":"in","Rept_Date":"2019-11-13 12"},"coordinates":[8389,6245]},{"type":"Point","properties":{"Station_ID":"IN-SJ-28","Station_Nam":"SOUTH BEND 4.6 SE, IN","Latitude":"41.62090","Longitude":"-86.21520","Snowdepth":"4.500","Units":"in","Rept_Date":"2019-11-13 12"},"coordinates":[3219,3757]},{"type":"Point","properties":{"Station_ID":"IL-MCH-43","Station_Nam":"ALGONQUIN 0.7 N, IL","Latitude":"42.17392","Longitude":"-88.29930","Snowdepth":"4.500","Units":"in","Rept_Date":"2019-11-13 12"},"coordinates":[2606,4098]},{"type":"Point","properties":{"Station_ID":"IL-MCH-33","Station_Nam":"WOODSTOCK 3.8 SW, IL","Latitude":"42.27554","Longitude":"-88.49500","Snowdepth":"4.500","Units":"in","Rept_Date":"2019-11-13 13"},"coordinates":[2548,4161]},{"type":"Point","properties":{"Station_ID":"IL-LK-81","Station_Nam":"LAKE VILLA 2.3 WSW, IL","Latitude":"42.40532","Longitude":"-88.12380","Snowdepth":"4.500","Units":"in","Rept_Date":"2019-11-13 13"},"coordinates":[2657,4241]},{"type":"Point","properties":{"Station_ID":"CAN-ON-192","Station_Nam":"STRATHROY 14.9 SSW, CAN","Latitude":"42.84097","Longitude":"-81.70844","Snowdepth":"4.500","Units":"in","Rept_Date":"2019-11-13 13"},"coordinates":[4545,4510]},{"type":"Point","properties":{"Station_ID":"PTLQ6","Station_Nam":"PORTAGE LAKE","Latitude":"49.06950","Longitude":"-86.65940","Snowdepth":"4.450","Units":"in","Rept_Date":"2019-11-14 06"},"coordinates":[3088,8358]},{"type":"Point","properties":{"Station_ID":"QLB","Station_Nam":"QLB","Latitude":"50.72360","Longitude":"-75.10000","Snowdepth":"4.449","Units":"in","Rept_Date":"2019-11-13 12"},"coordinates":[6489,9379]},{"type":"Point","properties":{"Station_ID":"QIQ","Station_Nam":"QIQ","Latitude":"49.82390","Longitude":"-68.54310","Snowdepth":"4.409","Units":"in","Rept_Date":"2019-11-13 12"},"coordinates":[8419,8824]},{"type":"Point","properties":{"Station_ID":"CAN-ON-285","Station_Nam":"LEAMINGTON 3.0 N, CAN","Latitude":"42.07693","Longitude":"-82.59744","Snowdepth":"4.300","Units":"in","Rept_Date":"2019-11-13 11"},"coordinates":[4283,4038]},{"type":"Point","properties":{"Station_ID":"CAN-ON-187","Station_Nam":"WATERLOO 1.9 E - UOFW, CAN","Latitude":"43.47024","Longitude":"-80.50634","Snowdepth":"4.300","Units":"in","Rept_Date":"2019-11-13 13"},"coordinates":[4899,4899]},{"type":"Point","properties":{"Station_ID":"FTHQ6","Station_Nam":"FORT HOPE","Latitude":"51.55820","Longitude":"-87.90510","Snowdepth":"4.210","Units":"in","Rept_Date":"2019-11-14 06"},"coordinates":[2722,9895]},{"type":"Point","properties":{"Station_ID":"YNG","Station_Nam":"YOUNGSTOWN-WARREN REG AIRPRT","Latitude":"41.25890","Longitude":"-80.67610","Snowdepth":"4.000","Units":"in","Rept_Date":"2019-11-14 00"},"coordinates":[4849,3533]},{"type":"Point","properties":{"Station_ID":"WRPW3","Station_Nam":"WATER PURIFICATION PLANT","Latitude":"44.38800","Longitude":"-89.80550","Snowdepth":"4.000","Units":"in","Rept_Date":"2019-11-13 14"},"coordinates":[2162,5466]},{"type":"Point","properties":{"Station_ID":"WI-RK-12","Station_Nam":"JANESVILLE 3.1 W, WI","Latitude":"42.67576","Longitude":"-89.07614","Snowdepth":"4.000","Units":"in","Rept_Date":"2019-11-13 13"},"coordinates":[2377,4408]},{"type":"Point","properties":{"Station_ID":"WELM4","Station_Nam":"WELLSTON TIPPY DAM","Latitude":"44.25860","Longitude":"-85.93940","Snowdepth":"4.000","Units":"in","Rept_Date":"2019-11-13 13"},"coordinates":[3300,5386]},{"type":"Point","properties":{"Station_ID":"VT-WS-10","Station_Nam":"NORTHFIELD 1.5 N, VT","Latitude":"44.16986","Longitude":"-72.65200","Snowdepth":"4.000","Units":"in","Rept_Date":"2019-11-13 12"},"coordinates":[7210,5331]},{"type":"Point","properties":{"Station_ID":"VT-RT-24","Station_Nam":"MIDDLETOWN SPRINGS 0.9 WNW, VT","Latitude":"43.49194","Longitude":"-73.13350","Snowdepth":"4.000","Units":"in","Rept_Date":"2019-11-13 12"},"coordinates":[7068,4912]},{"type":"Point","properties":{"Station_ID":"VT-OG-11","Station_Nam":"VERSHIRE 1.5 ESE, VT","Latitude":"43.96138","Longitude":"-72.29777","Snowdepth":"4.000","Units":"in","Rept_Date":"2019-11-13 13"},"coordinates":[7314,5202]},{"type":"Point","properties":{"Station_ID":"TRVM4","Station_Nam":"THREE RIVERS,MI","Latitude":"41.93330","Longitude":"-85.63330","Snowdepth":"4.000","Units":"in","Rept_Date":"2019-11-13 12"},"coordinates":[3390,3950]},{"type":"Point","properties":{"Station_ID":"TECM4","Station_Nam":"TECUMSEH,MI","Latitude":"42.00000","Longitude":"-83.95000","Snowdepth":"4.000","Units":"in","Rept_Date":"2019-11-13 11"},"coordinates":[3885,3991]},{"type":"Point","properties":{"Station_ID":"SJBV1","Station_Nam":"SAINT JOHNSBURY","Latitude":"44.42000","Longitude":"-72.01940","Snowdepth":"4.000","Units":"in","Rept_Date":"2019-11-13 21"},"coordinates":[7396,5486]},{"type":"Point","properties":{"Station_ID":"SGVN6","Station_Nam":"SPRINGVILLE","Latitude":"42.54970","Longitude":"-78.57670","Snowdepth":"4.000","Units":"in","Rept_Date":"2019-11-14 00"},"coordinates":[5466,4330]},{"type":"Point","properties":{"Station_ID":"RUTV1","Station_Nam":"RUTLAND","Latitude":"43.62530","Longitude":"-72.97810","Snowdepth":"4.000","Units":"in","Rept_Date":"2019-11-13 12"},"coordinates":[7114,4995]},{"type":"Point","properties":{"Station_ID":"ROCW3","Station_Nam":"ROCHESTER WWTP","Latitude":"42.72690","Longitude":"-88.22580","Snowdepth":"4.000","Units":"in","Rept_Date":"2019-11-13 11"},"coordinates":[2627,4440]},{"type":"Point","properties":{"Station_ID":"RFDM1","Station_Nam":"RUMFORD 7SW","Latitude":"44.49470","Longitude":"-70.65640","Snowdepth":"4.000","Units":"in","Rept_Date":"2019-11-13 12"},"coordinates":[7797,5532]},{"type":"Point","properties":{"Station_ID":"RCFI2","Station_Nam":"ROCK FALLS 3 NE","Latitude":"41.79810","Longitude":"-89.64140","Snowdepth":"4.000","Units":"in","Rept_Date":"2019-11-13 13"},"coordinates":[2211,3866]},{"type":"Point","properties":{"Station_ID":"PLLW3","Station_Nam":"PELL LAKE","Latitude":"42.53220","Longitude":"-88.33280","Snowdepth":"4.000","Units":"in","Rept_Date":"2019-11-13 14"},"coordinates":[2596,4320]},{"type":"Point","properties":{"Station_ID":"PA-WT-9","Station_Nam":"GREENSBURG 0.6 WNW, PA","Latitude":"40.31358","Longitude":"-79.55432","Snowdepth":"4.000","Units":"in","Rept_Date":"2019-11-13 12"},"coordinates":[5179,2949]},{"type":"Point","properties":{"Station_ID":"OH-PT-10","Station_Nam":"KENT 3.6 NE, OH","Latitude":"41.20083","Longitude":"-81.33890","Snowdepth":"4.000","Units":"in","Rept_Date":"2019-11-13 13"},"coordinates":[4654,3497]},{"type":"Point","properties":{"Station_ID":"OH-HC-12","Station_Nam":"FINDLAY 0.4 WSW, OH","Latitude":"41.04010","Longitude":"-83.64919","Snowdepth":"4.000","Units":"in","Rept_Date":"2019-11-13 12"},"coordinates":[3974,3398]},{"type":"Point","properties":{"Station_ID":"OH-CY-42","Station_Nam":"STRONGSVILLE 1.3 SE, OH","Latitude":"41.29815","Longitude":"-81.81507","Snowdepth":"4.000","Units":"in","Rept_Date":"2019-11-13 13"},"coordinates":[4514,3557]},{"type":"Point","properties":{"Station_ID":"OCON6","Station_Nam":"OSCEOLA","Latitude":"43.49910","Longitude":"-75.71210","Snowdepth":"4.000","Units":"in","Rept_Date":"2019-11-13 12"},"coordinates":[6309,4917]},{"type":"Point","properties":{"Station_ID":"NY-TG-5","Station_Nam":"BERKSHIRE 2.0 N, NY","Latitude":"42.33463","Longitude":"-76.18990","Snowdepth":"4.000","Units":"in","Rept_Date":"2019-11-13 12"},"coordinates":[6169,4198]},{"type":"Point","properties":{"Station_ID":"NY-OG-10","Station_Nam":"CAMILLUS 1.0 W, NY","Latitude":"43.03962","Longitude":"-76.32830","Snowdepth":"4.000","Units":"in","Rept_Date":"2019-11-13 12"},"coordinates":[6128,4633]},{"type":"Point","properties":{"Station_ID":"NY-CY-30","Station_Nam":"AUBURN 8.1 SSE, NY","Latitude":"42.82141","Longitude":"-76.52040","Snowdepth":"4.000","Units":"in","Rept_Date":"2019-11-13 13"},"coordinates":[6071,4498]},{"type":"Point","properties":{"Station_ID":"NY-CY-27","Station_Nam":"MORAVIA 5.9 ENE, NY","Latitude":"42.73491","Longitude":"-76.31137","Snowdepth":"4.000","Units":"in","Rept_Date":"2019-11-13 11"},"coordinates":[6133,4445]},{"type":"Point","properties":{"Station_ID":"NWPM4","Station_Nam":"NEWPORT 4SSE","Latitude":"41.94970","Longitude":"-83.28000","Snowdepth":"4.000","Units":"in","Rept_Date":"2019-11-13 12"},"coordinates":[4083,3960]},{"type":"Point","properties":{"Station_ID":"NILM4","Station_Nam":"NILES","Latitude":"41.84050","Longitude":"-86.26580","Snowdepth":"4.000","Units":"in","Rept_Date":"2019-11-13 20"},"coordinates":[3204,3892]},{"type":"Point","properties":{"Station_ID":"MXON6","Station_Nam":"MEXICO","Latitude":"43.43830","Longitude":"-76.26560","Snowdepth":"4.000","Units":"in","Rept_Date":"2019-11-13 12"},"coordinates":[6146,4879]},{"type":"Point","properties":{"Station_ID":"MRQM4","Station_Nam":"MARQUETTE WFP","Latitude":"46.54580","Longitude":"-87.37950","Snowdepth":"4.000","Units":"in","Rept_Date":"2019-11-13 13"},"coordinates":[2876,6799]},{"type":"Point","properties":{"Station_ID":"MOPO1","Station_Nam":"MONTPELIER","Latitude":"41.58590","Longitude":"-84.62340","Snowdepth":"4.000","Units":"in","Rept_Date":"2019-11-13 11"},"coordinates":[3687,3735]},{"type":"Point","properties":{"Station_ID":"MONW3","Station_Nam":"MONROE,WI","Latitude":"42.60000","Longitude":"-89.66670","Snowdepth":"4.000","Units":"in","Rept_Date":"2019-11-13 13"},"coordinates":[2203,4362]},{"type":"Point","properties":{"Station_ID":"MNPV1","Station_Nam":"MONTPELIER 2","Latitude":"44.25530","Longitude":"-72.60060","Snowdepth":"4.000","Units":"in","Rept_Date":"2019-11-13 12"},"coordinates":[7225,5384]},{"type":"Point","properties":{"Station_ID":"MMRN6","Station_Nam":"MOUNT MORRIS 2 W","Latitude":"42.73130","Longitude":"-77.90540","Snowdepth":"4.000","Units":"in","Rept_Date":"2019-11-13 13"},"coordinates":[5664,4443]},{"type":"Point","properties":{"Station_ID":"MKNM4","Station_Nam":"MUSKEGON 4 SE","Latitude":"43.18390","Longitude":"-86.20370","Snowdepth":"4.000","Units":"in","Rept_Date":"2019-11-14 06"},"coordinates":[3222,4722]},{"type":"Point","properties":{"Station_ID":"MIEM4","Station_Nam":"MICHIGAMME 3WNW","Latitude":"46.54530","Longitude":"-88.18000","Snowdepth":"4.000","Units":"in","Rept_Date":"2019-11-13 13"},"coordinates":[2641,6798]},{"type":"Point","properties":{"Station_ID":"MI-OC-3","Station_Nam":"HART 3 WSW, MI","Latitude":"43.67470","Longitude":"-86.42250","Snowdepth":"4.000","Units":"in","Rept_Date":"2019-11-13 12"},"coordinates":[3158,5025]},{"type":"Point","properties":{"Station_ID":"MI-MR-16","Station_Nam":"OTTAWA LAKE 1.4 SSW, MI","Latitude":"41.78278","Longitude":"-83.73895","Snowdepth":"4.000","Units":"in","Rept_Date":"2019-11-13 12"},"coordinates":[3947,3857]},{"type":"Point","properties":{"Station_ID":"MI-MR-1","Station_Nam":"NEWPORT 3.1 SE, MI","Latitude":"41.94960","Longitude":"-83.28010","Snowdepth":"4.000","Units":"in","Rept_Date":"2019-11-13 12"},"coordinates":[4082,3960]},{"type":"Point","properties":{"Station_ID":"MI-KZ-1","Station_Nam":"KALAMAZOO 6.0 SW, MI","Latitude":"42.20613","Longitude":"-85.65900","Snowdepth":"4.000","Units":"in","Rept_Date":"2019-11-13 13"},"coordinates":[3382,4118]},{"type":"Point","properties":{"Station_ID":"MI-KN-93","Station_Nam":"GRANDVILLE 0.6 SSW, MI","Latitude":"42.89531","Longitude":"-85.76006","Snowdepth":"4.000","Units":"in","Rept_Date":"2019-11-13 12"},"coordinates":[3353,4544]},{"type":"Point","properties":{"Station_ID":"MI-KN-43","Station_Nam":"CALEDONIA 4.4 WNW, MI","Latitude":"42.82526","Longitude":"-85.58940","Snowdepth":"4.000","Units":"in","Rept_Date":"2019-11-13 11"},"coordinates":[3403,4501]},{"type":"Point","properties":{"Station_ID":"MI-KN-33","Station_Nam":"GRAND RAPIDS 3.0 NW, MI","Latitude":"42.99502","Longitude":"-85.69218","Snowdepth":"4.000","Units":"in","Rept_Date":"2019-11-13 13"},"coordinates":[3373,4605]},{"type":"Point","properties":{"Station_ID":"MI-KN-32","Station_Nam":"GRAND RAPIDS 2.9 NW, MI","Latitude":"42.99191","Longitude":"-85.69440","Snowdepth":"4.000","Units":"in","Rept_Date":"2019-11-13 14"},"coordinates":[3372,4604]},{"type":"Point","properties":{"Station_ID":"MI-KN-14","Station_Nam":"GRANDVILLE 1.3 WSW, MI","Latitude":"42.89716","Longitude":"-85.77910","Snowdepth":"4.000","Units":"in","Rept_Date":"2019-11-13 12"},"coordinates":[3347,4545]},{"type":"Point","properties":{"Station_ID":"MI-AN-1","Station_Nam":"WAYLAND 2.0 W, MI","Latitude":"42.67323","Longitude":"-85.68010","Snowdepth":"4.000","Units":"in","Rept_Date":"2019-11-13 12"},"coordinates":[3376,4407]},{"type":"Point","properties":{"Station_ID":"ME-SM-4","Station_Nam":"SOLON 3.9 ESE, ME","Latitude":"44.94705","Longitude":"-69.77790","Snowdepth":"4.000","Units":"in","Rept_Date":"2019-11-13 12"},"coordinates":[8055,5811]},{"type":"Point","properties":{"Station_ID":"ME-FR-4","Station_Nam":"NEW SHARON 2.0 NW, ME","Latitude":"44.66582","Longitude":"-70.02720","Snowdepth":"4.000","Units":"in","Rept_Date":"2019-11-13 12"},"coordinates":[7982,5638]},{"type":"Point","properties":{"Station_ID":"MD-GR-4","Station_Nam":"MC HENRY 4.8 SSE, MD","Latitude":"39.48539","Longitude":"-79.31830","Snowdepth":"4.000","Units":"in","Rept_Date":"2019-11-13 13"},"coordinates":[5248,2438]},{"type":"Point","properties":{"Station_ID":"LOWN6","Station_Nam":"LOWVILLE","Latitude":"43.79280","Longitude":"-75.48290","Snowdepth":"4.000","Units":"in","Rept_Date":"2019-11-13 12"},"coordinates":[6377,5098]},{"type":"Point","properties":{"Station_ID":"LNVP1","Station_Nam":"PA FISH COMMISSION HATCHERY","Latitude":"41.65000","Longitude":"-80.43330","Snowdepth":"4.000","Units":"in","Rept_Date":"2019-11-13 12"},"coordinates":[4920,3775]},{"type":"Point","properties":{"Station_ID":"LNOW3","Station_Nam":"LAND O LAKES","Latitude":"46.19000","Longitude":"-89.45700","Snowdepth":"4.000","Units":"in","Rept_Date":"2019-11-13 13"},"coordinates":[2265,6579]},{"type":"Point","properties":{"Station_ID":"LANM4","Station_Nam":"LANSING 2 WNW","Latitude":"42.74530","Longitude":"-84.58830","Snowdepth":"4.000","Units":"in","Rept_Date":"2019-11-14 05"},"coordinates":[3698,4451]},{"type":"Point","properties":{"Station_ID":"LAN","Station_Nam":"CAPITAL CITY AIRPORT","Latitude":"42.77860","Longitude":"-84.58720","Snowdepth":"4.000","Units":"in","Rept_Date":"2019-11-14 00"},"coordinates":[3698,4472]},{"type":"Point","properties":{"Station_ID":"KYNG","Station_Nam":"YOUNGSTOWN-WARREN REG AIRPRT","Latitude":"41.25000","Longitude":"-80.66666","Snowdepth":"4.000","Units":"in","Rept_Date":"2019-11-14 06"},"coordinates":[4851,3528]},{"type":"Point","properties":{"Station_ID":"KUKN6","Station_Nam":"LAKESIDE","Latitude":"43.37140","Longitude":"-78.26630","Snowdepth":"4.000","Units":"in","Rept_Date":"2019-11-13 12"},"coordinates":[5558,4838]},{"type":"Point","properties":{"Station_ID":"KRFD","Station_Nam":"GREATER ROCKFORD AIRPORT","Latitude":"42.20000","Longitude":"-89.10000","Snowdepth":"4.000","Units":"in","Rept_Date":"2019-11-14 06"},"coordinates":[2370,4114]},{"type":"Point","properties":{"Station_ID":"KMTC","Station_Nam":"SELFRIDGE AIR NATIONAL GUARD BASE","Latitude":"42.61666","Longitude":"-82.83333","Snowdepth":"4.000","Units":"in","Rept_Date":"2019-11-14 00"},"coordinates":[4214,4372]},{"type":"Point","properties":{"Station_ID":"JSTN6","Station_Nam":"JAMESTOWN 4 ENE","Latitude":"42.11000","Longitude":"-79.15910","Snowdepth":"4.000","Units":"in","Rept_Date":"2019-11-13 12"},"coordinates":[5295,4059]},{"type":"Point","properties":{"Station_ID":"JKMM1","Station_Nam":"JACKMAN","Latitude":"45.62600","Longitude":"-70.24600","Snowdepth":"4.000","Units":"in","Rept_Date":"2019-11-13 12"},"coordinates":[7918,6231]},{"type":"Point","properties":{"Station_ID":"IWXI3","Station_Nam":"NORTHERN INDIANA WFO","Latitude":"41.35880","Longitude":"-85.69970","Snowdepth":"4.000","Units":"in","Rept_Date":"2019-11-14 06"},"coordinates":[3371,3595]},{"type":"Point","properties":{"Station_ID":"IWX","Station_Nam":"NORTHERN INDIANA, IN","Latitude":"41.35890","Longitude":"-85.70000","Snowdepth":"4.000","Units":"in","Rept_Date":"2019-11-14 00"},"coordinates":[3370,3595]},{"type":"Point","properties":{"Station_ID":"IN-SJ-26","Station_Nam":"MISHAWAKA 3.9 ENE, IN","Latitude":"41.68329","Longitude":"-86.09540","Snowdepth":"4.000","Units":"in","Rept_Date":"2019-11-13 12"},"coordinates":[3254,3795]},{"type":"Point","properties":{"Station_ID":"IN-PT-3","Station_Nam":"VALPARAISO 2.0 WSW, IN","Latitude":"41.46741","Longitude":"-87.08750","Snowdepth":"4.000","Units":"in","Rept_Date":"2019-11-13 13"},"coordinates":[2962,3662]},{"type":"Point","properties":{"Station_ID":"IN-NB-11","Station_Nam":"ALBION 3.7 S, IN","Latitude":"41.34161","Longitude":"-85.41560","Snowdepth":"4.000","Units":"in","Rept_Date":"2019-11-13 14"},"coordinates":[3454,3584]},{"type":"Point","properties":{"Station_ID":"IN-EL-36","Station_Nam":"ELKHART 4.8 SW, IN","Latitude":"41.64249","Longitude":"-86.04150","Snowdepth":"4.000","Units":"in","Rept_Date":"2019-11-13 13"},"coordinates":[3270,3770]},{"type":"Point","properties":{"Station_ID":"IL-SP-7","Station_Nam":"DAVIS 0.5 N, IL","Latitude":"42.42919","Longitude":"-89.41730","Snowdepth":"4.000","Units":"in","Rept_Date":"2019-11-13 13"},"coordinates":[2277,4256]},{"type":"Point","properties":{"Station_ID":"IL-SP-6","Station_Nam":"FREEPORT 2.0 NW, IL","Latitude":"42.30955","Longitude":"-89.66370","Snowdepth":"4.000","Units":"in","Rept_Date":"2019-11-13 14"},"coordinates":[2204,4182]},{"type":"Point","properties":{"Station_ID":"IL-SP-25","Station_Nam":"FREEPORT 1.7 NW, IL","Latitude":"42.30427","Longitude":"-89.66285","Snowdepth":"4.000","Units":"in","Rept_Date":"2019-11-13 13"},"coordinates":[2204,4179]},{"type":"Point","properties":{"Station_ID":"IL-MCH-30","Station_Nam":"WONDER LAKE 0.8 WNW, IL","Latitude":"42.38354","Longitude":"-88.37090","Snowdepth":"4.000","Units":"in","Rept_Date":"2019-11-13 13"},"coordinates":[2585,4228]},