{"type":"Topology","objects":{"snowdepth_geo":{"type":"GeometryCollection","name":"snowdepth","crs":{"type":"name","properties":{"name":"urn:ogc:def:crs:OGC:1.3:CRS84"}},"geometries":[{"type":"Point","properties":{"Station_ID":"PRKM4","Station_Nam":"MUNISING EAST","Latitude":"46.42580","Longitude":"-86.62000","Snowdepth":"76.500","Units":"in","Rept_Date":"2020-03-16 06"},"coordinates":[2492,5802]},{"type":"Point","properties":{"Station_ID":"HTLN3","Station_Nam":"HERMIT LAKE SNOWPLOT","Latitude":"44.26130","Longitude":"-71.28330","Snowdepth":"62.000","Units":"in","Rept_Date":"2020-03-15 09"},"coordinates":[6092,4088]},{"type":"Point","properties":{"Station_ID":"OGIQ6","Station_Nam":"OGOKI CAMP","Latitude":"50.76680","Longitude":"-87.85820","Snowdepth":"61.100","Units":"in","Rept_Date":"2020-03-16 06"},"coordinates":[2202,9239]},{"type":"Point","properties":{"Station_ID":"HVCN3","Station_Nam":"HARVARD CABIN SNOWPLOT","Latitude":"44.26630","Longitude":"-71.27790","Snowdepth":"50.000","Units":"in","Rept_Date":"2020-03-15 09"},"coordinates":[6093,4092]},{"type":"Point","properties":{"Station_ID":"PDLM4","Station_Nam":"PAINESDALE","Latitude":"47.04160","Longitude":"-88.67170","Snowdepth":"48.000","Units":"in","Rept_Date":"2020-03-15 12"},"coordinates":[2011,6289]},{"type":"Point","properties":{"Station_ID":"AUDQ6","Station_Nam":"AUDEN","Latitude":"48.52600","Longitude":"-82.57570","Snowdepth":"47.640","Units":"in","Rept_Date":"2020-03-16 06"},"coordinates":[3441,7465]},{"type":"Point","properties":{"Station_ID":"DVLQ6","Station_Nam":"DEVIOUS LAKE","Latitude":"49.19890","Longitude":"-87.76440","Snowdepth":"43.460","Units":"in","Rept_Date":"2020-03-16 06"},"coordinates":[2224,7997]},{"type":"Point","properties":{"Station_ID":"CAN-NL-82","Station_Nam":"GANDER 2.7 NW, CAN","Latitude":"48.97737","Longitude":"-54.63396","Snowdepth":"38.600","Units":"in","Rept_Date":"2020-03-15 10"},"coordinates":[9999,7822]},{"type":"Point","properties":{"Station_ID":"KSGM4","Station_Nam":"KEARSARGE","Latitude":"47.27520","Longitude":"-88.41700","Snowdepth":"38.000","Units":"in","Rept_Date":"2020-03-15 12"},"coordinates":[2070,6474]},{"type":"Point","properties":{"Station_ID":"CAN-NS-39","Station_Nam":"ST. ANNS 2.8 NW, CA","Latitude":"46.25082","Longitude":"-60.64340","Snowdepth":"38.000","Units":"in","Rept_Date":"2020-03-15 12"},"coordinates":[8589,5663]},{"type":"Point","properties":{"Station_ID":"ME-AR-18","Station_Nam":"NEW SWEDEN 4.9 NNW, ME","Latitude":"47.01080","Longitude":"-68.14390","Snowdepth":"37.000","Units":"in","Rept_Date":"2020-03-15 12"},"coordinates":[6828,6265]},{"type":"Point","properties":{"Station_ID":"QNCM4","Station_Nam":"QUINCY HILL","Latitude":"47.13640","Longitude":"-88.57950","Snowdepth":"35.000","Units":"in","Rept_Date":"2020-03-15 11"},"coordinates":[2032,6364]},{"type":"Point","properties":{"Station_ID":"MNSM4","Station_Nam":"MUNISING","Latitude":"46.41210","Longitude":"-86.66250","Snowdepth":"35.000","Units":"in","Rept_Date":"2020-03-15 10"},"coordinates":[2482,5791]},{"type":"Point","properties":{"Station_ID":"CAN-NB-105","Station_Nam":"SISSON BROOK 3.8 E, CAN","Latitude":"46.98305","Longitude":"-67.32532","Snowdepth":"33.500","Units":"in","Rept_Date":"2020-03-15 12"},"coordinates":[7020,6243]},{"type":"Point","properties":{"Station_ID":"WLFM5","Station_Nam":"WOLF RIDGE ENVIRON LEARNING CENTER","Latitude":"47.38240","Longitude":"-91.19730","Snowdepth":"33.000","Units":"in","Rept_Date":"2020-03-15 12"},"coordinates":[1418,6559]},{"type":"Point","properties":{"Station_ID":"VANM1","Station_Nam":"VAN BUREN","Latitude":"47.16600","Longitude":"-67.93900","Snowdepth":"33.000","Units":"in","Rept_Date":"2020-03-15 11"},"coordinates":[6876,6388]},{"type":"Point","properties":{"Station_ID":"MQT","Station_Nam":"MARQUETTE, MI","Latitude":"46.53140","Longitude":"-87.54920","Snowdepth":"32.000","Units":"in","Rept_Date":"2020-03-16 06"},"coordinates":[2274,5885]},{"type":"Point","properties":{"Station_ID":"FISM1","Station_Nam":"FORT KENT COOP","Latitude":"47.23850","Longitude":"-68.61240","Snowdepth":"32.000","Units":"in","Rept_Date":"2020-03-15 11"},"coordinates":[6718,6445]},{"type":"Point","properties":{"Station_ID":"CAN-NL-65","Station_Nam":"KIPPENS 0.7 NE, CA","Latitude":"48.55436","Longitude":"-58.61850","Snowdepth":"32.000","Units":"in","Rept_Date":"2020-03-15 12"},"coordinates":[9064,7487]},{"type":"Point","properties":{"Station_ID":"CAN-NB-13","Station_Nam":"BATHURST 3.8 NW, CAN","Latitude":"47.64212","Longitude":"-65.68756","Snowdepth":"32.000","Units":"in","Rept_Date":"2020-03-15 11"},"coordinates":[7405,6765]},{"type":"Point","properties":{"Station_ID":"CAN-QC-47","Station_Nam":"SAINTE-FOY 1.8 ENE, CAN","Latitude":"46.76934","Longitude":"-71.27124","Snowdepth":"31.700","Units":"in","Rept_Date":"2020-03-15 12"},"coordinates":[6094,6074]},{"type":"Point","properties":{"Station_ID":"PTLQ6","Station_Nam":"PORTAGE LAKE","Latitude":"49.06950","Longitude":"-86.65940","Snowdepth":"31.100","Units":"in","Rept_Date":"2020-03-16 06"},"coordinates":[2483,7895]},{"type":"Point","properties":{"Station_ID":"STEM4","Station_Nam":"STEUBEN","Latitude":"46.18530","Longitude":"-86.46410","Snowdepth":"31.000","Units":"in","Rept_Date":"2020-03-15 13"},"coordinates":[2529,5611]},{"type":"Point","properties":{"Station_ID":"CARM1","Station_Nam":"CARIBOU WFO","Latitude":"46.86810","Longitude":"-68.01250","Snowdepth":"31.000","Units":"in","Rept_Date":"2020-03-15 12"},"coordinates":[6859,6152]},{"type":"Point","properties":{"Station_ID":"CAR","Station_Nam":"CARIBOU, ME","Latitude":"46.86830","Longitude":"-68.01360","Snowdepth":"31.000","Units":"in","Rept_Date":"2020-03-15 12"},"coordinates":[6859,6152]},{"type":"Point","properties":{"Station_ID":"MI-BG-3","Station_Nam":"L'ANSE 17.8 SE, MI","Latitude":"46.55730","Longitude":"-88.20770","Snowdepth":"30.000","Units":"in","Rept_Date":"2020-03-15 13"},"coordinates":[2119,5906]},{"type":"Point","properties":{"Station_ID":"CAN-NB-11","Station_Nam":"MIRAMICHI 3.3 S, CAN","Latitude":"46.99343","Longitude":"-65.50690","Snowdepth":"30.000","Units":"in","Rept_Date":"2020-03-15 11"},"coordinates":[7447,6251]},{"type":"Point","properties":{"Station_ID":"MI-HG-6","Station_Nam":"CALUMET 5.8 ENE, MI","Latitude":"47.27200","Longitude":"-88.33400","Snowdepth":"28.000","Units":"in","Rept_Date":"2020-03-15 11"},"coordinates":[2090,6472]},{"type":"Point","properties":{"Station_ID":"HERM4","Station_Nam":"HERMAN,MI","Latitude":"46.65000","Longitude":"-88.33330","Snowdepth":"28.000","Units":"in","Rept_Date":"2020-03-15 12"},"coordinates":[2090,5979]},{"type":"Point","properties":{"Station_ID":"SVBQ6","Station_Nam":"SAVANT BASE","Latitude":"50.28730","Longitude":"-90.65670","Snowdepth":"27.090","Units":"in","Rept_Date":"2020-03-16 06"},"coordinates":[1545,8859]},{"type":"Point","properties":{"Station_ID":"TRIQ6","Station_Nam":"TRIO LAKE","Latitude":"49.22880","Longitude":"-87.22920","Snowdepth":"26.060","Units":"in","Rept_Date":"2020-03-16 06"},"coordinates":[2349,8021]},{"type":"Point","properties":{"Station_ID":"IBLM5","Station_Nam":"ISABELLA 14W","Latitude":"47.59360","Longitude":"-91.65140","Snowdepth":"26.000","Units":"in","Rept_Date":"2020-03-15 14"},"coordinates":[1311,6726]},{"type":"Point","properties":{"Station_ID":"BERM4","Station_Nam":"BERGLAND DAM","Latitude":"46.58690","Longitude":"-89.54750","Snowdepth":"25.000","Units":"in","Rept_Date":"2020-03-15 12"},"coordinates":[1805,5929]},{"type":"Point","properties":{"Station_ID":"MI-HG-1","Station_Nam":"HOUGHTON 1.6 ESE, MI","Latitude":"47.10774","Longitude":"-88.52940","Snowdepth":"24.000","Units":"in","Rept_Date":"2020-03-15 13"},"coordinates":[2044,6342]},{"type":"Point","properties":{"Station_ID":"LILM1","Station_Nam":"LILLE","Latitude":"47.27770","Longitude":"-68.10520","Snowdepth":"24.000","Units":"in","Rept_Date":"2020-03-15 11"},"coordinates":[6837,6476]},{"type":"Point","properties":{"Station_ID":"GNLM4","Station_Nam":"GREENLAND 6N","Latitude":"46.87360","Longitude":"-89.10060","Snowdepth":"24.000","Units":"in","Rept_Date":"2020-03-15 12"},"coordinates":[1910,6156]},{"type":"Point","properties":{"Station_ID":"CAN-NB-96","Station_Nam":"SAINT-IGNACE 2.6 NE, CAN","Latitude":"46.71424","Longitude":"-65.05609","Snowdepth":"23.600","Units":"in","Rept_Date":"2020-03-15 11"},"coordinates":[7553,6030]},{"type":"Point","properties":{"Station_ID":"KABQ6","Station_Nam":"CAB LAKE","Latitude":"49.59950","Longitude":"-89.17990","Snowdepth":"23.270","Units":"in","Rept_Date":"2020-03-16 06"},"coordinates":[1891,8315]},{"type":"Point","properties":{"Station_ID":"SOCQ6","Station_Nam":"SOCKET LAKE","Latitude":"50.77870","Longitude":"-91.79300","Snowdepth":"23.150","Units":"in","Rept_Date":"2020-03-16 06"},"coordinates":[1278,9248]},{"type":"Point","properties":{"Station_ID":"ME-AR-15","Station_Nam":"PRESQUE ISLE 1.3 WSW, ME","Latitude":"46.67960","Longitude":"-68.01270","Snowdepth":"23.000","Units":"in","Rept_Date":"2020-03-15 12"},"coordinates":[6859,6003]},{"type":"Point","properties":{"Station_ID":"CRVW3","Station_Nam":"CRIVITZ HIGH FALLS","Latitude":"45.35750","Longitude":"-88.19190","Snowdepth":"22.000","Units":"in","Rept_Date":"2020-03-15 12"},"coordinates":[2123,4956]},{"type":"Point","properties":{"Station_ID":"CATQ6","Station_Nam":"CAT LAKE","Latitude":"51.72690","Longitude":"-91.82210","Snowdepth":"21.930","Units":"in","Rept_Date":"2020-03-16 06"},"coordinates":[1271,9999]},{"type":"Point","properties":{"Station_ID":"WI-VL-9","Station_Nam":"LAND O' LAKES 11.7 W, WI","Latitude":"46.19023","Longitude":"-89.45790","Snowdepth":"21.000","Units":"in","Rept_Date":"2020-03-15 13"},"coordinates":[1826,5615]},{"type":"Point","properties":{"Station_ID":"SSMM4","Station_Nam":"SAULT STE MARIE","Latitude":"46.48660","Longitude":"-84.40250","Snowdepth":"21.000","Units":"in","Rept_Date":"2020-03-15 12"},"coordinates":[3013,5850]},{"type":"Point","properties":{"Station_ID":"MN-CK-18","Station_Nam":"GRAND MARAIS 4.4 WSW, MN","Latitude":"47.74462","Longitude":"-90.43796","Snowdepth":"21.000","Units":"in","Rept_Date":"2020-03-15 13"},"coordinates":[1596,6846]},{"type":"Point","properties":{"Station_ID":"LNOW3","Station_Nam":"LAND O LAKES","Latitude":"46.19000","Longitude":"-89.45700","Snowdepth":"21.000","Units":"in","Rept_Date":"2020-03-15 12"},"coordinates":[1826,5615]},{"type":"Point","properties":{"Station_ID":"GLDM4","Station_Nam":"GLADSTONE NO. 2","Latitude":"45.84330","Longitude":"-87.03910","Snowdepth":"21.000","Units":"in","Rept_Date":"2020-03-15 11"},"coordinates":[2394,5341]},{"type":"Point","properties":{"Station_ID":"PDGM4","Station_Nam":"PAULDING","Latitude":"46.39760","Longitude":"-89.17940","Snowdepth":"20.000","Units":"in","Rept_Date":"2020-03-15 12"},"coordinates":[1891,5779]},{"type":"Point","properties":{"Station_ID":"MI-MQ-19","Station_Nam":"ISHPEMING 7.2 SW, MI","Latitude":"46.40550","Longitude":"-87.75670","Snowdepth":"20.000","Units":"in","Rept_Date":"2020-03-15 11"},"coordinates":[2225,5786]},{"type":"Point","properties":{"Station_ID":"ME-PN-45","Station_Nam":"MILLINOCKET 2.7 ESE, ME","Latitude":"45.65002","Longitude":"-68.64472","Snowdepth":"20.000","Units":"in","Rept_Date":"2020-03-15 12"},"coordinates":[6711,5187]},{"type":"Point","properties":{"Station_ID":"IWOM4","Station_Nam":"IRONWOOD#2","Latitude":"46.46520","Longitude":"-90.13820","Snowdepth":"20.000","Units":"in","Rept_Date":"2020-03-15 12"},"coordinates":[1666,5833]},{"type":"Point","properties":{"Station_ID":"IFSM5","Station_Nam":"INTERNATIONAL FALLS SNOW","Latitude":"48.57780","Longitude":"-93.39640","Snowdepth":"20.000","Units":"in","Rept_Date":"2020-03-16 06"},"coordinates":[902,7506]},{"type":"Point","properties":{"Station_ID":"EVRW3","Station_Nam":"EAGLE RIVER-4 E","Latitude":"45.91890","Longitude":"-89.15280","Snowdepth":"20.000","Units":"in","Rept_Date":"2020-03-15 12"},"coordinates":[1898,5400]},{"type":"Point","properties":{"Station_ID":"CAN-NB-18","Station_Nam":"MCLEOD HILL 1.1 ENE, CA","Latitude":"46.02725","Longitude":"-66.67460","Snowdepth":"20.000","Units":"in","Rept_Date":"2020-03-15 12"},"coordinates":[7173,5486]},{"type":"Point","properties":{"Station_ID":"ANJM4","Station_Nam":"SNOW PAID OBSERVER FOR KANJ","Latitude":"46.48670","Longitude":"-84.40260","Snowdepth":"20.000","Units":"in","Rept_Date":"2020-03-15 18"},"coordinates":[3013,5850]},{"type":"Point","properties":{"Station_ID":"ANJ","Station_Nam":"SAULT STE MARIE","Latitude":"46.46670","Longitude":"-84.36670","Snowdepth":"20.000","Units":"in","Rept_Date":"2020-03-16 00"},"coordinates":[3021,5834]},{"type":"Point","properties":{"Station_ID":"VT-OL-12","Station_Nam":"GREENSBORO 3.9 NNE, VT","Latitude":"44.63100","Longitude":"-72.28000","Snowdepth":"19.000","Units":"in","Rept_Date":"2020-03-15 14"},"coordinates":[5858,4381]},{"type":"Point","properties":{"Station_ID":"SUAW3","Station_Nam":"SUAMICO","Latitude":"44.60190","Longitude":"-88.09780","Snowdepth":"19.000","Units":"in","Rept_Date":"2020-03-15 16"},"coordinates":[2145,4358]},{"type":"Point","properties":{"Station_ID":"NH-CS-10","Station_Nam":"RANDOLPH 1.4 NE, NH","Latitude":"44.38824","Longitude":"-71.26950","Snowdepth":"19.000","Units":"in","Rept_Date":"2020-03-15 12"},"coordinates":[6095,4188]},{"type":"Point","properties":{"Station_ID":"BBEM4","Station_Nam":"BIG BAY 9SW","Latitude":"46.74620","Longitude":"-87.88160","Snowdepth":"19.000","Units":"in","Rept_Date":"2020-03-15 12"},"coordinates":[2196,6055]},{"type":"Point","properties":{"Station_ID":"WI-VL-14","Station_Nam":"BOULDER JUNCTION 1.4 NE, WI","Latitude":"46.12840","Longitude":"-89.62470","Snowdepth":"18.000","Units":"in","Rept_Date":"2020-03-15 13"},"coordinates":[1787,5566]},{"type":"Point","properties":{"Station_ID":"RGNM1","Station_Nam":"RANGELEY 2NW","Latitude":"44.98940","Longitude":"-70.67220","Snowdepth":"18.000","Units":"in","Rept_Date":"2020-03-15 13"},"coordinates":[6235,4664]},{"type":"Point","properties":{"Station_ID":"PRDM4","Station_Nam":"PARADISE","Latitude":"46.60380","Longitude":"-85.03960","Snowdepth":"18.000","Units":"in","Rept_Date":"2020-03-15 10"},"coordinates":[2863,5943]},{"type":"Point","properties":{"Station_ID":"MN-IT-23","Station_Nam":"BOVEY 13.4 N, MN","Latitude":"47.48855","Longitude":"-93.43497","Snowdepth":"18.000","Units":"in","Rept_Date":"2020-03-15 13"},"coordinates":[893,6643]},{"type":"Point","properties":{"Station_ID":"MN-IT-17","Station_Nam":"GRAND RAPIDS 6.1 N, MN","Latitude":"47.31165","Longitude":"-93.55036","Snowdepth":"18.000","Units":"in","Rept_Date":"2020-03-15 13"},"coordinates":[866,6503]},{"type":"Point","properties":{"Station_ID":"LVDW3","Station_Nam":"LAC VIEUX DESERT","Latitude":"46.12110","Longitude":"-89.07580","Snowdepth":"18.000","Units":"in","Rept_Date":"2020-03-15 14"},"coordinates":[1916,5560]},{"type":"Point","properties":{"Station_ID":"VT-CL-3","Station_Nam":"GROTON 4.4 WSW, VT","Latitude":"44.19440","Longitude":"-72.28240","Snowdepth":"17.500","Units":"in","Rept_Date":"2020-03-15 11"},"coordinates":[5857,4035]},{"type":"Point","properties":{"Station_ID":"WNBM5","Station_Nam":"DAM","Latitude":"47.43060","Longitude":"-94.05000","Snowdepth":"17.000","Units":"in","Rept_Date":"2020-03-15 13"},"coordinates":[748,6597]},{"type":"Point","properties":{"Station_ID":"WI-BY-2","Station_Nam":"MELLEN 18.6 SW, WI","Latitude":"46.16937","Longitude":"-90.98090","Snowdepth":"17.000","Units":"in","Rept_Date":"2020-03-15 13"},"coordinates":[1469,5599]},{"type":"Point","properties":{"Station_ID":"STGW3","Station_Nam":"ST GERMAIN","Latitude":"45.91550","Longitude":"-89.48940","Snowdepth":"17.000","Units":"in","Rept_Date":"2020-03-15 16"},"coordinates":[1819,5398]},{"type":"Point","properties":{"Station_ID":"PHEW3","Station_Nam":"PHELPS","Latitude":"46.06630","Longitude":"-89.07520","Snowdepth":"17.000","Units":"in","Rept_Date":"2020-03-15 12"},"coordinates":[1916,5517]},{"type":"Point","properties":{"Station_ID":"MIEM4","Station_Nam":"MICHIGAMME 3WNW","Latitude":"46.54530","Longitude":"-88.18000","Snowdepth":"17.000","Units":"in","Rept_Date":"2020-03-15 12"},"coordinates":[2126,5896]},{"type":"Point","properties":{"Station_ID":"INL","Station_Nam":"FALLS INTERNATIONAL ARPT","Latitude":"48.56640","Longitude":"-93.40310","Snowdepth":"17.000","Units":"in","Rept_Date":"2020-03-16 00"},"coordinates":[900,7497]},{"type":"Point","properties":{"Station_ID":"HURW3","Station_Nam":"HURLEY","Latitude":"46.46250","Longitude":"-90.19550","Snowdepth":"17.000","Units":"in","Rept_Date":"2020-03-15 13"},"coordinates":[1653,5831]},{"type":"Point","properties":{"Station_ID":"DLH","Station_Nam":"DULUTH, MN","Latitude":"46.83690","Longitude":"-92.21030","Snowdepth":"17.000","Units":"in","Rept_Date":"2020-03-16 00"},"coordinates":[1180,6127]},{"type":"Point","properties":{"Station_ID":"CMKW3","Station_Nam":"CLAM LAKE 4W","Latitude":"46.16940","Longitude":"-90.98080","Snowdepth":"17.000","Units":"in","Rept_Date":"2020-03-15 12"},"coordinates":[1469,5599]},{"type":"Point","properties":{"Station_ID":"BGBM4","Station_Nam":"BIG BAY 1NW","Latitude":"46.83250","Longitude":"-87.75040","Snowdepth":"17.000","Units":"in","Rept_Date":"2020-03-15 12"},"coordinates":[2227,6124]},{"type":"Point","properties":{"Station_ID":"MI-CP-14","Station_Nam":"SAULT STE. MARIE 2.2 E, MI","Latitude":"46.48933","Longitude":"-84.31971","Snowdepth":"16.500","Units":"in","Rept_Date":"2020-03-15 13"},"coordinates":[3032,5852]},{"type":"Point","properties":{"Station_ID":"CAN-NS-103","Station_Nam":"TRAFALGAR 4.9 WSW, CAN","Latitude":"45.26217","Longitude":"-62.72285","Snowdepth":"16.500","Units":"in","Rept_Date":"2020-03-15 12"},"coordinates":[8101,4880]},{"type":"Point","properties":{"Station_ID":"WTNM4","Station_Nam":"WATTON 2WSW","Latitude":"46.52660","Longitude":"-88.64240","Snowdepth":"16.000","Units":"in","Rept_Date":"2020-03-15 12"},"coordinates":[2017,5882]},{"type":"Point","properties":{"Station_ID":"WI-BY-22","Station_Nam":"MASON 11.5 WNW, WI","Latitude":"46.50198","Longitude":"-91.28339","Snowdepth":"16.000","Units":"in","Rept_Date":"2020-03-15 14"},"coordinates":[1398,5862]},{"type":"Point","properties":{"Station_ID":"MNV905PW","Station_Nam":"ROOSEVELT 5.3 N","Latitude":"48.87933","Longitude":"-95.08224","Snowdepth":"16.000","Units":"in","Rept_Date":"2020-03-15 12"},"coordinates":[506,7744]},{"type":"Point","properties":{"Station_ID":"MI-GG-4","Station_Nam":"WATERSMEET 5.0 SE, MI","Latitude":"46.20333","Longitude":"-89.13170","Snowdepth":"16.000","Units":"in","Rept_Date":"2020-03-15 14"},"coordinates":[1903,5626]},{"type":"Point","properties":{"Station_ID":"LEIM5","Station_Nam":"ORR 3E","Latitude":"48.05810","Longitude":"-92.75220","Snowdepth":"16.000","Units":"in","Rept_Date":"2020-03-15 11"},"coordinates":[1053,7094]},{"type":"Point","properties":{"Station_ID":"JKMM1","Station_Nam":"JACKMAN","Latitude":"45.62600","Longitude":"-70.24600","Snowdepth":"16.000","Units":"in","Rept_Date":"2020-03-15 11"},"coordinates":[6335,5168]},{"type":"Point","properties":{"Station_ID":"GGRM4","Station_Nam":"GREEN GARDEN NO.2","Latitude":"46.45330","Longitude":"-87.30380","Snowdepth":"16.000","Units":"in","Rept_Date":"2020-03-15 12"},"coordinates":[2332,5824]},{"type":"Point","properties":{"Station_ID":"EMBM5","Station_Nam":"EMBARASS,MN","Latitude":"47.65810","Longitude":"-92.19580","Snowdepth":"16.000","Units":"in","Rept_Date":"2020-03-15 13"},"coordinates":[1184,6777]},{"type":"Point","properties":{"Station_ID":"ELYM5","Station_Nam":"ELY","Latitude":"47.90560","Longitude":"-91.82830","Snowdepth":"16.000","Units":"in","Rept_Date":"2020-03-15 13"},"coordinates":[1270,6973]},{"type":"Point","properties":{"Station_ID":"DLHM5","Station_Nam":"DULUTH NWS","Latitude":"46.83680","Longitude":"-92.21080","Snowdepth":"16.000","Units":"in","Rept_Date":"2020-03-16 06"},"coordinates":[1180,6127]},{"type":"Point","properties":{"Station_ID":"CAN-NS-60","Station_Nam":"SYDNEY FORKS, CAN","Latitude":"46.05645","Longitude":"-60.31510","Snowdepth":"16.000","Units":"in","Rept_Date":"2020-03-15 14"},"coordinates":[8666,5509]},{"type":"Point","properties":{"Station_ID":"BNDM5","Station_Nam":"ELY 25E","Latitude":"47.97190","Longitude":"-91.44860","Snowdepth":"16.000","Units":"in","Rept_Date":"2020-03-15 12"},"coordinates":[1359,7026]},{"type":"Point","properties":{"Station_ID":"WI-BY-14","Station_Nam":"ASHLAND 9.8 W, WI","Latitude":"46.59742","Longitude":"-91.07856","Snowdepth":"15.500","Units":"in","Rept_Date":"2020-03-15 12"},"coordinates":[1446,5938]},{"type":"Point","properties":{"Station_ID":"CAN-ON-526","Station_Nam":"HILTON BEACH 0.7 SW - MNRF, CAN","Latitude":"46.25357","Longitude":"-83.90014","Snowdepth":"15.400","Units":"in","Rept_Date":"2020-03-15 12"},"coordinates":[3130,5665]},{"type":"Point","properties":{"Station_ID":"FTHQ6","Station_Nam":"FORT HOPE","Latitude":"51.55820","Longitude":"-87.90510","Snowdepth":"15.280","Units":"in","Rept_Date":"2020-03-16 06"},"coordinates":[2191,9865]},{"type":"Point","properties":{"Station_ID":"WI-ON-4","Station_Nam":"RHINELANDER 0.6 SSW, WI","Latitude":"45.63141","Longitude":"-89.41470","Snowdepth":"15.000","Units":"in","Rept_Date":"2020-03-15 13"},"coordinates":[1836,5173]},{"type":"Point","properties":{"Station_ID":"WI-IR-3","Station_Nam":"PENCE 0.1 E, WI","Latitude":"46.41555","Longitude":"-90.27013","Snowdepth":"15.000","Units":"in","Rept_Date":"2020-03-15 13"},"coordinates":[1635,5794]},{"type":"Point","properties":{"Station_ID":"TOGM5","Station_Nam":"CELINA 2E","Latitude":"47.86630","Longitude":"-93.02660","Snowdepth":"15.000","Units":"in","Rept_Date":"2020-03-15 13"},"coordinates":[989,6942]},{"type":"Point","properties":{"Station_ID":"MI-DL-1","Station_Nam":"GARDEN CORNERS 0.8 NW, MI","Latitude":"45.89815","Longitude":"-86.54850","Snowdepth":"15.000","Units":"in","Rept_Date":"2020-03-15 13"},"coordinates":[2509,5384]},{"type":"Point","properties":{"Station_ID":"KINM1","Station_Nam":"KINGFIELD","Latitude":"44.95950","Longitude":"-70.17530","Snowdepth":"15.000","Units":"in","Rept_Date":"2020-03-15 11"},"coordinates":[6352,4641]},{"type":"Point","properties":{"Station_ID":"JCBM4","Station_Nam":"JACOBSVILLE","Latitude":"47.00830","Longitude":"-88.43180","Snowdepth":"15.000","Units":"in","Rept_Date":"2020-03-15 11"},"coordinates":[2067,6263]},{"type":"Point","properties":{"Station_ID":"IRMM4","Station_Nam":"WWTP","Latitude":"46.46670","Longitude":"-90.18330","Snowdepth":"15.000","Units":"in","Rept_Date":"2020-03-15 12"},"coordinates":[1656,5834]},{"type":"Point","properties":{"Station_ID":"GDCM4","Station_Nam":"GARDEN CORNERS","Latitude":"45.89830","Longitude":"-86.54850","Snowdepth":"15.000","Units":"in","Rept_Date":"2020-03-15 12"},"coordinates":[2509,5384]},{"type":"Point","properties":{"Station_ID":"MN-IT-7","Station_Nam":"GRAND RAPIDS 6.2 SSW, MN","Latitude":"47.13687","Longitude":"-93.56660","Snowdepth":"14.700","Units":"in","Rept_Date":"2020-03-15 12"},"coordinates":[862,6365]},{"type":"Point","properties":{"Station_ID":"MN-SL-15","Station_Nam":"CHISHOLM 0.4 WSW, MN","Latitude":"47.48557","Longitude":"-92.88690","Snowdepth":"14.500","Units":"in","Rept_Date":"2020-03-15 13"},"coordinates":[1021,6641]},{"type":"Point","properties":{"Station_ID":"WRSM5","Station_Nam":"WRENSHALL","Latitude":"46.61550","Longitude":"-92.38380","Snowdepth":"14.000","Units":"in","Rept_Date":"2020-03-15 13"},"coordinates":[1139,5952]},{"type":"Point","properties":{"Station_ID":"MWN","Station_Nam":"MOUNT WASHINGTON","Latitude":"44.26670","Longitude":"-71.30000","Snowdepth":"14.000","Units":"in","Rept_Date":"2020-03-16 04"},"coordinates":[6088,4092]},{"type":"Point","properties":{"Station_ID":"MN-BK-6","Station_Nam":"LAKE PARK 6.0 S, MN","Latitude":"46.79850","Longitude":"-96.12180","Snowdepth":"14.000","Units":"in","Rept_Date":"2020-03-15 13"},"coordinates":[262,6097]},{"type":"Point","properties":{"Station_ID":"LPLN6","Station_Nam":"LAKE PLACID 2 S","Latitude":"44.30420","Longitude":"-73.98390","Snowdepth":"14.000","Units":"in","Rept_Date":"2020-03-15 12"},"coordinates":[5458,4122]},{"type":"Point","properties":{"Station_ID":"KMWN","Station_Nam":"MOUNT WASHINGTON","Latitude":"44.26666","Longitude":"-71.30000","Snowdepth":"14.000","Units":"in","Rept_Date":"2020-03-16 06"},"coordinates":[6088,4092]},{"type":"Point","properties":{"Station_ID":"COKM5","Station_Nam":"COOK","Latitude":"47.85060","Longitude":"-92.69250","Snowdepth":"14.000","Units":"in","Rept_Date":"2020-03-15 11"},"coordinates":[1067,6930]},{"type":"Point","properties":{"Station_ID":"CLKM4","Station_Nam":"CLARKSBURG","Latitude":"46.49910","Longitude":"-87.84500","Snowdepth":"14.000","Units":"in","Rept_Date":"2020-03-15 11"},"coordinates":[2205,5860]},{"type":"Point","properties":{"Station_ID":"AVTW3","Station_Nam":"ARBOR VITAE-JOHNSON LAKE","Latitude":"45.89940","Longitude":"-89.72670","Snowdepth":"14.000","Units":"in","Rept_Date":"2020-03-15 11"},"coordinates":[1763,5385]},{"type":"Point","properties":{"Station_ID":"AVLV1","Station_Nam":"AVERILL","Latitude":"45.00570","Longitude":"-71.69030","Snowdepth":"14.000","Units":"in","Rept_Date":"2020-03-15 12"},"coordinates":[5996,4677]},{"type":"Point","properties":{"Station_ID":"AMAM4","Station_Nam":"AMASA 1W","Latitude":"46.23470","Longitude":"-88.45440","Snowdepth":"14.000","Units":"in","Rept_Date":"2020-03-15 13"},"coordinates":[2062,5650]},{"type":"Point","properties":{"Station_ID":"AGNW3","Station_Nam":"ARGONNE-1.5 NW","Latitude":"45.67360","Longitude":"-88.90380","Snowdepth":"14.000","Units":"in","Rept_Date":"2020-03-15 12"},"coordinates":[1956,5206]},{"type":"Point","properties":{"Station_ID":"CAN-ON-757","Station_Nam":"SAULT STE. MARIE 2.8 ESE - GLFC, CAN","Latitude":"46.50300","Longitude":"-84.30300","Snowdepth":"13.800","Units":"in","Rept_Date":"2020-03-15 13"},"coordinates":[3036,5863]},{"type":"Point","properties":{"Station_ID":"NY-ES-6","Station_Nam":"OLMSTEDVILLE 4.6 NNE, NY","Latitude":"43.83350","Longitude":"-73.89780","Snowdepth":"13.500","Units":"in","Rept_Date":"2020-03-15 13"},"coordinates":[5478,3749]},{"type":"Point","properties":{"Station_ID":"CAN-NB-97","Station_Nam":"NEW MARYLAND 0.6 NW, CAN","Latitude":"45.90112","Longitude":"-66.68739","Snowdepth":"13.400","Units":"in","Rept_Date":"2020-03-15 12"},"coordinates":[7170,5386]},{"type":"Point","properties":{"Station_ID":"CAN-NB-16","Station_Nam":"DORCHESTER 1.0 SSE, CAN","Latitude":"45.89160","Longitude":"-64.51269","Snowdepth":"13.100","Units":"in","Rept_Date":"2020-03-15 11"},"coordinates":[7681,5379]},{"type":"Point","properties":{"Station_ID":"WI-BY-1","Station_Nam":"BAYFIELD 8.8 N, WI","Latitude":"46.93855","Longitude":"-90.83490","Snowdepth":"13.000","Units":"in","Rept_Date":"2020-03-15 13"},"coordinates":[1503,6208]},{"type":"Point","properties":{"Station_ID":"VT-BN-12","Station_Nam":"STAMFORD 5.0 NNE, VT","Latitude":"42.82000","Longitude":"-73.02000","Snowdepth":"13.000","Units":"in","Rept_Date":"2020-03-15 21"},"coordinates":[5684,2947]},{"type":"Point","properties":{"Station_ID":"TAKW3","Station_Nam":"RICE RESERVOIR NO. 2","Latitude":"45.53770","Longitude":"-89.73220","Snowdepth":"13.000","Units":"in","Rept_Date":"2020-03-15 12"},"coordinates":[1762,5099]},{"type":"Point","properties":{"Station_ID":"SUTV1","Station_Nam":"SUTTON","Latitude":"44.61220","Longitude":"-72.04810","Snowdepth":"13.000","Units":"in","Rept_Date":"2020-03-15 12"},"coordinates":[5912,4366]},{"type":"Point","properties":{"Station_ID":"RANM1","Station_Nam":"RANGELEY","Latitude":"44.98910","Longitude":"-70.67190","Snowdepth":"13.000","Units":"in","Rept_Date":"2020-03-15 13"},"coordinates":[6235,4664]},{"type":"Point","properties":{"Station_ID":"MI-DL-4","Station_Nam":"GLADSTONE 2.1 SW, MI","Latitude":"45.83218","Longitude":"-87.05727","Snowdepth":"13.000","Units":"in","Rept_Date":"2020-03-15 12"},"coordinates":[2389,5332]},{"type":"Point","properties":{"Station_ID":"CAN-MB-32","Station_Nam":"PINAWA 1.0 SW, CA","Latitude":"50.14747","Longitude":"-95.89020","Snowdepth":"13.000","Units":"in","Rept_Date":"2020-03-15 13"},"coordinates":[316,8748]},{"type":"Point","properties":{"Station_ID":"AURW3","Station_Nam":"AURORA","Latitude":"45.77000","Longitude":"-88.11810","Snowdepth":"13.000","Units":"in","Rept_Date":"2020-03-15 12"},"coordinates":[2141,5282]},{"type":"Point","properties":{"Station_ID":"ASTW3","Station_Nam":"ATHELSTANE","Latitude":"45.42500","Longitude":"-88.05750","Snowdepth":"13.000","Units":"in","Rept_Date":"2020-03-15 16"},"coordinates":[2155,5009]},{"type":"Point","properties":{"Station_ID":"NH-CR-15","Station_Nam":"JACKSON 3.7 NW, NH","Latitude":"44.19069","Longitude":"-71.22598","Snowdepth":"12.500","Units":"in","Rept_Date":"2020-03-15 12"},"coordinates":[6105,4032]},{"type":"Point","properties":{"Station_ID":"MN-IT-1","Station_Nam":"GRAND RAPIDS 2.0 E, MN","Latitude":"47.22266","Longitude":"-93.49600","Snowdepth":"12.500","Units":"in","Rept_Date":"2020-03-15 14"},"coordinates":[878,6433]},{"type":"Point","properties":{"Station_ID":"ZNOM4","Station_Nam":"NORWAY","Latitude":"45.77810","Longitude":"-87.89560","Snowdepth":"12.000","Units":"in","Rept_Date":"2020-03-16 00"},"coordinates":[2193,5289]},{"type":"Point","properties":{"Station_ID":"WRUM5","Station_Nam":"WARROAD 4W","Latitude":"48.89600","Longitude":"-95.40700","Snowdepth":"12.000","Units":"in","Rept_Date":"2020-03-16 03"},"coordinates":[430,7758]},{"type":"Point","properties":{"Station_ID":"PTBN3","Station_Nam":"PITTSBURG RESERVOIR","Latitude":"45.04690","Longitude":"-71.38300","Snowdepth":"12.000","Units":"in","Rept_Date":"2020-03-15 12"},"coordinates":[6068,4710]},{"type":"Point","properties":{"Station_ID":"PKGM5","Station_Nam":"POKEGANA LK DAM","Latitude":"47.25080","Longitude":"-93.58610","Snowdepth":"12.000","Units":"in","Rept_Date":"2020-03-15 13"},"coordinates":[857,6455]},{"type":"Point","properties":{"Station_ID":"MRAM4","Station_Nam":"MORAN","Latitude":"45.99030","Longitude":"-84.83610","Snowdepth":"12.000","Units":"in","Rept_Date":"2020-03-15 12"},"coordinates":[2911,5457]},{"type":"Point","properties":{"Station_ID":"MN-SL-108","Station_Nam":"IRON JUNCTION 3.4 NNW, MN","Latitude":"47.46150","Longitude":"-92.63130","Snowdepth":"12.000","Units":"in","Rept_Date":"2020-03-15 13"},"coordinates":[1081,6622]},{"type":"Point","properties":{"Station_ID":"MN-CK-6","Station_Nam":"GRAND MARAIS 4.4 W, MN","Latitude":"47.74865","Longitude":"-90.43760","Snowdepth":"12.000","Units":"in","Rept_Date":"2020-03-15 13"},"coordinates":[1596,6849]},{"type":"Point","properties":{"Station_ID":"MI-OT-17","Station_Nam":"GAYLORD 4.1 S, MI","Latitude":"44.96388","Longitude":"-84.68467","Snowdepth":"12.000","Units":"in","Rept_Date":"2020-03-15 12"},"coordinates":[2946,4644]},{"type":"Point","properties":{"Station_ID":"ME-FR-4","Station_Nam":"NEW SHARON 2.0 NW, ME","Latitude":"44.66582","Longitude":"-70.02720","Snowdepth":"12.000","Units":"in","Rept_Date":"2020-03-15 12"},"coordinates":[6386,4408]},{"type":"Point","properties":{"Station_ID":"LBKV1","Station_Nam":"LYE BROOK","Latitude":"43.05000","Longitude":"-73.03330","Snowdepth":"12.000","Units":"in","Rept_Date":"2020-03-16 06"},"coordinates":[5681,3129]},{"type":"Point","properties":{"Station_ID":"GRBM5","Station_Nam":"GRAND RAPIDS 12N","Latitude":"47.39800","Longitude":"-93.51330","Snowdepth":"12.000","Units":"in","Rept_Date":"2020-03-15 12"},"coordinates":[874,6571]},{"type":"Point","properties":{"Station_ID":"EAHV1","Station_Nam":"EAST HAVEN","Latitude":"44.64250","Longitude":"-71.89120","Snowdepth":"12.000","Units":"in","Rept_Date":"2020-03-15 11"},"coordinates":[5949,4390]},{"type":"Point","properties":{"Station_ID":"CAN-PE-3","Station_Nam":"WELLINGTON 1.6 NE, CA","Latitude":"46.46672","Longitude":"-63.98920","Snowdepth":"12.000","Units":"in","Rept_Date":"2020-03-15 11"},"coordinates":[7803,5834]},{"type":"Point","properties":{"Station_ID":"BTLN3","Station_Nam":"BARTLETT","Latitude":"44.08380","Longitude":"-71.29340","Snowdepth":"12.000","Units":"in","Rept_Date":"2020-03-15 11"},"coordinates":[6089,3947]},{"type":"Point","properties":{"Station_ID":"MN-CW-22","Station_Nam":"FORT RIPLEY 0.8 N, MN","Latitude":"46.18089","Longitude":"-94.36510","Snowdepth":"11.500","Units":"in","Rept_Date":"2020-03-15 13"},"coordinates":[674,5608]},{"type":"Point","properties":{"Station_ID":"WTRM4","Station_Nam":"WATERSMEET 12WSW","Latitude":"46.22310","Longitude":"-89.40850","Snowdepth":"11.000","Units":"in","Rept_Date":"2020-03-15 11"},"coordinates":[1838,5641]},{"type":"Point","properties":{"Station_ID":"WI-SR-1","Station_Nam":"HAYWARD 9.2 NNE, WI","Latitude":"46.13255","Longitude":"-91.40500","Snowdepth":"11.000","Units":"in","Rept_Date":"2020-03-15 12"},"coordinates":[1369,5570]},{"type":"Point","properties":{"Station_ID":"WI-ON-6","Station_Nam":"RHINELANDER 5.2 N, WI","Latitude":"45.71388","Longitude":"-89.42150","Snowdepth":"11.000","Units":"in","Rept_Date":"2020-03-15 14"},"coordinates":[1835,5238]},{"type":"Point","properties":{"Station_ID":"VT-WS-15","Station_Nam":"EAST CALAIS 1.5 SW, VT","Latitude":"44.35523","Longitude":"-72.45540","Snowdepth":"11.000","Units":"in","Rept_Date":"2020-03-15 12"},"coordinates":[5816,4162]},{"type":"Point","properties":{"Station_ID":"VT-OL-1","Station_Nam":"WESTFIELD 0.7 WNW, VT","Latitude":"44.89160","Longitude":"-72.44350","Snowdepth":"11.000","Units":"in","Rept_Date":"2020-03-15 13"},"coordinates":[5819,4587]},{"type":"Point","properties":{"Station_ID":"RHIW3","Station_Nam":"RHINELANDER","Latitude":"45.59860","Longitude":"-89.45080","Snowdepth":"11.000","Units":"in","Rept_Date":"2020-03-15 12"},"coordinates":[1828,5147]},{"type":"Point","properties":{"Station_ID":"NY-FK-7","Station_Nam":"SARANAC LAKE 6.2 N, NY","Latitude":"44.41359","Longitude":"-74.15211","Snowdepth":"11.000","Units":"in","Rept_Date":"2020-03-15 13"},"coordinates":[5418,4209]},{"type":"Point","properties":{"Station_ID":"NH-CS-4","Station_Nam":"PITTSBURG 6.1 NE, NH","Latitude":"45.11060","Longitude":"-71.29760","Snowdepth":"11.000","Units":"in","Rept_Date":"2020-03-15 12"},"coordinates":[6088,4760]},{"type":"Point","properties":{"Station_ID":"INDN6","Station_Nam":"INDIAN LAKE","Latitude":"43.75500","Longitude":"-74.27560","Snowdepth":"11.000","Units":"in","Rept_Date":"2020-03-15 13"},"coordinates":[5389,3687]},{"type":"Point","properties":{"Station_ID":"NH-CR-41","Station_Nam":"ALBANY 2.8 SW, NH","Latitude":"43.92648","Longitude":"-71.21556","Snowdepth":"10.500","Units":"in","Rept_Date":"2020-03-15 13"},"coordinates":[6107,3823]},{"type":"Point","properties":{"Station_ID":"MN-PK-15","Station_Nam":"MENTOR 2.5 SSW, MN","Latitude":"47.66625","Longitude":"-96.17328","Snowdepth":"10.500","Units":"in","Rept_Date":"2020-03-15 14"},"coordinates":[250,6784]},{"type":"Point","properties":{"Station_ID":"WLKM5","Station_Nam":"AH-GWAH-CHING","Latitude":"47.15000","Longitude":"-94.65000","Snowdepth":"10.000","Units":"in","Rept_Date":"2020-03-15 15"},"coordinates":[608,6375]},{"type":"Point","properties":{"Station_ID":"NCBN6","Station_Nam":"NEWCOMB","Latitude":"43.97070","Longitude":"-74.22200","Snowdepth":"10.000","Units":"in","Rept_Date":"2020-03-15 12"},"coordinates":[5402,3858]},{"type":"Point","properties":{"Station_ID":"MWTM1","Station_Nam":"MILLINOCKET WWTP","Latitude":"45.64030","Longitude":"-68.67480","Snowdepth":"10.000","Units":"in","Rept_Date":"2020-03-15 11"},"coordinates":[6704,5180]},{"type":"Point","properties":{"Station_ID":"ME-OX-2","Station_Nam":"HARTFORD 1.4 N, ME","Latitude":"44.39318","Longitude":"-70.34760","Snowdepth":"10.000","Units":"in","Rept_Date":"2020-03-15 12"},"coordinates":[6311,4192]},{"type":"Point","properties":{"Station_ID":"LBRM5","Station_Nam":"LAKE BRONSON DAM","Latitude":"48.72410","Longitude":"-96.62180","Snowdepth":"10.000","Units":"in","Rept_Date":"2020-03-15 13"},"coordinates":[145,7621]},{"type":"Point","properties":{"Station_ID":"GRFN8","Station_Nam":"UNIVERSITY","Latitude":"47.93330","Longitude":"-97.08330","Snowdepth":"10.000","Units":"in","Rept_Date":"2020-03-16 05"},"coordinates":[36,6995]},{"type":"Point","properties":{"Station_ID":"COTM5","Station_Nam":"COTTON","Latitude":"47.16870","Longitude":"-92.46290","Snowdepth":"10.000","Units":"in","Rept_Date":"2020-03-15 12"},"coordinates":[1121,6390]},{"type":"Point","properties":{"Station_ID":"CORV1","Station_Nam":"CORINTH","Latitude":"44.00690","Longitude":"-72.31940","Snowdepth":"10.000","Units":"in","Rept_Date":"2020-03-15 11"},"coordinates":[5848,3887]},{"type":"Point","properties":{"Station_ID":"CAN-PE-7","Station_Nam":"MORELL 1.4 NNW, CA","Latitude":"46.42741","Longitude":"-62.70870","Snowdepth":"10.000","Units":"in","Rept_Date":"2020-03-15 12"},"coordinates":[8104,5803]},{"type":"Point","properties":{"Station_ID":"BRAM5","Station_Nam":"BRAINERD","Latitude":"46.34320","Longitude":"-94.20900","Snowdepth":"10.000","Units":"in","Rept_Date":"2020-03-15 12"},"coordinates":[711,5736]},{"type":"Point","properties":{"Station_ID":"VT-CL-18","Station_Nam":"WHEELOCK 1.6 S, VT","Latitude":"44.56491","Longitude":"-72.08830","Snowdepth":"9.500","Units":"in","Rept_Date":"2020-03-15 12"},"coordinates":[5903,4328]},{"type":"Point","properties":{"Station_ID":"NH-CR-11","Station_Nam":"NORTH CONWAY 1.4 SSW, NH","Latitude":"44.03556","Longitude":"-71.14010","Snowdepth":"9.500","Units":"in","Rept_Date":"2020-03-15 12"},"coordinates":[6125,3909]},{"type":"Point","properties":{"Station_ID":"MN-BK-10","Station_Nam":"DETROIT LAKES 5.7 N, MN","Latitude":"46.88666","Longitude":"-95.84444","Snowdepth":"9.500","Units":"in","Rept_Date":"2020-03-15 13"},"coordinates":[327,6167]},{"type":"Point","properties":{"Station_ID":"MI-OT-16","Station_Nam":"GAYLORD 2.2 SSE, MI","Latitude":"44.99441","Longitude":"-84.65820","Snowdepth":"9.500","Units":"in","Rept_Date":"2020-03-15 14"},"coordinates":[2953,4668]},{"type":"Point","properties":{"Station_ID":"WLKW3","Station_Nam":"WHITE LAKE 1 SE","Latitude":"45.14520","Longitude":"-88.74160","Snowdepth":"9.000","Units":"in","Rept_Date":"2020-03-15 13"},"coordinates":[1994,4788]},{"type":"Point","properties":{"Station_ID":"RSTW3","Station_Nam":"ROSHOLT","Latitude":"44.62710","Longitude":"-89.30600","Snowdepth":"9.000","Units":"in","Rept_Date":"2020-03-15 15"},"coordinates":[1862,4378]},{"type":"Point","properties":{"Station_ID":"PELW3","Station_Nam":"PELLA 3SE","Latitude":"44.73580","Longitude":"-88.73780","Snowdepth":"9.000","Units":"in","Rept_Date":"2020-03-15 15"},"coordinates":[1995,4464]},{"type":"Point","properties":{"Station_ID":"PBAN8","Station_Nam":"SITE 1-3MI.N","Latitude":"48.97420","Longitude":"-97.23860","Snowdepth":"9.000","Units":"in","Rept_Date":"2020-03-15 13"},"coordinates":[0,7819]},{"type":"Point","properties":{"Station_ID":"NH-CR-26","Station_Nam":"CENTER SANDWICH 4.9 E, NH","Latitude":"43.80976","Longitude":"-71.34150","Snowdepth":"9.000","Units":"in","Rept_Date":"2020-03-15 11"},"coordinates":[6078,3730]},{"type":"Point","properties":{"Station_ID":"ME-FR-22","Station_Nam":"FARMINGTON 4.8 NNW, ME","Latitude":"44.73396","Longitude":"-70.18007","Snowdepth":"9.000","Units":"in","Rept_Date":"2020-03-15 14"},"coordinates":[6350,4462]},{"type":"Point","properties":{"Station_ID":"LNGM5","Station_Nam":"LONG PRAIRIE","Latitude":"45.96460","Longitude":"-94.88920","Snowdepth":"9.000","Units":"in","Rept_Date":"2020-03-15 11"},"coordinates":[551,5437]},{"type":"Point","properties":{"Station_ID":"HOKN6","Station_Nam":"HOOKER 12 NNW","Latitude":"43.85240","Longitude":"-75.71580","Snowdepth":"9.000","Units":"in","Rept_Date":"2020-03-15 11"},"coordinates":[5051,3764]},{"type":"Point","properties":{"Station_ID":"ESGM1","Station_Nam":"EAST SANGERVILLE","Latitude":"45.13690","Longitude":"-69.28060","Snowdepth":"9.000","Units":"in","Rept_Date":"2020-03-15 11"},"coordinates":[6562,4781]},{"type":"Point","properties":{"Station_ID":"ESDN3","Station_Nam":"EAST SANDWICH","Latitude":"43.80990","Longitude":"-71.34250","Snowdepth":"9.000","Units":"in","Rept_Date":"2020-03-15 10"},"coordinates":[6078,3731]},{"type":"Point","properties":{"Station_ID":"EGRW3","Station_Nam":"EAGLE RIVER-SOUTH","Latitude":"45.91360","Longitude":"-89.24360","Snowdepth":"9.000","Units":"in","Rept_Date":"2020-03-15 12"},"coordinates":[1876,5396]},{"type":"Point","properties":{"Station_ID":"BREW3","Station_Nam":"SURING","Latitude":"44.99580","Longitude":"-88.37860","Snowdepth":"9.000","Units":"in","Rept_Date":"2020-03-15 13"},"coordinates":[2079,4669]},{"type":"Point","properties":{"Station_ID":"CAN-NB-98","Station_Nam":"HOYT 4.2 S, CAN","Latitude":"45.54763","Longitude":"-66.55440","Snowdepth":"8.700","Units":"in","Rept_Date":"2020-03-15 11"},"coordinates":[7201,5106]},{"type":"Point","properties":{"Station_ID":"VT-OL-9","Station_Nam":"GREENSBORO 2.1 NNW, VT","Latitude":"44.60528","Longitude":"-72.30940","Snowdepth":"8.500","Units":"in","Rept_Date":"2020-03-15 12"},"coordinates":[5851,4360]},{"type":"Point","properties":{"Station_ID":"NH-GR-49","Station_Nam":"PLYMOUTH 3.7 N, NH","Latitude":"43.79048","Longitude":"-71.68413","Snowdepth":"8.500","Units":"in","Rept_Date":"2020-03-15 12"},"coordinates":[5997,3715]},{"type":"Point","properties":{"Station_ID":"MN-AT-5","Station_Nam":"TAMARACK 1.4 SW, MN","Latitude":"46.63760","Longitude":"-93.14554","Snowdepth":"8.500","Units":"in","Rept_Date":"2020-03-15 13"},"coordinates":[961,5969]},{"type":"Point","properties":{"Station_ID":"WI-WB-2","Station_Nam":"STONE LAKE 2.0 NW, WI","Latitude":"45.85960","Longitude":"-91.57710","Snowdepth":"8.000","Units":"in","Rept_Date":"2020-03-15 13"},"coordinates":[1329,5353]},{"type":"Point","properties":{"Station_ID":"TOPM1","Station_Nam":"TOPSFIELD","Latitude":"45.43470","Longitude":"-67.72020","Snowdepth":"8.000","Units":"in","Rept_Date":"2020-03-15 11"},"coordinates":[6928,5017]},{"type":"Point","properties":{"Station_ID":"STMM4","Station_Nam":"STAMBAUGH 2SSE","Latitude":"46.05550","Longitude":"-88.62780","Snowdepth":"8.000","Units":"in","Rept_Date":"2020-03-15 12"},"coordinates":[2021,5509]},{"type":"Point","properties":{"Station_ID":"RRVM4","Station_Nam":"RAPID RIVER 9S","Latitude":"45.78750","Longitude":"-86.93920","Snowdepth":"8.000","Units":"in","Rept_Date":"2020-03-15 14"},"coordinates":[2417,5296]},{"type":"Point","properties":{"Station_ID":"OTTM5","Station_Nam":"OTTERTAIL,MN","Latitude":"46.41670","Longitude":"-95.56670","Snowdepth":"8.000","Units":"in","Rept_Date":"2020-03-15 12"},"coordinates":[392,5795]},{"type":"Point","properties":{"Station_ID":"NY-HR-18","Station_Nam":"SALISBURY CENTER 1.8 NW, NY","Latitude":"43.16260","Longitude":"-74.80880","Snowdepth":"8.000","Units":"in","Rept_Date":"2020-03-15 11"},"coordinates":[5264,3218]},{"type":"Point","properties":{"Station_ID":"NUMN3","Station_Nam":"NORTHUMBERLAND","Latitude":"44.52830","Longitude":"-71.50440","Snowdepth":"8.000","Units":"in","Rept_Date":"2020-03-15 11"},"coordinates":[6040,4299]},{"type":"Point","properties":{"Station_ID":"ISLV1","Station_Nam":"ISLAND POND","Latitude":"44.81280","Longitude":"-71.89020","Snowdepth":"8.000","Units":"in","Rept_Date":"2020-03-15 14"},"coordinates":[5949,4525]},{"type":"Point","properties":{"Station_ID":"COUW3","Station_Nam":"COUDERAY,WI","Latitude":"45.86670","Longitude":"-91.45000","Snowdepth":"8.000","Units":"in","Rept_Date":"2020-03-15 21"},"coordinates":[1359,5359]},{"type":"Point","properties":{"Station_ID":"CAN-NS-163","Station_Nam":"SYDNEY MINES 2.2 WNW, CAN","Latitude":"46.24851","Longitude":"-60.25161","Snowdepth":"7.900","Units":"in","Rept_Date":"2020-03-15 12"},"coordinates":[8681,5661]},{"type":"Point","properties":{"Station_ID":"WI-PR-6","Station_Nam":"PHILLIPS 1.3 S, WI","Latitude":"45.67677","Longitude":"-90.39543","Snowdepth":"7.500","Units":"in","Rept_Date":"2020-03-15 12"},"coordinates":[1606,5209]},{"type":"Point","properties":{"Station_ID":"MI-CX-7","Station_Nam":"EAST JORDAN 2.1 NNW, MI","Latitude":"45.18639","Longitude":"-85.14750","Snowdepth":"7.500","Units":"in","Rept_Date":"2020-03-15 13"},"coordinates":[2838,4820]},{"type":"Point","properties":{"Station_ID":"CAN-PE-10","Station_Nam":"NEW LONDON 1.6 ENE, CA","Latitude":"46.46985","Longitude":"-63.49200","Snowdepth":"7.500","Units":"in","Rept_Date":"2020-03-15 12"},"coordinates":[7920,5837]},{"type":"Point","properties":{"Station_ID":"WI-RS-1","Station_Nam":"LADYSMITH 2.8 WNW, WI","Latitude":"45.48180","Longitude":"-91.14680","Snowdepth":"7.000","Units":"in","Rept_Date":"2020-03-15 13"},"coordinates":[1430,5054]},{"type":"Point","properties":{"Station_ID":"WI-MT-14","Station_Nam":"MOSINEE 2.7 WSW, WI","Latitude":"44.77240","Longitude":"-89.73441","Snowdepth":"7.000","Units":"in","Rept_Date":"2020-03-15 13"},"coordinates":[1761,4493]},{"type":"Point","properties":{"Station_ID":"VT-WS-30","Station_Nam":"WOODBURY 3.4 NNW, VT","Latitude":"44.48825","Longitude":"-72.43258","Snowdepth":"7.000","Units":"in","Rept_Date":"2020-03-15 12"},"coordinates":[5822,4268]},{"type":"Point","properties":{"Station_ID":"TMWN3","Station_Nam":"TAMWORTH 4","Latitude":"43.86390","Longitude":"-71.26610","Snowdepth":"7.000","Units":"in","Rept_Date":"2020-03-15 11"},"coordinates":[6096,3773]},{"type":"Point","properties":{"Station_ID":"SBNM5","Station_Nam":"SABIN","Latitude":"46.77690","Longitude":"-96.65610","Snowdepth":"7.000","Units":"in","Rept_Date":"2020-03-15 12"},"coordinates":[137,6080]},{"type":"Point","properties":{"Station_ID":"NH-CR-27","Station_Nam":"TAMWORTH 0.4 NNW, NH","Latitude":"43.86449","Longitude":"-71.26610","Snowdepth":"7.000","Units":"in","Rept_Date":"2020-03-15 12"},"coordinates":[6096,3774]},{"type":"Point","properties":{"Station_ID":"MRQM4","Station_Nam":"MARQUETTE WFP","Latitude":"46.54580","Longitude":"-87.37950","Snowdepth":"7.000","Units":"in","Rept_Date":"2020-03-15 12"},"coordinates":[2314,5897]},{"type":"Point","properties":{"Station_ID":"MQRW3","Station_Nam":"MINOCQUA","Latitude":"45.88630","Longitude":"-89.73220","Snowdepth":"7.000","Units":"in","Rept_Date":"2020-03-15 11"},"coordinates":[1762,5375]},{"type":"Point","properties":{"Station_ID":"MI-OT-4","Station_Nam":"GAYLORD 1.7 WNW, MI","Latitude":"45.03280","Longitude":"-84.71090","Snowdepth":"7.000","Units":"in","Rept_Date":"2020-03-15 13"},"coordinates":[2940,4699]},{"type":"Point","properties":{"Station_ID":"KSEM4","Station_Nam":"KALKASKA 11SE","Latitude":"44.58970","Longitude":"-85.04860","Snowdepth":"7.000","Units":"in","Rept_Date":"2020-03-15 12"},"coordinates":[2861,4348]},{"type":"Point","properties":{"Station_ID":"GAYM4","Station_Nam":"GAYLORD","Latitude":"45.03320","Longitude":"-84.71130","Snowdepth":"7.000","Units":"in","Rept_Date":"2020-03-15 12"},"coordinates":[2940,4699]},{"type":"Point","properties":{"Station_ID":"EJNM4","Station_Nam":"EAST JORDAN 2NW","Latitude":"45.18630","Longitude":"-85.14770","Snowdepth":"7.000","Units":"in","Rept_Date":"2020-03-15 12"},"coordinates":[2838,4820]},{"type":"Point","properties":{"Station_ID":"AWXW3","Station_Nam":"ASHLAND","Latitude":"46.58240","Longitude":"-90.88390","Snowdepth":"7.000","Units":"in","Rept_Date":"2020-03-15 12"},"coordinates":[1491,5926]},{"type":"Point","properties":{"Station_ID":"WI-AS-4","Station_Nam":"ASHLAND 0.5 WNW, WI","Latitude":"46.58240","Longitude":"-90.88390","Snowdepth":"6.500","Units":"in","Rept_Date":"2020-03-15 13"},"coordinates":[1491,5926]},{"type":"Point","properties":{"Station_ID":"ND-CS-25","Station_Nam":"FARGO 2.1 N, ND","Latitude":"46.90816","Longitude":"-96.77937","Snowdepth":"6.500","Units":"in","Rept_Date":"2020-03-15 14"},"coordinates":[108,6184]},{"type":"Point","properties":{"Station_ID":"WRIM5","Station_Nam":"WRIGHT 3E","Latitude":"46.68040","Longitude":"-92.95420","Snowdepth":"6.000","Units":"in","Rept_Date":"2020-03-15 11"},"coordinates":[1006,6003]},{"type":"Point","properties":{"Station_ID":"WILW3","Station_Nam":"RESERVOIR","Latitude":"45.70000","Longitude":"-89.83330","Snowdepth":"6.000","Units":"in","Rept_Date":"2020-03-15 16"},"coordinates":[1738,5227]},{"type":"Point","properties":{"Station_ID":"VT-WR-2","Station_Nam":"POMFRET 2.6 N, VT","Latitude":"43.74230","Longitude":"-72.52550","Snowdepth":"6.000","Units":"in","Rept_Date":"2020-03-15 12"},"coordinates":[5800,3677]},{"type":"Point","properties":{"Station_ID":"VT-ES-3","Station_Nam":"LUNENBURG 2.3 NNW, VT","Latitude":"44.49324","Longitude":"-71.70446","Snowdepth":"6.000","Units":"in","Rept_Date":"2020-03-15 12"},"coordinates":[5993,4272]},{"type":"Point","properties":{"Station_ID":"VT-BN-3","Station_Nam":"LANDGROVE 1.1 NNE, VT","Latitude":"43.29092","Longitude":"-72.83260","Snowdepth":"6.000","Units":"in","Rept_Date":"2020-03-15 11"},"coordinates":[5728,3320]},{"type":"Point","properties":{"Station_ID":"RHRW3","Station_Nam":"RHINELANDER WJFW TV-12","Latitude":"45.62220","Longitude":"-89.41000","Snowdepth":"6.000","Units":"in","Rept_Date":"2020-03-16 03"},"coordinates":[1837,5165]},{"type":"Point","properties":{"Station_ID":"RHLW3","Station_Nam":"RHINELANDER 4NE","Latitude":"45.65270","Longitude":"-89.30740","Snowdepth":"6.000","Units":"in","Rept_Date":"2020-03-15 16"},"coordinates":[1861,5190]},{"type":"Point","properties":{"Station_ID":"RHI","Station_Nam":"RHINELANDER-ONEIDA COUNTY AIRPORT","Latitude":"45.63080","Longitude":"-89.46530","Snowdepth":"6.000","Units":"in","Rept_Date":"2020-03-16 00"},"coordinates":[1824,5172]},{"type":"Point","properties":{"Station_ID":"NYMM5","Station_Nam":"NEW YORK MILLS","Latitude":"46.50920","Longitude":"-95.37990","Snowdepth":"6.000","Units":"in","Rept_Date":"2020-03-15 12"},"coordinates":[436,5868]},{"type":"Point","properties":{"Station_ID":"MN-CW-8","Station_Nam":"BRAINERD 11.5 E, MN","Latitude":"46.38556","Longitude":"-93.95720","Snowdepth":"6.000","Units":"in","Rept_Date":"2020-03-15 14"},"coordinates":[770,5770]},{"type":"Point","properties":{"Station_ID":"KGFK","Station_Nam":"GRAND FORKS INTERNATIONAL","Latitude":"47.95000","Longitude":"-97.18333","Snowdepth":"6.000","Units":"in","Rept_Date":"2020-03-15 18"},"coordinates":[13,7009]},{"type":"Point","properties":{"Station_ID":"HMYM1","Station_Nam":"HARMONY","Latitude":"44.94660","Longitude":"-69.54560","Snowdepth":"6.000","Units":"in","Rept_Date":"2020-03-15 11"},"coordinates":[6499,4631]},{"type":"Point","properties":{"Station_ID":"GFK","Station_Nam":"GRAND FORKS INTERNATIONAL AIRPORT","Latitude":"47.94920","Longitude":"-97.17610","Snowdepth":"6.000","Units":"in","Rept_Date":"2020-03-16 00"},"coordinates":[15,7008]},{"type":"Point","properties":{"Station_ID":"FARM1","Station_Nam":"FARMINGTON","Latitude":"44.68930","Longitude":"-70.15640","Snowdepth":"6.000","Units":"in","Rept_Date":"2020-03-15 12"},"coordinates":[6356,4427]},{"type":"Point","properties":{"Station_ID":"ESAM4","Station_Nam":"ESCANABA","Latitude":"45.74380","Longitude":"-87.04060","Snowdepth":"6.000","Units":"in","Rept_Date":"2020-03-15 11"},"coordinates":[2393,5262]},{"type":"Point","properties":{"Station_ID":"APXM4","Station_Nam":"GAYLORD 9SSW","Latitude":"44.90720","Longitude":"-84.71880","Snowdepth":"6.000","Units":"in","Rept_Date":"2020-03-16 06"},"coordinates":[2938,4599]},{"type":"Point","properties":{"Station_ID":"ALXM5","Station_Nam":"ALEXANDRIA","Latitude":"45.87820","Longitude":"-95.38270","Snowdepth":"6.000","Units":"in","Rept_Date":"2020-03-15 11"},"coordinates":[436,5368]},{"type":"Point","properties":{"Station_ID":"CAN-ON-42","Station_Nam":"VANKLEEK HILL 3.4 S, CA","Latitude":"45.48987","Longitude":"-74.64570","Snowdepth":"5.500","Units":"in","Rept_Date":"2020-03-15 12"},"coordinates":[5302,5061]},{"type":"Point","properties":{"Station_ID":"WI-PR-8","Station_Nam":"PHILLIPS 0.4 SSW, WI","Latitude":"45.69086","Longitude":"-90.40200","Snowdepth":"5.000","Units":"in","Rept_Date":"2020-03-15 13"},"coordinates":[1605,5220]},{"type":"Point","properties":{"Station_ID":"WI-DN-1","Station_Nam":"BOYCEVILLE 3.3 N, WI","Latitude":"45.08913","Longitude":"-92.02760","Snowdepth":"5.000","Units":"in","Rept_Date":"2020-03-15 13"},"coordinates":[1223,4743]},{"type":"Point","properties":{"Station_ID":"WI-BT-14","Station_Nam":"OAKLAND 9.0 ENE, WI","Latitude":"45.95184","Longitude":"-92.21653","Snowdepth":"5.000","Units":"in","Rept_Date":"2020-03-15 13"},"coordinates":[1179,5426]},{"type":"Point","properties":{"Station_ID":"WESN1","Station_Nam":"WESTON 3NW","Latitude":"41.22110","Longitude":"-96.77750","Snowdepth":"5.000","Units":"in","Rept_Date":"2020-03-15 13"},"coordinates":[108,1681]},{"type":"Point","properties":{"Station_ID":"WASH001","Station_Nam":"FORT CALHOUN 2.9 SSW, NE","Latitude":"41.41390","Longitude":"-96.03500","Snowdepth":"5.000","Units":"in","Rept_Date":"2020-03-15 13"},"coordinates":[282,1833]},{"type":"Point","properties":{"Station_ID":"TOHM5","Station_Nam":"TWO HARBORS WWTP","Latitude":"47.01760","Longitude":"-91.66480","Snowdepth":"5.000","Units":"in","Rept_Date":"2020-03-15 12"},"coordinates":[1308,6270]},{"type":"Point","properties":{"Station_ID":"SULW3","Station_Nam":"SUMMIT LAKE","Latitude":"45.37880","Longitude":"-89.19410","Snowdepth":"5.000","Units":"in","Rept_Date":"2020-03-15 15"},"coordinates":[1888,4973]},{"type":"Point","properties":{"Station_ID":"RLKW3","Station_Nam":"REST LAKE","Latitude":"46.12220","Longitude":"-89.87720","Snowdepth":"5.000","Units":"in","Rept_Date":"2020-03-15 13"},"coordinates":[1728,5561]},{"type":"Point","properties":{"Station_ID":"PERV1","Station_Nam":"PERU","Latitude":"43.26670","Longitude":"-72.90000","Snowdepth":"5.000","Units":"in","Rept_Date":"2020-03-15 11"},"coordinates":[5712,3300]},{"type":"Point","properties":{"Station_ID":"PEKN6","Station_Nam":"PECK LAKE","Latitude":"43.11500","Longitude":"-74.42360","Snowdepth":"5.000","Units":"in","Rept_Date":"2020-03-15 11"},"coordinates":[5355,3180]},{"type":"Point","properties":{"Station_ID":"OH-SH-9","Station_Nam":"FORT LORAMIE 2.1 SE, OH","Latitude":"40.32914","Longitude":"-84.33750","Snowdepth":"5.000","Units":"in","Rept_Date":"2020-03-15 10"},"coordinates":[3028,975]},{"type":"Point","properties":{"Station_ID":"NCKN6","Station_Nam":"NORTH CREEK 5 SE","Latitude":"43.66110","Longitude":"-73.89690","Snowdepth":"5.000","Units":"in","Rept_Date":"2020-03-15 11"},"coordinates":[5478,3613]},{"type":"Point","properties":{"Station_ID":"MTQM4","Station_Nam":"MANISTIQUE WWTP","Latitude":"45.95120","Longitude":"-86.25130","Snowdepth":"5.000","Units":"in","Rept_Date":"2020-03-15 11"},"coordinates":[2579,5426]},{"type":"Point","properties":{"Station_ID":"MN-CY-1","Station_Nam":"MOORHEAD 2.0 N, MN","Latitude":"46.88766","Longitude":"-96.74800","Snowdepth":"5.000","Units":"in","Rept_Date":"2020-03-15 13"},"coordinates":[115,6167]},{"type":"Point","properties":{"Station_ID":"FDRN8","Station_Nam":"FARGO 3S","Latitude":"46.82930","Longitude":"-96.79620","Snowdepth":"5.000","Units":"in","Rept_Date":"2020-03-16 05"},"coordinates":[104,6121]},{"type":"Point","properties":{"Station_ID":"FAR","Station_Nam":"HECTOR INTERNATIONAL ARPT","Latitude":"46.91560","Longitude":"-96.81440","Snowdepth":"5.000","Units":"in","Rept_Date":"2020-03-16 00"},"coordinates":[100,6190]},{"type":"Point","properties":{"Station_ID":"CAN-ON-208","Station_Nam":"PAKENHAM 7.8 NNW, CAN","Latitude":"45.39166","Longitude":"-76.34111","Snowdepth":"5.000","Units":"in","Rept_Date":"2020-03-15 12"},"coordinates":[4904,4983]},{"type":"Point","properties":{"Station_ID":"BRLN3","Station_Nam":"BERLIN","Latitude":"44.45350","Longitude":"-71.18540","Snowdepth":"5.000","Units":"in","Rept_Date":"2020-03-15 14"},"coordinates":[6115,4240]},{"type":"Point","properties":{"Station_ID":"VT-OL-2","Station_Nam":"BARTON 3.0 ENE, VT","Latitude":"44.75863","Longitude":"-72.11680","Snowdepth":"4.000","Units":"in","Rept_Date":"2020-03-15 12"},"coordinates":[5896,4482]},{"type":"Point","properties":{"Station_ID":"VT-OG-11","Station_Nam":"VERSHIRE 1.5 ESE, VT","Latitude":"43.96138","Longitude":"-72.29777","Snowdepth":"4.000","Units":"in","Rept_Date":"2020-03-15 11"},"coordinates":[5853,3850]},{"type":"Point","properties":{"Station_ID":"SAUW3","Station_Nam":"WAUSAU WSAW TV","Latitude":"44.94630","Longitude":"-89.62220","Snowdepth":"4.000","Units":"in","Rept_Date":"2020-03-16 04"},"coordinates":[1788,4630]},{"type":"Point","properties":{"Station_ID":"PARM4","Station_Nam":"PARENT BAY","Latitude":"45.79610","Longitude":"-86.40110","Snowdepth":"4.000","Units":"in","Rept_Date":"2020-03-15 16"},"coordinates":[2543,5303]},{"type":"Point","properties":{"Station_ID":"PA-FY-16","Station_Nam":"FARMINGTON 0.5 ENE, PA","Latitude":"39.81000","Longitude":"-79.55760","Snowdepth":"4.000","Units":"in","Rept_Date":"2020-03-15 12"},"coordinates":[4150,564]},{"type":"Point","properties":{"Station_ID":"MN-MR-4","Station_Nam":"LITTLE FALLS 1.2 SW, MN","Latitude":"45.96886","Longitude":"-94.37720","Snowdepth":"4.000","Units":"in","Rept_Date":"2020-03-15 13"},"coordinates":[672,5440]},{"type":"Point","properties":{"Station_ID":"MCLN8","Station_Nam":"MC LEOD,ND","Latitude":"46.40250","Longitude":"-97.23810","Snowdepth":"4.000","Units":"in","Rept_Date":"2020-03-15 12"},"coordinates":[0,5783]},{"type":"Point","properties":{"Station_ID":"JEFV1","Station_Nam":"JEFFERSONVILLE","Latitude":"44.58430","Longitude":"-72.78700","Snowdepth":"4.000","Units":"in","Rept_Date":"2020-03-15 11"},"coordinates":[5739,4344]},{"type":"Point","properties":{"Station_ID":"ISEM5","Station_Nam":"ISLE 12N","Latitude":"46.31970","Longitude":"-93.50140","Snowdepth":"4.000","Units":"in","Rept_Date":"2020-03-15 13"},"coordinates":[877,5718]},{"type":"Point","properties":{"Station_ID":"FLAM4","Station_Nam":"FIFE LAKE 2WNW","Latitude":"44.58480","Longitude":"-85.36530","Snowdepth":"4.000","Units":"in","Rept_Date":"2020-03-15 11"},"coordinates":[2787,4344]},{"type":"Point","properties":{"Station_ID":"CLGM5","Station_Nam":"COLLEGEVILLE ST JOHN","Latitude":"45.57940","Longitude":"-94.39200","Snowdepth":"4.000","Units":"in","Rept_Date":"2020-03-15 23"},"coordinates":[668,5132]},{"type":"Point","properties":{"Station_ID":"AUW","Station_Nam":"WAUSAU MUNICIPAL AIRPORT","Latitude":"44.92580","Longitude":"-89.62560","Snowdepth":"4.000","Units":"in","Rept_Date":"2020-03-16 00"},"coordinates":[1787,4614]},{"type":"Point","properties":{"Station_ID":"MN-MR-13","Station_Nam":"LITTLE FALLS 8.0 NE, MN","Latitude":"46.06785","Longitude":"-94.24789","Snowdepth":"3.500","Units":"in","Rept_Date":"2020-03-15 13"},"coordinates":[702,5518]},{"type":"Point","properties":{"Station_ID":"MD-GR-12","Station_Nam":"ACCIDENT 3.9 E, MD","Latitude":"39.62069","Longitude":"-79.24750","Snowdepth":"3.500","Units":"in","Rept_Date":"2020-03-15 12"},"coordinates":[4222,414]},{"type":"Point","properties":{"Station_ID":"CAN-ON-5","Station_Nam":"OWEN SOUND 1.5 NW - GSCA, CAN","Latitude":"44.57837","Longitude":"-80.95461","Snowdepth":"3.500","Units":"in","Rept_Date":"2020-03-15 13"},"coordinates":[3822,4339]},{"type":"Point","properties":{"Station_ID":"CAN-ON-109","Station_Nam":"MILDMAY 5.9 SSE, CA","Latitude":"43.98733","Longitude":"-81.10330","Snowdepth":"3.500","Units":"in","Rept_Date":"2020-03-15 13"},"coordinates":[3787,3871]},{"type":"Point","properties":{"Station_ID":"WUNW3","Station_Nam":"WAUSAU-NORTHEAST","Latitude":"44.97310","Longitude":"-89.61690","Snowdepth":"3.000","Units":"in","Rept_Date":"2020-03-15 12"},"coordinates":[1789,4652]},{"type":"Point","properties":{"Station_ID":"WRTS2","Station_Nam":"WATERTOWN,SD","Latitude":"44.90280","Longitude":"-97.11360","Snowdepth":"3.000","Units":"in","Rept_Date":"2020-03-15 14"},"coordinates":[29,4596]},{"type":"Point","properties":{"Station_ID":"WI-LN-2","Station_Nam":"MERRILL 7.0 W, WI","Latitude":"45.17746","Longitude":"-89.84820","Snowdepth":"3.000","Units":"in","Rept_Date":"2020-03-15 12"},"coordinates":[1734,4813]},{"type":"Point","properties":{"Station_ID":"VT-WS-19","Station_Nam":"WATERBURY 3.0 NW, VT","Latitude":"44.36060","Longitude":"-72.80770","Snowdepth":"3.000","Units":"in","Rept_Date":"2020-03-15 11"},"coordinates":[5734,4167]},{"type":"Point","properties":{"Station_ID":"SMRP1","Station_Nam":"SOMERSET,PA","Latitude":"40.00000","Longitude":"-79.08330","Snowdepth":"3.000","Units":"in","Rept_Date":"2020-03-15 12"},"coordinates":[4261,714]},{"type":"Point","properties":{"Station_ID":"RCEM5","Station_Nam":"RICE","Latitude":"45.75760","Longitude":"-94.20720","Snowdepth":"3.000","Units":"in","Rept_Date":"2020-03-15 12"},"coordinates":[711,5273]},{"type":"Point","properties":{"Station_ID":"MYOM4","Station_Nam":"MIO WWTP","Latitude":"44.64660","Longitude":"-84.11580","Snowdepth":"3.000","Units":"in","Rept_Date":"2020-03-15 12"},"coordinates":[3080,4393]},{"type":"Point","properties":{"Station_ID":"MN76ACVS","Station_Nam":"GRAND MARAIS 3.0 WNW","Latitude":"47.76602","Longitude":"-90.26427","Snowdepth":"3.000","Units":"in","Rept_Date":"2020-03-15 12"},"coordinates":[1637,6863]},{"type":"Point","properties":{"Station_ID":"MLLW3","Station_Nam":"MERRILL 8W","Latitude":"45.17810","Longitude":"-89.84810","Snowdepth":"3.000","Units":"in","Rept_Date":"2020-03-15 16"},"coordinates":[1735,4814]},{"type":"Point","properties":{"Station_ID":"LNCM1","Station_Nam":"LINCOLN WATER DISTRICT","Latitude":"45.32410","Longitude":"-68.58300","Snowdepth":"3.000","Units":"in","Rept_Date":"2020-03-15 12"},"coordinates":[6725,4929]},{"type":"Point","properties":{"Station_ID":"IL-MCL-39","Station_Nam":"BLOOMINGTON 5.0 WSW, IL","Latitude":"40.45837","Longitude":"-89.06499","Snowdepth":"3.000","Units":"in","Rept_Date":"2020-03-15 13"},"coordinates":[1918,1077]},{"type":"Point","properties":{"Station_ID":"IA-AP-8","Station_Nam":"CENTERVILLE 5.6 NE, IA","Latitude":"40.79636","Longitude":"-92.81251","Snowdepth":"3.000","Units":"in","Rept_Date":"2020-03-15 13"},"coordinates":[1039,1344]},{"type":"Point","properties":{"Station_ID":"HRTM1","Station_Nam":"HARTFORD","Latitude":"44.37440","Longitude":"-70.31620","Snowdepth":"3.000","Units":"in","Rept_Date":"2020-03-15 11"},"coordinates":[6318,4177]},{"type":"Point","properties":{"Station_ID":"GFDN6","Station_Nam":"CHASES LAKE","Latitude":"43.75920","Longitude":"-75.29980","Snowdepth":"3.000","Units":"in","Rept_Date":"2020-03-15 10"},"coordinates":[5149,3690]},{"type":"Point","properties":{"Station_ID":"FRSM2","Station_Nam":"FROSTBURG 2 COOP","Latitude":"39.66000","Longitude":"-78.93580","Snowdepth":"3.000","Units":"in","Rept_Date":"2020-03-15 11"},"coordinates":[4296,445]},{"type":"Point","properties":{"Station_ID":"FCLN1","Station_Nam":"FT CALHOUN 4W","Latitude":"41.44670","Longitude":"-96.09190","Snowdepth":"3.000","Units":"in","Rept_Date":"2020-03-15 12"},"coordinates":[269,1859]},{"type":"Point","properties":{"Station_ID":"EPTW3","Station_Nam":"EAU PLEINE TENDER","Latitude":"44.77220","Longitude":"-89.76720","Snowdepth":"3.000","Units":"in","Rept_Date":"2020-03-15 12"},"coordinates":[1753,4492]},{"type":"Point","properties":{"Station_ID":"CORM1","Station_Nam":"CORINNA","Latitude":"44.91980","Longitude":"-69.24180","Snowdepth":"3.000","Units":"in","Rept_Date":"2020-03-15 15"},"coordinates":[6571,4609]},{"type":"Point","properties":{"Station_ID":"CFLP1","Station_Nam":"DAM","Latitude":"39.80000","Longitude":"-79.36670","Snowdepth":"3.000","Units":"in","Rept_Date":"2020-03-15 12"},"coordinates":[4194,556]},{"type":"Point","properties":{"Station_ID":"BETM1","Station_Nam":"BETHEL 6 SSE","Latitude":"44.32000","Longitude":"-70.75680","Snowdepth":"3.000","Units":"in","Rept_Date":"2020-03-15 11"},"coordinates":[6215,4134]},{"type":"Point","properties":{"Station_ID":"ATY","Station_Nam":"WATERTOWN MUNICIPAL AIRPORT","Latitude":"44.91420","Longitude":"-97.15440","Snowdepth":"3.000","Units":"in","Rept_Date":"2020-03-15 12"},"coordinates":[20,4605]},{"type":"Point","properties":{"Station_ID":"ABGW3","Station_Nam":"AMBERG 9 E","Latitude":"45.48250","Longitude":"-87.81190","Snowdepth":"3.000","Units":"in","Rept_Date":"2020-03-15 11"},"coordinates":[2212,5055]},{"type":"Point","properties":{"Station_ID":"PA-WS-22","Station_Nam":"CANONSBURG 3.7 NW, PA","Latitude":"40.30054","Longitude":"-80.23848","Snowdepth":"2.600","Units":"in","Rept_Date":"2020-03-15 12"},"coordinates":[3990,952]},{"type":"Point","properties":{"Station_ID":"IN-HM-70","Station_Nam":"NOBLESVILLE 3.6 NW, IN","Latitude":"40.08825","Longitude":"-86.08540","Snowdepth":"2.600","Units":"in","Rept_Date":"2020-03-15 14"},"coordinates":[2618,784]},{"type":"Point","properties":{"Station_ID":"VT-WS-10","Station_Nam":"NORTHFIELD 1.5 N, VT","Latitude":"44.16986","Longitude":"-72.65200","Snowdepth":"2.500","Units":"in","Rept_Date":"2020-03-15 12"},"coordinates":[5770,4016]},{"type":"Point","properties":{"Station_ID":"OH-SH-20","Station_Nam":"SIDNEY 5.4 SW, OH","Latitude":"40.23707","Longitude":"-84.24076","Snowdepth":"2.500","Units":"in","Rept_Date":"2020-03-15 12"},"coordinates":[3051,902]},{"type":"Point","properties":{"Station_ID":"MD-GR-4","Station_Nam":"MC HENRY 4.8 SSE, MD","Latitude":"39.48539","Longitude":"-79.31830","Snowdepth":"2.500","Units":"in","Rept_Date":"2020-03-15 13"},"coordinates":[4206,306]},{"type":"Point","properties":{"Station_ID":"IN-BN-10","Station_Nam":"LEBANON 4.5 NNE, IN","Latitude":"40.11521","Longitude":"-86.45510","Snowdepth":"2.500","Units":"in","Rept_Date":"2020-03-15 12"},"coordinates":[2531,805]},{"type":"Point","properties":{"Station_ID":"IL-VR-25","Station_Nam":"HOOPESTON 0.6 E, IL","Latitude":"40.46359","Longitude":"-87.65980","Snowdepth":"2.500","Units":"in","Rept_Date":"2020-03-15 13"},"coordinates":[2248,1081]},{"type":"Point","properties":{"Station_ID":"CAN-NS-159","Station_Nam":"NORTHPORT 0.1 NE, CAN","Latitude":"45.93299","Longitude":"-63.86711","Snowdepth":"2.100","Units":"in","Rept_Date":"2020-03-15 11"},"coordinates":[7832,5412]},{"type":"Point","properties":{"Station_ID":"WSFW3","Station_Nam":"TOWN OF WESTFORD","Latitude":"43.47190","Longitude":"-88.88250","Snowdepth":"2.000","Units":"in","Rept_Date":"2020-03-15 12"},"coordinates":[1961,3463]},{"type":"Point","properties":{"Station_ID":"WNDP1","Station_Nam":"WINDBER COUNTY CLUB","Latitude":"40.28780","Longitude":"-78.77530","Snowdepth":"2.000","Units":"in","Rept_Date":"2020-03-15 11"},"coordinates":[4333,942]},{"type":"Point","properties":{"Station_ID":"WI-DR-5","Station_Nam":"ELLISON BAY 2.2 E, WI","Latitude":"45.25750","Longitude":"-87.02670","Snowdepth":"2.000","Units":"in","Rept_Date":"2020-03-15 13"},"coordinates":[2397,4877]},{"type":"Point","properties":{"Station_ID":"WI-DD-16","Station_Nam":"BEAVER DAM 2.4 WNW, WI","Latitude":"43.47210","Longitude":"-88.88280","Snowdepth":"2.000","Units":"in","Rept_Date":"2020-03-15 13"},"coordinates":[1961,3463]},{"type":"Point","properties":{"Station_ID":"VT-LM-7","Station_Nam":"HYDE PARK 2.9 NE, VT","Latitude":"44.62080","Longitude":"-72.57250","Snowdepth":"2.000","Units":"in","Rept_Date":"2020-03-15 13"},"coordinates":[5789,4373]},{"type":"Point","properties":{"Station_ID":"TRPI4","Station_Nam":"TRIPOLI,IA","Latitude":"42.81310","Longitude":"-92.25830","Snowdepth":"2.000","Units":"in","Rept_Date":"2020-03-15 12"},"coordinates":[1169,2941]},{"type":"Point","properties":{"Station_ID":"SWTW3","Station_Nam":"SUPERIOR WWTP","Latitude":"46.72700","Longitude":"-92.07200","Snowdepth":"2.000","Units":"in","Rept_Date":"2020-03-16 05"},"coordinates":[1213,6040]},{"type":"Point","properties":{"Station_ID":"SWHI4","Station_Nam":"SWISHER #2","Latitude":"41.84970","Longitude":"-91.67650","Snowdepth":"2.000","Units":"in","Rept_Date":"2020-03-15 14"},"coordinates":[1305,2178]},{"type":"Point","properties":{"Station_ID":"STRW3","Station_Nam":"STRATFORD 1NW","Latitude":"44.81750","Longitude":"-90.08990","Snowdepth":"2.000","Units":"in","Rept_Date":"2020-03-15 12"},"coordinates":[1678,4528]},{"type":"Point","properties":{"Station_ID":"SHDI4","Station_Nam":"SHELDON,IA","Latitude":"43.18080","Longitude":"-95.85280","Snowdepth":"2.000","Units":"in","Rept_Date":"2020-03-15 12"},"coordinates":[325,3232]},{"type":"Point","properties":{"Station_ID":"ROWM3","Station_Nam":"ROWE 3NE","Latitude":"42.73500","Longitude":"-72.86920","Snowdepth":"2.000","Units":"in","Rept_Date":"2020-03-15 11"},"coordinates":[5719,2879]},{"type":"Point","properties":{"Station_ID":"RDGI3","Station_Nam":"RIDGEVILLE 3SSE","Latitude":"40.25520","Longitude":"-84.99580","Snowdepth":"2.000","Units":"in","Rept_Date":"2020-03-15 11"},"coordinates":[2873,916]},{"type":"Point","properties":{"Station_ID":"RARM4","Station_Nam":"RAPID RIVER 1 SW","Latitude":"45.91500","Longitude":"-86.98800","Snowdepth":"2.000","Units":"in","Rept_Date":"2020-03-15 11"},"coordinates":[2406,5397]},{"type":"Point","properties":{"Station_ID":"PXNI2","Station_Nam":"PAXTON 2WSW","Latitude":"40.45470","Longitude":"-88.14170","Snowdepth":"2.000","Units":"in","Rept_Date":"2020-03-15 11"},"coordinates":[2135,1074]},{"type":"Point","properties":{"Station_ID":"PA-CM-4","Station_Nam":"BELMONT 0.1 NE, PA","Latitude":"40.28347","Longitude":"-78.89010","Snowdepth":"2.000","Units":"in","Rept_Date":"2020-03-15 13"},"coordinates":[4306,938]},{"type":"Point","properties":{"Station_ID":"OH-MY-34","Station_Nam":"UNION 1.0 WSW, OH","Latitude":"39.89794","Longitude":"-84.32840","Snowdepth":"2.000","Units":"in","Rept_Date":"2020-03-15 12"},"coordinates":[3030,633]},{"type":"Point","properties":{"Station_ID":"OH-MM-13","Station_Nam":"TROY 3.1 S, OH","Latitude":"39.99982","Longitude":"-84.21136","Snowdepth":"2.000","Units":"in","Rept_Date":"2020-03-15 13"},"coordinates":[3057,714]},{"type":"Point","properties":{"Station_ID":"OH-MK-13","Station_Nam":"NEW CONCORD 5.2 SSW, OH","Latitude":"39.92350","Longitude":"-81.75780","Snowdepth":"2.000","Units":"in","Rept_Date":"2020-03-15 12"},"coordinates":[3633,653]},{"type":"Point","properties":{"Station_ID":"OH-FR-2","Station_Nam":"DUBLIN 3.2 ENE, OH","Latitude":"40.12990","Longitude":"-83.07420","Snowdepth":"2.000","Units":"in","Rept_Date":"2020-03-15 12"},"coordinates":[3324,817]},{"type":"Point","properties":{"Station_ID":"NWSM1","Station_Nam":"NEW SHARON","Latitude":"44.63520","Longitude":"-70.00020","Snowdepth":"2.000","Units":"in","Rept_Date":"2020-03-15 11"},"coordinates":[6393,4384]},{"type":"Point","properties":{"Station_ID":"NH-MR-45","Station_Nam":"NORTHFIELD 2.8 E, NH","Latitude":"43.43945","Longitude":"-71.53730","Snowdepth":"2.000","Units":"in","Rept_Date":"2020-03-15 12"},"coordinates":[6032,3437]},{"type":"Point","properties":{"Station_ID":"NH-MR-41","Station_Nam":"NEWBURY 1.6 NW, NH","Latitude":"43.33667","Longitude":"-72.06060","Snowdepth":"2.000","Units":"in","Rept_Date":"2020-03-15 12"},"coordinates":[5909,3356]},{"type":"Point","properties":{"Station_ID":"NE-SW-7","Station_Nam":"SEWARD 0.5 NE, NE","Latitude":"40.91689","Longitude":"-97.08981","Snowdepth":"2.000","Units":"in","Rept_Date":"2020-03-15 13"},"coordinates":[35,1440]},{"type":"Point","properties":{"Station_ID":"NCON3","Station_Nam":"NORTH CONWAY","Latitude":"44.05620","Longitude":"-71.12970","Snowdepth":"2.000","Units":"in","Rept_Date":"2020-03-15 12"},"coordinates":[6128,3926]},{"type":"Point","properties":{"Station_ID":"MUNI3","Station_Nam":"MUNCIE WATERWORKS","Latitude":"40.18250","Longitude":"-85.34960","Snowdepth":"2.000","Units":"in","Rept_Date":"2020-03-15 11"},"coordinates":[2790,858]},{"type":"Point","properties":{"Station_ID":"MRAM5","Station_Nam":"MORA","Latitude":"45.87760","Longitude":"-93.31470","Snowdepth":"2.000","Units":"in","Rept_Date":"2020-03-15 12"},"coordinates":[921,5368]},{"type":"Point","properties":{"Station_ID":"MN0GWSNW","Station_Nam":"LAKE ELMO 2.9 SE","Latitude":"44.97220","Longitude":"-92.83065","Snowdepth":"2.000","Units":"in","Rept_Date":"2020-03-15 12"},"coordinates":[1035,4651]},{"type":"Point","properties":{"Station_ID":"MN-SH-10","Station_Nam":"BIG LAKE 5.6 NNE, MN","Latitude":"45.41409","Longitude":"-93.69190","Snowdepth":"2.000","Units":"in","Rept_Date":"2020-03-15 13"},"coordinates":[832,5001]},{"type":"Point","properties":{"Station_ID":"MLRM5","Station_Nam":"MELROSE","Latitude":"45.67710","Longitude":"-94.80200","Snowdepth":"2.000","Units":"in","Rept_Date":"2020-03-15 12"},"coordinates":[572,5209]},{"type":"Point","properties":{"Station_ID":"MI-GT-21","Station_Nam":"KINGSLEY 2.7 ENE, MI","Latitude":"44.59871","Longitude":"-85.48426","Snowdepth":"2.000","Units":"in","Rept_Date":"2020-03-15 13"},"coordinates":[2759,4355]},{"type":"Point","properties":{"Station_ID":"MD-GR-9","Station_Nam":"MOUNTAIN LAKE PARK 0.4 E, MD","Latitude":"39.40407","Longitude":"-79.37220","Snowdepth":"2.000","Units":"in","Rept_Date":"2020-03-15 12"},"coordinates":[4193,242]},{"type":"Point","properties":{"Station_ID":"LANC007","Station_Nam":"DAVEY 1.2 NNW, NE","Latitude":"41.00320","Longitude":"-96.67630","Snowdepth":"2.000","Units":"in","Rept_Date":"2020-03-15 13"},"coordinates":[132,1508]},{"type":"Point","properties":{"Station_ID":"IN-HM-19","Station_Nam":"LAPEL 4.7 NW, IN","Latitude":"40.12270","Longitude":"-85.90110","Snowdepth":"2.000","Units":"in","Rept_Date":"2020-03-15 13"},"coordinates":[2661,811]},{"type":"Point","properties":{"Station_ID":"IL-MCL-17","Station_Nam":"BLOOMINGTON 2.7 NE, IL","Latitude":"40.50100","Longitude":"-88.93190","Snowdepth":"2.000","Units":"in","Rept_Date":"2020-03-15 13"},"coordinates":[1950,1111]},{"type":"Point","properties":{"Station_ID":"HVJP1","Station_Nam":"HIDDEN VALLEY COOP","Latitude":"40.04200","Longitude":"-79.25660","Snowdepth":"2.000","Units":"in","Rept_Date":"2020-03-15 12"},"coordinates":[4220,747]},{"type":"Point","properties":{"Station_ID":"GRMP1","Station_Nam":"GRAMPIAN, PA","Latitude":"40.96660","Longitude":"-78.58710","Snowdepth":"2.000","Units":"in","Rept_Date":"2020-03-15 12"},"coordinates":[4377,1479]},{"type":"Point","properties":{"Station_ID":"FYTI4","Station_Nam":"FAYETTE","Latitude":"42.88300","Longitude":"-91.83020","Snowdepth":"2.000","Units":"in","Rept_Date":"2020-03-15 12"},"coordinates":[1269,2997]},{"type":"Point","properties":{"Station_ID":"ELDI4","Station_Nam":"ELDORA,IA","Latitude":"42.35000","Longitude":"-93.10000","Snowdepth":"2.000","Units":"in","Rept_Date":"2020-03-15 12"},"coordinates":[971,2575]},{"type":"Point","properties":{"Station_ID":"CTEN1","Station_Nam":"DOANE COLLEGE","Latitude":"40.61670","Longitude":"-96.95000","Snowdepth":"2.000","Units":"in","Rept_Date":"2020-03-15 12"},"coordinates":[68,1202]},{"type":"Point","properties":{"Station_ID":"BMGI2","Station_Nam":"BLOOMINGTON WATERWORKS","Latitude":"40.49620","Longitude":"-88.99940","Snowdepth":"2.000","Units":"in","Rept_Date":"2020-03-15 13"},"coordinates":[1934,1107]},{"type":"Point","properties":{"Station_ID":"BKEM5","Station_Nam":"BRECKENRIDGE 4NE","Latitude":"46.30470","Longitude":"-96.52170","Snowdepth":"2.000","Units":"in","Rept_Date":"2020-03-15 12"},"coordinates":[168,5706]},{"type":"Point","properties":{"Station_ID":"BFSW3","Station_Nam":"BIG FALLS-5 NW","Latitude":"44.63980","Longitude":"-89.11330","Snowdepth":"2.000","Units":"in","Rept_Date":"2020-03-15 12"},"coordinates":[1907,4388]},{"type":"Point","properties":{"Station_ID":"BCNI4","Station_Nam":"BEACONSFIELD,IA","Latitude":"40.82360","Longitude":"-94.04390","Snowdepth":"2.000","Units":"in","Rept_Date":"2020-03-15 12"},"coordinates":[750,1366]},{"type":"Point","properties":{"Station_ID":"AUGI2","Station_Nam":"AUGUSTA","Latitude":"40.23330","Longitude":"-90.94710","Snowdepth":"2.000","Units":"in","Rept_Date":"2020-03-15 14"},"coordinates":[1477,899]},{"type":"Point","properties":{"Station_ID":"IA-DV-2","Station_Nam":"MOULTON 3.6 ENE, IA","Latitude":"40.70487","Longitude":"-92.61551","Snowdepth":"1.700","Units":"in","Rept_Date":"2020-03-15 13"},"coordinates":[1085,1272]},{"type":"Point","properties":{"Station_ID":"SD-MH-1","Station_Nam":"SIOUX FALLS 5.0 SE ARPT, SD","Latitude":"43.52360","Longitude":"-96.66780","Snowdepth":"1.500","Units":"in","Rept_Date":"2020-03-15 13"},"coordinates":[134,3504]},{"type":"Point","properties":{"Station_ID":"OH-DL-12","Station_Nam":"LEWIS CENTER 1.4 E, OH","Latitude":"40.19672","Longitude":"-82.98353","Snowdepth":"1.500","Units":"in","Rept_Date":"2020-03-15 12"},"coordinates":[3346,870]},{"type":"Point","properties":{"Station_ID":"NE-SY-9","Station_Nam":"GRETNA 0.1 SSE, NE","Latitude":"41.12710","Longitude":"-96.24740","Snowdepth":"1.500","Units":"in","Rept_Date":"2020-03-15 14"},"coordinates":[233,1606]},{"type":"Point","properties":{"Station_ID":"NE-DG-8","Station_Nam":"OMAHA 7.0 W, NE","Latitude":"41.27451","Longitude":"-96.14630","Snowdepth":"1.500","Units":"in","Rept_Date":"2020-03-15 13"},"coordinates":[256,1723]},{"type":"Point","properties":{"Station_ID":"MN-RK-5","Station_Nam":"HILLS 0.2 NW, MN","Latitude":"43.52960","Longitude":"-96.36146","Snowdepth":"1.500","Units":"in","Rept_Date":"2020-03-15 14"},"coordinates":[206,3509]},{"type":"Point","properties":{"Station_ID":"MI-CF-9","Station_Nam":"GRAYLING 15.8 NE, MI","Latitude":"44.80464","Longitude":"-84.46313","Snowdepth":"1.500","Units":"in","Rept_Date":"2020-03-15 12"},"coordinates":[2998,4518]},{"type":"Point","properties":{"Station_ID":"MI-BZ-1","Station_Nam":"BENZONIA 5.3 S, MI","Latitude":"44.53976","Longitude":"-86.10650","Snowdepth":"1.500","Units":"in","Rept_Date":"2020-03-15 14"},"coordinates":[2613,4308]},{"type":"Point","properties":{"Station_ID":"IN-TP-82","Station_Nam":"WEST LAFAYETTE 1.1 NW, IN","Latitude":"40.45600","Longitude":"-86.92531","Snowdepth":"1.500","Units":"in","Rept_Date":"2020-03-15 12"},"coordinates":[2420,1075]},{"type":"Point","properties":{"Station_ID":"IL-LS-60","Station_Nam":"PERU 0.7 ENE, IL","Latitude":"41.34699","Longitude":"-89.11766","Snowdepth":"1.500","Units":"in","Rept_Date":"2020-03-15 13"},"coordinates":[1906,1780]},{"type":"Point","properties":{"Station_ID":"IA-LN-36","Station_Nam":"SHELLSBURG 2.9 S, IA","Latitude":"42.05091","Longitude":"-91.87008","Snowdepth":"1.500","Units":"in","Rept_Date":"2020-03-15 13"},"coordinates":[1260,2338]},{"type":"Point","properties":{"Station_ID":"IA-JH-14","Station_Nam":"SWISHER 0.4 NNE, IA","Latitude":"41.84830","Longitude":"-91.69210","Snowdepth":"1.500","Units":"in","Rept_Date":"2020-03-15 15"},"coordinates":[1302,2177]},{"type":"Point","properties":{"Station_ID":"IN-MD-25","Station_Nam":"ANDERSON 2.0 S, IN","Latitude":"40.06382","Longitude":"-85.69160","Snowdepth":"1.400","Units":"in","Rept_Date":"2020-03-15 12"},"coordinates":[2710,764]},{"type":"Point","properties":{"Station_ID":"OH-MM-11","Station_Nam":"TROY 3.7 S, OH","Latitude":"39.99181","Longitude":"-84.20953","Snowdepth":"1.300","Units":"in","Rept_Date":"2020-03-15 13"},"coordinates":[3058,707]},{"type":"Point","properties":{"Station_ID":"IL-WL-63","Station_Nam":"NEW LENOX 1.8 SE, IL","Latitude":"41.49964","Longitude":"-87.96030","Snowdepth":"1.300","Units":"in","Rept_Date":"2020-03-15 13"},"coordinates":[2178,1901]},{"type":"Point","properties":{"Station_ID":"IA-BH-17","Station_Nam":"GILBERTVILLE 1.0 NW, IA","Latitude":"42.43070","Longitude":"-92.22526","Snowdepth":"1.300","Units":"in","Rept_Date":"2020-03-15 14"},"coordinates":[1177,2639]},{"type":"Point","properties":{"Station_ID":"WV-MG-16","Station_Nam":"MORGANTOWN 5.9 SW, WV","Latitude":"39.56615","Longitude":"-80.01490","Snowdepth":"1.200","Units":"in","Rept_Date":"2020-03-15 12"},"coordinates":[4042,370]},{"type":"Point","properties":{"Station_ID":"OH-MK-12","Station_Nam":"NORWICH 1.1 SE, OH","Latitude":"39.97526","Longitude":"-81.77666","Snowdepth":"1.200","Units":"in","Rept_Date":"2020-03-15 12"},"coordinates":[3629,694]},{"type":"Point","properties":{"Station_ID":"IN-PT-18","Station_Nam":"HEBRON 3.7 NE, IN","Latitude":"41.36707","Longitude":"-87.16230","Snowdepth":"1.200","Units":"in","Rept_Date":"2020-03-15 12"},"coordinates":[2365,1796]},{"type":"Point","properties":{"Station_ID":"WV-PR-10","Station_Nam":"TERRA ALTA 4.9 NNE, WV","Latitude":"39.51024","Longitude":"-79.51024","Snowdepth":"1.100","Units":"in","Rept_Date":"2020-03-15 13"},"coordinates":[4161,326]},{"type":"Point","properties":{"Station_ID":"WORV1","Station_Nam":"WORCESTER 2 W","Latitude":"44.37470","Longitude":"-72.58220","Snowdepth":"1.000","Units":"in","Rept_Date":"2020-03-15 11"},"coordinates":[5787,4178]},{"type":"Point","properties":{"Station_ID":"WMTI4","Station_Nam":"FORT DODGE,IA","Latitude":"42.50610","Longitude":"-94.20110","Snowdepth":"1.000","Units":"in","Rept_Date":"2020-03-15 13"},"coordinates":[713,2698]},{"type":"Point","properties":{"Station_ID":"WMRM5","Station_Nam":"WILLMAR 5N","Latitude":"45.19010","Longitude":"-95.05860","Snowdepth":"1.000","Units":"in","Rept_Date":"2020-03-15 11"},"coordinates":[512,4823]},{"type":"Point","properties":{"Station_ID":"WI-WN-9","Station_Nam":"NEENAH 1.1 ENE, WI","Latitude":"44.17370","Longitude":"-88.45130","Snowdepth":"1.000","Units":"in","Rept_Date":"2020-03-15 13"},"coordinates":[2062,4019]},{"type":"Point","properties":{"Station_ID":"WI-WD-7","Station_Nam":"NEKOOSA 3.7 SSW, WI","Latitude":"44.26305","Longitude":"-89.93526","Snowdepth":"1.000","Units":"in","Rept_Date":"2020-03-15 13"},"coordinates":[1714,4089]},{"type":"Point","properties":{"Station_ID":"WI-WD-2","Station_Nam":"WISCONSIN RAPIDS 4.6 SSE, WI","Latitude":"44.33823","Longitude":"-89.78200","Snowdepth":"1.000","Units":"in","Rept_Date":"2020-03-15 13"},"coordinates":[1750,4149]},{"type":"Point","properties":{"Station_ID":"WHTM5","Station_Nam":"WHEATON,MN","Latitude":"45.80000","Longitude":"-96.48330","Snowdepth":"1.000","Units":"in","Rept_Date":"2020-03-15 13"},"coordinates":[177,5306]},{"type":"Point","properties":{"Station_ID":"WANI3","Station_Nam":"WANATAH,IN","Latitude":"41.43330","Longitude":"-86.93330","Snowdepth":"1.000","Units":"in","Rept_Date":"2020-03-15 12"},"coordinates":[2419,1849]},{"type":"Point","properties":{"Station_ID":"VT-WR-17","Station_Nam":"ROCHESTER 2.3 NE, VT","Latitude":"43.89418","Longitude":"-72.76992","Snowdepth":"1.000","Units":"in","Rept_Date":"2020-03-15 12"},"coordinates":[5743,3797]},{"type":"Point","properties":{"Station_ID":"VT-LM-1","Station_Nam":"STOWE 0.2 SW, VT","Latitude":"44.46399","Longitude":"-72.69070","Snowdepth":"1.000","Units":"in","Rept_Date":"2020-03-15 12"},"coordinates":[5761,4248]},{"type":"Point","properties":{"Station_ID":"TPTI3","Station_Nam":"TIPTON 5 SW","Latitude":"40.22330","Longitude":"-86.10860","Snowdepth":"1.000","Units":"in","Rept_Date":"2020-03-15 09"},"coordinates":[2612,891]},{"type":"Point","properties":{"Station_ID":"THLM5","Station_Nam":"THEILMAN 1SSW","Latitude":"44.28130","Longitude":"-92.19430","Snowdepth":"1.000","Units":"in","Rept_Date":"2020-03-15 12"},"coordinates":[1184,4104]},{"type":"Point","properties":{"Station_ID":"STPW3","Station_Nam":"STEVENS POINT","Latitude":"44.51130","Longitude":"-89.58550","Snowdepth":"1.000","Units":"in","Rept_Date":"2020-03-15 12"},"coordinates":[1796,4286]},{"type":"Point","properties":{"Station_ID":"STON1","Station_Nam":"STANTON 7NE","Latitude":"42.04130","Longitude":"-97.17470","Snowdepth":"1.000","Units":"in","Rept_Date":"2020-03-15 12"},"coordinates":[15,2330]},{"type":"Point","properties":{"Station_ID":"STBO1","Station_Nam":"STEUBENVILLE","Latitude":"40.37640","Longitude":"-80.62810","Snowdepth":"1.000","Units":"in","Rept_Date":"2020-03-15 11"},"coordinates":[3898,1012]},{"type":"Point","properties":{"Station_ID":"SIXI4","Station_Nam":"SIOUX CENTER,IA","Latitude":"43.05000","Longitude":"-96.15000","Snowdepth":"1.000","Units":"in","Rept_Date":"2020-03-15 14"},"coordinates":[255,3129]},{"type":"Point","properties":{"Station_ID":"SD-LN-32","Station_Nam":"SIOUX FALLS 3.6 SSE, SD","Latitude":"43.49360","Longitude":"-96.71249","Snowdepth":"1.000","Units":"in","Rept_Date":"2020-03-15 13"},"coordinates":[123,3480]},{"type":"Point","properties":{"Station_ID":"SACI4","Station_Nam":"SAC CITY,IA","Latitude":"42.42390","Longitude":"-94.99080","Snowdepth":"1.000","Units":"in","Rept_Date":"2020-03-15 11"},"coordinates":[528,2633]},{"type":"Point","properties":{"Station_ID":"RWGM5","Station_Nam":"RED WING","Latitude":"44.57120","Longitude":"-92.52830","Snowdepth":"1.000","Units":"in","Rept_Date":"2020-03-15 13"},"coordinates":[1105,4333]},{"type":"Point","properties":{"Station_ID":"RRLW3","Station_Nam":"MERRILL,WI","Latitude":"45.17860","Longitude":"-89.66170","Snowdepth":"1.000","Units":"in","Rept_Date":"2020-03-15 13"},"coordinates":[1778,4814]},{"type":"Point","properties":{"Station_ID":"ROBM1","Station_Nam":"ROBBINSTON","Latitude":"45.08520","Longitude":"-67.12050","Snowdepth":"1.000","Units":"in","Rept_Date":"2020-03-16 04"},"coordinates":[7069,4740]},{"type":"Point","properties":{"Station_ID":"RMSI4","Station_Nam":"REMSEN NO. 2","Latitude":"42.81050","Longitude":"-95.97530","Snowdepth":"1.000","Units":"in","Rept_Date":"2020-03-15 17"},"coordinates":[296,2939]},{"type":"Point","properties":{"Station_ID":"RKWI4","Station_Nam":"ROCKWELL CITY,IA","Latitude":"42.40000","Longitude":"-94.61670","Snowdepth":"1.000","Units":"in","Rept_Date":"2020-03-15 12"},"coordinates":[615,2614]},{"type":"Point","properties":{"Station_ID":"PYMI3","Station_Nam":"PLYMOUTH","Latitude":"41.33920","Longitude":"-86.33580","Snowdepth":"1.000","Units":"in","Rept_Date":"2020-03-15 12"},"coordinates":[2559,1774]},{"type":"Point","properties":{"Station_ID":"PSHW3","Station_Nam":"PESHTIGO","Latitude":"45.02810","Longitude":"-87.73560","Snowdepth":"1.000","Units":"in","Rept_Date":"2020-03-15 12"},"coordinates":[2230,4695]},{"type":"Point","properties":{"Station_ID":"PNCI3","Station_Nam":"PENCE","Latitude":"40.35220","Longitude":"-87.52500","Snowdepth":"1.000","Units":"in","Rept_Date":"2020-03-15 11"},"coordinates":[2280,993]},{"type":"Point","properties":{"Station_ID":"PLFV1","Station_Nam":"PLAINFIELD","Latitude":"44.27610","Longitude":"-72.41500","Snowdepth":"1.000","Units":"in","Rept_Date":"2020-03-15 11"},"coordinates":[5826,4100]},{"type":"Point","properties":{"Station_ID":"PLBP1","Station_Nam":"PHILIPSBURG,PA","Latitude":"40.87220","Longitude":"-78.21530","Snowdepth":"1.000","Units":"in","Rept_Date":"2020-03-15 12"},"coordinates":[4465,1405]},{"type":"Point","properties":{"Station_ID":"PBZP1","Station_Nam":"MOON TOWNSHIP","Latitude":"40.53190","Longitude":"-80.21720","Snowdepth":"1.000","Units":"in","Rept_Date":"2020-03-15 11"},"coordinates":[3995,1135]},{"type":"Point","properties":{"Station_ID":"PA-WS-21","Station_Nam":"FINLEYVILLE 0.5 NNW, PA","Latitude":"40.26030","Longitude":"-80.00590","Snowdepth":"1.000","Units":"in","Rept_Date":"2020-03-15 12"},"coordinates":[4044,920]},{"type":"Point","properties":{"Station_ID":"PA-BV-18","Station_Nam":"BEAVER 5.5 W, PA","Latitude":"40.70502","Longitude":"-80.41213","Snowdepth":"1.000","Units":"in","Rept_Date":"2020-03-15 12"},"coordinates":[3949,1272]},{"type":"Point","properties":{"Station_ID":"PA-BT-24","Station_Nam":"CABOT 0.3 N, PA","Latitude":"40.76870","Longitude":"-79.76690","Snowdepth":"1.000","Units":"in","Rept_Date":"2020-03-15 13"},"coordinates":[4100,1323]},{"type":"Point","properties":{"Station_ID":"PA-BT-15","Station_Nam":"FOX RUN 1.6 NNE, PA","Latitude":"40.72384","Longitude":"-80.07056","Snowdepth":"1.000","Units":"in","Rept_Date":"2020-03-15 11"},"coordinates":[4029,1287]},{"type":"Point","properties":{"Station_ID":"PA-AL-1","Station_Nam":"BRIDGEVILLE 1.4 SW, PA","Latitude":"40.34174","Longitude":"-80.12290","Snowdepth":"1.000","Units":"in","Rept_Date":"2020-03-15 12"},"coordinates":[4017,985]},{"type":"Point","properties":{"Station_ID":"ORAN3","Station_Nam":"ORANGE","Latitude":"43.66880","Longitude":"-71.94830","Snowdepth":"1.000","Units":"in","Rept_Date":"2020-03-15 11"},"coordinates":[5935,3619]},{"type":"Point","properties":{"Station_ID":"OLNI4","Station_Nam":"OELWEIN 1E","Latitude":"42.68010","Longitude":"-91.87510","Snowdepth":"1.000","Units":"in","Rept_Date":"2020-03-15 11"},"coordinates":[1259,2836]},{"type":"Point","properties":{"Station_ID":"OH-UN-4","Station_Nam":"RAYMOND 3.5 NW, OH","Latitude":"40.35071","Longitude":"-83.48460","Snowdepth":"1.000","Units":"in","Rept_Date":"2020-03-15 13"},"coordinates":[3228,992]},{"type":"Point","properties":{"Station_ID":"OH-SH-15","Station_Nam":"FORT LORAMIE 0.8 NNW, OH","Latitude":"40.35695","Longitude":"-84.37360","Snowdepth":"1.000","Units":"in","Rept_Date":"2020-03-15 12"},"coordinates":[3019,997]},{"type":"Point","properties":{"Station_ID":"OH-PB-1","Station_Nam":"EATON 1.0 N, OH","Latitude":"39.76472","Longitude":"-84.63380","Snowdepth":"1.000","Units":"in","Rept_Date":"2020-03-15 12"},"coordinates":[2958,528]},{"type":"Point","properties":{"Station_ID":"OH-MM-14","Station_Nam":"TIPP CITY 0.6 SE, OH","Latitude":"39.95730","Longitude":"-84.17494","Snowdepth":"1.000","Units":"in","Rept_Date":"2020-03-15 13"},"coordinates":[3066,680]},{"type":"Point","properties":{"Station_ID":"OH-LC-26","Station_Nam":"KIRKERSVILLE 3.3 N, OH","Latitude":"39.99803","Longitude":"-82.59864","Snowdepth":"1.000","Units":"in","Rept_Date":"2020-03-15 13"},"coordinates":[3436,712]},{"type":"Point","properties":{"Station_ID":"OH-LC-10","Station_Nam":"GRANVILLE 4.0 N, OH","Latitude":"40.12820","Longitude":"-82.51580","Snowdepth":"1.000","Units":"in","Rept_Date":"2020-03-15 12"},"coordinates":[3455,815]},{"type":"Point","properties":{"Station_ID":"OH-JF-9","Station_Nam":"MOUNT PLEASANT 1.4 WSW, OH","Latitude":"40.16496","Longitude":"-80.82290","Snowdepth":"1.000","Units":"in","Rept_Date":"2020-03-15 12"},"coordinates":[3853,845]},{"type":"Point","properties":{"Station_ID":"OH-HR-2","Station_Nam":"BELLEVUE 0.6 N, OH","Latitude":"41.28386","Longitude":"-82.84080","Snowdepth":"1.000","Units":"in","Rept_Date":"2020-03-15 11"},"coordinates":[3379,1730]},{"type":"Point","properties":{"Station_ID":"OH-DR-17","Station_Nam":"PITSBURG 1.4 ENE, OH","Latitude":"39.99350","Longitude":"-84.46290","Snowdepth":"1.000","Units":"in","Rept_Date":"2020-03-15 14"},"coordinates":[2998,709]},{"type":"Point","properties":{"Station_ID":"OH-DR-1","Station_Nam":"BRADFORD 2.3 NW, OH","Latitude":"40.15262","Longitude":"-84.46130","Snowdepth":"1.000","Units":"in","Rept_Date":"2020-03-15 12"},"coordinates":[2999,835]},{"type":"Point","properties":{"Station_ID":"OH-CW-1","Station_Nam":"GALION 1.1 W, OH","Latitude":"40.73024","Longitude":"-82.81170","Snowdepth":"1.000","Units":"in","Rept_Date":"2020-03-15 12"},"coordinates":[3386,1292]},{"type":"Point","properties":{"Station_ID":"OCON6","Station_Nam":"OSCEOLA","Latitude":"43.49910","Longitude":"-75.71210","Snowdepth":"1.000","Units":"in","Rept_Date":"2020-03-15 11"},"coordinates":[5052,3484]},{"type":"Point","properties":{"Station_ID":"OAKI4","Station_Nam":"OAKLAND,IA","Latitude":"41.31330","Longitude":"-95.39060","Snowdepth":"1.000","Units":"in","Rept_Date":"2020-03-15 12"},"coordinates":[434,1754]},{"type":"Point","properties":{"Station_ID":"NY-OD-2","Station_Nam":"POINT ROCK 0.6 SE, NY","Latitude":"43.37335","Longitude":"-75.53840","Snowdepth":"1.000","Units":"in","Rept_Date":"2020-03-15 13"},"coordinates":[5093,3385]},{"type":"Point","properties":{"Station_ID":"NWCO1","Station_Nam":"NEW CARLISLE","Latitude":"39.93170","Longitude":"-84.03290","Snowdepth":"1.000","Units":"in","Rept_Date":"2020-03-15 12"},"coordinates":[3099,660]},{"type":"Point","properties":{"Station_ID":"NUMM5","Station_Nam":"NEW ULM 3SE","Latitude":"44.29450","Longitude":"-94.40840","Snowdepth":"1.000","Units":"in","Rept_Date":"2020-03-15 12"},"coordinates":[664,4114]},{"type":"Point","properties":{"Station_ID":"NRLI2","Station_Nam":"NORMAL","Latitude":"40.54920","Longitude":"-88.94970","Snowdepth":"1.000","Units":"in","Rept_Date":"2020-03-15 10"},"coordinates":[1945,1149]},{"type":"Point","properties":{"Station_ID":"NPNO1","Station_Nam":"NAPOLEON 1SW","Latitude":"41.38160","Longitude":"-84.15130","Snowdepth":"1.000","Units":"in","Rept_Date":"2020-03-15 11"},"coordinates":[3071,1808]},{"type":"Point","properties":{"Station_ID":"NH-MR-6","Station_Nam":"DANBURY 2.2 ESE, NH","Latitude":"43.52000","Longitude":"-71.81900","Snowdepth":"1.000","Units":"in","Rept_Date":"2020-03-15 13"},"coordinates":[5966,3501]},{"type":"Point","properties":{"Station_ID":"NE-LA-19","Station_Nam":"LINCOLN 6.8 SE, NE","Latitude":"40.74944","Longitude":"-96.59280","Snowdepth":"1.000","Units":"in","Rept_Date":"2020-03-15 13"},"coordinates":[152,1307]},{"type":"Point","properties":{"Station_ID":"NE-DD-3","Station_Nam":"FREMONT 0.6 S, NE","Latitude":"41.43141","Longitude":"-96.49210","Snowdepth":"1.000","Units":"in","Rept_Date":"2020-03-15 13"},"coordinates":[175,1847]},{"type":"Point","properties":{"Station_ID":"NCWI3","Station_Nam":"NEW CASTLE 3 SW","Latitude":"39.89420","Longitude":"-85.39530","Snowdepth":"1.000","Units":"in","Rept_Date":"2020-03-15 11"},"coordinates":[2780,630]},{"type":"Point","properties":{"Station_ID":"MZZI3","Station_Nam":"MARION 2N","Latitude":"40.58000","Longitude":"-85.65860","Snowdepth":"1.000","Units":"in","Rept_Date":"2020-03-15 11"},"coordinates":[2718,1173]},{"type":"Point","properties":{"Station_ID":"MQBI2","Station_Nam":"MACOMB","Latitude":"40.47860","Longitude":"-90.66980","Snowdepth":"1.000","Units":"in","Rept_Date":"2020-03-15 12"},"coordinates":[1542,1093]},{"type":"Point","properties":{"Station_ID":"MOSI2","Station_Nam":"MORRIS,IL","Latitude":"41.37390","Longitude":"-88.43360","Snowdepth":"1.000","Units":"in","Rept_Date":"2020-03-15 13"},"coordinates":[2066,1802]},{"type":"Point","properties":{"Station_ID":"MONW3","Station_Nam":"MONROE,WI","Latitude":"42.60000","Longitude":"-89.66670","Snowdepth":"1.000","Units":"in","Rept_Date":"2020-03-15 12"},"coordinates":[1777,2773]},{"type":"Point","properties":{"Station_ID":"MONS2","Station_Nam":"MONTROSE","Latitude":"43.70500","Longitude":"-97.18780","Snowdepth":"1.000","Units":"in","Rept_Date":"2020-03-15 13"},"coordinates":[12,3647]},{"type":"Point","properties":{"Station_ID":"MIAM5","Station_Nam":"MILAN 1NW","Latitude":"45.12190","Longitude":"-95.92690","Snowdepth":"1.000","Units":"in","Rept_Date":"2020-03-15 23"},"coordinates":[308,4769]},{"type":"Point","properties":{"Station_ID":"MI-EM-5","Station_Nam":"HARBOR SPRINGS 0.7 ENE, MI","Latitude":"45.43450","Longitude":"-84.97540","Snowdepth":"1.000","Units":"in","Rept_Date":"2020-03-15 12"},"coordinates":[2878,5017]},{"type":"Point","properties":{"Station_ID":"MEDN1","Station_Nam":"AGRONOMY LABRATORY","Latitude":"41.16670","Longitude":"-96.41670","Snowdepth":"1.000","Units":"in","Rept_Date":"2020-03-15 11"},"coordinates":[193,1638]},{"type":"Point","properties":{"Station_ID":"ME-CM-125","Station_Nam":"CUMBERLAND CENTER 4.4 NW, ME","Latitude":"43.84640","Longitude":"-70.31340","Snowdepth":"1.000","Units":"in","Rept_Date":"2020-03-15 12"},"coordinates":[6319,3759]},{"type":"Point","properties":{"Station_ID":"ME-AN-32","Station_Nam":"WINTHROP 9.4 W, ME","Latitude":"44.30476","Longitude":"-70.15835","Snowdepth":"1.000","Units":"in","Rept_Date":"2020-03-15 11"},"coordinates":[6356,4122]},{"type":"Point","properties":{"Station_ID":"MATI2","Station_Nam":"MANHATTAN","Latitude":"41.45840","Longitude":"-87.90980","Snowdepth":"1.000","Units":"in","Rept_Date":"2020-03-15 13"},"coordinates":[2189,1869]},{"type":"Point","properties":{"Station_ID":"LKZI2","Station_Nam":"LAKE ZURICH","Latitude":"42.19250","Longitude":"-88.06530","Snowdepth":"1.000","Units":"in","Rept_Date":"2020-03-15 12"},"coordinates":[2153,2450]},{"type":"Point","properties":{"Station_ID":"LBTI3","Station_Nam":"LIBERTY","Latitude":"39.63230","Longitude":"-84.93020","Snowdepth":"1.000","Units":"in","Rept_Date":"2020-03-15 11"},"coordinates":[2889,423]},{"type":"Point","properties":{"Station_ID":"LACM7","Station_Nam":"LANCASTER 2SE","Latitude":"40.50280","Longitude":"-92.50770","Snowdepth":"1.000","Units":"in","Rept_Date":"2020-03-15 13"},"coordinates":[1110,1112]},{"type":"Point","properties":{"Station_ID":"KRFD","Station_Nam":"GREATER ROCKFORD AIRPORT","Latitude":"42.20000","Longitude":"-89.10000","Snowdepth":"1.000","Units":"in","Rept_Date":"2020-03-15 12"},"coordinates":[1910,2456]},{"type":"Point","properties":{"Station_ID":"KFWA","Station_Nam":"FORT WAYNE INTERNATIONAL","Latitude":"41.00000","Longitude":"-85.20000","Snowdepth":"1.000","Units":"in","Rept_Date":"2020-03-15 12"},"coordinates":[2825,1506]},{"type":"Point","properties":{"Station_ID":"KEYW2","Station_Nam":"KEYSER 2 SSW COOP","Latitude":"39.42060","Longitude":"-79.00500","Snowdepth":"1.000","Units":"in","Rept_Date":"2020-03-15 11"},"coordinates":[4279,255]},{"type":"Point","properties":{"Station_ID":"IN-UN-3","Station_Nam":"LIBERTY 0.2 SW, IN","Latitude":"39.63222","Longitude":"-84.93036","Snowdepth":"1.000","Units":"in","Rept_Date":"2020-03-15 12"},"coordinates":[2889,423]},{"type":"Point","properties":{"Station_ID":"IN-TN-1","Station_Nam":"ATLANTA 4.4 W, IN","Latitude":"40.22340","Longitude":"-86.10910","Snowdepth":"1.000","Units":"in","Rept_Date":"2020-03-15 11"},"coordinates":[2612,891]},{"type":"Point","properties":{"Station_ID":"IN-LP-2","Station_Nam":"WANATAH 4.4 ESE, IN","Latitude":"41.40870","Longitude":"-86.80960","Snowdepth":"1.000","Units":"in","Rept_Date":"2020-03-15 14"},"coordinates":[2448,1829]},{"type":"Point","properties":{"Station_ID":"IN-KS-41","Station_Nam":"NORTH WEBSTER 2.3 N, IN","Latitude":"41.35866","Longitude":"-85.70060","Snowdepth":"1.000","Units":"in","Rept_Date":"2020-03-15 13"},"coordinates":[2708,1790]},{"type":"Point","properties":{"Station_ID":"IN-KS-32","Station_Nam":"LEESBURG 6.7 ESE, IN","Latitude":"41.31009","Longitude":"-85.72290","Snowdepth":"1.000","Units":"in","Rept_Date":"2020-03-15 12"},"coordinates":[2703,1751]},{"type":"Point","properties":{"Station_ID":"IN-KS-11","Station_Nam":"LEESBURG 0.1 WNW, IN","Latitude":"41.32988","Longitude":"-85.85070","Snowdepth":"1.000","Units":"in","Rept_Date":"2020-03-15 12"},"coordinates":[2673,1767]},{"type":"Point","properties":{"Station_ID":"IN-HY-7","Station_Nam":"NEW CASTLE 2.4 SW, IN","Latitude":"39.89440","Longitude":"-85.39510","Snowdepth":"1.000","Units":"in","Rept_Date":"2020-03-15 12"},"coordinates":[2780,630]},{"type":"Point","properties":{"Station_ID":"IN-HM-61","Station_Nam":"SHERIDAN 2.0 SW, IN","Latitude":"40.11146","Longitude":"-86.24160","Snowdepth":"1.000","Units":"in","Rept_Date":"2020-03-15 12"},"coordinates":[2581,802]},{"type":"Point","properties":{"Station_ID":"IN-CR-9","Station_Nam":"BURLINGTON 0.1 NNE, IN","Latitude":"40.48347","Longitude":"-86.39605","Snowdepth":"1.000","Units":"in","Rept_Date":"2020-03-15 12"},"coordinates":[2545,1097]},{"type":"Point","properties":{"Station_ID":"IL-WL-25","Station_Nam":"CRETE 2.6 E, IL","Latitude":"41.44681","Longitude":"-87.56570","Snowdepth":"1.000","Units":"in","Rept_Date":"2020-03-15 13"},"coordinates":[2270,1859]},{"type":"Point","properties":{"Station_ID":"IL-WL-149","Station_Nam":"BULT FIELD-MONEE 4.9 SE, IL","Latitude":"41.37740","Longitude":"-87.67975","Snowdepth":"1.000","Units":"in","Rept_Date":"2020-03-15 14"},"coordinates":[2243,1805]},{"type":"Point","properties":{"Station_ID":"IL-VR-4","Station_Nam":"HENNING 3.4 SSE, IL","Latitude":"40.26474","Longitude":"-87.66560","Snowdepth":"1.000","Units":"in","Rept_Date":"2020-03-15 13"},"coordinates":[2247,924]},{"type":"Point","properties":{"Station_ID":"IL-SP-7","Station_Nam":"DAVIS 0.5 N, IL","Latitude":"42.42919","Longitude":"-89.41730","Snowdepth":"1.000","Units":"in","Rept_Date":"2020-03-15 13"},"coordinates":[1836,2637]},{"type":"Point","properties":{"Station_ID":"IL-MCL-46","Station_Nam":"NORMAL 1.1 SSE, IL","Latitude":"40.50413","Longitude":"-88.98844","Snowdepth":"1.000","Units":"in","Rept_Date":"2020-03-15 13"},"coordinates":[1936,1113]},{"type":"Point","properties":{"Station_ID":"IL-MCD-7","Station_Nam":"COLCHESTER 3.5 NE, IL","Latitude":"40.46236","Longitude":"-90.74520","Snowdepth":"1.000","Units":"in","Rept_Date":"2020-03-15 13"},"coordinates":[1524,1080]},{"type":"Point","properties":{"Station_ID":"IL-LS-34","Station_Nam":"LA SALLE 0.1 W, IL","Latitude":"41.34015","Longitude":"-89.09590","Snowdepth":"1.000","Units":"in","Rept_Date":"2020-03-15 13"},"coordinates":[1911,1775]},{"type":"Point","properties":{"Station_ID":"IL-GY-16","Station_Nam":"MORRIS 6.4 ESE, IL","Latitude":"41.33153","Longitude":"-88.31410","Snowdepth":"1.000","Units":"in","Rept_Date":"2020-03-15 13"},"coordinates":[2095,1768]},{"type":"Point","properties":{"Station_ID":"IL-GY-1","Station_Nam":"CARBON HILL 3.1 N, IL","Latitude":"41.34139","Longitude":"-88.29810","Snowdepth":"1.000","Units":"in","Rept_Date":"2020-03-15 13"},"coordinates":[2098,1776]},