{"type":"Topology","objects":{"snowdepth_geo":{"type":"GeometryCollection","name":"snowdepth","crs":{"type":"name","properties":{"name":"urn:ogc:def:crs:OGC:1.3:CRS84"}},"geometries":[{"type":"Point","properties":{"Station_ID":"PRKM4","Station_Nam":"MUNISING EAST","Latitude":"46.42580","Longitude":"-86.62000","Snowdepth":"76.500","Units":"in","Rept_Date":"2020-12-30 06"},"coordinates":[3346,6712]},{"type":"Point","properties":{"Station_ID":"CAN-ON-245","Station_Nam":"PHELPSTON 3.1 ESE, CAN","Latitude":"44.50564","Longitude":"-79.81035","Snowdepth":"25.000","Units":"in","Rept_Date":"2020-12-29 12"},"coordinates":[5492,5521]},{"type":"Point","properties":{"Station_ID":"TRIQ6","Station_Nam":"TRIO LAKE","Latitude":"49.22880","Longitude":"-87.22920","Snowdepth":"23.540","Units":"in","Rept_Date":"2020-12-30 06"},"coordinates":[3154,8450]},{"type":"Point","properties":{"Station_ID":"AUDQ6","Station_Nam":"AUDEN","Latitude":"48.52600","Longitude":"-82.57570","Snowdepth":"22.440","Units":"in","Rept_Date":"2020-12-30 06"},"coordinates":[4620,8014]},{"type":"Point","properties":{"Station_ID":"PTLQ6","Station_Nam":"PORTAGE LAKE","Latitude":"49.06950","Longitude":"-86.65940","Snowdepth":"22.400","Units":"in","Rept_Date":"2020-12-30 06"},"coordinates":[3334,8351]},{"type":"Point","properties":{"Station_ID":"QCO","Station_Nam":"QCO","Latitude":"51.45280","Longitude":"-72.20110","Snowdepth":"22.087","Units":"in","Rept_Date":"2020-12-29 12"},"coordinates":[7890,9829]},{"type":"Point","properties":{"Station_ID":"QLB","Station_Nam":"QLB","Latitude":"50.72360","Longitude":"-75.10000","Snowdepth":"21.890","Units":"in","Rept_Date":"2020-12-29 12"},"coordinates":[6976,9377]},{"type":"Point","properties":{"Station_ID":"QGO","Station_Nam":"QGO","Latitude":"48.85500","Longitude":"-74.20640","Snowdepth":"20.354","Units":"in","Rept_Date":"2020-12-29 12"},"coordinates":[7258,8218]},{"type":"Point","properties":{"Station_ID":"DVLQ6","Station_Nam":"DEVIOUS LAKE","Latitude":"49.19890","Longitude":"-87.76440","Snowdepth":"19.800","Units":"in","Rept_Date":"2020-12-30 06"},"coordinates":[2985,8431]},{"type":"Point","properties":{"Station_ID":"QTM","Station_Nam":"QTM","Latitude":"51.05780","Longitude":"-72.57190","Snowdepth":"19.724","Units":"in","Rept_Date":"2020-12-29 12"},"coordinates":[7773,9584]},{"type":"Point","properties":{"Station_ID":"QCU","Station_Nam":"QCU","Latitude":"47.82750","Longitude":"-76.59830","Snowdepth":"19.449","Units":"in","Rept_Date":"2020-12-29 12"},"coordinates":[6504,7581]},{"type":"Point","properties":{"Station_ID":"QOU","Station_Nam":"QOU","Latitude":"50.79250","Longitude":"-69.67470","Snowdepth":"16.614","Units":"in","Rept_Date":"2020-12-29 12"},"coordinates":[8686,9420]},{"type":"Point","properties":{"Station_ID":"SNOW2","Station_Nam":"SNOWSHOE","Latitude":"38.39900","Longitude":"-79.99490","Snowdepth":"16.000","Units":"in","Rept_Date":"2020-12-29 11"},"coordinates":[5434,1734]},{"type":"Point","properties":{"Station_ID":"PDLM4","Station_Nam":"PAINESDALE","Latitude":"47.04160","Longitude":"-88.67170","Snowdepth":"16.000","Units":"in","Rept_Date":"2020-12-29 13"},"coordinates":[2700,7093]},{"type":"Point","properties":{"Station_ID":"HERM4","Station_Nam":"HERMAN,MI","Latitude":"46.65000","Longitude":"-88.33330","Snowdepth":"16.000","Units":"in","Rept_Date":"2020-12-29 13"},"coordinates":[2806,6851]},{"type":"Point","properties":{"Station_ID":"CAN-ON-452","Station_Nam":"CHATSWORTH 1.8 ENE - GSCA, CAN","Latitude":"44.46118","Longitude":"-80.87506","Snowdepth":"15.700","Units":"in","Rept_Date":"2020-12-29 13"},"coordinates":[5156,5493]},{"type":"Point","properties":{"Station_ID":"PRDM4","Station_Nam":"PARADISE","Latitude":"46.60380","Longitude":"-85.03960","Snowdepth":"15.000","Units":"in","Rept_Date":"2020-12-29 12"},"coordinates":[3844,6822]},{"type":"Point","properties":{"Station_ID":"IWOM4","Station_Nam":"IRONWOOD#2","Latitude":"46.46520","Longitude":"-90.13820","Snowdepth":"15.000","Units":"in","Rept_Date":"2020-12-29 13"},"coordinates":[2237,6736]},{"type":"Point","properties":{"Station_ID":"HURW3","Station_Nam":"HURLEY","Latitude":"46.46250","Longitude":"-90.19550","Snowdepth":"15.000","Units":"in","Rept_Date":"2020-12-29 14"},"coordinates":[2219,6734]},{"type":"Point","properties":{"Station_ID":"ACVN6","Station_Nam":"ALCOVE DAM","Latitude":"42.46970","Longitude":"-73.92670","Snowdepth":"15.000","Units":"in","Rept_Date":"2020-12-29 13"},"coordinates":[7346,4258]},{"type":"Point","properties":{"Station_ID":"QMD","Station_Nam":"QMD","Latitude":"49.29060","Longitude":"-75.84500","Snowdepth":"14.606","Units":"in","Rept_Date":"2020-12-29 12"},"coordinates":[6741,8488]},{"type":"Point","properties":{"Station_ID":"QLI","Station_Nam":"QLI","Latitude":"50.27080","Longitude":"-73.92280","Snowdepth":"14.094","Units":"in","Rept_Date":"2020-12-29 12"},"coordinates":[7347,9096]},{"type":"Point","properties":{"Station_ID":"SWTW3","Station_Nam":"SUPERIOR WWTP","Latitude":"46.72700","Longitude":"-92.07200","Snowdepth":"14.000","Units":"in","Rept_Date":"2020-12-30 06"},"coordinates":[1628,6898]},{"type":"Point","properties":{"Station_ID":"MI-KW-2","Station_Nam":"DELAWARE 5.2 SW, MI","Latitude":"47.36928","Longitude":"-88.17919","Snowdepth":"14.000","Units":"in","Rept_Date":"2020-12-29 09"},"coordinates":[2855,7297]},{"type":"Point","properties":{"Station_ID":"CAN-ON-5","Station_Nam":"OWEN SOUND 1.5 NW - GSCA, CAN","Latitude":"44.57837","Longitude":"-80.95461","Snowdepth":"14.000","Units":"in","Rept_Date":"2020-12-29 13"},"coordinates":[5131,5566]},{"type":"Point","properties":{"Station_ID":"OGIQ6","Station_Nam":"OGOKI CAMP","Latitude":"50.76680","Longitude":"-87.85820","Snowdepth":"13.780","Units":"in","Rept_Date":"2020-12-30 06"},"coordinates":[2956,9404]},{"type":"Point","properties":{"Station_ID":"QFT","Station_Nam":"QFT","Latitude":"50.83280","Longitude":"-74.40390","Snowdepth":"13.228","Units":"in","Rept_Date":"2020-12-29 12"},"coordinates":[7195,9445]},{"type":"Point","properties":{"Station_ID":"GNLM4","Station_Nam":"GREENLAND 6N","Latitude":"46.87360","Longitude":"-89.10060","Snowdepth":"13.000","Units":"in","Rept_Date":"2020-12-29 13"},"coordinates":[2564,6989]},{"type":"Point","properties":{"Station_ID":"CLQM5","Station_Nam":"CLOQUET","Latitude":"46.70470","Longitude":"-92.52530","Snowdepth":"13.000","Units":"in","Rept_Date":"2020-12-29 14"},"coordinates":[1485,6885]},{"type":"Point","properties":{"Station_ID":"CAN-ON-741","Station_Nam":"KIMBERLEY 2.7 WSW, CAN","Latitude":"44.37820","Longitude":"-80.56956","Snowdepth":"13.000","Units":"in","Rept_Date":"2020-12-29 13"},"coordinates":[5253,5442]},{"type":"Point","properties":{"Station_ID":"MI-BG-3","Station_Nam":"THREE LAKES, MI","Latitude":"46.55730","Longitude":"-88.20770","Snowdepth":"12.500","Units":"in","Rept_Date":"2020-12-29 13"},"coordinates":[2846,6793]},{"type":"Point","properties":{"Station_ID":"CAN-ON-451","Station_Nam":"OWEN SOUND 1.2 N - GSCA, CAN","Latitude":"44.58092","Longitude":"-80.93025","Snowdepth":"12.500","Units":"in","Rept_Date":"2020-12-29 13"},"coordinates":[5139,5568]},{"type":"Point","properties":{"Station_ID":"KABQ6","Station_Nam":"CAB LAKE","Latitude":"49.59950","Longitude":"-89.17990","Snowdepth":"12.090","Units":"in","Rept_Date":"2020-12-30 06"},"coordinates":[2539,8680]},{"type":"Point","properties":{"Station_ID":"WLFM5","Station_Nam":"WOLF RIDGE ENVIRON LEARNING CENTER","Latitude":"47.38240","Longitude":"-91.19730","Snowdepth":"12.000","Units":"in","Rept_Date":"2020-12-29 13"},"coordinates":[1904,7305]},{"type":"Point","properties":{"Station_ID":"QNCM4","Station_Nam":"QUINCY HILL","Latitude":"47.13640","Longitude":"-88.57950","Snowdepth":"12.000","Units":"in","Rept_Date":"2020-12-29 12"},"coordinates":[2729,7152]},{"type":"Point","properties":{"Station_ID":"NY-JF-30","Station_Nam":"WEST CARTHAGE 0.3 ENE, NY","Latitude":"43.97493","Longitude":"-75.61640","Snowdepth":"12.000","Units":"in","Rept_Date":"2020-12-29 12"},"coordinates":[6813,5192]},{"type":"Point","properties":{"Station_ID":"CAN-ON-118","Station_Nam":"DURHAM 1.4 S, CAN","Latitude":"44.16525","Longitude":"-80.82064","Snowdepth":"12.000","Units":"in","Rept_Date":"2020-12-29 12"},"coordinates":[5173,5310]},{"type":"Point","properties":{"Station_ID":"BBEM4","Station_Nam":"BIG BAY 9SW","Latitude":"46.74620","Longitude":"-87.88160","Snowdepth":"12.000","Units":"in","Rept_Date":"2020-12-29 13"},"coordinates":[2948,6910]},{"type":"Point","properties":{"Station_ID":"42.1284_079.8945","Station_Nam":"NORTHEAST 6SW (CLE0249)","Latitude":"42.12840","Longitude":"-79.89450","Snowdepth":"12.000","Units":"in","Rept_Date":"2020-12-29 11"},"coordinates":[5465,4047]},{"type":"Point","properties":{"Station_ID":"SOCQ6","Station_Nam":"SOCKET LAKE","Latitude":"50.77870","Longitude":"-91.79300","Snowdepth":"11.890","Units":"in","Rept_Date":"2020-12-30 06"},"coordinates":[1716,9411]},{"type":"Point","properties":{"Station_ID":"CAN-ON-804","Station_Nam":"KEMBLE 1.6 S - GSCA, CAN","Latitude":"44.71013","Longitude":"-80.92735","Snowdepth":"11.800","Units":"in","Rept_Date":"2020-12-29 13"},"coordinates":[5140,5648]},{"type":"Point","properties":{"Station_ID":"MLZ","Station_Nam":"MLZ","Latitude":"50.66170","Longitude":"-68.82360","Snowdepth":"11.142","Units":"in","Rept_Date":"2020-12-29 12"},"coordinates":[8954,9338]},{"type":"Point","properties":{"Station_ID":"RDFN6","Station_Nam":"REDFIELD 8N","Latitude":"43.64130","Longitude":"-75.88400","Snowdepth":"11.000","Units":"in","Rept_Date":"2020-12-29 12"},"coordinates":[6729,4985]},{"type":"Point","properties":{"Station_ID":"MN-SL-15","Station_Nam":"CHISHOLM 0.4 WSW, MN","Latitude":"47.48557","Longitude":"-92.88690","Snowdepth":"11.000","Units":"in","Rept_Date":"2020-12-29 13"},"coordinates":[1371,7369]},{"type":"Point","properties":{"Station_ID":"MMNV1","Station_Nam":"MT. MANSFIELD","Latitude":"44.52480","Longitude":"-72.81540","Snowdepth":"11.000","Units":"in","Rept_Date":"2020-12-29 21"},"coordinates":[7696,5533]},{"type":"Point","properties":{"Station_ID":"KABM5","Station_Nam":"KABETOGAMA LAKE VISITOR CTR","Latitude":"48.40880","Longitude":"-93.04840","Snowdepth":"11.000","Units":"in","Rept_Date":"2020-12-29 13"},"coordinates":[1320,7941]},{"type":"Point","properties":{"Station_ID":"BENN6","Station_Nam":"BENNETTS BRIDGE","Latitude":"43.53180","Longitude":"-75.95260","Snowdepth":"11.000","Units":"in","Rept_Date":"2020-12-29 12"},"coordinates":[6707,4917]},{"type":"Point","properties":{"Station_ID":"SVBQ6","Station_Nam":"SAVANT BASE","Latitude":"50.28730","Longitude":"-90.65670","Snowdepth":"10.590","Units":"in","Rept_Date":"2020-12-30 06"},"coordinates":[2074,9106]},{"type":"Point","properties":{"Station_ID":"WPEN6","Station_Nam":"SOUTH OTSELIC 2NNW SNOW","Latitude":"42.66670","Longitude":"-75.80000","Snowdepth":"10.000","Units":"in","Rept_Date":"2020-12-29 13"},"coordinates":[6756,4380]},{"type":"Point","properties":{"Station_ID":"MPXM5","Station_Nam":"CHANHASSEN WSFO","Latitude":"44.84960","Longitude":"-93.56440","Snowdepth":"10.000","Units":"in","Rept_Date":"2020-12-30 06"},"coordinates":[1158,5734]},{"type":"Point","properties":{"Station_ID":"MNSM4","Station_Nam":"MUNISING","Latitude":"46.41210","Longitude":"-86.66250","Snowdepth":"10.000","Units":"in","Rept_Date":"2020-12-29 11"},"coordinates":[3333,6703]},{"type":"Point","properties":{"Station_ID":"MN-CK-6","Station_Nam":"GRAND MARAIS 4.4 W, MN","Latitude":"47.74865","Longitude":"-90.43760","Snowdepth":"10.000","Units":"in","Rept_Date":"2020-12-29 13"},"coordinates":[2143,7532]},{"type":"Point","properties":{"Station_ID":"KDSM","Station_Nam":"DES MOINES INTERNATIONAL","Latitude":"41.53333","Longitude":"-93.66666","Snowdepth":"10.000","Units":"in","Rept_Date":"2020-12-30 06"},"coordinates":[1126,3678]},{"type":"Point","properties":{"Station_ID":"DSXI4","Station_Nam":"DES MOINES SNOW","Latitude":"41.54130","Longitude":"-93.65570","Snowdepth":"10.000","Units":"in","Rept_Date":"2020-12-30 06"},"coordinates":[1129,3683]},{"type":"Point","properties":{"Station_ID":"DSM","Station_Nam":"DES MOINES INTERNATIONAL","Latitude":"41.53340","Longitude":"-93.66300","Snowdepth":"10.000","Units":"in","Rept_Date":"2020-12-30 00"},"coordinates":[1127,3678]},{"type":"Point","properties":{"Station_ID":"BNDM5","Station_Nam":"ELY 25E","Latitude":"47.97190","Longitude":"-91.44860","Snowdepth":"10.000","Units":"in","Rept_Date":"2020-12-29 13"},"coordinates":[1824,7670]},{"type":"Point","properties":{"Station_ID":"BABM5","Station_Nam":"BABBITT","Latitude":"47.71210","Longitude":"-91.95330","Snowdepth":"10.000","Units":"in","Rept_Date":"2020-12-29 13"},"coordinates":[1665,7509]},{"type":"Point","properties":{"Station_ID":"42.2002_079.8021","Station_Nam":"2 ESE North East  Trained Spotter (CLE0183)","Latitude":"42.20018","Longitude":"-79.80210","Snowdepth":"10.000","Units":"in","Rept_Date":"2020-12-29 13"},"coordinates":[5494,4091]},{"type":"Point","properties":{"Station_ID":"41.4900_082.0874","Station_Nam":"1 E Sheffield Lake  CoCoRaHS (OH-LR-3)","Latitude":"41.49000","Longitude":"-82.08740","Snowdepth":"10.000","Units":"in","Rept_Date":"2020-12-29 14"},"coordinates":[4774,3651]},{"type":"Point","properties":{"Station_ID":"HPN04_MADIS","Station_Nam":"HANOVER","Latitude":"45.16770","Longitude":"-93.63430","Snowdepth":"9.800","Units":"in","Rept_Date":"2020-12-30 06"},"coordinates":[1136,5931]},{"type":"Point","properties":{"Station_ID":"QCX","Station_Nam":"QCX","Latitude":"51.32830","Longitude":"-70.08060","Snowdepth":"9.724","Units":"in","Rept_Date":"2020-12-29 12"},"coordinates":[8558,9752]},{"type":"Point","properties":{"Station_ID":"NY-ER-166","Station_Nam":"BOSTON 2.5 NE, NY","Latitude":"42.65480","Longitude":"-78.70300","Snowdepth":"9.500","Units":"in","Rept_Date":"2020-12-29 12"},"coordinates":[5841,4373]},{"type":"Point","properties":{"Station_ID":"MI-HG-20","Station_Nam":"CALUMET 1.1 SSW, MI","Latitude":"47.23165","Longitude":"-88.45823","Snowdepth":"9.500","Units":"in","Rept_Date":"2020-12-29 11"},"coordinates":[2767,7211]},{"type":"Point","properties":{"Station_ID":"CATQ6","Station_Nam":"CAT LAKE","Latitude":"51.72690","Longitude":"-91.82210","Snowdepth":"9.490","Units":"in","Rept_Date":"2020-12-30 06"},"coordinates":[1707,9999]},{"type":"Point","properties":{"Station_ID":"QWE","Station_Nam":"QWE","Latitude":"47.84610","Longitude":"-73.80670","Snowdepth":"9.016","Units":"in","Rept_Date":"2020-12-29 12"},"coordinates":[7384,7592]},{"type":"Point","properties":{"Station_ID":"STOI2","Station_Nam":"STOCKTON 3 NNE","Latitude":"42.40050","Longitude":"-89.99580","Snowdepth":"9.000","Units":"in","Rept_Date":"2020-12-30 03"},"coordinates":[2282,4215]},{"type":"Point","properties":{"Station_ID":"NY-ER-56","Station_Nam":"COLDEN 1.4 NNW, NY","Latitude":"42.64740","Longitude":"-78.71120","Snowdepth":"9.000","Units":"in","Rept_Date":"2020-12-29 12"},"coordinates":[5838,4368]},{"type":"Point","properties":{"Station_ID":"MN-CV-22","Station_Nam":"VICTORIA 1.6 WSW, MN","Latitude":"44.85670","Longitude":"-93.68640","Snowdepth":"9.000","Units":"in","Rept_Date":"2020-12-29 13"},"coordinates":[1119,5739]},{"type":"Point","properties":{"Station_ID":"MIEM4","Station_Nam":"MICHIGAMME 3WNW","Latitude":"46.54530","Longitude":"-88.18000","Snowdepth":"9.000","Units":"in","Rept_Date":"2020-12-29 13"},"coordinates":[2854,6786]},{"type":"Point","properties":{"Station_ID":"LUCW3","Station_Nam":"LUCK","Latitude":"45.57330","Longitude":"-92.48520","Snowdepth":"9.000","Units":"in","Rept_Date":"2020-12-29 21"},"coordinates":[1498,6183]},{"type":"Point","properties":{"Station_ID":"KMSP","Station_Nam":"MINNEAPOLIS-ST PAUL INTERNATIONAL","Latitude":"44.86666","Longitude":"-93.21666","Snowdepth":"9.000","Units":"in","Rept_Date":"2020-12-30 06"},"coordinates":[1267,5745]},{"type":"Point","properties":{"Station_ID":"IRMM4","Station_Nam":"WWTP","Latitude":"46.46670","Longitude":"-90.18330","Snowdepth":"9.000","Units":"in","Rept_Date":"2020-12-29 13"},"coordinates":[2223,6737]},{"type":"Point","properties":{"Station_ID":"IL-MD-28","Station_Nam":"STAUNTON 4.3 SSW, IL","Latitude":"38.95402","Longitude":"-89.81660","Snowdepth":"9.000","Units":"in","Rept_Date":"2020-12-29 12"},"coordinates":[2339,2078]},{"type":"Point","properties":{"Station_ID":"IFSM5","Station_Nam":"INTERNATIONAL FALLS SNOW","Latitude":"48.57780","Longitude":"-93.39640","Snowdepth":"9.000","Units":"in","Rept_Date":"2020-12-30 06"},"coordinates":[1211,8046]},{"type":"Point","properties":{"Station_ID":"HPN11_MADIS","Station_Nam":"SAINT BONIFACIUS","Latitude":"44.89792","Longitude":"-93.73460","Snowdepth":"9.000","Units":"in","Rept_Date":"2020-12-30 06"},"coordinates":[1104,5764]},{"type":"Point","properties":{"Station_ID":"HPN02_MADIS","Station_Nam":"MAPLE GROVE","Latitude":"45.11820","Longitude":"-93.42830","Snowdepth":"9.000","Units":"in","Rept_Date":"2020-12-30 06"},"coordinates":[1201,5901]},{"type":"Point","properties":{"Station_ID":"HGHN6","Station_Nam":"HIGHMARKET","Latitude":"43.60510","Longitude":"-75.55430","Snowdepth":"9.000","Units":"in","Rept_Date":"2020-12-29 11"},"coordinates":[6833,4962]},{"type":"Point","properties":{"Station_ID":"FUTN6","Station_Nam":"FULTON","Latitude":"43.30500","Longitude":"-76.39380","Snowdepth":"9.000","Units":"in","Rept_Date":"2020-12-29 12"},"coordinates":[6568,4776]},{"type":"Point","properties":{"Station_ID":"FLDM5","Station_Nam":"FLOODWOOD,MN","Latitude":"47.00000","Longitude":"-92.91670","Snowdepth":"9.000","Units":"in","Rept_Date":"2020-12-29 14"},"coordinates":[1362,7068]},{"type":"Point","properties":{"Station_ID":"ELYM5","Station_Nam":"ELY","Latitude":"47.90560","Longitude":"-91.82830","Snowdepth":"9.000","Units":"in","Rept_Date":"2020-12-29 14"},"coordinates":[1705,7629]},{"type":"Point","properties":{"Station_ID":"COKM5","Station_Nam":"COOK","Latitude":"47.85060","Longitude":"-92.69250","Snowdepth":"9.000","Units":"in","Rept_Date":"2020-12-29 12"},"coordinates":[1433,7595]},{"type":"Point","properties":{"Station_ID":"CODN6","Station_Nam":"COLDEN","Latitude":"42.64720","Longitude":"-78.71110","Snowdepth":"9.000","Units":"in","Rept_Date":"2020-12-29 12"},"coordinates":[5838,4368]},{"type":"Point","properties":{"Station_ID":"BGBM4","Station_Nam":"BIG BAY 1NW","Latitude":"46.83250","Longitude":"-87.75040","Snowdepth":"9.000","Units":"in","Rept_Date":"2020-12-29 13"},"coordinates":[2990,6964]},{"type":"Point","properties":{"Station_ID":"42.1173_079.8962","Station_Nam":"4 W Colt Station  Trained Spotter (CLE0298)","Latitude":"42.11734","Longitude":"-79.89615","Snowdepth":"9.000","Units":"in","Rept_Date":"2020-12-29 13"},"coordinates":[5465,4040]},{"type":"Point","properties":{"Station_ID":"NY-OS-21","Station_Nam":"PULASKI 0.5 NE, NY","Latitude":"43.56997","Longitude":"-76.11950","Snowdepth":"8.500","Units":"in","Rept_Date":"2020-12-29 12"},"coordinates":[6655,4941]},{"type":"Point","properties":{"Station_ID":"MN-SL-108","Station_Nam":"IRON JUNCTION 3.4 NNW, MN","Latitude":"47.46150","Longitude":"-92.63130","Snowdepth":"8.500","Units":"in","Rept_Date":"2020-12-29 14"},"coordinates":[1452,7354]},{"type":"Point","properties":{"Station_ID":"WRSM5","Station_Nam":"WRENSHALL","Latitude":"46.61550","Longitude":"-92.38380","Snowdepth":"8.000","Units":"in","Rept_Date":"2020-12-29 14"},"coordinates":[1530,6829]},{"type":"Point","properties":{"Station_ID":"WNDP1","Station_Nam":"WINDBER COUNTY CLUB","Latitude":"40.28780","Longitude":"-78.77530","Snowdepth":"8.000","Units":"in","Rept_Date":"2020-12-29 12"},"coordinates":[5818,2905]},{"type":"Point","properties":{"Station_ID":"TOGM5","Station_Nam":"CELINA 2E","Latitude":"47.86630","Longitude":"-93.02660","Snowdepth":"8.000","Units":"in","Rept_Date":"2020-12-29 15"},"coordinates":[1327,7605]},{"type":"Point","properties":{"Station_ID":"THEP1","Station_Nam":"MORRIS RUN SNOW","Latitude":"41.68330","Longitude":"-76.93330","Snowdepth":"8.000","Units":"in","Rept_Date":"2020-12-29 15"},"coordinates":[6398,3771]},{"type":"Point","properties":{"Station_ID":"SRAW3","Station_Nam":"SARONA","Latitude":"45.80250","Longitude":"-91.86700","Snowdepth":"8.000","Units":"in","Rept_Date":"2020-12-29 14"},"coordinates":[1693,6325]},{"type":"Point","properties":{"Station_ID":"PRGN6","Station_Nam":"PERRYSBURG","Latitude":"42.46470","Longitude":"-79.00310","Snowdepth":"8.000","Units":"in","Rept_Date":"2020-12-29 12"},"coordinates":[5746,4255]},{"type":"Point","properties":{"Station_ID":"NYMM5","Station_Nam":"NEW YORK MILLS","Latitude":"46.50920","Longitude":"-95.37990","Snowdepth":"8.000","Units":"in","Rept_Date":"2020-12-29 13"},"coordinates":[586,6763]},{"type":"Point","properties":{"Station_ID":"NY-ER-65","Station_Nam":"BOSTON 1.5 NE, NY","Latitude":"42.65470","Longitude":"-78.72010","Snowdepth":"8.000","Units":"in","Rept_Date":"2020-12-29 12"},"coordinates":[5835,4373]},{"type":"Point","properties":{"Station_ID":"MSP","Station_Nam":"MINNEAPOLIS-ST PAUL INTL AP","Latitude":"44.88310","Longitude":"-93.22890","Snowdepth":"8.000","Units":"in","Rept_Date":"2020-12-30 00"},"coordinates":[1264,5755]},{"type":"Point","properties":{"Station_ID":"MQT","Station_Nam":"MARQUETTE, MI","Latitude":"46.53140","Longitude":"-87.54920","Snowdepth":"8.000","Units":"in","Rept_Date":"2020-12-30 06"},"coordinates":[3053,6777]},{"type":"Point","properties":{"Station_ID":"MN-IS-18","Station_Nam":"BRAHAM 0.7 SW, MN","Latitude":"45.71379","Longitude":"-93.18095","Snowdepth":"8.000","Units":"in","Rept_Date":"2020-12-29 14"},"coordinates":[1279,6270]},{"type":"Point","properties":{"Station_ID":"MN-CG-16","Station_Nam":"NORTH BRANCH 1.3 NNW, MN","Latitude":"45.53121","Longitude":"-92.97110","Snowdepth":"8.000","Units":"in","Rept_Date":"2020-12-29 12"},"coordinates":[1345,6157]},{"type":"Point","properties":{"Station_ID":"MI-OT-17","Station_Nam":"GAYLORD 4.1 S, MI","Latitude":"44.96388","Longitude":"-84.68467","Snowdepth":"8.000","Units":"in","Rept_Date":"2020-12-29 13"},"coordinates":[3956,5805]},{"type":"Point","properties":{"Station_ID":"MI-EM-8","Station_Nam":"PETOSKEY 1.7 SSW, MI","Latitude":"45.34209","Longitude":"-84.96530","Snowdepth":"8.000","Units":"in","Rept_Date":"2020-12-29 11"},"coordinates":[3867,6040]},{"type":"Point","properties":{"Station_ID":"LEIM5","Station_Nam":"ORR 3E","Latitude":"48.05810","Longitude":"-92.75220","Snowdepth":"8.000","Units":"in","Rept_Date":"2020-12-29 12"},"coordinates":[1414,7724]},{"type":"Point","properties":{"Station_ID":"HTLN3","Station_Nam":"HERMIT LAKE SNOWPLOT","Latitude":"44.26130","Longitude":"-71.28330","Snowdepth":"8.000","Units":"in","Rept_Date":"2020-12-29 10"},"coordinates":[8179,5369]},{"type":"Point","properties":{"Station_ID":"HPN08_MADIS","Station_Nam":"ORONO","Latitude":"44.93630","Longitude":"-93.62000","Snowdepth":"8.000","Units":"in","Rept_Date":"2020-12-30 06"},"coordinates":[1140,5788]},{"type":"Point","properties":{"Station_ID":"GSFP1","Station_Nam":"INEZ NORTH SLOPE SNOW","Latitude":"41.70000","Longitude":"-78.06670","Snowdepth":"8.000","Units":"in","Rept_Date":"2020-12-29 16"},"coordinates":[6041,3781]},{"type":"Point","properties":{"Station_ID":"FORM5","Station_Nam":"FOREST LAKE 5NE","Latitude":"45.33170","Longitude":"-92.89820","Snowdepth":"8.000","Units":"in","Rept_Date":"2020-12-29 13"},"coordinates":[1368,6033]},{"type":"Point","properties":{"Station_ID":"ELKM5","Station_Nam":"ELK RIVER","Latitude":"45.30470","Longitude":"-93.58420","Snowdepth":"8.000","Units":"in","Rept_Date":"2020-12-29 13"},"coordinates":[1152,6016]},{"type":"Point","properties":{"Station_ID":"DVNI4","Station_Nam":"DAVENPORT WFO","Latitude":"41.61170","Longitude":"-90.58160","Snowdepth":"8.000","Units":"in","Rept_Date":"2020-12-30 06"},"coordinates":[2098,3726]},{"type":"Point","properties":{"Station_ID":"DUBI4","Station_Nam":"DUBUQUE #3","Latitude":"42.40870","Longitude":"-90.73250","Snowdepth":"8.000","Units":"in","Rept_Date":"2020-12-30 06"},"coordinates":[2050,4220]},{"type":"Point","properties":{"Station_ID":"COTM5","Station_Nam":"COTTON","Latitude":"47.16870","Longitude":"-92.46290","Snowdepth":"8.000","Units":"in","Rept_Date":"2020-12-29 13"},"coordinates":[1505,7172]},{"type":"Point","properties":{"Station_ID":"BRMM5","Station_Nam":"BRIMSON 2S","Latitude":"47.24720","Longitude":"-91.86240","Snowdepth":"8.000","Units":"in","Rept_Date":"2020-12-30 01"},"coordinates":[1694,7221]},{"type":"Point","properties":{"Station_ID":"BFHW3","Station_Nam":"BAYFIELD FISH HATCHERY","Latitude":"46.78670","Longitude":"-90.86420","Snowdepth":"8.000","Units":"in","Rept_Date":"2020-12-29 14"},"coordinates":[2009,6935]},{"type":"Point","properties":{"Station_ID":"BDJP1","Station_Nam":"GERMANIA 2 SNOW","Latitude":"41.65000","Longitude":"-77.66940","Snowdepth":"8.000","Units":"in","Rept_Date":"2020-12-29 18"},"coordinates":[6166,3750]},{"type":"Point","properties":{"Station_ID":"BDIP1","Station_Nam":"GERMANIA 1 SNOW","Latitude":"41.65000","Longitude":"-77.66670","Snowdepth":"8.000","Units":"in","Rept_Date":"2020-12-29 18"},"coordinates":[6167,3750]},{"type":"Point","properties":{"Station_ID":"CAN-MB-368","Station_Nam":"WHITESHELL 1.3 NE, CAN","Latitude":"49.74405","Longitude":"-95.19123","Snowdepth":"7.900","Units":"in","Rept_Date":"2020-12-29 14"},"coordinates":[645,8769]},{"type":"Point","properties":{"Station_ID":"WI-SR-1","Station_Nam":"HAYWARD 9.2 NNE, WI","Latitude":"46.13255","Longitude":"-91.40500","Snowdepth":"7.800","Units":"in","Rept_Date":"2020-12-29 12"},"coordinates":[1838,6530]},{"type":"Point","properties":{"Station_ID":"FTHQ6","Station_Nam":"FORT HOPE","Latitude":"51.55820","Longitude":"-87.90510","Snowdepth":"7.680","Units":"in","Rept_Date":"2020-12-30 06"},"coordinates":[2941,9894]},{"type":"Point","properties":{"Station_ID":"WI-WB-2","Station_Nam":"STONE LAKE 2.0 NW, WI","Latitude":"45.85960","Longitude":"-91.57710","Snowdepth":"7.500","Units":"in","Rept_Date":"2020-12-29 13"},"coordinates":[1784,6360]},{"type":"Point","properties":{"Station_ID":"WI-BY-22","Station_Nam":"MASON 11.5 WNW, WI","Latitude":"46.50198","Longitude":"-91.28339","Snowdepth":"7.500","Units":"in","Rept_Date":"2020-12-29 14"},"coordinates":[1877,6759]},{"type":"Point","properties":{"Station_ID":"OH-LK-11","Station_Nam":"MADISON 0.9 WSW, OH","Latitude":"41.76833","Longitude":"-81.06972","Snowdepth":"7.500","Units":"in","Rept_Date":"2020-12-29 12"},"coordinates":[5095,3823]},{"type":"Point","properties":{"Station_ID":"NY-ER-39","Station_Nam":"HAMBURG 0.4 WSW, NY","Latitude":"42.72253","Longitude":"-78.84330","Snowdepth":"7.500","Units":"in","Rept_Date":"2020-12-29 12"},"coordinates":[5797,4415]},{"type":"Point","properties":{"Station_ID":"NY-CT-33","Station_Nam":"GREAT VALLEY 2.2 WNW, NY","Latitude":"42.22790","Longitude":"-78.67580","Snowdepth":"7.500","Units":"in","Rept_Date":"2020-12-29 12"},"coordinates":[5849,4108]},{"type":"Point","properties":{"Station_ID":"MN-SH-34","Station_Nam":"ZIMMERMAN 0.9 NNE, MN","Latitude":"45.45470","Longitude":"-93.59166","Snowdepth":"7.500","Units":"in","Rept_Date":"2020-12-29 12"},"coordinates":[1149,6109]},{"type":"Point","properties":{"Station_ID":"MN-IS-21","Station_Nam":"ISANTI 5.0 SW, MN","Latitude":"45.43360","Longitude":"-93.30200","Snowdepth":"7.500","Units":"in","Rept_Date":"2020-12-29 14"},"coordinates":[1240,6096]},{"type":"Point","properties":{"Station_ID":"MN-CN-36","Station_Nam":"CLOQUET 3.4 ENE, MN","Latitude":"46.74146","Longitude":"-92.42698","Snowdepth":"7.500","Units":"in","Rept_Date":"2020-12-29 13"},"coordinates":[1516,6907]},{"type":"Point","properties":{"Station_ID":"HPN20_MADIS","Station_Nam":"HOPKINS","Latitude":"44.95556","Longitude":"-93.41140","Snowdepth":"7.500","Units":"in","Rept_Date":"2020-12-30 06"},"coordinates":[1206,5800]},{"type":"Point","properties":{"Station_ID":"41.7683_081.0697","Station_Nam":"1 WSW Madison  CoCoRaHS (OH-LK-11)","Latitude":"41.76830","Longitude":"-81.06970","Snowdepth":"7.500","Units":"in","Rept_Date":"2020-12-29 11"},"coordinates":[5095,3823]},{"type":"Point","properties":{"Station_ID":"MFU","Station_Nam":"MFU","Latitude":"51.52170","Longitude":"-66.91110","Snowdepth":"7.480","Units":"in","Rept_Date":"2020-12-29 12"},"coordinates":[9557,9872]},{"type":"Point","properties":{"Station_ID":"SARP016","Station_Nam":"BELLEVUE 4.2 WSW, NE","Latitude":"41.11350","Longitude":"-95.96480","Snowdepth":"7.200","Units":"in","Rept_Date":"2020-12-29 23"},"coordinates":[401,3417]},{"type":"Point","properties":{"Station_ID":"HPN09_MADIS","Station_Nam":"PLYMOUTH","Latitude":"44.98992","Longitude":"-93.47910","Snowdepth":"7.200","Units":"in","Rept_Date":"2020-12-30 06"},"coordinates":[1185,5821]},{"type":"Point","properties":{"Station_ID":"CAN-ON-220","Station_Nam":"DEEP RIVER 1.5 SE - MNRF, CAN","Latitude":"46.09592","Longitude":"-77.47853","Snowdepth":"7.100","Units":"in","Rept_Date":"2020-12-29 13"},"coordinates":[6227,6507]},{"type":"Point","properties":{"Station_ID":"WTNM4","Station_Nam":"WATTON 2WSW","Latitude":"46.52660","Longitude":"-88.64240","Snowdepth":"7.000","Units":"in","Rept_Date":"2020-12-29 13"},"coordinates":[2709,6774]},{"type":"Point","properties":{"Station_ID":"WRIM5","Station_Nam":"WRIGHT 3E","Latitude":"46.68040","Longitude":"-92.95420","Snowdepth":"7.000","Units":"in","Rept_Date":"2020-12-29 12"},"coordinates":[1350,6869]},{"type":"Point","properties":{"Station_ID":"WI-PK-4","Station_Nam":"DRESSER 6.1 ESE, WI","Latitude":"45.32436","Longitude":"-92.52080","Snowdepth":"7.000","Units":"in","Rept_Date":"2020-12-29 14"},"coordinates":[1487,6029]},{"type":"Point","properties":{"Station_ID":"WI-PC-5","Station_Nam":"RIVER FALLS 1.2 SSW, WI","Latitude":"44.84032","Longitude":"-92.63500","Snowdepth":"7.000","Units":"in","Rept_Date":"2020-12-29 13"},"coordinates":[1451,5728]},{"type":"Point","properties":{"Station_ID":"WI-DG-20","Station_Nam":"SOLON SPRINGS 1.2 W, WI","Latitude":"46.35217","Longitude":"-91.84405","Snowdepth":"7.000","Units":"in","Rept_Date":"2020-12-29 13"},"coordinates":[1700,6666]},{"type":"Point","properties":{"Station_ID":"WI-BY-29","Station_Nam":"BAYFIELD 5.1 NNW, WI","Latitude":"46.88063","Longitude":"-90.85854","Snowdepth":"7.000","Units":"in","Rept_Date":"2020-12-29 13"},"coordinates":[2010,6994]},{"type":"Point","properties":{"Station_ID":"WI-BY-2","Station_Nam":"MELLEN 18.6 SW, WI","Latitude":"46.16937","Longitude":"-90.98090","Snowdepth":"7.000","Units":"in","Rept_Date":"2020-12-29 13"},"coordinates":[1972,6553]},{"type":"Point","properties":{"Station_ID":"WI-BY-14","Station_Nam":"ASHLAND 9.8 W, WI","Latitude":"46.59742","Longitude":"-91.07856","Snowdepth":"7.000","Units":"in","Rept_Date":"2020-12-29 12"},"coordinates":[1941,6818]},{"type":"Point","properties":{"Station_ID":"WELM5","Station_Nam":"WELLS","Latitude":"43.74680","Longitude":"-93.73680","Snowdepth":"7.000","Units":"in","Rept_Date":"2020-12-29 14"},"coordinates":[1103,5050]},{"type":"Point","properties":{"Station_ID":"THJP1","Station_Nam":"OSGOOD HOLLOWN SNOW","Latitude":"41.86670","Longitude":"-77.31670","Snowdepth":"7.000","Units":"in","Rept_Date":"2020-12-29 15"},"coordinates":[6278,3884]},{"type":"Point","properties":{"Station_ID":"THFP1","Station_Nam":"FALL BROOK SNOW","Latitude":"41.70000","Longitude":"-76.86670","Snowdepth":"7.000","Units":"in","Rept_Date":"2020-12-29 15"},"coordinates":[6419,3781]},{"type":"Point","properties":{"Station_ID":"SSMM4","Station_Nam":"SAULT STE MARIE","Latitude":"46.48660","Longitude":"-84.40250","Snowdepth":"7.000","Units":"in","Rept_Date":"2020-12-29 13"},"coordinates":[4045,6749]},{"type":"Point","properties":{"Station_ID":"SCRW3","Station_Nam":"ST CROIX FALLS","Latitude":"45.41170","Longitude":"-92.64660","Snowdepth":"7.000","Units":"in","Rept_Date":"2020-12-29 13"},"coordinates":[1447,6083]},{"type":"Point","properties":{"Station_ID":"RLWM5","Station_Nam":"CAMP NORRIS DNR","Latitude":"48.61000","Longitude":"-95.18170","Snowdepth":"7.000","Units":"in","Rept_Date":"2020-12-29 13"},"coordinates":[648,8066]},{"type":"Point","properties":{"Station_ID":"PELW3","Station_Nam":"PELLA 3SE","Latitude":"44.73580","Longitude":"-88.73780","Snowdepth":"7.000","Units":"in","Rept_Date":"2020-12-29 11"},"coordinates":[2679,5664]},{"type":"Point","properties":{"Station_ID":"OAX","Station_Nam":"OMAHA, NE","Latitude":"41.32000","Longitude":"-96.36670","Snowdepth":"7.000","Units":"in","Rept_Date":"2020-12-30 00"},"coordinates":[275,3545]},{"type":"Point","properties":{"Station_ID":"NY-OS-20","Station_Nam":"FULTON 0.2 W, NY","Latitude":"43.31650","Longitude":"-76.41850","Snowdepth":"7.000","Units":"in","Rept_Date":"2020-12-29 11"},"coordinates":[6561,4783]},{"type":"Point","properties":{"Station_ID":"NY-JF-26","Station_Nam":"MANNSVILLE 0.3 SE, NY","Latitude":"43.71225","Longitude":"-76.06210","Snowdepth":"7.000","Units":"in","Rept_Date":"2020-12-29 12"},"coordinates":[6673,5029]},{"type":"Point","properties":{"Station_ID":"NY-CR-5","Station_Nam":"MARATHON 1.0 NW, NY","Latitude":"42.45161","Longitude":"-76.04370","Snowdepth":"7.000","Units":"in","Rept_Date":"2020-12-29 12"},"coordinates":[6679,4247]},{"type":"Point","properties":{"Station_ID":"NH-MR-60","Station_Nam":"SOUTH SUTTON 1.3 SE, NH","Latitude":"43.29531","Longitude":"-71.90238","Snowdepth":"7.000","Units":"in","Rept_Date":"2020-12-29 13"},"coordinates":[7984,4770]},{"type":"Point","properties":{"Station_ID":"MN-SL-115","Station_Nam":"COTTON 5.7 ESE, MN","Latitude":"47.15142","Longitude":"-92.35772","Snowdepth":"7.000","Units":"in","Rept_Date":"2020-12-29 14"},"coordinates":[1538,7162]},{"type":"Point","properties":{"Station_ID":"MN-IT-1","Station_Nam":"GRAND RAPIDS 2.0 E, MN","Latitude":"47.22266","Longitude":"-93.49600","Snowdepth":"7.000","Units":"in","Rept_Date":"2020-12-29 14"},"coordinates":[1179,7206]},{"type":"Point","properties":{"Station_ID":"MN-HN-298","Station_Nam":"EXCELSIOR 1.8 W, MN","Latitude":"44.89722","Longitude":"-93.60286","Snowdepth":"7.000","Units":"in","Rept_Date":"2020-12-29 13"},"coordinates":[1146,5764]},{"type":"Point","properties":{"Station_ID":"MN-GH-28","Station_Nam":"CANNON FALLS 0.5 SE, MN","Latitude":"44.50866","Longitude":"-92.89526","Snowdepth":"7.000","Units":"in","Rept_Date":"2020-12-29 14"},"coordinates":[1369,5523]},{"type":"Point","properties":{"Station_ID":"MKX","Station_Nam":"MILWAUKEE, WI","Latitude":"42.96810","Longitude":"-88.54920","Snowdepth":"7.000","Units":"in","Rept_Date":"2020-12-30 06"},"coordinates":[2738,4567]},{"type":"Point","properties":{"Station_ID":"LNK","Station_Nam":"LINCOLN MUNICIPAL AIRPORT","Latitude":"40.85080","Longitude":"-96.75920","Snowdepth":"7.000","Units":"in","Rept_Date":"2020-12-30 00"},"coordinates":[151,3254]},{"type":"Point","properties":{"Station_ID":"LKVN6","Station_Nam":"LAKE VIEW","Latitude":"42.73180","Longitude":"-78.92400","Snowdepth":"7.000","Units":"in","Rept_Date":"2020-12-29 13"},"coordinates":[5771,4421]},{"type":"Point","properties":{"Station_ID":"KMSN","Station_Nam":"MADISON DANE COUNTY RGNL","Latitude":"43.13333","Longitude":"-89.35000","Snowdepth":"7.000","Units":"in","Rept_Date":"2020-12-30 06"},"coordinates":[2486,4670]},{"type":"Point","properties":{"Station_ID":"KGTB","Station_Nam":"FORT DRUM / WHEELER-SACK U. S. ARMY AIRFIELD","Latitude":"44.05000","Longitude":"-75.73333","Snowdepth":"7.000","Units":"in","Rept_Date":"2020-12-30 06"},"coordinates":[6777,5238]},{"type":"Point","properties":{"Station_ID":"INL","Station_Nam":"FALLS INTERNATIONAL ARPT","Latitude":"48.56640","Longitude":"-93.40310","Snowdepth":"7.000","Units":"in","Rept_Date":"2020-12-30 00"},"coordinates":[1209,8039]},{"type":"Point","properties":{"Station_ID":"HTLM4","Station_Nam":"SNOW PAID OBSERVER FOR KHTL","Latitude":"44.34470","Longitude":"-84.67730","Snowdepth":"7.000","Units":"in","Rept_Date":"2020-12-30 06"},"coordinates":[3958,5421]},{"type":"Point","properties":{"Station_ID":"GSGP1","Station_Nam":"INEZ SOUTH SLOPE SNOW","Latitude":"41.70000","Longitude":"-78.05000","Snowdepth":"7.000","Units":"in","Rept_Date":"2020-12-29 16"},"coordinates":[6047,3781]},{"type":"Point","properties":{"Station_ID":"GSEP1","Station_Nam":"AUSTIN 2 NW SNOW","Latitude":"41.65000","Longitude":"-78.11670","Snowdepth":"7.000","Units":"in","Rept_Date":"2020-12-29 16"},"coordinates":[6026,3750]},{"type":"Point","properties":{"Station_ID":"CSBP1","Station_Nam":"COOKSBURG","Latitude":"41.35750","Longitude":"-79.21720","Snowdepth":"7.000","Units":"in","Rept_Date":"2020-12-29 12"},"coordinates":[5679,3569]},{"type":"Point","properties":{"Station_ID":"COUW3","Station_Nam":"COUDERAY,WI","Latitude":"45.86670","Longitude":"-91.45000","Snowdepth":"7.000","Units":"in","Rept_Date":"2020-12-29 22"},"coordinates":[1824,6365]},{"type":"Point","properties":{"Station_ID":"CMKW3","Station_Nam":"CLAM LAKE 4W","Latitude":"46.16940","Longitude":"-90.98080","Snowdepth":"7.000","Units":"in","Rept_Date":"2020-12-29 13"},"coordinates":[1972,6553]},{"type":"Point","properties":{"Station_ID":"CLKM4","Station_Nam":"CLARKSBURG","Latitude":"46.49910","Longitude":"-87.84500","Snowdepth":"7.000","Units":"in","Rept_Date":"2020-12-29 12"},"coordinates":[2960,6757]},{"type":"Point","properties":{"Station_ID":"CBLW3","Station_Nam":"CUMBERLAND","Latitude":"45.53310","Longitude":"-92.02260","Snowdepth":"7.000","Units":"in","Rept_Date":"2020-12-29 13"},"coordinates":[1644,6158]},{"type":"Point","properties":{"Station_ID":"BDKP1","Station_Nam":"SHORT RUN SNOW","Latitude":"41.60000","Longitude":"-77.78330","Snowdepth":"7.000","Units":"in","Rept_Date":"2020-12-29 18"},"coordinates":[6131,3719]},{"type":"Point","properties":{"Station_ID":"BDEP1","Station_Nam":"TAMARACK NORTH SNOW","Latitude":"41.41670","Longitude":"-77.85000","Snowdepth":"7.000","Units":"in","Rept_Date":"2020-12-29 18"},"coordinates":[6110,3605]},{"type":"Point","properties":{"Station_ID":"ANJM4","Station_Nam":"SNOW PAID OBSERVER FOR KANJ","Latitude":"46.48670","Longitude":"-84.40260","Snowdepth":"7.000","Units":"in","Rept_Date":"2020-12-29 18"},"coordinates":[4045,6749]},{"type":"Point","properties":{"Station_ID":"ANJ","Station_Nam":"SAULT STE MARIE","Latitude":"46.46670","Longitude":"-84.36670","Snowdepth":"7.000","Units":"in","Rept_Date":"2020-12-30 00"},"coordinates":[4056,6737]},{"type":"Point","properties":{"Station_ID":"41.8966_080.1567","Station_Nam":"2 NW EDINBORO  SNOW SPOTTER (CLE0251)","Latitude":"41.89660","Longitude":"-80.15670","Snowdepth":"7.000","Units":"in","Rept_Date":"2020-12-29 13"},"coordinates":[5383,3903]},{"type":"Point","properties":{"Station_ID":"41.8717_080.0850","Station_Nam":"EDINBORO 2E  SNOW SPOTTER (X4190801)","Latitude":"41.87170","Longitude":"-80.08500","Snowdepth":"7.000","Units":"in","Rept_Date":"2020-12-29 13"},"coordinates":[5405,3887]},{"type":"Point","properties":{"Station_ID":"CAN-ON-491","Station_Nam":"MILVERTON 1.1 ESE- CANWARN, CAN","Latitude":"43.56074","Longitude":"-80.90887","Snowdepth":"6.900","Units":"in","Rept_Date":"2020-12-29 11"},"coordinates":[5146,4935]},{"type":"Point","properties":{"Station_ID":"HLSN3","Station_Nam":"HERMIT LAKE SNOTEL","Latitude":"44.26130","Longitude":"-71.28320","Snowdepth":"6.770","Units":"in","Rept_Date":"2020-12-30 06"},"coordinates":[8179,5369]},{"type":"Point","properties":{"Station_ID":"WI-WB-16","Station_Nam":"SARONA 4.5 NNE, WI","Latitude":"45.77030","Longitude":"-91.76890","Snowdepth":"6.500","Units":"in","Rept_Date":"2020-12-29 13"},"coordinates":[1724,6305]},{"type":"Point","properties":{"Station_ID":"NY-OD-23","Station_Nam":"DURHAMVILLE 3.5 NNW, NY","Latitude":"43.17115","Longitude":"-75.68280","Snowdepth":"6.500","Units":"in","Rept_Date":"2020-12-29 12"},"coordinates":[6792,4693]},{"type":"Point","properties":{"Station_ID":"NY-ER-75","Station_Nam":"ELMA CENTER 0.7 SE, NY","Latitude":"42.81936","Longitude":"-78.62140","Snowdepth":"6.500","Units":"in","Rept_Date":"2020-12-29 14"},"coordinates":[5866,4475]},{"type":"Point","properties":{"Station_ID":"MN-WR-25","Station_Nam":"SAINT MICHAEL 2.0 ENE, MN","Latitude":"45.20820","Longitude":"-93.65280","Snowdepth":"6.500","Units":"in","Rept_Date":"2020-12-29 12"},"coordinates":[1130,5957]},{"type":"Point","properties":{"Station_ID":"MN-HN-31","Station_Nam":"MAPLE GROVE 1.0 NNE, MN","Latitude":"45.12261","Longitude":"-93.45790","Snowdepth":"6.500","Units":"in","Rept_Date":"2020-12-29 15"},"coordinates":[1191,5903]},{"type":"Point","properties":{"Station_ID":"MN-HN-241","Station_Nam":"MAPLE GROVE 1.4 WSW, MN","Latitude":"45.10451","Longitude":"-93.48950","Snowdepth":"6.500","Units":"in","Rept_Date":"2020-12-29 13"},"coordinates":[1181,5892]},{"type":"Point","properties":{"Station_ID":"MN-CW-22","Station_Nam":"FORT RIPLEY 0.8 N, MN","Latitude":"46.18089","Longitude":"-94.36510","Snowdepth":"6.500","Units":"in","Rept_Date":"2020-12-29 13"},"coordinates":[905,6560]},{"type":"Point","properties":{"Station_ID":"WV-PR-10","Station_Nam":"TERRA ALTA 4.9 NNE, WV","Latitude":"39.51024","Longitude":"-79.51024","Snowdepth":"6.400","Units":"in","Rept_Date":"2020-12-29 13"},"coordinates":[5586,2423]},{"type":"Point","properties":{"Station_ID":"CAN-ON-757","Station_Nam":"SAULT STE. MARIE 2.8 ESE - GLFC, CAN","Latitude":"46.50300","Longitude":"-84.30300","Snowdepth":"6.100","Units":"in","Rept_Date":"2020-12-29 13"},"coordinates":[4076,6759]},{"type":"Point","properties":{"Station_ID":"WRUM5","Station_Nam":"WARROAD 4W","Latitude":"48.89600","Longitude":"-95.40700","Snowdepth":"6.000","Units":"in","Rept_Date":"2020-12-30 04"},"coordinates":[577,8243]},{"type":"Point","properties":{"Station_ID":"WPGN6","Station_Nam":"GEORGETOWN 2SE SNOW","Latitude":"42.75000","Longitude":"-75.70000","Snowdepth":"6.000","Units":"in","Rept_Date":"2020-12-29 13"},"coordinates":[6787,4432]},{"type":"Point","properties":{"Station_ID":"WPFN6","Station_Nam":"MARIPOSA 1NNW SNOW","Latitude":"42.73330","Longitude":"-75.81670","Snowdepth":"6.000","Units":"in","Rept_Date":"2020-12-29 13"},"coordinates":[6750,4422]},{"type":"Point","properties":{"Station_ID":"WPCN6","Station_Nam":"WILLET 2WNW SNOW","Latitude":"42.48330","Longitude":"-75.93330","Snowdepth":"6.000","Units":"in","Rept_Date":"2020-12-29 13"},"coordinates":[6714,4267]},{"type":"Point","properties":{"Station_ID":"WI-VL-9","Station_Nam":"LAND O' LAKES 11.7 W, WI","Latitude":"46.19023","Longitude":"-89.45790","Snowdepth":"6.000","Units":"in","Rept_Date":"2020-12-29 13"},"coordinates":[2452,6565]},{"type":"Point","properties":{"Station_ID":"WI-SC-21","Station_Nam":"CLEAR LAKE 4.0 S, WI","Latitude":"45.19250","Longitude":"-92.27860","Snowdepth":"6.000","Units":"in","Rept_Date":"2020-12-29 14"},"coordinates":[1563,5947]},{"type":"Point","properties":{"Station_ID":"WI-PR-6","Station_Nam":"PHILLIPS 1.3 S, WI","Latitude":"45.67677","Longitude":"-90.39543","Snowdepth":"6.000","Units":"in","Rept_Date":"2020-12-29 12"},"coordinates":[2156,6247]},{"type":"Point","properties":{"Station_ID":"WI-PC-10","Station_Nam":"RIVER FALLS 1.4 S, WI","Latitude":"44.83580","Longitude":"-92.62100","Snowdepth":"6.000","Units":"in","Rept_Date":"2020-12-29 13"},"coordinates":[1455,5726]},{"type":"Point","properties":{"Station_ID":"WI-IR-2","Station_Nam":"MERCER 2.0 SE, WI","Latitude":"46.14749","Longitude":"-90.03097","Snowdepth":"6.000","Units":"in","Rept_Date":"2020-12-29 13"},"coordinates":[2271,6539]},{"type":"Point","properties":{"Station_ID":"WI-BT-14","Station_Nam":"OAKLAND 9.0 ENE, WI","Latitude":"45.95184","Longitude":"-92.21653","Snowdepth":"6.000","Units":"in","Rept_Date":"2020-12-29 13"},"coordinates":[1583,6418]},{"type":"Point","properties":{"Station_ID":"WI-AS-6","Station_Nam":"ODANAH 1.6 E, WI","Latitude":"46.60462","Longitude":"-90.64920","Snowdepth":"6.000","Units":"in","Rept_Date":"2020-12-29 13"},"coordinates":[2076,6822]},{"type":"Point","properties":{"Station_ID":"WI-AS-4","Station_Nam":"ASHLAND 0.5 WNW, WI","Latitude":"46.58240","Longitude":"-90.88390","Snowdepth":"6.000","Units":"in","Rept_Date":"2020-12-29 13"},"coordinates":[2002,6809]},{"type":"Point","properties":{"Station_ID":"TOHM5","Station_Nam":"TWO HARBORS WWTP","Latitude":"47.01760","Longitude":"-91.66480","Snowdepth":"6.000","Units":"in","Rept_Date":"2020-12-29 13"},"coordinates":[1756,7079]},{"type":"Point","properties":{"Station_ID":"THGP1","Station_Nam":"CHARLESTON SNOW","Latitude":"41.80000","Longitude":"-77.23330","Snowdepth":"6.000","Units":"in","Rept_Date":"2020-12-29 15"},"coordinates":[6304,3843]},{"type":"Point","properties":{"Station_ID":"THCP1","Station_Nam":"COVINGTON SNOW","Latitude":"41.76670","Longitude":"-77.05000","Snowdepth":"6.000","Units":"in","Rept_Date":"2020-12-29 15"},"coordinates":[6362,3822]},{"type":"Point","properties":{"Station_ID":"SUAW3","Station_Nam":"SUAMICO","Latitude":"44.60190","Longitude":"-88.09780","Snowdepth":"6.000","Units":"in","Rept_Date":"2020-12-29 12"},"coordinates":[2880,5581]},{"type":"Point","properties":{"Station_ID":"SSSS2","Station_Nam":"MILBANK-36MI.NW","Latitude":"45.66670","Longitude":"-97.00000","Snowdepth":"6.000","Units":"in","Rept_Date":"2020-12-30 04"},"coordinates":[75,6241]},{"type":"Point","properties":{"Station_ID":"SGVN6","Station_Nam":"SPRINGVILLE","Latitude":"42.54970","Longitude":"-78.57670","Snowdepth":"6.000","Units":"in","Rept_Date":"2020-12-30 01"},"coordinates":[5881,4308]},{"type":"Point","properties":{"Station_ID":"ROBW3","Station_Nam":"ROBERTS WWTP","Latitude":"44.97070","Longitude":"-92.56200","Snowdepth":"6.000","Units":"in","Rept_Date":"2020-12-29 13"},"coordinates":[1474,5809]},{"type":"Point","properties":{"Station_ID":"RNBW3","Station_Nam":"WFO GREEN BAY","Latitude":"44.49780","Longitude":"-88.11080","Snowdepth":"6.000","Units":"in","Rept_Date":"2020-12-30 06"},"coordinates":[2876,5516]},{"type":"Point","properties":{"Station_ID":"RCKI2","Station_Nam":"MISSISSIPPI RIVER","Latitude":"41.51670","Longitude":"-90.56670","Snowdepth":"6.000","Units":"in","Rept_Date":"2020-12-30 06"},"coordinates":[2102,3667]},{"type":"Point","properties":{"Station_ID":"PTYM4","Station_Nam":"PETOSKEY NCMC","Latitude":"45.36120","Longitude":"-84.95110","Snowdepth":"6.000","Units":"in","Rept_Date":"2020-12-29 13"},"coordinates":[3872,6051]},{"type":"Point","properties":{"Station_ID":"PHEW3","Station_Nam":"PHELPS","Latitude":"46.06630","Longitude":"-89.07520","Snowdepth":"6.000","Units":"in","Rept_Date":"2020-12-29 13"},"coordinates":[2572,6489]},{"type":"Point","properties":{"Station_ID":"PDGM4","Station_Nam":"PAULDING","Latitude":"46.39760","Longitude":"-89.17940","Snowdepth":"6.000","Units":"in","Rept_Date":"2020-12-29 12"},"coordinates":[2540,6694]},{"type":"Point","properties":{"Station_ID":"OMA","Station_Nam":"EPPLEY AIRFIELD","Latitude":"41.30220","Longitude":"-95.89330","Snowdepth":"6.000","Units":"in","Rept_Date":"2020-12-30 00"},"coordinates":[424,3534]},{"type":"Point","properties":{"Station_ID":"OAXN1","Station_Nam":"VALLEY 1WNW","Latitude":"41.31970","Longitude":"-96.36720","Snowdepth":"6.000","Units":"in","Rept_Date":"2020-12-30 06"},"coordinates":[275,3545]},{"type":"Point","properties":{"Station_ID":"NY-OG-46","Station_Nam":"BALDWINSVILLE 3.5 NE, NY","Latitude":"43.19506","Longitude":"-76.28830","Snowdepth":"6.000","Units":"in","Rept_Date":"2020-12-29 13"},"coordinates":[6602,4708]},{"type":"Point","properties":{"Station_ID":"NY-MD-22","Station_Nam":"ONEIDA 0.4 NW, NY","Latitude":"43.08012","Longitude":"-75.66860","Snowdepth":"6.000","Units":"in","Rept_Date":"2020-12-29 12"},"coordinates":[6797,4637]},{"type":"Point","properties":{"Station_ID":"NY-LW-12","Station_Nam":"CHASES LAKE COOP, NY","Latitude":"43.75924","Longitude":"-75.29982","Snowdepth":"6.000","Units":"in","Rept_Date":"2020-12-29 11"},"coordinates":[6913,5058]},{"type":"Point","properties":{"Station_ID":"NY-HR-18","Station_Nam":"SALISBURY CENTER 1.8 NW, NY","Latitude":"43.16260","Longitude":"-74.80880","Snowdepth":"6.000","Units":"in","Rept_Date":"2020-12-29 11"},"coordinates":[7068,4688]},{"type":"Point","properties":{"Station_ID":"NY-ER-194","Station_Nam":"GLENWOOD 1.0 SE, NY","Latitude":"42.60740","Longitude":"-78.64610","Snowdepth":"6.000","Units":"in","Rept_Date":"2020-12-29 12"},"coordinates":[5859,4344]},{"type":"Point","properties":{"Station_ID":"NY-ER-178","Station_Nam":"WEST SENECA 2.5 SE, NY","Latitude":"42.81374","Longitude":"-78.71399","Snowdepth":"6.000","Units":"in","Rept_Date":"2020-12-29 14"},"coordinates":[5837,4472]},{"type":"Point","properties":{"Station_ID":"NY-ER-177","Station_Nam":"CLARENCE 3.8 SSW, NY","Latitude":"42.96084","Longitude":"-78.66569","Snowdepth":"6.000","Units":"in","Rept_Date":"2020-12-29 12"},"coordinates":[5853,4563]},{"type":"Point","properties":{"Station_ID":"NY-BM-14","Station_Nam":"WHITNEY POINT 1.7 SSE, NY","Latitude":"42.30837","Longitude":"-75.95690","Snowdepth":"6.000","Units":"in","Rept_Date":"2020-12-29 13"},"coordinates":[6706,4158]},{"type":"Point","properties":{"Station_ID":"NESN1","Station_Nam":"CONCORD","Latitude":"42.38440","Longitude":"-96.98830","Snowdepth":"6.000","Units":"in","Rept_Date":"2020-12-29 23"},"coordinates":[79,4205]},{"type":"Point","properties":{"Station_ID":"NE-SN-3","Station_Nam":"WESTON 0.2 ENE, NE","Latitude":"41.19322","Longitude":"-96.73740","Snowdepth":"6.000","Units":"in","Rept_Date":"2020-12-29 13"},"coordinates":[158,3467]},{"type":"Point","properties":{"Station_ID":"MN-RM-56","Station_Nam":"ROSEVILLE 1.6 NW, MN","Latitude":"45.03303","Longitude":"-93.17523","Snowdepth":"6.000","Units":"in","Rept_Date":"2020-12-29 13"},"coordinates":[1280,5848]},{"type":"Point","properties":{"Station_ID":"MN-RM-2","Station_Nam":"NORTH SAINT PAUL 1.0 NNW, MN","Latitude":"45.02629","Longitude":"-93.00790","Snowdepth":"6.000","Units":"in","Rept_Date":"2020-12-29 12"},"coordinates":[1333,5844]},{"type":"Point","properties":{"Station_ID":"MN-IT-7","Station_Nam":"GRAND RAPIDS 6.2 SSW, MN","Latitude":"47.13687","Longitude":"-93.56660","Snowdepth":"6.000","Units":"in","Rept_Date":"2020-12-29 12"},"coordinates":[1157,7153]},{"type":"Point","properties":{"Station_ID":"MN-HN-240","Station_Nam":"BLOOMINGTON 3.1 E, MN","Latitude":"44.83704","Longitude":"-93.25318","Snowdepth":"6.000","Units":"in","Rept_Date":"2020-12-29 14"},"coordinates":[1256,5726]},{"type":"Point","properties":{"Station_ID":"MN-BK-6","Station_Nam":"LAKE PARK 6.0 S, MN","Latitude":"46.79850","Longitude":"-96.12180","Snowdepth":"6.000","Units":"in","Rept_Date":"2020-12-29 13"},"coordinates":[352,6943]},{"type":"Point","properties":{"Station_ID":"MI-OT-4","Station_Nam":"GAYLORD 1.7 WNW, MI","Latitude":"45.03280","Longitude":"-84.71090","Snowdepth":"6.000","Units":"in","Rept_Date":"2020-12-29 13"},"coordinates":[3948,5848]},{"type":"Point","properties":{"Station_ID":"MI-OT-16","Station_Nam":"GAYLORD 2.2 SSE, MI","Latitude":"44.99441","Longitude":"-84.65820","Snowdepth":"6.000","Units":"in","Rept_Date":"2020-12-29 13"},"coordinates":[3964,5824]},{"type":"Point","properties":{"Station_ID":"MI-MQ-19","Station_Nam":"ISHPEMING 7.2 SW, MI","Latitude":"46.40550","Longitude":"-87.75670","Snowdepth":"6.000","Units":"in","Rept_Date":"2020-12-29 11"},"coordinates":[2988,6699]},{"type":"Point","properties":{"Station_ID":"LNOW3","Station_Nam":"LAND O LAKES","Latitude":"46.19000","Longitude":"-89.45700","Snowdepth":"6.000","Units":"in","Rept_Date":"2020-12-29 13"},"coordinates":[2452,6565]},{"type":"Point","properties":{"Station_ID":"KSEM4","Station_Nam":"KALKASKA 11SE","Latitude":"44.58970","Longitude":"-85.04860","Snowdepth":"6.000","Units":"in","Rept_Date":"2020-12-29 13"},"coordinates":[3841,5573]},{"type":"Point","properties":{"Station_ID":"KRFD","Station_Nam":"GREATER ROCKFORD AIRPORT","Latitude":"42.20000","Longitude":"-89.10000","Snowdepth":"6.000","Units":"in","Rept_Date":"2020-12-30 06"},"coordinates":[2565,4091]},{"type":"Point","properties":{"Station_ID":"KOMA","Station_Nam":"OMAHA EPPLEY AIRFIELD","Latitude":"41.30000","Longitude":"-95.90000","Snowdepth":"6.000","Units":"in","Rept_Date":"2020-12-30 06"},"coordinates":[422,3533]},{"type":"Point","properties":{"Station_ID":"KOFF","Station_Nam":"OMAHA / OFFUTT AIR FORCE BASE","Latitude":"41.11666","Longitude":"-95.90000","Snowdepth":"6.000","Units":"in","Rept_Date":"2020-12-30 00"},"coordinates":[422,3419]},{"type":"Point","properties":{"Station_ID":"KLKM4","Station_Nam":"KALKASKA","Latitude":"44.72800","Longitude":"-85.17270","Snowdepth":"6.000","Units":"in","Rept_Date":"2020-12-29 13"},"coordinates":[3802,5659]},{"type":"Point","properties":{"Station_ID":"ISEM5","Station_Nam":"ISLE 12N","Latitude":"46.31970","Longitude":"-93.50140","Snowdepth":"6.000","Units":"in","Rept_Date":"2020-12-29 13"},"coordinates":[1178,6646]},{"type":"Point","properties":{"Station_ID":"INDM5","Station_Nam":"INDUS,MN","Latitude":"48.61670","Longitude":"-93.90000","Snowdepth":"6.000","Units":"in","Rept_Date":"2020-12-29 14"},"coordinates":[1052,8070]},{"type":"Point","properties":{"Station_ID":"HTL","Station_Nam":"ROSCOMMON COUNTY AIRPORT","Latitude":"44.35000","Longitude":"-84.66670","Snowdepth":"6.000","Units":"in","Rept_Date":"2020-12-30 00"},"coordinates":[3962,5424]},{"type":"Point","properties":{"Station_ID":"GSCP1","Station_Nam":"GLEN VALLEY CAMP SNOW","Latitude":"41.55000","Longitude":"-77.95000","Snowdepth":"6.000","Units":"in","Rept_Date":"2020-12-29 16"},"coordinates":[6078,3688]},{"type":"Point","properties":{"Station_ID":"GOVN6","Station_Nam":"GOUVERNEUR 3 NW","Latitude":"44.35400","Longitude":"-75.51230","Snowdepth":"6.000","Units":"in","Rept_Date":"2020-12-29 12"},"coordinates":[6846,5427]},{"type":"Point","properties":{"Station_ID":"GFDN6","Station_Nam":"CHASES LAKE","Latitude":"43.75920","Longitude":"-75.29980","Snowdepth":"6.000","Units":"in","Rept_Date":"2020-12-29 11"},"coordinates":[6913,5058]},{"type":"Point","properties":{"Station_ID":"GAYM4","Station_Nam":"GAYLORD","Latitude":"45.03320","Longitude":"-84.71130","Snowdepth":"6.000","Units":"in","Rept_Date":"2020-12-29 13"},"coordinates":[3947,5848]},{"type":"Point","properties":{"Station_ID":"FSDS2","Station_Nam":"SIOUX FALLS NWS WFO AP","Latitude":"43.58780","Longitude":"-96.73000","Snowdepth":"6.000","Units":"in","Rept_Date":"2020-12-30 06"},"coordinates":[160,4952]},{"type":"Point","properties":{"Station_ID":"EMBM5","Station_Nam":"EMBARASS,MN","Latitude":"47.65810","Longitude":"-92.19580","Snowdepth":"6.000","Units":"in","Rept_Date":"2020-12-29 12"},"coordinates":[1589,7476]},{"type":"Point","properties":{"Station_ID":"DVN","Station_Nam":"QUAD CITIES, IA","Latitude":"41.61030","Longitude":"-90.58830","Snowdepth":"6.000","Units":"in","Rept_Date":"2020-12-30 00"},"coordinates":[2096,3725]},{"type":"Point","properties":{"Station_ID":"DMX","Station_Nam":"DES MOINES, IA","Latitude":"41.73610","Longitude":"-93.72330","Snowdepth":"6.000","Units":"in","Rept_Date":"2020-12-30 06"},"coordinates":[1108,3803]},{"type":"Point","properties":{"Station_ID":"CVWP1","Station_Nam":"CHANDLER VALLEY 1SE","Latitude":"41.93010","Longitude":"-79.29700","Snowdepth":"6.000","Units":"in","Rept_Date":"2020-12-29 12"},"coordinates":[5654,3924]},{"type":"Point","properties":{"Station_ID":"CRPI4","Station_Nam":"CEDAR RAPIDS NO 1","Latitude":"42.05000","Longitude":"-91.58810","Snowdepth":"6.000","Units":"in","Rept_Date":"2020-12-29 23"},"coordinates":[1781,3998]},{"type":"Point","properties":{"Station_ID":"CLNI4","Station_Nam":"CLINTON NO 1","Latitude":"41.79470","Longitude":"-90.26390","Snowdepth":"6.000","Units":"in","Rept_Date":"2020-12-30 00"},"coordinates":[2198,3840]},{"type":"Point","properties":{"Station_ID":"CHRM4","Station_Nam":"CHARLEVOIX","Latitude":"45.31720","Longitude":"-85.26720","Snowdepth":"6.000","Units":"in","Rept_Date":"2020-12-29 13"},"coordinates":[3772,6024]},{"type":"Point","properties":{"Station_ID":"BRAM5","Station_Nam":"BRAINERD","Latitude":"46.34320","Longitude":"-94.20900","Snowdepth":"6.000","Units":"in","Rept_Date":"2020-12-29 13"},"coordinates":[955,6660]},{"type":"Point","properties":{"Station_ID":"BDHP1","Station_Nam":"CARTER CAMP SNOW","Latitude":"41.61670","Longitude":"-77.71670","Snowdepth":"6.000","Units":"in","Rept_Date":"2020-12-29 18"},"coordinates":[6152,3729]},{"type":"Point","properties":{"Station_ID":"AWXW3","Station_Nam":"ASHLAND","Latitude":"46.58240","Longitude":"-90.88390","Snowdepth":"6.000","Units":"in","Rept_Date":"2020-12-29 13"},"coordinates":[2002,6809]},{"type":"Point","properties":{"Station_ID":"ASXW3","Station_Nam":"ASHLAND,WI","Latitude":"46.55220","Longitude":"-90.91610","Snowdepth":"6.000","Units":"in","Rept_Date":"2020-12-29 14"},"coordinates":[1992,6790]},{"type":"Point","properties":{"Station_ID":"41.5904_081.3914","Station_Nam":"1 S Waite Hill  Trained Spotter (CLE1261)","Latitude":"41.59042","Longitude":"-81.39139","Snowdepth":"6.000","Units":"in","Rept_Date":"2020-12-29 14"},"coordinates":[4994,3713]},{"type":"Point","properties":{"Station_ID":"CAN-ON-771","Station_Nam":"KENORA 8.7 NNE - CANWARN, CAN","Latitude":"49.84171","Longitude":"-94.44386","Snowdepth":"5.900","Units":"in","Rept_Date":"2020-12-29 13"},"coordinates":[881,8830]},{"type":"Point","properties":{"Station_ID":"QIQ","Station_Nam":"QIQ","Latitude":"49.82390","Longitude":"-68.54310","Snowdepth":"5.827","Units":"in","Rept_Date":"2020-12-29 12"},"coordinates":[9042,8819]},{"type":"Point","properties":{"Station_ID":"HPN07_MADIS","Station_Nam":"MSP AIRPORT","Latitude":"44.89519","Longitude":"-93.23170","Snowdepth":"5.800","Units":"in","Rept_Date":"2020-12-30 06"},"coordinates":[1263,5762]},{"type":"Point","properties":{"Station_ID":"WI-BY-1","Station_Nam":"BAYFIELD 8.8 N, WI","Latitude":"46.93855","Longitude":"-90.83490","Snowdepth":"5.500","Units":"in","Rept_Date":"2020-12-29 13"},"coordinates":[2018,7030]},{"type":"Point","properties":{"Station_ID":"NY-TG-5","Station_Nam":"BERKSHIRE 2.0 N, NY","Latitude":"42.33463","Longitude":"-76.18990","Snowdepth":"5.500","Units":"in","Rept_Date":"2020-12-29 13"},"coordinates":[6633,4174]},{"type":"Point","properties":{"Station_ID":"NY-TG-15","Station_Nam":"BERKSHIRE 1.9 ENE, NY","Latitude":"42.31910","Longitude":"-76.21940","Snowdepth":"5.500","Units":"in","Rept_Date":"2020-12-29 13"},"coordinates":[6623,4165]},{"type":"Point","properties":{"Station_ID":"NY-SR-22","Station_Nam":"GREENFIELD CENTER 1.6 W, NY","Latitude":"43.12684","Longitude":"-73.87860","Snowdepth":"5.500","Units":"in","Rept_Date":"2020-12-29 13"},"coordinates":[7361,4666]},{"type":"Point","properties":{"Station_ID":"NY-CQ-41","Station_Nam":"MAYVILLE 0.2 ESE, NY","Latitude":"42.25194","Longitude":"-79.49809","Snowdepth":"5.500","Units":"in","Rept_Date":"2020-12-29 12"},"coordinates":[5590,4123]},{"type":"Point","properties":{"Station_ID":"MN-RM-120","Station_Nam":"MAPLEWOOD 5.6 SSE, MN","Latitude":"44.90588","Longitude":"-92.99712","Snowdepth":"5.500","Units":"in","Rept_Date":"2020-12-29 15"},"coordinates":[1337,5769]},{"type":"Point","properties":{"Station_ID":"MN-IT-23","Station_Nam":"BOVEY 13.4 N, MN","Latitude":"47.48855","Longitude":"-93.43497","Snowdepth":"5.500","Units":"in","Rept_Date":"2020-12-29 13"},"coordinates":[1199,7371]},{"type":"Point","properties":{"Station_ID":"MN-HN-267","Station_Nam":"MINNEAPOLIS 2.5 SE, MN","Latitude":"44.93331","Longitude":"-93.23680","Snowdepth":"5.500","Units":"in","Rept_Date":"2020-12-29 13"},"coordinates":[1261,5786]},{"type":"Point","properties":{"Station_ID":"MI-CP-14","Station_Nam":"SAULT STE. MARIE 2.2 E, MI","Latitude":"46.48933","Longitude":"-84.31971","Snowdepth":"5.500","Units":"in","Rept_Date":"2020-12-29 13"},"coordinates":[4071,6751]},{"type":"Point","properties":{"Station_ID":"MI-AT-6","Station_Nam":"MANCELONA 0.5 ESE, MI","Latitude":"44.89981","Longitude":"-85.05100","Snowdepth":"5.500","Units":"in","Rept_Date":"2020-12-29 13"},"coordinates":[3840,5765]},{"type":"Point","properties":{"Station_ID":"41.9034_079.6523","Station_Nam":"CORRY (CLE0230)","Latitude":"41.90340","Longitude":"-79.65230","Snowdepth":"5.500","Units":"in","Rept_Date":"2020-12-29 15"},"coordinates":[5542,3907]},{"type":"Point","properties":{"Station_ID":"PA-ER-2","Station_Nam":"ERIE 5.6 SW, PA","Latitude":"42.06086","Longitude":"-80.15260","Snowdepth":"5.400","Units":"in","Rept_Date":"2020-12-29 12"},"coordinates":[5384,4005]},{"type":"Point","properties":{"Station_ID":"NY-OG-71","Station_Nam":"LIVERPOOL 6.1 NNW, NY","Latitude":"43.18876","Longitude":"-76.25193","Snowdepth":"5.400","Units":"in","Rept_Date":"2020-12-29 12"},"coordinates":[6613,4704]},{"type":"Point","properties":{"Station_ID":"QWG","Station_Nam":"QWG","Latitude":"48.48890","Longitude":"-73.45940","Snowdepth":"5.354","Units":"in","Rept_Date":"2020-12-29 12"},"coordinates":[7493,7991]},{"type":"Point","properties":{"Station_ID":"QLP","Station_Nam":"QLP","Latitude":"48.13920","Longitude":"-72.63830","Snowdepth":"5.354","Units":"in","Rept_Date":"2020-12-29 12"},"coordinates":[7752,7774]},{"type":"Point","properties":{"Station_ID":"OH-CY-58","Station_Nam":"SOUTH EUCLID 0.2 ESE, OH","Latitude":"41.52358","Longitude":"-81.52191","Snowdepth":"5.100","Units":"in","Rept_Date":"2020-12-29 13"},"coordinates":[4953,3672]},{"type":"Point","properties":{"Station_ID":"41.5236_081.5219","Station_Nam":"South Euclid  Trained Spotter (CLE1186)","Latitude":"41.52356","Longitude":"-81.52192","Snowdepth":"5.100","Units":"in","Rept_Date":"2020-12-29 13"},"coordinates":[4952,3672]},{"type":"Point","properties":{"Station_ID":"WTRM4","Station_Nam":"WATERSMEET 12WSW","Latitude":"46.22310","Longitude":"-89.40850","Snowdepth":"5.000","Units":"in","Rept_Date":"2020-12-29 12"},"coordinates":[2467,6586]},{"type":"Point","properties":{"Station_ID":"WRSN6","Station_Nam":"WARSAW 6SW","Latitude":"42.68550","Longitude":"-78.22020","Snowdepth":"5.000","Units":"in","Rept_Date":"2020-12-29 13"},"coordinates":[5993,4392]},{"type":"Point","properties":{"Station_ID":"WPHN6","Station_Nam":"GEORGETOWN SNOW","Latitude":"42.76670","Longitude":"-75.70000","Snowdepth":"5.000","Units":"in","Rept_Date":"2020-12-29 13"},"coordinates":[6787,4442]},{"type":"Point","properties":{"Station_ID":"WPDN6","Station_Nam":"CINCINNATUS 2NW SNOW","Latitude":"42.55000","Longitude":"-75.93330","Snowdepth":"5.000","Units":"in","Rept_Date":"2020-12-29 13"},"coordinates":[6714,4308]},{"type":"Point","properties":{"Station_ID":"WI-PK-33","Station_Nam":"FREDERIC 4.8 NE, WI","Latitude":"45.70970","Longitude":"-92.39950","Snowdepth":"5.000","Units":"in","Rept_Date":"2020-12-29 13"},"coordinates":[1525,6268]},{"type":"Point","properties":{"Station_ID":"WDOM5","Station_Nam":"WINDOM","Latitude":"43.87700","Longitude":"-95.11590","Snowdepth":"5.000","Units":"in","Rept_Date":"2020-12-29 14"},"coordinates":[669,5131]},{"type":"Point","properties":{"Station_ID":"VT-WS-30","Station_Nam":"WOODBURY 3.4 NNW, VT","Latitude":"44.48825","Longitude":"-72.43258","Snowdepth":"5.000","Units":"in","Rept_Date":"2020-12-29 12"},"coordinates":[7817,5510]},{"type":"Point","properties":{"Station_ID":"TOPN6","Station_Nam":"TUPPER LAKE SUNMOUNT","Latitude":"44.23070","Longitude":"-74.43820","Snowdepth":"5.000","Units":"in","Rept_Date":"2020-12-29 12"},"coordinates":[7185,5350]},{"type":"Point","properties":{"Station_ID":"THRM5","Station_Nam":"THORHULT,MN","Latitude":"48.21670","Longitude":"-95.25000","Snowdepth":"5.000","Units":"in","Rept_Date":"2020-12-29 23"},"coordinates":[627,7822]},{"type":"Point","properties":{"Station_ID":"THDP1","Station_Nam":"HILLSIDE GUN CLUB SNOW","Latitude":"41.66670","Longitude":"-77.03330","Snowdepth":"5.000","Units":"in","Rept_Date":"2020-12-29 15"},"coordinates":[6367,3760]},{"type":"Point","properties":{"Station_ID":"THAP1","Station_Nam":"TIOGA DAM SITE - SNOW","Latitude":"41.91670","Longitude":"-77.15000","Snowdepth":"5.000","Units":"in","Rept_Date":"2020-12-29 15"},"coordinates":[6330,3915]},{"type":"Point","properties":{"Station_ID":"TETM5","Station_Nam":"TETTEGOUCHE STATE PARK","Latitude":"47.33900","Longitude":"-91.19590","Snowdepth":"5.000","Units":"in","Rept_Date":"2020-12-29 14"},"coordinates":[1904,7278]},{"type":"Point","properties":{"Station_ID":"SWEI4","Station_Nam":"SWEA CITY,IA","Latitude":"43.38530","Longitude":"-94.25000","Snowdepth":"5.000","Units":"in","Rept_Date":"2020-12-29 12"},"coordinates":[942,4826]},{"type":"Point","properties":{"Station_ID":"STVP1","Station_Nam":"GEO B STEVENSON LAKE","Latitude":"41.40000","Longitude":"-78.01670","Snowdepth":"5.000","Units":"in","Rept_Date":"2020-12-29 12"},"coordinates":[6057,3595]},{"type":"Point","properties":{"Station_ID":"SBOP1","Station_Nam":"SPRINGBORO","Latitude":"41.81660","Longitude":"-80.43330","Snowdepth":"5.000","Units":"in","Rept_Date":"2020-12-29 12"},"coordinates":[5296,3853]},{"type":"Point","properties":{"Station_ID":"SBEW3","Station_Nam":"EXP. FARM","Latitude":"44.86670","Longitude":"-87.33330","Snowdepth":"5.000","Units":"in","Rept_Date":"2020-12-29 13"},"coordinates":[3121,5745]},{"type":"Point","properties":{"Station_ID":"QCAI2","Station_Nam":"MOLINE SNOW","Latitude":"41.39990","Longitude":"-90.54800","Snowdepth":"5.000","Units":"in","Rept_Date":"2020-12-30 06"},"coordinates":[2108,3595]},{"type":"Point","properties":{"Station_ID":"PA-PT-2","Station_Nam":"ROULETTE 1.8 NNE, PA","Latitude":"41.80759","Longitude":"-78.14140","Snowdepth":"5.000","Units":"in","Rept_Date":"2020-12-29 12"},"coordinates":[6018,3848]},{"type":"Point","properties":{"Station_ID":"PA-CW-8","Station_Nam":"SPRINGBORO 3.0 WNW, PA","Latitude":"41.81654","Longitude":"-80.42540","Snowdepth":"5.000","Units":"in","Rept_Date":"2020-12-29 12"},"coordinates":[5298,3853]},{"type":"Point","properties":{"Station_ID":"PA-BF-20","Station_Nam":"SAYRE 0.7 S, PA","Latitude":"41.97510","Longitude":"-76.52100","Snowdepth":"5.000","Units":"in","Rept_Date":"2020-12-29 12"},"coordinates":[6528,3952]},{"type":"Point","properties":{"Station_ID":"OCON6","Station_Nam":"OSCEOLA","Latitude":"43.50370","Longitude":"-75.72170","Snowdepth":"5.000","Units":"in","Rept_Date":"2020-12-29 13"},"coordinates":[6780,4899]},{"type":"Point","properties":{"Station_ID":"NY-TG-26","Station_Nam":"CANDOR 0.7 NW, NY","Latitude":"42.23428","Longitude":"-76.34758","Snowdepth":"5.000","Units":"in","Rept_Date":"2020-12-29 12"},"coordinates":[6583,4112]},{"type":"Point","properties":{"Station_ID":"NY-OG-72","Station_Nam":"LIVERPOOL 4.5 N, NY","Latitude":"43.17016","Longitude":"-76.22385","Snowdepth":"5.000","Units":"in","Rept_Date":"2020-12-29 15"},"coordinates":[6622,4693]},{"type":"Point","properties":{"Station_ID":"NY-FK-7","Station_Nam":"SARANAC LAKE 6.2 N, NY","Latitude":"44.41359","Longitude":"-74.15211","Snowdepth":"5.000","Units":"in","Rept_Date":"2020-12-29 12"},"coordinates":[7275,5464]},{"type":"Point","properties":{"Station_ID":"NY-ER-96","Station_Nam":"ELMA 2.7 WSW, NY","Latitude":"42.81004","Longitude":"-78.68130","Snowdepth":"5.000","Units":"in","Rept_Date":"2020-12-29 12"},"coordinates":[5848,4469]},{"type":"Point","properties":{"Station_ID":"NY-ER-189","Station_Nam":"HAMBURG 2.0 N, NY","Latitude":"42.75337","Longitude":"-78.83452","Snowdepth":"5.000","Units":"in","Rept_Date":"2020-12-29 12"},"coordinates":[5799,4434]},{"type":"Point","properties":{"Station_ID":"NY-CQ-22","Station_Nam":"FREDONIA 0.8 WNW, NY","Latitude":"42.44414","Longitude":"-79.34610","Snowdepth":"5.000","Units":"in","Rept_Date":"2020-12-29 10"},"coordinates":[5638,4242]},{"type":"Point","properties":{"Station_ID":"NUMM5","Station_Nam":"NEW ULM 3SE","Latitude":"44.29450","Longitude":"-94.40840","Snowdepth":"5.000","Units":"in","Rept_Date":"2020-12-29 12"},"coordinates":[892,5390]},{"type":"Point","properties":{"Station_ID":"MTLT1","Station_Nam":"GATLINBURG,TN","Latitude":"35.65500","Longitude":"-83.44110","Snowdepth":"5.000","Units":"in","Rept_Date":"2020-12-29 13"},"coordinates":[4348,32]},{"type":"Point","properties":{"Station_ID":"MN-SH-10","Station_Nam":"BIG LAKE 5.6 NNE, MN","Latitude":"45.41409","Longitude":"-93.69190","Snowdepth":"5.000","Units":"in","Rept_Date":"2020-12-29 13"},"coordinates":[1118,6084]},{"type":"Point","properties":{"Station_ID":"MN-SE-2","Station_Nam":"OWATONNA 0.8 E, MN","Latitude":"44.09170","Longitude":"-93.21380","Snowdepth":"5.000","Units":"in","Rept_Date":"2020-12-29 13"},"coordinates":[1268,5264]},{"type":"Point","properties":{"Station_ID":"MN-RM-15","Station_Nam":"ROSEVILLE 2.1 NW, MN","Latitude":"45.03502","Longitude":"-93.18620","Snowdepth":"5.000","Units":"in","Rept_Date":"2020-12-29 12"},"coordinates":[1277,5849]},{"type":"Point","properties":{"Station_ID":"MN-IT-17","Station_Nam":"GRAND RAPIDS 6.1 N, MN","Latitude":"47.31165","Longitude":"-93.55036","Snowdepth":"5.000","Units":"in","Rept_Date":"2020-12-29 13"},"coordinates":[1162,7261]},{"type":"Point","properties":{"Station_ID":"MN-GH-4","Station_Nam":"NERSTRAND 4.2 E, MN","Latitude":"44.34247","Longitude":"-92.97920","Snowdepth":"5.000","Units":"in","Rept_Date":"2020-12-29 13"},"coordinates":[1342,5420]},{"type":"Point","properties":{"Station_ID":"MN-DK-73","Station_Nam":"LAKEVILLE 2.6 NNE, MN","Latitude":"44.71250","Longitude":"-93.23043","Snowdepth":"5.000","Units":"in","Rept_Date":"2020-12-29 13"},"coordinates":[1263,5649]},{"type":"Point","properties":{"Station_ID":"MN-DK-53","Station_Nam":"LAKEVILLE 3.8 ENE, MN","Latitude":"44.70423","Longitude":"-93.18460","Snowdepth":"5.000","Units":"in","Rept_Date":"2020-12-29 13"},"coordinates":[1277,5644]},{"type":"Point","properties":{"Station_ID":"MLI","Station_Nam":"QUAD CITY INTL","Latitude":"41.44860","Longitude":"-90.50750","Snowdepth":"5.000","Units":"in","Rept_Date":"2020-12-30 00"},"coordinates":[2121,3625]},{"type":"Point","properties":{"Station_ID":"MIAM5","Station_Nam":"MILAN 1NW","Latitude":"45.12190","Longitude":"-95.92690","Snowdepth":"5.000","Units":"in","Rept_Date":"2020-12-30 00"},"coordinates":[413,5903]},{"type":"Point","properties":{"Station_ID":"MI-GT-21","Station_Nam":"KINGSLEY 2.7 ENE, MI","Latitude":"44.59871","Longitude":"-85.48426","Snowdepth":"5.000","Units":"in","Rept_Date":"2020-12-29 13"},"coordinates":[3704,5579]},{"type":"Point","properties":{"Station_ID":"LSNW3","Station_Nam":"LA CROSSE SNOW","Latitude":"43.86220","Longitude":"-91.26660","Snowdepth":"5.000","Units":"in","Rept_Date":"2020-12-30 06"},"coordinates":[1882,5122]},{"type":"Point","properties":{"Station_ID":"LPLN6","Station_Nam":"LAKE PLACID 2 S","Latitude":"44.30420","Longitude":"-73.98390","Snowdepth":"5.000","Units":"in","Rept_Date":"2020-12-29 13"},"coordinates":[7328,5396]},{"type":"Point","properties":{"Station_ID":"KGFK","Station_Nam":"GRAND FORKS INTERNATIONAL","Latitude":"47.95000","Longitude":"-97.18333","Snowdepth":"5.000","Units":"in","Rept_Date":"2020-12-30 06"},"coordinates":[17,7657]},{"type":"Point","properties":{"Station_ID":"KANP1","Station_Nam":"KANE,PA","Latitude":"41.68330","Longitude":"-78.80000","Snowdepth":"5.000","Units":"in","Rept_Date":"2020-12-29 12"},"coordinates":[5810,3771]},{"type":"Point","properties":{"Station_ID":"JCBM4","Station_Nam":"JACOBSVILLE","Latitude":"47.00830","Longitude":"-88.43180","Snowdepth":"5.000","Units":"in","Rept_Date":"2020-12-29 12"},"coordinates":[2775,7073]},{"type":"Point","properties":{"Station_ID":"GSDP1","Station_Nam":"PROUTY PLACE SP SNOW","Latitude":"41.65000","Longitude":"-77.91670","Snowdepth":"5.000","Units":"in","Rept_Date":"2020-12-29 16"},"coordinates":[6089,3750]},{"type":"Point","properties":{"Station_ID":"GSBP1","Station_Nam":"BROOKS RUN SNOW","Latitude":"41.41670","Longitude":"-78.05000","Snowdepth":"5.000","Units":"in","Rept_Date":"2020-12-29 16"},"coordinates":[6047,3605]},{"type":"Point","properties":{"Station_ID":"GSAP1","Station_Nam":"STEVENSON DAM SNOW","Latitude":"41.40000","Longitude":"-78.01670","Snowdepth":"5.000","Units":"in","Rept_Date":"2020-12-29 16"},"coordinates":[6057,3595]},{"type":"Point","properties":{"Station_ID":"GNEN6","Station_Nam":"GREENE","Latitude":"42.32440","Longitude":"-75.77170","Snowdepth":"5.000","Units":"in","Rept_Date":"2020-12-29 14"},"coordinates":[6764,4168]},{"type":"Point","properties":{"Station_ID":"GINI2","Station_Nam":"GENESEO","Latitude":"41.45110","Longitude":"-90.14870","Snowdepth":"5.000","Units":"in","Rept_Date":"2020-12-30 06"},"coordinates":[2234,3627]},{"type":"Point","properties":{"Station_ID":"FLAM4","Station_Nam":"FIFE LAKE 2WNW","Latitude":"44.58480","Longitude":"-85.36530","Snowdepth":"5.000","Units":"in","Rept_Date":"2020-12-29 12"},"coordinates":[3741,5570]},{"type":"Point","properties":{"Station_ID":"DLH","Station_Nam":"DULUTH, MN","Latitude":"46.83690","Longitude":"-92.21030","Snowdepth":"5.000","Units":"in","Rept_Date":"2020-12-30 00"},"coordinates":[1584,6967]},{"type":"Point","properties":{"Station_ID":"DBQ","Station_Nam":"DUBUQUE REGIONAL AIRPORT","Latitude":"42.40310","Longitude":"-90.70920","Snowdepth":"5.000","Units":"in","Rept_Date":"2020-12-30 00"},"coordinates":[2057,4217]},{"type":"Point","properties":{"Station_ID":"CSLM5","Station_Nam":"CASS LAKE,MN","Latitude":"47.38470","Longitude":"-94.61470","Snowdepth":"5.000","Units":"in","Rept_Date":"2020-12-29 14"},"coordinates":[827,7306]},{"type":"Point","properties":{"Station_ID":"COVP1","Station_Nam":"COVINGTON 2WSW","Latitude":"41.73330","Longitude":"-77.11670","Snowdepth":"5.000","Units":"in","Rept_Date":"2020-12-29 12"},"coordinates":[6341,3802]},{"type":"Point","properties":{"Station_ID":"CORN6","Station_Nam":"CORNING","Latitude":"42.13410","Longitude":"-77.06910","Snowdepth":"5.000","Units":"in","Rept_Date":"2020-12-29 12"},"coordinates":[6356,4050]},{"type":"Point","properties":{"Station_ID":"CNTP1","Station_Nam":"CANTON","Latitude":"41.65160","Longitude":"-76.84630","Snowdepth":"5.000","Units":"in","Rept_Date":"2020-12-29 13"},"coordinates":[6426,3751]},{"type":"Point","properties":{"Station_ID":"CHRO1","Station_Nam":"CHARDON,OH","Latitude":"41.58330","Longitude":"-81.18330","Snowdepth":"5.000","Units":"in","Rept_Date":"2020-12-29 13"},"coordinates":[5059,3709]},{"type":"Point","properties":{"Station_ID":"CHBM4","Station_Nam":"CHEBOYGAN","Latitude":"45.65270","Longitude":"-84.47250","Snowdepth":"5.000","Units":"in","Rept_Date":"2020-12-29 13"},"coordinates":[4023,6232]},{"type":"Point","properties":{"Station_ID":"CAAW2","Station_Nam":"CANAAN VALLEY","Latitude":"39.05890","Longitude":"-79.44030","Snowdepth":"5.000","Units":"in","Rept_Date":"2020-12-29 14"},"coordinates":[5608,2143]},{"type":"Point","properties":{"Station_ID":"BKEM5","Station_Nam":"BRECKENRIDGE 4NE","Latitude":"46.30470","Longitude":"-96.52170","Snowdepth":"5.000","Units":"in","Rept_Date":"2020-12-29 12"},"coordinates":[226,6636]},{"type":"Point","properties":{"Station_ID":"BKBW2","Station_Nam":"DAVIS.","Latitude":"39.09830","Longitude":"-79.43190","Snowdepth":"5.000","Units":"in","Rept_Date":"2020-12-29 12"},"coordinates":[5611,2168]},{"type":"Point","properties":{"Station_ID":"BDGP1","Station_Nam":"OLE BULL SP SNOW","Latitude":"41.53330","Longitude":"-77.71670","Snowdepth":"5.000","Units":"in","Rept_Date":"2020-12-29 18"},"coordinates":[6152,3678]},{"type":"Point","properties":{"Station_ID":"BDCP1","Station_Nam":"TAMARACK SOUTH SNOW","Latitude":"41.41670","Longitude":"-77.86670","Snowdepth":"5.000","Units":"in","Rept_Date":"2020-12-29 18"},"coordinates":[6104,3605]},{"type":"Point","properties":{"Station_ID":"BDBP1","Station_Nam":"LEADS HOLLOW SNOW","Latitude":"41.43330","Longitude":"-77.88330","Snowdepth":"5.000","Units":"in","Rept_Date":"2020-12-29 18"},"coordinates":[6099,3616]},{"type":"Point","properties":{"Station_ID":"BALN6","Station_Nam":"BALDWINSVILLE","Latitude":"43.15690","Longitude":"-76.33190","Snowdepth":"5.000","Units":"in","Rept_Date":"2020-12-29 12"},"coordinates":[6588,4684]},{"type":"Point","properties":{"Station_ID":"ARX","Station_Nam":"LA CROSSE, WI","Latitude":"43.82280","Longitude":"-91.19190","Snowdepth":"5.000","Units":"in","Rept_Date":"2020-12-30 06"},"coordinates":[1905,5097]},{"type":"Point","properties":{"Station_ID":"ARTM5","Station_Nam":"ARTICHOKE LAKE 1 E","Latitude":"45.38560","Longitude":"-96.12570","Snowdepth":"5.000","Units":"in","Rept_Date":"2020-12-30 00"},"coordinates":[351,6067]},{"type":"Point","properties":{"Station_ID":"APXM4","Station_Nam":"GAYLORD 9SSW","Latitude":"44.90720","Longitude":"-84.71880","Snowdepth":"5.000","Units":"in","Rept_Date":"2020-12-30 06"},"coordinates":[3945,5770]},{"type":"Point","properties":{"Station_ID":"APN","Station_Nam":"PHELPS COLLINS FIELD","Latitude":"45.07810","Longitude":"-83.56030","Snowdepth":"5.000","Units":"in","Rept_Date":"2020-12-30 00"},"coordinates":[4310,5876]},{"type":"Point","properties":{"Station_ID":"ALXI4","Station_Nam":"WATERLOO SNOW","Latitude":"42.53130","Longitude":"-92.37550","Snowdepth":"5.000","Units":"in","Rept_Date":"2020-12-30 06"},"coordinates":[1532,4296]},{"type":"Point","properties":{"Station_ID":"ALPM4","Station_Nam":"SNOW PAID OBSERVER FOR KAPN","Latitude":"45.03110","Longitude":"-83.55970","Snowdepth":"5.000","Units":"in","Rept_Date":"2020-12-29 18"},"coordinates":[4310,5847]},{"type":"Point","properties":{"Station_ID":"ADFN6","Station_Nam":"WEST ALMOND 2NNE SNOW","Latitude":"42.33330","Longitude":"-77.86670","Snowdepth":"5.000","Units":"in","Rept_Date":"2020-12-29 17"},"coordinates":[6104,4174]},{"type":"Point","properties":{"Station_ID":"ADEN6","Station_Nam":"WEST ALMOND 1E SNOW","Latitude":"42.30000","Longitude":"-77.86670","Snowdepth":"5.000","Units":"in","Rept_Date":"2020-12-29 17"},"coordinates":[6104,4153]},{"type":"Point","properties":{"Station_ID":"ADCN6","Station_Nam":"ALFRED 1NW SNOW","Latitude":"42.26670","Longitude":"-77.80000","Snowdepth":"5.000","Units":"in","Rept_Date":"2020-12-29 17"},"coordinates":[6125,4132]},{"type":"Point","properties":{"Station_ID":"41.8166_080.4333","Station_Nam":"3 WNW Springboro  Co-Op Observer (SBOP1)","Latitude":"41.81660","Longitude":"-80.43330","Snowdepth":"5.000","Units":"in","Rept_Date":"2020-12-29 12"},"coordinates":[5296,3853]},{"type":"Point","properties":{"Station_ID":"41.8165_080.4254","Station_Nam":"3 WNW Springboro  CoCoRaHS (PA-CW-8)","Latitude":"41.81650","Longitude":"-80.42540","Snowdepth":"5.000","Units":"in","Rept_Date":"2020-12-29 12"},"coordinates":[5298,3853]},{"type":"Point","properties":{"Station_ID":"41.7260_080.9910","Station_Nam":"3 E South Madison  Trained Spotter (CLE1474)","Latitude":"41.72602","Longitude":"-80.99102","Snowdepth":"5.000","Units":"in","Rept_Date":"2020-12-29 15"},"coordinates":[5120,3797]},{"type":"Point","properties":{"Station_ID":"41.6216_081.4916","Station_Nam":"EUCLID (CLE1130)","Latitude":"41.62160","Longitude":"-81.49160","Snowdepth":"5.000","Units":"in","Rept_Date":"2020-12-29 15"},"coordinates":[4962,3732]},{"type":"Point","properties":{"Station_ID":"41.5833_081.1833","Station_Nam":"1 NE CHARDON  CO-OP OBSERVER (CHRO1)","Latitude":"41.58330","Longitude":"-81.18330","Snowdepth":"5.000","Units":"in","Rept_Date":"2020-12-29 13"},"coordinates":[5059,3709]},{"type":"Point","properties":{"Station_ID":"41.5183_081.4792","Station_Nam":"1 ENE Lyndhurst  Trained Spotter (CLE1177)","Latitude":"41.51834","Longitude":"-81.47919","Snowdepth":"5.000","Units":"in","Rept_Date":"2020-12-29 15"},"coordinates":[4966,3668]},{"type":"Point","properties":{"Station_ID":"OH-AS-2","Station_Nam":"ASHLAND 3.9 SW, OH","Latitude":"40.83260","Longitude":"-82.37630","Snowdepth":"4.800","Units":"in","Rept_Date":"2020-12-29 13"},"coordinates":[4683,3243]},{"type":"Point","properties":{"Station_ID":"MI-AG-6","Station_Nam":"MUNISING 11.1 SSW, MI","Latitude":"46.27805","Longitude":"-86.75747","Snowdepth":"4.800","Units":"in","Rept_Date":"2020-12-29 12"},"coordinates":[3303,6620]},{"type":"Point","properties":{"Station_ID":"40.8326_082.3763","Station_Nam":"4 SW Ashland  CoCoRaHS (OH-AS-2)","Latitude":"40.83260","Longitude":"-82.37630","Snowdepth":"4.800","Units":"in","Rept_Date":"2020-12-29 13"},"coordinates":[4683,3243]},{"type":"Point","properties":{"Station_ID":"CAN-ON-784","Station_Nam":"KOMOKA 3.1 W, CAN","Latitude":"42.96000","Longitude":"-81.43805","Snowdepth":"4.700","Units":"in","Rept_Date":"2020-12-29 14"},"coordinates":[4979,4562]},{"type":"Point","properties":{"Station_ID":"PA-CR-1","Station_Nam":"EMPORIUM 2.6 S, PA","Latitude":"41.47342","Longitude":"-78.24330","Snowdepth":"4.600","Units":"in","Rept_Date":"2020-12-29 13"},"coordinates":[5986,3640]},{"type":"Point","properties":{"Station_ID":"MN-RM-121","Station_Nam":"ROSEVILLE 0.4 ENE, MN","Latitude":"45.01701","Longitude":"-93.14711","Snowdepth":"4.600","Units":"in","Rept_Date":"2020-12-29 15"},"coordinates":[1289,5838]},{"type":"Point","properties":{"Station_ID":"HPN19_MADIS","Station_Nam":"GREENFIELD","Latitude":"45.20343","Longitude":"-93.69130","Snowdepth":"4.550","Units":"in","Rept_Date":"2020-12-29 22"},"coordinates":[1118,5954]},{"type":"Point","properties":{"Station_ID":"WI-DR-5","Station_Nam":"ELLISON BAY 2.2 E, WI","Latitude":"45.25750","Longitude":"-87.02670","Snowdepth":"4.500","Units":"in","Rept_Date":"2020-12-29 13"},"coordinates":[3218,5987]},{"type":"Point","properties":{"Station_ID":"WI-BR-17","Station_Nam":"CLAYTON 2.9 ENE, WI","Latitude":"45.34073","Longitude":"-92.11158","Snowdepth":"4.500","Units":"in","Rept_Date":"2020-12-29 13"},"coordinates":[1616,6039]},{"type":"Point","properties":{"Station_ID":"WI-BN-6","Station_Nam":"SUAMICO 4.4 WNW, WI","Latitude":"44.66111","Longitude":"-88.11780","Snowdepth":"4.500","Units":"in","Rept_Date":"2020-12-29 13"},"coordinates":[2874,5617]},{"type":"Point","properties":{"Station_ID":"NY-OD-2","Station_Nam":"POINT ROCK 0.6 SE, NY","Latitude":"43.37335","Longitude":"-75.53840","Snowdepth":"4.500","Units":"in","Rept_Date":"2020-12-29 13"},"coordinates":[6838,4819]},{"type":"Point","properties":{"Station_ID":"NY-JF-42","Station_Nam":"EVANS MILLS 0.5 W, NY","Latitude":"44.08778","Longitude":"-75.81738","Snowdepth":"4.500","Units":"in","Rept_Date":"2020-12-29 13"},"coordinates":[6750,5262]},{"type":"Point","properties":{"Station_ID":"NY-FK-9","Station_Nam":"GABRIELS 1.3 SE, NY","Latitude":"44.41934","Longitude":"-74.16194","Snowdepth":"4.500","Units":"in","Rept_Date":"2020-12-29 12"},"coordinates":[7272,5467]},{"type":"Point","properties":{"Station_ID":"NY-ER-51","Station_Nam":"CLARENCE CENTER 0.9 N, NY","Latitude":"43.02117","Longitude":"-78.63099","Snowdepth":"4.500","Units":"in","Rept_Date":"2020-12-29 12"},"coordinates":[5863,4600]},{"type":"Point","properties":{"Station_ID":"NY-ER-158","Station_Nam":"EAST AURORA 2.7 SSE, NY","Latitude":"42.72936","Longitude":"-78.60561","Snowdepth":"4.500","Units":"in","Rept_Date":"2020-12-29 11"},"coordinates":[5871,4419]},{"type":"Point","properties":{"Station_ID":"NY-ER-138","Station_Nam":"EAST AURORA 3.4 NNE, NY","Latitude":"42.81400","Longitude":"-78.59670","Snowdepth":"4.500","Units":"in","Rept_Date":"2020-12-29 12"},"coordinates":[5874,4472]},{"type":"Point","properties":{"Station_ID":"NE-CA-4","Station_Nam":"ELMWOOD 3.4 WSW, NE","Latitude":"40.81849","Longitude":"-96.35093","Snowdepth":"4.500","Units":"in","Rept_Date":"2020-12-29 14"},"coordinates":[280,3234]},{"type":"Point","properties":{"Station_ID":"MN-WG-74","Station_Nam":"OAKDALE 0.4 S, MN","Latitude":"44.98208","Longitude":"-92.96510","Snowdepth":"4.500","Units":"in","Rept_Date":"2020-12-29 13"},"coordinates":[1347,5816]},{"type":"Point","properties":{"Station_ID":"MN-WC-5","Station_Nam":"WASECA 0.9 NNE, MN","Latitude":"44.09451","Longitude":"-93.49289","Snowdepth":"4.500","Units":"in","Rept_Date":"2020-12-29 13"},"coordinates":[1180,5266]},{"type":"Point","properties":{"Station_ID":"MN-HN-272","Station_Nam":"RICHFIELD 1.1 WSW, MN","Latitude":"44.87052","Longitude":"-93.30394","Snowdepth":"4.500","Units":"in","Rept_Date":"2020-12-29 13"},"coordinates":[1240,5747]},{"type":"Point","properties":{"Station_ID":"MN-DK-134","Station_Nam":"INVER GROVE HEIGHTS 1.0 S, MN","Latitude":"44.81010","Longitude":"-93.06196","Snowdepth":"4.500","Units":"in","Rept_Date":"2020-12-29 13"},"coordinates":[1316,5710]},{"type":"Point","properties":{"Station_ID":"MN-CW-54","Station_Nam":"AITKIN 9.6 W, MN","Latitude":"46.53711","Longitude":"-93.90688","Snowdepth":"4.500","Units":"in","Rept_Date":"2020-12-29 14"},"coordinates":[1050,6781]},{"type":"Point","properties":{"Station_ID":"MN-CW-44","Station_Nam":"CROSBY 1.1 SW, MN","Latitude":"46.47772","Longitude":"-93.97293","Snowdepth":"4.500","Units":"in","Rept_Date":"2020-12-29 13"},"coordinates":[1029,6744]},{"type":"Point","properties":{"Station_ID":"MN-BK-10","Station_Nam":"DETROIT LAKES 5.7 N, MN","Latitude":"46.88666","Longitude":"-95.84444","Snowdepth":"4.500","Units":"in","Rept_Date":"2020-12-29 13"},"coordinates":[439,6997]},{"type":"Point","properties":{"Station_ID":"MN-AT-5","Station_Nam":"TAMARACK 1.4 SW, MN","Latitude":"46.63760","Longitude":"-93.14554","Snowdepth":"4.500","Units":"in","Rept_Date":"2020-12-29 11"},"coordinates":[1290,6843]},{"type":"Point","properties":{"Station_ID":"HPN28_MADIS","Station_Nam":"CORCORAN","Latitude":"45.13550","Longitude":"-93.56270","Snowdepth":"4.500","Units":"in","Rept_Date":"2020-12-30 06"},"coordinates":[1158,5911]},{"type":"Point","properties":{"Station_ID":"HPN21_MADIS","Station_Nam":"FRIDLEY","Latitude":"45.04889","Longitude":"-93.27610","Snowdepth":"4.500","Units":"in","Rept_Date":"2020-12-30 06"},"coordinates":[1249,5858]},{"type":"Point","properties":{"Station_ID":"41.5844_081.2035","Station_Nam":"CHARDON (CLE1302)","Latitude":"41.58440","Longitude":"-81.20350","Snowdepth":"4.500","Units":"in","Rept_Date":"2020-12-29 14"},"coordinates":[5053,3709]},{"type":"Point","properties":{"Station_ID":"41.5186_080.2187","Station_Nam":"6 E Atlantic  Trained Spotter (CLE0352)","Latitude":"41.51859","Longitude":"-80.21871","Snowdepth":"4.500","Units":"in","Rept_Date":"2020-12-29 14"},"coordinates":[5363,3668]},{"type":"Point","properties":{"Station_ID":"QLM","Station_Nam":"QLM","Latitude":"48.92030","Longitude":"-70.25280","Snowdepth":"4.213","Units":"in","Rept_Date":"2020-12-29 12"},"coordinates":[8504,8259]},{"type":"Point","properties":{"Station_ID":"QTV","Station_Nam":"QTV","Latitude":"49.66000","Longitude":"-69.35690","Snowdepth":"4.173","Units":"in","Rept_Date":"2020-12-29 12"},"coordinates":[8786,8717]},{"type":"Point","properties":{"Station_ID":"QGT","Station_Nam":"QGT","Latitude":"49.64720","Longitude":"-67.62640","Snowdepth":"4.134","Units":"in","Rept_Date":"2020-12-29 12"},"coordinates":[9331,8709]},{"type":"Point","properties":{"Station_ID":"WWWW3","Station_Nam":"WAUPACA","Latitude":"44.35470","Longitude":"-89.05920","Snowdepth":"4.000","Units":"in","Rept_Date":"2020-12-29 12"},"coordinates":[2577,5427]},{"type":"Point","properties":{"Station_ID":"WSWN6","Station_Nam":"WARSAW","Latitude":"42.74220","Longitude":"-78.20850","Snowdepth":"4.000","Units":"in","Rept_Date":"2020-12-29 12"},"coordinates":[5997,4427]},{"type":"Point","properties":{"Station_ID":"WRTS2","Station_Nam":"WATERTOWN,SD","Latitude":"44.90280","Longitude":"-97.11360","Snowdepth":"4.000","Units":"in","Rept_Date":"2020-12-29 15"},"coordinates":[39,5767]},{"type":"Point","properties":{"Station_ID":"WPBN6","Station_Nam":"UPPER LISLE SNOW","Latitude":"42.40000","Longitude":"-75.96670","Snowdepth":"4.000","Units":"in","Rept_Date":"2020-12-29 13"},"coordinates":[6703,4215]},{"type":"Point","properties":{"Station_ID":"WLXP1","Station_Nam":"GLEN HAZEL,PA","Latitude":"41.56670","Longitude":"-78.60000","Snowdepth":"4.000","Units":"in","Rept_Date":"2020-12-29 12"},"coordinates":[5873,3698]},{"type":"Point","properties":{"Station_ID":"WI-BN-14","Station_Nam":"GREEN BAY 3.8 SSE, WI","Latitude":"44.46772","Longitude":"-87.97350","Snowdepth":"4.000","Units":"in","Rept_Date":"2020-12-29 13"},"coordinates":[2920,5497]},{"type":"Point","properties":{"Station_ID":"WI-AD-10","Station_Nam":"OXFORD 4.0 W, WI","Latitude":"43.78638","Longitude":"-89.64166","Snowdepth":"4.000","Units":"in","Rept_Date":"2020-12-29 14"},"coordinates":[2394,5075]},{"type":"Point","properties":{"Station_ID":"VT-CL-27","Station_Nam":"DANVILLE 0.4 N, VT","Latitude":"44.41769","Longitude":"-72.13936","Snowdepth":"4.000","Units":"in","Rept_Date":"2020-12-29 12"},"coordinates":[7909,5466]},{"type":"Point","properties":{"Station_ID":"VQAW3","Station_Nam":"VIROQUA","Latitude":"43.55970","Longitude":"-90.87560","Snowdepth":"4.000","Units":"in","Rept_Date":"2020-12-29 13"},"coordinates":[2005,4934]},{"type":"Point","properties":{"Station_ID":"THIP1","Station_Nam":"SAND ROAD SNOW","Latitude":"41.81670","Longitude":"-77.30000","Snowdepth":"4.000","Units":"in","Rept_Date":"2020-12-29 15"},"coordinates":[6283,3853]},{"type":"Point","properties":{"Station_ID":"THBP1","Station_Nam":"CANOE CREEK SNOW","Latitude":"41.83330","Longitude":"-77.03330","Snowdepth":"4.000","Units":"in","Rept_Date":"2020-12-29 15"},"coordinates":[6367,3864]},{"type":"Point","properties":{"Station_ID":"TCEM4","Station_Nam":"TRAVERSE CITY 5ESE","Latitude":"44.73370","Longitude":"-85.51180","Snowdepth":"4.000","Units":"in","Rept_Date":"2020-12-29 12"},"coordinates":[3695,5662]},{"type":"Point","properties":{"Station_ID":"STMM4","Station_Nam":"STAMBAUGH 2SSE","Latitude":"46.05550","Longitude":"-88.62780","Snowdepth":"4.000","Units":"in","Rept_Date":"2020-12-29 13"},"coordinates":[2713,6482]},{"type":"Point","properties":{"Station_ID":"STJM5","Station_Nam":"ST JAMES WWTP","Latitude":"43.99040","Longitude":"-94.61230","Snowdepth":"4.000","Units":"in","Rept_Date":"2020-12-29 14"},"coordinates":[828,5201]},{"type":"Point","properties":{"Station_ID":"STIM5","Station_Nam":"STILLWATER 2SW","Latitude":"45.04540","Longitude":"-92.85220","Snowdepth":"4.000","Units":"in","Rept_Date":"2020-12-29 14"},"coordinates":[1382,5856]},{"type":"Point","properties":{"Station_ID":"STIM4","Station_Nam":"ST IGNACE","Latitude":"45.86080","Longitude":"-84.71960","Snowdepth":"4.000","Units":"in","Rept_Date":"2020-12-29 12"},"coordinates":[3945,6361]},{"type":"Point","properties":{"Station_ID":"STGW3","Station_Nam":"ST GERMAIN","Latitude":"45.91550","Longitude":"-89.48940","Snowdepth":"4.000","Units":"in","Rept_Date":"2020-12-29 12"},"coordinates":[2442,6395]},{"type":"Point","properties":{"Station_ID":"SPRI4","Station_Nam":"SPIRIT LAKE","Latitude":"43.42310","Longitude":"-95.10000","Snowdepth":"4.000","Units":"in","Rept_Date":"2020-12-29 13"},"coordinates":[674,4849]},{"type":"Point","properties":{"Station_ID":"SILN6","Station_Nam":"SILVER CREEK","Latitude":"42.53800","Longitude":"-79.16990","Snowdepth":"4.000","Units":"in","Rept_Date":"2020-12-29 12"},"coordinates":[5694,4301]},{"type":"Point","properties":{"Station_ID":"SHIW3","Station_Nam":"SHIOCTON","Latitude":"44.43890","Longitude":"-88.58390","Snowdepth":"4.000","Units":"in","Rept_Date":"2020-12-29 13"},"coordinates":[2727,5479]},{"type":"Point","properties":{"Station_ID":"SHHW3","Station_Nam":"SHAWANO 2SSW","Latitude":"44.76310","Longitude":"-88.61830","Snowdepth":"4.000","Units":"in","Rept_Date":"2020-12-29 14"},"coordinates":[2716,5680]},{"type":"Point","properties":{"Station_ID":"SHDI4","Station_Nam":"SHELDON,IA","Latitude":"43.18080","Longitude":"-95.85280","Snowdepth":"4.000","Units":"in","Rept_Date":"2020-12-29 13"},"coordinates":[437,4699]},{"type":"Point","properties":{"Station_ID":"SEBM5","Station_Nam":"SEBEKA","Latitude":"46.62540","Longitude":"-95.09670","Snowdepth":"4.000","Units":"in","Rept_Date":"2020-12-29 13"},"coordinates":[675,6835]},{"type":"Point","properties":{"Station_ID":"REWM5","Station_Nam":"REDWOOD FALLS","Latitude":"44.54850","Longitude":"-95.09980","Snowdepth":"4.000","Units":"in","Rept_Date":"2020-12-29 13"},"coordinates":[674,5547]},{"type":"Point","properties":{"Station_ID":"PSHW3","Station_Nam":"PESHTIGO","Latitude":"45.02810","Longitude":"-87.73560","Snowdepth":"4.000","Units":"in","Rept_Date":"2020-12-29 13"},"coordinates":[2995,5845]},{"type":"Point","properties":{"Station_ID":"PLOW3","Station_Nam":"PLOVER","Latitude":"44.44280","Longitude":"-89.54530","Snowdepth":"4.000","Units":"in","Rept_Date":"2020-12-29 13"},"coordinates":[2424,5482]},{"type":"Point","properties":{"Station_ID":"PERV1","Station_Nam":"PERU","Latitude":"43.26670","Longitude":"-72.90000","Snowdepth":"4.000","Units":"in","Rept_Date":"2020-12-29 12"},"coordinates":[7669,4753]},{"type":"Point","properties":{"Station_ID":"PBAN8","Station_Nam":"SITE 1-3MI.N","Latitude":"48.97420","Longitude":"-97.23860","Snowdepth":"4.000","Units":"in","Rept_Date":"2020-12-29 13"},"coordinates":[0,8292]},{"type":"Point","properties":{"Station_ID":"OTTM5","Station_Nam":"OTTERTAIL,MN","Latitude":"46.41670","Longitude":"-95.56670","Snowdepth":"4.000","Units":"in","Rept_Date":"2020-12-29 23"},"coordinates":[527,6706]},{"type":"Point","properties":{"Station_ID":"ONAM4","Station_Nam":"ONAWAY 4N","Latitude":"45.41080","Longitude":"-84.22330","Snowdepth":"4.000","Units":"in","Rept_Date":"2020-12-29 23"},"coordinates":[4101,6082]},{"type":"Point","properties":{"Station_ID":"OH-PT-9","Station_Nam":"HIRAM 0.4 N, OH","Latitude":"41.31595","Longitude":"-81.14340","Snowdepth":"4.000","Units":"in","Rept_Date":"2020-12-29 13"},"coordinates":[5072,3543]},{"type":"Point","properties":{"Station_ID":"OH-GG-11","Station_Nam":"MADISON 4.2 S, OH","Latitude":"41.71238","Longitude":"-81.03871","Snowdepth":"4.000","Units":"in","Rept_Date":"2020-12-29 12"},"coordinates":[5105,3789]},{"type":"Point","properties":{"Station_ID":"NY-HR-16","Station_Nam":"ILION 0.7 WSW, NY","Latitude":"43.00880","Longitude":"-75.05390","Snowdepth":"4.000","Units":"in","Rept_Date":"2020-12-29 14"},"coordinates":[6991,4593]},{"type":"Point","properties":{"Station_ID":"NY-ER-63","Station_Nam":"GLENWOOD 1.5 SE, NY","Latitude":"42.60195","Longitude":"-78.63910","Snowdepth":"4.000","Units":"in","Rept_Date":"2020-12-29 13"},"coordinates":[5861,4340]},{"type":"Point","properties":{"Station_ID":"NY-CQ-39","Station_Nam":"GERRY 0.8 N, NY","Latitude":"42.20500","Longitude":"-79.24700","Snowdepth":"4.000","Units":"in","Rept_Date":"2020-12-29 13"},"coordinates":[5669,4094]},{"type":"Point","properties":{"Station_ID":"NY-CQ-34","Station_Nam":"KENNEDY 2.6 SE, NY","Latitude":"42.12567","Longitude":"-79.07235","Snowdepth":"4.000","Units":"in","Rept_Date":"2020-12-29 13"},"coordinates":[5724,4045]},{"type":"Point","properties":{"Station_ID":"NY-CQ-27","Station_Nam":"SILVER CREEK 1.0 SSE, NY","Latitude":"42.53088","Longitude":"-79.15986","Snowdepth":"4.000","Units":"in","Rept_Date":"2020-12-29 11"},"coordinates":[5697,4296]},{"type":"Point","properties":{"Station_ID":"NPTM4","Station_Nam":"NORTHPORT 2W","Latitude":"45.13220","Longitude":"-85.64720","Snowdepth":"4.000","Units":"in","Rept_Date":"2020-12-29 13"},"coordinates":[3653,5909]},{"type":"Point","properties":{"Station_ID":"NONW3","Station_Nam":"NEW LONDON","Latitude":"44.35890","Longitude":"-88.71890","Snowdepth":"4.000","Units":"in","Rept_Date":"2020-12-29 12"},"coordinates":[2685,5430]},{"type":"Point","properties":{"Station_ID":"NH-MR-4","Station_Nam":"BOW 1.6 NW, NH","Latitude":"43.14994","Longitude":"-71.55650","Snowdepth":"4.000","Units":"in","Rept_Date":"2020-12-29 12"},"coordinates":[8093,4680]},{"type":"Point","properties":{"Station_ID":"NE-SW-7","Station_Nam":"SEWARD 0.5 NE, NE","Latitude":"40.91689","Longitude":"-97.08981","Snowdepth":"4.000","Units":"in","Rept_Date":"2020-12-29 13"},"coordinates":[47,3295]},{"type":"Point","properties":{"Station_ID":"NE-LA-41","Station_Nam":"MALCOLM 0.3 SSE, NE","Latitude":"40.90461","Longitude":"-96.86279","Snowdepth":"4.000","Units":"in","Rept_Date":"2020-12-29 15"},"coordinates":[118,3288]},{"type":"Point","properties":{"Station_ID":"NCBN6","Station_Nam":"NEWCOMB","Latitude":"43.97070","Longitude":"-74.22200","Snowdepth":"4.000","Units":"in","Rept_Date":"2020-12-29 13"},"coordinates":[7253,5189]},{"type":"Point","properties":{"Station_ID":"MWN","Station_Nam":"MOUNT WASHINGTON","Latitude":"44.26670","Longitude":"-71.30000","Snowdepth":"4.000","Units":"in","Rept_Date":"2020-12-29 12"},"coordinates":[8174,5373]},{"type":"Point","properties":{"Station_ID":"MSN","Station_Nam":"MADISON DANE COUNTY RGNL","Latitude":"43.13970","Longitude":"-89.33750","Snowdepth":"4.000","Units":"in","Rept_Date":"2020-12-30 00"},"coordinates":[2490,4674]},{"type":"Point","properties":{"Station_ID":"MRIW3","Station_Nam":"MARINETTE","Latitude":"45.09830","Longitude":"-87.62360","Snowdepth":"4.000","Units":"in","Rept_Date":"2020-12-29 13"},"coordinates":[3030,5888]},{"type":"Point","properties":{"Station_ID":"MN-TD-12","Station_Nam":"LONG PRAIRIE 2.1 NNE, MN","Latitude":"46.00588","Longitude":"-94.84649","Snowdepth":"4.000","Units":"in","Rept_Date":"2020-12-29 14"},"coordinates":[754,6451]},{"type":"Point","properties":{"Station_ID":"MN-SH-985","Station_Nam":"PRINCETON 3.3 WSW, MN","Latitude":"45.55211","Longitude":"-93.64481","Snowdepth":"4.000","Units":"in","Rept_Date":"2020-12-29 10"},"coordinates":[1132,6170]},{"type":"Point","properties":{"Station_ID":"MN-RM-63","Station_Nam":"NORTH SAINT PAUL 1.0 NW, MN","Latitude":"45.02410","Longitude":"-93.01400","Snowdepth":"4.000","Units":"in","Rept_Date":"2020-12-29 13"},"coordinates":[1331,5842]},{"type":"Point","properties":{"Station_ID":"MN-RC-38","Station_Nam":"FARIBAULT 1.6 S, MN","Latitude":"44.27639","Longitude":"-93.27306","Snowdepth":"4.000","Units":"in","Rept_Date":"2020-12-29 13"},"coordinates":[1250,5379]},{"type":"Point","properties":{"Station_ID":"MN-MR-13","Station_Nam":"LITTLE FALLS 8.0 NE, MN","Latitude":"46.06785","Longitude":"-94.24789","Snowdepth":"4.000","Units":"in","Rept_Date":"2020-12-29 13"},"coordinates":[942,6490]},{"type":"Point","properties":{"Station_ID":"MN-MK-11","Station_Nam":"DASSEL 0.4 S, MN","Latitude":"45.07765","Longitude":"-94.31567","Snowdepth":"4.000","Units":"in","Rept_Date":"2020-12-29 13"},"coordinates":[921,5876]},{"type":"Point","properties":{"Station_ID":"MN-HN-78","Station_Nam":"RICHFIELD 1.9 WNW, MN","Latitude":"44.89129","Longitude":"-93.31410","Snowdepth":"4.000","Units":"in","Rept_Date":"2020-12-29 11"},"coordinates":[1237,5760]},{"type":"Point","properties":{"Station_ID":"MN-HN-110","Station_Nam":"EDINA 1.9 SSE, MN","Latitude":"44.86875","Longitude":"-93.33940","Snowdepth":"4.000","Units":"in","Rept_Date":"2020-12-29 13"},"coordinates":[1229,5746]},{"type":"Point","properties":{"Station_ID":"MN-DK-70","Station_Nam":"EAGAN 2.0 NNW, MN","Latitude":"44.84322","Longitude":"-93.17899","Snowdepth":"4.000","Units":"in","Rept_Date":"2020-12-29 13"},"coordinates":[1279,5730]},{"type":"Point","properties":{"Station_ID":"MN-DK-104","Station_Nam":"HASTINGS 1.6 NW, MN","Latitude":"44.74458","Longitude":"-92.88035","Snowdepth":"4.000","Units":"in","Rept_Date":"2020-12-29 13"},"coordinates":[1373,5669]},{"type":"Point","properties":{"Station_ID":"MN-BW-8","Station_Nam":"COMFREY 6.5 ENE, MN","Latitude":"44.15109","Longitude":"-94.78516","Snowdepth":"4.000","Units":"in","Rept_Date":"2020-12-29 13"},"coordinates":[773,5301]},{"type":"Point","properties":{"Station_ID":"MI-SH-1","Station_Nam":"MANISTIQUE 2.7 NW, MI","Latitude":"45.99042","Longitude":"-86.28266","Snowdepth":"4.000","Units":"in","Rept_Date":"2020-12-29 11"},"coordinates":[3452,6442]},{"type":"Point","properties":{"Station_ID":"MI-MC-4","Station_Nam":"ST. IGNACE 0.5SE, MI","Latitude":"45.86057","Longitude":"-84.71980","Snowdepth":"4.000","Units":"in","Rept_Date":"2020-12-29 12"},"coordinates":[3945,6361]},{"type":"Point","properties":{"Station_ID":"MI-GT-25","Station_Nam":"TRAVERSE CITY 4.7 ESE, MI","Latitude":"44.73370","Longitude":"-85.51189","Snowdepth":"4.000","Units":"in","Rept_Date":"2020-12-29 12"},"coordinates":[3695,5662]},{"type":"Point","properties":{"Station_ID":"MI-CX-7","Station_Nam":"EAST JORDAN 2.1 NNW, MI","Latitude":"45.18639","Longitude":"-85.14750","Snowdepth":"4.000","Units":"in","Rept_Date":"2020-12-29 13"},"coordinates":[3810,5943]},{"type":"Point","properties":{"Station_ID":"MI-BN-5","Station_Nam":"BUCHANAN 1.3 WNW, MI","Latitude":"41.83634","Longitude":"-86.38900","Snowdepth":"4.000","Units":"in","Rept_Date":"2020-12-29 12"},"coordinates":[3419,3865]},{"type":"Point","properties":{"Station_ID":"MAPM4","Station_Nam":"MAPLE CITY 1E","Latitude":"44.85500","Longitude":"-85.83520","Snowdepth":"4.000","Units":"in","Rept_Date":"2020-12-30 02"},"coordinates":[3593,5737]},{"type":"Point","properties":{"Station_ID":"LSE","Station_Nam":"LA CROSSE MUNICIPAL AIRPORT","Latitude":"43.87920","Longitude":"-91.25610","Snowdepth":"4.000","Units":"in","Rept_Date":"2020-12-30 00"},"coordinates":[1885,5132]},