{"type":"Topology","objects":{"snowdepth_geo":{"type":"GeometryCollection","name":"snowdepth","crs":{"type":"name","properties":{"name":"urn:ogc:def:crs:OGC:1.3:CRS84"}},"geometries":[{"type":"Point","properties":{"Station_ID":"PRKM4","Station_Nam":"MUNISING EAST","Latitude":"46.42580","Longitude":"-86.62000","Snowdepth":"76.500","Units":"in","Rept_Date":"2020-12-26 06"},"coordinates":[3299,6929]},{"type":"Point","properties":{"Station_ID":"TRIQ6","Station_Nam":"TRIO LAKE","Latitude":"49.22880","Longitude":"-87.22920","Snowdepth":"27.830","Units":"in","Rept_Date":"2020-12-26 06"},"coordinates":[3110,8552]},{"type":"Point","properties":{"Station_ID":"AUDQ6","Station_Nam":"AUDEN","Latitude":"48.52600","Longitude":"-82.57570","Snowdepth":"27.560","Units":"in","Rept_Date":"2020-12-26 06"},"coordinates":[4556,8146]},{"type":"Point","properties":{"Station_ID":"41.8791_080.8570","Station_Nam":"2 WSW Harbor  Trained Spotter (CLE1475)","Latitude":"41.87906","Longitude":"-80.85702","Snowdepth":"25.000","Units":"in","Rept_Date":"2020-12-26 02"},"coordinates":[5090,4297]},{"type":"Point","properties":{"Station_ID":"PTLQ6","Station_Nam":"PORTAGE LAKE","Latitude":"49.06950","Longitude":"-86.65940","Snowdepth":"24.760","Units":"in","Rept_Date":"2020-12-26 06"},"coordinates":[3287,8460]},{"type":"Point","properties":{"Station_ID":"42.0231_080.0856","Station_Nam":"3 ENE McKean  Trained Spotter (X4200801)","Latitude":"42.02314","Longitude":"-80.08558","Snowdepth":"22.500","Units":"in","Rept_Date":"2020-12-26 00"},"coordinates":[5329,4380]},{"type":"Point","properties":{"Station_ID":"DVLQ6","Station_Nam":"DEVIOUS LAKE","Latitude":"49.19890","Longitude":"-87.76440","Snowdepth":"22.280","Units":"in","Rept_Date":"2020-12-26 06"},"coordinates":[2944,8535]},{"type":"Point","properties":{"Station_ID":"41.8723_080.7363","Station_Nam":"Edgewood  Trained Spotter (X4190807)","Latitude":"41.87235","Longitude":"-80.73632","Snowdepth":"20.000","Units":"in","Rept_Date":"2020-12-26 02"},"coordinates":[5127,4293]},{"type":"Point","properties":{"Station_ID":"QOU","Station_Nam":"QOU","Latitude":"50.79250","Longitude":"-69.67470","Snowdepth":"19.528","Units":"in","Rept_Date":"2020-12-25 12"},"coordinates":[8564,9458]},{"type":"Point","properties":{"Station_ID":"NH-MR-6","Station_Nam":"DANBURY 2.2 ESE, NH","Latitude":"43.52000","Longitude":"-71.81900","Snowdepth":"19.500","Units":"in","Rept_Date":"2020-12-25 13"},"coordinates":[7898,5247]},{"type":"Point","properties":{"Station_ID":"NY-CM-3","Station_Nam":"ELMIRA 1.3 ESE, NY","Latitude":"42.08390","Longitude":"-76.78810","Snowdepth":"19.000","Units":"in","Rept_Date":"2020-12-25 12"},"coordinates":[6354,4415]},{"type":"Point","properties":{"Station_ID":"41.7685_081.0699","Station_Nam":"1 WSW Madison  Trained Spotter (CLE1252)","Latitude":"41.76851","Longitude":"-81.06988","Snowdepth":"19.000","Units":"in","Rept_Date":"2020-12-26 00"},"coordinates":[5024,4233]},{"type":"Point","properties":{"Station_ID":"IWOM4","Station_Nam":"IRONWOOD#2","Latitude":"46.46520","Longitude":"-90.13820","Snowdepth":"18.000","Units":"in","Rept_Date":"2020-12-25 13"},"coordinates":[2206,6952]},{"type":"Point","properties":{"Station_ID":"HURW3","Station_Nam":"HURLEY","Latitude":"46.46250","Longitude":"-90.19550","Snowdepth":"18.000","Units":"in","Rept_Date":"2020-12-25 14"},"coordinates":[2188,6951]},{"type":"Point","properties":{"Station_ID":"SNOW2","Station_Nam":"SNOWSHOE","Latitude":"38.39900","Longitude":"-79.99490","Snowdepth":"17.000","Units":"in","Rept_Date":"2020-12-25 11"},"coordinates":[5358,2281]},{"type":"Point","properties":{"Station_ID":"PDLM4","Station_Nam":"PAINESDALE","Latitude":"47.04160","Longitude":"-88.67170","Snowdepth":"17.000","Units":"in","Rept_Date":"2020-12-25 13"},"coordinates":[2662,7286]},{"type":"Point","properties":{"Station_ID":"42.1173_079.8962","Station_Nam":"4 W Colt Station  Trained Spotter (CLE0298)","Latitude":"42.11734","Longitude":"-79.89615","Snowdepth":"17.000","Units":"in","Rept_Date":"2020-12-26 01"},"coordinates":[5388,4435]},{"type":"Point","properties":{"Station_ID":"42.0800_080.0143","Station_Nam":"ERIE 5SE  SNOW SPOTTER (X4210800)","Latitude":"42.08000","Longitude":"-80.01430","Snowdepth":"17.000","Units":"in","Rept_Date":"2020-12-26 00"},"coordinates":[5352,4413]},{"type":"Point","properties":{"Station_ID":"41.9492_079.7821","Station_Nam":"AMITY TWP (CLE0216)","Latitude":"41.94920","Longitude":"-79.78210","Snowdepth":"17.000","Units":"in","Rept_Date":"2020-12-26 01"},"coordinates":[5424,4337]},{"type":"Point","properties":{"Station_ID":"41.6972_080.9056","Station_Nam":"3 ENE Trumbull  Trained Spotter (CLE1480)","Latitude":"41.69720","Longitude":"-80.90557","Snowdepth":"17.000","Units":"in","Rept_Date":"2020-12-25 21"},"coordinates":[5075,4191]},{"type":"Point","properties":{"Station_ID":"41.6825_081.2331","Station_Nam":"1 NW Concord  Trained Spotter (CLE1259)","Latitude":"41.68248","Longitude":"-81.23310","Snowdepth":"17.000","Units":"in","Rept_Date":"2020-12-26 01"},"coordinates":[4973,4183]},{"type":"Point","properties":{"Station_ID":"41.6807_081.2654","Station_Nam":"2 WNW Concord  Trained Spotter (CLE1255)","Latitude":"41.68070","Longitude":"-81.26535","Snowdepth":"17.000","Units":"in","Rept_Date":"2020-12-26 02"},"coordinates":[4963,4182]},{"type":"Point","properties":{"Station_ID":"41.6522_081.3097","Station_Nam":"1 NNE Kirtland Hills  Trained Spotter (X4170813)","Latitude":"41.65218","Longitude":"-81.30974","Snowdepth":"17.000","Units":"in","Rept_Date":"2020-12-26 00"},"coordinates":[4949,4165]},{"type":"Point","properties":{"Station_ID":"QLB","Station_Nam":"QLB","Latitude":"50.72360","Longitude":"-75.10000","Snowdepth":"16.968","Units":"in","Rept_Date":"2020-12-25 12"},"coordinates":[6878,9418]},{"type":"Point","properties":{"Station_ID":"QGO","Station_Nam":"QGO","Latitude":"48.85500","Longitude":"-74.20640","Snowdepth":"16.457","Units":"in","Rept_Date":"2020-12-25 12"},"coordinates":[7156,8336]},{"type":"Point","properties":{"Station_ID":"OGIQ6","Station_Nam":"OGOKI CAMP","Latitude":"50.76680","Longitude":"-87.85820","Snowdepth":"16.420","Units":"in","Rept_Date":"2020-12-26 06"},"coordinates":[2914,9443]},{"type":"Point","properties":{"Station_ID":"QTM","Station_Nam":"QTM","Latitude":"51.05780","Longitude":"-72.57190","Snowdepth":"16.220","Units":"in","Rept_Date":"2020-12-25 12"},"coordinates":[7664,9612]},{"type":"Point","properties":{"Station_ID":"OH-CY-58","Station_Nam":"SOUTH EUCLID 0.2 ESE, OH","Latitude":"41.52358","Longitude":"-81.52191","Snowdepth":"16.200","Units":"in","Rept_Date":"2020-12-25 13"},"coordinates":[4883,4091]},{"type":"Point","properties":{"Station_ID":"QNCM4","Station_Nam":"QUINCY HILL","Latitude":"47.13640","Longitude":"-88.57950","Snowdepth":"16.000","Units":"in","Rept_Date":"2020-12-25 13"},"coordinates":[2690,7341]},{"type":"Point","properties":{"Station_ID":"CLUM4","Station_Nam":"CALUMET-TAMARACK","Latitude":"47.24550","Longitude":"-88.46790","Snowdepth":"16.000","Units":"in","Rept_Date":"2020-12-25 14"},"coordinates":[2725,7404]},{"type":"Point","properties":{"Station_ID":"42.1284_079.8945","Station_Nam":"NORTHEAST 6SW (CLE0249)","Latitude":"42.12840","Longitude":"-79.89450","Snowdepth":"16.000","Units":"in","Rept_Date":"2020-12-25 22"},"coordinates":[5389,4441]},{"type":"Point","properties":{"Station_ID":"42.0131_080.3276","Station_Nam":"1 NNW Girard  Trained Spotter (CLE0196)","Latitude":"42.01312","Longitude":"-80.32758","Snowdepth":"16.000","Units":"in","Rept_Date":"2020-12-25 21"},"coordinates":[5254,4374]},{"type":"Point","properties":{"Station_ID":"41.9996_080.1669","Station_Nam":"MCKEAN  SNOW SPOTTER (X4200802)","Latitude":"41.99960","Longitude":"-80.16690","Snowdepth":"16.000","Units":"in","Rept_Date":"2020-12-25 23"},"coordinates":[5304,4366]},{"type":"Point","properties":{"Station_ID":"41.7300_080.9476","Station_Nam":"GENEVA 7S  SNOW SPOTTER (X4170809)","Latitude":"41.73000","Longitude":"-80.94760","Snowdepth":"16.000","Units":"in","Rept_Date":"2020-12-26 02"},"coordinates":[5062,4210]},{"type":"Point","properties":{"Station_ID":"41.7260_080.9910","Station_Nam":"3 E South Madison  Trained Spotter (CLE1474)","Latitude":"41.72602","Longitude":"-80.99102","Snowdepth":"16.000","Units":"in","Rept_Date":"2020-12-26 02"},"coordinates":[5048,4208]},{"type":"Point","properties":{"Station_ID":"41.5904_081.3914","Station_Nam":"1 S Waite Hill  Trained Spotter (CLE1261)","Latitude":"41.59042","Longitude":"-81.39139","Snowdepth":"16.000","Units":"in","Rept_Date":"2020-12-26 02"},"coordinates":[4924,4129]},{"type":"Point","properties":{"Station_ID":"41.5183_081.4792","Station_Nam":"1 ENE Lyndhurst  Trained Spotter (CLE1177)","Latitude":"41.51834","Longitude":"-81.47919","Snowdepth":"16.000","Units":"in","Rept_Date":"2020-12-25 14"},"coordinates":[4896,4088]},{"type":"Point","properties":{"Station_ID":"41.4746_081.5687","Station_Nam":"1 W Shaker Heights  Trained Spotter (CLE1179)","Latitude":"41.47460","Longitude":"-81.56872","Snowdepth":"16.000","Units":"in","Rept_Date":"2020-12-26 01"},"coordinates":[4869,4062]},{"type":"Point","properties":{"Station_ID":"41.6613_081.2084","Station_Nam":"1 SE Concord  Trained Spotter (X4170812)","Latitude":"41.66133","Longitude":"-81.20838","Snowdepth":"15.300","Units":"in","Rept_Date":"2020-12-26 01"},"coordinates":[4981,4170]},{"type":"Point","properties":{"Station_ID":"41.7115_081.0271","Station_Nam":"SOUTH MADISON (CLE1233)","Latitude":"41.71150","Longitude":"-81.02710","Snowdepth":"15.000","Units":"in","Rept_Date":"2020-12-25 20"},"coordinates":[5037,4200]},{"type":"Point","properties":{"Station_ID":"41.6781_081.2971","Station_Nam":"2 ESE Mentor  Trained Spotter (CLE1260)","Latitude":"41.67808","Longitude":"-81.29714","Snowdepth":"15.000","Units":"in","Rept_Date":"2020-12-26 01"},"coordinates":[4953,4180]},{"type":"Point","properties":{"Station_ID":"41.5236_081.5219","Station_Nam":"South Euclid  Trained Spotter (CLE1186)","Latitude":"41.52356","Longitude":"-81.52192","Snowdepth":"15.000","Units":"in","Rept_Date":"2020-12-26 01"},"coordinates":[4883,4091]},{"type":"Point","properties":{"Station_ID":"MLZ","Station_Nam":"MLZ","Latitude":"50.66170","Longitude":"-68.82360","Snowdepth":"14.291","Units":"in","Rept_Date":"2020-12-25 12"},"coordinates":[8828,9382]},{"type":"Point","properties":{"Station_ID":"OH-AB-13","Station_Nam":"ASHTABULA 1.2 ESE, OH","Latitude":"41.87478","Longitude":"-80.77541","Snowdepth":"14.000","Units":"in","Rept_Date":"2020-12-25 12"},"coordinates":[5115,4294]},{"type":"Point","properties":{"Station_ID":"KSGM4","Station_Nam":"KEARSARGE","Latitude":"47.27520","Longitude":"-88.41700","Snowdepth":"14.000","Units":"in","Rept_Date":"2020-12-25 13"},"coordinates":[2741,7421]},{"type":"Point","properties":{"Station_ID":"42.2002_079.8021","Station_Nam":"2 ESE North East  Trained Spotter (CLE0183)","Latitude":"42.20018","Longitude":"-79.80210","Snowdepth":"14.000","Units":"in","Rept_Date":"2020-12-26 00"},"coordinates":[5417,4483]},{"type":"Point","properties":{"Station_ID":"42.0452_080.3039","Station_Nam":"LAKE CITY  SNOW SPOTTER (CLE0157)","Latitude":"42.04520","Longitude":"-80.30390","Snowdepth":"14.000","Units":"in","Rept_Date":"2020-12-25 23"},"coordinates":[5262,4393]},{"type":"Point","properties":{"Station_ID":"41.9208_080.5841","Station_Nam":"CONNEAUT  SNOW SPOTTER (CLE1454)","Latitude":"41.92080","Longitude":"-80.58410","Snowdepth":"14.000","Units":"in","Rept_Date":"2020-12-26 00"},"coordinates":[5175,4321]},{"type":"Point","properties":{"Station_ID":"41.8478_080.6111","Station_Nam":"4 SSW CONNEAUT I-90  TRAINED SPOTTER (CLE1457)","Latitude":"41.84780","Longitude":"-80.61110","Snowdepth":"14.000","Units":"in","Rept_Date":"2020-12-26 00"},"coordinates":[5166,4278]},{"type":"Point","properties":{"Station_ID":"41.8275_080.5321","Station_Nam":"MONROE TWP  SNOW SPOTTER (X4180805)","Latitude":"41.82750","Longitude":"-80.53210","Snowdepth":"14.000","Units":"in","Rept_Date":"2020-12-25 23"},"coordinates":[5191,4267]},{"type":"Point","properties":{"Station_ID":"41.6898_081.3089","Station_Nam":"1 E Mentor  Trained Spotter (CLE1214)","Latitude":"41.68981","Longitude":"-81.30887","Snowdepth":"14.000","Units":"in","Rept_Date":"2020-12-26 01"},"coordinates":[4949,4187]},{"type":"Point","properties":{"Station_ID":"41.5844_081.2035","Station_Nam":"CHARDON (CLE1302)","Latitude":"41.58440","Longitude":"-81.20350","Snowdepth":"14.000","Units":"in","Rept_Date":"2020-12-26 00"},"coordinates":[4982,4126]},{"type":"Point","properties":{"Station_ID":"41.4948_081.5867","Station_Nam":"2 SW Cleveland Heights  Trained Spotter (CLE1181)","Latitude":"41.49481","Longitude":"-81.58671","Snowdepth":"14.000","Units":"in","Rept_Date":"2020-12-25 23"},"coordinates":[4863,4074]},{"type":"Point","properties":{"Station_ID":"NC-MS-22","Station_Nam":"HOT SPRINGS 6.5 SW, NC","Latitude":"35.82765","Longitude":"-82.91419","Snowdepth":"13.600","Units":"in","Rept_Date":"2020-12-25 14"},"coordinates":[4451,792]},{"type":"Point","properties":{"Station_ID":"KABQ6","Station_Nam":"CAB LAKE","Latitude":"49.59950","Longitude":"-89.17990","Snowdepth":"13.070","Units":"in","Rept_Date":"2020-12-26 06"},"coordinates":[2504,8767]},{"type":"Point","properties":{"Station_ID":"WLFM5","Station_Nam":"WOLF RIDGE ENVIRON LEARNING CENTER","Latitude":"47.38240","Longitude":"-91.19730","Snowdepth":"13.000","Units":"in","Rept_Date":"2020-12-25 13"},"coordinates":[1877,7483]},{"type":"Point","properties":{"Station_ID":"MTLT1","Station_Nam":"GATLINBURG,TN","Latitude":"35.65500","Longitude":"-83.44110","Snowdepth":"13.000","Units":"in","Rept_Date":"2020-12-25 13"},"coordinates":[4287,692]},{"type":"Point","properties":{"Station_ID":"MN-SL-15","Station_Nam":"CHISHOLM 0.4 WSW, MN","Latitude":"47.48557","Longitude":"-92.88690","Snowdepth":"13.000","Units":"in","Rept_Date":"2020-12-25 13"},"coordinates":[1352,7543]},{"type":"Point","properties":{"Station_ID":"HTLN3","Station_Nam":"HERMIT LAKE SNOWPLOT","Latitude":"44.26130","Longitude":"-71.28330","Snowdepth":"13.000","Units":"in","Rept_Date":"2020-12-25 10"},"coordinates":[8064,5676]},{"type":"Point","properties":{"Station_ID":"41.8838_080.8561","Station_Nam":"ASHTABULA-SAYBROOK  SNOW SPOTTER (CLE1463)","Latitude":"41.88380","Longitude":"-80.85610","Snowdepth":"13.000","Units":"in","Rept_Date":"2020-12-26 01"},"coordinates":[5090,4299]},{"type":"Point","properties":{"Station_ID":"41.8605_080.7684","Station_Nam":"ASHTABULA  SNOW SPOTTER (CLE1449)","Latitude":"41.86050","Longitude":"-80.76840","Snowdepth":"13.000","Units":"in","Rept_Date":"2020-12-25 22"},"coordinates":[5117,4286]},{"type":"Point","properties":{"Station_ID":"41.6440_081.0900","Station_Nam":"THOMPSON 5SW  SNOW SPOTTER (CLE1329)","Latitude":"41.64400","Longitude":"-81.09000","Snowdepth":"13.000","Units":"in","Rept_Date":"2020-12-26 01"},"coordinates":[5017,4160]},{"type":"Point","properties":{"Station_ID":"41.4330_081.4097","Station_Nam":"CHAGRIN FALLS  SNOW SPOTTER (CLE1172)","Latitude":"41.43300","Longitude":"-81.40970","Snowdepth":"13.000","Units":"in","Rept_Date":"2020-12-26 02"},"coordinates":[4918,4038]},{"type":"Point","properties":{"Station_ID":"SOCQ6","Station_Nam":"SOCKET LAKE","Latitude":"50.77870","Longitude":"-91.79300","Snowdepth":"12.870","Units":"in","Rept_Date":"2020-12-26 06"},"coordinates":[1692,9450]},{"type":"Point","properties":{"Station_ID":"QFT","Station_Nam":"QFT","Latitude":"50.83280","Longitude":"-74.40390","Snowdepth":"12.047","Units":"in","Rept_Date":"2020-12-25 12"},"coordinates":[7095,9481]},{"type":"Point","properties":{"Station_ID":"NC-MS-7","Station_Nam":"HOT SPRINGS 8.4 SSW, NC","Latitude":"35.78343","Longitude":"-82.89470","Snowdepth":"12.000","Units":"in","Rept_Date":"2020-12-25 14"},"coordinates":[4457,767]},{"type":"Point","properties":{"Station_ID":"NC-MS-23","Station_Nam":"HOT SPRINGS 9.6 SW, NC","Latitude":"35.78658","Longitude":"-82.94176","Snowdepth":"12.000","Units":"in","Rept_Date":"2020-12-25 13"},"coordinates":[4442,769]},{"type":"Point","properties":{"Station_ID":"IRMM4","Station_Nam":"WWTP","Latitude":"46.46670","Longitude":"-90.18330","Snowdepth":"12.000","Units":"in","Rept_Date":"2020-12-25 13"},"coordinates":[2192,6953]},{"type":"Point","properties":{"Station_ID":"HERM4","Station_Nam":"HERMAN,MI","Latitude":"46.65000","Longitude":"-88.33330","Snowdepth":"12.000","Units":"in","Rept_Date":"2020-12-25 15"},"coordinates":[2767,7059]},{"type":"Point","properties":{"Station_ID":"GNLM4","Station_Nam":"GREENLAND 6N","Latitude":"46.87360","Longitude":"-89.10060","Snowdepth":"12.000","Units":"in","Rept_Date":"2020-12-25 13"},"coordinates":[2528,7189]},{"type":"Point","properties":{"Station_ID":"BNDM5","Station_Nam":"ELY 25E","Latitude":"47.97190","Longitude":"-91.44860","Snowdepth":"12.000","Units":"in","Rept_Date":"2020-12-25 13"},"coordinates":[1799,7825]},{"type":"Point","properties":{"Station_ID":"41.8966_080.1567","Station_Nam":"2 NW EDINBORO  SNOW SPOTTER (CLE0251)","Latitude":"41.89660","Longitude":"-80.15670","Snowdepth":"12.000","Units":"in","Rept_Date":"2020-12-25 22"},"coordinates":[5307,4307]},{"type":"Point","properties":{"Station_ID":"41.8520_080.7999","Station_Nam":"ASHTABULA 3S (CLE1402)","Latitude":"41.85200","Longitude":"-80.79990","Snowdepth":"12.000","Units":"in","Rept_Date":"2020-12-25 22"},"coordinates":[5107,4281]},{"type":"Point","properties":{"Station_ID":"41.8344_081.0520","Station_Nam":"MADISON-ON-THE-LAKE (CLE1242)","Latitude":"41.83440","Longitude":"-81.05200","Snowdepth":"12.000","Units":"in","Rept_Date":"2020-12-26 00"},"coordinates":[5029,4271]},{"type":"Point","properties":{"Station_ID":"41.8034_080.9389","Station_Nam":"GENEVA  SNOW SPOTTER (CLE1467)","Latitude":"41.80340","Longitude":"-80.93890","Snowdepth":"12.000","Units":"in","Rept_Date":"2020-12-25 23"},"coordinates":[5064,4253]},{"type":"Point","properties":{"Station_ID":"41.7413_080.7594","Station_Nam":"JEFFERSON  SNOW SPOTTER (X4170808)","Latitude":"41.74130","Longitude":"-80.75940","Snowdepth":"12.000","Units":"in","Rept_Date":"2020-12-26 00"},"coordinates":[5120,4217]},{"type":"Point","properties":{"Station_ID":"41.7396_080.5416","Station_Nam":"PIERPONT 2SE (CLE1412)","Latitude":"41.73960","Longitude":"-80.54160","Snowdepth":"12.000","Units":"in","Rept_Date":"2020-12-25 14"},"coordinates":[5188,4216]},{"type":"Point","properties":{"Station_ID":"41.5909_081.0473","Station_Nam":"MONTVILLE (CLE1322)","Latitude":"41.59090","Longitude":"-81.04730","Snowdepth":"12.000","Units":"in","Rept_Date":"2020-12-25 23"},"coordinates":[5031,4130]},{"type":"Point","properties":{"Station_ID":"41.5020_081.5839","Station_Nam":"1 WSW Cleveland Heights  Trained Spotter (CLE1190)","Latitude":"41.50201","Longitude":"-81.58393","Snowdepth":"12.000","Units":"in","Rept_Date":"2020-12-26 01"},"coordinates":[4864,4078]},{"type":"Point","properties":{"Station_ID":"41.4992_081.4887","Station_Nam":"1 S Lyndhurst  Trained Spotter (CLE1189)","Latitude":"41.49917","Longitude":"-81.48868","Snowdepth":"12.000","Units":"in","Rept_Date":"2020-12-25 15"},"coordinates":[4893,4077]},{"type":"Point","properties":{"Station_ID":"41.4901_082.0871","Station_Nam":"SHEFFIELD LAKE (CLE1015)","Latitude":"41.49010","Longitude":"-82.08710","Snowdepth":"12.000","Units":"in","Rept_Date":"2020-12-25 14"},"coordinates":[4708,4071]},{"type":"Point","properties":{"Station_ID":"41.3691_081.4520","Station_Nam":"SOLON (CLE1123)","Latitude":"41.36910","Longitude":"-81.45200","Snowdepth":"12.000","Units":"in","Rept_Date":"2020-12-26 02"},"coordinates":[4905,4001]},{"type":"Point","properties":{"Station_ID":"SVBQ6","Station_Nam":"SAVANT BASE","Latitude":"50.28730","Longitude":"-90.65670","Snowdepth":"11.930","Units":"in","Rept_Date":"2020-12-26 06"},"coordinates":[2045,9165]},{"type":"Point","properties":{"Station_ID":"OH-LK-18","Station_Nam":"MENTOR 2.1 ESE, OH","Latitude":"41.67790","Longitude":"-81.29710","Snowdepth":"11.500","Units":"in","Rept_Date":"2020-12-25 14"},"coordinates":[4953,4180]},{"type":"Point","properties":{"Station_ID":"OH-GG-11","Station_Nam":"MADISON 4.2 S, OH","Latitude":"41.71238","Longitude":"-81.03871","Snowdepth":"11.500","Units":"in","Rept_Date":"2020-12-25 12"},"coordinates":[5033,4200]},{"type":"Point","properties":{"Station_ID":"OH-CY-39","Station_Nam":"WESTLAKE 0.5 SSW, OH","Latitude":"41.44795","Longitude":"-81.93260","Snowdepth":"11.500","Units":"in","Rept_Date":"2020-12-25 13"},"coordinates":[4756,4047]},{"type":"Point","properties":{"Station_ID":"MN-CK-6","Station_Nam":"GRAND MARAIS 4.4 W, MN","Latitude":"47.74865","Longitude":"-90.43760","Snowdepth":"11.500","Units":"in","Rept_Date":"2020-12-25 13"},"coordinates":[2113,7695]},{"type":"Point","properties":{"Station_ID":"MI-BN-4","Station_Nam":"NILES 2.7 W, MI","Latitude":"41.83705","Longitude":"-86.30050","Snowdepth":"11.500","Units":"in","Rept_Date":"2020-12-25 13"},"coordinates":[3398,4272]},{"type":"Point","properties":{"Station_ID":"41.7124_081.0387","Station_Nam":"4 S Madison  CoCoRaHS (OH-GG-11)","Latitude":"41.71240","Longitude":"-81.03870","Snowdepth":"11.500","Units":"in","Rept_Date":"2020-12-25 12"},"coordinates":[5033,4200]},{"type":"Point","properties":{"Station_ID":"41.4480_081.9326","Station_Nam":"1 SSW Westlake  CoCoRaHS (OH-CY-39)","Latitude":"41.44800","Longitude":"-81.93260","Snowdepth":"11.500","Units":"in","Rept_Date":"2020-12-25 13"},"coordinates":[4756,4047]},{"type":"Point","properties":{"Station_ID":"41.4727_081.1835","Station_Nam":"2 W Burton  Trained Spotter (CLE1337)","Latitude":"41.47271","Longitude":"-81.18346","Snowdepth":"11.400","Units":"in","Rept_Date":"2020-12-26 01"},"coordinates":[4988,4061]},{"type":"Point","properties":{"Station_ID":"SBN","Station_Nam":"SOUTH BEND REGIONAL AIRPORT","Latitude":"41.70890","Longitude":"-86.31830","Snowdepth":"11.000","Units":"in","Rept_Date":"2020-12-26 00"},"coordinates":[3393,4198]},{"type":"Point","properties":{"Station_ID":"NILM4","Station_Nam":"NILES","Latitude":"41.84050","Longitude":"-86.26580","Snowdepth":"11.000","Units":"in","Rept_Date":"2020-12-25 19"},"coordinates":[3409,4274]},{"type":"Point","properties":{"Station_ID":"NH-MR-60","Station_Nam":"SOUTH SUTTON 1.3 SE, NH","Latitude":"43.29531","Longitude":"-71.90238","Snowdepth":"11.000","Units":"in","Rept_Date":"2020-12-25 13"},"coordinates":[7872,5117]},{"type":"Point","properties":{"Station_ID":"NC-MS-5","Station_Nam":"MARSHALL 13.6 NNW, NC","Latitude":"35.98208","Longitude":"-82.76720","Snowdepth":"11.000","Units":"in","Rept_Date":"2020-12-25 13"},"coordinates":[4496,882]},{"type":"Point","properties":{"Station_ID":"NC-MS-20","Station_Nam":"MARSHALL 7.5 WSW, NC","Latitude":"35.77006","Longitude":"-82.81285","Snowdepth":"11.000","Units":"in","Rept_Date":"2020-12-25 12"},"coordinates":[4482,759]},{"type":"Point","properties":{"Station_ID":"BABM5","Station_Nam":"BABBITT","Latitude":"47.71210","Longitude":"-91.95330","Snowdepth":"11.000","Units":"in","Rept_Date":"2020-12-25 13"},"coordinates":[1642,7674]},{"type":"Point","properties":{"Station_ID":"42.2168_079.8473","Station_Nam":"NORTH EAST  SNOW SPOTTER (X4220798)","Latitude":"42.21680","Longitude":"-79.84730","Snowdepth":"11.000","Units":"in","Rept_Date":"2020-12-26 01"},"coordinates":[5403,4492]},{"type":"Point","properties":{"Station_ID":"42.1154_080.1310","Station_Nam":"ERIE  SNOW SPOTTER (CLE0161)","Latitude":"42.11540","Longitude":"-80.13100","Snowdepth":"11.000","Units":"in","Rept_Date":"2020-12-25 23"},"coordinates":[5315,4433]},{"type":"Point","properties":{"Station_ID":"41.7505_081.1933","Station_Nam":"PAINESVILLE  SNOW SPOTTER (CLE1249)","Latitude":"41.75050","Longitude":"-81.19330","Snowdepth":"11.000","Units":"in","Rept_Date":"2020-12-25 21"},"coordinates":[4985,4222]},{"type":"Point","properties":{"Station_ID":"41.6413_081.0131","Station_Nam":"2 ESE South Thompson  Trained Spotter (X4160810)","Latitude":"41.64127","Longitude":"-81.01313","Snowdepth":"11.000","Units":"in","Rept_Date":"2020-12-26 03"},"coordinates":[5041,4159]},{"type":"Point","properties":{"Station_ID":"41.5186_080.2187","Station_Nam":"6 E Atlantic  Trained Spotter (CLE0352)","Latitude":"41.51859","Longitude":"-80.21871","Snowdepth":"11.000","Units":"in","Rept_Date":"2020-12-26 01"},"coordinates":[5288,4088]},{"type":"Point","properties":{"Station_ID":"41.4479_081.9326","Station_Nam":"WESTLAKE  SNOW SPOTTER (CLE1174)","Latitude":"41.44790","Longitude":"-81.93260","Snowdepth":"11.000","Units":"in","Rept_Date":"2020-12-26 01"},"coordinates":[4756,4047]},{"type":"Point","properties":{"Station_ID":"41.4465_081.8160","Station_Nam":"Cleveland-Kamms Corners  Trained Spotter (CLE1187)","Latitude":"41.44646","Longitude":"-81.81601","Snowdepth":"11.000","Units":"in","Rept_Date":"2020-12-25 15"},"coordinates":[4792,4046]},{"type":"Point","properties":{"Station_ID":"41.4209_081.5439","Station_Nam":"MAPLE HEIGHTS  SNOW SPOTTER (CLE1145)","Latitude":"41.42090","Longitude":"-81.54390","Snowdepth":"11.000","Units":"in","Rept_Date":"2020-12-25 14"},"coordinates":[4876,4031]},{"type":"Point","properties":{"Station_ID":"41.4159_081.9847","Station_Nam":"N RIDGEVILLE (CLE1009)","Latitude":"41.41590","Longitude":"-81.98470","Snowdepth":"11.000","Units":"in","Rept_Date":"2020-12-25 18"},"coordinates":[4739,4028]},{"type":"Point","properties":{"Station_ID":"41.1970_080.9871","Station_Nam":"NEWTON FALLS (CLE2322)","Latitude":"41.19700","Longitude":"-80.98710","Snowdepth":"11.000","Units":"in","Rept_Date":"2020-12-26 00"},"coordinates":[5049,3902]},{"type":"Point","properties":{"Station_ID":"41.0814_081.5190","Station_Nam":"SUMMIT COUNTY (CLE2100)","Latitude":"41.08140","Longitude":"-81.51900","Snowdepth":"11.000","Units":"in","Rept_Date":"2020-12-25 13"},"coordinates":[4884,3835]},{"type":"Point","properties":{"Station_ID":"42.1792_079.9756","Station_Nam":"HARBORCREEK TWP  SNOW SPOTTER (X4220800)","Latitude":"42.17920","Longitude":"-79.97560","Snowdepth":"10.800","Units":"in","Rept_Date":"2020-12-25 23"},"coordinates":[5364,4470]},{"type":"Point","properties":{"Station_ID":"QCX","Station_Nam":"QCX","Latitude":"51.32830","Longitude":"-70.08060","Snowdepth":"10.787","Units":"in","Rept_Date":"2020-12-25 12"},"coordinates":[8438,9768]},{"type":"Point","properties":{"Station_ID":"QLI","Station_Nam":"QLI","Latitude":"50.27080","Longitude":"-73.92280","Snowdepth":"10.512","Units":"in","Rept_Date":"2020-12-25 12"},"coordinates":[7244,9156]},{"type":"Point","properties":{"Station_ID":"OH-LK-11","Station_Nam":"MADISON 0.9 WSW, OH","Latitude":"41.76833","Longitude":"-81.06972","Snowdepth":"10.500","Units":"in","Rept_Date":"2020-12-25 12"},"coordinates":[5024,4232]},{"type":"Point","properties":{"Station_ID":"41.7683_081.0697","Station_Nam":"1 WSW Madison  CoCoRaHS (OH-LK-11)","Latitude":"41.76830","Longitude":"-81.06970","Snowdepth":"10.500","Units":"in","Rept_Date":"2020-12-25 11"},"coordinates":[5024,4232]},{"type":"Point","properties":{"Station_ID":"OH-CY-41","Station_Nam":"LAKEWOOD 1.3 SSW, OH","Latitude":"41.46666","Longitude":"-81.81116","Snowdepth":"10.300","Units":"in","Rept_Date":"2020-12-25 13"},"coordinates":[4793,4058]},{"type":"Point","properties":{"Station_ID":"CAN-ON-784","Station_Nam":"KOMOKA 3.1 W, CAN","Latitude":"42.96000","Longitude":"-81.43805","Snowdepth":"10.200","Units":"in","Rept_Date":"2020-12-25 13"},"coordinates":[4909,4922]},{"type":"Point","properties":{"Station_ID":"WRSM5","Station_Nam":"WRENSHALL","Latitude":"46.61550","Longitude":"-92.38380","Snowdepth":"10.000","Units":"in","Rept_Date":"2020-12-25 14"},"coordinates":[1508,7039]},{"type":"Point","properties":{"Station_ID":"SBOP1","Station_Nam":"SPRINGBORO","Latitude":"41.81660","Longitude":"-80.43330","Snowdepth":"10.000","Units":"in","Rept_Date":"2020-12-25 12"},"coordinates":[5221,4260]},{"type":"Point","properties":{"Station_ID":"PA-CW-8","Station_Nam":"SPRINGBORO 3.0 WNW, PA","Latitude":"41.81654","Longitude":"-80.42540","Snowdepth":"10.000","Units":"in","Rept_Date":"2020-12-25 12"},"coordinates":[5224,4260]},{"type":"Point","properties":{"Station_ID":"OH-TR-4","Station_Nam":"NEWTON FALLS 0.6 N, OH","Latitude":"41.19773","Longitude":"-80.97210","Snowdepth":"10.000","Units":"in","Rept_Date":"2020-12-25 12"},"coordinates":[5054,3902]},{"type":"Point","properties":{"Station_ID":"OH-LK-9","Station_Nam":"WILLOUGHBY 2.9 SW, OH","Latitude":"41.61506","Longitude":"-81.44592","Snowdepth":"10.000","Units":"in","Rept_Date":"2020-12-25 12"},"coordinates":[4907,4144]},{"type":"Point","properties":{"Station_ID":"OH-CY-14","Station_Nam":"CLEVELAND 7.0 SW, OH","Latitude":"41.45224","Longitude":"-81.81475","Snowdepth":"10.000","Units":"in","Rept_Date":"2020-12-26 03"},"coordinates":[4792,4049]},{"type":"Point","properties":{"Station_ID":"NY-SR-22","Station_Nam":"GREENFIELD CENTER 1.6 W, NY","Latitude":"43.12684","Longitude":"-73.87860","Snowdepth":"10.000","Units":"in","Rept_Date":"2020-12-25 13"},"coordinates":[7258,5019]},{"type":"Point","properties":{"Station_ID":"MN-SL-108","Station_Nam":"IRON JUNCTION 3.4 NNW, MN","Latitude":"47.46150","Longitude":"-92.63130","Snowdepth":"10.000","Units":"in","Rept_Date":"2020-12-25 12"},"coordinates":[1431,7529]},{"type":"Point","properties":{"Station_ID":"MN-CK-18","Station_Nam":"GRAND MARAIS 4.4 WSW, MN","Latitude":"47.74462","Longitude":"-90.43796","Snowdepth":"10.000","Units":"in","Rept_Date":"2020-12-25 13"},"coordinates":[2113,7693]},{"type":"Point","properties":{"Station_ID":"MI-HG-20","Station_Nam":"CALUMET 1.1 SSW, MI","Latitude":"47.23165","Longitude":"-88.45823","Snowdepth":"10.000","Units":"in","Rept_Date":"2020-12-25 11"},"coordinates":[2728,7396]},{"type":"Point","properties":{"Station_ID":"MI-HG-1","Station_Nam":"HOUGHTON 1.6 ESE, MI","Latitude":"47.10774","Longitude":"-88.52940","Snowdepth":"10.000","Units":"in","Rept_Date":"2020-12-25 13"},"coordinates":[2706,7324]},{"type":"Point","properties":{"Station_ID":"LKPN3","Station_Nam":"LAKEPORT 2","Latitude":"43.54910","Longitude":"-71.46450","Snowdepth":"10.000","Units":"in","Rept_Date":"2020-12-25 12"},"coordinates":[8008,5264]},{"type":"Point","properties":{"Station_ID":"LEIM5","Station_Nam":"ORR 3E","Latitude":"48.05810","Longitude":"-92.75220","Snowdepth":"10.000","Units":"in","Rept_Date":"2020-12-25 12"},"coordinates":[1394,7875]},{"type":"Point","properties":{"Station_ID":"ELYM5","Station_Nam":"ELY","Latitude":"47.90560","Longitude":"-91.82830","Snowdepth":"10.000","Units":"in","Rept_Date":"2020-12-25 14"},"coordinates":[1681,7786]},{"type":"Point","properties":{"Station_ID":"COKM5","Station_Nam":"COOK","Latitude":"47.85060","Longitude":"-92.69250","Snowdepth":"10.000","Units":"in","Rept_Date":"2020-12-25 12"},"coordinates":[1412,7754]},{"type":"Point","properties":{"Station_ID":"41.8717_080.0850","Station_Nam":"EDINBORO 2E  SNOW SPOTTER (X4190801)","Latitude":"41.87170","Longitude":"-80.08500","Snowdepth":"10.000","Units":"in","Rept_Date":"2020-12-26 00"},"coordinates":[5330,4292]},{"type":"Point","properties":{"Station_ID":"41.8166_080.4333","Station_Nam":"3 WNW Springboro  Co-Op Observer (SBOP1)","Latitude":"41.81660","Longitude":"-80.43330","Snowdepth":"10.000","Units":"in","Rept_Date":"2020-12-25 12"},"coordinates":[5221,4260]},{"type":"Point","properties":{"Station_ID":"41.8165_080.4254","Station_Nam":"3 WNW Springboro  CoCoRaHS (PA-CW-8)","Latitude":"41.81650","Longitude":"-80.42540","Snowdepth":"10.000","Units":"in","Rept_Date":"2020-12-25 12"},"coordinates":[5224,4260]},{"type":"Point","properties":{"Station_ID":"41.6801_081.3287","Station_Nam":"MENTOR (CLE1240)","Latitude":"41.68010","Longitude":"-81.32870","Snowdepth":"10.000","Units":"in","Rept_Date":"2020-12-26 01"},"coordinates":[4943,4181]},{"type":"Point","properties":{"Station_ID":"41.6533_080.1440","Station_Nam":"MEADVILLE  SNOW SPOTTER (X4170801)","Latitude":"41.65330","Longitude":"-80.14400","Snowdepth":"10.000","Units":"in","Rept_Date":"2020-12-26 02"},"coordinates":[5311,4166]},{"type":"Point","properties":{"Station_ID":"41.6216_081.4916","Station_Nam":"EUCLID (CLE1130)","Latitude":"41.62160","Longitude":"-81.49160","Snowdepth":"10.000","Units":"in","Rept_Date":"2020-12-25 14"},"coordinates":[4893,4147]},{"type":"Point","properties":{"Station_ID":"41.6151_081.4459","Station_Nam":"3 SW Willoughby  CoCoRaHS (OH-LK-9)","Latitude":"41.61510","Longitude":"-81.44590","Snowdepth":"10.000","Units":"in","Rept_Date":"2020-12-25 12"},"coordinates":[4907,4144]},{"type":"Point","properties":{"Station_ID":"41.4897_081.8131","Station_Nam":"1 NW Lakewood  Trained Spotter (X4150818)","Latitude":"41.48973","Longitude":"-81.81311","Snowdepth":"10.000","Units":"in","Rept_Date":"2020-12-26 02"},"coordinates":[4793,4071]},{"type":"Point","properties":{"Station_ID":"41.4667_081.8111","Station_Nam":"1 NNE CLEVELAND-KAMMS CORNER  SNOW SPOTTER (X4150818)","Latitude":"41.46670","Longitude":"-81.81110","Snowdepth":"10.000","Units":"in","Rept_Date":"2020-12-25 13"},"coordinates":[4793,4058]},{"type":"Point","properties":{"Station_ID":"41.3151_081.1434","Station_Nam":"HIRAM (CLE2220)","Latitude":"41.31510","Longitude":"-81.14340","Snowdepth":"10.000","Units":"in","Rept_Date":"2020-12-26 03"},"coordinates":[5001,3970]},{"type":"Point","properties":{"Station_ID":"41.2817_081.7774","Station_Nam":"NORTH ROYALTON  TRAINED SPOTTER (CLE1155)","Latitude":"41.28170","Longitude":"-81.77740","Snowdepth":"10.000","Units":"in","Rept_Date":"2020-12-26 02"},"coordinates":[4804,3951]},{"type":"Point","properties":{"Station_ID":"41.1977_080.9721","Station_Nam":"1 N Newton Falls  CoCoRaHS (OH-TR-4)","Latitude":"41.19770","Longitude":"-80.97210","Snowdepth":"10.000","Units":"in","Rept_Date":"2020-12-25 12"},"coordinates":[5054,3902]},{"type":"Point","properties":{"Station_ID":"40.9877_081.6532","Station_Nam":"3 ENE Doylestown  Trained Spotter (CLE3106)","Latitude":"40.98769","Longitude":"-81.65317","Snowdepth":"10.000","Units":"in","Rept_Date":"2020-12-26 02"},"coordinates":[4842,3780]},{"type":"Point","properties":{"Station_ID":"QGD","Station_Nam":"QGD","Latitude":"51.11140","Longitude":"-67.13940","Snowdepth":"9.882","Units":"in","Rept_Date":"2020-12-25 12"},"coordinates":[9352,9643]},{"type":"Point","properties":{"Station_ID":"PA-ER-2","Station_Nam":"ERIE 5.6 SW, PA","Latitude":"42.06086","Longitude":"-80.15260","Snowdepth":"9.400","Units":"in","Rept_Date":"2020-12-25 12"},"coordinates":[5309,4402]},{"type":"Point","properties":{"Station_ID":"42.0609_080.1526","Station_Nam":"6 SW Erie  CoCoRaHS (PA-ER-2)","Latitude":"42.06090","Longitude":"-80.15260","Snowdepth":"9.400","Units":"in","Rept_Date":"2020-12-25 11"},"coordinates":[5309,4402]},{"type":"Point","properties":{"Station_ID":"MI-BG-3","Station_Nam":"THREE LAKES, MI","Latitude":"46.55730","Longitude":"-88.20770","Snowdepth":"9.300","Units":"in","Rept_Date":"2020-12-25 13"},"coordinates":[2806,7006]},{"type":"Point","properties":{"Station_ID":"OH-PT-8","Station_Nam":"STREETSBORO 2.1 SSW, OH","Latitude":"41.20976","Longitude":"-81.35480","Snowdepth":"9.100","Units":"in","Rept_Date":"2020-12-25 12"},"coordinates":[4935,3909]},{"type":"Point","properties":{"Station_ID":"QMA","Station_Nam":"QMA","Latitude":"50.10330","Longitude":"-70.47190","Snowdepth":"9.094","Units":"in","Rept_Date":"2020-12-25 12"},"coordinates":[8316,9059]},{"type":"Point","properties":{"Station_ID":"WV-PR-10","Station_Nam":"TERRA ALTA 4.9 NNE, WV","Latitude":"39.51024","Longitude":"-79.51024","Snowdepth":"9.000","Units":"in","Rept_Date":"2020-12-25 13"},"coordinates":[5508,2925]},{"type":"Point","properties":{"Station_ID":"WI-SR-1","Station_Nam":"HAYWARD 9.2 NNE, WI","Latitude":"46.13255","Longitude":"-91.40500","Snowdepth":"9.000","Units":"in","Rept_Date":"2020-12-25 12"},"coordinates":[1812,6760]},{"type":"Point","properties":{"Station_ID":"WI-BY-29","Station_Nam":"BAYFIELD 5.1 NNW, WI","Latitude":"46.88063","Longitude":"-90.85854","Snowdepth":"9.000","Units":"in","Rept_Date":"2020-12-25 14"},"coordinates":[1982,7193]},{"type":"Point","properties":{"Station_ID":"WI-BY-22","Station_Nam":"MASON 11.5 WNW, WI","Latitude":"46.50198","Longitude":"-91.28339","Snowdepth":"9.000","Units":"in","Rept_Date":"2020-12-25 14"},"coordinates":[1850,6973]},{"type":"Point","properties":{"Station_ID":"TOHM5","Station_Nam":"TWO HARBORS WWTP","Latitude":"47.01760","Longitude":"-91.66480","Snowdepth":"9.000","Units":"in","Rept_Date":"2020-12-25 13"},"coordinates":[1732,7272]},{"type":"Point","properties":{"Station_ID":"SBSI3","Station_Nam":"SOUTH BEND","Latitude":"41.70050","Longitude":"-86.24870","Snowdepth":"9.000","Units":"in","Rept_Date":"2020-12-26 05"},"coordinates":[3415,4193]},{"type":"Point","properties":{"Station_ID":"OH-SM-38","Station_Nam":"AKRON 2.4 W, OH","Latitude":"41.08008","Longitude":"-81.56801","Snowdepth":"9.000","Units":"in","Rept_Date":"2020-12-25 13"},"coordinates":[4869,3834]},{"type":"Point","properties":{"Station_ID":"OH-PT-17","Station_Nam":"KENT 1.5 W, OH","Latitude":"41.14718","Longitude":"-81.39079","Snowdepth":"9.000","Units":"in","Rept_Date":"2020-12-25 12"},"coordinates":[4924,3873]},{"type":"Point","properties":{"Station_ID":"OH-LR-25","Station_Nam":"NORTH RIDGEVILLE 2.5 NE, OH","Latitude":"41.41550","Longitude":"-81.98440","Snowdepth":"9.000","Units":"in","Rept_Date":"2020-12-25 12"},"coordinates":[4739,4028]},{"type":"Point","properties":{"Station_ID":"OH-GG-4","Station_Nam":"MONTVILLE 1.2 SSE, OH","Latitude":"41.59030","Longitude":"-81.04800","Snowdepth":"9.000","Units":"in","Rept_Date":"2020-12-25 13"},"coordinates":[5030,4129]},{"type":"Point","properties":{"Station_ID":"OH-CY-54","Station_Nam":"SEVEN HILLS 0.6 NNE, OH","Latitude":"41.38811","Longitude":"-81.67098","Snowdepth":"9.000","Units":"in","Rept_Date":"2020-12-25 12"},"coordinates":[4837,4012]},{"type":"Point","properties":{"Station_ID":"NH-BK-18","Station_Nam":"NEW HAMPTON 4.1 N, NH","Latitude":"43.66397","Longitude":"-71.64270","Snowdepth":"9.000","Units":"in","Rept_Date":"2020-12-25 12"},"coordinates":[7953,5330]},{"type":"Point","properties":{"Station_ID":"MN-CV-22","Station_Nam":"VICTORIA 1.6 WSW, MN","Latitude":"44.85670","Longitude":"-93.68640","Snowdepth":"9.000","Units":"in","Rept_Date":"2020-12-25 13"},"coordinates":[1104,6021]},{"type":"Point","properties":{"Station_ID":"MI-BN-2","Station_Nam":"STEVENSVILLE 1.7 SSE, MI","Latitude":"41.99114","Longitude":"-86.50860","Snowdepth":"9.000","Units":"in","Rept_Date":"2020-12-25 13"},"coordinates":[3334,4361]},{"type":"Point","properties":{"Station_ID":"FLDM5","Station_Nam":"FLOODWOOD,MN","Latitude":"47.00000","Longitude":"-92.91670","Snowdepth":"9.000","Units":"in","Rept_Date":"2020-12-25 14"},"coordinates":[1343,7262]},{"type":"Point","properties":{"Station_ID":"COTM5","Station_Nam":"COTTON","Latitude":"47.16870","Longitude":"-92.46290","Snowdepth":"9.000","Units":"in","Rept_Date":"2020-12-25 15"},"coordinates":[1484,7360]},{"type":"Point","properties":{"Station_ID":"BBEM4","Station_Nam":"BIG BAY 9SW","Latitude":"46.74620","Longitude":"-87.88160","Snowdepth":"9.000","Units":"in","Rept_Date":"2020-12-25 13"},"coordinates":[2907,7115]},{"type":"Point","properties":{"Station_ID":"42.1806_079.7860","Station_Nam":"3 SE North East  Trained Spotter (CLE0288)","Latitude":"42.18055","Longitude":"-79.78595","Snowdepth":"9.000","Units":"in","Rept_Date":"2020-12-25 22"},"coordinates":[5422,4471]},{"type":"Point","properties":{"Station_ID":"41.6544_080.1373","Station_Nam":"MEADVILLE  SNOW SPOTTER (CLE0342)","Latitude":"41.65440","Longitude":"-80.13730","Snowdepth":"9.000","Units":"in","Rept_Date":"2020-12-26 01"},"coordinates":[5313,4166]},{"type":"Point","properties":{"Station_ID":"41.6368_080.6674","Station_Nam":"2 N Cherry Valley  Trained Spotter (CLE1482)","Latitude":"41.63679","Longitude":"-80.66740","Snowdepth":"9.000","Units":"in","Rept_Date":"2020-12-26 02"},"coordinates":[5149,4156]},{"type":"Point","properties":{"Station_ID":"41.6141_081.5254","Station_Nam":"2 NNW Euclid  Trained Spotter (CLE1184)","Latitude":"41.61407","Longitude":"-81.52543","Snowdepth":"9.000","Units":"in","Rept_Date":"2020-12-26 03"},"coordinates":[4882,4143]},{"type":"Point","properties":{"Station_ID":"41.5903_081.0480","Station_Nam":"1 SSE Montville  CoCoRaHS (OH-GG-4)","Latitude":"41.59030","Longitude":"-81.04800","Snowdepth":"9.000","Units":"in","Rept_Date":"2020-12-25 13"},"coordinates":[5030,4129]},{"type":"Point","properties":{"Station_ID":"41.4716_081.1803","Station_Nam":"BURTON (CLE1314)","Latitude":"41.47160","Longitude":"-81.18030","Snowdepth":"9.000","Units":"in","Rept_Date":"2020-12-26 01"},"coordinates":[4989,4061]},{"type":"Point","properties":{"Station_ID":"41.4295_081.7112","Station_Nam":"CLEVELAND-OLD BROOKLYN (CLE1126)","Latitude":"41.42950","Longitude":"-81.71120","Snowdepth":"9.000","Units":"in","Rept_Date":"2020-12-25 23"},"coordinates":[4824,4036]},{"type":"Point","properties":{"Station_ID":"41.4155_081.9844","Station_Nam":"3 NE North Ridgeville  CoCoRaHS (OH-LR-25)","Latitude":"41.41550","Longitude":"-81.98440","Snowdepth":"9.000","Units":"in","Rept_Date":"2020-12-25 12"},"coordinates":[4739,4028]},{"type":"Point","properties":{"Station_ID":"41.3881_081.6710","Station_Nam":"1 NNE Seven Hills  CoCoRaHS (OH-CY-54)","Latitude":"41.38810","Longitude":"-81.67100","Snowdepth":"9.000","Units":"in","Rept_Date":"2020-12-25 12"},"coordinates":[4837,4012]},{"type":"Point","properties":{"Station_ID":"41.3790_081.6698","Station_Nam":"Seven Hills  Trained Spotter (CLE1191)","Latitude":"41.37895","Longitude":"-81.66984","Snowdepth":"9.000","Units":"in","Rept_Date":"2020-12-25 22"},"coordinates":[4837,4007]},{"type":"Point","properties":{"Station_ID":"41.1112_081.5823","Station_Nam":"2 ESE Fairlawn  Trained Spotter (CLE2145)","Latitude":"41.11120","Longitude":"-81.58229","Snowdepth":"9.000","Units":"in","Rept_Date":"2020-12-26 01"},"coordinates":[4864,3852]},{"type":"Point","properties":{"Station_ID":"41.0801_081.5680","Station_Nam":"2 W Akron  CoCoRaHS (OH-SM-38)","Latitude":"41.08010","Longitude":"-81.56800","Snowdepth":"9.000","Units":"in","Rept_Date":"2020-12-25 13"},"coordinates":[4869,3834]},{"type":"Point","properties":{"Station_ID":"40.7610_082.5426","Station_Nam":"MANSFIELD  SNOW SPOTTER (CLE2918)","Latitude":"40.76100","Longitude":"-82.54260","Snowdepth":"9.000","Units":"in","Rept_Date":"2020-12-26 01"},"coordinates":[4566,3649]},{"type":"Point","properties":{"Station_ID":"OH-LC-3","Station_Nam":"GRANVILLE 5.7 N, OH","Latitude":"40.15233","Longitude":"-82.51713","Snowdepth":"8.900","Units":"in","Rept_Date":"2020-12-25 12"},"coordinates":[4574,3297]},{"type":"Point","properties":{"Station_ID":"FTHQ6","Station_Nam":"FORT HOPE","Latitude":"51.55820","Longitude":"-87.90510","Snowdepth":"8.820","Units":"in","Rept_Date":"2020-12-26 06"},"coordinates":[2900,9901]},{"type":"Point","properties":{"Station_ID":"OH-PT-9","Station_Nam":"HIRAM 0.4 N, OH","Latitude":"41.31595","Longitude":"-81.14340","Snowdepth":"8.500","Units":"in","Rept_Date":"2020-12-25 13"},"coordinates":[5001,3970]},{"type":"Point","properties":{"Station_ID":"OH-PT-10","Station_Nam":"KENT 3.6 NE, OH","Latitude":"41.20083","Longitude":"-81.33890","Snowdepth":"8.500","Units":"in","Rept_Date":"2020-12-25 13"},"coordinates":[4940,3904]},{"type":"Point","properties":{"Station_ID":"MN-SL-18","Station_Nam":"DULUTH 1.4 NNW, MN","Latitude":"46.80321","Longitude":"-92.11240","Snowdepth":"8.500","Units":"in","Rept_Date":"2020-12-25 14"},"coordinates":[1593,7148]},{"type":"Point","properties":{"Station_ID":"41.2008_081.3389","Station_Nam":"4 NE Kent  CoCoRaHS (OH-PT-10)","Latitude":"41.20080","Longitude":"-81.33890","Snowdepth":"8.500","Units":"in","Rept_Date":"2020-12-25 13"},"coordinates":[4940,3904]},{"type":"Point","properties":{"Station_ID":"CATQ6","Station_Nam":"CAT LAKE","Latitude":"51.72690","Longitude":"-91.82210","Snowdepth":"8.390","Units":"in","Rept_Date":"2020-12-26 06"},"coordinates":[1683,9999]},{"type":"Point","properties":{"Station_ID":"NH-MR-41","Station_Nam":"NEWBURY 1.6 NW, NH","Latitude":"43.33667","Longitude":"-72.06060","Snowdepth":"8.300","Units":"in","Rept_Date":"2020-12-25 12"},"coordinates":[7823,5141]},{"type":"Point","properties":{"Station_ID":"QMD","Station_Nam":"QMD","Latitude":"49.29060","Longitude":"-75.84500","Snowdepth":"8.228","Units":"in","Rept_Date":"2020-12-25 12"},"coordinates":[6647,8588]},{"type":"Point","properties":{"Station_ID":"MFU","Station_Nam":"MFU","Latitude":"51.52170","Longitude":"-66.91110","Snowdepth":"8.189","Units":"in","Rept_Date":"2020-12-25 12"},"coordinates":[9423,9880]},{"type":"Point","properties":{"Station_ID":"YNG","Station_Nam":"YOUNGSTOWN-WARREN REG AIRPRT","Latitude":"41.25890","Longitude":"-80.67610","Snowdepth":"8.000","Units":"in","Rept_Date":"2020-12-26 00"},"coordinates":[5146,3937]},{"type":"Point","properties":{"Station_ID":"WRNK2","Station_Nam":"WARNOCK 2","Latitude":"38.49460","Longitude":"-83.01830","Snowdepth":"8.000","Units":"in","Rept_Date":"2020-12-25 10"},"coordinates":[4418,2337]},{"type":"Point","properties":{"Station_ID":"WRIM5","Station_Nam":"WRIGHT 3E","Latitude":"46.68040","Longitude":"-92.95420","Snowdepth":"8.000","Units":"in","Rept_Date":"2020-12-25 12"},"coordinates":[1331,7077]},{"type":"Point","properties":{"Station_ID":"WNDP1","Station_Nam":"WINDBER COUNTY CLUB","Latitude":"40.28780","Longitude":"-78.77530","Snowdepth":"8.000","Units":"in","Rept_Date":"2020-12-25 12"},"coordinates":[5736,3375]},{"type":"Point","properties":{"Station_ID":"WI-PC-5","Station_Nam":"RIVER FALLS 1.2 SSW, WI","Latitude":"44.84032","Longitude":"-92.63500","Snowdepth":"8.000","Units":"in","Rept_Date":"2020-12-25 13"},"coordinates":[1430,6011]},{"type":"Point","properties":{"Station_ID":"WI-PC-10","Station_Nam":"RIVER FALLS 1.4 S, WI","Latitude":"44.83580","Longitude":"-92.62100","Snowdepth":"8.000","Units":"in","Rept_Date":"2020-12-25 13"},"coordinates":[1435,6009]},{"type":"Point","properties":{"Station_ID":"WI-BY-2","Station_Nam":"MELLEN 18.6 SW, WI","Latitude":"46.16937","Longitude":"-90.98090","Snowdepth":"8.000","Units":"in","Rept_Date":"2020-12-25 13"},"coordinates":[1944,6781]},{"type":"Point","properties":{"Station_ID":"WI-BY-14","Station_Nam":"ASHLAND 9.8 W, WI","Latitude":"46.59742","Longitude":"-91.07856","Snowdepth":"8.000","Units":"in","Rept_Date":"2020-12-25 12"},"coordinates":[1914,7029]},{"type":"Point","properties":{"Station_ID":"TOGM5","Station_Nam":"CELINA 2E","Latitude":"47.86630","Longitude":"-93.02660","Snowdepth":"8.000","Units":"in","Rept_Date":"2020-12-25 15"},"coordinates":[1309,7764]},{"type":"Point","properties":{"Station_ID":"STWO1","Station_Nam":"MONROE FALLS","Latitude":"41.13110","Longitude":"-81.40000","Snowdepth":"8.000","Units":"in","Rept_Date":"2020-12-25 12"},"coordinates":[4921,3863]},{"type":"Point","properties":{"Station_ID":"SGVN6","Station_Nam":"SPRINGVILLE","Latitude":"42.54970","Longitude":"-78.57670","Snowdepth":"8.000","Units":"in","Rept_Date":"2020-12-26 01"},"coordinates":[5798,4685]},{"type":"Point","properties":{"Station_ID":"OH-PT-21","Station_Nam":"AURORA 1.6 WNW, OH","Latitude":"41.31840","Longitude":"-81.37449","Snowdepth":"8.000","Units":"in","Rept_Date":"2020-12-25 12"},"coordinates":[4929,3972]},{"type":"Point","properties":{"Station_ID":"OH-PT-2","Station_Nam":"RAVENNA 0.5 E, OH","Latitude":"41.15985","Longitude":"-81.23210","Snowdepth":"8.000","Units":"in","Rept_Date":"2020-12-25 16"},"coordinates":[4973,3880]},{"type":"Point","properties":{"Station_ID":"OH-PT-13","Station_Nam":"MANTUA 1.0 NNW, OH","Latitude":"41.29421","Longitude":"-81.23160","Snowdepth":"8.000","Units":"in","Rept_Date":"2020-12-25 13"},"coordinates":[4973,3958]},{"type":"Point","properties":{"Station_ID":"OH-MD-2","Station_Nam":"BRUNSWICK 0.5 NE, OH","Latitude":"41.24980","Longitude":"-81.81330","Snowdepth":"8.000","Units":"in","Rept_Date":"2020-12-25 12"},"coordinates":[4793,3932]},{"type":"Point","properties":{"Station_ID":"OH-CY-24","Station_Nam":"PARMA 1.9 NNW, OH","Latitude":"41.40881","Longitude":"-81.74480","Snowdepth":"8.000","Units":"in","Rept_Date":"2020-12-25 13"},"coordinates":[4814,4024]},{"type":"Point","properties":{"Station_ID":"NY-ER-197","Station_Nam":"HAMBURG 1.0 ESE, NY","Latitude":"42.71959","Longitude":"-78.81514","Snowdepth":"8.000","Units":"in","Rept_Date":"2020-12-25 12"},"coordinates":[5724,4783]},{"type":"Point","properties":{"Station_ID":"NH-RC-48","Station_Nam":"NORTHWOOD 2.9 WSW, NH","Latitude":"43.20114","Longitude":"-71.25750","Snowdepth":"8.000","Units":"in","Rept_Date":"2020-12-25 12"},"coordinates":[8072,5062]},{"type":"Point","properties":{"Station_ID":"NH-MR-4","Station_Nam":"BOW 1.6 NW, NH","Latitude":"43.14994","Longitude":"-71.55650","Snowdepth":"8.000","Units":"in","Rept_Date":"2020-12-25 12"},"coordinates":[7979,5032]},{"type":"Point","properties":{"Station_ID":"NCLI3","Station_Nam":"NEW CARLISLE","Latitude":"41.70640","Longitude":"-86.50320","Snowdepth":"8.000","Units":"in","Rept_Date":"2020-12-25 12"},"coordinates":[3335,4197]},{"type":"Point","properties":{"Station_ID":"NC-MS-29","Station_Nam":"MARSHALL 1.7 W, NC","Latitude":"35.79619","Longitude":"-82.71516","Snowdepth":"8.000","Units":"in","Rept_Date":"2020-12-25 12"},"coordinates":[4512,774]},{"type":"Point","properties":{"Station_ID":"MWN","Station_Nam":"MOUNT WASHINGTON","Latitude":"44.26670","Longitude":"-71.30000","Snowdepth":"8.000","Units":"in","Rept_Date":"2020-12-25 12"},"coordinates":[8059,5679]},{"type":"Point","properties":{"Station_ID":"MSP","Station_Nam":"MINNEAPOLIS-ST PAUL INTL AP","Latitude":"44.88310","Longitude":"-93.22890","Snowdepth":"8.000","Units":"in","Rept_Date":"2020-12-26 00"},"coordinates":[1246,6036]},{"type":"Point","properties":{"Station_ID":"MNSM4","Station_Nam":"MUNISING","Latitude":"46.41210","Longitude":"-86.66250","Snowdepth":"8.000","Units":"in","Rept_Date":"2020-12-25 11"},"coordinates":[3286,6921]},{"type":"Point","properties":{"Station_ID":"MN-SL-139","Station_Nam":"DULUTH 1.2 SE, MN","Latitude":"46.77000","Longitude":"-92.08826","Snowdepth":"8.000","Units":"in","Rept_Date":"2020-12-25 12"},"coordinates":[1600,7129]},{"type":"Point","properties":{"Station_ID":"MN-HN-298","Station_Nam":"EXCELSIOR 1.8 W, MN","Latitude":"44.89722","Longitude":"-93.60286","Snowdepth":"8.000","Units":"in","Rept_Date":"2020-12-25 13"},"coordinates":[1130,6044]},{"type":"Point","properties":{"Station_ID":"MN-GH-28","Station_Nam":"CANNON FALLS 0.5 SE, MN","Latitude":"44.50866","Longitude":"-92.89526","Snowdepth":"8.000","Units":"in","Rept_Date":"2020-12-25 14"},"coordinates":[1349,5819]},{"type":"Point","properties":{"Station_ID":"MN-CG-16","Station_Nam":"NORTH BRANCH 1.3 NNW, MN","Latitude":"45.53121","Longitude":"-92.97110","Snowdepth":"8.000","Units":"in","Rept_Date":"2020-12-25 12"},"coordinates":[1326,6411]},{"type":"Point","properties":{"Station_ID":"MGYP1","Station_Nam":"MONTGOMERY DAM","Latitude":"40.64830","Longitude":"-80.38500","Snowdepth":"8.000","Units":"in","Rept_Date":"2020-12-25 11"},"coordinates":[5236,3584]},{"type":"Point","properties":{"Station_ID":"ME-YK-3","Station_Nam":"HOLLIS CENTER 5.4 NW, ME","Latitude":"43.64750","Longitude":"-70.67510","Snowdepth":"8.000","Units":"in","Rept_Date":"2020-12-25 12"},"coordinates":[8253,5321]},{"type":"Point","properties":{"Station_ID":"KYNG","Station_Nam":"YOUNGSTOWN-WARREN REG AIRPRT","Latitude":"41.25000","Longitude":"-80.66666","Snowdepth":"8.000","Units":"in","Rept_Date":"2020-12-26 06"},"coordinates":[5149,3932]},{"type":"Point","properties":{"Station_ID":"KY-EL-1","Station_Nam":"OLIVE HILL 9.0 SSE, KY","Latitude":"38.19330","Longitude":"-83.08170","Snowdepth":"8.000","Units":"in","Rept_Date":"2020-12-25 14"},"coordinates":[4399,2162]},{"type":"Point","properties":{"Station_ID":"KMSP","Station_Nam":"MINNEAPOLIS-ST PAUL INTERNATIONAL","Latitude":"44.86666","Longitude":"-93.21666","Snowdepth":"8.000","Units":"in","Rept_Date":"2020-12-26 06"},"coordinates":[1250,6027]},{"type":"Point","properties":{"Station_ID":"KCLE","Station_Nam":"CLEVELAND-HOPKINS INTERNATIONAL","Latitude":"41.40000","Longitude":"-81.85000","Snowdepth":"8.000","Units":"in","Rept_Date":"2020-12-26 06"},"coordinates":[4781,4019]},{"type":"Point","properties":{"Station_ID":"INL","Station_Nam":"FALLS INTERNATIONAL ARPT","Latitude":"48.56640","Longitude":"-93.40310","Snowdepth":"8.000","Units":"in","Rept_Date":"2020-12-26 00"},"coordinates":[1192,8169]},{"type":"Point","properties":{"Station_ID":"IFSM5","Station_Nam":"INTERNATIONAL FALLS SNOW","Latitude":"48.57780","Longitude":"-93.39640","Snowdepth":"8.000","Units":"in","Rept_Date":"2020-12-25 12"},"coordinates":[1194,8176]},{"type":"Point","properties":{"Station_ID":"HOLM1","Station_Nam":"HOLLIS","Latitude":"43.64750","Longitude":"-70.67490","Snowdepth":"8.000","Units":"in","Rept_Date":"2020-12-25 12"},"coordinates":[8253,5321]},{"type":"Point","properties":{"Station_ID":"HEGK2","Station_Nam":"HARLAN 1S","Latitude":"36.82880","Longitude":"-83.32750","Snowdepth":"8.000","Units":"in","Rept_Date":"2020-12-25 13"},"coordinates":[4322,1372]},{"type":"Point","properties":{"Station_ID":"CTRO1","Station_Nam":"CENTERBURG,OH","Latitude":"40.30000","Longitude":"-82.65000","Snowdepth":"8.000","Units":"in","Rept_Date":"2020-12-25 13"},"coordinates":[4533,3382]},{"type":"Point","properties":{"Station_ID":"CMKW3","Station_Nam":"CLAM LAKE 4W","Latitude":"46.16940","Longitude":"-90.98080","Snowdepth":"8.000","Units":"in","Rept_Date":"2020-12-25 13"},"coordinates":[1944,6781]},{"type":"Point","properties":{"Station_ID":"CLE","Station_Nam":"CLEVELAND, OH","Latitude":"41.41170","Longitude":"-81.84970","Snowdepth":"8.000","Units":"in","Rept_Date":"2020-12-26 00"},"coordinates":[4781,4026]},{"type":"Point","properties":{"Station_ID":"CFLK2","Station_Nam":"CARR FORK LAKE","Latitude":"37.23330","Longitude":"-83.03330","Snowdepth":"8.000","Units":"in","Rept_Date":"2020-12-25 12"},"coordinates":[4414,1606]},{"type":"Point","properties":{"Station_ID":"ADVM5","Station_Nam":"ANDOVER 1N","Latitude":"45.25340","Longitude":"-93.29270","Snowdepth":"8.000","Units":"in","Rept_Date":"2020-12-25 11"},"coordinates":[1226,6250]},{"type":"Point","properties":{"Station_ID":"41.8495_080.3016","Station_Nam":"4 WNW Crossingville  Trained Spotter (X4180803)","Latitude":"41.84946","Longitude":"-80.30159","Snowdepth":"8.000","Units":"in","Rept_Date":"2020-12-25 14"},"coordinates":[5262,4279]},{"type":"Point","properties":{"Station_ID":"41.6346_080.6614","Station_Nam":"1 E DORSET  SNOW SPOTTER (CLE1453)","Latitude":"41.63460","Longitude":"-80.66140","Snowdepth":"8.000","Units":"in","Rept_Date":"2020-12-25 23"},"coordinates":[5150,4155]},{"type":"Point","properties":{"Station_ID":"41.4088_081.7448","Station_Nam":"2 NNW Parma  CoCoRaHS (OH-CY-24)","Latitude":"41.40880","Longitude":"-81.74480","Snowdepth":"8.000","Units":"in","Rept_Date":"2020-12-25 13"},"coordinates":[4814,4024]},{"type":"Point","properties":{"Station_ID":"41.4019_081.8479","Station_Nam":"Cleveland Hopkins Airport  Trained Spotter (CLE1104)","Latitude":"41.40193","Longitude":"-81.84787","Snowdepth":"8.000","Units":"in","Rept_Date":"2020-12-25 18"},"coordinates":[4782,4020]},{"type":"Point","properties":{"Station_ID":"41.3600_081.7100","Station_Nam":"2 SSE Parma  Trained Spotter (X4140817)","Latitude":"41.36000","Longitude":"-81.71000","Snowdepth":"8.000","Units":"in","Rept_Date":"2020-12-25 17"},"coordinates":[4825,3996]},{"type":"Point","properties":{"Station_ID":"41.3397_080.9647","Station_Nam":"2 NNW Southington  Trained Spotter (X4130810)","Latitude":"41.33970","Longitude":"-80.96471","Snowdepth":"8.000","Units":"in","Rept_Date":"2020-12-25 14"},"coordinates":[5056,3984]},{"type":"Point","properties":{"Station_ID":"41.3292_080.7272","Station_Nam":"Cortland  Trained Spotter (X4130807)","Latitude":"41.32922","Longitude":"-80.72719","Snowdepth":"8.000","Units":"in","Rept_Date":"2020-12-25 23"},"coordinates":[5130,3978]},{"type":"Point","properties":{"Station_ID":"41.3184_081.3745","Station_Nam":"2 WNW Aurora  CoCoRaHS (OH-PT-21)","Latitude":"41.31840","Longitude":"-81.37450","Snowdepth":"8.000","Units":"in","Rept_Date":"2020-12-25 12"},"coordinates":[4929,3972]},{"type":"Point","properties":{"Station_ID":"41.3041_081.5599","Station_Nam":"SAGAMORE HILLS (CLE2123)","Latitude":"41.30410","Longitude":"-81.55990","Snowdepth":"8.000","Units":"in","Rept_Date":"2020-12-26 01"},"coordinates":[4871,3964]},{"type":"Point","properties":{"Station_ID":"41.2942_081.2316","Station_Nam":"1 NNW Mantua  CoCoRaHS (OH-PT-13)","Latitude":"41.29420","Longitude":"-81.23160","Snowdepth":"8.000","Units":"in","Rept_Date":"2020-12-25 13"},"coordinates":[4973,3958]},{"type":"Point","properties":{"Station_ID":"41.2688_081.5174","Station_Nam":"2 N CLE AIRPORT  TRAINED SPOTTER (CLE2141)","Latitude":"41.26880","Longitude":"-81.51740","Snowdepth":"8.000","Units":"in","Rept_Date":"2020-12-25 23"},"coordinates":[4885,3943]},{"type":"Point","properties":{"Station_ID":"41.2574_080.6670","Station_Nam":"Youngstown Regional Airport  Trained Spotter (CLE2302)","Latitude":"41.25735","Longitude":"-80.66700","Snowdepth":"8.000","Units":"in","Rept_Date":"2020-12-25 18"},"coordinates":[5149,3937]},{"type":"Point","properties":{"Station_ID":"41.2499_081.8127","Station_Nam":"BRUNSWICK (CLE2007)","Latitude":"41.24990","Longitude":"-81.81270","Snowdepth":"8.000","Units":"in","Rept_Date":"2020-12-26 03"},"coordinates":[4793,3932]},{"type":"Point","properties":{"Station_ID":"41.2288_081.7159","Station_Nam":"HINCKLEY  TRAINED SPOTTER (CLE2006)","Latitude":"41.22880","Longitude":"-81.71590","Snowdepth":"8.000","Units":"in","Rept_Date":"2020-12-26 02"},"coordinates":[4823,3920]},{"type":"Point","properties":{"Station_ID":"41.2019_081.6342","Station_Nam":"1 N Bath  Trained Spotter (CLE2148)","Latitude":"41.20192","Longitude":"-81.63420","Snowdepth":"8.000","Units":"in","Rept_Date":"2020-12-26 00"},"coordinates":[4848,3904]},{"type":"Point","properties":{"Station_ID":"41.1978_081.6324","Station_Nam":"BATH TWP  TRAINED SPOTTER (CLE2135)","Latitude":"41.19780","Longitude":"-81.63240","Snowdepth":"8.000","Units":"in","Rept_Date":"2020-12-26 01"},"coordinates":[4849,3902]},{"type":"Point","properties":{"Station_ID":"41.1475_081.3235","Station_Nam":"KENT (CLE2202)","Latitude":"41.14750","Longitude":"-81.32350","Snowdepth":"8.000","Units":"in","Rept_Date":"2020-12-26 00"},"coordinates":[4945,3873]},{"type":"Point","properties":{"Station_ID":"41.1311_081.4000","Station_Nam":"MONROE FALLS  CO-OP OBSERVER (STWO1)","Latitude":"41.13110","Longitude":"-81.40000","Snowdepth":"8.000","Units":"in","Rept_Date":"2020-12-25 12"},"coordinates":[4921,3863]},{"type":"Point","properties":{"Station_ID":"40.9723_081.6189","Station_Nam":"CLINTON  SNOW SPOTTER (X4100816)","Latitude":"40.97230","Longitude":"-81.61890","Snowdepth":"8.000","Units":"in","Rept_Date":"2020-12-26 03"},"coordinates":[4853,3772]},{"type":"Point","properties":{"Station_ID":"40.9417_081.5415","Station_Nam":"New Franklin  Amateur Radio (X4090815)","Latitude":"40.94172","Longitude":"-81.54150","Snowdepth":"8.000","Units":"in","Rept_Date":"2020-12-26 00"},"coordinates":[4877,3754]},{"type":"Point","properties":{"Station_ID":"40.8774_081.5067","Station_Nam":"4 ESE Canal Fulton  Trained Spotter (CLE3233)","Latitude":"40.87736","Longitude":"-81.50673","Snowdepth":"8.000","Units":"in","Rept_Date":"2020-12-26 02"},"coordinates":[4888,3717]},{"type":"Point","properties":{"Station_ID":"40.8187_082.4287","Station_Nam":"MANSFIELD 7NE  SNOW SPOTTER (X4080824)","Latitude":"40.81870","Longitude":"-82.42870","Snowdepth":"8.000","Units":"in","Rept_Date":"2020-12-26 01"},"coordinates":[4601,3683]},{"type":"Point","properties":{"Station_ID":"40.8143_081.3903","Station_Nam":"CANTON  SNOW SPOTTER (X4080814)","Latitude":"40.81430","Longitude":"-81.39030","Snowdepth":"8.000","Units":"in","Rept_Date":"2020-12-25 11"},"coordinates":[4924,3680]},{"type":"Point","properties":{"Station_ID":"QWG","Station_Nam":"QWG","Latitude":"48.48890","Longitude":"-73.45940","Snowdepth":"7.913","Units":"in","Rept_Date":"2020-12-25 12"},"coordinates":[7388,8124]},{"type":"Point","properties":{"Station_ID":"CAN-MB-368","Station_Nam":"WHITESHELL 1.3 NE, CAN","Latitude":"49.74405","Longitude":"-95.19123","Snowdepth":"7.900","Units":"in","Rept_Date":"2020-12-25 14"},"coordinates":[636,8851]},{"type":"Point","properties":{"Station_ID":"QWE","Station_Nam":"QWE","Latitude":"47.84610","Longitude":"-73.80670","Snowdepth":"7.835","Units":"in","Rept_Date":"2020-12-25 12"},"coordinates":[7280,7752]},{"type":"Point","properties":{"Station_ID":"OH-LC-10","Station_Nam":"GRANVILLE 4.0 N, OH","Latitude":"40.12820","Longitude":"-82.51580","Snowdepth":"7.800","Units":"in","Rept_Date":"2020-12-25 12"},"coordinates":[4574,3283]},{"type":"Point","properties":{"Station_ID":"NC-ML-15","Station_Nam":"BULADEAN 1.3 ESE, NC","Latitude":"36.10222","Longitude":"-82.17261","Snowdepth":"7.600","Units":"in","Rept_Date":"2020-12-25 14"},"coordinates":[4681,951]},{"type":"Point","properties":{"Station_ID":"QTV","Station_Nam":"QTV","Latitude":"49.66000","Longitude":"-69.35690","Snowdepth":"7.598","Units":"in","Rept_Date":"2020-12-25 12"},"coordinates":[8663,8802]},{"type":"Point","properties":{"Station_ID":"VT-WR-16","Station_Nam":"HARTLAND 1.6 NW, VT","Latitude":"43.55472","Longitude":"-72.42371","Snowdepth":"7.500","Units":"in","Rept_Date":"2020-12-25 12"},"coordinates":[7710,5267]},{"type":"Point","properties":{"Station_ID":"PA-CW-18","Station_Nam":"CONNEAUT LAKE 1.3 WNW, PA","Latitude":"41.60816","Longitude":"-80.33371","Snowdepth":"7.500","Units":"in","Rept_Date":"2020-12-25 12"},"coordinates":[5252,4140]},{"type":"Point","properties":{"Station_ID":"OH-PT-15","Station_Nam":"AURORA 2.0 W, OH","Latitude":"41.31224","Longitude":"-81.38221","Snowdepth":"7.500","Units":"in","Rept_Date":"2020-12-25 13"},"coordinates":[4927,3968]},{"type":"Point","properties":{"Station_ID":"OH-LR-8","Station_Nam":"ELYRIA 0.4 SE, OH","Latitude":"41.37628","Longitude":"-82.09920","Snowdepth":"7.500","Units":"in","Rept_Date":"2020-12-25 13"},"coordinates":[4704,4005]},{"type":"Point","properties":{"Station_ID":"OH-CY-53","Station_Nam":"BEREA 1.1 NW, OH","Latitude":"41.38213","Longitude":"-81.87579","Snowdepth":"7.500","Units":"in","Rept_Date":"2020-12-25 12"},"coordinates":[4773,4009]},{"type":"Point","properties":{"Station_ID":"OH-CY-42","Station_Nam":"STRONGSVILLE 1.3 SE, OH","Latitude":"41.29815","Longitude":"-81.81507","Snowdepth":"7.500","Units":"in","Rept_Date":"2020-12-25 13"},"coordinates":[4792,3960]},{"type":"Point","properties":{"Station_ID":"MN-IT-23","Station_Nam":"BOVEY 13.4 N, MN","Latitude":"47.48855","Longitude":"-93.43497","Snowdepth":"7.500","Units":"in","Rept_Date":"2020-12-25 13"},"coordinates":[1182,7545]},{"type":"Point","properties":{"Station_ID":"KY-RW-5","Station_Nam":"MOREHEAD 8.3 ESE, KY","Latitude":"38.14250","Longitude":"-83.30130","Snowdepth":"7.500","Units":"in","Rept_Date":"2020-12-25 14"},"coordinates":[4330,2133]},{"type":"Point","properties":{"Station_ID":"KY-PR-4","Station_Nam":"VIPER 0.5 N, KY","Latitude":"37.18771","Longitude":"-83.14938","Snowdepth":"7.500","Units":"in","Rept_Date":"2020-12-25 12"},"coordinates":[4377,1580]},{"type":"Point","properties":{"Station_ID":"KY-BE-6","Station_Nam":"CAMPTON 9.3 SE, KY","Latitude":"37.65732","Longitude":"-83.40796","Snowdepth":"7.500","Units":"in","Rept_Date":"2020-12-25 14"},"coordinates":[4297,1852]},{"type":"Point","properties":{"Station_ID":"41.6082_080.3337","Station_Nam":"1 WNW Conneaut Lake  CoCoRaHS (PA-CW-18)","Latitude":"41.60820","Longitude":"-80.33370","Snowdepth":"7.500","Units":"in","Rept_Date":"2020-12-25 12"},"coordinates":[5252,4140]},{"type":"Point","properties":{"Station_ID":"41.3123_081.3822","Station_Nam":"2 W Aurora  CoCoRaHS (OH-PT-15)","Latitude":"41.31230","Longitude":"-81.38220","Snowdepth":"7.500","Units":"in","Rept_Date":"2020-12-25 13"},"coordinates":[4927,3968]},{"type":"Point","properties":{"Station_ID":"41.2982_081.8151","Station_Nam":"1 SE Strongsville  Trained Spotter (CLE1180)","Latitude":"41.29818","Longitude":"-81.81507","Snowdepth":"7.500","Units":"in","Rept_Date":"2020-12-25 13"},"coordinates":[4792,3960]},{"type":"Point","properties":{"Station_ID":"NC-MS-33","Station_Nam":"MARSHALL 3.0 WSW, NC","Latitude":"35.78649","Longitude":"-82.73584","Snowdepth":"7.300","Units":"in","Rept_Date":"2020-12-25 12"},"coordinates":[4506,769]},{"type":"Point","properties":{"Station_ID":"WISV2","Station_Nam":"WISE 1SE","Latitude":"36.97250","Longitude":"-82.55790","Snowdepth":"7.000","Units":"in","Rept_Date":"2020-12-25 14"},"coordinates":[4561,1455]},{"type":"Point","properties":{"Station_ID":"WI-WB-2","Station_Nam":"STONE LAKE 2.0 NW, WI","Latitude":"45.85960","Longitude":"-91.57710","Snowdepth":"7.000","Units":"in","Rept_Date":"2020-12-25 13"},"coordinates":[1759,6602]},{"type":"Point","properties":{"Station_ID":"WI-DG-20","Station_Nam":"SOLON SPRINGS 1.2 W, WI","Latitude":"46.35217","Longitude":"-91.84405","Snowdepth":"7.000","Units":"in","Rept_Date":"2020-12-25 13"},"coordinates":[1676,6887]},{"type":"Point","properties":{"Station_ID":"WI-BY-6","Station_Nam":"BARNES 2.2 S, WI","Latitude":"46.30264","Longitude":"-91.50320","Snowdepth":"7.000","Units":"in","Rept_Date":"2020-12-25 13"},"coordinates":[1782,6858]},{"type":"Point","properties":{"Station_ID":"WI-AS-4","Station_Nam":"ASHLAND 0.5 WNW, WI","Latitude":"46.58240","Longitude":"-90.88390","Snowdepth":"7.000","Units":"in","Rept_Date":"2020-12-25 13"},"coordinates":[1974,7020]},{"type":"Point","properties":{"Station_ID":"WHBK2","Station_Nam":"WHITESBURG,KY","Latitude":"37.10280","Longitude":"-82.80470","Snowdepth":"7.000","Units":"in","Rept_Date":"2020-12-25 12"},"coordinates":[4485,1531]},{"type":"Point","properties":{"Station_ID":"TNST1","Station_Nam":"TOWNSEND 5S","Latitude":"35.60310","Longitude":"-83.77810","Snowdepth":"7.000","Units":"in","Rept_Date":"2020-12-25 13"},"coordinates":[4182,662]},{"type":"Point","properties":{"Station_ID":"SRAW3","Station_Nam":"SARONA","Latitude":"45.80250","Longitude":"-91.86700","Snowdepth":"7.000","Units":"in","Rept_Date":"2020-12-25 14"},"coordinates":[1669,6568]},{"type":"Point","properties":{"Station_ID":"SCOM4","Station_Nam":"SCOTTVILLE 2 SE","Latitude":"43.93310","Longitude":"-86.24530","Snowdepth":"7.000","Units":"in","Rept_Date":"2020-12-25 12"},"coordinates":[3416,5486]},{"type":"Point","properties":{"Station_ID":"OLVK2","Station_Nam":"OLIVE HILL 5NE","Latitude":"38.34230","Longitude":"-83.10380","Snowdepth":"7.000","Units":"in","Rept_Date":"2020-12-25 13"},"coordinates":[4392,2249]},{"type":"Point","properties":{"Station_ID":"OH-ER-5","Station_Nam":"WAKEMAN 4.6 NNE, OH","Latitude":"41.31902","Longitude":"-82.37730","Snowdepth":"7.000","Units":"in","Rept_Date":"2020-12-25 13"},"coordinates":[4617,3972]},{"type":"Point","properties":{"Station_ID":"OH-AS-5","Station_Nam":"SULLIVAN 1.1 NNE, OH","Latitude":"41.04200","Longitude":"-82.21260","Snowdepth":"7.000","Units":"in","Rept_Date":"2020-12-25 12"},"coordinates":[4669,3812]},{"type":"Point","properties":{"Station_ID":"NY-CR-5","Station_Nam":"MARATHON 1.0 NW, NY","Latitude":"42.45161","Longitude":"-76.04370","Snowdepth":"7.000","Units":"in","Rept_Date":"2020-12-25 12"},"coordinates":[6585,4628]},{"type":"Point","properties":{"Station_ID":"NOHM5","Station_Nam":"NORTHOME","Latitude":"47.83590","Longitude":"-94.25550","Snowdepth":"7.000","Units":"in","Rept_Date":"2020-12-25 13"},"coordinates":[927,7746]},{"type":"Point","properties":{"Station_ID":"NH-ST-31","Station_Nam":"STRAFFORD 2.9 N, NH","Latitude":"43.31175","Longitude":"-71.13510","Snowdepth":"7.000","Units":"in","Rept_Date":"2020-12-25 12"},"coordinates":[8110,5126]},{"type":"Point","properties":{"Station_ID":"MQT","Station_Nam":"MARQUETTE, MI","Latitude":"46.53140","Longitude":"-87.54920","Snowdepth":"7.000","Units":"in","Rept_Date":"2020-12-26 06"},"coordinates":[3010,6991]},{"type":"Point","properties":{"Station_ID":"MNBW2","Station_Nam":"MT. NEBO 1S","Latitude":"38.18790","Longitude":"-80.84840","Snowdepth":"7.000","Units":"in","Rept_Date":"2020-12-25 12"},"coordinates":[5092,2159]},{"type":"Point","properties":{"Station_ID":"MN-SL-115","Station_Nam":"COTTON 5.7 ESE, MN","Latitude":"47.15142","Longitude":"-92.35772","Snowdepth":"7.000","Units":"in","Rept_Date":"2020-12-25 14"},"coordinates":[1516,7350]},{"type":"Point","properties":{"Station_ID":"MN-IS-18","Station_Nam":"BRAHAM 0.7 SW, MN","Latitude":"45.71379","Longitude":"-93.18095","Snowdepth":"7.000","Units":"in","Rept_Date":"2020-12-25 14"},"coordinates":[1261,6517]},{"type":"Point","properties":{"Station_ID":"MN-AA-76","Station_Nam":"NOWTHEN 2.9 SSE, MN","Latitude":"45.30360","Longitude":"-93.42620","Snowdepth":"7.000","Units":"in","Rept_Date":"2020-12-25 13"},"coordinates":[1185,6280]},{"type":"Point","properties":{"Station_ID":"MCRW2","Station_Nam":"RUPERT 4N","Latitude":"38.01800","Longitude":"-80.68250","Snowdepth":"7.000","Units":"in","Rept_Date":"2020-12-25 12"},"coordinates":[5144,2061]},{"type":"Point","properties":{"Station_ID":"LUCW3","Station_Nam":"LUCK","Latitude":"45.57330","Longitude":"-92.48520","Snowdepth":"7.000","Units":"in","Rept_Date":"2020-12-25 17"},"coordinates":[1477,6436]},{"type":"Point","properties":{"Station_ID":"LAUP1","Station_Nam":"1.5MI S OF RT 30 ON SMIT (LAUREL RIDGE)","Latitude":"40.05000","Longitude":"-79.22060","Snowdepth":"7.000","Units":"in","Rept_Date":"2020-12-25 12"},"coordinates":[5598,3237]},{"type":"Point","properties":{"Station_ID":"KCAK","Station_Nam":"AKRON-CANTON REGIONAL AIRPORT","Latitude":"40.91666","Longitude":"-81.45000","Snowdepth":"7.000","Units":"in","Rept_Date":"2020-12-26 06"},"coordinates":[4905,3739]},{"type":"Point","properties":{"Station_ID":"HVJP1","Station_Nam":"HIDDEN VALLEY COOP","Latitude":"40.04200","Longitude":"-79.25660","Snowdepth":"7.000","Units":"in","Rept_Date":"2020-12-25 13"},"coordinates":[5587,3233]},{"type":"Point","properties":{"Station_ID":"HUNW2","Station_Nam":"HUNTINGTON AIRPORT SNOW OBSERVATIONS","Latitude":"38.36940","Longitude":"-82.55690","Snowdepth":"7.000","Units":"in","Rept_Date":"2020-12-25 12"},"coordinates":[4562,2264]},{"type":"Point","properties":{"Station_ID":"HAZK2","Station_Nam":"WATER PLANT","Latitude":"37.25000","Longitude":"-83.18330","Snowdepth":"7.000","Units":"in","Rept_Date":"2020-12-25 12"},"coordinates":[4367,1616]},{"type":"Point","properties":{"Station_ID":"ELYO1","Station_Nam":"ELYRIA,OH","Latitude":"41.30000","Longitude":"-82.11670","Snowdepth":"7.000","Units":"in","Rept_Date":"2020-12-25 12"},"coordinates":[4698,3961]},{"type":"Point","properties":{"Station_ID":"CLKM4","Station_Nam":"CLARKSBURG","Latitude":"46.49910","Longitude":"-87.84500","Snowdepth":"7.000","Units":"in","Rept_Date":"2020-12-25 12"},"coordinates":[2919,6972]},{"type":"Point","properties":{"Station_ID":"CAN-ON-245","Station_Nam":"PHELPSTON 3.1 ESE, CAN","Latitude":"44.50564","Longitude":"-79.81035","Snowdepth":"7.000","Units":"in","Rept_Date":"2020-12-25 12"},"coordinates":[5415,5818]},{"type":"Point","properties":{"Station_ID":"CAK","Station_Nam":"AKRON-CANTON REGIONAL ARPT","Latitude":"40.91640","Longitude":"-81.44250","Snowdepth":"7.000","Units":"in","Rept_Date":"2020-12-26 00"},"coordinates":[4908,3739]},{"type":"Point","properties":{"Station_ID":"CAAW2","Station_Nam":"CANAAN VALLEY","Latitude":"39.05890","Longitude":"-79.44030","Snowdepth":"7.000","Units":"in","Rept_Date":"2020-12-25 14"},"coordinates":[5530,2664]},{"type":"Point","properties":{"Station_ID":"AWXW3","Station_Nam":"ASHLAND","Latitude":"46.58240","Longitude":"-90.88390","Snowdepth":"7.000","Units":"in","Rept_Date":"2020-12-25 13"},"coordinates":[1974,7020]},{"type":"Point","properties":{"Station_ID":"41.7292_081.2062","Station_Nam":"2 E Painesville  Trained Spotter (CLE1248)","Latitude":"41.72920","Longitude":"-81.20620","Snowdepth":"7.000","Units":"in","Rept_Date":"2020-12-25 12"},"coordinates":[4981,4210]},{"type":"Point","properties":{"Station_ID":"41.6333_080.1432","Station_Nam":"1 S Meadville  Trained Spotter (CLE0350)","Latitude":"41.63328","Longitude":"-80.14322","Snowdepth":"7.000","Units":"in","Rept_Date":"2020-12-25 14"},"coordinates":[5311,4154]},{"type":"Point","properties":{"Station_ID":"41.3370_081.6137","Station_Nam":"2 N Brecksville  Trained Spotter (X4130816)","Latitude":"41.33696","Longitude":"-81.61373","Snowdepth":"7.000","Units":"in","Rept_Date":"2020-12-25 18"},"coordinates":[4855,3983]},{"type":"Point","properties":{"Station_ID":"41.2418_080.8767","Station_Nam":"Leavittsburg  Trained Spotter (X4120809)","Latitude":"41.24184","Longitude":"-80.87668","Snowdepth":"7.000","Units":"in","Rept_Date":"2020-12-25 13"},"coordinates":[5084,3928]},{"type":"Point","properties":{"Station_ID":"41.1403_081.4956","Station_Nam":"CUYAHOGA FALLS (CLE2128)","Latitude":"41.14030","Longitude":"-81.49560","Snowdepth":"7.000","Units":"in","Rept_Date":"2020-12-26 00"},"coordinates":[4891,3869]},{"type":"Point","properties":{"Station_ID":"41.1229_081.6252","Station_Nam":"FAIRLAWN  SNOW SPOTTER (X4110816)","Latitude":"41.12290","Longitude":"-81.62520","Snowdepth":"7.000","Units":"in","Rept_Date":"2020-12-25 23"},"coordinates":[4851,3859]},{"type":"Point","properties":{"Station_ID":"41.1184_081.4397","Station_Nam":"TALLMADGE (CLE2118)","Latitude":"41.11840","Longitude":"-81.43970","Snowdepth":"7.000","Units":"in","Rept_Date":"2020-12-26 01"},"coordinates":[4909,3856]},{"type":"Point","properties":{"Station_ID":"41.1091_082.4398","Station_Nam":"3 NW New London  Trained Spotter (CLE1905)","Latitude":"41.10907","Longitude":"-82.43975","Snowdepth":"7.000","Units":"in","Rept_Date":"2020-12-25 23"},"coordinates":[4598,3851]},{"type":"Point","properties":{"Station_ID":"41.1008_080.7488","Station_Nam":"AUSTINTOWN (CLE3303)","Latitude":"41.10080","Longitude":"-80.74880","Snowdepth":"7.000","Units":"in","Rept_Date":"2020-12-26 03"},"coordinates":[5123,3846]},{"type":"Point","properties":{"Station_ID":"41.0648_082.0192","Station_Nam":"LODI  SNOW SPOTTER (X4110820)","Latitude":"41.06480","Longitude":"-82.01920","Snowdepth":"7.000","Units":"in","Rept_Date":"2020-12-26 00"},"coordinates":[4729,3825]},{"type":"Point","properties":{"Station_ID":"41.0525_081.3883","Station_Nam":"1 ENE Mogadore  Trained Spotter (CLE2227)","Latitude":"41.05249","Longitude":"-81.38832","Snowdepth":"7.000","Units":"in","Rept_Date":"2020-12-26 01"},"coordinates":[4925,3818]},{"type":"Point","properties":{"Station_ID":"41.0420_082.2126","Station_Nam":"1 NNE Sullivan  CoCoRaHS (OH-AS-5)","Latitude":"41.04200","Longitude":"-82.21260","Snowdepth":"7.000","Units":"in","Rept_Date":"2020-12-25 12"},"coordinates":[4669,3812]},{"type":"Point","properties":{"Station_ID":"41.0364_080.7658","Station_Nam":"Canfield  Trained Spotter (CLE3322)","Latitude":"41.03638","Longitude":"-80.76579","Snowdepth":"7.000","Units":"in","Rept_Date":"2020-12-26 01"},"coordinates":[5118,3809]},{"type":"Point","properties":{"Station_ID":"40.7621_082.3071","Station_Nam":"3 WSW Hayesville  Trained Spotter (CLE3007)","Latitude":"40.76208","Longitude":"-82.30712","Snowdepth":"7.000","Units":"in","Rept_Date":"2020-12-25 13"},"coordinates":[4639,3650]},{"type":"Point","properties":{"Station_ID":"40.7301_082.8116","Station_Nam":"GALION (CLE2801)","Latitude":"40.73010","Longitude":"-82.81160","Snowdepth":"7.000","Units":"in","Rept_Date":"2020-12-25 22"},"coordinates":[4482,3631]},{"type":"Point","properties":{"Station_ID":"OH-SC-8","Station_Nam":"LUCASVILLE 0.9 ENE, OH","Latitude":"38.88450","Longitude":"-82.98017","Snowdepth":"6.900","Units":"in","Rept_Date":"2020-12-25 13"},"coordinates":[4430,2563]},{"type":"Point","properties":{"Station_ID":"OH-LC-26","Station_Nam":"KIRKERSVILLE 3.3 N, OH","Latitude":"39.99803","Longitude":"-82.59864","Snowdepth":"6.500","Units":"in","Rept_Date":"2020-12-25 13"},"coordinates":[4549,3207]},{"type":"Point","properties":{"Station_ID":"OH-FF-29","Station_Nam":"PICKERINGTON 2.4 N, OH","Latitude":"39.92527","Longitude":"-82.76738","Snowdepth":"6.500","Units":"in","Rept_Date":"2020-12-25 13"},"coordinates":[4496,3165]},{"type":"Point","properties":{"Station_ID":"NY-ER-39","Station_Nam":"HAMBURG 0.4 WSW, NY","Latitude":"42.72253","Longitude":"-78.84330","Snowdepth":"6.500","Units":"in","Rept_Date":"2020-12-25 12"},"coordinates":[5715,4785]},{"type":"Point","properties":{"Station_ID":"NH-MR-45","Station_Nam":"NORTHFIELD 2.8 E, NH","Latitude":"43.43945","Longitude":"-71.53730","Snowdepth":"6.500","Units":"in","Rept_Date":"2020-12-25 12"},"coordinates":[7985,5200]},{"type":"Point","properties":{"Station_ID":"MN-HN-31","Station_Nam":"MAPLE GROVE 1.0 NNE, MN","Latitude":"45.12261","Longitude":"-93.45790","Snowdepth":"6.500","Units":"in","Rept_Date":"2020-12-25 15"},"coordinates":[1175,6175]},{"type":"Point","properties":{"Station_ID":"KY-RW-3","Station_Nam":"MOREHEAD 6.4 NE, KY","Latitude":"38.24293","Longitude":"-83.34490","Snowdepth":"6.500","Units":"in","Rept_Date":"2020-12-25 12"},"coordinates":[4317,2191]},{"type":"Point","properties":{"Station_ID":"HPN04_MADIS","Station_Nam":"HANOVER","Latitude":"45.16770","Longitude":"-93.63430","Snowdepth":"6.500","Units":"in","Rept_Date":"2020-12-26 06"},"coordinates":[1120,6201]},{"type":"Point","properties":{"Station_ID":"HPN02_MADIS","Station_Nam":"MAPLE GROVE","Latitude":"45.11820","Longitude":"-93.42830","Snowdepth":"6.250","Units":"in","Rept_Date":"2020-12-26 06"},"coordinates":[1184,6172]},{"type":"Point","properties":{"Station_ID":"QLP","Station_Nam":"QLP","Latitude":"48.13920","Longitude":"-72.63830","Snowdepth":"6.181","Units":"in","Rept_Date":"2020-12-25 12"},"coordinates":[7643,7922]},{"type":"Point","properties":{"Station_ID":"WV-WD-18","Station_Nam":"WALKER 2.1 SW, WV","Latitude":"39.15838","Longitude":"-81.41237","Snowdepth":"6.100","Units":"in","Rept_Date":"2020-12-25 12"},"coordinates":[4917,2721]},{"type":"Point","properties":{"Station_ID":"TN-HC-2","Station_Nam":"KYLES FORD 1.0 N, TN","Latitude":"36.58910","Longitude":"-83.03980","Snowdepth":"6.100","Units":"in","Rept_Date":"2020-12-25 13"},"coordinates":[4412,1233]},{"type":"Point","properties":{"Station_ID":"OH-MD-1","Station_Nam":"WADSWORTH 4.7 WNW, OH","Latitude":"41.04276","Longitude":"-81.81930","Snowdepth":"6.100","Units":"in","Rept_Date":"2020-12-25 12"},"coordinates":[4791,3812]},{"type":"Point","properties":{"Station_ID":"OH-LC-29","Station_Nam":"PATASKALA 0.2 E, OH","Latitude":"40.00081","Longitude":"-82.66960","Snowdepth":"6.100","Units":"in","Rept_Date":"2020-12-25 13"},"coordinates":[4527,3209]},{"type":"Point","properties":{"Station_ID":"41.0428_081.8193","Station_Nam":"5 WNW Wadsworth  CoCoRaHS (OH-MD-1)","Latitude":"41.04280","Longitude":"-81.81930","Snowdepth":"6.100","Units":"in","Rept_Date":"2020-12-25 10"},"coordinates":[4791,3812]},{"type":"Point","properties":{"Station_ID":"WV-WD-7","Station_Nam":"WILLIAMSTOWN 0.4 WNW, WV","Latitude":"39.40280","Longitude":"-81.45720","Snowdepth":"6.000","Units":"in","Rept_Date":"2020-12-25 12"},"coordinates":[4903,2863]},{"type":"Point","properties":{"Station_ID":"WTNM4","Station_Nam":"WATTON 2WSW","Latitude":"46.52660","Longitude":"-88.64240","Snowdepth":"6.000","Units":"in","Rept_Date":"2020-12-25 13"},"coordinates":[2671,6988]},{"type":"Point","properties":{"Station_ID":"VT-WH-19","Station_Nam":"EAST DOVER 1.8 N, VT","Latitude":"42.97658","Longitude":"-72.77637","Snowdepth":"6.000","Units":"in","Rept_Date":"2020-12-25 12"},"coordinates":[7600,4932]},{"type":"Point","properties":{"Station_ID":"VT-BN-3","Station_Nam":"LANDGROVE 1.1 NNE, VT","Latitude":"43.29092","Longitude":"-72.83260","Snowdepth":"6.000","Units":"in","Rept_Date":"2020-12-25 13"},"coordinates":[7583,5114]},{"type":"Point","properties":{"Station_ID":"TZET1","Station_Nam":"SEWAGE PLANT","Latitude":"36.46500","Longitude":"-83.56030","Snowdepth":"6.000","Units":"in","Rept_Date":"2020-12-25 13"},"coordinates":[4250,1162]},{"type":"Point","properties":{"Station_ID":"SWEI4","Station_Nam":"SWEA CITY,IA","Latitude":"43.38530","Longitude":"-94.25000","Snowdepth":"6.000","Units":"in","Rept_Date":"2020-12-25 12"},"coordinates":[929,5169]},{"type":"Point","properties":{"Station_ID":"STEM4","Station_Nam":"STEUBEN","Latitude":"46.18530","Longitude":"-86.46410","Snowdepth":"6.000","Units":"in","Rept_Date":"2020-12-25 14"},"coordinates":[3348,6790]},{"type":"Point","properties":{"Station_ID":"SBNN6","Station_Nam":"SANBORN","Latitude":"43.17050","Longitude":"-78.81810","Snowdepth":"6.000","Units":"in","Rept_Date":"2020-12-25 12"},"coordinates":[5723,5044]},{"type":"Point","properties":{"Station_ID":"SACO1","Station_Nam":"SALEM CENTER 2 E","Latitude":"39.07010","Longitude":"-82.29090","Snowdepth":"6.000","Units":"in","Rept_Date":"2020-12-25 12"},"coordinates":[4644,2670]},{"type":"Point","properties":{"Station_ID":"ROBW3","Station_Nam":"ROBERTS WWTP","Latitude":"44.97070","Longitude":"-92.56200","Snowdepth":"6.000","Units":"in","Rept_Date":"2020-12-25 14"},"coordinates":[1453,6087]},{"type":"Point","properties":{"Station_ID":"RKWI4","Station_Nam":"ROCKWELL CITY,IA","Latitude":"42.40000","Longitude":"-94.61670","Snowdepth":"6.000","Units":"in","Rept_Date":"2020-12-25 13"},"coordinates":[815,4598]},{"type":"Point","properties":{"Station_ID":"PHEW3","Station_Nam":"PHELPS","Latitude":"46.06630","Longitude":"-89.07520","Snowdepth":"6.000","Units":"in","Rept_Date":"2020-12-25 13"},"coordinates":[2536,6721]},{"type":"Point","properties":{"Station_ID":"PERV1","Station_Nam":"PERU","Latitude":"43.26670","Longitude":"-72.90000","Snowdepth":"6.000","Units":"in","Rept_Date":"2020-12-25 12"},"coordinates":[7562,5100]},{"type":"Point","properties":{"Station_ID":"PELK2","Station_Nam":"PRESTONSBURG 3WSW","Latitude":"37.65510","Longitude":"-82.82940","Snowdepth":"6.000","Units":"in","Rept_Date":"2020-12-25 12"},"coordinates":[4477,1851]},{"type":"Point","properties":{"Station_ID":"PDGM4","Station_Nam":"PAULDING","Latitude":"46.39760","Longitude":"-89.17940","Snowdepth":"6.000","Units":"in","Rept_Date":"2020-12-25 14"},"coordinates":[2504,6913]},{"type":"Point","properties":{"Station_ID":"PA-BF-20","Station_Nam":"SAYRE 0.7 S, PA","Latitude":"41.97510","Longitude":"-76.52100","Snowdepth":"6.000","Units":"in","Rept_Date":"2020-12-25 12"},"coordinates":[6437,4352]},{"type":"Point","properties":{"Station_ID":"OH-SM-5","Station_Nam":"CUYAHOGA FALLS 1.1 ESE, OH","Latitude":"41.16228","Longitude":"-81.50370","Snowdepth":"6.000","Units":"in","Rept_Date":"2020-12-25 12"},"coordinates":[4889,3882]},{"type":"Point","properties":{"Station_ID":"OH-MW-4","Station_Nam":"MOUNT GILEAD 4.9 ESE, OH","Latitude":"40.51426","Longitude":"-82.75561","Snowdepth":"6.000","Units":"in","Rept_Date":"2020-12-25 12"},"coordinates":[4500,3506]},{"type":"Point","properties":{"Station_ID":"OH-CW-1","Station_Nam":"GALION 1.1 W, OH","Latitude":"40.73024","Longitude":"-82.81170","Snowdepth":"6.000","Units":"in","Rept_Date":"2020-12-25 12"},"coordinates":[4482,3631]},{"type":"Point","properties":{"Station_ID":"OH-AT-9","Station_Nam":"GLOUSTER 3.6 SW, OH","Latitude":"39.46762","Longitude":"-82.13360","Snowdepth":"6.000","Units":"in","Rept_Date":"2020-12-25 12"},"coordinates":[4693,2900]},{"type":"Point","properties":{"Station_ID":"OH-AT-3","Station_Nam":"STEWART 4.6 NNE, OH","Latitude":"39.37182","Longitude":"-81.86620","Snowdepth":"6.000","Units":"in","Rept_Date":"2020-12-25 13"},"coordinates":[4776,2845]},{"type":"Point","properties":{"Station_ID":"OBEO1","Station_Nam":"OBERLIN,OH","Latitude":"41.26670","Longitude":"-82.21670","Snowdepth":"6.000","Units":"in","Rept_Date":"2020-12-25 13"},"coordinates":[4667,3942]},{"type":"Point","properties":{"Station_ID":"NY-TG-26","Station_Nam":"CANDOR 0.7 NW, NY","Latitude":"42.23428","Longitude":"-76.34758","Snowdepth":"6.000","Units":"in","Rept_Date":"2020-12-25 12"},"coordinates":[6491,4502]},{"type":"Point","properties":{"Station_ID":"NY-ES-6","Station_Nam":"OLMSTEDVILLE 4.6 NNE, NY","Latitude":"43.83350","Longitude":"-73.89780","Snowdepth":"6.000","Units":"in","Rept_Date":"2020-12-25 13"},"coordinates":[7252,5428]},{"type":"Point","properties":{"Station_ID":"NY-ER-189","Station_Nam":"HAMBURG 2.0 N, NY","Latitude":"42.75337","Longitude":"-78.83452","Snowdepth":"6.000","Units":"in","Rept_Date":"2020-12-25 13"},"coordinates":[5718,4803]},{"type":"Point","properties":{"Station_ID":"NY-ER-178","Station_Nam":"WEST SENECA 2.5 SE, NY","Latitude":"42.81374","Longitude":"-78.71399","Snowdepth":"6.000","Units":"in","Rept_Date":"2020-12-25 13"},"coordinates":[5756,4838]},{"type":"Point","properties":{"Station_ID":"NY-ER-102","Station_Nam":"CHEEKTOWAGA 2.7 NE, NY","Latitude":"42.94119","Longitude":"-78.71933","Snowdepth":"6.000","Units":"in","Rept_Date":"2020-12-25 12"},"coordinates":[5754,4912]},{"type":"Point","properties":{"Station_ID":"NY-CQ-41","Station_Nam":"MAYVILLE 0.2 ESE, NY","Latitude":"42.25194","Longitude":"-79.49809","Snowdepth":"6.000","Units":"in","Rept_Date":"2020-12-25 12"},"coordinates":[5512,4512]},{"type":"Point","properties":{"Station_ID":"NY-CQ-27","Station_Nam":"SILVER CREEK 1.0 SSE, NY","Latitude":"42.53088","Longitude":"-79.15986","Snowdepth":"6.000","Units":"in","Rept_Date":"2020-12-25 15"},"coordinates":[5617,4674]},{"type":"Point","properties":{"Station_ID":"NY-CQ-22","Station_Nam":"FREDONIA 0.8 WNW, NY","Latitude":"42.44414","Longitude":"-79.34610","Snowdepth":"6.000","Units":"in","Rept_Date":"2020-12-25 10"},"coordinates":[5559,4624]},{"type":"Point","properties":{"Station_ID":"NH-GR-55","Station_Nam":"BRISTOL 3.7 E, NH","Latitude":"43.60517","Longitude":"-71.67158","Snowdepth":"6.000","Units":"in","Rept_Date":"2020-12-25 11"},"coordinates":[7944,5296]},{"type":"Point","properties":{"Station_ID":"NH-CR-34","Station_Nam":"WAKEFIELD 6.0 NNW, NH","Latitude":"43.63917","Longitude":"-71.05210","Snowdepth":"6.000","Units":"in","Rept_Date":"2020-12-25 12"},"coordinates":[8136,5316]},{"type":"Point","properties":{"Station_ID":"NH-CR-26","Station_Nam":"CENTER SANDWICH 4.9 E, NH","Latitude":"43.80976","Longitude":"-71.34150","Snowdepth":"6.000","Units":"in","Rept_Date":"2020-12-25 12"},"coordinates":[8046,5415]},{"type":"Point","properties":{"Station_ID":"NH-BK-9","Station_Nam":"MEREDITH 2.9 SSW, NH","Latitude":"43.62245","Longitude":"-71.53510","Snowdepth":"6.000","Units":"in","Rept_Date":"2020-12-25 12"},"coordinates":[7986,5306]},{"type":"Point","properties":{"Station_ID":"NC-MS-19","Station_Nam":"MARSHALL 15.1 NNE, NC","Latitude":"36.00835","Longitude":"-82.61821","Snowdepth":"6.000","Units":"in","Rept_Date":"2020-12-25 12"},"coordinates":[4543,897]},{"type":"Point","properties":{"Station_ID":"NC-MS-18","Station_Nam":"LEICESTER 6.5 WNW, NC","Latitude":"35.69550","Longitude":"-82.79910","Snowdepth":"6.000","Units":"in","Rept_Date":"2020-12-25 12"},"coordinates":[4486,716]},{"type":"Point","properties":{"Station_ID":"NC-AV-1","Station_Nam":"FLAT SPRINGS 1.2 E, NC","Latitude":"36.25250","Longitude":"-81.91330","Snowdepth":"6.000","Units":"in","Rept_Date":"2020-12-25 12"},"coordinates":[4762,1038]},{"type":"Point","properties":{"Station_ID":"MPXM5","Station_Nam":"CHANHASSEN WSFO","Latitude":"44.84960","Longitude":"-93.56440","Snowdepth":"6.000","Units":"in","Rept_Date":"2020-12-26 06"},"coordinates":[1142,6017]},{"type":"Point","properties":{"Station_ID":"MN-SE-2","Station_Nam":"OWATONNA 0.8 E, MN","Latitude":"44.09170","Longitude":"-93.21380","Snowdepth":"6.000","Units":"in","Rept_Date":"2020-12-25 13"},"coordinates":[1250,5578]},{"type":"Point","properties":{"Station_ID":"MN-RM-120","Station_Nam":"MAPLEWOOD 5.6 SSE, MN","Latitude":"44.90588","Longitude":"-92.99712","Snowdepth":"6.000","Units":"in","Rept_Date":"2020-12-25 15"},"coordinates":[1318,6049]},{"type":"Point","properties":{"Station_ID":"MN-RC-38","Station_Nam":"FARIBAULT 1.6 S, MN","Latitude":"44.27639","Longitude":"-93.27306","Snowdepth":"6.000","Units":"in","Rept_Date":"2020-12-25 13"},"coordinates":[1232,5685]},{"type":"Point","properties":{"Station_ID":"MN-IS-21","Station_Nam":"ISANTI 5.0 SW, MN","Latitude":"45.43360","Longitude":"-93.30200","Snowdepth":"6.000","Units":"in","Rept_Date":"2020-12-25 14"},"coordinates":[1223,6355]},{"type":"Point","properties":{"Station_ID":"MN-HN-19","Station_Nam":"EDINA 1.3 SW, MN","Latitude":"44.87830","Longitude":"-93.37890","Snowdepth":"6.000","Units":"in","Rept_Date":"2020-12-25 13"},"coordinates":[1199,6033]},{"type":"Point","properties":{"Station_ID":"MN-DK-53","Station_Nam":"LAKEVILLE 3.8 ENE, MN","Latitude":"44.70423","Longitude":"-93.18460","Snowdepth":"6.000","Units":"in","Rept_Date":"2020-12-25 14"},"coordinates":[1260,5932]},{"type":"Point","properties":{"Station_ID":"MN-CW-22","Station_Nam":"FORT RIPLEY 0.8 N, MN","Latitude":"46.18089","Longitude":"-94.36510","Snowdepth":"6.000","Units":"in","Rept_Date":"2020-12-25 13"},"coordinates":[893,6788]},{"type":"Point","properties":{"Station_ID":"MI-BN-5","Station_Nam":"BUCHANAN 1.3 WNW, MI","Latitude":"41.83634","Longitude":"-86.38900","Snowdepth":"6.000","Units":"in","Rept_Date":"2020-12-25 12"},"coordinates":[3371,4272]},{"type":"Point","properties":{"Station_ID":"MFD","Station_Nam":"LAHM MUNICIPAL AIRPORT","Latitude":"40.82140","Longitude":"-82.51640","Snowdepth":"6.000","Units":"in","Rept_Date":"2020-12-26 00"},"coordinates":[4574,3684]},{"type":"Point","properties":{"Station_ID":"JKL","Station_Nam":"JACKSON, KY","Latitude":"37.59390","Longitude":"-83.31720","Snowdepth":"6.000","Units":"in","Rept_Date":"2020-12-26 06"},"coordinates":[4325,1815]},{"type":"Point","properties":{"Station_ID":"JACO1","Station_Nam":"JACKSON 3 NW","Latitude":"39.07900","Longitude":"-82.70640","Snowdepth":"6.000","Units":"in","Rept_Date":"2020-12-25 12"},"coordinates":[4515,2675]},{"type":"Point","properties":{"Station_ID":"INEK2","Station_Nam":"WATER PLANT","Latitude":"37.86670","Longitude":"-82.51670","Snowdepth":"6.000","Units":"in","Rept_Date":"2020-12-25 12"},"coordinates":[4574,1973]},{"type":"Point","properties":{"Station_ID":"HVAW2","Station_Nam":"HACKER VALLEY","Latitude":"38.61950","Longitude":"-80.38210","Snowdepth":"6.000","Units":"in","Rept_Date":"2020-12-25 12"},"coordinates":[5237,2409]},{"type":"Point","properties":{"Station_ID":"FTSN7","Station_Nam":"FLAT SPRINGS 1E","Latitude":"36.25270","Longitude":"-81.91360","Snowdepth":"6.000","Units":"in","Rept_Date":"2020-12-25 12"},"coordinates":[4761,1039]},{"type":"Point","properties":{"Station_ID":"FORM5","Station_Nam":"FOREST LAKE 5NE","Latitude":"45.33170","Longitude":"-92.89820","Snowdepth":"6.000","Units":"in","Rept_Date":"2020-12-25 13"},"coordinates":[1349,6296]},{"type":"Point","properties":{"Station_ID":"ESDN3","Station_Nam":"EAST SANDWICH","Latitude":"43.80990","Longitude":"-71.34250","Snowdepth":"6.000","Units":"in","Rept_Date":"2020-12-25 11"},"coordinates":[8046,5415]},{"type":"Point","properties":{"Station_ID":"EMBM5","Station_Nam":"EMBARASS,MN","Latitude":"47.65810","Longitude":"-92.19580","Snowdepth":"6.000","Units":"in","Rept_Date":"2020-12-25 12"},"coordinates":[1567,7643]},{"type":"Point","properties":{"Station_ID":"DLHM5","Station_Nam":"DULUTH NWS","Latitude":"46.83680","Longitude":"-92.21080","Snowdepth":"6.000","Units":"in","Rept_Date":"2020-12-26 06"},"coordinates":[1562,7167]},{"type":"Point","properties":{"Station_ID":"DLH","Station_Nam":"DULUTH, MN","Latitude":"46.83690","Longitude":"-92.21030","Snowdepth":"6.000","Units":"in","Rept_Date":"2020-12-26 00"},"coordinates":[1562,7167]},{"type":"Point","properties":{"Station_ID":"CSLM5","Station_Nam":"CASS LAKE,MN","Latitude":"47.38470","Longitude":"-94.61470","Snowdepth":"6.000","Units":"in","Rept_Date":"2020-12-25 14"},"coordinates":[815,7485]},{"type":"Point","properties":{"Station_ID":"COVP1","Station_Nam":"COVINGTON 2WSW","Latitude":"41.73330","Longitude":"-77.11670","Snowdepth":"6.000","Units":"in","Rept_Date":"2020-12-25 12"},"coordinates":[6252,4212]},{"type":"Point","properties":{"Station_ID":"COUW3","Station_Nam":"COUDERAY,WI","Latitude":"45.86670","Longitude":"-91.45000","Snowdepth":"6.000","Units":"in","Rept_Date":"2020-12-25 22"},"coordinates":[1799,6606]},{"type":"Point","properties":{"Station_ID":"CON","Station_Nam":"CONCORD MUNI ARPT","Latitude":"43.20280","Longitude":"-71.50220","Snowdepth":"6.000","Units":"in","Rept_Date":"2020-12-25 12"},"coordinates":[7996,5063]},{"type":"Point","properties":{"Station_ID":"CAN-ON-668","Station_Nam":"SCOTLAND 2.1 ENE - BSCIA02, CAN","Latitude":"43.02846","Longitude":"-80.34917","Snowdepth":"6.000","Units":"in","Rept_Date":"2020-12-25 12"},"coordinates":[5247,4962]},{"type":"Point","properties":{"Station_ID":"BSSW2","Station_Nam":"BECKLEY AIRPORT SNOW OBSERVATION","Latitude":"37.78690","Longitude":"-81.11370","Snowdepth":"6.000","Units":"in","Rept_Date":"2020-12-25 12"},"coordinates":[5010,1927]},{"type":"Point","properties":{"Station_ID":"BRAM5","Station_Nam":"BRAINERD","Latitude":"46.34320","Longitude":"-94.20900","Snowdepth":"6.000","Units":"in","Rept_Date":"2020-12-25 13"},"coordinates":[941,6882]},{"type":"Point","properties":{"Station_ID":"BKBW2","Station_Nam":"DAVIS.","Latitude":"39.09830","Longitude":"-79.43190","Snowdepth":"6.000","Units":"in","Rept_Date":"2020-12-25 12"},"coordinates":[5532,2686]},{"type":"Point","properties":{"Station_ID":"BGBM4","Station_Nam":"BIG BAY 1NW","Latitude":"46.83250","Longitude":"-87.75040","Snowdepth":"6.000","Units":"in","Rept_Date":"2020-12-25 13"},"coordinates":[2948,7165]},{"type":"Point","properties":{"Station_ID":"BERO1","Station_Nam":"BERLIN LAKE DAM","Latitude":"41.11690","Longitude":"-81.00940","Snowdepth":"6.000","Units":"in","Rept_Date":"2020-12-25 12"},"coordinates":[5042,3855]},{"type":"Point","properties":{"Station_ID":"BCHN7","Station_Nam":"BEECH MOUNTAIN","Latitude":"36.18780","Longitude":"-81.87360","Snowdepth":"6.000","Units":"in","Rept_Date":"2020-12-25 12"},"coordinates":[4774,1001]},{"type":"Point","properties":{"Station_ID":"BALW3","Station_Nam":"BALDWIN","Latitude":"44.96330","Longitude":"-92.39050","Snowdepth":"6.000","Units":"in","Rept_Date":"2020-12-25 13"},"coordinates":[1506,6083]},{"type":"Point","properties":{"Station_ID":"ALXO1","Station_Nam":"ALEXANDRIA 2 NNW","Latitude":"40.11810","Longitude":"-82.62640","Snowdepth":"6.000","Units":"in","Rept_Date":"2020-12-25 12"},"coordinates":[4540,3277]},{"type":"Point","properties":{"Station_ID":"41.6619_080.1466","Station_Nam":"1 N Meadville  Trained Spotter (CLE0332)","Latitude":"41.66186","Longitude":"-80.14658","Snowdepth":"6.000","Units":"in","Rept_Date":"2020-12-25 14"},"coordinates":[5310,4171]},{"type":"Point","properties":{"Station_ID":"41.5363_080.8353","Station_Nam":"ORWELL 1E  SNOW SPOTTER (CLE1445)","Latitude":"41.53630","Longitude":"-80.83530","Snowdepth":"6.000","Units":"in","Rept_Date":"2020-12-26 01"},"coordinates":[5096,4098]},{"type":"Point","properties":{"Station_ID":"41.3763_082.0992","Station_Nam":"Elyria  Trained Spotter (CLE1010)","Latitude":"41.37628","Longitude":"-82.09918","Snowdepth":"6.000","Units":"in","Rept_Date":"2020-12-26 02"},"coordinates":[4704,4005]},{"type":"Point","properties":{"Station_ID":"41.2667_082.2167","Station_Nam":"1 S OBERLIN  CO-OP OBSERVER (OBEO1)","Latitude":"41.26670","Longitude":"-82.21670","Snowdepth":"6.000","Units":"in","Rept_Date":"2020-12-25 13"},"coordinates":[4667,3942]},{"type":"Point","properties":{"Station_ID":"41.2282_080.8472","Station_Nam":"WARREN (CLE2324)","Latitude":"41.22820","Longitude":"-80.84720","Snowdepth":"6.000","Units":"in","Rept_Date":"2020-12-25 13"},"coordinates":[5093,3920]},{"type":"Point","properties":{"Station_ID":"41.1623_081.5037","Station_Nam":"1 ESE Cuyahoga Falls  CoCoRaHS (OH-SM-5)","Latitude":"41.16230","Longitude":"-81.50370","Snowdepth":"6.000","Units":"in","Rept_Date":"2020-12-25 12"},"coordinates":[4889,3882]},{"type":"Point","properties":{"Station_ID":"41.1169_081.0094","Station_Nam":"Berlin Lake Dam  Co-Op Observer (BERO1)","Latitude":"41.11690","Longitude":"-81.00940","Snowdepth":"6.000","Units":"in","Rept_Date":"2020-12-25 12"},"coordinates":[5042,3855]},{"type":"Point","properties":{"Station_ID":"40.9167_081.4354","Station_Nam":"Akron-Canton Airport  Trained Spotter (CLE2105)","Latitude":"40.91669","Longitude":"-81.43544","Snowdepth":"6.000","Units":"in","Rept_Date":"2020-12-25 18"},"coordinates":[4910,3739]},{"type":"Point","properties":{"Station_ID":"40.9055_081.0990","Station_Nam":"1 ESE Alliance  Trained Spotter (CLE3238)","Latitude":"40.90545","Longitude":"-81.09899","Snowdepth":"6.000","Units":"in","Rept_Date":"2020-12-26 03"},"coordinates":[5015,3733]},{"type":"Point","properties":{"Station_ID":"40.7020_081.2929","Station_Nam":"WAYNESBURG  SNOW SPOTTER (X4070813)","Latitude":"40.70200","Longitude":"-81.29290","Snowdepth":"6.000","Units":"in","Rept_Date":"2020-12-25 23"},"coordinates":[4954,3615]},{"type":"Point","properties":{"Station_ID":"40.6548_082.3112","Station_Nam":"Perrysville  Trained Spotter (X4070823)","Latitude":"40.65480","Longitude":"-82.31123","Snowdepth":"6.000","Units":"in","Rept_Date":"2020-12-26 00"},"coordinates":[4638,3588]},{"type":"Point","properties":{"Station_ID":"40.6532_081.2911","Station_Nam":"MAGNOLIA  SNOW SPOTTER (CLE3234)","Latitude":"40.65320","Longitude":"-81.29110","Snowdepth":"6.000","Units":"in","Rept_Date":"2020-12-25 14"},"coordinates":[4955,3587]},{"type":"Point","properties":{"Station_ID":"40.5143_082.7556","Station_Nam":"5 ESE Mount Gilead  CoCoRaHS (OH-MW-4)","Latitude":"40.51430","Longitude":"-82.75560","Snowdepth":"6.000","Units":"in","Rept_Date":"2020-12-25 11"},"coordinates":[4500,3506]},{"type":"Point","properties":{"Station_ID":"OH-PK-1","Station_Nam":"PIKETON 1.3 SSE, OH","Latitude":"39.05250","Longitude":"-82.98806","Snowdepth":"5.900","Units":"in","Rept_Date":"2020-12-25 14"},"coordinates":[4428,2660]},{"type":"Point","properties":{"Station_ID":"CAN-ON-771","Station_Nam":"KENORA 8.7 NNE - CANWARN, CAN","Latitude":"49.84171","Longitude":"-94.44386","Snowdepth":"5.900","Units":"in","Rept_Date":"2020-12-25 13"},"coordinates":[868,8907]},{"type":"Point","properties":{"Station_ID":"CAN-ON-477","Station_Nam":"CALEDONIA 0.3 NW - GRCA, CAN","Latitude":"43.07135","Longitude":"-79.95667","Snowdepth":"5.900","Units":"in","Rept_Date":"2020-12-25 12"},"coordinates":[5369,4987]},{"type":"Point","properties":{"Station_ID":"OH-MH-11","Station_Nam":"CANFIELD 0.5 N, OH","Latitude":"41.03644","Longitude":"-80.76585","Snowdepth":"5.800","Units":"in","Rept_Date":"2020-12-25 14"},"coordinates":[5118,3809]},{"type":"Point","properties":{"Station_ID":"41.0364_080.7659","Station_Nam":"1 N Canfield  CoCoRaHS (OH-MH-11)","Latitude":"41.03640","Longitude":"-80.76590","Snowdepth":"5.800","Units":"in","Rept_Date":"2020-12-25 14"},"coordinates":[5118,3809]},{"type":"Point","properties":{"Station_ID":"WV-WD-11","Station_Nam":"VIENNA 1.3 NE, WV","Latitude":"39.33779","Longitude":"-81.52233","Snowdepth":"5.600","Units":"in","Rept_Date":"2020-12-25 12"},"coordinates":[4883,2825]},{"type":"Point","properties":{"Station_ID":"WV-RT-2","Station_Nam":"PENNSBORO 1.2 ESE, WV","Latitude":"39.27361","Longitude":"-80.95578","Snowdepth":"5.500","Units":"in","Rept_Date":"2020-12-25 12"},"coordinates":[5059,2788]},{"type":"Point","properties":{"Station_ID":"WV-PR-11","Station_Nam":"THOMAS 7.4 N, WV","Latitude":"39.25361","Longitude":"-79.51055","Snowdepth":"5.500","Units":"in","Rept_Date":"2020-12-25 12"},"coordinates":[5508,2776]},{"type":"Point","properties":{"Station_ID":"WV-KN-25","Station_Nam":"CHARLESTON 5.8 ENE, WV","Latitude":"38.38074","Longitude":"-81.53135","Snowdepth":"5.500","Units":"in","Rept_Date":"2020-12-25 12"},"coordinates":[4880,2271]},{"type":"Point","properties":{"Station_ID":"WV-CB-21","Station_Nam":"HUNTINGTON 6.3 E, WV","Latitude":"38.42192","Longitude":"-82.31822","Snowdepth":"5.500","Units":"in","Rept_Date":"2020-12-25 12"},"coordinates":[4636,2295]},{"type":"Point","properties":{"Station_ID":"OH-TS-1","Station_Nam":"DOVER 4.6 WNW, OH","Latitude":"40.55070","Longitude":"-81.56400","Snowdepth":"5.500","Units":"in","Rept_Date":"2020-12-25 13"},"coordinates":[4870,3527]},{"type":"Point","properties":{"Station_ID":"OH-LC-1","Station_Nam":"ALEXANDRIA 2.1 NNW, OH","Latitude":"40.11817","Longitude":"-82.62647","Snowdepth":"5.500","Units":"in","Rept_Date":"2020-12-25 12"},"coordinates":[4540,3277]},