{"type":"Topology","objects":{"snowdepth_geo":{"type":"GeometryCollection","name":"snowdepth","crs":{"type":"name","properties":{"name":"urn:ogc:def:crs:OGC:1.3:CRS84"}},"geometries":[{"type":"Point","properties":{"Station_ID":"DGVW3","Station_Nam":"DODGEVILLE","Latitude":"42.96670","Longitude":"-90.11670","Snowdepth":"112.000","Units":"in","Rept_Date":"2020-02-18 13"},"coordinates":[1844,2051]},{"type":"Point","properties":{"Station_ID":"PRKM4","Station_Nam":"MUNISING EAST","Latitude":"46.42580","Longitude":"-86.62000","Snowdepth":"76.500","Units":"in","Rept_Date":"2020-02-19 06"},"coordinates":[2749,5189]},{"type":"Point","properties":{"Station_ID":"OGIQ6","Station_Nam":"OGOKI CAMP","Latitude":"50.76680","Longitude":"-87.85820","Snowdepth":"61.100","Units":"in","Rept_Date":"2020-02-19 06"},"coordinates":[2429,9128]},{"type":"Point","properties":{"Station_ID":"MMNV1","Station_Nam":"MT. MANSFIELD","Latitude":"44.52480","Longitude":"-72.81540","Snowdepth":"59.000","Units":"in","Rept_Date":"2020-02-18 21"},"coordinates":[6323,3464]},{"type":"Point","properties":{"Station_ID":"HTLN3","Station_Nam":"HERMIT LAKE SNOWPLOT","Latitude":"44.26130","Longitude":"-71.28330","Snowdepth":"55.000","Units":"in","Rept_Date":"2020-02-18 10"},"coordinates":[6720,3225]},{"type":"Point","properties":{"Station_ID":"PDLM4","Station_Nam":"PAINESDALE","Latitude":"47.04160","Longitude":"-88.67170","Snowdepth":"51.000","Units":"in","Rept_Date":"2020-02-18 13"},"coordinates":[2218,5748]},{"type":"Point","properties":{"Station_ID":"CLUM4","Station_Nam":"CALUMET-TAMARACK","Latitude":"47.24550","Longitude":"-88.46790","Snowdepth":"49.000","Units":"in","Rept_Date":"2020-02-18 14"},"coordinates":[2271,5933]},{"type":"Point","properties":{"Station_ID":"AUDQ6","Station_Nam":"AUDEN","Latitude":"48.52600","Longitude":"-82.57570","Snowdepth":"47.640","Units":"in","Rept_Date":"2020-02-19 06"},"coordinates":[3796,7095]},{"type":"Point","properties":{"Station_ID":"HVCN3","Station_Nam":"HARVARD CABIN SNOWPLOT","Latitude":"44.26630","Longitude":"-71.27790","Snowdepth":"44.000","Units":"in","Rept_Date":"2020-02-18 10"},"coordinates":[6721,3230]},{"type":"Point","properties":{"Station_ID":"GMSM4","Station_Nam":"GRAND MARAIS 10S","Latitude":"46.50940","Longitude":"-85.96310","Snowdepth":"44.000","Units":"in","Rept_Date":"2020-02-18 12"},"coordinates":[2919,5265]},{"type":"Point","properties":{"Station_ID":"DVLQ6","Station_Nam":"DEVIOUS LAKE","Latitude":"49.19890","Longitude":"-87.76440","Snowdepth":"43.460","Units":"in","Rept_Date":"2020-02-19 06"},"coordinates":[2453,7705]},{"type":"Point","properties":{"Station_ID":"WLFM5","Station_Nam":"WOLF RIDGE ENVIRON LEARNING CENTER","Latitude":"47.38240","Longitude":"-91.19730","Snowdepth":"41.000","Units":"in","Rept_Date":"2020-02-18 13"},"coordinates":[1564,6057]},{"type":"Point","properties":{"Station_ID":"MN5ZKXWG","Station_Nam":"ILLGEN CITY 2.3 NNW","Latitude":"47.37901","Longitude":"-91.20365","Snowdepth":"41.000","Units":"in","Rept_Date":"2020-02-18 13"},"coordinates":[1562,6054]},{"type":"Point","properties":{"Station_ID":"KSGM4","Station_Nam":"KEARSARGE","Latitude":"47.27520","Longitude":"-88.41700","Snowdepth":"40.000","Units":"in","Rept_Date":"2020-02-18 13"},"coordinates":[2284,5960]},{"type":"Point","properties":{"Station_ID":"IBLM5","Station_Nam":"ISABELLA 14W","Latitude":"47.59360","Longitude":"-91.65140","Snowdepth":"39.000","Units":"in","Rept_Date":"2020-02-18 15"},"coordinates":[1447,6249]},{"type":"Point","properties":{"Station_ID":"MI-KW-2","Station_Nam":"DELAWARE 5.2 SW, MI","Latitude":"47.36928","Longitude":"-88.17919","Snowdepth":"37.000","Units":"in","Rept_Date":"2020-02-18 09"},"coordinates":[2346,6045]},{"type":"Point","properties":{"Station_ID":"QGO","Station_Nam":"QGO","Latitude":"48.85500","Longitude":"-74.20640","Snowdepth":"36.102","Units":"in","Rept_Date":"2020-02-18 12"},"coordinates":[5963,7393]},{"type":"Point","properties":{"Station_ID":"MQT","Station_Nam":"MARQUETTE, MI","Latitude":"46.53140","Longitude":"-87.54920","Snowdepth":"36.000","Units":"in","Rept_Date":"2020-02-19 06"},"coordinates":[2509,5285]},{"type":"Point","properties":{"Station_ID":"CAN-NS-39","Station_Nam":"ST. ANNS 2.8 NW, CA","Latitude":"46.25082","Longitude":"-60.64340","Snowdepth":"36.000","Units":"in","Rept_Date":"2020-02-18 12"},"coordinates":[9475,5030]},{"type":"Point","properties":{"Station_ID":"STEM4","Station_Nam":"STEUBEN","Latitude":"46.18530","Longitude":"-86.46410","Snowdepth":"34.000","Units":"in","Rept_Date":"2020-02-18 14"},"coordinates":[2790,4971]},{"type":"Point","properties":{"Station_ID":"NWCM4","Station_Nam":"NEWBERRY CITY","Latitude":"46.35720","Longitude":"-85.51780","Snowdepth":"34.000","Units":"in","Rept_Date":"2020-02-18 12"},"coordinates":[3035,5127]},{"type":"Point","properties":{"Station_ID":"QNCM4","Station_Nam":"QUINCY HILL","Latitude":"47.13640","Longitude":"-88.57950","Snowdepth":"33.000","Units":"in","Rept_Date":"2020-02-18 12"},"coordinates":[2242,5834]},{"type":"Point","properties":{"Station_ID":"QOU","Station_Nam":"QOU","Latitude":"50.79250","Longitude":"-69.67470","Snowdepth":"32.677","Units":"in","Rept_Date":"2020-02-18 12"},"coordinates":[7136,9151]},{"type":"Point","properties":{"Station_ID":"CAN-NL-65","Station_Nam":"KIPPENS 0.7 NE, CA","Latitude":"48.55436","Longitude":"-58.61850","Snowdepth":"32.500","Units":"in","Rept_Date":"2020-02-18 12"},"coordinates":[9999,7120]},{"type":"Point","properties":{"Station_ID":"MI-BG-3","Station_Nam":"L'ANSE 17.8 SE, MI","Latitude":"46.55730","Longitude":"-88.20770","Snowdepth":"32.400","Units":"in","Rept_Date":"2020-02-18 13"},"coordinates":[2338,5308]},{"type":"Point","properties":{"Station_ID":"QCU","Station_Nam":"QCU","Latitude":"47.82750","Longitude":"-76.59830","Snowdepth":"32.126","Units":"in","Rept_Date":"2020-02-18 12"},"coordinates":[5344,6461]},{"type":"Point","properties":{"Station_ID":"MNSM4","Station_Nam":"MUNISING","Latitude":"46.41210","Longitude":"-86.66250","Snowdepth":"32.000","Units":"in","Rept_Date":"2020-02-18 11"},"coordinates":[2738,5177]},{"type":"Point","properties":{"Station_ID":"LVDW3","Station_Nam":"LAC VIEUX DESERT","Latitude":"46.12110","Longitude":"-89.07580","Snowdepth":"32.000","Units":"in","Rept_Date":"2020-02-18 14"},"coordinates":[2113,4913]},{"type":"Point","properties":{"Station_ID":"BBEM4","Station_Nam":"BIG BAY 9SW","Latitude":"46.74620","Longitude":"-87.88160","Snowdepth":"32.000","Units":"in","Rept_Date":"2020-02-18 13"},"coordinates":[2423,5480]},{"type":"Point","properties":{"Station_ID":"QWE","Station_Nam":"QWE","Latitude":"47.84610","Longitude":"-73.80670","Snowdepth":"31.772","Units":"in","Rept_Date":"2020-02-18 12"},"coordinates":[6067,6478]},{"type":"Point","properties":{"Station_ID":"ME-AR-18","Station_Nam":"NEW SWEDEN 4.9 NNW, ME","Latitude":"47.01080","Longitude":"-68.14390","Snowdepth":"31.500","Units":"in","Rept_Date":"2020-02-18 12"},"coordinates":[7533,5720]},{"type":"Point","properties":{"Station_ID":"MLZ","Station_Nam":"MLZ","Latitude":"50.66170","Longitude":"-68.82360","Snowdepth":"31.496","Units":"in","Rept_Date":"2020-02-18 12"},"coordinates":[7357,9033]},{"type":"Point","properties":{"Station_ID":"PRDM4","Station_Nam":"PARADISE","Latitude":"46.60380","Longitude":"-85.03960","Snowdepth":"31.000","Units":"in","Rept_Date":"2020-02-18 11"},"coordinates":[3158,5351]},{"type":"Point","properties":{"Station_ID":"PNKM1","Station_Nam":"PINKHAM MILL SNOW CORE","Latitude":"46.71270","Longitude":"-68.45840","Snowdepth":"31.000","Units":"in","Rept_Date":"2020-02-18 16"},"coordinates":[7451,5449]},{"type":"Point","properties":{"Station_ID":"KISM4","Station_Nam":"K.I. SAWYER WWTP","Latitude":"46.33410","Longitude":"-87.37790","Snowdepth":"31.000","Units":"in","Rept_Date":"2020-02-18 13"},"coordinates":[2553,5106]},{"type":"Point","properties":{"Station_ID":"GLDM4","Station_Nam":"GLADSTONE NO. 2","Latitude":"45.84330","Longitude":"-87.03910","Snowdepth":"31.000","Units":"in","Rept_Date":"2020-02-18 13"},"coordinates":[2641,4661]},{"type":"Point","properties":{"Station_ID":"BABM5","Station_Nam":"BABBITT","Latitude":"47.71210","Longitude":"-91.95330","Snowdepth":"31.000","Units":"in","Rept_Date":"2020-02-18 13"},"coordinates":[1368,6356]},{"type":"Point","properties":{"Station_ID":"ANTW3","Station_Nam":"ANTIGO,WI","Latitude":"45.13330","Longitude":"-89.15000","Snowdepth":"31.000","Units":"in","Rept_Date":"2020-02-18 14"},"coordinates":[2094,4016]},{"type":"Point","properties":{"Station_ID":"ALSM1","Station_Nam":"ALLAGASH SNOW COURSE","Latitude":"47.07110","Longitude":"-69.07720","Snowdepth":"31.000","Units":"in","Rept_Date":"2020-02-18 14"},"coordinates":[7291,5775]},{"type":"Point","properties":{"Station_ID":"QLB","Station_Nam":"QLB","Latitude":"50.72360","Longitude":"-75.10000","Snowdepth":"30.984","Units":"in","Rept_Date":"2020-02-18 12"},"coordinates":[5732,9089]},{"type":"Point","properties":{"Station_ID":"QGD","Station_Nam":"QGD","Latitude":"51.11140","Longitude":"-67.13940","Snowdepth":"30.748","Units":"in","Rept_Date":"2020-02-18 12"},"coordinates":[7793,9441]},{"type":"Point","properties":{"Station_ID":"KNCM1","Station_Nam":"KNOWLES CORNER - MCOOP","Latitude":"46.20780","Longitude":"-68.31420","Snowdepth":"30.700","Units":"in","Rept_Date":"2020-02-18 18"},"coordinates":[7489,4991]},{"type":"Point","properties":{"Station_ID":"CAN-QC-47","Station_Nam":"SAINTE-FOY 1.8 ENE, CAN","Latitude":"46.76934","Longitude":"-71.27124","Snowdepth":"30.700","Units":"in","Rept_Date":"2020-02-18 12"},"coordinates":[6723,5501]},{"type":"Point","properties":{"Station_ID":"PTLQ6","Station_Nam":"PORTAGE LAKE","Latitude":"49.06950","Longitude":"-86.65940","Snowdepth":"30.160","Units":"in","Rept_Date":"2020-02-19 06"},"coordinates":[2739,7588]},{"type":"Point","properties":{"Station_ID":"WRPW3","Station_Nam":"WATER PURIFICATION PLANT","Latitude":"44.38800","Longitude":"-89.80550","Snowdepth":"30.000","Units":"in","Rept_Date":"2020-02-18 12"},"coordinates":[1924,3340]},{"type":"Point","properties":{"Station_ID":"HURW3","Station_Nam":"HURLEY","Latitude":"46.46250","Longitude":"-90.19550","Snowdepth":"30.000","Units":"in","Rept_Date":"2020-02-18 14"},"coordinates":[1824,5222]},{"type":"Point","properties":{"Station_ID":"HERM4","Station_Nam":"HERMAN,MI","Latitude":"46.65000","Longitude":"-88.33330","Snowdepth":"30.000","Units":"in","Rept_Date":"2020-02-18 13"},"coordinates":[2306,5393]},{"type":"Point","properties":{"Station_ID":"CRVW3","Station_Nam":"CRIVITZ HIGH FALLS","Latitude":"45.35750","Longitude":"-88.19190","Snowdepth":"30.000","Units":"in","Rept_Date":"2020-02-18 13"},"coordinates":[2342,4220]},{"type":"Point","properties":{"Station_ID":"BERM4","Station_Nam":"BERGLAND DAM","Latitude":"46.58690","Longitude":"-89.54750","Snowdepth":"30.000","Units":"in","Rept_Date":"2020-02-18 13"},"coordinates":[1991,5335]},{"type":"Point","properties":{"Station_ID":"WNTM1","Station_Nam":"WINTERVILLE SNOW COURSE","Latitude":"46.93170","Longitude":"-68.52720","Snowdepth":"29.900","Units":"in","Rept_Date":"2020-02-18 14"},"coordinates":[7434,5648]},{"type":"Point","properties":{"Station_ID":"QFT","Station_Nam":"QFT","Latitude":"50.83280","Longitude":"-74.40390","Snowdepth":"29.882","Units":"in","Rept_Date":"2020-02-18 12"},"coordinates":[5912,9188]},{"type":"Point","properties":{"Station_ID":"GURM1","Station_Nam":"GUERETTE SNOW COURSE","Latitude":"47.08360","Longitude":"-68.23140","Snowdepth":"29.800","Units":"in","Rept_Date":"2020-02-18 12"},"coordinates":[7510,5786]},{"type":"Point","properties":{"Station_ID":"CAN-NB-105","Station_Nam":"SISSON BROOK 3.8 E, CAN","Latitude":"46.98305","Longitude":"-67.32532","Snowdepth":"29.500","Units":"in","Rept_Date":"2020-02-18 12"},"coordinates":[7745,5695]},{"type":"Point","properties":{"Station_ID":"WI-VL-10","Station_Nam":"LAND O LAKES 4.3 WNW, WI","Latitude":"46.17440","Longitude":"-89.30380","Snowdepth":"29.000","Units":"in","Rept_Date":"2020-02-18 13"},"coordinates":[2054,4961]},{"type":"Point","properties":{"Station_ID":"MI-HG-6","Station_Nam":"CALUMET 5.8 ENE, MI","Latitude":"47.27200","Longitude":"-88.33400","Snowdepth":"29.000","Units":"in","Rept_Date":"2020-02-18 11"},"coordinates":[2305,5957]},{"type":"Point","properties":{"Station_ID":"EVRW3","Station_Nam":"EAGLE RIVER-4 E","Latitude":"45.91890","Longitude":"-89.15280","Snowdepth":"29.000","Units":"in","Rept_Date":"2020-02-18 12"},"coordinates":[2093,4729]},{"type":"Point","properties":{"Station_ID":"CAN-NB-11","Station_Nam":"MIRAMICHI 3.3 S, CAN","Latitude":"46.99343","Longitude":"-65.50690","Snowdepth":"29.000","Units":"in","Rept_Date":"2020-02-18 11"},"coordinates":[8216,5704]},{"type":"Point","properties":{"Station_ID":"HWRM1","Station_Nam":"HATHAWAY ROAD SNOW CORE","Latitude":"46.80830","Longitude":"-68.49580","Snowdepth":"28.200","Units":"in","Rept_Date":"2020-02-18 15"},"coordinates":[7442,5536]},{"type":"Point","properties":{"Station_ID":"WI-OC-1","Station_Nam":"MOUNTAIN 1.1 SW, WI","Latitude":"45.17239","Longitude":"-88.48990","Snowdepth":"28.000","Units":"in","Rept_Date":"2020-02-18 19"},"coordinates":[2265,4052]},{"type":"Point","properties":{"Station_ID":"VT-OL-1","Station_Nam":"WESTFIELD 0.7 WNW, VT","Latitude":"44.89160","Longitude":"-72.44350","Snowdepth":"28.000","Units":"in","Rept_Date":"2020-02-18 12"},"coordinates":[6420,3797]},{"type":"Point","properties":{"Station_ID":"SUTV1","Station_Nam":"SUTTON","Latitude":"44.61220","Longitude":"-72.04810","Snowdepth":"28.000","Units":"in","Rept_Date":"2020-02-18 13"},"coordinates":[6522,3544]},{"type":"Point","properties":{"Station_ID":"STGW3","Station_Nam":"ST GERMAIN","Latitude":"45.91550","Longitude":"-89.48940","Snowdepth":"28.000","Units":"in","Rept_Date":"2020-02-18 12"},"coordinates":[2006,4726]},{"type":"Point","properties":{"Station_ID":"MOUW3","Station_Nam":"MOUNTAIN 1 SW","Latitude":"45.17220","Longitude":"-88.49390","Snowdepth":"28.000","Units":"in","Rept_Date":"2020-02-18 19"},"coordinates":[2264,4052]},{"type":"Point","properties":{"Station_ID":"LNOW3","Station_Nam":"LAND O LAKES","Latitude":"46.19000","Longitude":"-89.45700","Snowdepth":"28.000","Units":"in","Rept_Date":"2020-02-18 13"},"coordinates":[2015,4975]},{"type":"Point","properties":{"Station_ID":"IWOM4","Station_Nam":"IRONWOOD#2","Latitude":"46.46520","Longitude":"-90.13820","Snowdepth":"28.000","Units":"in","Rept_Date":"2020-02-18 13"},"coordinates":[1838,5225]},{"type":"Point","properties":{"Station_ID":"CLQM5","Station_Nam":"CLOQUET","Latitude":"46.70470","Longitude":"-92.52530","Snowdepth":"28.000","Units":"in","Rept_Date":"2020-02-18 14"},"coordinates":[1220,5442]},{"type":"Point","properties":{"Station_ID":"FISM1","Station_Nam":"FORT KENT COOP","Latitude":"47.23850","Longitude":"-68.61240","Snowdepth":"27.600","Units":"in","Rept_Date":"2020-02-18 13"},"coordinates":[7412,5927]},{"type":"Point","properties":{"Station_ID":"WI-VL-9","Station_Nam":"LAND O' LAKES 11.7 W, WI","Latitude":"46.19023","Longitude":"-89.45790","Snowdepth":"27.500","Units":"in","Rept_Date":"2020-02-18 13"},"coordinates":[2014,4975]},{"type":"Point","properties":{"Station_ID":"WI-IR-2","Station_Nam":"MERCER 2.0 SE, WI","Latitude":"46.14749","Longitude":"-90.03097","Snowdepth":"27.100","Units":"in","Rept_Date":"2020-02-18 13"},"coordinates":[1866,4937]},{"type":"Point","properties":{"Station_ID":"SUAW3","Station_Nam":"SUAMICO","Latitude":"44.60190","Longitude":"-88.09780","Snowdepth":"27.000","Units":"in","Rept_Date":"2020-02-18 12"},"coordinates":[2367,3534]},{"type":"Point","properties":{"Station_ID":"PDGM4","Station_Nam":"PAULDING","Latitude":"46.39760","Longitude":"-89.17940","Snowdepth":"27.000","Units":"in","Rept_Date":"2020-02-18 13"},"coordinates":[2087,5164]},{"type":"Point","properties":{"Station_ID":"NH-CS-10","Station_Nam":"RANDOLPH 1.4 NE, NH","Latitude":"44.38824","Longitude":"-71.26950","Snowdepth":"27.000","Units":"in","Rept_Date":"2020-02-18 12"},"coordinates":[6724,3340]},{"type":"Point","properties":{"Station_ID":"MN8JKXE2","Station_Nam":"PRAIRIE PORTAGE 5.2 SSW","Latitude":"47.97663","Longitude":"-91.46744","Snowdepth":"27.000","Units":"in","Rept_Date":"2020-02-18 12"},"coordinates":[1494,6596]},{"type":"Point","properties":{"Station_ID":"MN-SL-105","Station_Nam":"DULUTH 11.8 NNE, MN","Latitude":"46.94680","Longitude":"-92.03925","Snowdepth":"27.000","Units":"in","Rept_Date":"2020-02-18 13"},"coordinates":[1346,5662]},{"type":"Point","properties":{"Station_ID":"BRMM5","Station_Nam":"BRIMSON 2S","Latitude":"47.24720","Longitude":"-91.86240","Snowdepth":"27.000","Units":"in","Rept_Date":"2020-02-19 01"},"coordinates":[1392,5934]},{"type":"Point","properties":{"Station_ID":"BNDM5","Station_Nam":"ELY 25E","Latitude":"47.97190","Longitude":"-91.44860","Snowdepth":"27.000","Units":"in","Rept_Date":"2020-02-18 13"},"coordinates":[1499,6592]},{"type":"Point","properties":{"Station_ID":"TRIQ6","Station_Nam":"TRIO LAKE","Latitude":"49.22880","Longitude":"-87.22920","Snowdepth":"26.890","Units":"in","Rept_Date":"2020-02-19 06"},"coordinates":[2592,7732]},{"type":"Point","properties":{"Station_ID":"SQPM1","Station_Nam":"SQUA PAN DAM","Latitude":"46.55610","Longitude":"-68.32550","Snowdepth":"26.800","Units":"in","Rept_Date":"2020-02-18 16"},"coordinates":[7486,5307]},{"type":"Point","properties":{"Station_ID":"WI-IR-3","Station_Nam":"PENCE 0.1 E, WI","Latitude":"46.41555","Longitude":"-90.27013","Snowdepth":"26.500","Units":"in","Rept_Date":"2020-02-18 13"},"coordinates":[1804,5180]},{"type":"Point","properties":{"Station_ID":"WI-WB-2","Station_Nam":"STONE LAKE 2.0 NW, WI","Latitude":"45.85960","Longitude":"-91.57710","Snowdepth":"26.000","Units":"in","Rept_Date":"2020-02-18 13"},"coordinates":[1466,4675]},{"type":"Point","properties":{"Station_ID":"VT-BN-12","Station_Nam":"STAMFORD 5.0 NNE, VT","Latitude":"42.82000","Longitude":"-73.02000","Snowdepth":"26.000","Units":"in","Rept_Date":"2020-02-18 21"},"coordinates":[6270,1917]},{"type":"Point","properties":{"Station_ID":"OXBM1","Station_Nam":"OXBOW - MCOOP","Latitude":"46.42700","Longitude":"-68.55300","Snowdepth":"26.000","Units":"in","Rept_Date":"2020-02-18 17"},"coordinates":[7427,5190]},{"type":"Point","properties":{"Station_ID":"MN7TCHCK","Station_Nam":"COOK 0.2 ENE","Latitude":"47.85225","Longitude":"-92.68378","Snowdepth":"26.000","Units":"in","Rept_Date":"2020-02-18 12"},"coordinates":[1179,6483]},{"type":"Point","properties":{"Station_ID":"MAIW3","Station_Nam":"MADELINE ISLAND","Latitude":"46.78330","Longitude":"-90.76670","Snowdepth":"26.000","Units":"in","Rept_Date":"2020-02-18 13"},"coordinates":[1676,5514]},{"type":"Point","properties":{"Station_ID":"LPLN6","Station_Nam":"LAKE PLACID 2 S","Latitude":"44.30420","Longitude":"-73.98390","Snowdepth":"26.000","Units":"in","Rept_Date":"2020-02-18 13"},"coordinates":[6021,3264]},{"type":"Point","properties":{"Station_ID":"LBKV1","Station_Nam":"LYE BROOK","Latitude":"43.05000","Longitude":"-73.03330","Snowdepth":"26.000","Units":"in","Rept_Date":"2020-02-19 06"},"coordinates":[6267,2126]},{"type":"Point","properties":{"Station_ID":"HRVM4","Station_Nam":"HARVEY","Latitude":"46.49080","Longitude":"-87.35470","Snowdepth":"26.000","Units":"in","Rept_Date":"2020-02-18 12"},"coordinates":[2559,5248]},{"type":"Point","properties":{"Station_ID":"FLNW3","Station_Nam":"FLORENCE","Latitude":"45.93360","Longitude":"-88.25830","Snowdepth":"26.000","Units":"in","Rept_Date":"2020-02-18 13"},"coordinates":[2325,4743]},{"type":"Point","properties":{"Station_ID":"COKM5","Station_Nam":"COOK","Latitude":"47.85060","Longitude":"-92.69250","Snowdepth":"26.000","Units":"in","Rept_Date":"2020-02-18 12"},"coordinates":[1177,6482]},{"type":"Point","properties":{"Station_ID":"AVLV1","Station_Nam":"AVERILL","Latitude":"45.00570","Longitude":"-71.69030","Snowdepth":"26.000","Units":"in","Rept_Date":"2020-02-18 13"},"coordinates":[6615,3901]},{"type":"Point","properties":{"Station_ID":"SVBQ6","Station_Nam":"SAVANT BASE","Latitude":"50.28730","Longitude":"-90.65670","Snowdepth":"25.870","Units":"in","Rept_Date":"2020-02-19 06"},"coordinates":[1704,8693]},{"type":"Point","properties":{"Station_ID":"MN-SL-108","Station_Nam":"IRON JUNCTION 3.4 NNW, MN","Latitude":"47.46150","Longitude":"-92.63130","Snowdepth":"25.500","Units":"in","Rept_Date":"2020-02-18 13"},"coordinates":[1193,6129]},{"type":"Point","properties":{"Station_ID":"QGA","Station_Nam":"QGA","Latitude":"47.25640","Longitude":"-73.73810","Snowdepth":"25.236","Units":"in","Rept_Date":"2020-02-18 12"},"coordinates":[6084,5943]},{"type":"Point","properties":{"Station_ID":"QTV","Station_Nam":"QTV","Latitude":"49.66000","Longitude":"-69.35690","Snowdepth":"25.197","Units":"in","Rept_Date":"2020-02-18 12"},"coordinates":[7219,8124]},{"type":"Point","properties":{"Station_ID":"WRSM5","Station_Nam":"WRENSHALL","Latitude":"46.61550","Longitude":"-92.38380","Snowdepth":"25.000","Units":"in","Rept_Date":"2020-02-18 14"},"coordinates":[1257,5361]},{"type":"Point","properties":{"Station_ID":"WI-BY-14","Station_Nam":"ASHLAND 9.8 W, WI","Latitude":"46.59742","Longitude":"-91.07856","Snowdepth":"25.000","Units":"in","Rept_Date":"2020-02-18 12"},"coordinates":[1595,5345]},{"type":"Point","properties":{"Station_ID":"TOGM5","Station_Nam":"CELINA 2E","Latitude":"47.86630","Longitude":"-93.02660","Snowdepth":"25.000","Units":"in","Rept_Date":"2020-02-18 16"},"coordinates":[1091,6496]},{"type":"Point","properties":{"Station_ID":"PKD","Station_Nam":"PARK RAPIDS MUNICIPAL AIRPORT","Latitude":"46.90060","Longitude":"-95.07310","Snowdepth":"25.000","Units":"in","Rept_Date":"2020-02-18 22"},"coordinates":[561,5620]},{"type":"Point","properties":{"Station_ID":"NY-FK-7","Station_Nam":"SARANAC LAKE 6.2 N, NY","Latitude":"44.41359","Longitude":"-74.15211","Snowdepth":"25.000","Units":"in","Rept_Date":"2020-02-18 12"},"coordinates":[5977,3363]},{"type":"Point","properties":{"Station_ID":"MN4DC1DW","Station_Nam":"FOUR CORNERS 3.6 E","Latitude":"46.84373","Longitude":"-92.20633","Snowdepth":"25.000","Units":"in","Rept_Date":"2020-02-18 12"},"coordinates":[1303,5568]},{"type":"Point","properties":{"Station_ID":"MN-SL-18","Station_Nam":"DULUTH 1.4 NNW, MN","Latitude":"46.80321","Longitude":"-92.11240","Snowdepth":"25.000","Units":"in","Rept_Date":"2020-02-18 14"},"coordinates":[1327,5532]},{"type":"Point","properties":{"Station_ID":"MN-SL-15","Station_Nam":"CHISHOLM 0.4 WSW, MN","Latitude":"47.48557","Longitude":"-92.88690","Snowdepth":"25.000","Units":"in","Rept_Date":"2020-02-18 13"},"coordinates":[1127,6151]},{"type":"Point","properties":{"Station_ID":"MN-IT-23","Station_Nam":"BOVEY 13.4 N, MN","Latitude":"47.48855","Longitude":"-93.43497","Snowdepth":"25.000","Units":"in","Rept_Date":"2020-02-18 13"},"coordinates":[985,6153]},{"type":"Point","properties":{"Station_ID":"MN-IT-17","Station_Nam":"GRAND RAPIDS 6.1 N, MN","Latitude":"47.31165","Longitude":"-93.55036","Snowdepth":"25.000","Units":"in","Rept_Date":"2020-02-18 13"},"coordinates":[955,5993]},{"type":"Point","properties":{"Station_ID":"MN-CK-6","Station_Nam":"GRAND MARAIS 4.4 W, MN","Latitude":"47.74865","Longitude":"-90.43760","Snowdepth":"25.000","Units":"in","Rept_Date":"2020-02-18 13"},"coordinates":[1761,6389]},{"type":"Point","properties":{"Station_ID":"MN-CK-18","Station_Nam":"GRAND MARAIS 4.4 WSW, MN","Latitude":"47.74462","Longitude":"-90.43796","Snowdepth":"25.000","Units":"in","Rept_Date":"2020-02-18 13"},"coordinates":[1761,6386]},{"type":"Point","properties":{"Station_ID":"MI-HG-1","Station_Nam":"HOUGHTON 1.6 ESE, MI","Latitude":"47.10774","Longitude":"-88.52940","Snowdepth":"25.000","Units":"in","Rept_Date":"2020-02-18 13"},"coordinates":[2255,5808]},{"type":"Point","properties":{"Station_ID":"ISLV1","Station_Nam":"ISLAND POND","Latitude":"44.81280","Longitude":"-71.89020","Snowdepth":"25.000","Units":"in","Rept_Date":"2020-02-18 16"},"coordinates":[6563,3726]},{"type":"Point","properties":{"Station_ID":"IRMM4","Station_Nam":"WWTP","Latitude":"46.46670","Longitude":"-90.18330","Snowdepth":"25.000","Units":"in","Rept_Date":"2020-02-18 13"},"coordinates":[1827,5226]},{"type":"Point","properties":{"Station_ID":"GGRM4","Station_Nam":"GREEN GARDEN NO.2","Latitude":"46.45330","Longitude":"-87.30380","Snowdepth":"25.000","Units":"in","Rept_Date":"2020-02-18 11"},"coordinates":[2572,5214]},{"type":"Point","properties":{"Station_ID":"EAHV1","Station_Nam":"EAST HAVEN","Latitude":"44.64250","Longitude":"-71.89120","Snowdepth":"25.000","Units":"in","Rept_Date":"2020-02-18 12"},"coordinates":[6563,3571]},{"type":"Point","properties":{"Station_ID":"DLHM5","Station_Nam":"DULUTH NWS","Latitude":"46.83680","Longitude":"-92.21080","Snowdepth":"25.000","Units":"in","Rept_Date":"2020-02-19 06"},"coordinates":[1302,5562]},{"type":"Point","properties":{"Station_ID":"DLH","Station_Nam":"DULUTH, MN","Latitude":"46.83690","Longitude":"-92.21030","Snowdepth":"25.000","Units":"in","Rept_Date":"2020-02-19 00"},"coordinates":[1302,5562]},{"type":"Point","properties":{"Station_ID":"CMKW3","Station_Nam":"CLAM LAKE 4W","Latitude":"46.16940","Longitude":"-90.98080","Snowdepth":"25.000","Units":"in","Rept_Date":"2020-02-18 13"},"coordinates":[1620,4956]},{"type":"Point","properties":{"Station_ID":"CARM1","Station_Nam":"CARIBOU WFO","Latitude":"46.86810","Longitude":"-68.01250","Snowdepth":"25.000","Units":"in","Rept_Date":"2020-02-19 05"},"coordinates":[7567,5590]},{"type":"Point","properties":{"Station_ID":"CAN-NS-60","Station_Nam":"SYDNEY FORKS, CAN","Latitude":"46.05645","Longitude":"-60.31510","Snowdepth":"25.000","Units":"in","Rept_Date":"2020-02-18 12"},"coordinates":[9560,4854]},{"type":"Point","properties":{"Station_ID":"CA2M1","Station_Nam":"CARIBOU (CARY MED.) SNOW COURSE","Latitude":"46.87920","Longitude":"-68.00030","Snowdepth":"25.000","Units":"in","Rept_Date":"2020-02-18 20"},"coordinates":[7570,5601]},{"type":"Point","properties":{"Station_ID":"AURW3","Station_Nam":"AURORA","Latitude":"45.77000","Longitude":"-88.11810","Snowdepth":"25.000","Units":"in","Rept_Date":"2020-02-18 13"},"coordinates":[2361,4594]},{"type":"Point","properties":{"Station_ID":"WI-BY-2","Station_Nam":"MELLEN 18.6 SW, WI","Latitude":"46.16937","Longitude":"-90.98090","Snowdepth":"24.600","Units":"in","Rept_Date":"2020-02-18 13"},"coordinates":[1620,4956]},{"type":"Point","properties":{"Station_ID":"MTCM1","Station_Nam":"MONTICELLO SNOW COURSE","Latitude":"46.33280","Longitude":"-67.84190","Snowdepth":"24.400","Units":"in","Rept_Date":"2020-02-18 20"},"coordinates":[7611,5105]},{"type":"Point","properties":{"Station_ID":"WTRM4","Station_Nam":"WATERSMEET 12WSW","Latitude":"46.22310","Longitude":"-89.40850","Snowdepth":"24.000","Units":"in","Rept_Date":"2020-02-18 12"},"coordinates":[2027,5005]},{"type":"Point","properties":{"Station_ID":"WNBM5","Station_Nam":"DAM","Latitude":"47.43060","Longitude":"-94.05000","Snowdepth":"24.000","Units":"in","Rept_Date":"2020-02-18 14"},"coordinates":[826,6101]},{"type":"Point","properties":{"Station_ID":"VT-ES-1","Station_Nam":"GRANBY 1.4 NW, VT","Latitude":"44.58330","Longitude":"-71.77870","Snowdepth":"24.000","Units":"in","Rept_Date":"2020-02-18 12"},"coordinates":[6592,3517]},{"type":"Point","properties":{"Station_ID":"VANM1","Station_Nam":"VAN BUREN","Latitude":"47.16600","Longitude":"-67.93900","Snowdepth":"24.000","Units":"in","Rept_Date":"2020-02-18 12"},"coordinates":[7586,5861]},{"type":"Point","properties":{"Station_ID":"TOHM5","Station_Nam":"TWO HARBORS WWTP","Latitude":"47.01760","Longitude":"-91.66480","Snowdepth":"24.000","Units":"in","Rept_Date":"2020-02-18 13"},"coordinates":[1443,5726]},{"type":"Point","properties":{"Station_ID":"RSTW3","Station_Nam":"ROSHOLT","Latitude":"44.62710","Longitude":"-89.30600","Snowdepth":"24.000","Units":"in","Rept_Date":"2020-02-18 11"},"coordinates":[2054,3557]},{"type":"Point","properties":{"Station_ID":"MN4QO5TH","Station_Nam":"TWO HARBORS 0.7 ESE","Latitude":"47.03297","Longitude":"-91.65673","Snowdepth":"24.000","Units":"in","Rept_Date":"2020-02-18 13"},"coordinates":[1445,5740]},{"type":"Point","properties":{"Station_ID":"EGRW3","Station_Nam":"EAGLE RIVER-SOUTH","Latitude":"45.91360","Longitude":"-89.24360","Snowdepth":"24.000","Units":"in","Rept_Date":"2020-02-18 13"},"coordinates":[2070,4724]},{"type":"Point","properties":{"Station_ID":"BMON6","Station_Nam":"BIG MOOSE 3SE","Latitude":"43.80000","Longitude":"-74.86670","Snowdepth":"24.000","Units":"in","Rept_Date":"2020-02-18 13"},"coordinates":[5792,2807]},{"type":"Point","properties":{"Station_ID":"ASTW3","Station_Nam":"ATHELSTANE","Latitude":"45.42500","Longitude":"-88.05750","Snowdepth":"24.000","Units":"in","Rept_Date":"2020-02-18 12"},"coordinates":[2377,4281]},{"type":"Point","properties":{"Station_ID":"KABQ6","Station_Nam":"CAB LAKE","Latitude":"49.59950","Longitude":"-89.17990","Snowdepth":"23.780","Units":"in","Rept_Date":"2020-02-19 06"},"coordinates":[2086,8069]},{"type":"Point","properties":{"Station_ID":"QMA","Station_Nam":"QMA","Latitude":"50.10330","Longitude":"-70.47190","Snowdepth":"23.740","Units":"in","Rept_Date":"2020-02-18 12"},"coordinates":[6930,8526]},{"type":"Point","properties":{"Station_ID":"VT-CL-18","Station_Nam":"WHEELOCK 1.6 S, VT","Latitude":"44.56491","Longitude":"-72.08830","Snowdepth":"23.500","Units":"in","Rept_Date":"2020-02-18 12"},"coordinates":[6512,3501]},{"type":"Point","properties":{"Station_ID":"MI-OT-17","Station_Nam":"GAYLORD 4.1 S, MI","Latitude":"44.96388","Longitude":"-84.68467","Snowdepth":"23.500","Units":"in","Rept_Date":"2020-02-18 12"},"coordinates":[3250,3863]},{"type":"Point","properties":{"Station_ID":"WTRW3","Station_Nam":"WINTER","Latitude":"45.79920","Longitude":"-90.99470","Snowdepth":"23.000","Units":"in","Rept_Date":"2020-02-18 16"},"coordinates":[1617,4621]},{"type":"Point","properties":{"Station_ID":"WI-ON-8","Station_Nam":"HAZELHURST 2.1 SSE, WI","Latitude":"45.78186","Longitude":"-89.70330","Snowdepth":"23.000","Units":"in","Rept_Date":"2020-02-18 13"},"coordinates":[1951,4605]},{"type":"Point","properties":{"Station_ID":"SHIW3","Station_Nam":"SHIOCTON","Latitude":"44.43890","Longitude":"-88.58390","Snowdepth":"23.000","Units":"in","Rept_Date":"2020-02-18 13"},"coordinates":[2241,3386]},{"type":"Point","properties":{"Station_ID":"RRVM4","Station_Nam":"RAPID RIVER 9S","Latitude":"45.78750","Longitude":"-86.93920","Snowdepth":"23.000","Units":"in","Rept_Date":"2020-02-18 13"},"coordinates":[2667,4610]},{"type":"Point","properties":{"Station_ID":"RPDM4","Station_Nam":"RAPID RIVER 4SSE","Latitude":"45.87270","Longitude":"-86.94960","Snowdepth":"23.000","Units":"in","Rept_Date":"2020-02-18 14"},"coordinates":[2664,4687]},{"type":"Point","properties":{"Station_ID":"RKWM1","Station_Nam":"MOOSEHEAD LAKE","Latitude":"45.58330","Longitude":"-69.71670","Snowdepth":"23.000","Units":"in","Rept_Date":"2020-02-18 12"},"coordinates":[7126,4425]},{"type":"Point","properties":{"Station_ID":"RHIW3","Station_Nam":"RHINELANDER","Latitude":"45.59860","Longitude":"-89.45080","Snowdepth":"23.000","Units":"in","Rept_Date":"2020-02-18 13"},"coordinates":[2016,4439]},{"type":"Point","properties":{"Station_ID":"IMNM4","Station_Nam":"IRON MOUTAIN 5N","Latitude":"45.87580","Longitude":"-88.04030","Snowdepth":"23.000","Units":"in","Rept_Date":"2020-02-19 01"},"coordinates":[2382,4690]},{"type":"Point","properties":{"Station_ID":"CRNM5","Station_Nam":"NW EXPERIMENT STN","Latitude":"47.80360","Longitude":"-96.61670","Snowdepth":"23.000","Units":"in","Rept_Date":"2020-02-18 14"},"coordinates":[161,6439]},{"type":"Point","properties":{"Station_ID":"BRAM1","Station_Nam":"BRASSUA DAM","Latitude":"45.66020","Longitude":"-69.81190","Snowdepth":"23.000","Units":"in","Rept_Date":"2020-02-18 12"},"coordinates":[7101,4494]},{"type":"Point","properties":{"Station_ID":"AROM4","Station_Nam":"ARNOLD,MI","Latitude":"46.06670","Longitude":"-87.48330","Snowdepth":"23.000","Units":"in","Rept_Date":"2020-02-18 13"},"coordinates":[2526,4863]},{"type":"Point","properties":{"Station_ID":"AMAM4","Station_Nam":"AMASA 1W","Latitude":"46.23470","Longitude":"-88.45440","Snowdepth":"23.000","Units":"in","Rept_Date":"2020-02-18 14"},"coordinates":[2274,5016]},{"type":"Point","properties":{"Station_ID":"AGNW3","Station_Nam":"ARGONNE-1.5 NW","Latitude":"45.67360","Longitude":"-88.90380","Snowdepth":"23.000","Units":"in","Rept_Date":"2020-02-18 13"},"coordinates":[2158,4507]},{"type":"Point","properties":{"Station_ID":"QCX","Station_Nam":"QCX","Latitude":"51.32830","Longitude":"-70.08060","Snowdepth":"22.874","Units":"in","Rept_Date":"2020-02-18 12"},"coordinates":[7031,9637]},{"type":"Point","properties":{"Station_ID":"WI-DG-20","Station_Nam":"SOLON SPRINGS 1.2 W, WI","Latitude":"46.35217","Longitude":"-91.84405","Snowdepth":"22.500","Units":"in","Rept_Date":"2020-02-18 13"},"coordinates":[1397,5122]},{"type":"Point","properties":{"Station_ID":"VT-OL-9","Station_Nam":"GREENSBORO 2.1 NNW, VT","Latitude":"44.60528","Longitude":"-72.30940","Snowdepth":"22.500","Units":"in","Rept_Date":"2020-02-18 12"},"coordinates":[6454,3537]},{"type":"Point","properties":{"Station_ID":"MN-IT-1","Station_Nam":"GRAND RAPIDS 2.0 E, MN","Latitude":"47.22266","Longitude":"-93.49600","Snowdepth":"22.500","Units":"in","Rept_Date":"2020-02-18 12"},"coordinates":[969,5912]},{"type":"Point","properties":{"Station_ID":"CAN-NB-13","Station_Nam":"BATHURST 3.8 NW, CAN","Latitude":"47.64212","Longitude":"-65.68756","Snowdepth":"22.500","Units":"in","Rept_Date":"2020-02-18 09"},"coordinates":[8169,6293]},{"type":"Point","properties":{"Station_ID":"NY-HR-18","Station_Nam":"SALISBURY CENTER 1.8 NW, NY","Latitude":"43.16260","Longitude":"-74.80880","Snowdepth":"22.300","Units":"in","Rept_Date":"2020-02-18 11"},"coordinates":[5807,2228]},{"type":"Point","properties":{"Station_ID":"WLKW3","Station_Nam":"WHITE LAKE 1 SE","Latitude":"45.14520","Longitude":"-88.74160","Snowdepth":"22.000","Units":"in","Rept_Date":"2020-02-18 14"},"coordinates":[2200,4027]},{"type":"Point","properties":{"Station_ID":"WI-BY-22","Station_Nam":"MASON 11.5 WNW, WI","Latitude":"46.50198","Longitude":"-91.28339","Snowdepth":"22.000","Units":"in","Rept_Date":"2020-02-18 14"},"coordinates":[1542,5258]},{"type":"Point","properties":{"Station_ID":"WI-AS-4","Station_Nam":"ASHLAND 0.5 WNW, WI","Latitude":"46.58240","Longitude":"-90.88390","Snowdepth":"22.000","Units":"in","Rept_Date":"2020-02-18 13"},"coordinates":[1645,5331]},{"type":"Point","properties":{"Station_ID":"SULW3","Station_Nam":"SUMMIT LAKE","Latitude":"45.37880","Longitude":"-89.19410","Snowdepth":"22.000","Units":"in","Rept_Date":"2020-02-18 11"},"coordinates":[2083,4239]},{"type":"Point","properties":{"Station_ID":"RDFN6","Station_Nam":"REDFIELD 8N","Latitude":"43.64130","Longitude":"-75.88400","Snowdepth":"22.000","Units":"in","Rept_Date":"2020-02-18 12"},"coordinates":[5529,2663]},{"type":"Point","properties":{"Station_ID":"PKGM5","Station_Nam":"POKEGANA LK DAM","Latitude":"47.25080","Longitude":"-93.58610","Snowdepth":"22.000","Units":"in","Rept_Date":"2020-02-18 14"},"coordinates":[946,5938]},{"type":"Point","properties":{"Station_ID":"NY-FK-9","Station_Nam":"GABRIELS 1.3 SE, NY","Latitude":"44.41934","Longitude":"-74.16194","Snowdepth":"22.000","Units":"in","Rept_Date":"2020-02-18 12"},"coordinates":[5975,3369]},{"type":"Point","properties":{"Station_ID":"MTQM4","Station_Nam":"MANISTIQUE WWTP","Latitude":"45.95120","Longitude":"-86.25130","Snowdepth":"22.000","Units":"in","Rept_Date":"2020-02-18 12"},"coordinates":[2845,4759]},{"type":"Point","properties":{"Station_ID":"MRAM4","Station_Nam":"MORAN","Latitude":"45.99030","Longitude":"-84.83610","Snowdepth":"22.000","Units":"in","Rept_Date":"2020-02-18 13"},"coordinates":[3211,4794]},{"type":"Point","properties":{"Station_ID":"MN9UO3KA","Station_Nam":"GAPPAS LANDING CG 3.8 N","Latitude":"48.49307","Longitude":"-93.03634","Snowdepth":"22.000","Units":"in","Rept_Date":"2020-02-18 13"},"coordinates":[1088,7065]},{"type":"Point","properties":{"Station_ID":"MN70GOES","Station_Nam":"EMBARRASS 0.6 SSE","Latitude":"47.65101","Longitude":"-92.19222","Snowdepth":"22.000","Units":"in","Rept_Date":"2020-02-18 12"},"coordinates":[1307,6301]},{"type":"Point","properties":{"Station_ID":"MI-OT-16","Station_Nam":"GAYLORD 2.2 SSE, MI","Latitude":"44.99441","Longitude":"-84.65820","Snowdepth":"22.000","Units":"in","Rept_Date":"2020-02-18 14"},"coordinates":[3257,3890]},{"type":"Point","properties":{"Station_ID":"ME-PN-45","Station_Nam":"MILLINOCKET 2.7 ESE, ME","Latitude":"45.65002","Longitude":"-68.64472","Snowdepth":"22.000","Units":"in","Rept_Date":"2020-02-18 12"},"coordinates":[7403,4485]},{"type":"Point","properties":{"Station_ID":"KABM5","Station_Nam":"KABETOGAMA LAKE VISITOR CTR","Latitude":"48.40880","Longitude":"-93.04840","Snowdepth":"22.000","Units":"in","Rept_Date":"2020-02-18 13"},"coordinates":[1085,6988]},{"type":"Point","properties":{"Station_ID":"HOKN6","Station_Nam":"HOOKER 12 NNW","Latitude":"43.85240","Longitude":"-75.71580","Snowdepth":"22.000","Units":"in","Rept_Date":"2020-02-18 11"},"coordinates":[5572,2854]},{"type":"Point","properties":{"Station_ID":"EMBM5","Station_Nam":"EMBARASS,MN","Latitude":"47.65810","Longitude":"-92.19580","Snowdepth":"22.000","Units":"in","Rept_Date":"2020-02-18 12"},"coordinates":[1306,6307]},{"type":"Point","properties":{"Station_ID":"ELYM5","Station_Nam":"ELY","Latitude":"47.90560","Longitude":"-91.82830","Snowdepth":"22.000","Units":"in","Rept_Date":"2020-02-18 15"},"coordinates":[1401,6532]},{"type":"Point","properties":{"Station_ID":"CSLM5","Station_Nam":"CASS LAKE,MN","Latitude":"47.38470","Longitude":"-94.61470","Snowdepth":"22.000","Units":"in","Rept_Date":"2020-02-18 14"},"coordinates":[679,6059]},{"type":"Point","properties":{"Station_ID":"CEFM4","Station_Nam":"EXPERIMENT FARM #2","Latitude":"46.33330","Longitude":"-86.91670","Snowdepth":"22.000","Units":"in","Rept_Date":"2020-02-18 13"},"coordinates":[2672,5105]},{"type":"Point","properties":{"Station_ID":"CAN-NB-96","Station_Nam":"SAINT-IGNACE 2.6 NE, CAN","Latitude":"46.71424","Longitude":"-65.05609","Snowdepth":"22.000","Units":"in","Rept_Date":"2020-02-18 11"},"coordinates":[8332,5451]},{"type":"Point","properties":{"Station_ID":"CAN-NB-18","Station_Nam":"MCLEOD HILL 1.1 ENE, CA","Latitude":"46.02725","Longitude":"-66.67460","Snowdepth":"22.000","Units":"in","Rept_Date":"2020-02-18 12"},"coordinates":[7913,4828]},{"type":"Point","properties":{"Station_ID":"BJI","Station_Nam":"BEMIDJI REGIONAL AIRPORT","Latitude":"47.50940","Longitude":"-94.93330","Snowdepth":"22.000","Units":"in","Rept_Date":"2020-02-18 22"},"coordinates":[597,6172]},{"type":"Point","properties":{"Station_ID":"AWXW3","Station_Nam":"ASHLAND","Latitude":"46.58240","Longitude":"-90.88390","Snowdepth":"22.000","Units":"in","Rept_Date":"2020-02-18 13"},"coordinates":[1645,5331]},{"type":"Point","properties":{"Station_ID":"AVTW3","Station_Nam":"ARBOR VITAE-JOHNSON LAKE","Latitude":"45.89940","Longitude":"-89.72670","Snowdepth":"22.000","Units":"in","Rept_Date":"2020-02-18 12"},"coordinates":[1945,4712]},{"type":"Point","properties":{"Station_ID":"ANJM4","Station_Nam":"SNOW PAID OBSERVER FOR KANJ","Latitude":"46.48670","Longitude":"-84.40260","Snowdepth":"22.000","Units":"in","Rept_Date":"2020-02-18 18"},"coordinates":[3323,5244]},{"type":"Point","properties":{"Station_ID":"DYRM1","Station_Nam":"DYER BROOK SNOWCOR","Latitude":"46.04820","Longitude":"-68.22600","Snowdepth":"21.800","Units":"in","Rept_Date":"2020-02-18 19"},"coordinates":[7512,4847]},{"type":"Point","properties":{"Station_ID":"SOCQ6","Station_Nam":"SOCKET LAKE","Latitude":"50.77870","Longitude":"-91.79300","Snowdepth":"21.650","Units":"in","Rept_Date":"2020-02-19 06"},"coordinates":[1410,9139]},{"type":"Point","properties":{"Station_ID":"QLM","Station_Nam":"QLM","Latitude":"48.92030","Longitude":"-70.25280","Snowdepth":"21.457","Units":"in","Rept_Date":"2020-02-18 12"},"coordinates":[6987,7452]},{"type":"Point","properties":{"Station_ID":"QTM","Station_Nam":"QTM","Latitude":"51.05780","Longitude":"-72.57190","Snowdepth":"21.260","Units":"in","Rept_Date":"2020-02-18 12"},"coordinates":[6386,9392]},{"type":"Point","properties":{"Station_ID":"WI-SR-1","Station_Nam":"HAYWARD 9.2 NNE, WI","Latitude":"46.13255","Longitude":"-91.40500","Snowdepth":"21.000","Units":"in","Rept_Date":"2020-02-18 12"},"coordinates":[1510,4923]},{"type":"Point","properties":{"Station_ID":"WASW3","Station_Nam":"WASHINGTON IS","Latitude":"45.35800","Longitude":"-86.89110","Snowdepth":"21.000","Units":"in","Rept_Date":"2020-02-18 14"},"coordinates":[2679,4220]},{"type":"Point","properties":{"Station_ID":"VT-OL-2","Station_Nam":"BARTON 3.0 ENE, VT","Latitude":"44.75863","Longitude":"-72.11680","Snowdepth":"21.000","Units":"in","Rept_Date":"2020-02-18 12"},"coordinates":[6504,3676]},{"type":"Point","properties":{"Station_ID":"SAUW3","Station_Nam":"WAUSAU WSAW TV","Latitude":"44.94630","Longitude":"-89.62220","Snowdepth":"21.000","Units":"in","Rept_Date":"2020-02-19 02"},"coordinates":[1972,3847]},{"type":"Point","properties":{"Station_ID":"RHLW3","Station_Nam":"RHINELANDER 4NE","Latitude":"45.65270","Longitude":"-89.30740","Snowdepth":"21.000","Units":"in","Rept_Date":"2020-02-18 12"},"coordinates":[2053,4488]},{"type":"Point","properties":{"Station_ID":"PELW3","Station_Nam":"PELLA 3SE","Latitude":"44.73580","Longitude":"-88.73780","Snowdepth":"21.000","Units":"in","Rept_Date":"2020-02-18 11"},"coordinates":[2201,3656]},{"type":"Point","properties":{"Station_ID":"NUMM5","Station_Nam":"NEW ULM 3SE","Latitude":"44.29450","Longitude":"-94.40840","Snowdepth":"21.000","Units":"in","Rept_Date":"2020-02-18 12"},"coordinates":[733,3255]},{"type":"Point","properties":{"Station_ID":"MNF74YNU","Station_Nam":"NEW ULM 3.3 ESE","Latitude":"44.29029","Longitude":"-94.40196","Snowdepth":"21.000","Units":"in","Rept_Date":"2020-02-18 11"},"coordinates":[734,3252]},{"type":"Point","properties":{"Station_ID":"MN8O09O3","Station_Nam":"ORR 3.6 E","Latitude":"48.04403","Longitude":"-92.75427","Snowdepth":"21.000","Units":"in","Rept_Date":"2020-02-18 12"},"coordinates":[1161,6657]},{"type":"Point","properties":{"Station_ID":"MN-BK-6","Station_Nam":"LAKE PARK 6.0 S, MN","Latitude":"46.79850","Longitude":"-96.12180","Snowdepth":"21.000","Units":"in","Rept_Date":"2020-02-18 13"},"coordinates":[289,5527]},{"type":"Point","properties":{"Station_ID":"MI-DL-1","Station_Nam":"GARDEN CORNERS 0.8 NW, MI","Latitude":"45.89815","Longitude":"-86.54850","Snowdepth":"21.000","Units":"in","Rept_Date":"2020-02-18 13"},"coordinates":[2768,4710]},{"type":"Point","properties":{"Station_ID":"LEIM5","Station_Nam":"ORR 3E","Latitude":"48.05810","Longitude":"-92.75220","Snowdepth":"21.000","Units":"in","Rept_Date":"2020-02-18 12"},"coordinates":[1162,6670]},{"type":"Point","properties":{"Station_ID":"GDCM4","Station_Nam":"GARDEN CORNERS","Latitude":"45.89830","Longitude":"-86.54850","Snowdepth":"21.000","Units":"in","Rept_Date":"2020-02-18 13"},"coordinates":[2768,4711]},{"type":"Point","properties":{"Station_ID":"COUW3","Station_Nam":"COUDERAY,WI","Latitude":"45.86670","Longitude":"-91.45000","Snowdepth":"21.000","Units":"in","Rept_Date":"2020-02-18 22"},"coordinates":[1499,4682]},{"type":"Point","properties":{"Station_ID":"CLKM4","Station_Nam":"CLARKSBURG","Latitude":"46.49910","Longitude":"-87.84500","Snowdepth":"21.000","Units":"in","Rept_Date":"2020-02-18 12"},"coordinates":[2432,5256]},{"type":"Point","properties":{"Station_ID":"BREW3","Station_Nam":"SURING","Latitude":"44.99580","Longitude":"-88.37860","Snowdepth":"21.000","Units":"in","Rept_Date":"2020-02-18 16"},"coordinates":[2294,3892]},{"type":"Point","properties":{"Station_ID":"APXM4","Station_Nam":"GAYLORD 9SSW","Latitude":"44.90720","Longitude":"-84.71880","Snowdepth":"21.000","Units":"in","Rept_Date":"2020-02-19 06"},"coordinates":[3241,3811]},{"type":"Point","properties":{"Station_ID":"QYR","Station_Nam":"QYR","Latitude":"48.87220","Longitude":"-75.61470","Snowdepth":"20.827","Units":"in","Rept_Date":"2020-02-18 12"},"coordinates":[5599,7409]},{"type":"Point","properties":{"Station_ID":"QIQ","Station_Nam":"QIQ","Latitude":"49.82390","Longitude":"-68.54310","Snowdepth":"20.748","Units":"in","Rept_Date":"2020-02-18 12"},"coordinates":[7429,8272]},{"type":"Point","properties":{"Station_ID":"NY-OD-2","Station_Nam":"POINT ROCK 0.6 SE, NY","Latitude":"43.37335","Longitude":"-75.53840","Snowdepth":"20.500","Units":"in","Rept_Date":"2020-02-18 13"},"coordinates":[5618,2420]},{"type":"Point","properties":{"Station_ID":"QLP","Station_Nam":"QLP","Latitude":"48.13920","Longitude":"-72.63830","Snowdepth":"20.394","Units":"in","Rept_Date":"2020-02-18 12"},"coordinates":[6369,6744]},{"type":"Point","properties":{"Station_ID":"QMD","Station_Nam":"QMD","Latitude":"49.29060","Longitude":"-75.84500","Snowdepth":"20.118","Units":"in","Rept_Date":"2020-02-18 12"},"coordinates":[5539,7788]},{"type":"Point","properties":{"Station_ID":"ZNOM4","Station_Nam":"NORWAY","Latitude":"45.77810","Longitude":"-87.89560","Snowdepth":"20.000","Units":"in","Rept_Date":"2020-02-19 01"},"coordinates":[2419,4601]},{"type":"Point","properties":{"Station_ID":"WTNM4","Station_Nam":"WATTON 2WSW","Latitude":"46.52660","Longitude":"-88.64240","Snowdepth":"20.000","Units":"in","Rept_Date":"2020-02-18 13"},"coordinates":[2226,5281]},{"type":"Point","properties":{"Station_ID":"WSFW3","Station_Nam":"TOWN OF WESTFORD","Latitude":"43.47190","Longitude":"-88.88250","Snowdepth":"20.000","Units":"in","Rept_Date":"2020-02-18 13"},"coordinates":[2163,2509]},{"type":"Point","properties":{"Station_ID":"WRTS2","Station_Nam":"WATERTOWN,SD","Latitude":"44.90280","Longitude":"-97.11360","Snowdepth":"20.000","Units":"in","Rept_Date":"2020-02-18 15"},"coordinates":[32,3807]},{"type":"Point","properties":{"Station_ID":"WI-RS-1","Station_Nam":"LADYSMITH 2.8 WNW, WI","Latitude":"45.48180","Longitude":"-91.14680","Snowdepth":"20.000","Units":"in","Rept_Date":"2020-02-18 13"},"coordinates":[1577,4333]},{"type":"Point","properties":{"Station_ID":"WI-PR-2","Station_Nam":"BUTTERNUT 5.9 SW, WI","Latitude":"45.96501","Longitude":"-90.59750","Snowdepth":"20.000","Units":"in","Rept_Date":"2020-02-18 12"},"coordinates":[1719,4771]},{"type":"Point","properties":{"Station_ID":"WI-ON-6","Station_Nam":"RHINELANDER 5.2 N, WI","Latitude":"45.71388","Longitude":"-89.42150","Snowdepth":"20.000","Units":"in","Rept_Date":"2020-02-18 14"},"coordinates":[2024,4543]},{"type":"Point","properties":{"Station_ID":"WI-MT-14","Station_Nam":"MOSINEE 2.7 WSW, WI","Latitude":"44.77240","Longitude":"-89.73441","Snowdepth":"20.000","Units":"in","Rept_Date":"2020-02-18 13"},"coordinates":[1943,3689]},{"type":"Point","properties":{"Station_ID":"WI-LN-2","Station_Nam":"MERRILL 7.0 W, WI","Latitude":"45.17746","Longitude":"-89.84820","Snowdepth":"20.000","Units":"in","Rept_Date":"2020-02-18 12"},"coordinates":[1913,4056]},{"type":"Point","properties":{"Station_ID":"WI-DD-16","Station_Nam":"BEAVER DAM 2.4 WNW, WI","Latitude":"43.47210","Longitude":"-88.88280","Snowdepth":"20.000","Units":"in","Rept_Date":"2020-02-18 13"},"coordinates":[2163,2509]},{"type":"Point","properties":{"Station_ID":"WI-BY-1","Station_Nam":"BAYFIELD 8.8 N, WI","Latitude":"46.93855","Longitude":"-90.83490","Snowdepth":"20.000","Units":"in","Rept_Date":"2020-02-18 11"},"coordinates":[1658,5654]},{"type":"Point","properties":{"Station_ID":"WHFN6","Station_Nam":"WILMINGTON 2W","Latitude":"44.39310","Longitude":"-73.85890","Snowdepth":"20.000","Units":"in","Rept_Date":"2020-02-18 13"},"coordinates":[6053,3345]},{"type":"Point","properties":{"Station_ID":"VT-CL-14","Station_Nam":"LYNDONVILLE 1.1 W, VT","Latitude":"44.53582","Longitude":"-72.02867","Snowdepth":"20.000","Units":"in","Rept_Date":"2020-02-18 12"},"coordinates":[6527,3474]},{"type":"Point","properties":{"Station_ID":"TAKW3","Station_Nam":"RICE RESERVOIR NO. 2","Latitude":"45.53770","Longitude":"-89.73220","Snowdepth":"20.000","Units":"in","Rept_Date":"2020-02-18 13"},"coordinates":[1943,4383]},{"type":"Point","properties":{"Station_ID":"RLWM5","Station_Nam":"CAMP NORRIS DNR","Latitude":"48.61000","Longitude":"-95.18170","Snowdepth":"20.000","Units":"in","Rept_Date":"2020-02-18 14"},"coordinates":[533,7171]},{"type":"Point","properties":{"Station_ID":"RGNM1","Station_Nam":"RANGELEY 2NW","Latitude":"44.98940","Longitude":"-70.67220","Snowdepth":"20.000","Units":"in","Rept_Date":"2020-02-18 11"},"coordinates":[6878,3886]},{"type":"Point","properties":{"Station_ID":"RARM4","Station_Nam":"RAPID RIVER 1 SW","Latitude":"45.91500","Longitude":"-86.98800","Snowdepth":"20.000","Units":"in","Rept_Date":"2020-02-18 12"},"coordinates":[2654,4726]},{"type":"Point","properties":{"Station_ID":"OLMN6","Station_Nam":"OLD FORGE - MOOSE","Latitude":"43.71270","Longitude":"-74.96930","Snowdepth":"20.000","Units":"in","Rept_Date":"2020-02-18 13"},"coordinates":[5766,2727]},{"type":"Point","properties":{"Station_ID":"NUMN3","Station_Nam":"NORTHUMBERLAND","Latitude":"44.52830","Longitude":"-71.50440","Snowdepth":"20.000","Units":"in","Rept_Date":"2020-02-18 13"},"coordinates":[6663,3467]},{"type":"Point","properties":{"Station_ID":"MN2EOYHJ","Station_Nam":"OGILVIE 5.6 N","Latitude":"45.91288","Longitude":"-93.42259","Snowdepth":"20.000","Units":"in","Rept_Date":"2020-02-18 14"},"coordinates":[988,4724]},{"type":"Point","properties":{"Station_ID":"MLLW3","Station_Nam":"MERRILL 8W","Latitude":"45.17810","Longitude":"-89.84810","Snowdepth":"20.000","Units":"in","Rept_Date":"2020-02-18 12"},"coordinates":[1913,4057]},{"type":"Point","properties":{"Station_ID":"MI-OT-4","Station_Nam":"GAYLORD 1.7 WNW, MI","Latitude":"45.03280","Longitude":"-84.71090","Snowdepth":"20.000","Units":"in","Rept_Date":"2020-02-18 13"},"coordinates":[3244,3925]},{"type":"Point","properties":{"Station_ID":"ME-SM-10","Station_Nam":"NORTH NEW PORTLAND 0.3 WSW, ME","Latitude":"44.92353","Longitude":"-70.02788","Snowdepth":"20.000","Units":"in","Rept_Date":"2020-02-18 12"},"coordinates":[7045,3826]},{"type":"Point","properties":{"Station_ID":"LNCM1","Station_Nam":"LINCOLN WATER DISTRICT","Latitude":"45.32410","Longitude":"-68.58300","Snowdepth":"20.000","Units":"in","Rept_Date":"2020-02-18 13"},"coordinates":[7419,4190]},{"type":"Point","properties":{"Station_ID":"LILM1","Station_Nam":"LILLE","Latitude":"47.27770","Longitude":"-68.10520","Snowdepth":"20.000","Units":"in","Rept_Date":"2020-02-18 12"},"coordinates":[7543,5962]},{"type":"Point","properties":{"Station_ID":"INL","Station_Nam":"FALLS INTERNATIONAL ARPT","Latitude":"48.56640","Longitude":"-93.40310","Snowdepth":"20.000","Units":"in","Rept_Date":"2020-02-19 00"},"coordinates":[993,7131]},{"type":"Point","properties":{"Station_ID":"INDN6","Station_Nam":"INDIAN LAKE","Latitude":"43.75500","Longitude":"-74.27560","Snowdepth":"20.000","Units":"in","Rept_Date":"2020-02-18 13"},"coordinates":[5945,2766]},{"type":"Point","properties":{"Station_ID":"IFSM5","Station_Nam":"INTERNATIONAL FALLS SNOW","Latitude":"48.57780","Longitude":"-93.39640","Snowdepth":"20.000","Units":"in","Rept_Date":"2020-02-18 18"},"coordinates":[995,7142]},{"type":"Point","properties":{"Station_ID":"GAYM4","Station_Nam":"GAYLORD","Latitude":"45.03320","Longitude":"-84.71130","Snowdepth":"20.000","Units":"in","Rept_Date":"2020-02-18 13"},"coordinates":[3243,3926]},{"type":"Point","properties":{"Station_ID":"CORV1","Station_Nam":"CORINTH","Latitude":"44.00690","Longitude":"-72.31940","Snowdepth":"20.000","Units":"in","Rept_Date":"2020-02-18 12"},"coordinates":[6452,2994]},{"type":"Point","properties":{"Station_ID":"CNNW3","Station_Nam":"CRANDON","Latitude":"45.55110","Longitude":"-88.89830","Snowdepth":"20.000","Units":"in","Rept_Date":"2020-02-18 12"},"coordinates":[2159,4395]},{"type":"Point","properties":{"Station_ID":"CAN-NS-103","Station_Nam":"TRAFALGAR 4.9 WSW, CAN","Latitude":"45.26217","Longitude":"-62.72285","Snowdepth":"20.000","Units":"in","Rept_Date":"2020-02-18 12"},"coordinates":[8936,4133]},{"type":"Point","properties":{"Station_ID":"BOWW3","Station_Nam":"STOCKBRIDGE-MUNSEE RESERVATION","Latitude":"44.87000","Longitude":"-88.90440","Snowdepth":"20.000","Units":"in","Rept_Date":"2020-02-18 14"},"coordinates":[2158,3778]},{"type":"Point","properties":{"Station_ID":"BFHW3","Station_Nam":"BAYFIELD FISH HATCHERY","Latitude":"46.78670","Longitude":"-90.86420","Snowdepth":"20.000","Units":"in","Rept_Date":"2020-02-18 14"},"coordinates":[1650,5517]},{"type":"Point","properties":{"Station_ID":"ATY","Station_Nam":"WATERTOWN MUNICIPAL AIRPORT","Latitude":"44.91420","Longitude":"-97.15440","Snowdepth":"20.000","Units":"in","Rept_Date":"2020-02-18 12"},"coordinates":[22,3818]},{"type":"Point","properties":{"Station_ID":"VT-OL-5","Station_Nam":"DERBY CENTER 1.8 NW, VT","Latitude":"44.97200","Longitude":"-72.14780","Snowdepth":"19.500","Units":"in","Rept_Date":"2020-02-18 12"},"coordinates":[6496,3870]},{"type":"Point","properties":{"Station_ID":"MI-CX-7","Station_Nam":"EAST JORDAN 2.1 NNW, MI","Latitude":"45.18639","Longitude":"-85.14750","Snowdepth":"19.500","Units":"in","Rept_Date":"2020-02-18 13"},"coordinates":[3130,4065]},{"type":"Point","properties":{"Station_ID":"MN-IT-7","Station_Nam":"GRAND RAPIDS 6.2 SSW, MN","Latitude":"47.13687","Longitude":"-93.56660","Snowdepth":"19.300","Units":"in","Rept_Date":"2020-02-18 12"},"coordinates":[951,5834]},{"type":"Point","properties":{"Station_ID":"CAN-QC-51","Station_Nam":"BELOEIL 0.7 NW, CAN","Latitude":"45.58049","Longitude":"-73.21218","Snowdepth":"19.300","Units":"in","Rept_Date":"2020-02-18 12"},"coordinates":[6221,4422]},{"type":"Point","properties":{"Station_ID":"WSKW3","Station_Nam":"WAUSAUKEE","Latitude":"45.38020","Longitude":"-87.95660","Snowdepth":"19.000","Units":"in","Rept_Date":"2020-02-18 14"},"coordinates":[2403,4240]},{"type":"Point","properties":{"Station_ID":"VT-WS-30","Station_Nam":"WOODBURY 3.4 NNW, VT","Latitude":"44.48825","Longitude":"-72.43258","Snowdepth":"19.000","Units":"in","Rept_Date":"2020-02-18 12"},"coordinates":[6422,3431]},{"type":"Point","properties":{"Station_ID":"VANM4","Station_Nam":"VANDERBILT 11ENE","Latitude":"45.17020","Longitude":"-84.43970","Snowdepth":"19.000","Units":"in","Rept_Date":"2020-02-18 13"},"coordinates":[3314,4050]},{"type":"Point","properties":{"Station_ID":"STRN6","Station_Nam":"STILLWATER RESERVOIR","Latitude":"43.89140","Longitude":"-75.03610","Snowdepth":"19.000","Units":"in","Rept_Date":"2020-02-18 13"},"coordinates":[5748,2890]},{"type":"Point","properties":{"Station_ID":"STMM4","Station_Nam":"STAMBAUGH 2SSE","Latitude":"46.05550","Longitude":"-88.62780","Snowdepth":"19.000","Units":"in","Rept_Date":"2020-02-18 13"},"coordinates":[2229,4853]},{"type":"Point","properties":{"Station_ID":"SSMM4","Station_Nam":"SAULT STE MARIE","Latitude":"46.48660","Longitude":"-84.40250","Snowdepth":"19.000","Units":"in","Rept_Date":"2020-02-18 13"},"coordinates":[3323,5244]},{"type":"Point","properties":{"Station_ID":"SEBM5","Station_Nam":"SEBEKA","Latitude":"46.62540","Longitude":"-95.09670","Snowdepth":"19.000","Units":"in","Rept_Date":"2020-02-18 22"},"coordinates":[555,5370]},{"type":"Point","properties":{"Station_ID":"PEKN6","Station_Nam":"PECK LAKE","Latitude":"43.11500","Longitude":"-74.42360","Snowdepth":"19.000","Units":"in","Rept_Date":"2020-02-18 13"},"coordinates":[5907,2185]},{"type":"Point","properties":{"Station_ID":"MNMZK7NS","Station_Nam":"NEW YORK MILLS 0.2 NNE","Latitude":"46.52057","Longitude":"-95.37394","Snowdepth":"19.000","Units":"in","Rept_Date":"2020-02-18 13"},"coordinates":[483,5275]},{"type":"Point","properties":{"Station_ID":"MIEM4","Station_Nam":"MICHIGAMME 3WNW","Latitude":"46.54530","Longitude":"-88.18000","Snowdepth":"19.000","Units":"in","Rept_Date":"2020-02-18 13"},"coordinates":[2345,5298]},{"type":"Point","properties":{"Station_ID":"INDM5","Station_Nam":"INDUS,MN","Latitude":"48.61670","Longitude":"-93.90000","Snowdepth":"19.000","Units":"in","Rept_Date":"2020-02-18 14"},"coordinates":[864,7177]},{"type":"Point","properties":{"Station_ID":"HUBN3","Station_Nam":"HUBBARD BROOK","Latitude":"43.93330","Longitude":"-71.71670","Snowdepth":"19.000","Units":"in","Rept_Date":"2020-02-18 12"},"coordinates":[6608,2928]},{"type":"Point","properties":{"Station_ID":"EJNM4","Station_Nam":"EAST JORDAN 2NW","Latitude":"45.18630","Longitude":"-85.14770","Snowdepth":"19.000","Units":"in","Rept_Date":"2020-02-18 13"},"coordinates":[3130,4064]},{"type":"Point","properties":{"Station_ID":"DFXM1","Station_Nam":"DOVER-FOXCROFT","Latitude":"45.18720","Longitude":"-69.18350","Snowdepth":"19.000","Units":"in","Rept_Date":"2020-02-18 12"},"coordinates":[7264,4065]},{"type":"Point","properties":{"Station_ID":"CAN-NB-2","Station_Nam":"GRAFTON 2.7 NNE, CA","Latitude":"46.17062","Longitude":"-67.55330","Snowdepth":"19.000","Units":"in","Rept_Date":"2020-02-18 11"},"coordinates":[7686,4958]},{"type":"Point","properties":{"Station_ID":"AMDW3","Station_Nam":"ALMOND-5 NE","Latitude":"44.30830","Longitude":"-89.34640","Snowdepth":"19.000","Units":"in","Rept_Date":"2020-02-18 14"},"coordinates":[2043,3268]},{"type":"Point","properties":{"Station_ID":"ABGW3","Station_Nam":"AMBERG 9 E","Latitude":"45.48250","Longitude":"-87.81190","Snowdepth":"19.000","Units":"in","Rept_Date":"2020-02-18 12"},"coordinates":[2441,4333]},{"type":"Point","properties":{"Station_ID":"WI-PT-8","Station_Nam":"RUDOLPH 2.1 NNE, WI","Latitude":"44.52553","Longitude":"-89.78677","Snowdepth":"18.500","Units":"in","Rept_Date":"2020-02-18 11"},"coordinates":[1929,3465]},{"type":"Point","properties":{"Station_ID":"NY-ES-6","Station_Nam":"OLMSTEDVILLE 4.6 NNE, NY","Latitude":"43.83350","Longitude":"-73.89780","Snowdepth":"18.500","Units":"in","Rept_Date":"2020-02-18 13"},"coordinates":[6043,2837]},{"type":"Point","properties":{"Station_ID":"CAN-NS-163","Station_Nam":"SYDNEY MINES 2.2 WNW, CAN","Latitude":"46.24851","Longitude":"-60.25161","Snowdepth":"18.500","Units":"in","Rept_Date":"2020-02-18 12"},"coordinates":[9576,5028]},{"type":"Point","properties":{"Station_ID":"WWWW3","Station_Nam":"WAUPACA","Latitude":"44.35470","Longitude":"-89.05920","Snowdepth":"18.000","Units":"in","Rept_Date":"2020-02-18 14"},"coordinates":[2118,3310]},{"type":"Point","properties":{"Station_ID":"WUNW3","Station_Nam":"WAUSAU-NORTHEAST","Latitude":"44.97310","Longitude":"-89.61690","Snowdepth":"18.000","Units":"in","Rept_Date":"2020-02-18 11"},"coordinates":[1973,3871]},{"type":"Point","properties":{"Station_ID":"WI-PR-6","Station_Nam":"PHILLIPS 1.3 S, WI","Latitude":"45.67677","Longitude":"-90.39543","Snowdepth":"18.000","Units":"in","Rept_Date":"2020-02-18 12"},"coordinates":[1772,4510]},{"type":"Point","properties":{"Station_ID":"WI-DN-1","Station_Nam":"BOYCEVILLE 3.3 N, WI","Latitude":"45.08913","Longitude":"-92.02760","Snowdepth":"18.000","Units":"in","Rept_Date":"2020-02-18 13"},"coordinates":[1349,3976]},{"type":"Point","properties":{"Station_ID":"WADM5","Station_Nam":"WADENA,MN","Latitude":"46.40000","Longitude":"-95.15000","Snowdepth":"18.000","Units":"in","Rept_Date":"2020-02-18 22"},"coordinates":[541,5166]},{"type":"Point","properties":{"Station_ID":"VT-WS-33","Station_Nam":"WAITSFIELD 3.5 WNW, VT","Latitude":"44.20052","Longitude":"-72.89421","Snowdepth":"18.000","Units":"in","Rept_Date":"2020-02-18 12"},"coordinates":[6303,3170]},{"type":"Point","properties":{"Station_ID":"VT-ES-3","Station_Nam":"LUNENBURG 2.3 NNW, VT","Latitude":"44.49324","Longitude":"-71.70446","Snowdepth":"18.000","Units":"in","Rept_Date":"2020-02-18 11"},"coordinates":[6611,3436]},{"type":"Point","properties":{"Station_ID":"VT-CH-4","Station_Nam":"UNDERHILL 4.4 NNE, VT","Latitude":"44.58774","Longitude":"-72.92250","Snowdepth":"18.000","Units":"in","Rept_Date":"2020-02-18 12"},"coordinates":[6296,3521]},{"type":"Point","properties":{"Station_ID":"SHHW3","Station_Nam":"SHAWANO 2SSW","Latitude":"44.76310","Longitude":"-88.61830","Snowdepth":"18.000","Units":"in","Rept_Date":"2020-02-18 14"},"coordinates":[2232,3681]},{"type":"Point","properties":{"Station_ID":"SD-BK-9","Station_Nam":"BRUCE 4.1 NE, SD","Latitude":"44.48479","Longitude":"-96.83750","Snowdepth":"18.000","Units":"in","Rept_Date":"2020-02-18 13"},"coordinates":[104,3428]},{"type":"Point","properties":{"Station_ID":"RANM1","Station_Nam":"RANGELEY","Latitude":"44.98910","Longitude":"-70.67190","Snowdepth":"18.000","Units":"in","Rept_Date":"2020-02-18 11"},"coordinates":[6878,3886]},{"type":"Point","properties":{"Station_ID":"PRGN6","Station_Nam":"PERRYSBURG","Latitude":"42.46470","Longitude":"-79.00310","Snowdepth":"18.000","Units":"in","Rept_Date":"2020-02-18 10"},"coordinates":[4721,1595]},{"type":"Point","properties":{"Station_ID":"NUNV1","Station_Nam":"NORTH UNDERHILL","Latitude":"44.58760","Longitude":"-72.92150","Snowdepth":"18.000","Units":"in","Rept_Date":"2020-02-18 12"},"coordinates":[6296,3521]},{"type":"Point","properties":{"Station_ID":"NPTV1","Station_Nam":"NEWPORT","Latitude":"44.94900","Longitude":"-72.19120","Snowdepth":"18.000","Units":"in","Rept_Date":"2020-02-18 12"},"coordinates":[6485,3849]},{"type":"Point","properties":{"Station_ID":"NONW3","Station_Nam":"NEW LONDON","Latitude":"44.35890","Longitude":"-88.71890","Snowdepth":"18.000","Units":"in","Rept_Date":"2020-02-18 12"},"coordinates":[2206,3314]},{"type":"Point","properties":{"Station_ID":"NH-CS-7","Station_Nam":"LANCASTER 0.5 N, NH","Latitude":"44.49611","Longitude":"-71.57640","Snowdepth":"18.000","Units":"in","Rept_Date":"2020-02-18 12"},"coordinates":[6644,3438]},{"type":"Point","properties":{"Station_ID":"NH-CR-26","Station_Nam":"CENTER SANDWICH 4.9 E, NH","Latitude":"43.80976","Longitude":"-71.34150","Snowdepth":"18.000","Units":"in","Rept_Date":"2020-02-18 12"},"coordinates":[6705,2816]},{"type":"Point","properties":{"Station_ID":"MRRN6","Station_Nam":"MORRISVILLE 6 SW","Latitude":"42.84160","Longitude":"-75.72630","Snowdepth":"18.000","Units":"in","Rept_Date":"2020-02-18 12"},"coordinates":[5570,1937]},{"type":"Point","properties":{"Station_ID":"MQRW3","Station_Nam":"MINOCQUA","Latitude":"45.88630","Longitude":"-89.73220","Snowdepth":"18.000","Units":"in","Rept_Date":"2020-02-18 12"},"coordinates":[1943,4700]},{"type":"Point","properties":{"Station_ID":"MN7M8EBJ","Station_Nam":"LUTSEN 15.7 NNW","Latitude":"47.85324","Longitude":"-89.92908","Snowdepth":"18.000","Units":"in","Rept_Date":"2020-02-18 14"},"coordinates":[1892,6484]},{"type":"Point","properties":{"Station_ID":"MN-MW-8","Station_Nam":"AUSTIN 2.4 W, MN","Latitude":"43.67190","Longitude":"-93.02280","Snowdepth":"18.000","Units":"in","Rept_Date":"2020-02-18 13"},"coordinates":[1092,2690]},{"type":"Point","properties":{"Station_ID":"MI-CP-14","Station_Nam":"SAULT STE. MARIE 2.2 E, MI","Latitude":"46.48933","Longitude":"-84.31971","Snowdepth":"18.000","Units":"in","Rept_Date":"2020-02-18 13"},"coordinates":[3345,5247]},{"type":"Point","properties":{"Station_ID":"MALN6","Station_Nam":"MALONE","Latitude":"44.84180","Longitude":"-74.30600","Snowdepth":"18.000","Units":"in","Rept_Date":"2020-02-18 12"},"coordinates":[5937,3752]},{"type":"Point","properties":{"Station_ID":"LNKM1","Station_Nam":"LINCOLN SANITARY DISTRICT/WTP","Latitude":"45.37520","Longitude":"-68.50820","Snowdepth":"18.000","Units":"in","Rept_Date":"2020-02-18 12"},"coordinates":[7438,4236]},{"type":"Point","properties":{"Station_ID":"HGHN6","Station_Nam":"HIGHMARKET","Latitude":"43.57520","Longitude":"-75.52070","Snowdepth":"18.000","Units":"in","Rept_Date":"2020-02-18 11"},"coordinates":[5623,2603]},{"type":"Point","properties":{"Station_ID":"GSHV1","Station_Nam":"GOSHEN DAM","Latitude":"43.91420","Longitude":"-73.00500","Snowdepth":"18.000","Units":"in","Rept_Date":"2020-02-18 17"},"coordinates":[6274,2910]},{"type":"Point","properties":{"Station_ID":"FRZM5","Station_Nam":"FRAZEE,MN","Latitude":"46.73330","Longitude":"-95.70000","Snowdepth":"18.000","Units":"in","Rept_Date":"2020-02-18 22"},"coordinates":[398,5468]},{"type":"Point","properties":{"Station_ID":"ESGM1","Station_Nam":"EAST SANGERVILLE","Latitude":"45.13690","Longitude":"-69.28060","Snowdepth":"18.000","Units":"in","Rept_Date":"2020-02-18 12"},"coordinates":[7239,4020]},{"type":"Point","properties":{"Station_ID":"ESDN3","Station_Nam":"EAST SANDWICH","Latitude":"43.80990","Longitude":"-71.34250","Snowdepth":"18.000","Units":"in","Rept_Date":"2020-02-18 11"},"coordinates":[6705,2816]},{"type":"Point","properties":{"Station_ID":"ASTM5","Station_Nam":"AUSTIN WASTE WATER TREATMENT FACILITY","Latitude":"43.65420","Longitude":"-92.97390","Snowdepth":"18.000","Units":"in","Rept_Date":"2020-02-18 13"},"coordinates":[1104,2674]},{"type":"Point","properties":{"Station_ID":"ANJ","Station_Nam":"SAULT STE MARIE","Latitude":"46.46670","Longitude":"-84.36670","Snowdepth":"18.000","Units":"in","Rept_Date":"2020-02-19 00"},"coordinates":[3333,5226]},{"type":"Point","properties":{"Station_ID":"QCO","Station_Nam":"QCO","Latitude":"51.45280","Longitude":"-72.20110","Snowdepth":"17.677","Units":"in","Rept_Date":"2020-02-18 12"},"coordinates":[6482,9750]},{"type":"Point","properties":{"Station_ID":"WI-PR-8","Station_Nam":"PHILLIPS 0.4 SSW, WI","Latitude":"45.69086","Longitude":"-90.40200","Snowdepth":"17.500","Units":"in","Rept_Date":"2020-02-18 13"},"coordinates":[1770,4522]},{"type":"Point","properties":{"Station_ID":"WI-BT-14","Station_Nam":"OAKLAND 9.0 ENE, WI","Latitude":"45.95184","Longitude":"-92.21653","Snowdepth":"17.500","Units":"in","Rept_Date":"2020-02-18 13"},"coordinates":[1300,4759]},{"type":"Point","properties":{"Station_ID":"NH-CR-11","Station_Nam":"NORTH CONWAY 1.4 SSW, NH","Latitude":"44.03556","Longitude":"-71.14010","Snowdepth":"17.500","Units":"in","Rept_Date":"2020-02-18 12"},"coordinates":[6757,3020]},{"type":"Point","properties":{"Station_ID":"MN-CW-22","Station_Nam":"FORT RIPLEY 0.8 N, MN","Latitude":"46.18089","Longitude":"-94.36510","Snowdepth":"17.500","Units":"in","Rept_Date":"2020-02-18 13"},"coordinates":[744,4967]},{"type":"Point","properties":{"Station_ID":"MI-BZ-1","Station_Nam":"BENZONIA 5.3 S, MI","Latitude":"44.53976","Longitude":"-86.10650","Snowdepth":"17.500","Units":"in","Rept_Date":"2020-02-18 14"},"coordinates":[2882,3478]},{"type":"Point","properties":{"Station_ID":"QLI","Station_Nam":"QLI","Latitude":"50.27080","Longitude":"-73.92280","Snowdepth":"17.480","Units":"in","Rept_Date":"2020-02-18 12"},"coordinates":[6037,8678]},{"type":"Point","properties":{"Station_ID":"WORV1","Station_Nam":"WORCESTER 2 W","Latitude":"44.37470","Longitude":"-72.58220","Snowdepth":"17.000","Units":"in","Rept_Date":"2020-02-18 12"},"coordinates":[6384,3328]},{"type":"Point","properties":{"Station_ID":"WI-DR-5","Station_Nam":"ELLISON BAY 2.2 E, WI","Latitude":"45.25750","Longitude":"-87.02670","Snowdepth":"17.000","Units":"in","Rept_Date":"2020-02-18 13"},"coordinates":[2644,4129]},{"type":"Point","properties":{"Station_ID":"WAAM5","Station_Nam":"WARREN WSD","Latitude":"48.19530","Longitude":"-96.77590","Snowdepth":"17.000","Units":"in","Rept_Date":"2020-02-18 14"},"coordinates":[120,6795]},{"type":"Point","properties":{"Station_ID":"SDYM5","Station_Nam":"DAM","Latitude":"46.81670","Longitude":"-93.36670","Snowdepth":"17.000","Units":"in","Rept_Date":"2020-02-18 14"},"coordinates":[1002,5544]},{"type":"Point","properties":{"Station_ID":"RLKW3","Station_Nam":"REST LAKE","Latitude":"46.12220","Longitude":"-89.87720","Snowdepth":"17.000","Units":"in","Rept_Date":"2020-02-18 14"},"coordinates":[1906,4914]},{"type":"Point","properties":{"Station_ID":"RHRW3","Station_Nam":"RHINELANDER WJFW TV-12","Latitude":"45.62220","Longitude":"-89.41000","Snowdepth":"17.000","Units":"in","Rept_Date":"2020-02-19 04"},"coordinates":[2027,4460]},{"type":"Point","properties":{"Station_ID":"PULW3","Station_Nam":"PULASKI WWTP","Latitude":"44.67830","Longitude":"-88.22750","Snowdepth":"17.000","Units":"in","Rept_Date":"2020-02-18 12"},"coordinates":[2333,3604]},{"type":"Point","properties":{"Station_ID":"MN3LTZND","Station_Nam":"BRAINERD 1.4 S","Latitude":"46.33224","Longitude":"-94.20905","Snowdepth":"17.000","Units":"in","Rept_Date":"2020-02-18 13"},"coordinates":[784,5104]},{"type":"Point","properties":{"Station_ID":"MCLN8","Station_Nam":"MC LEOD,ND","Latitude":"46.40250","Longitude":"-97.23810","Snowdepth":"17.000","Units":"in","Rept_Date":"2020-02-18 14"},"coordinates":[0,5168]},{"type":"Point","properties":{"Station_ID":"JCBM4","Station_Nam":"JACOBSVILLE","Latitude":"47.00830","Longitude":"-88.43180","Snowdepth":"17.000","Units":"in","Rept_Date":"2020-02-18 12"},"coordinates":[2280,5718]},{"type":"Point","properties":{"Station_ID":"ILEW3","Station_Nam":"STILES 1S","Latitude":"44.84190","Longitude":"-88.05420","Snowdepth":"17.000","Units":"in","Rept_Date":"2020-02-18 13"},"coordinates":[2378,3752]},{"type":"Point","properties":{"Station_ID":"HOLW3","Station_Nam":"HOLCOMBE","Latitude":"45.22370","Longitude":"-91.12700","Snowdepth":"17.000","Units":"in","Rept_Date":"2020-02-18 13"},"coordinates":[1582,4098]},{"type":"Point","properties":{"Station_ID":"EPTW3","Station_Nam":"EAU PLEINE TENDER","Latitude":"44.77220","Longitude":"-89.76720","Snowdepth":"17.000","Units":"in","Rept_Date":"2020-02-18 13"},"coordinates":[1934,3689]},{"type":"Point","properties":{"Station_ID":"COLN3","Station_Nam":"COLEBROOK 3SW","Latitude":"44.86100","Longitude":"-71.53920","Snowdepth":"17.000","Units":"in","Rept_Date":"2020-02-18 12"},"coordinates":[6654,3769]},{"type":"Point","properties":{"Station_ID":"CNTW3","Station_Nam":"CLINTONVILLE","Latitude":"44.62270","Longitude":"-88.74830","Snowdepth":"17.000","Units":"in","Rept_Date":"2020-02-18 13"},"coordinates":[2198,3553]},{"type":"Point","properties":{"Station_ID":"CLGM5","Station_Nam":"COLLEGEVILLE ST JOHN","Latitude":"45.57940","Longitude":"-94.39200","Snowdepth":"17.000","Units":"in","Rept_Date":"2020-02-19 00"},"coordinates":[737,4421]},{"type":"Point","properties":{"Station_ID":"CHRM4","Station_Nam":"CHARLEVOIX","Latitude":"45.31720","Longitude":"-85.26720","Snowdepth":"17.000","Units":"in","Rept_Date":"2020-02-18 13"},"coordinates":[3099,4183]},{"type":"Point","properties":{"Station_ID":"CAN-ON-42","Station_Nam":"VANKLEEK HILL 3.4 S, CA","Latitude":"45.48987","Longitude":"-74.64570","Snowdepth":"17.000","Units":"in","Rept_Date":"2020-02-18 12"},"coordinates":[5849,4340]},{"type":"Point","properties":{"Station_ID":"BRAM5","Station_Nam":"BRAINERD","Latitude":"46.34320","Longitude":"-94.20900","Snowdepth":"17.000","Units":"in","Rept_Date":"2020-02-18 13"},"coordinates":[784,5114]},{"type":"Point","properties":{"Station_ID":"BFSW3","Station_Nam":"BIG FALLS-5 NW","Latitude":"44.63980","Longitude":"-89.11330","Snowdepth":"17.000","Units":"in","Rept_Date":"2020-02-18 13"},"coordinates":[2104,3569]},{"type":"Point","properties":{"Station_ID":"CATQ6","Station_Nam":"CAT LAKE","Latitude":"51.72690","Longitude":"-91.82210","Snowdepth":"16.730","Units":"in","Rept_Date":"2020-02-19 06"},"coordinates":[1402,9999]},{"type":"Point","properties":{"Station_ID":"CAN-ON-757","Station_Nam":"SAULT STE. MARIE 2.8 ESE - GLFC, CAN","Latitude":"46.50300","Longitude":"-84.30300","Snowdepth":"16.700","Units":"in","Rept_Date":"2020-02-18 13"},"coordinates":[3349,5259]},{"type":"Point","properties":{"Station_ID":"QWG","Station_Nam":"QWG","Latitude":"48.48890","Longitude":"-73.45940","Snowdepth":"16.693","Units":"in","Rept_Date":"2020-02-18 12"},"coordinates":[6157,7061]},{"type":"Point","properties":{"Station_ID":"WI-SR-5","Station_Nam":"HAYWARD 9.7 NE, WI","Latitude":"46.12030","Longitude":"-91.35370","Snowdepth":"16.500","Units":"in","Rept_Date":"2020-02-18 14"},"coordinates":[1524,4912]},{"type":"Point","properties":{"Station_ID":"VT-BN-3","Station_Nam":"LANDGROVE 1.1 NNE, VT","Latitude":"43.29092","Longitude":"-72.83260","Snowdepth":"16.500","Units":"in","Rept_Date":"2020-02-18 11"},"coordinates":[6319,2345]},{"type":"Point","properties":{"Station_ID":"NH-GR-49","Station_Nam":"PLYMOUTH 3.7 N, NH","Latitude":"43.79048","Longitude":"-71.68413","Snowdepth":"16.500","Units":"in","Rept_Date":"2020-02-18 12"},"coordinates":[6616,2798]},{"type":"Point","properties":{"Station_ID":"MN-PK-15","Station_Nam":"MENTOR 2.5 SSW, MN","Latitude":"47.66625","Longitude":"-96.17328","Snowdepth":"16.500","Units":"in","Rept_Date":"2020-02-18 13"},"coordinates":[276,6315]},{"type":"Point","properties":{"Station_ID":"MN-BK-10","Station_Nam":"DETROIT LAKES 5.7 N, MN","Latitude":"46.88666","Longitude":"-95.84444","Snowdepth":"16.500","Units":"in","Rept_Date":"2020-02-18 10"},"coordinates":[361,5607]},{"type":"Point","properties":{"Station_ID":"MI-AT-6","Station_Nam":"MANCELONA 0.5 ESE, MI","Latitude":"44.89981","Longitude":"-85.05100","Snowdepth":"16.500","Units":"in","Rept_Date":"2020-02-18 13"},"coordinates":[3155,3805]},{"type":"Point","properties":{"Station_ID":"CAN-ON-208","Station_Nam":"PAKENHAM 7.8 NNW, CAN","Latitude":"45.39166","Longitude":"-76.34111","Snowdepth":"16.500","Units":"in","Rept_Date":"2020-02-18 12"},"coordinates":[5411,4251]},{"type":"Point","properties":{"Station_ID":"CAN-NB-97","Station_Nam":"NEW MARYLAND 0.6 NW, CAN","Latitude":"45.90112","Longitude":"-66.68739","Snowdepth":"16.100","Units":"in","Rept_Date":"2020-02-18 11"},"coordinates":[7910,4713]},{"type":"Point","properties":{"Station_ID":"WNNM5","Station_Nam":"WINNEBAGO","Latitude":"43.76920","Longitude":"-94.18730","Snowdepth":"16.000","Units":"in","Rept_Date":"2020-02-18 14"},"coordinates":[790,2779]},{"type":"Point","properties":{"Station_ID":"WI-WN-9","Station_Nam":"NEENAH 1.1 ENE, WI","Latitude":"44.17370","Longitude":"-88.45130","Snowdepth":"16.000","Units":"in","Rept_Date":"2020-02-18 13"},"coordinates":[2275,3146]},{"type":"Point","properties":{"Station_ID":"WI-WH-7","Station_Nam":"WILD ROSE 0.5 E, WI","Latitude":"44.17764","Longitude":"-89.23812","Snowdepth":"16.000","Units":"in","Rept_Date":"2020-02-18 12"},"coordinates":[2071,3149]},{"type":"Point","properties":{"Station_ID":"WI-MT-1","Station_Nam":"SCHOFIELD 3.3 E, WI","Latitude":"44.91806","Longitude":"-89.54470","Snowdepth":"16.000","Units":"in","Rept_Date":"2020-02-18 13"},"coordinates":[1992,3821]},{"type":"Point","properties":{"Station_ID":"WI-CH-7","Station_Nam":"CHIPPEWA FALLS 1.2 E, WI","Latitude":"44.92920","Longitude":"-91.36730","Snowdepth":"16.000","Units":"in","Rept_Date":"2020-02-18 13"},"coordinates":[1520,3831]},{"type":"Point","properties":{"Station_ID":"STPW3","Station_Nam":"STEVENS POINT","Latitude":"44.51130","Longitude":"-89.58550","Snowdepth":"16.000","Units":"in","Rept_Date":"2020-02-18 13"},"coordinates":[1981,3452]},{"type":"Point","properties":{"Station_ID":"SD-CD-30","Station_Nam":"WATERTOWN 2.3 E, SD","Latitude":"44.91604","Longitude":"-97.11925","Snowdepth":"16.000","Units":"in","Rept_Date":"2020-02-18 14"},"coordinates":[31,3819]},{"type":"Point","properties":{"Station_ID":"PSHW3","Station_Nam":"PESHTIGO","Latitude":"45.02810","Longitude":"-87.73560","Snowdepth":"16.000","Units":"in","Rept_Date":"2020-02-18 13"},"coordinates":[2460,3921]},{"type":"Point","properties":{"Station_ID":"NY-OD-4","Station_Nam":"BOONVILLE 0.2 NW, NY","Latitude":"43.48333","Longitude":"-75.33330","Snowdepth":"16.000","Units":"in","Rept_Date":"2020-02-18 23"},"coordinates":[5671,2519]},{"type":"Point","properties":{"Station_ID":"NY-ER-77","Station_Nam":"COLDEN 2.4 ENE, NY","Latitude":"42.65088","Longitude":"-78.61060","Snowdepth":"16.000","Units":"in","Rept_Date":"2020-02-18 13"},"coordinates":[4823,1764]},{"type":"Point","properties":{"Station_ID":"NCKN6","Station_Nam":"NORTH CREEK 5 SE","Latitude":"43.66110","Longitude":"-73.89690","Snowdepth":"16.000","Units":"in","Rept_Date":"2020-02-18 12"},"coordinates":[6043,2681]},{"type":"Point","properties":{"Station_ID":"MNEY8CTB","Station_Nam":"MIDLAND JUNCTION 2.2 ENE","Latitude":"44.33041","Longitude":"-91.95891","Snowdepth":"16.000","Units":"in","Rept_Date":"2020-02-18 14"},"coordinates":[1367,3288]},{"type":"Point","properties":{"Station_ID":"MN-SH-10","Station_Nam":"BIG LAKE 5.6 NNE, MN","Latitude":"45.41409","Longitude":"-93.69190","Snowdepth":"16.000","Units":"in","Rept_Date":"2020-02-18 13"},"coordinates":[918,4271]},{"type":"Point","properties":{"Station_ID":"ME-FR-4","Station_Nam":"NEW SHARON 2.0 NW, ME","Latitude":"44.66582","Longitude":"-70.02720","Snowdepth":"16.000","Units":"in","Rept_Date":"2020-02-18 12"},"coordinates":[7045,3592]},{"type":"Point","properties":{"Station_ID":"MAPM4","Station_Nam":"MAPLE CITY 1E","Latitude":"44.85500","Longitude":"-85.83520","Snowdepth":"16.000","Units":"in","Rept_Date":"2020-02-18 23"},"coordinates":[2952,3764]},{"type":"Point","properties":{"Station_ID":"LMLI4","Station_Nam":"LAKE MILLS,IA","Latitude":"43.40000","Longitude":"-93.53330","Snowdepth":"16.000","Units":"in","Rept_Date":"2020-02-18 13"},"coordinates":[959,2444]},{"type":"Point","properties":{"Station_ID":"KINM1","Station_Nam":"KINGFIELD","Latitude":"44.95950","Longitude":"-70.17530","Snowdepth":"16.000","Units":"in","Rept_Date":"2020-02-18 13"},"coordinates":[7007,3859]},{"type":"Point","properties":{"Station_ID":"JKMM1","Station_Nam":"JACKMAN","Latitude":"45.62600","Longitude":"-70.24600","Snowdepth":"16.000","Units":"in","Rept_Date":"2020-02-18 12"},"coordinates":[6989,4463]},{"type":"Point","properties":{"Station_ID":"JEFN3","Station_Nam":"JEFFERSON","Latitude":"44.41690","Longitude":"-71.50080","Snowdepth":"16.000","Units":"in","Rept_Date":"2020-02-18 12"},"coordinates":[6664,3366]},{"type":"Point","properties":{"Station_ID":"GLRM5","Station_Nam":"GLACIAL RIDGE","Latitude":"47.71670","Longitude":"-96.26670","Snowdepth":"16.000","Units":"in","Rept_Date":"2020-02-19 06"},"coordinates":[252,6360]},{"type":"Point","properties":{"Station_ID":"FSSM5","Station_Nam":"FOSSTON,MN","Latitude":"47.58330","Longitude":"-95.73330","Snowdepth":"16.000","Units":"in","Rept_Date":"2020-02-18 22"},"coordinates":[390,6239]},{"type":"Point","properties":{"Station_ID":"FORW3","Station_Nam":"FORESTVILLE-4E","Latitude":"44.69780","Longitude":"-87.39690","Snowdepth":"16.000","Units":"in","Rept_Date":"2020-02-18 13"},"coordinates":[2548,3621]},{"type":"Point","properties":{"Station_ID":"EPMW3","Station_Nam":"EPHRAIM-1 NE WWTP","Latitude":"45.17080","Longitude":"-87.15360","Snowdepth":"16.000","Units":"in","Rept_Date":"2020-02-18 13"},"coordinates":[2611,4050]},{"type":"Point","properties":{"Station_ID":"DTVM4","Station_Nam":"DETOUR VILLAGE","Latitude":"45.99830","Longitude":"-83.90130","Snowdepth":"16.000","Units":"in","Rept_Date":"2020-02-18 13"},"coordinates":[3453,4801]},{"type":"Point","properties":{"Station_ID":"CVZW3","Station_Nam":"WISCONSIN PUBLIC SERVICE","Latitude":"45.23530","Longitude":"-88.01360","Snowdepth":"16.000","Units":"in","Rept_Date":"2020-02-18 13"},"coordinates":[2388,4109]},{"type":"Point","properties":{"Station_ID":"CMBM5","Station_Nam":"CAMBRIDGE","Latitude":"45.55640","Longitude":"-93.23480","Snowdepth":"16.000","Units":"in","Rept_Date":"2020-02-18 14"},"coordinates":[1037,4400]},{"type":"Point","properties":{"Station_ID":"CDLM4","Station_Nam":"CADILLAC 9&10 NEWS","Latitude":"44.21130","Longitude":"-85.40860","Snowdepth":"16.000","Units":"in","Rept_Date":"2020-02-18 12"},"coordinates":[3063,3180]},{"type":"Point","properties":{"Station_ID":"CAN-PE-7","Station_Nam":"MORELL 1.4 NNW, CA","Latitude":"46.42741","Longitude":"-62.70870","Snowdepth":"16.000","Units":"in","Rept_Date":"2020-02-18 12"},"coordinates":[8940,5191]},{"type":"Point","properties":{"Station_ID":"BTLN3","Station_Nam":"BARTLETT","Latitude":"44.08380","Longitude":"-71.29340","Snowdepth":"16.000","Units":"in","Rept_Date":"2020-02-18 12"},"coordinates":[6717,3064]},{"type":"Point","properties":{"Station_ID":"BENN6","Station_Nam":"BENNETTS BRIDGE","Latitude":"43.53180","Longitude":"-75.95260","Snowdepth":"16.000","Units":"in","Rept_Date":"2020-02-18 12"},"coordinates":[5511,2563]},{"type":"Point","properties":{"Station_ID":"BDMW3","Station_Nam":"BEAVER DAM 1 N","Latitude":"43.46860","Longitude":"-88.83970","Snowdepth":"16.000","Units":"in","Rept_Date":"2020-02-18 15"},"coordinates":[2175,2506]},{"type":"Point","properties":{"Station_ID":"BALW3","Station_Nam":"BALDWIN","Latitude":"44.96330","Longitude":"-92.39050","Snowdepth":"16.000","Units":"in","Rept_Date":"2020-02-18 13"},"coordinates":[1255,3862]},{"type":"Point","properties":{"Station_ID":"APPW3","Station_Nam":"APPLETON","Latitude":"44.27690","Longitude":"-88.43770","Snowdepth":"16.000","Units":"in","Rept_Date":"2020-02-18 12"},"coordinates":[2279,3239]},{"type":"Point","properties":{"Station_ID":"ALBM5","Station_Nam":"ALBERT LEA 3 SE","Latitude":"43.60640","Longitude":"-93.30190","Snowdepth":"16.000","Units":"in","Rept_Date":"2020-02-18 14"},"coordinates":[1019,2631]},{"type":"Point","properties":{"Station_ID":"WI-CB-5","Station_Nam":"PORTAGE 7.2 SW, WI","Latitude":"43.47933","Longitude":"-89.57370","Snowdepth":"15.700","Units":"in","Rept_Date":"2020-02-18 13"},"coordinates":[1984,2516]},{"type":"Point","properties":{"Station_ID":"CAN-NB-16","Station_Nam":"DORCHESTER 1.0 SSE, CAN","Latitude":"45.89160","Longitude":"-64.51269","Snowdepth":"15.700","Units":"in","Rept_Date":"2020-02-18 11"},"coordinates":[8473,4704]},{"type":"Point","properties":{"Station_ID":"WI-DA-45","Station_Nam":"MADISON 6.1 W, WI","Latitude":"43.06948","Longitude":"-89.50788","Snowdepth":"15.500","Units":"in","Rept_Date":"2020-02-18 13"},"coordinates":[2002,2144]},{"type":"Point","properties":{"Station_ID":"VT-WS-10","Station_Nam":"NORTHFIELD 1.5 N, VT","Latitude":"44.16986","Longitude":"-72.65200","Snowdepth":"15.500","Units":"in","Rept_Date":"2020-02-18 12"},"coordinates":[6366,3142]},{"type":"Point","properties":{"Station_ID":"VT-WR-17","Station_Nam":"ROCHESTER 2.3 NE, VT","Latitude":"43.89418","Longitude":"-72.76992","Snowdepth":"15.500","Units":"in","Rept_Date":"2020-02-18 12"},"coordinates":[6335,2892]},{"type":"Point","properties":{"Station_ID":"VT-OG-11","Station_Nam":"VERSHIRE 1.5 ESE, VT","Latitude":"43.96138","Longitude":"-72.29777","Snowdepth":"15.500","Units":"in","Rept_Date":"2020-02-18 13"},"coordinates":[6457,2953]},{"type":"Point","properties":{"Station_ID":"NY-ER-166","Station_Nam":"BOSTON 2.5 NE, NY","Latitude":"42.65480","Longitude":"-78.70300","Snowdepth":"15.500","Units":"in","Rept_Date":"2020-02-18 12"},"coordinates":[4799,1768]},{"type":"Point","properties":{"Station_ID":"MFU","Station_Nam":"MFU","Latitude":"51.52170","Longitude":"-66.91110","Snowdepth":"15.157","Units":"in","Rept_Date":"2020-02-18 12"},"coordinates":[7852,9813]},{"type":"Point","properties":{"Station_ID":"WLKM5","Station_Nam":"AH-GWAH-CHING","Latitude":"47.15000","Longitude":"-94.65000","Snowdepth":"15.000","Units":"in","Rept_Date":"2020-02-18 11"},"coordinates":[670,5846]},{"type":"Point","properties":{"Station_ID":"WIRW3","Station_Nam":"WIS RAPIDS GRAND AV B","Latitude":"44.39940","Longitude":"-89.83050","Snowdepth":"15.000","Units":"in","Rept_Date":"2020-02-18 13"},"coordinates":[1918,3351]},{"type":"Point","properties":{"Station_ID":"WIPW3","Station_Nam":"WISCONSIN RAPIDS-SOUTHEAST","Latitude":"44.38190","Longitude":"-89.80470","Snowdepth":"15.000","Units":"in","Rept_Date":"2020-02-18 12"},"coordinates":[1925,3335]},{"type":"Point","properties":{"Station_ID":"WI-TR-8","Station_Nam":"ETTRICK 4.0 WNW, WI","Latitude":"44.19004","Longitude":"-91.34249","Snowdepth":"15.000","Units":"in","Rept_Date":"2020-02-18 14"},"coordinates":[1527,3161]},{"type":"Point","properties":{"Station_ID":"WI-OG-18","Station_Nam":"NEW LONDON 4.1 N, WI","Latitude":"44.45298","Longitude":"-88.72876","Snowdepth":"15.000","Units":"in","Rept_Date":"2020-02-18 12"},"coordinates":[2203,3399]},{"type":"Point","properties":{"Station_ID":"WI-MT-4","Station_Nam":"WAUSAU 1.7 ENE, WI","Latitude":"44.96943","Longitude":"-89.61090","Snowdepth":"15.000","Units":"in","Rept_Date":"2020-02-18 13"},"coordinates":[1975,3868]},{"type":"Point","properties":{"Station_ID":"WI-GL-4","Station_Nam":"GREEN LAKE 0.8 E, WI","Latitude":"43.84369","Longitude":"-88.94066","Snowdepth":"15.000","Units":"in","Rept_Date":"2020-02-18 13"},"coordinates":[2148,2846]},{"type":"Point","properties":{"Station_ID":"WI-EC-23","Station_Nam":"EAU CLAIRE 3.7 S, WI","Latitude":"44.76858","Longitude":"-91.49898","Snowdepth":"15.000","Units":"in","Rept_Date":"2020-02-18 16"},"coordinates":[1486,3685]},{"type":"Point","properties":{"Station_ID":"WI-DR-6","Station_Nam":"SISTER BAY 1.3 NNE, WI","Latitude":"45.20296","Longitude":"-87.11326","Snowdepth":"15.000","Units":"in","Rept_Date":"2020-02-18 13"},"coordinates":[2622,4080]},{"type":"Point","properties":{"Station_ID":"WELM5","Station_Nam":"WELLS","Latitude":"43.74680","Longitude":"-93.73680","Snowdepth":"15.000","Units":"in","Rept_Date":"2020-02-18 14"},"coordinates":[907,2758]},{"type":"Point","properties":{"Station_ID":"WAOW3","Station_Nam":"WAUTOMA SILVER LAKE SANITARY DISTRICT","Latitude":"44.04110","Longitude":"-89.24330","Snowdepth":"15.000","Units":"in","Rept_Date":"2020-02-18 14"},"coordinates":[2070,3025]},{"type":"Point","properties":{"Station_ID":"VT-WS-19","Station_Nam":"WATERBURY 3.0 NW, VT","Latitude":"44.36060","Longitude":"-72.80770","Snowdepth":"15.000","Units":"in","Rept_Date":"2020-02-18 11"},"coordinates":[6325,3315]},{"type":"Point","properties":{"Station_ID":"TCEM4","Station_Nam":"TRAVERSE CITY 5ESE","Latitude":"44.73370","Longitude":"-85.51180","Snowdepth":"15.000","Units":"in","Rept_Date":"2020-02-18 12"},"coordinates":[3036,3654]},{"type":"Point","properties":{"Station_ID":"STRW3","Station_Nam":"STRATFORD 1NW","Latitude":"44.81750","Longitude":"-90.08990","Snowdepth":"15.000","Units":"in","Rept_Date":"2020-02-18 12"},"coordinates":[1851,3730]},{"type":"Point","properties":{"Station_ID":"SD-BK-2","Station_Nam":"ASTORIA 2.2 SSE, SD","Latitude":"44.53093","Longitude":"-96.52270","Snowdepth":"15.000","Units":"in","Rept_Date":"2020-02-18 13"},"coordinates":[185,3470]},{"type":"Point","properties":{"Station_ID":"SBNM5","Station_Nam":"SABIN","Latitude":"46.77690","Longitude":"-96.65610","Snowdepth":"15.000","Units":"in","Rept_Date":"2020-02-18 14"},"coordinates":[151,5508]},{"type":"Point","properties":{"Station_ID":"SANI4","Station_Nam":"ST ANSGAR","Latitude":"43.38170","Longitude":"-92.92320","Snowdepth":"15.000","Units":"in","Rept_Date":"2020-02-18 12"},"coordinates":[1117,2427]},{"type":"Point","properties":{"Station_ID":"RST","Station_Nam":"ROCHESTER INTERNATIONAL ARPT","Latitude":"43.90890","Longitude":"-92.49780","Snowdepth":"15.000","Units":"in","Rept_Date":"2020-02-19 00"},"coordinates":[1227,2905]},{"type":"Point","properties":{"Station_ID":"RSRM5","Station_Nam":"ROCHESTER AP 2NE","Latitude":"43.92810","Longitude":"-92.47580","Snowdepth":"15.000","Units":"in","Rept_Date":"2020-02-18 13"},"coordinates":[1233,2923]},{"type":"Point","properties":{"Station_ID":"PLOW3","Station_Nam":"PLOVER","Latitude":"44.44280","Longitude":"-89.54530","Snowdepth":"15.000","Units":"in","Rept_Date":"2020-02-18 13"},"coordinates":[1992,3390]},{"type":"Point","properties":{"Station_ID":"ONMM5","Station_Nam":"ONAMIA RANGER STATION","Latitude":"46.06770","Longitude":"-93.66660","Snowdepth":"15.000","Units":"in","Rept_Date":"2020-02-18 14"},"coordinates":[925,4864]},{"type":"Point","properties":{"Station_ID":"OCON6","Station_Nam":"OSCEOLA","Latitude":"43.49910","Longitude":"-75.71210","Snowdepth":"15.000","Units":"in","Rept_Date":"2020-02-18 12"},"coordinates":[5573,2534]},{"type":"Point","properties":{"Station_ID":"NYMM5","Station_Nam":"NEW YORK MILLS","Latitude":"46.50920","Longitude":"-95.37990","Snowdepth":"15.000","Units":"in","Rept_Date":"2020-02-18 22"},"coordinates":[481,5265]},{"type":"Point","properties":{"Station_ID":"NHNW3","Station_Nam":"NEW HOLSTEIN-EAST-WWTP","Latitude":"43.95310","Longitude":"-88.07720","Snowdepth":"15.000","Units":"in","Rept_Date":"2020-02-18 12"},"coordinates":[2372,2946]},{"type":"Point","properties":{"Station_ID":"NH-MR-6","Station_Nam":"DANBURY 2.2 ESE, NH","Latitude":"43.52000","Longitude":"-71.81900","Snowdepth":"15.000","Units":"in","Rept_Date":"2020-02-18 13"},"coordinates":[6581,2553]},{"type":"Point","properties":{"Station_ID":"NCON3","Station_Nam":"NORTH CONWAY","Latitude":"44.05620","Longitude":"-71.12970","Snowdepth":"15.000","Units":"in","Rept_Date":"2020-02-18 13"},"coordinates":[6760,3039]},{"type":"Point","properties":{"Station_ID":"MRIW3","Station_Nam":"MARINETTE","Latitude":"45.09830","Longitude":"-87.62360","Snowdepth":"15.000","Units":"in","Rept_Date":"2020-02-18 13"},"coordinates":[2489,3985]},{"type":"Point","properties":{"Station_ID":"MRBW3","Station_Nam":"MT HOREB","Latitude":"42.98030","Longitude":"-89.73940","Snowdepth":"15.000","Units":"in","Rept_Date":"2020-02-18 13"},"coordinates":[1942,2063]},{"type":"Point","properties":{"Station_ID":"MNG0GYSN","Station_Nam":"LONSDALE 1.1 SSW","Latitude":"44.46445","Longitude":"-93.43293","Snowdepth":"15.000","Units":"in","Rept_Date":"2020-02-18 12"},"coordinates":[985,3410]},{"type":"Point","properties":{"Station_ID":"MNCHC1R2","Station_Nam":"JUDGE 2.0 N","Latitude":"43.92786","Longitude":"-92.46844","Snowdepth":"15.000","Units":"in","Rept_Date":"2020-02-18 12"},"coordinates":[1235,2923]},{"type":"Point","properties":{"Station_ID":"MN-SE-2","Station_Nam":"OWATONNA 0.8 E, MN","Latitude":"44.09170","Longitude":"-93.21380","Snowdepth":"15.000","Units":"in","Rept_Date":"2020-02-18 12"},"coordinates":[1042,3071]},{"type":"Point","properties":{"Station_ID":"MN-RC-1","Station_Nam":"MONTGOMERY 3.2 ENE, MN","Latitude":"44.46400","Longitude":"-93.51980","Snowdepth":"15.000","Units":"in","Rept_Date":"2020-02-18 11"},"coordinates":[963,3409]},{"type":"Point","properties":{"Station_ID":"MN-OL-18","Station_Nam":"ROCHESTER 2.6 NE, MN","Latitude":"44.03975","Longitude":"-92.43750","Snowdepth":"15.000","Units":"in","Rept_Date":"2020-02-18 12"},"coordinates":[1243,3024]},{"type":"Point","properties":{"Station_ID":"MI-GT-25","Station_Nam":"TRAVERSE CITY 4.7 ESE, MI","Latitude":"44.73370","Longitude":"-85.51189","Snowdepth":"15.000","Units":"in","Rept_Date":"2020-02-18 12"},"coordinates":[3036,3654]},{"type":"Point","properties":{"Station_ID":"MFDW3","Station_Nam":"MARSHFIELD EXP FARM","Latitude":"44.64110","Longitude":"-90.13330","Snowdepth":"15.000","Units":"in","Rept_Date":"2020-02-18 13"},"coordinates":[1840,3570]},{"type":"Point","properties":{"Station_ID":"MENM4","Station_Nam":"MENOMINEE NO.2","Latitude":"45.11100","Longitude":"-87.61170","Snowdepth":"15.000","Units":"in","Rept_Date":"2020-02-18 14"},"coordinates":[2492,3996]},{"type":"Point","properties":{"Station_ID":"MEDW3","Station_Nam":"MEDFORD","Latitude":"45.13080","Longitude":"-90.34390","Snowdepth":"15.000","Units":"in","Rept_Date":"2020-02-18 14"},"coordinates":[1785,4014]},{"type":"Point","properties":{"Station_ID":"MADM5","Station_Nam":"MADISON WWTP","Latitude":"45.00230","Longitude":"-96.16610","Snowdepth":"15.000","Units":"in","Rept_Date":"2020-02-18 14"},"coordinates":[278,3898]},{"type":"Point","properties":{"Station_ID":"KSEM4","Station_Nam":"KALKASKA 11SE","Latitude":"44.58970","Longitude":"-85.04860","Snowdepth":"15.000","Units":"in","Rept_Date":"2020-02-18 13"},"coordinates":[3156,3523]},{"type":"Point","properties":{"Station_ID":"JOHV1","Station_Nam":"JOHNSON 2 N","Latitude":"44.65790","Longitude":"-72.67850","Snowdepth":"15.000","Units":"in","Rept_Date":"2020-02-18 12"},"coordinates":[6359,3585]},{"type":"Point","properties":{"Station_ID":"JEFV1","Station_Nam":"JEFFERSONVILLE","Latitude":"44.58430","Longitude":"-72.78700","Snowdepth":"15.000","Units":"in","Rept_Date":"2020-02-18 12"},"coordinates":[6331,3518]},{"type":"Point","properties":{"Station_ID":"GFDN6","Station_Nam":"CHASES LAKE","Latitude":"43.75920","Longitude":"-75.29980","Snowdepth":"15.000","Units":"in","Rept_Date":"2020-02-18 11"},"coordinates":[5680,2770]},{"type":"Point","properties":{"Station_ID":"FEDM5","Station_Nam":"LEECH LAKE DAM","Latitude":"47.24670","Longitude":"-94.22280","Snowdepth":"15.000","Units":"in","Rept_Date":"2020-02-18 14"},"coordinates":[781,5934]},{"type":"Point","properties":{"Station_ID":"ENFV1","Station_Nam":"ENOSBURG FALLS 2","Latitude":"44.90960","Longitude":"-72.81370","Snowdepth":"15.000","Units":"in","Rept_Date":"2020-02-18 10"},"coordinates":[6324,3813]},{"type":"Point","properties":{"Station_ID":"BRLN3","Station_Nam":"BERLIN","Latitude":"44.45350","Longitude":"-71.18540","Snowdepth":"15.000","Units":"in","Rept_Date":"2020-02-18 12"},"coordinates":[6745,3400]},{"type":"Point","properties":{"Station_ID":"BGGW3","Station_Nam":"GREEN BAY,WI","Latitude":"44.53170","Longitude":"-88.09720","Snowdepth":"15.000","Units":"in","Rept_Date":"2020-02-18 14"},"coordinates":[2367,3471]},{"type":"Point","properties":{"Station_ID":"BEAW3","Station_Nam":"BEAVER DAM,WI","Latitude":"43.45000","Longitude":"-88.85000","Snowdepth":"15.000","Units":"in","Rept_Date":"2020-02-18 13"},"coordinates":[2172,2489]},{"type":"Point","properties":{"Station_ID":"AMHW3","Station_Nam":"AMHERST-3 SE","Latitude":"44.41280","Longitude":"-89.26390","Snowdepth":"15.000","Units":"in","Rept_Date":"2020-02-18 13"},"coordinates":[2065,3363]},{"type":"Point","properties":{"Station_ID":"ADFN6","Station_Nam":"WEST ALMOND 2NNE SNOW","Latitude":"42.33330","Longitude":"-77.86670","Snowdepth":"15.000","Units":"in","Rept_Date":"2020-02-18 16"},"coordinates":[5016,1476]},{"type":"Point","properties":{"Station_ID":"ADEN6","Station_Nam":"WEST ALMOND 1E SNOW","Latitude":"42.30000","Longitude":"-77.86670","Snowdepth":"15.000","Units":"in","Rept_Date":"2020-02-18 16"},"coordinates":[5016,1446]},{"type":"Point","properties":{"Station_ID":"ADCN6","Station_Nam":"ALFRED 1NW SNOW","Latitude":"42.26670","Longitude":"-77.80000","Snowdepth":"15.000","Units":"in","Rept_Date":"2020-02-18 16"},"coordinates":[5033,1415]},{"type":"Point","properties":{"Station_ID":"WI-GN-5","Station_Nam":"MONTICELLO 2.2 SE, WI","Latitude":"42.71990","Longitude":"-89.56360","Snowdepth":"14.500","Units":"in","Rept_Date":"2020-02-18 13"},"coordinates":[1987,1827]},{"type":"Point","properties":{"Station_ID":"NY-SR-22","Station_Nam":"GREENFIELD CENTER 1.6 W, NY","Latitude":"43.12684","Longitude":"-73.87860","Snowdepth":"14.500","Units":"in","Rept_Date":"2020-02-18 12"},"coordinates":[6048,2196]},{"type":"Point","properties":{"Station_ID":"ND-CS-25","Station_Nam":"FARGO 2.1 N, ND","Latitude":"46.90816","Longitude":"-96.77937","Snowdepth":"14.500","Units":"in","Rept_Date":"2020-02-18 14"},"coordinates":[119,5627]},{"type":"Point","properties":{"Station_ID":"MN-AT-5","Station_Nam":"TAMARACK 1.4 SW, MN","Latitude":"46.63760","Longitude":"-93.14554","Snowdepth":"14.500","Units":"in","Rept_Date":"2020-02-18 13"},"coordinates":[1060,5381]},{"type":"Point","properties":{"Station_ID":"CAN-QC-16","Station_Nam":"SAINT-ARMAND 3.6 W, CAN","Latitude":"45.02631","Longitude":"-73.08795","Snowdepth":"14.200","Units":"in","Rept_Date":"2020-02-18 12"},"coordinates":[6253,3919]},{"type":"Point","properties":{"Station_ID":"WYON6","Station_Nam":"WYOMING 3W","Latitude":"42.82060","Longitude":"-78.14810","Snowdepth":"14.000","Units":"in","Rept_Date":"2020-02-18 12"},"coordinates":[4943,1918]},{"type":"Point","properties":{"Station_ID":"WTBW3","Station_Nam":"WEST BEND PUBLIC WORKS","Latitude":"43.41110","Longitude":"-88.19380","Snowdepth":"14.000","Units":"in","Rept_Date":"2020-02-18 14"},"coordinates":[2342,2454]},{"type":"Point","properties":{"Station_ID":"WRSN6","Station_Nam":"WARSAW 6SW","Latitude":"42.68550","Longitude":"-78.22020","Snowdepth":"14.000","Units":"in","Rept_Date":"2020-02-18 12"},"coordinates":[4924,1795]},{"type":"Point","properties":{"Station_ID":"WLDM5","Station_Nam":"WILD RIVER STATE PARK","Latitude":"45.52310","Longitude":"-92.74890","Snowdepth":"14.000","Units":"in","Rept_Date":"2020-02-18 14"},"coordinates":[1162,4370]},{"type":"Point","properties":{"Station_ID":"WI-WN-19","Station_Nam":"OSHKOSH 1.6 ESE, WI","Latitude":"44.01097","Longitude":"-88.52354","Snowdepth":"14.000","Units":"in","Rept_Date":"2020-02-18 13"},"coordinates":[2256,2998]},{"type":"Point","properties":{"Station_ID":"WI-SC-21","Station_Nam":"CLEAR LAKE 4.0 S, WI","Latitude":"45.19250","Longitude":"-92.27860","Snowdepth":"14.000","Units":"in","Rept_Date":"2020-02-18 13"},"coordinates":[1284,4070]},{"type":"Point","properties":{"Station_ID":"VT-LM-7","Station_Nam":"HYDE PARK 2.9 NE, VT","Latitude":"44.62080","Longitude":"-72.57250","Snowdepth":"14.000","Units":"in","Rept_Date":"2020-02-18 13"},"coordinates":[6386,3551]},{"type":"Point","properties":{"Station_ID":"VT-CH-11","Station_Nam":"UNDERHILL 5.1 NNE, VT","Latitude":"44.59811","Longitude":"-72.91880","Snowdepth":"14.000","Units":"in","Rept_Date":"2020-02-18 13"},"coordinates":[6297,3531]},{"type":"Point","properties":{"Station_ID":"SLNV1","Station_Nam":"SOUTH LINCOLN","Latitude":"44.07460","Longitude":"-72.97180","Snowdepth":"14.000","Units":"in","Rept_Date":"2020-02-18 12"},"coordinates":[6283,3056]},{"type":"Point","properties":{"Station_ID":"PERV1","Station_Nam":"PERU","Latitude":"43.26670","Longitude":"-72.90000","Snowdepth":"14.000","Units":"in","Rept_Date":"2020-02-18 12"},"coordinates":[6301,2323]},{"type":"Point","properties":{"Station_ID":"OSNW3","Station_Nam":"OSHKOSH-NORTH","Latitude":"44.03500","Longitude":"-88.54390","Snowdepth":"14.000","Units":"in","Rept_Date":"2020-02-18 13"},"coordinates":[2251,3020]},{"type":"Point","properties":{"Station_ID":"ONAM4","Station_Nam":"ONAWAY 4N","Latitude":"45.41080","Longitude":"-84.22330","Snowdepth":"14.000","Units":"in","Rept_Date":"2020-02-18 23"},"coordinates":[3370,4268]},{"type":"Point","properties":{"Station_ID":"NY-WY-10","Station_Nam":"WYOMING COOP, NY","Latitude":"42.82060","Longitude":"-78.14810","Snowdepth":"14.000","Units":"in","Rept_Date":"2020-02-18 12"},"coordinates":[4943,1918]},{"type":"Point","properties":{"Station_ID":"NY-ER-65","Station_Nam":"BOSTON 1.5 NE, NY","Latitude":"42.65470","Longitude":"-78.72010","Snowdepth":"14.000","Units":"in","Rept_Date":"2020-02-18 12"},"coordinates":[4795,1767]},{"type":"Point","properties":{"Station_ID":"NVLN6","Station_Nam":"NORTHVILLE","Latitude":"43.23330","Longitude":"-74.16670","Snowdepth":"14.000","Units":"in","Rept_Date":"2020-02-18 13"},"coordinates":[5973,2292]},{"type":"Point","properties":{"Station_ID":"NHPI4","Station_Nam":"NEW HAMPTON","Latitude":"43.05750","Longitude":"-92.31220","Snowdepth":"14.000","Units":"in","Rept_Date":"2020-02-18 14"},"coordinates":[1275,2133]},{"type":"Point","properties":{"Station_ID":"NGLW3","Station_Nam":"NEW GLARUS","Latitude":"42.83500","Longitude":"-89.62080","Snowdepth":"14.000","Units":"in","Rept_Date":"2020-02-18 13"},"coordinates":[1972,1931]},{"type":"Point","properties":{"Station_ID":"MYOM4","Station_Nam":"MIO WWTP","Latitude":"44.64660","Longitude":"-84.11580","Snowdepth":"14.000","Units":"in","Rept_Date":"2020-02-18 13"},"coordinates":[3398,3575]},{"type":"Point","properties":{"Station_ID":"MSCM5","Station_Nam":"MINNESOTA CITY","Latitude":"44.16000","Longitude":"-91.81220","Snowdepth":"14.000","Units":"in","Rept_Date":"2020-02-18 14"},"coordinates":[1405,3133]},{"type":"Point","properties":{"Station_ID":"MNLGGILP","Station_Nam":"LONG PRAIRIE 1.1 WSW","Latitude":"45.96913","Longitude":"-94.88686","Snowdepth":"14.000","Units":"in","Rept_Date":"2020-02-18 12"},"coordinates":[609,4775]},{"type":"Point","properties":{"Station_ID":"MN0HS8BP","Station_Nam":"GLOSTER 1.0 NW","Latitude":"45.01321","Longitude":"-93.05527","Snowdepth":"14.000","Units":"in","Rept_Date":"2020-02-18 13"},"coordinates":[1083,3907]},{"type":"Point","properties":{"Station_ID":"MN-SH-985","Station_Nam":"PRINCETON 3.3 WSW, MN","Latitude":"45.55211","Longitude":"-93.64481","Snowdepth":"14.000","Units":"in","Rept_Date":"2020-02-18 11"},"coordinates":[930,4396]},{"type":"Point","properties":{"Station_ID":"MN-FM-10","Station_Nam":"WYKOFF 3.1 NW, MN","Latitude":"43.74340","Longitude":"-92.30650","Snowdepth":"14.000","Units":"in","Rept_Date":"2020-02-18 13"},"coordinates":[1277,2755]},{"type":"Point","properties":{"Station_ID":"MN-AA-76","Station_Nam":"NOWTHEN 2.9 SSE, MN","Latitude":"45.30360","Longitude":"-93.42620","Snowdepth":"14.000","Units":"in","Rept_Date":"2020-02-18 13"},"coordinates":[987,4171]},