{"type":"Topology","objects":{"snowdepth_geo":{"type":"GeometryCollection","name":"snowdepth","crs":{"type":"name","properties":{"name":"urn:ogc:def:crs:OGC:1.3:CRS84"}},"geometries":[{"type":"Point","properties":{"Station_ID":"PRKM4","Station_Nam":"MUNISING EAST","Latitude":"46.42580","Longitude":"-86.62000","Snowdepth":"76.500","Units":"in","Rept_Date":"2020-01-26 06"},"coordinates":[2492,6783]},{"type":"Point","properties":{"Station_ID":"OGIQ6","Station_Nam":"OGOKI CAMP","Latitude":"50.76680","Longitude":"-87.85820","Snowdepth":"61.100","Units":"in","Rept_Date":"2020-01-26 06"},"coordinates":[2202,9417]},{"type":"Point","properties":{"Station_ID":"MI-HG-18","Station_Nam":"CALUMET 0.7 W (TAMARACK), MI","Latitude":"47.24560","Longitude":"-88.46791","Snowdepth":"52.000","Units":"in","Rept_Date":"2020-01-25 13"},"coordinates":[2058,7280]},{"type":"Point","properties":{"Station_ID":"CLUM4","Station_Nam":"CALUMET-TAMARACK","Latitude":"47.24550","Longitude":"-88.46790","Snowdepth":"52.000","Units":"in","Rept_Date":"2020-01-25 14"},"coordinates":[2058,7280]},{"type":"Point","properties":{"Station_ID":"PDLM4","Station_Nam":"PAINESDALE","Latitude":"47.04160","Longitude":"-88.67170","Snowdepth":"51.000","Units":"in","Rept_Date":"2020-01-25 13"},"coordinates":[2011,7157]},{"type":"Point","properties":{"Station_ID":"KSGM4","Station_Nam":"KEARSARGE","Latitude":"47.27520","Longitude":"-88.41700","Snowdepth":"46.000","Units":"in","Rept_Date":"2020-01-25 13"},"coordinates":[2070,7298]},{"type":"Point","properties":{"Station_ID":"GMSM4","Station_Nam":"GRAND MARAIS 10S","Latitude":"46.50940","Longitude":"-85.96310","Snowdepth":"45.000","Units":"in","Rept_Date":"2020-01-25 12"},"coordinates":[2646,6834]},{"type":"Point","properties":{"Station_ID":"DVLQ6","Station_Nam":"DEVIOUS LAKE","Latitude":"49.19890","Longitude":"-87.76440","Snowdepth":"43.460","Units":"in","Rept_Date":"2020-01-26 06"},"coordinates":[2224,8465]},{"type":"Point","properties":{"Station_ID":"MI-HG-17","Station_Nam":"CALUMET 0.5 NE (CALUMET LAKE), MI","Latitude":"47.25300","Longitude":"-88.44652","Snowdepth":"41.000","Units":"in","Rept_Date":"2020-01-25 13"},"coordinates":[2063,7285]},{"type":"Point","properties":{"Station_ID":"MI-HG-11","Station_Nam":"HOUGHTON 3.0 SSW, MI","Latitude":"47.07704","Longitude":"-88.59680","Snowdepth":"40.000","Units":"in","Rept_Date":"2020-01-25 13"},"coordinates":[2028,7178]},{"type":"Point","properties":{"Station_ID":"HTLN3","Station_Nam":"HERMIT LAKE SNOWPLOT","Latitude":"44.26130","Longitude":"-71.28330","Snowdepth":"40.000","Units":"in","Rept_Date":"2020-01-25 10"},"coordinates":[6092,5470]},{"type":"Point","properties":{"Station_ID":"IBLM5","Station_Nam":"ISABELLA 14W","Latitude":"47.59360","Longitude":"-91.65140","Snowdepth":"39.000","Units":"in","Rept_Date":"2020-01-25 15"},"coordinates":[1311,7492]},{"type":"Point","properties":{"Station_ID":"MQT","Station_Nam":"MARQUETTE, MI","Latitude":"46.53140","Longitude":"-87.54920","Snowdepth":"38.000","Units":"in","Rept_Date":"2020-01-26 06"},"coordinates":[2274,6847]},{"type":"Point","properties":{"Station_ID":"QNCM4","Station_Nam":"QUINCY HILL","Latitude":"47.13640","Longitude":"-88.57950","Snowdepth":"36.000","Units":"in","Rept_Date":"2020-01-25 13"},"coordinates":[2032,7214]},{"type":"Point","properties":{"Station_ID":"MI-KW-2","Station_Nam":"DELAWARE 5.2 SW, MI","Latitude":"47.36928","Longitude":"-88.17919","Snowdepth":"36.000","Units":"in","Rept_Date":"2020-01-25 09"},"coordinates":[2126,7355]},{"type":"Point","properties":{"Station_ID":"MI-BG-3","Station_Nam":"L'ANSE 17.8 SE, MI","Latitude":"46.55730","Longitude":"-88.20770","Snowdepth":"36.000","Units":"in","Rept_Date":"2020-01-25 13"},"coordinates":[2119,6863]},{"type":"Point","properties":{"Station_ID":"LVDW3","Station_Nam":"LAC VIEUX DESERT","Latitude":"46.12110","Longitude":"-89.07580","Snowdepth":"36.000","Units":"in","Rept_Date":"2020-01-25 15"},"coordinates":[1916,6598]},{"type":"Point","properties":{"Station_ID":"WI-VL-10","Station_Nam":"LAND O LAKES 4.3 WNW, WI","Latitude":"46.17440","Longitude":"-89.30380","Snowdepth":"33.500","Units":"in","Rept_Date":"2020-01-25 13"},"coordinates":[1862,6631]},{"type":"Point","properties":{"Station_ID":"WRPW3","Station_Nam":"WATER PURIFICATION PLANT","Latitude":"44.38800","Longitude":"-89.80550","Snowdepth":"33.000","Units":"in","Rept_Date":"2020-01-25 12"},"coordinates":[1744,5547]},{"type":"Point","properties":{"Station_ID":"MNSM4","Station_Nam":"MUNISING","Latitude":"46.41210","Longitude":"-86.66250","Snowdepth":"33.000","Units":"in","Rept_Date":"2020-01-25 11"},"coordinates":[2482,6775]},{"type":"Point","properties":{"Station_ID":"QGO","Station_Nam":"QGO","Latitude":"48.85500","Longitude":"-74.20640","Snowdepth":"32.165","Units":"in","Rept_Date":"2020-01-25 12"},"coordinates":[5405,8257]},{"type":"Point","properties":{"Station_ID":"MI-HG-14","Station_Nam":"HOUGHTON 0.6 SE, MI","Latitude":"47.10847","Longitude":"-88.55235","Snowdepth":"32.000","Units":"in","Rept_Date":"2020-01-25 13"},"coordinates":[2039,7197]},{"type":"Point","properties":{"Station_ID":"ILIM5","Station_Nam":"ISLAND LAKE","Latitude":"47.02400","Longitude":"-92.07000","Snowdepth":"32.000","Units":"in","Rept_Date":"2020-01-25 15"},"coordinates":[1213,7146]},{"type":"Point","properties":{"Station_ID":"QOU","Station_Nam":"QOU","Latitude":"50.79250","Longitude":"-69.67470","Snowdepth":"31.653","Units":"in","Rept_Date":"2020-01-25 12"},"coordinates":[6469,9432]},{"type":"Point","properties":{"Station_ID":"WI-VL-9","Station_Nam":"LAND O' LAKES 11.7 W, WI","Latitude":"46.19023","Longitude":"-89.45790","Snowdepth":"31.000","Units":"in","Rept_Date":"2020-01-25 13"},"coordinates":[1826,6640]},{"type":"Point","properties":{"Station_ID":"STEM4","Station_Nam":"STEUBEN","Latitude":"46.18530","Longitude":"-86.46410","Snowdepth":"31.000","Units":"in","Rept_Date":"2020-01-25 14"},"coordinates":[2529,6637]},{"type":"Point","properties":{"Station_ID":"PDGM4","Station_Nam":"PAULDING","Latitude":"46.39760","Longitude":"-89.17940","Snowdepth":"31.000","Units":"in","Rept_Date":"2020-01-25 13"},"coordinates":[1891,6766]},{"type":"Point","properties":{"Station_ID":"LNOW3","Station_Nam":"LAND O LAKES","Latitude":"46.19000","Longitude":"-89.45700","Snowdepth":"31.000","Units":"in","Rept_Date":"2020-01-25 13"},"coordinates":[1826,6640]},{"type":"Point","properties":{"Station_ID":"AROM4","Station_Nam":"ARNOLD,MI","Latitude":"46.06670","Longitude":"-87.48330","Snowdepth":"31.000","Units":"in","Rept_Date":"2020-01-25 13"},"coordinates":[2290,6565]},{"type":"Point","properties":{"Station_ID":"WTRM4","Station_Nam":"WATERSMEET 12WSW","Latitude":"46.22310","Longitude":"-89.40850","Snowdepth":"30.000","Units":"in","Rept_Date":"2020-01-25 12"},"coordinates":[1838,6660]},{"type":"Point","properties":{"Station_ID":"WRSM5","Station_Nam":"WRENSHALL","Latitude":"46.61550","Longitude":"-92.38380","Snowdepth":"30.000","Units":"in","Rept_Date":"2020-01-25 14"},"coordinates":[1139,6898]},{"type":"Point","properties":{"Station_ID":"WLKM5","Station_Nam":"AH-GWAH-CHING","Latitude":"47.15000","Longitude":"-94.65000","Snowdepth":"30.000","Units":"in","Rept_Date":"2020-01-25 14"},"coordinates":[608,7222]},{"type":"Point","properties":{"Station_ID":"STGW3","Station_Nam":"ST GERMAIN","Latitude":"45.91550","Longitude":"-89.48940","Snowdepth":"30.000","Units":"in","Rept_Date":"2020-01-25 12"},"coordinates":[1819,6474]},{"type":"Point","properties":{"Station_ID":"WI-IR-2","Station_Nam":"MERCER 2.0 SE, WI","Latitude":"46.14749","Longitude":"-90.03097","Snowdepth":"29.600","Units":"in","Rept_Date":"2020-01-25 13"},"coordinates":[1692,6614]},{"type":"Point","properties":{"Station_ID":"CAN-NL-82","Station_Nam":"GANDER 2.7 NW, CAN","Latitude":"48.97737","Longitude":"-54.63396","Snowdepth":"29.500","Units":"in","Rept_Date":"2020-01-25 10"},"coordinates":[9999,8331]},{"type":"Point","properties":{"Station_ID":"MLZ","Station_Nam":"MLZ","Latitude":"50.66170","Longitude":"-68.82360","Snowdepth":"29.449","Units":"in","Rept_Date":"2020-01-25 12"},"coordinates":[6669,9353]},{"type":"Point","properties":{"Station_ID":"TOGM5","Station_Nam":"CELINA 2E","Latitude":"47.86630","Longitude":"-93.02660","Snowdepth":"29.000","Units":"in","Rept_Date":"2020-01-25 16"},"coordinates":[989,7657]},{"type":"Point","properties":{"Station_ID":"PRDM4","Station_Nam":"PARADISE","Latitude":"46.60380","Longitude":"-85.03960","Snowdepth":"29.000","Units":"in","Rept_Date":"2020-01-25 12"},"coordinates":[2863,6891]},{"type":"Point","properties":{"Station_ID":"MI-HG-6","Station_Nam":"CALUMET 5.8 ENE, MI","Latitude":"47.27200","Longitude":"-88.33400","Snowdepth":"29.000","Units":"in","Rept_Date":"2020-01-25 11"},"coordinates":[2090,7296]},{"type":"Point","properties":{"Station_ID":"HURW3","Station_Nam":"HURLEY","Latitude":"46.46250","Longitude":"-90.19550","Snowdepth":"29.000","Units":"in","Rept_Date":"2020-01-25 14"},"coordinates":[1653,6805]},{"type":"Point","properties":{"Station_ID":"GLDM4","Station_Nam":"GLADSTONE NO. 2","Latitude":"45.84330","Longitude":"-87.03910","Snowdepth":"29.000","Units":"in","Rept_Date":"2020-01-25 13"},"coordinates":[2394,6430]},{"type":"Point","properties":{"Station_ID":"EVRW3","Station_Nam":"EAGLE RIVER-4 E","Latitude":"45.91890","Longitude":"-89.15280","Snowdepth":"29.000","Units":"in","Rept_Date":"2020-01-25 13"},"coordinates":[1898,6476]},{"type":"Point","properties":{"Station_ID":"PTLQ6","Station_Nam":"PORTAGE LAKE","Latitude":"49.06950","Longitude":"-86.65940","Snowdepth":"28.780","Units":"in","Rept_Date":"2020-01-26 06"},"coordinates":[2483,8387]},{"type":"Point","properties":{"Station_ID":"QWE","Station_Nam":"QWE","Latitude":"47.84610","Longitude":"-73.80670","Snowdepth":"28.110","Units":"in","Rept_Date":"2020-01-25 12"},"coordinates":[5499,7645]},{"type":"Point","properties":{"Station_ID":"SUAW3","Station_Nam":"SUAMICO","Latitude":"44.60190","Longitude":"-88.09780","Snowdepth":"28.000","Units":"in","Rept_Date":"2020-01-25 12"},"coordinates":[2145,5677]},{"type":"Point","properties":{"Station_ID":"MTQM4","Station_Nam":"MANISTIQUE WWTP","Latitude":"45.95120","Longitude":"-86.25130","Snowdepth":"28.000","Units":"in","Rept_Date":"2020-01-25 12"},"coordinates":[2579,6495]},{"type":"Point","properties":{"Station_ID":"MN-SL-15","Station_Nam":"CHISHOLM 0.4 WSW, MN","Latitude":"47.48557","Longitude":"-92.88690","Snowdepth":"28.000","Units":"in","Rept_Date":"2020-01-25 13"},"coordinates":[1021,7426]},{"type":"Point","properties":{"Station_ID":"MN-CK-6","Station_Nam":"GRAND MARAIS 4.4 W, MN","Latitude":"47.74865","Longitude":"-90.43760","Snowdepth":"28.000","Units":"in","Rept_Date":"2020-01-25 13"},"coordinates":[1596,7586]},{"type":"Point","properties":{"Station_ID":"MI-HG-12","Station_Nam":"DOLLAR BAY 0.2 ENE, MI","Latitude":"47.12067","Longitude":"-88.49895","Snowdepth":"28.000","Units":"in","Rept_Date":"2020-01-25 13"},"coordinates":[2051,7205]},{"type":"Point","properties":{"Station_ID":"MAIW3","Station_Nam":"MADELINE ISLAND","Latitude":"46.78330","Longitude":"-90.76670","Snowdepth":"28.000","Units":"in","Rept_Date":"2020-01-25 14"},"coordinates":[1519,7000]},{"type":"Point","properties":{"Station_ID":"BBEM4","Station_Nam":"BIG BAY 9SW","Latitude":"46.74620","Longitude":"-87.88160","Snowdepth":"28.000","Units":"in","Rept_Date":"2020-01-25 13"},"coordinates":[2196,6977]},{"type":"Point","properties":{"Station_ID":"QCU","Station_Nam":"QCU","Latitude":"47.82750","Longitude":"-76.59830","Snowdepth":"27.835","Units":"in","Rept_Date":"2020-01-25 12"},"coordinates":[4844,7633]},{"type":"Point","properties":{"Station_ID":"QGD","Station_Nam":"QGD","Latitude":"51.11140","Longitude":"-67.13940","Snowdepth":"27.559","Units":"in","Rept_Date":"2020-01-25 12"},"coordinates":[7064,9626]},{"type":"Point","properties":{"Station_ID":"WI-VL-14","Station_Nam":"BOULDER JUNCTION 1.4 NE, WI","Latitude":"46.12840","Longitude":"-89.62470","Snowdepth":"27.500","Units":"in","Rept_Date":"2020-01-25 13"},"coordinates":[1787,6603]},{"type":"Point","properties":{"Station_ID":"MN-SL-18","Station_Nam":"DULUTH 1.4 NNW, MN","Latitude":"46.80321","Longitude":"-92.11240","Snowdepth":"27.500","Units":"in","Rept_Date":"2020-01-25 14"},"coordinates":[1203,7012]},{"type":"Point","properties":{"Station_ID":"WI-BY-14","Station_Nam":"ASHLAND 9.8 W, WI","Latitude":"46.59742","Longitude":"-91.07856","Snowdepth":"27.000","Units":"in","Rept_Date":"2020-01-25 12"},"coordinates":[1446,6887]},{"type":"Point","properties":{"Station_ID":"RHIW3","Station_Nam":"RHINELANDER","Latitude":"45.59860","Longitude":"-89.45080","Snowdepth":"27.000","Units":"in","Rept_Date":"2020-01-25 13"},"coordinates":[1828,6281]},{"type":"Point","properties":{"Station_ID":"NOHM5","Station_Nam":"NORTHOME","Latitude":"47.83590","Longitude":"-94.25550","Snowdepth":"27.000","Units":"in","Rept_Date":"2020-01-25 13"},"coordinates":[700,7639]},{"type":"Point","properties":{"Station_ID":"DLHM5","Station_Nam":"DULUTH NWS","Latitude":"46.83680","Longitude":"-92.21080","Snowdepth":"27.000","Units":"in","Rept_Date":"2020-01-26 06"},"coordinates":[1180,7032]},{"type":"Point","properties":{"Station_ID":"DLH","Station_Nam":"DULUTH, MN","Latitude":"46.83690","Longitude":"-92.21030","Snowdepth":"27.000","Units":"in","Rept_Date":"2020-01-26 00"},"coordinates":[1180,7033]},{"type":"Point","properties":{"Station_ID":"BGBM4","Station_Nam":"BIG BAY 1NW","Latitude":"46.83250","Longitude":"-87.75040","Snowdepth":"27.000","Units":"in","Rept_Date":"2020-01-25 13"},"coordinates":[2227,7030]},{"type":"Point","properties":{"Station_ID":"MN-IT-23","Station_Nam":"BOVEY 13.4 N, MN","Latitude":"47.48855","Longitude":"-93.43497","Snowdepth":"26.500","Units":"in","Rept_Date":"2020-01-25 13"},"coordinates":[893,7428]},{"type":"Point","properties":{"Station_ID":"WI-WB-2","Station_Nam":"STONE LAKE 2.0 NW, WI","Latitude":"45.85960","Longitude":"-91.57710","Snowdepth":"26.000","Units":"in","Rept_Date":"2020-01-25 13"},"coordinates":[1329,6440]},{"type":"Point","properties":{"Station_ID":"WI-ON-8","Station_Nam":"HAZELHURST 2.1 SSE, WI","Latitude":"45.78186","Longitude":"-89.70330","Snowdepth":"26.000","Units":"in","Rept_Date":"2020-01-25 13"},"coordinates":[1768,6392]},{"type":"Point","properties":{"Station_ID":"KABM5","Station_Nam":"KABETOGAMA LAKE VISITOR CTR","Latitude":"48.40880","Longitude":"-93.04840","Snowdepth":"26.000","Units":"in","Rept_Date":"2020-01-25 12"},"coordinates":[983,7986]},{"type":"Point","properties":{"Station_ID":"BNDM5","Station_Nam":"ELY 25E","Latitude":"47.97190","Longitude":"-91.44860","Snowdepth":"26.000","Units":"in","Rept_Date":"2020-01-25 13"},"coordinates":[1359,7721]},{"type":"Point","properties":{"Station_ID":"AGNW3","Station_Nam":"ARGONNE-1.5 NW","Latitude":"45.67360","Longitude":"-88.90380","Snowdepth":"26.000","Units":"in","Rept_Date":"2020-01-25 14"},"coordinates":[1956,6327]},{"type":"Point","properties":{"Station_ID":"QLB","Station_Nam":"QLB","Latitude":"50.72360","Longitude":"-75.10000","Snowdepth":"25.709","Units":"in","Rept_Date":"2020-01-25 12"},"coordinates":[5196,9390]},{"type":"Point","properties":{"Station_ID":"MN-CK-18","Station_Nam":"GRAND MARAIS 4.4 WSW, MN","Latitude":"47.74462","Longitude":"-90.43796","Snowdepth":"25.500","Units":"in","Rept_Date":"2020-01-25 13"},"coordinates":[1596,7583]},{"type":"Point","properties":{"Station_ID":"MI-HG-1","Station_Nam":"HOUGHTON 1.6 ESE, MI","Latitude":"47.10774","Longitude":"-88.52940","Snowdepth":"25.500","Units":"in","Rept_Date":"2020-01-25 14"},"coordinates":[2044,7197]},{"type":"Point","properties":{"Station_ID":"TOHM5","Station_Nam":"TWO HARBORS WWTP","Latitude":"47.01760","Longitude":"-91.66480","Snowdepth":"25.000","Units":"in","Rept_Date":"2020-01-25 13"},"coordinates":[1308,7142]},{"type":"Point","properties":{"Station_ID":"MN-IT-1","Station_Nam":"GRAND RAPIDS 2.0 E, MN","Latitude":"47.22266","Longitude":"-93.49600","Snowdepth":"25.000","Units":"in","Rept_Date":"2020-01-25 13"},"coordinates":[878,7267]},{"type":"Point","properties":{"Station_ID":"IRMM4","Station_Nam":"WWTP","Latitude":"46.46670","Longitude":"-90.18330","Snowdepth":"25.000","Units":"in","Rept_Date":"2020-01-25 13"},"coordinates":[1656,6808]},{"type":"Point","properties":{"Station_ID":"GGRM4","Station_Nam":"GREEN GARDEN NO.2","Latitude":"46.45330","Longitude":"-87.30380","Snowdepth":"25.000","Units":"in","Rept_Date":"2020-01-25 13"},"coordinates":[2332,6800]},{"type":"Point","properties":{"Station_ID":"COVM4","Station_Nam":"COVINGTON","Latitude":"46.55880","Longitude":"-88.54190","Snowdepth":"25.000","Units":"in","Rept_Date":"2020-01-25 13"},"coordinates":[2041,6864]},{"type":"Point","properties":{"Station_ID":"WI-DG-20","Station_Nam":"SOLON SPRINGS 1.2 W, WI","Latitude":"46.35217","Longitude":"-91.84405","Snowdepth":"24.000","Units":"in","Rept_Date":"2020-01-25 13"},"coordinates":[1266,6738]},{"type":"Point","properties":{"Station_ID":"SULW3","Station_Nam":"SUMMIT LAKE","Latitude":"45.37880","Longitude":"-89.19410","Snowdepth":"24.000","Units":"in","Rept_Date":"2020-01-25 11"},"coordinates":[1888,6148]},{"type":"Point","properties":{"Station_ID":"STMM4","Station_Nam":"STAMBAUGH 2SSE","Latitude":"46.05550","Longitude":"-88.62780","Snowdepth":"24.000","Units":"in","Rept_Date":"2020-01-25 13"},"coordinates":[2021,6558]},{"type":"Point","properties":{"Station_ID":"RHLW3","Station_Nam":"RHINELANDER 4NE","Latitude":"45.65270","Longitude":"-89.30740","Snowdepth":"24.000","Units":"in","Rept_Date":"2020-01-25 12"},"coordinates":[1861,6314]},{"type":"Point","properties":{"Station_ID":"MCLN8","Station_Nam":"MC LEOD,ND","Latitude":"46.40250","Longitude":"-97.23810","Snowdepth":"24.000","Units":"in","Rept_Date":"2020-01-25 14"},"coordinates":[0,6769]},{"type":"Point","properties":{"Station_ID":"IMNM4","Station_Nam":"IRON MOUTAIN 5N","Latitude":"45.87580","Longitude":"-88.04030","Snowdepth":"24.000","Units":"in","Rept_Date":"2020-01-26 01"},"coordinates":[2159,6449]},{"type":"Point","properties":{"Station_ID":"COKM5","Station_Nam":"COOK","Latitude":"47.85060","Longitude":"-92.69250","Snowdepth":"24.000","Units":"in","Rept_Date":"2020-01-25 12"},"coordinates":[1067,7647]},{"type":"Point","properties":{"Station_ID":"SVBQ6","Station_Nam":"SAVANT BASE","Latitude":"50.28730","Longitude":"-90.65670","Snowdepth":"23.860","Units":"in","Rept_Date":"2020-01-26 06"},"coordinates":[1545,9126]},{"type":"Point","properties":{"Station_ID":"ME-AR-18","Station_Nam":"NEW SWEDEN 4.9 NNW, ME","Latitude":"47.01080","Longitude":"-68.14390","Snowdepth":"23.500","Units":"in","Rept_Date":"2020-01-25 12"},"coordinates":[6828,7138]},{"type":"Point","properties":{"Station_ID":"QFT","Station_Nam":"QFT","Latitude":"50.83280","Longitude":"-74.40390","Snowdepth":"23.425","Units":"in","Rept_Date":"2020-01-25 12"},"coordinates":[5359,9457]},{"type":"Point","properties":{"Station_ID":"KABQ6","Station_Nam":"CAB LAKE","Latitude":"49.59950","Longitude":"-89.17990","Snowdepth":"23.270","Units":"in","Rept_Date":"2020-01-26 06"},"coordinates":[1891,8708]},{"type":"Point","properties":{"Station_ID":"WLKW3","Station_Nam":"WHITE LAKE 1 SE","Latitude":"45.14520","Longitude":"-88.74160","Snowdepth":"23.000","Units":"in","Rept_Date":"2020-01-25 14"},"coordinates":[1994,6006]},{"type":"Point","properties":{"Station_ID":"WI-BY-2","Station_Nam":"MELLEN 18.6 SW, WI","Latitude":"46.16937","Longitude":"-90.98090","Snowdepth":"23.000","Units":"in","Rept_Date":"2020-01-25 13"},"coordinates":[1469,6628]},{"type":"Point","properties":{"Station_ID":"RPDM4","Station_Nam":"RAPID RIVER 4SSE","Latitude":"45.87270","Longitude":"-86.94960","Snowdepth":"23.000","Units":"in","Rept_Date":"2020-01-25 14"},"coordinates":[2415,6448]},{"type":"Point","properties":{"Station_ID":"MN-IT-17","Station_Nam":"GRAND RAPIDS 6.1 N, MN","Latitude":"47.31165","Longitude":"-93.55036","Snowdepth":"23.000","Units":"in","Rept_Date":"2020-01-25 13"},"coordinates":[866,7321]},{"type":"Point","properties":{"Station_ID":"MN-BK-6","Station_Nam":"LAKE PARK 6.0 S, MN","Latitude":"46.79850","Longitude":"-96.12180","Snowdepth":"23.000","Units":"in","Rept_Date":"2020-01-25 13"},"coordinates":[262,7009]},{"type":"Point","properties":{"Station_ID":"EMBM5","Station_Nam":"EMBARASS,MN","Latitude":"47.65810","Longitude":"-92.19580","Snowdepth":"23.000","Units":"in","Rept_Date":"2020-01-25 14"},"coordinates":[1184,7531]},{"type":"Point","properties":{"Station_ID":"ELYM5","Station_Nam":"ELY","Latitude":"47.90560","Longitude":"-91.82830","Snowdepth":"23.000","Units":"in","Rept_Date":"2020-01-25 14"},"coordinates":[1270,7681]},{"type":"Point","properties":{"Station_ID":"CMKW3","Station_Nam":"CLAM LAKE 4W","Latitude":"46.16940","Longitude":"-90.98080","Snowdepth":"23.000","Units":"in","Rept_Date":"2020-01-25 13"},"coordinates":[1469,6628]},{"type":"Point","properties":{"Station_ID":"CAN-NS-39","Station_Nam":"ST. ANNS 2.8 NW, CA","Latitude":"46.25082","Longitude":"-60.64340","Snowdepth":"23.000","Units":"in","Rept_Date":"2020-01-25 12"},"coordinates":[8589,6677]},{"type":"Point","properties":{"Station_ID":"AVTW3","Station_Nam":"ARBOR VITAE-JOHNSON LAKE","Latitude":"45.89940","Longitude":"-89.72670","Snowdepth":"23.000","Units":"in","Rept_Date":"2020-01-25 12"},"coordinates":[1763,6464]},{"type":"Point","properties":{"Station_ID":"QTV","Station_Nam":"QTV","Latitude":"49.66000","Longitude":"-69.35690","Snowdepth":"22.520","Units":"in","Rept_Date":"2020-01-25 12"},"coordinates":[6544,8745]},{"type":"Point","properties":{"Station_ID":"MN-SL-108","Station_Nam":"IRON JUNCTION 3.4 NNW, MN","Latitude":"47.46150","Longitude":"-92.63130","Snowdepth":"22.500","Units":"in","Rept_Date":"2020-01-25 13"},"coordinates":[1081,7411]},{"type":"Point","properties":{"Station_ID":"QYR","Station_Nam":"QYR","Latitude":"48.87220","Longitude":"-75.61470","Snowdepth":"22.008","Units":"in","Rept_Date":"2020-01-25 12"},"coordinates":[5075,8267]},{"type":"Point","properties":{"Station_ID":"MIEM4","Station_Nam":"MICHIGAMME 3WNW","Latitude":"46.54530","Longitude":"-88.18000","Snowdepth":"22.000","Units":"in","Rept_Date":"2020-01-25 13"},"coordinates":[2126,6856]},{"type":"Point","properties":{"Station_ID":"MI-HG-13","Station_Nam":"HOUGHTON 1.2 WNW, MI","Latitude":"47.12035","Longitude":"-88.58525","Snowdepth":"22.000","Units":"in","Rept_Date":"2020-01-25 13"},"coordinates":[2031,7204]},{"type":"Point","properties":{"Station_ID":"MI-DL-1","Station_Nam":"GARDEN CORNERS 0.8 NW, MI","Latitude":"45.89815","Longitude":"-86.54850","Snowdepth":"22.000","Units":"in","Rept_Date":"2020-01-25 13"},"coordinates":[2509,6463]},{"type":"Point","properties":{"Station_ID":"LEIM5","Station_Nam":"ORR 3E","Latitude":"48.05810","Longitude":"-92.75220","Snowdepth":"22.000","Units":"in","Rept_Date":"2020-01-25 12"},"coordinates":[1053,7773]},{"type":"Point","properties":{"Station_ID":"INL","Station_Nam":"FALLS INTERNATIONAL ARPT","Latitude":"48.56640","Longitude":"-93.40310","Snowdepth":"22.000","Units":"in","Rept_Date":"2020-01-26 00"},"coordinates":[900,8082]},{"type":"Point","properties":{"Station_ID":"IFSM5","Station_Nam":"INTERNATIONAL FALLS SNOW","Latitude":"48.57780","Longitude":"-93.39640","Snowdepth":"22.000","Units":"in","Rept_Date":"2020-01-25 12"},"coordinates":[902,8089]},{"type":"Point","properties":{"Station_ID":"GNFM5","Station_Nam":"GUNFLINT LAKE","Latitude":"48.16670","Longitude":"-90.88750","Snowdepth":"22.000","Units":"in","Rept_Date":"2020-01-25 13"},"coordinates":[1491,7839]},{"type":"Point","properties":{"Station_ID":"GDCM4","Station_Nam":"GARDEN CORNERS","Latitude":"45.89830","Longitude":"-86.54850","Snowdepth":"22.000","Units":"in","Rept_Date":"2020-01-25 13"},"coordinates":[2509,6463]},{"type":"Point","properties":{"Station_ID":"CNNW3","Station_Nam":"CRANDON","Latitude":"45.55110","Longitude":"-88.89830","Snowdepth":"22.000","Units":"in","Rept_Date":"2020-01-25 12"},"coordinates":[1957,6252]},{"type":"Point","properties":{"Station_ID":"CLKM4","Station_Nam":"CLARKSBURG","Latitude":"46.49910","Longitude":"-87.84500","Snowdepth":"22.000","Units":"in","Rept_Date":"2020-01-25 12"},"coordinates":[2205,6828]},{"type":"Point","properties":{"Station_ID":"AWXW3","Station_Nam":"ASHLAND","Latitude":"46.58240","Longitude":"-90.88390","Snowdepth":"22.000","Units":"in","Rept_Date":"2020-01-25 13"},"coordinates":[1491,6878]},{"type":"Point","properties":{"Station_ID":"AUDQ6","Station_Nam":"AUDEN","Latitude":"48.52600","Longitude":"-82.57570","Snowdepth":"21.930","Units":"in","Rept_Date":"2020-01-26 06"},"coordinates":[3441,8057]},{"type":"Point","properties":{"Station_ID":"QCX","Station_Nam":"QCX","Latitude":"51.32830","Longitude":"-70.08060","Snowdepth":"21.535","Units":"in","Rept_Date":"2020-01-25 12"},"coordinates":[6374,9757]},{"type":"Point","properties":{"Station_ID":"WI-BY-1","Station_Nam":"BAYFIELD 8.8 N, WI","Latitude":"46.93855","Longitude":"-90.83490","Snowdepth":"21.500","Units":"in","Rept_Date":"2020-01-25 13"},"coordinates":[1503,7094]},{"type":"Point","properties":{"Station_ID":"QMA","Station_Nam":"QMA","Latitude":"50.10330","Longitude":"-70.47190","Snowdepth":"21.220","Units":"in","Rept_Date":"2020-01-25 12"},"coordinates":[6282,9014]},{"type":"Point","properties":{"Station_ID":"TRIQ6","Station_Nam":"TRIO LAKE","Latitude":"49.22880","Longitude":"-87.22920","Snowdepth":"21.220","Units":"in","Rept_Date":"2020-01-26 06"},"coordinates":[2349,8484]},{"type":"Point","properties":{"Station_ID":"QMD","Station_Nam":"QMD","Latitude":"49.29060","Longitude":"-75.84500","Snowdepth":"21.181","Units":"in","Rept_Date":"2020-01-25 12"},"coordinates":[5021,8521]},{"type":"Point","properties":{"Station_ID":"QGA","Station_Nam":"QGA","Latitude":"47.25640","Longitude":"-73.73810","Snowdepth":"21.063","Units":"in","Rept_Date":"2020-01-25 12"},"coordinates":[5515,7287]},{"type":"Point","properties":{"Station_ID":"WTNM4","Station_Nam":"WATTON 2WSW","Latitude":"46.52660","Longitude":"-88.64240","Snowdepth":"21.000","Units":"in","Rept_Date":"2020-01-25 13"},"coordinates":[2017,6844]},{"type":"Point","properties":{"Station_ID":"WI-AS-4","Station_Nam":"ASHLAND 0.5 WNW, WI","Latitude":"46.58240","Longitude":"-90.88390","Snowdepth":"21.000","Units":"in","Rept_Date":"2020-01-25 13"},"coordinates":[1491,6878]},{"type":"Point","properties":{"Station_ID":"RLKW3","Station_Nam":"REST LAKE","Latitude":"46.12220","Longitude":"-89.87720","Snowdepth":"21.000","Units":"in","Rept_Date":"2020-01-25 14"},"coordinates":[1728,6599]},{"type":"Point","properties":{"Station_ID":"RHRW3","Station_Nam":"RHINELANDER WJFW TV-12","Latitude":"45.62220","Longitude":"-89.41000","Snowdepth":"21.000","Units":"in","Rept_Date":"2020-01-26 05"},"coordinates":[1837,6296]},{"type":"Point","properties":{"Station_ID":"RHI","Station_Nam":"RHINELANDER-ONEIDA COUNTY AIRPORT","Latitude":"45.63080","Longitude":"-89.46530","Snowdepth":"21.000","Units":"in","Rept_Date":"2020-01-26 00"},"coordinates":[1824,6301]},{"type":"Point","properties":{"Station_ID":"MN-CW-22","Station_Nam":"FORT RIPLEY 0.8 N, MN","Latitude":"46.18089","Longitude":"-94.36510","Snowdepth":"21.000","Units":"in","Rept_Date":"2020-01-25 13"},"coordinates":[674,6635]},{"type":"Point","properties":{"Station_ID":"ASTW3","Station_Nam":"ATHELSTANE","Latitude":"45.42500","Longitude":"-88.05750","Snowdepth":"21.000","Units":"in","Rept_Date":"2020-01-25 12"},"coordinates":[2155,6176]},{"type":"Point","properties":{"Station_ID":"WI-PR-8","Station_Nam":"PHILLIPS 0.4 SSW, WI","Latitude":"45.69086","Longitude":"-90.40200","Snowdepth":"20.500","Units":"in","Rept_Date":"2020-01-25 13"},"coordinates":[1605,6337]},{"type":"Point","properties":{"Station_ID":"ZNOM4","Station_Nam":"NORWAY","Latitude":"45.77810","Longitude":"-87.89560","Snowdepth":"20.000","Units":"in","Rept_Date":"2020-01-26 01"},"coordinates":[2193,6390]},{"type":"Point","properties":{"Station_ID":"WI-PR-2","Station_Nam":"BUTTERNUT 5.9 SW, WI","Latitude":"45.96501","Longitude":"-90.59750","Snowdepth":"20.000","Units":"in","Rept_Date":"2020-01-25 12"},"coordinates":[1559,6504]},{"type":"Point","properties":{"Station_ID":"WI-OC-8","Station_Nam":"MOUNTAIN 0.9 E, WI","Latitude":"45.18400","Longitude":"-88.45639","Snowdepth":"20.000","Units":"in","Rept_Date":"2020-01-25 13"},"coordinates":[2061,6030]},{"type":"Point","properties":{"Station_ID":"SBNM5","Station_Nam":"SABIN","Latitude":"46.77690","Longitude":"-96.65610","Snowdepth":"20.000","Units":"in","Rept_Date":"2020-01-25 15"},"coordinates":[137,6996]},{"type":"Point","properties":{"Station_ID":"RRVM4","Station_Nam":"RAPID RIVER 9S","Latitude":"45.78750","Longitude":"-86.93920","Snowdepth":"20.000","Units":"in","Rept_Date":"2020-01-25 13"},"coordinates":[2417,6396]},{"type":"Point","properties":{"Station_ID":"OTTM5","Station_Nam":"OTTERTAIL,MN","Latitude":"46.41670","Longitude":"-95.56670","Snowdepth":"20.000","Units":"in","Rept_Date":"2020-01-25 13"},"coordinates":[392,6778]},{"type":"Point","properties":{"Station_ID":"MQRW3","Station_Nam":"MINOCQUA","Latitude":"45.88630","Longitude":"-89.73220","Snowdepth":"20.000","Units":"in","Rept_Date":"2020-01-25 12"},"coordinates":[1762,6456]},{"type":"Point","properties":{"Station_ID":"CAN-NL-65","Station_Nam":"KIPPENS 0.7 NE, CA","Latitude":"48.55436","Longitude":"-58.61850","Snowdepth":"20.000","Units":"in","Rept_Date":"2020-01-25 12"},"coordinates":[9064,8074]},{"type":"Point","properties":{"Station_ID":"CAN-NB-18","Station_Nam":"MCLEOD HILL 1.1 ENE, CA","Latitude":"46.02725","Longitude":"-66.67460","Snowdepth":"20.000","Units":"in","Rept_Date":"2020-01-25 12"},"coordinates":[7173,6541]},{"type":"Point","properties":{"Station_ID":"BRAM5","Station_Nam":"BRAINERD","Latitude":"46.34320","Longitude":"-94.20900","Snowdepth":"20.000","Units":"in","Rept_Date":"2020-01-25 13"},"coordinates":[711,6733]},{"type":"Point","properties":{"Station_ID":"WI-SR-1","Station_Nam":"HAYWARD 9.2 NNE, WI","Latitude":"46.13255","Longitude":"-91.40500","Snowdepth":"19.800","Units":"in","Rept_Date":"2020-01-25 12"},"coordinates":[1369,6605]},{"type":"Point","properties":{"Station_ID":"QTM","Station_Nam":"QTM","Latitude":"51.05780","Longitude":"-72.57190","Snowdepth":"19.606","Units":"in","Rept_Date":"2020-01-25 12"},"coordinates":[5789,9593]},{"type":"Point","properties":{"Station_ID":"SOCQ6","Station_Nam":"SOCKET LAKE","Latitude":"50.77870","Longitude":"-91.79300","Snowdepth":"19.530","Units":"in","Rept_Date":"2020-01-26 06"},"coordinates":[1278,9424]},{"type":"Point","properties":{"Station_ID":"MN-BM-15","Station_Nam":"BEMIDJI 7.8 ENE, MN","Latitude":"47.52043","Longitude":"-94.72121","Snowdepth":"19.500","Units":"in","Rept_Date":"2020-01-25 13"},"coordinates":[591,7447]},{"type":"Point","properties":{"Station_ID":"WI-PR-6","Station_Nam":"PHILLIPS 1.3 S, WI","Latitude":"45.67677","Longitude":"-90.39543","Snowdepth":"19.000","Units":"in","Rept_Date":"2020-01-25 12"},"coordinates":[1606,6329]},{"type":"Point","properties":{"Station_ID":"WI-LN-2","Station_Nam":"MERRILL 7.0 W, WI","Latitude":"45.17746","Longitude":"-89.84820","Snowdepth":"19.000","Units":"in","Rept_Date":"2020-01-25 12"},"coordinates":[1734,6026]},{"type":"Point","properties":{"Station_ID":"WI-CK-3","Station_Nam":"COLBY 5.9 WSW, WI","Latitude":"44.87209","Longitude":"-90.42463","Snowdepth":"19.000","Units":"in","Rept_Date":"2020-01-26 01"},"coordinates":[1599,5841]},{"type":"Point","properties":{"Station_ID":"WI-CH-3","Station_Nam":"CORNELL 4.1 W, WI","Latitude":"45.17024","Longitude":"-91.23610","Snowdepth":"19.000","Units":"in","Rept_Date":"2020-01-25 14"},"coordinates":[1409,6021]},{"type":"Point","properties":{"Station_ID":"SEBM5","Station_Nam":"SEBEKA","Latitude":"46.62540","Longitude":"-95.09670","Snowdepth":"19.000","Units":"in","Rept_Date":"2020-01-25 13"},"coordinates":[503,6904]},{"type":"Point","properties":{"Station_ID":"SAUW3","Station_Nam":"WAUSAU WSAW TV","Latitude":"44.94630","Longitude":"-89.62220","Snowdepth":"19.000","Units":"in","Rept_Date":"2020-01-26 05"},"coordinates":[1788,5886]},{"type":"Point","properties":{"Station_ID":"ND-CS-25","Station_Nam":"FARGO 2.1 N, ND","Latitude":"46.90816","Longitude":"-96.77937","Snowdepth":"19.000","Units":"in","Rept_Date":"2020-01-25 14"},"coordinates":[108,7076]},{"type":"Point","properties":{"Station_ID":"MLLW3","Station_Nam":"MERRILL 8W","Latitude":"45.17810","Longitude":"-89.84810","Snowdepth":"19.000","Units":"in","Rept_Date":"2020-01-25 12"},"coordinates":[1735,6026]},{"type":"Point","properties":{"Station_ID":"JCBM4","Station_Nam":"JACOBSVILLE","Latitude":"47.00830","Longitude":"-88.43180","Snowdepth":"19.000","Units":"in","Rept_Date":"2020-01-25 11"},"coordinates":[2067,7136]},{"type":"Point","properties":{"Station_ID":"FLDM5","Station_Nam":"FLOODWOOD,MN","Latitude":"47.00000","Longitude":"-92.91670","Snowdepth":"19.000","Units":"in","Rept_Date":"2020-01-25 14"},"coordinates":[1014,7131]},{"type":"Point","properties":{"Station_ID":"FAR","Station_Nam":"HECTOR INTERNATIONAL ARPT","Latitude":"46.91560","Longitude":"-96.81440","Snowdepth":"19.000","Units":"in","Rept_Date":"2020-01-26 00"},"coordinates":[100,7080]},{"type":"Point","properties":{"Station_ID":"EPTW3","Station_Nam":"EAU PLEINE TENDER","Latitude":"44.77220","Longitude":"-89.76720","Snowdepth":"19.000","Units":"in","Rept_Date":"2020-01-25 13"},"coordinates":[1753,5780]},{"type":"Point","properties":{"Station_ID":"CNRM1","Station_Nam":"CONNOR TWP","Latitude":"46.95830","Longitude":"-68.03330","Snowdepth":"19.000","Units":"in","Rept_Date":"2020-01-25 12"},"coordinates":[6854,7106]},{"type":"Point","properties":{"Station_ID":"CLGM5","Station_Nam":"COLLEGEVILLE ST JOHN","Latitude":"45.57940","Longitude":"-94.39200","Snowdepth":"19.000","Units":"in","Rept_Date":"2020-01-26 00"},"coordinates":[668,6270]},{"type":"Point","properties":{"Station_ID":"CLBW3","Station_Nam":"COLBY 6SW","Latitude":"44.87080","Longitude":"-90.42480","Snowdepth":"19.000","Units":"in","Rept_Date":"2020-01-26 03"},"coordinates":[1599,5840]},{"type":"Point","properties":{"Station_ID":"CAN-NB-11","Station_Nam":"MIRAMICHI 3.3 S, CAN","Latitude":"46.99343","Longitude":"-65.50690","Snowdepth":"19.000","Units":"in","Rept_Date":"2020-01-25 12"},"coordinates":[7447,7127]},{"type":"Point","properties":{"Station_ID":"BRVM5","Station_Nam":"BROWNS VALLEY,MN","Latitude":"45.61670","Longitude":"-96.83330","Snowdepth":"19.000","Units":"in","Rept_Date":"2020-01-25 12"},"coordinates":[95,6292]},{"type":"Point","properties":{"Station_ID":"BAGM4","Station_Nam":"BARAGA 7NW","Latitude":"46.82100","Longitude":"-88.60590","Snowdepth":"19.000","Units":"in","Rept_Date":"2020-01-25 13"},"coordinates":[2026,7023]},{"type":"Point","properties":{"Station_ID":"ABGW3","Station_Nam":"AMBERG 9 E","Latitude":"45.48250","Longitude":"-87.81190","Snowdepth":"19.000","Units":"in","Rept_Date":"2020-01-25 12"},"coordinates":[2212,6211]},{"type":"Point","properties":{"Station_ID":"CATQ6","Station_Nam":"CAT LAKE","Latitude":"51.72690","Longitude":"-91.82210","Snowdepth":"18.980","Units":"in","Rept_Date":"2020-01-26 06"},"coordinates":[1271,9999]},{"type":"Point","properties":{"Station_ID":"QLM","Station_Nam":"QLM","Latitude":"48.92030","Longitude":"-70.25280","Snowdepth":"18.898","Units":"in","Rept_Date":"2020-01-25 12"},"coordinates":[6333,8296]},{"type":"Point","properties":{"Station_ID":"QLP","Station_Nam":"QLP","Latitude":"48.13920","Longitude":"-72.63830","Snowdepth":"18.819","Units":"in","Rept_Date":"2020-01-25 12"},"coordinates":[5774,7823]},{"type":"Point","properties":{"Station_ID":"QIQ","Station_Nam":"QIQ","Latitude":"49.82390","Longitude":"-68.54310","Snowdepth":"18.425","Units":"in","Rept_Date":"2020-01-25 12"},"coordinates":[6735,8845]},{"type":"Point","properties":{"Station_ID":"CAN-QC-47","Station_Nam":"SAINTE-FOY 1.8 ENE, CAN","Latitude":"46.76934","Longitude":"-71.27124","Snowdepth":"18.300","Units":"in","Rept_Date":"2020-01-25 12"},"coordinates":[6094,6992]},{"type":"Point","properties":{"Station_ID":"MFU","Station_Nam":"MFU","Latitude":"51.52170","Longitude":"-66.91110","Snowdepth":"18.031","Units":"in","Rept_Date":"2020-01-25 12"},"coordinates":[7118,9875]},{"type":"Point","properties":{"Station_ID":"WUNW3","Station_Nam":"WAUSAU-NORTHEAST","Latitude":"44.97310","Longitude":"-89.61690","Snowdepth":"18.000","Units":"in","Rept_Date":"2020-01-25 13"},"coordinates":[1789,5902]},{"type":"Point","properties":{"Station_ID":"WI-MT-14","Station_Nam":"MOSINEE 2.7 WSW, WI","Latitude":"44.77240","Longitude":"-89.73441","Snowdepth":"18.000","Units":"in","Rept_Date":"2020-01-25 14"},"coordinates":[1761,5780]},{"type":"Point","properties":{"Station_ID":"STRW3","Station_Nam":"STRATFORD 1NW","Latitude":"44.81750","Longitude":"-90.08990","Snowdepth":"18.000","Units":"in","Rept_Date":"2020-01-25 13"},"coordinates":[1678,5807]},{"type":"Point","properties":{"Station_ID":"SHIW3","Station_Nam":"SHIOCTON","Latitude":"44.43890","Longitude":"-88.58390","Snowdepth":"18.000","Units":"in","Rept_Date":"2020-01-25 13"},"coordinates":[2031,5578]},{"type":"Point","properties":{"Station_ID":"RSTW3","Station_Nam":"ROSHOLT","Latitude":"44.62710","Longitude":"-89.30600","Snowdepth":"18.000","Units":"in","Rept_Date":"2020-01-25 14"},"coordinates":[1862,5692]},{"type":"Point","properties":{"Station_ID":"LUCW3","Station_Nam":"LUCK","Latitude":"45.57330","Longitude":"-92.48520","Snowdepth":"18.000","Units":"in","Rept_Date":"2020-01-25 16"},"coordinates":[1116,6266]},{"type":"Point","properties":{"Station_ID":"KGFK","Station_Nam":"GRAND FORKS INTERNATIONAL","Latitude":"47.95000","Longitude":"-97.18333","Snowdepth":"18.000","Units":"in","Rept_Date":"2020-01-26 06"},"coordinates":[13,7708]},{"type":"Point","properties":{"Station_ID":"GFK","Station_Nam":"GRAND FORKS INTERNATIONAL AIRPORT","Latitude":"47.94920","Longitude":"-97.17610","Snowdepth":"18.000","Units":"in","Rept_Date":"2020-01-26 00"},"coordinates":[15,7707]},{"type":"Point","properties":{"Station_ID":"CBVM1","Station_Nam":"CARRABASSETT VALLEY","Latitude":"45.08040","Longitude":"-70.30310","Snowdepth":"18.000","Units":"in","Rept_Date":"2020-01-25 12"},"coordinates":[6322,5967]},{"type":"Point","properties":{"Station_ID":"CARM1","Station_Nam":"CARIBOU WFO","Latitude":"46.86810","Longitude":"-68.01250","Snowdepth":"18.000","Units":"in","Rept_Date":"2020-01-26 05"},"coordinates":[6859,7051]},{"type":"Point","properties":{"Station_ID":"CAR","Station_Nam":"CARIBOU, ME","Latitude":"46.86830","Longitude":"-68.01360","Snowdepth":"18.000","Units":"in","Rept_Date":"2020-01-25 12"},"coordinates":[6859,7052]},{"type":"Point","properties":{"Station_ID":"BREW3","Station_Nam":"SURING","Latitude":"44.99580","Longitude":"-88.37860","Snowdepth":"18.000","Units":"in","Rept_Date":"2020-01-25 19"},"coordinates":[2079,5916]},{"type":"Point","properties":{"Station_ID":"BRDM1","Station_Nam":"BRIDGEWATER","Latitude":"46.42870","Longitude":"-67.84370","Snowdepth":"18.000","Units":"in","Rept_Date":"2020-01-25 23"},"coordinates":[6899,6785]},{"type":"Point","properties":{"Station_ID":"WI-SR-5","Station_Nam":"HAYWARD 9.7 NE, WI","Latitude":"46.12030","Longitude":"-91.35370","Snowdepth":"17.500","Units":"in","Rept_Date":"2020-01-25 13"},"coordinates":[1381,6598]},{"type":"Point","properties":{"Station_ID":"QCO","Station_Nam":"QCO","Latitude":"51.45280","Longitude":"-72.20110","Snowdepth":"17.441","Units":"in","Rept_Date":"2020-01-25 12"},"coordinates":[5876,9833]},{"type":"Point","properties":{"Station_ID":"QLI","Station_Nam":"QLI","Latitude":"50.27080","Longitude":"-73.92280","Snowdepth":"17.087","Units":"in","Rept_Date":"2020-01-25 12"},"coordinates":[5472,9116]},{"type":"Point","properties":{"Station_ID":"WI-PC-25","Station_Nam":"ELLSWORTH 2.6 SW, WI","Latitude":"44.71119","Longitude":"-92.51849","Snowdepth":"17.000","Units":"in","Rept_Date":"2020-01-25 13"},"coordinates":[1108,5743]},{"type":"Point","properties":{"Station_ID":"WI-DN-1","Station_Nam":"BOYCEVILLE 3.3 N, WI","Latitude":"45.08913","Longitude":"-92.02760","Snowdepth":"17.000","Units":"in","Rept_Date":"2020-01-25 13"},"coordinates":[1223,5972]},{"type":"Point","properties":{"Station_ID":"SUTV1","Station_Nam":"SUTTON","Latitude":"44.61220","Longitude":"-72.04810","Snowdepth":"17.000","Units":"in","Rept_Date":"2020-01-25 13"},"coordinates":[5912,5683]},{"type":"Point","properties":{"Station_ID":"NH-CS-10","Station_Nam":"RANDOLPH 1.4 NE, NH","Latitude":"44.38824","Longitude":"-71.26950","Snowdepth":"17.000","Units":"in","Rept_Date":"2020-01-25 12"},"coordinates":[6095,5547]},{"type":"Point","properties":{"Station_ID":"MN-CW-29","Station_Nam":"BRAINERD 7.7 SSE, MN","Latitude":"46.24996","Longitude":"-94.14576","Snowdepth":"17.000","Units":"in","Rept_Date":"2020-01-25 13"},"coordinates":[726,6676]},{"type":"Point","properties":{"Station_ID":"MN-BK-10","Station_Nam":"DETROIT LAKES 5.7 N, MN","Latitude":"46.88666","Longitude":"-95.84444","Snowdepth":"17.000","Units":"in","Rept_Date":"2020-01-25 10"},"coordinates":[327,7063]},{"type":"Point","properties":{"Station_ID":"MI-OT-17","Station_Nam":"GAYLORD 4.1 S, MI","Latitude":"44.96388","Longitude":"-84.68467","Snowdepth":"17.000","Units":"in","Rept_Date":"2020-01-25 12"},"coordinates":[2946,5896]},{"type":"Point","properties":{"Station_ID":"MI-AT-6","Station_Nam":"MANCELONA 0.5 ESE, MI","Latitude":"44.89981","Longitude":"-85.05100","Snowdepth":"17.000","Units":"in","Rept_Date":"2020-01-25 13"},"coordinates":[2860,5857]},{"type":"Point","properties":{"Station_ID":"FDRN8","Station_Nam":"FARGO 3S","Latitude":"46.82930","Longitude":"-96.79620","Snowdepth":"17.000","Units":"in","Rept_Date":"2020-01-26 06"},"coordinates":[104,7028]},{"type":"Point","properties":{"Station_ID":"EAHV1","Station_Nam":"EAST HAVEN","Latitude":"44.64250","Longitude":"-71.89120","Snowdepth":"17.000","Units":"in","Rept_Date":"2020-01-25 12"},"coordinates":[5949,5701]},{"type":"Point","properties":{"Station_ID":"COUW3","Station_Nam":"COUDERAY,WI","Latitude":"45.86670","Longitude":"-91.45000","Snowdepth":"17.000","Units":"in","Rept_Date":"2020-01-25 22"},"coordinates":[1359,6444]},{"type":"Point","properties":{"Station_ID":"WI-EC-23","Station_Nam":"EAU CLAIRE 3.7 S, WI","Latitude":"44.76858","Longitude":"-91.49898","Snowdepth":"16.000","Units":"in","Rept_Date":"2020-01-25 14"},"coordinates":[1347,5778]},{"type":"Point","properties":{"Station_ID":"WI-BR-2","Station_Nam":"CHETEK 2.0 SE, WI","Latitude":"45.29427","Longitude":"-91.62470","Snowdepth":"16.000","Units":"in","Rept_Date":"2020-01-25 13"},"coordinates":[1318,6097]},{"type":"Point","properties":{"Station_ID":"VANM1","Station_Nam":"VAN BUREN","Latitude":"47.16600","Longitude":"-67.93900","Snowdepth":"16.000","Units":"in","Rept_Date":"2020-01-25 12"},"coordinates":[6876,7232]},{"type":"Point","properties":{"Station_ID":"SSMM4","Station_Nam":"SAULT STE MARIE","Latitude":"46.48660","Longitude":"-84.40250","Snowdepth":"16.000","Units":"in","Rept_Date":"2020-01-25 13"},"coordinates":[3013,6820]},{"type":"Point","properties":{"Station_ID":"MEDW3","Station_Nam":"MEDFORD","Latitude":"45.13080","Longitude":"-90.34390","Snowdepth":"16.000","Units":"in","Rept_Date":"2020-01-25 14"},"coordinates":[1618,5998]},{"type":"Point","properties":{"Station_ID":"LNGM5","Station_Nam":"LONG PRAIRIE","Latitude":"45.96460","Longitude":"-94.88920","Snowdepth":"16.000","Units":"in","Rept_Date":"2020-01-25 12"},"coordinates":[551,6503]},{"type":"Point","properties":{"Station_ID":"KSEM4","Station_Nam":"KALKASKA 11SE","Latitude":"44.58970","Longitude":"-85.04860","Snowdepth":"16.000","Units":"in","Rept_Date":"2020-01-25 13"},"coordinates":[2861,5669]},{"type":"Point","properties":{"Station_ID":"GRFN8","Station_Nam":"UNIVERSITY","Latitude":"47.93330","Longitude":"-97.08330","Snowdepth":"16.000","Units":"in","Rept_Date":"2020-01-26 06"},"coordinates":[36,7698]},{"type":"Point","properties":{"Station_ID":"ESAM4","Station_Nam":"ESCANABA","Latitude":"45.74380","Longitude":"-87.04060","Snowdepth":"16.000","Units":"in","Rept_Date":"2020-01-25 12"},"coordinates":[2393,6369]},{"type":"Point","properties":{"Station_ID":"CORV1","Station_Nam":"CORINTH","Latitude":"44.00690","Longitude":"-72.31940","Snowdepth":"16.000","Units":"in","Rept_Date":"2020-01-25 12"},"coordinates":[5848,5316]},{"type":"Point","properties":{"Station_ID":"BFSW3","Station_Nam":"BIG FALLS-5 NW","Latitude":"44.63980","Longitude":"-89.11330","Snowdepth":"16.000","Units":"in","Rept_Date":"2020-01-25 13"},"coordinates":[1907,5700]},{"type":"Point","properties":{"Station_ID":"ATY","Station_Nam":"WATERTOWN MUNICIPAL AIRPORT","Latitude":"44.91420","Longitude":"-97.15440","Snowdepth":"16.000","Units":"in","Rept_Date":"2020-01-26 00"},"coordinates":[20,5866]},{"type":"Point","properties":{"Station_ID":"ANJM4","Station_Nam":"SNOW PAID OBSERVER FOR KANJ","Latitude":"46.48670","Longitude":"-84.40260","Snowdepth":"16.000","Units":"in","Rept_Date":"2020-01-25 18"},"coordinates":[3013,6820]},{"type":"Point","properties":{"Station_ID":"ANJ","Station_Nam":"SAULT STE MARIE","Latitude":"46.46670","Longitude":"-84.36670","Snowdepth":"16.000","Units":"in","Rept_Date":"2020-01-26 00"},"coordinates":[3021,6808]},{"type":"Point","properties":{"Station_ID":"ALXM5","Station_Nam":"ALEXANDRIA","Latitude":"45.87820","Longitude":"-95.38270","Snowdepth":"16.000","Units":"in","Rept_Date":"2020-01-25 12"},"coordinates":[436,6451]},{"type":"Point","properties":{"Station_ID":"CAN-ON-757","Station_Nam":"SAULT STE. MARIE 2.8 ESE - GLFC, CAN","Latitude":"46.50300","Longitude":"-84.30300","Snowdepth":"15.800","Units":"in","Rept_Date":"2020-01-25 13"},"coordinates":[3036,6830]},{"type":"Point","properties":{"Station_ID":"WI-TY-3","Station_Nam":"MEDFORD 0.8 ENE, WI","Latitude":"45.14421","Longitude":"-90.33349","Snowdepth":"15.500","Units":"in","Rept_Date":"2020-01-25 14"},"coordinates":[1621,6006]},{"type":"Point","properties":{"Station_ID":"VT-OL-1","Station_Nam":"WESTFIELD 0.7 WNW, VT","Latitude":"44.89160","Longitude":"-72.44350","Snowdepth":"15.500","Units":"in","Rept_Date":"2020-01-25 12"},"coordinates":[5819,5852]},{"type":"Point","properties":{"Station_ID":"ME-PN-45","Station_Nam":"MILLINOCKET 2.7 ESE, ME","Latitude":"45.65002","Longitude":"-68.64472","Snowdepth":"15.500","Units":"in","Rept_Date":"2020-01-25 12"},"coordinates":[6711,6312]},{"type":"Point","properties":{"Station_ID":"QWG","Station_Nam":"QWG","Latitude":"48.48890","Longitude":"-73.45940","Snowdepth":"15.354","Units":"in","Rept_Date":"2020-01-25 12"},"coordinates":[5581,8035]},{"type":"Point","properties":{"Station_ID":"MRAM4","Station_Nam":"MORAN","Latitude":"45.99030","Longitude":"-84.83610","Snowdepth":"15.000","Units":"in","Rept_Date":"2020-01-25 13"},"coordinates":[2911,6519]},{"type":"Point","properties":{"Station_ID":"MN-MR-13","Station_Nam":"LITTLE FALLS 8.0 NE, MN","Latitude":"46.06785","Longitude":"-94.24789","Snowdepth":"15.000","Units":"in","Rept_Date":"2020-01-25 13"},"coordinates":[702,6566]},{"type":"Point","properties":{"Station_ID":"MI-OT-16","Station_Nam":"GAYLORD 2.2 SSE, MI","Latitude":"44.99441","Longitude":"-84.65820","Snowdepth":"15.000","Units":"in","Rept_Date":"2020-01-25 14"},"coordinates":[2953,5915]},{"type":"Point","properties":{"Station_ID":"LGRN8","Station_Nam":"LIDGERWOOD,ND","Latitude":"46.06670","Longitude":"-97.16670","Snowdepth":"15.000","Units":"in","Rept_Date":"2020-01-25 13"},"coordinates":[17,6565]},{"type":"Point","properties":{"Station_ID":"ILEW3","Station_Nam":"STILES 1S","Latitude":"44.84190","Longitude":"-88.05420","Snowdepth":"15.000","Units":"in","Rept_Date":"2020-01-25 13"},"coordinates":[2156,5822]},{"type":"Point","properties":{"Station_ID":"ELRW3","Station_Nam":"EAU CLAIRE 3SW","Latitude":"44.78780","Longitude":"-91.51650","Snowdepth":"15.000","Units":"in","Rept_Date":"2020-01-26 06"},"coordinates":[1343,5789]},{"type":"Point","properties":{"Station_ID":"DFXM1","Station_Nam":"DOVER-FOXCROFT","Latitude":"45.18720","Longitude":"-69.18350","Snowdepth":"15.000","Units":"in","Rept_Date":"2020-01-25 12"},"coordinates":[6584,6032]},{"type":"Point","properties":{"Station_ID":"CAN-PE-19","Station_Nam":"CHARLOTTETOWN 6.5 NNW, CAN","Latitude":"46.29235","Longitude":"-63.17271","Snowdepth":"15.000","Units":"in","Rept_Date":"2020-01-25 12"},"coordinates":[7995,6702]},{"type":"Point","properties":{"Station_ID":"CAN-NB-96","Station_Nam":"SAINT-IGNACE 2.6 NE, CAN","Latitude":"46.71424","Longitude":"-65.05609","Snowdepth":"15.000","Units":"in","Rept_Date":"2020-01-25 11"},"coordinates":[7553,6958]},{"type":"Point","properties":{"Station_ID":"CAN-NB-13","Station_Nam":"BATHURST 3.8 NW, CAN","Latitude":"47.64212","Longitude":"-65.68756","Snowdepth":"15.000","Units":"in","Rept_Date":"2020-01-25 11"},"coordinates":[7405,7521]},{"type":"Point","properties":{"Station_ID":"BALW3","Station_Nam":"BALDWIN","Latitude":"44.96330","Longitude":"-92.39050","Snowdepth":"15.000","Units":"in","Rept_Date":"2020-01-25 13"},"coordinates":[1138,5896]},{"type":"Point","properties":{"Station_ID":"WI-BN-6","Station_Nam":"SUAMICO 4.4 WNW, WI","Latitude":"44.66111","Longitude":"-88.11780","Snowdepth":"14.500","Units":"in","Rept_Date":"2020-01-25 13"},"coordinates":[2141,5713]},{"type":"Point","properties":{"Station_ID":"MI-CX-7","Station_Nam":"EAST JORDAN 2.1 NNW, MI","Latitude":"45.18639","Longitude":"-85.14750","Snowdepth":"14.500","Units":"in","Rept_Date":"2020-01-25 13"},"coordinates":[2838,6031]},{"type":"Point","properties":{"Station_ID":"MI-CP-14","Station_Nam":"SAULT STE. MARIE 2.2 E, MI","Latitude":"46.48933","Longitude":"-84.31971","Snowdepth":"14.500","Units":"in","Rept_Date":"2020-01-25 13"},"coordinates":[3032,6822]},{"type":"Point","properties":{"Station_ID":"ME-CM-125","Station_Nam":"CUMBERLAND CENTER 4.4 NW, ME","Latitude":"43.84640","Longitude":"-70.31340","Snowdepth":"14.500","Units":"in","Rept_Date":"2020-01-25 12"},"coordinates":[6319,5218]},{"type":"Point","properties":{"Station_ID":"CAN-MB-32","Station_Nam":"PINAWA 1.0 SW, CA","Latitude":"50.14747","Longitude":"-95.89020","Snowdepth":"14.500","Units":"in","Rept_Date":"2020-01-25 13"},"coordinates":[316,9041]},{"type":"Point","properties":{"Station_ID":"CAN-PE-7","Station_Nam":"MORELL 1.4 NNW, CA","Latitude":"46.42741","Longitude":"-62.70870","Snowdepth":"14.200","Units":"in","Rept_Date":"2020-01-25 12"},"coordinates":[8104,6784]},{"type":"Point","properties":{"Station_ID":"CAN-PE-20","Station_Nam":"BONSHAW 6.6 NNE, CAN","Latitude":"46.25082","Longitude":"-63.33409","Snowdepth":"14.200","Units":"in","Rept_Date":"2020-01-25 12"},"coordinates":[7957,6677]},{"type":"Point","properties":{"Station_ID":"WLDM5","Station_Nam":"WILD RIVER STATE PARK","Latitude":"45.52310","Longitude":"-92.74890","Snowdepth":"14.000","Units":"in","Rept_Date":"2020-01-25 14"},"coordinates":[1054,6235]},{"type":"Point","properties":{"Station_ID":"WILW3","Station_Nam":"RESERVOIR","Latitude":"45.70000","Longitude":"-89.83330","Snowdepth":"14.000","Units":"in","Rept_Date":"2020-01-25 12"},"coordinates":[1738,6343]},{"type":"Point","properties":{"Station_ID":"SIWS2","Station_Nam":"SISSETON 3W","Latitude":"45.65870","Longitude":"-97.12450","Snowdepth":"14.000","Units":"in","Rept_Date":"2020-01-25 13"},"coordinates":[27,6318]},{"type":"Point","properties":{"Station_ID":"SD-RB-1","Station_Nam":"SISSETON 3.8 W, SD","Latitude":"45.65865","Longitude":"-97.12370","Snowdepth":"14.000","Units":"in","Rept_Date":"2020-01-25 13"},"coordinates":[27,6318]},{"type":"Point","properties":{"Station_ID":"SD-CD-30","Station_Nam":"WATERTOWN 2.3 E, SD","Latitude":"44.91604","Longitude":"-97.11925","Snowdepth":"14.000","Units":"in","Rept_Date":"2020-01-25 13"},"coordinates":[28,5867]},{"type":"Point","properties":{"Station_ID":"NGLW3","Station_Nam":"NEW GLARUS","Latitude":"42.83500","Longitude":"-89.62080","Snowdepth":"14.000","Units":"in","Rept_Date":"2020-01-25 13"},"coordinates":[1788,4605]},{"type":"Point","properties":{"Station_ID":"MNEY8CTB","Station_Nam":"MIDLAND JUNCTION 2.2 ENE","Latitude":"44.33041","Longitude":"-91.95891","Snowdepth":"14.000","Units":"in","Rept_Date":"2020-01-25 14"},"coordinates":[1239,5512]},{"type":"Point","properties":{"Station_ID":"MN-PK-15","Station_Nam":"MENTOR 2.5 SSW, MN","Latitude":"47.66625","Longitude":"-96.17328","Snowdepth":"14.000","Units":"in","Rept_Date":"2020-01-25 14"},"coordinates":[250,7536]},{"type":"Point","properties":{"Station_ID":"MN-MR-4","Station_Nam":"LITTLE FALLS 1.2 SW, MN","Latitude":"45.96886","Longitude":"-94.37720","Snowdepth":"14.000","Units":"in","Rept_Date":"2020-01-25 13"},"coordinates":[672,6506]},{"type":"Point","properties":{"Station_ID":"MLCM5","Station_Nam":"MILACA","Latitude":"45.75320","Longitude":"-93.66170","Snowdepth":"14.000","Units":"in","Rept_Date":"2020-01-25 13"},"coordinates":[839,6375]},{"type":"Point","properties":{"Station_ID":"ME-OX-2","Station_Nam":"HARTFORD 1.4 N, ME","Latitude":"44.39318","Longitude":"-70.34760","Snowdepth":"14.000","Units":"in","Rept_Date":"2020-01-25 12"},"coordinates":[6311,5550]},{"type":"Point","properties":{"Station_ID":"ME-CM-86","Station_Nam":"POWNAL 4.1 S, ME","Latitude":"43.85370","Longitude":"-70.17210","Snowdepth":"14.000","Units":"in","Rept_Date":"2020-01-25 12"},"coordinates":[6352,5223]},{"type":"Point","properties":{"Station_ID":"ME-CM-15","Station_Nam":"FREEPORT 2.6 WNW, ME","Latitude":"43.86683","Longitude":"-70.15070","Snowdepth":"14.000","Units":"in","Rept_Date":"2020-01-25 12"},"coordinates":[6357,5231]},{"type":"Point","properties":{"Station_ID":"LILM1","Station_Nam":"LILLE","Latitude":"47.27770","Longitude":"-68.10520","Snowdepth":"14.000","Units":"in","Rept_Date":"2020-01-25 12"},"coordinates":[6837,7300]},{"type":"Point","properties":{"Station_ID":"LBRM5","Station_Nam":"LAKE BRONSON DAM","Latitude":"48.72410","Longitude":"-96.62180","Snowdepth":"14.000","Units":"in","Rept_Date":"2020-01-25 14"},"coordinates":[145,8177]},{"type":"Point","properties":{"Station_ID":"KINM1","Station_Nam":"KINGFIELD","Latitude":"44.95950","Longitude":"-70.17530","Snowdepth":"14.000","Units":"in","Rept_Date":"2020-01-25 12"},"coordinates":[6352,5894]},{"type":"Point","properties":{"Station_ID":"HUBN3","Station_Nam":"HUBBARD BROOK","Latitude":"43.93330","Longitude":"-71.71670","Snowdepth":"14.000","Units":"in","Rept_Date":"2020-01-26 06"},"coordinates":[5990,5271]},{"type":"Point","properties":{"Station_ID":"GAYM4","Station_Nam":"GAYLORD","Latitude":"45.03320","Longitude":"-84.71130","Snowdepth":"14.000","Units":"in","Rept_Date":"2020-01-25 13"},"coordinates":[2940,5938]},{"type":"Point","properties":{"Station_ID":"FISM1","Station_Nam":"FORT KENT COOP","Latitude":"47.23850","Longitude":"-68.61240","Snowdepth":"14.000","Units":"in","Rept_Date":"2020-01-25 12"},"coordinates":[6718,7276]},{"type":"Point","properties":{"Station_ID":"ETTW3","Station_Nam":"ETTRICK 4WNW","Latitude":"44.19000","Longitude":"-91.34240","Snowdepth":"14.000","Units":"in","Rept_Date":"2020-01-25 14"},"coordinates":[1384,5427]},{"type":"Point","properties":{"Station_ID":"EJNM4","Station_Nam":"EAST JORDAN 2NW","Latitude":"45.18630","Longitude":"-85.14770","Snowdepth":"14.000","Units":"in","Rept_Date":"2020-01-25 13"},"coordinates":[2838,6031]},{"type":"Point","properties":{"Station_ID":"CHRI4","Station_Nam":"CHARITON,IA","Latitude":"41.00000","Longitude":"-93.31670","Snowdepth":"14.000","Units":"in","Rept_Date":"2020-01-25 13"},"coordinates":[920,3492]},{"type":"Point","properties":{"Station_ID":"BRAM1","Station_Nam":"BRASSUA DAM","Latitude":"45.66020","Longitude":"-69.81190","Snowdepth":"14.000","Units":"in","Rept_Date":"2020-01-25 12"},"coordinates":[6437,6319]},{"type":"Point","properties":{"Station_ID":"ARTM5","Station_Nam":"ARTICHOKE LAKE 1 E","Latitude":"45.38560","Longitude":"-96.12570","Snowdepth":"14.000","Units":"in","Rept_Date":"2020-01-26 04"},"coordinates":[261,6152]},{"type":"Point","properties":{"Station_ID":"AMDW3","Station_Nam":"ALMOND-5 NE","Latitude":"44.30830","Longitude":"-89.34640","Snowdepth":"14.000","Units":"in","Rept_Date":"2020-01-25 14"},"coordinates":[1852,5499]},{"type":"Point","properties":{"Station_ID":"FTHQ6","Station_Nam":"FORT HOPE","Latitude":"51.55820","Longitude":"-87.90510","Snowdepth":"13.980","Units":"in","Rept_Date":"2020-01-26 06"},"coordinates":[2191,9897]},{"type":"Point","properties":{"Station_ID":"VT-CL-18","Station_Nam":"WHEELOCK 1.6 S, VT","Latitude":"44.56491","Longitude":"-72.08830","Snowdepth":"13.500","Units":"in","Rept_Date":"2020-01-25 12"},"coordinates":[5903,5654]},{"type":"Point","properties":{"Station_ID":"WIPW3","Station_Nam":"WISCONSIN RAPIDS-SOUTHEAST","Latitude":"44.38190","Longitude":"-89.80470","Snowdepth":"13.000","Units":"in","Rept_Date":"2020-01-25 13"},"coordinates":[1745,5543]},{"type":"Point","properties":{"Station_ID":"WI-PT-8","Station_Nam":"RUDOLPH 2.1 NNE, WI","Latitude":"44.52553","Longitude":"-89.78677","Snowdepth":"13.000","Units":"in","Rept_Date":"2020-01-25 11"},"coordinates":[1749,5630]},{"type":"Point","properties":{"Station_ID":"SIBI4","Station_Nam":"SIBLEY","Latitude":"43.40470","Longitude":"-95.74830","Snowdepth":"13.000","Units":"in","Rept_Date":"2020-01-25 13"},"coordinates":[350,4950]},{"type":"Point","properties":{"Station_ID":"RKWM1","Station_Nam":"MOOSEHEAD LAKE","Latitude":"45.58330","Longitude":"-69.71670","Snowdepth":"13.000","Units":"in","Rept_Date":"2020-01-25 12"},"coordinates":[6459,6272]},{"type":"Point","properties":{"Station_ID":"RCEM5","Station_Nam":"RICE","Latitude":"45.75760","Longitude":"-94.20720","Snowdepth":"13.000","Units":"in","Rept_Date":"2020-01-25 13"},"coordinates":[711,6378]},{"type":"Point","properties":{"Station_ID":"PULW3","Station_Nam":"PULASKI WWTP","Latitude":"44.67830","Longitude":"-88.22750","Snowdepth":"13.000","Units":"in","Rept_Date":"2020-01-25 12"},"coordinates":[2115,5723]},{"type":"Point","properties":{"Station_ID":"PBAN8","Station_Nam":"SITE 1-3MI.N","Latitude":"48.97420","Longitude":"-97.23860","Snowdepth":"13.000","Units":"in","Rept_Date":"2020-01-25 14"},"coordinates":[0,8329]},{"type":"Point","properties":{"Station_ID":"NONW3","Station_Nam":"NEW LONDON","Latitude":"44.35890","Longitude":"-88.71890","Snowdepth":"13.000","Units":"in","Rept_Date":"2020-01-25 12"},"coordinates":[2000,5529]},{"type":"Point","properties":{"Station_ID":"MLBS2","Station_Nam":"MILBANK","Latitude":"45.22040","Longitude":"-96.62530","Snowdepth":"13.000","Units":"in","Rept_Date":"2020-01-25 13"},"coordinates":[144,6052]},{"type":"Point","properties":{"Station_ID":"ME-YK-3","Station_Nam":"HOLLIS CENTER 5.4 NW, ME","Latitude":"43.64750","Longitude":"-70.67510","Snowdepth":"13.000","Units":"in","Rept_Date":"2020-01-25 12"},"coordinates":[6234,5098]},{"type":"Point","properties":{"Station_ID":"ME-FR-4","Station_Nam":"NEW SHARON 2.0 NW, ME","Latitude":"44.66582","Longitude":"-70.02720","Snowdepth":"13.000","Units":"in","Rept_Date":"2020-01-25 12"},"coordinates":[6386,5715]},{"type":"Point","properties":{"Station_ID":"ME-CM-98","Station_Nam":"SEBAGO 2.4 ESE, ME","Latitude":"43.88000","Longitude":"-70.63000","Snowdepth":"13.000","Units":"in","Rept_Date":"2020-01-25 14"},"coordinates":[6245,5239]},{"type":"Point","properties":{"Station_ID":"JIMW3","Station_Nam":"JIM FALLS 3NW","Latitude":"45.08270","Longitude":"-91.33130","Snowdepth":"13.000","Units":"in","Rept_Date":"2020-01-25 12"},"coordinates":[1386,5968]},{"type":"Point","properties":{"Station_ID":"HOLM1","Station_Nam":"HOLLIS","Latitude":"43.64750","Longitude":"-70.67490","Snowdepth":"13.000","Units":"in","Rept_Date":"2020-01-25 12"},"coordinates":[6234,5098]},{"type":"Point","properties":{"Station_ID":"GRBM5","Station_Nam":"GRAND RAPIDS 12N","Latitude":"47.39800","Longitude":"-93.51330","Snowdepth":"13.000","Units":"in","Rept_Date":"2020-01-25 13"},"coordinates":[874,7373]},{"type":"Point","properties":{"Station_ID":"EAU","Station_Nam":"CHIPPEWA VALLEY REGIONAL AIRPORT","Latitude":"44.86650","Longitude":"-91.48790","Snowdepth":"13.000","Units":"in","Rept_Date":"2020-01-26 00"},"coordinates":[1350,5837]},{"type":"Point","properties":{"Station_ID":"CHRM4","Station_Nam":"CHARLEVOIX","Latitude":"45.31720","Longitude":"-85.26720","Snowdepth":"13.000","Units":"in","Rept_Date":"2020-01-25 13"},"coordinates":[2810,6111]},{"type":"Point","properties":{"Station_ID":"CAN-PE-3","Station_Nam":"WELLINGTON 1.6 NE, CA","Latitude":"46.46672","Longitude":"-63.98920","Snowdepth":"13.000","Units":"in","Rept_Date":"2020-01-25 11"},"coordinates":[7803,6808]},{"type":"Point","properties":{"Station_ID":"CAN-NB-2","Station_Nam":"GRAFTON 2.7 NNE, CA","Latitude":"46.17062","Longitude":"-67.55330","Snowdepth":"13.000","Units":"in","Rept_Date":"2020-01-25 11"},"coordinates":[6967,6628]},{"type":"Point","properties":{"Station_ID":"BROS2","Station_Nam":"BROOKINGS,SD","Latitude":"44.31670","Longitude":"-96.76670","Snowdepth":"13.000","Units":"in","Rept_Date":"2020-01-25 14"},"coordinates":[111,5504]},{"type":"Point","properties":{"Station_ID":"BKEM5","Station_Nam":"BRECKENRIDGE 4NE","Latitude":"46.30470","Longitude":"-96.52170","Snowdepth":"13.000","Units":"in","Rept_Date":"2020-01-25 13"},"coordinates":[168,6710]},{"type":"Point","properties":{"Station_ID":"AVLV1","Station_Nam":"AVERILL","Latitude":"45.00570","Longitude":"-71.69030","Snowdepth":"13.000","Units":"in","Rept_Date":"2020-01-25 13"},"coordinates":[5996,5922]},{"type":"Point","properties":{"Station_ID":"AMHW3","Station_Nam":"AMHERST-3 SE","Latitude":"44.41280","Longitude":"-89.26390","Snowdepth":"13.000","Units":"in","Rept_Date":"2020-01-25 13"},"coordinates":[1872,5562]},{"type":"Point","properties":{"Station_ID":"VT-WS-7","Station_Nam":"MIDDLESEX 3.1 ENE, VT","Latitude":"44.31799","Longitude":"-72.62650","Snowdepth":"12.500","Units":"in","Rept_Date":"2020-01-25 15"},"coordinates":[5776,5504]},{"type":"Point","properties":{"Station_ID":"VT-ES-1","Station_Nam":"GRANBY 1.4 NW, VT","Latitude":"44.58330","Longitude":"-71.77870","Snowdepth":"12.500","Units":"in","Rept_Date":"2020-01-25 14"},"coordinates":[5975,5665]},{"type":"Point","properties":{"Station_ID":"ME-CM-3","Station_Nam":"NEW GLOUCESTER 3.0 SE, ME","Latitude":"43.92372","Longitude":"-70.25790","Snowdepth":"12.500","Units":"in","Rept_Date":"2020-01-25 12"},"coordinates":[6332,5265]},{"type":"Point","properties":{"Station_ID":"CAN-NS-60","Station_Nam":"SYDNEY FORKS, CAN","Latitude":"46.05645","Longitude":"-60.31510","Snowdepth":"12.500","Units":"in","Rept_Date":"2020-01-25 13"},"coordinates":[8666,6559]},{"type":"Point","properties":{"Station_ID":"WASW3","Station_Nam":"WASHINGTON IS","Latitude":"45.35800","Longitude":"-86.89110","Snowdepth":"12.000","Units":"in","Rept_Date":"2020-01-25 13"},"coordinates":[2428,6135]},{"type":"Point","properties":{"Station_ID":"WABM5","Station_Nam":"WABASHA","Latitude":"44.38500","Longitude":"-92.04860","Snowdepth":"12.000","Units":"in","Rept_Date":"2020-01-25 13"},"coordinates":[1218,5545]},{"type":"Point","properties":{"Station_ID":"THLM5","Station_Nam":"THEILMAN 1SSW","Latitude":"44.28130","Longitude":"-92.19430","Snowdepth":"12.000","Units":"in","Rept_Date":"2020-01-25 13"},"coordinates":[1184,5482]},{"type":"Point","properties":{"Station_ID":"STPW3","Station_Nam":"STEVENS POINT","Latitude":"44.51130","Longitude":"-89.58550","Snowdepth":"12.000","Units":"in","Rept_Date":"2020-01-25 12"},"coordinates":[1796,5622]},{"type":"Point","properties":{"Station_ID":"SHHW3","Station_Nam":"SHAWANO 2SSW","Latitude":"44.76310","Longitude":"-88.61830","Snowdepth":"12.000","Units":"in","Rept_Date":"2020-01-25 14"},"coordinates":[2023,5774]},{"type":"Point","properties":{"Station_ID":"SD-BK-7","Station_Nam":"BROOKINGS 0.2 SSW, SD","Latitude":"44.30389","Longitude":"-96.78780","Snowdepth":"12.000","Units":"in","Rept_Date":"2020-01-25 13"},"coordinates":[106,5496]},{"type":"Point","properties":{"Station_ID":"SANI4","Station_Nam":"ST ANSGAR","Latitude":"43.38170","Longitude":"-92.92320","Snowdepth":"12.000","Units":"in","Rept_Date":"2020-01-25 12"},"coordinates":[1013,4936]},{"type":"Point","properties":{"Station_ID":"PELW3","Station_Nam":"PELLA 3SE","Latitude":"44.73580","Longitude":"-88.73780","Snowdepth":"12.000","Units":"in","Rept_Date":"2020-01-25 11"},"coordinates":[1995,5758]},{"type":"Point","properties":{"Station_ID":"NUMN3","Station_Nam":"NORTHUMBERLAND","Latitude":"44.52830","Longitude":"-71.50440","Snowdepth":"12.000","Units":"in","Rept_Date":"2020-01-25 13"},"coordinates":[6040,5632]},{"type":"Point","properties":{"Station_ID":"NH-GR-49","Station_Nam":"PLYMOUTH 3.7 N, NH","Latitude":"43.79048","Longitude":"-71.68413","Snowdepth":"12.000","Units":"in","Rept_Date":"2020-01-25 12"},"coordinates":[5997,5184]},{"type":"Point","properties":{"Station_ID":"NH-CR-11","Station_Nam":"NORTH CONWAY 1.4 SSW, NH","Latitude":"44.03556","Longitude":"-71.14010","Snowdepth":"12.000","Units":"in","Rept_Date":"2020-01-25 12"},"coordinates":[6125,5333]},{"type":"Point","properties":{"Station_ID":"MONW3","Station_Nam":"MONROE,WI","Latitude":"42.60000","Longitude":"-89.66670","Snowdepth":"12.000","Units":"in","Rept_Date":"2020-01-25 13"},"coordinates":[1777,4462]},{"type":"Point","properties":{"Station_ID":"MN-SR-29","Station_Nam":"ALBANY 3.8 S, MN","Latitude":"45.57441","Longitude":"-94.55543","Snowdepth":"12.000","Units":"in","Rept_Date":"2020-01-25 13"},"coordinates":[630,6267]},{"type":"Point","properties":{"Station_ID":"MN-SH-985","Station_Nam":"PRINCETON 3.3 WSW, MN","Latitude":"45.55211","Longitude":"-93.64481","Snowdepth":"12.000","Units":"in","Rept_Date":"2020-01-25 13"},"coordinates":[843,6253]},{"type":"Point","properties":{"Station_ID":"MN-SH-10","Station_Nam":"BIG LAKE 5.6 NNE, MN","Latitude":"45.41409","Longitude":"-93.69190","Snowdepth":"12.000","Units":"in","Rept_Date":"2020-01-25 13"},"coordinates":[832,6169]},{"type":"Point","properties":{"Station_ID":"MLRM5","Station_Nam":"MELROSE","Latitude":"45.67710","Longitude":"-94.80200","Snowdepth":"12.000","Units":"in","Rept_Date":"2020-01-25 13"},"coordinates":[572,6329]},{"type":"Point","properties":{"Station_ID":"ISLV1","Station_Nam":"ISLAND POND","Latitude":"44.81280","Longitude":"-71.89020","Snowdepth":"12.000","Units":"in","Rept_Date":"2020-01-25 15"},"coordinates":[5949,5805]},{"type":"Point","properties":{"Station_ID":"ISEM5","Station_Nam":"ISLE 12N","Latitude":"46.31970","Longitude":"-93.50140","Snowdepth":"12.000","Units":"in","Rept_Date":"2020-01-25 14"},"coordinates":[877,6719]},{"type":"Point","properties":{"Station_ID":"HORW3","Station_Nam":"HORICON WWTP","Latitude":"43.45000","Longitude":"-88.63330","Snowdepth":"12.000","Units":"in","Rept_Date":"2020-01-25 14"},"coordinates":[2020,4978]},{"type":"Point","properties":{"Station_ID":"FYTI4","Station_Nam":"FAYETTE","Latitude":"42.88300","Longitude":"-91.83020","Snowdepth":"12.000","Units":"in","Rept_Date":"2020-01-25 13"},"coordinates":[1269,4634]},{"type":"Point","properties":{"Station_ID":"FORM5","Station_Nam":"FOREST LAKE 5NE","Latitude":"45.33170","Longitude":"-92.89820","Snowdepth":"12.000","Units":"in","Rept_Date":"2020-01-25 13"},"coordinates":[1019,6119]},{"type":"Point","properties":{"Station_ID":"FARM1","Station_Nam":"FARMINGTON","Latitude":"44.68930","Longitude":"-70.15640","Snowdepth":"12.000","Units":"in","Rept_Date":"2020-01-25 12"},"coordinates":[6356,5730]},{"type":"Point","properties":{"Station_ID":"ESGM1","Station_Nam":"EAST SANGERVILLE","Latitude":"45.13690","Longitude":"-69.28060","Snowdepth":"12.000","Units":"in","Rept_Date":"2020-01-25 12"},"coordinates":[6562,6001]},{"type":"Point","properties":{"Station_ID":"CNTW3","Station_Nam":"CLINTONVILLE","Latitude":"44.62270","Longitude":"-88.74830","Snowdepth":"12.000","Units":"in","Rept_Date":"2020-01-25 13"},"coordinates":[1993,5689]},{"type":"Point","properties":{"Station_ID":"CHPW3","Station_Nam":"CHIPPEWA FALLS","Latitude":"44.92770","Longitude":"-91.40810","Snowdepth":"12.000","Units":"in","Rept_Date":"2020-01-25 14"},"coordinates":[1368,5874]},{"type":"Point","properties":{"Station_ID":"CAN-NS-103","Station_Nam":"TRAFALGAR 4.9 WSW, CAN","Latitude":"45.26217","Longitude":"-62.72285","Snowdepth":"12.000","Units":"in","Rept_Date":"2020-01-25 11"},"coordinates":[8101,6077]},{"type":"Point","properties":{"Station_ID":"BMRW3","Station_Nam":"BLOOMER","Latitude":"45.09070","Longitude":"-91.48640","Snowdepth":"12.000","Units":"in","Rept_Date":"2020-01-25 14"},"coordinates":[1350,5973]},{"type":"Point","properties":{"Station_ID":"BEAW3","Station_Nam":"BEAVER DAM,WI","Latitude":"43.45000","Longitude":"-88.85000","Snowdepth":"12.000","Units":"in","Rept_Date":"2020-01-25 13"},"coordinates":[1969,4978]},{"type":"Point","properties":{"Station_ID":"APXM4","Station_Nam":"GAYLORD 9SSW","Latitude":"44.90720","Longitude":"-84.71880","Snowdepth":"12.000","Units":"in","Rept_Date":"2020-01-26 06"},"coordinates":[2938,5862]},{"type":"Point","properties":{"Station_ID":"ALTM5","Station_Nam":"ALTURA 5W","Latitude":"44.06330","Longitude":"-92.03970","Snowdepth":"12.000","Units":"in","Rept_Date":"2020-01-25 13"},"coordinates":[1220,5350]},{"type":"Point","properties":{"Station_ID":"CAN-MB-298","Station_Nam":"GARDENTON 4.2 W - SRRCD, CAN","Latitude":"49.09480","Longitude":"-96.75446","Snowdepth":"11.800","Units":"in","Rept_Date":"2020-01-25 14"},"coordinates":[114,8402]},{"type":"Point","properties":{"Station_ID":"WI-WN-9","Station_Nam":"NEENAH 1.1 ENE, WI","Latitude":"44.17370","Longitude":"-88.45130","Snowdepth":"11.500","Units":"in","Rept_Date":"2020-01-25 13"},"coordinates":[2062,5417]},{"type":"Point","properties":{"Station_ID":"WI-WH-7","Station_Nam":"WILD ROSE 0.5 E, WI","Latitude":"44.17764","Longitude":"-89.23812","Snowdepth":"11.500","Units":"in","Rept_Date":"2020-01-25 13"},"coordinates":[1878,5419]},{"type":"Point","properties":{"Station_ID":"WI-DN-5","Station_Nam":"ELK MOUND 1.3 NE, WI","Latitude":"44.88627","Longitude":"-91.66680","Snowdepth":"11.500","Units":"in","Rept_Date":"2020-01-25 13"},"coordinates":[1308,5849]},{"type":"Point","properties":{"Station_ID":"WI-DA-35","Station_Nam":"MADISON 5.5 N, WI","Latitude":"43.15858","Longitude":"-89.37280","Snowdepth":"11.500","Units":"in","Rept_Date":"2020-01-25 14"},"coordinates":[1846,4801]},{"type":"Point","properties":{"Station_ID":"SD-BK-2","Station_Nam":"ASTORIA 2.2 SSE, SD","Latitude":"44.53093","Longitude":"-96.52270","Snowdepth":"11.500","Units":"in","Rept_Date":"2020-01-25 13"},"coordinates":[168,5634]},{"type":"Point","properties":{"Station_ID":"WWWW3","Station_Nam":"WAUPACA","Latitude":"44.35470","Longitude":"-89.05920","Snowdepth":"11.000","Units":"in","Rept_Date":"2020-01-25 14"},"coordinates":[1920,5527]},{"type":"Point","properties":{"Station_ID":"WMRM5","Station_Nam":"WILLMAR 5N","Latitude":"45.19010","Longitude":"-95.05860","Snowdepth":"11.000","Units":"in","Rept_Date":"2020-01-25 12"},"coordinates":[512,6033]},{"type":"Point","properties":{"Station_ID":"WI-WD-2","Station_Nam":"WISCONSIN RAPIDS 4.6 SSE, WI","Latitude":"44.33823","Longitude":"-89.78200","Snowdepth":"11.000","Units":"in","Rept_Date":"2020-01-25 22"},"coordinates":[1750,5517]},{"type":"Point","properties":{"Station_ID":"WI-OG-18","Station_Nam":"NEW LONDON 4.1 N, WI","Latitude":"44.45298","Longitude":"-88.72876","Snowdepth":"11.000","Units":"in","Rept_Date":"2020-01-25 12"},"coordinates":[1997,5586]},{"type":"Point","properties":{"Station_ID":"WI-IW-3","Station_Nam":"MINERAL POINT 7.3 ENE, WI","Latitude":"42.91400","Longitude":"-90.05700","Snowdepth":"11.000","Units":"in","Rept_Date":"2020-01-25 13"},"coordinates":[1685,4653]},{"type":"Point","properties":{"Station_ID":"WI-DR-5","Station_Nam":"ELLISON BAY 2.2 E, WI","Latitude":"45.25750","Longitude":"-87.02670","Snowdepth":"11.000","Units":"in","Rept_Date":"2020-01-25 13"},"coordinates":[2397,6074]},{"type":"Point","properties":{"Station_ID":"WI-DA-45","Station_Nam":"MADISON 6.1 W, WI","Latitude":"43.06948","Longitude":"-89.50788","Snowdepth":"11.000","Units":"in","Rept_Date":"2020-01-25 13"},"coordinates":[1814,4747]},{"type":"Point","properties":{"Station_ID":"WAOW3","Station_Nam":"WAUTOMA SILVER LAKE SANITARY DISTRICT","Latitude":"44.04110","Longitude":"-89.24330","Snowdepth":"11.000","Units":"in","Rept_Date":"2020-01-25 14"},"coordinates":[1876,5336]},{"type":"Point","properties":{"Station_ID":"VT-OG-11","Station_Nam":"VERSHIRE 1.5 ESE, VT","Latitude":"43.96138","Longitude":"-72.29777","Snowdepth":"11.000","Units":"in","Rept_Date":"2020-01-25 13"},"coordinates":[5853,5288]},{"type":"Point","properties":{"Station_ID":"TAHW3","Station_Nam":"TAYCHEEDAH","Latitude":"43.83390","Longitude":"-88.34690","Snowdepth":"11.000","Units":"in","Rept_Date":"2020-01-25 13"},"coordinates":[2087,5211]},{"type":"Point","properties":{"Station_ID":"NPTV1","Station_Nam":"NEWPORT","Latitude":"44.94900","Longitude":"-72.19120","Snowdepth":"11.000","Units":"in","Rept_Date":"2020-01-25 12"},"coordinates":[5878,5887]},{"type":"Point","properties":{"Station_ID":"NH-CS-4","Station_Nam":"PITTSBURG 6.1 NE, NH","Latitude":"45.11060","Longitude":"-71.29760","Snowdepth":"11.000","Units":"in","Rept_Date":"2020-01-25 12"},"coordinates":[6088,5985]},{"type":"Point","properties":{"Station_ID":"NH-CR-26","Station_Nam":"CENTER SANDWICH 4.9 E, NH","Latitude":"43.80976","Longitude":"-71.34150","Snowdepth":"11.000","Units":"in","Rept_Date":"2020-01-25 12"},"coordinates":[6078,5196]},{"type":"Point","properties":{"Station_ID":"NH-CR-15","Station_Nam":"JACKSON 3.7 NW, NH","Latitude":"44.19069","Longitude":"-71.22598","Snowdepth":"11.000","Units":"in","Rept_Date":"2020-01-25 12"},"coordinates":[6105,5427]},{"type":"Point","properties":{"Station_ID":"MRQM4","Station_Nam":"MARQUETTE WFP","Latitude":"46.54580","Longitude":"-87.37950","Snowdepth":"11.000","Units":"in","Rept_Date":"2020-01-25 13"},"coordinates":[2314,6856]},{"type":"Point","properties":{"Station_ID":"MRBW3","Station_Nam":"MT HOREB","Latitude":"42.98030","Longitude":"-89.73940","Snowdepth":"11.000","Units":"in","Rept_Date":"2020-01-25 13"},"coordinates":[1760,4693]},{"type":"Point","properties":{"Station_ID":"MNG0GYSN","Station_Nam":"LONSDALE 1.1 SSW","Latitude":"44.46445","Longitude":"-93.43293","Snowdepth":"11.000","Units":"in","Rept_Date":"2020-01-25 12"},"coordinates":[893,5593]},{"type":"Point","properties":{"Station_ID":"MN228YHJ","Station_Nam":"RICE 2.8 ESE","Latitude":"45.73609","Longitude":"-94.17230","Snowdepth":"11.000","Units":"in","Rept_Date":"2020-01-25 13"},"coordinates":[720,6365]},{"type":"Point","properties":{"Station_ID":"MN-RC-1","Station_Nam":"MONTGOMERY 3.2 ENE, MN","Latitude":"44.46400","Longitude":"-93.51980","Snowdepth":"11.000","Units":"in","Rept_Date":"2020-01-25 12"},"coordinates":[873,5593]},{"type":"Point","properties":{"Station_ID":"MN-CG-16","Station_Nam":"NORTH BRANCH 1.3 NNW, MN","Latitude":"45.53121","Longitude":"-92.97110","Snowdepth":"11.000","Units":"in","Rept_Date":"2020-01-25 12"},"coordinates":[1002,6240]},{"type":"Point","properties":{"Station_ID":"MENM4","Station_Nam":"MENOMINEE NO.2","Latitude":"45.11100","Longitude":"-87.61170","Snowdepth":"11.000","Units":"in","Rept_Date":"2020-01-25 14"},"coordinates":[2259,5985]},{"type":"Point","properties":{"Station_ID":"ME-AN-32","Station_Nam":"WINTHROP 9.4 W, ME","Latitude":"44.30476","Longitude":"-70.15835","Snowdepth":"11.000","Units":"in","Rept_Date":"2020-01-25 12"},"coordinates":[6356,5496]},{"type":"Point","properties":{"Station_ID":"MDDW3","Station_Nam":"MIDDLETON,WI","Latitude":"43.09060","Longitude":"-89.51470","Snowdepth":"11.000","Units":"in","Rept_Date":"2020-01-25 13"},"coordinates":[1813,4760]},{"type":"Point","properties":{"Station_ID":"LACN3","Station_Nam":"LACONIA","Latitude":"43.53010","Longitude":"-71.46260","Snowdepth":"11.000","Units":"in","Rept_Date":"2020-01-25 12"},"coordinates":[6049,5026]},{"type":"Point","properties":{"Station_ID":"JEFN3","Station_Nam":"JEFFERSON","Latitude":"44.41690","Longitude":"-71.50080","Snowdepth":"11.000","Units":"in","Rept_Date":"2020-01-25 12"},"coordinates":[6040,5564]},{"type":"Point","properties":{"Station_ID":"HRTM1","Station_Nam":"HARTFORD","Latitude":"44.37440","Longitude":"-70.31620","Snowdepth":"11.000","Units":"in","Rept_Date":"2020-01-25 12"},"coordinates":[6318,5539]},{"type":"Point","properties":{"Station_ID":"GMDM5","Station_Nam":"GRAND MEADOW","Latitude":"43.70740","Longitude":"-92.56440","Snowdepth":"11.000","Units":"in","Rept_Date":"2020-01-25 12"},"coordinates":[1097,5134]},{"type":"Point","properties":{"Station_ID":"ESDN3","Station_Nam":"EAST SANDWICH","Latitude":"43.80990","Longitude":"-71.34250","Snowdepth":"11.000","Units":"in","Rept_Date":"2020-01-25 11"},"coordinates":[6078,5196]},{"type":"Point","properties":{"Station_ID":"EJDM4","Station_Nam":"EAST JORDAN","Latitude":"45.15190","Longitude":"-85.13220","Snowdepth":"11.000","Units":"in","Rept_Date":"2020-01-25 13"},"coordinates":[2841,6010]},{"type":"Point","properties":{"Station_ID":"DURM1","Station_Nam":"DURHAM","Latitude":"43.99960","Longitude":"-70.09630","Snowdepth":"11.000","Units":"in","Rept_Date":"2020-01-25 12"},"coordinates":[6370,5311]},{"type":"Point","properties":{"Station_ID":"DTVM4","Station_Nam":"DETOUR VILLAGE","Latitude":"45.99830","Longitude":"-83.90130","Snowdepth":"11.000","Units":"in","Rept_Date":"2020-01-25 13"},"coordinates":[3130,6524]},{"type":"Point","properties":{"Station_ID":"CDLM4","Station_Nam":"CADILLAC 9&10 NEWS","Latitude":"44.21130","Longitude":"-85.40860","Snowdepth":"11.000","Units":"in","Rept_Date":"2020-01-25 12"},"coordinates":[2776,5440]},{"type":"Point","properties":{"Station_ID":"CAN-QC-51","Station_Nam":"BELOEIL 0.7 NW, CAN","Latitude":"45.58049","Longitude":"-73.21218","Snowdepth":"11.000","Units":"in","Rept_Date":"2020-01-25 12"},"coordinates":[5639,6270]},{"type":"Point","properties":{"Station_ID":"CAN-PE-50","Station_Nam":"BEDFORD CORNER 3.9 WNW, CAN","Latitude":"46.34628","Longitude":"-63.06157","Snowdepth":"11.000","Units":"in","Rept_Date":"2020-01-25 11"},"coordinates":[8021,6735]},{"type":"Point","properties":{"Station_ID":"CAN-ON-245","Station_Nam":"PHELPSTON 3.1 ESE, CAN","Latitude":"44.50564","Longitude":"-79.81035","Snowdepth":"11.000","Units":"in","Rept_Date":"2020-01-25 15"},"coordinates":[4090,5618]},{"type":"Point","properties":{"Station_ID":"BRLW3","Station_Nam":"BRILLION,WI","Latitude":"44.18330","Longitude":"-88.06670","Snowdepth":"11.000","Units":"in","Rept_Date":"2020-01-25 13"},"coordinates":[2153,5423]},{"type":"Point","properties":{"Station_ID":"APPW3","Station_Nam":"APPLETON","Latitude":"44.27690","Longitude":"-88.43770","Snowdepth":"11.000","Units":"in","Rept_Date":"2020-01-25 12"},"coordinates":[2066,5479]},{"type":"Point","properties":{"Station_ID":"WI-DA-33","Station_Nam":"OREGON 0.4 SSW, WI","Latitude":"42.92080","Longitude":"-89.38540","Snowdepth":"10.500","Units":"in","Rept_Date":"2020-01-25 14"},"coordinates":[1843,4657]},{"type":"Point","properties":{"Station_ID":"WI-CT-4","Station_Nam":"MENASHA 5.4 ESE, WI","Latitude":"44.19640","Longitude":"-88.33070","Snowdepth":"10.500","Units":"in","Rept_Date":"2020-01-25 13"},"coordinates":[2091,5431]},{"type":"Point","properties":{"Station_ID":"MN-HN-181","Station_Nam":"MINNEAPOLIS 0.4 NE, MN","Latitude":"44.96708","Longitude":"-93.26222","Snowdepth":"10.500","Units":"in","Rept_Date":"2020-01-25 13"},"coordinates":[933,5898]},{"type":"Point","properties":{"Station_ID":"IL-WN-26","Station_Nam":"ROCKFORD 1.5 ENE, IL","Latitude":"42.27775","Longitude":"-89.03590","Snowdepth":"10.500","Units":"in","Rept_Date":"2020-01-25 15"},"coordinates":[1925,4267]},{"type":"Point","properties":{"Station_ID":"CAN-NB-1","Station_Nam":"FREDERICTON 4.0 SSE, CA","Latitude":"45.92897","Longitude":"-66.62830","Snowdepth":"10.200","Units":"in","Rept_Date":"2020-01-25 11"},"coordinates":[7184,6482]},{"type":"Point","properties":{"Station_ID":"WNNM5","Station_Nam":"WINNEBAGO","Latitude":"43.76920","Longitude":"-94.18730","Snowdepth":"10.000","Units":"in","Rept_Date":"2020-01-25 14"},"coordinates":[716,5171]},{"type":"Point","properties":{"Station_ID":"WNDM1","Station_Nam":"WINDHAM 2NW","Latitude":"43.85670","Longitude":"-70.46630","Snowdepth":"10.000","Units":"in","Rept_Date":"2020-01-25 12"},"coordinates":[6283,5225]},{"type":"Point","properties":{"Station_ID":"WI-WS-30","Station_Nam":"HARTFORD 2.9 ENE, WI","Latitude":"43.34256","Longitude":"-88.33687","Snowdepth":"10.000","Units":"in","Rept_Date":"2020-01-25 13"},"coordinates":[2089,4913]},{"type":"Point","properties":{"Station_ID":"WI-WN-5","Station_Nam":"OSHKOSH 5.2 N, WI","Latitude":"44.09351","Longitude":"-88.55310","Snowdepth":"10.000","Units":"in","Rept_Date":"2020-01-25 13"},"coordinates":[2038,5368]},{"type":"Point","properties":{"Station_ID":"WI-WN-19","Station_Nam":"OSHKOSH 1.6 ESE, WI","Latitude":"44.01097","Longitude":"-88.52354","Snowdepth":"10.000","Units":"in","Rept_Date":"2020-01-25 13"},"coordinates":[2045,5318]},{"type":"Point","properties":{"Station_ID":"WI-VR-1","Station_Nam":"HILLSBORO 0.5 WSW, WI","Latitude":"43.65138","Longitude":"-90.34753","Snowdepth":"10.000","Units":"in","Rept_Date":"2020-01-25 13"},"coordinates":[1617,5100]},{"type":"Point","properties":{"Station_ID":"WI-PK-4","Station_Nam":"DRESSER 6.1 ESE, WI","Latitude":"45.32436","Longitude":"-92.52080","Snowdepth":"10.000","Units":"in","Rept_Date":"2020-01-25 14"},"coordinates":[1107,6115]},{"type":"Point","properties":{"Station_ID":"WI-DA-46","Station_Nam":"MADISON 6.4 W, WI","Latitude":"43.08337","Longitude":"-89.51503","Snowdepth":"10.000","Units":"in","Rept_Date":"2020-01-25 13"},"coordinates":[1813,4755]},{"type":"Point","properties":{"Station_ID":"WI-DA-39","Station_Nam":"MADISON 4.0 W, WI","Latitude":"43.07741","Longitude":"-89.46757","Snowdepth":"10.000","Units":"in","Rept_Date":"2020-01-25 13"},"coordinates":[1824,4752]},{"type":"Point","properties":{"Station_ID":"WHTM5","Station_Nam":"WHEATON,MN","Latitude":"45.80000","Longitude":"-96.48330","Snowdepth":"10.000","Units":"in","Rept_Date":"2020-01-25 14"},"coordinates":[177,6403]},{"type":"Point","properties":{"Station_ID":"WDOM5","Station_Nam":"WINDOM","Latitude":"43.87700","Longitude":"-95.11590","Snowdepth":"10.000","Units":"in","Rept_Date":"2020-01-25 14"},"coordinates":[498,5237]},{"type":"Point","properties":{"Station_ID":"TCEM4","Station_Nam":"TRAVERSE CITY 5ESE","Latitude":"44.73370","Longitude":"-85.51180","Snowdepth":"10.000","Units":"in","Rept_Date":"2020-01-25 12"},"coordinates":[2752,5757]},{"type":"Point","properties":{"Station_ID":"STIM4","Station_Nam":"ST IGNACE","Latitude":"45.86080","Longitude":"-84.71960","Snowdepth":"10.000","Units":"in","Rept_Date":"2020-01-25 12"},"coordinates":[2938,6440]},{"type":"Point","properties":{"Station_ID":"PTBN3","Station_Nam":"PITTSBURG RESERVOIR","Latitude":"45.04690","Longitude":"-71.38300","Snowdepth":"10.000","Units":"in","Rept_Date":"2020-01-25 12"},"coordinates":[6068,5947]},{"type":"Point","properties":{"Station_ID":"PSHW3","Station_Nam":"PESHTIGO","Latitude":"45.02810","Longitude":"-87.73560","Snowdepth":"10.000","Units":"in","Rept_Date":"2020-01-25 13"},"coordinates":[2230,5935]},{"type":"Point","properties":{"Station_ID":"POLM1","Station_Nam":"POLAND","Latitude":"44.00700","Longitude":"-70.36140","Snowdepth":"10.000","Units":"in","Rept_Date":"2020-01-25 12"},"coordinates":[6308,5316]},{"type":"Point","properties":{"Station_ID":"PLOW3","Station_Nam":"PLOVER","Latitude":"44.44280","Longitude":"-89.54530","Snowdepth":"10.000","Units":"in","Rept_Date":"2020-01-25 13"},"coordinates":[1806,5580]},{"type":"Point","properties":{"Station_ID":"PEAI4","Station_Nam":"PELLA,IA","Latitude":"41.46670","Longitude":"-92.91670","Snowdepth":"10.000","Units":"in","Rept_Date":"2020-01-25 13"},"coordinates":[1014,3775]},{"type":"Point","properties":{"Station_ID":"OSNW3","Station_Nam":"OSHKOSH-NORTH","Latitude":"44.03500","Longitude":"-88.54390","Snowdepth":"10.000","Units":"in","Rept_Date":"2020-01-25 13"},"coordinates":[2041,5333]},{"type":"Point","properties":{"Station_ID":"OOHW3","Station_Nam":"OSHKOSH 5 N","Latitude":"44.09360","Longitude":"-88.55310","Snowdepth":"10.000","Units":"in","Rept_Date":"2020-01-25 13"},"coordinates":[2038,5368]},{"type":"Point","properties":{"Station_ID":"NCON3","Station_Nam":"NORTH CONWAY","Latitude":"44.05620","Longitude":"-71.12970","Snowdepth":"10.000","Units":"in","Rept_Date":"2020-01-25 13"},"coordinates":[6128,5346]},{"type":"Point","properties":{"Station_ID":"MTAI4","Station_Nam":"MOUNT AYR,IA","Latitude":"40.68280","Longitude":"-94.29440","Snowdepth":"10.000","Units":"in","Rept_Date":"2020-01-25 13"},"coordinates":[691,3299]},{"type":"Point","properties":{"Station_ID":"MN-RM-2","Station_Nam":"NORTH SAINT PAUL 1.0 NNW, MN","Latitude":"45.02629","Longitude":"-93.00790","Snowdepth":"10.000","Units":"in","Rept_Date":"2020-01-25 12"},"coordinates":[993,5934]},{"type":"Point","properties":{"Station_ID":"MN-OL-991","Station_Nam":"ELBA 4.7 SW, MN","Latitude":"44.04147","Longitude":"-92.08819","Snowdepth":"10.000","Units":"in","Rept_Date":"2020-01-25 19"},"coordinates":[1209,5337]},{"type":"Point","properties":{"Station_ID":"MN-MC-16","Station_Nam":"HUTCHINSON 0.1 ENE, MN","Latitude":"44.88633","Longitude":"-94.37503","Snowdepth":"10.000","Units":"in","Rept_Date":"2020-01-25 13"},"coordinates":[672,5849]},{"type":"Point","properties":{"Station_ID":"MN-DK-73","Station_Nam":"LAKEVILLE 2.6 NNE, MN","Latitude":"44.71250","Longitude":"-93.23043","Snowdepth":"10.000","Units":"in","Rept_Date":"2020-01-25 13"},"coordinates":[941,5744]},{"type":"Point","properties":{"Station_ID":"MN-DK-70","Station_Nam":"EAGAN 2.0 NNW, MN","Latitude":"44.84322","Longitude":"-93.17899","Snowdepth":"10.000","Units":"in","Rept_Date":"2020-01-25 15"},"coordinates":[953,5823]},{"type":"Point","properties":{"Station_ID":"MIAM5","Station_Nam":"MILAN 1NW","Latitude":"45.12190","Longitude":"-95.92690","Snowdepth":"10.000","Units":"in","Rept_Date":"2020-01-26 00"},"coordinates":[308,5992]},{"type":"Point","properties":{"Station_ID":"MI-GT-25","Station_Nam":"TRAVERSE CITY 4.7 ESE, MI","Latitude":"44.73370","Longitude":"-85.51189","Snowdepth":"10.000","Units":"in","Rept_Date":"2020-01-25 12"},"coordinates":[2752,5757]},{"type":"Point","properties":{"Station_ID":"MI-GT-21","Station_Nam":"KINGSLEY 2.7 ENE, MI","Latitude":"44.59871","Longitude":"-85.48426","Snowdepth":"10.000","Units":"in","Rept_Date":"2020-01-25 13"},"coordinates":[2759,5675]},{"type":"Point","properties":{"Station_ID":"MAPM4","Station_Nam":"MAPLE CITY 1E","Latitude":"44.85500","Longitude":"-85.83520","Snowdepth":"10.000","Units":"in","Rept_Date":"2020-01-26 01"},"coordinates":[2676,5830]},{"type":"Point","properties":{"Station_ID":"LODW3","Station_Nam":"LODI","Latitude":"43.32170","Longitude":"-89.53110","Snowdepth":"10.000","Units":"in","Rept_Date":"2020-01-25 13"},"coordinates":[1809,4900]},{"type":"Point","properties":{"Station_ID":"LNCM1","Station_Nam":"LINCOLN WATER DISTRICT","Latitude":"45.32410","Longitude":"-68.58300","Snowdepth":"10.000","Units":"in","Rept_Date":"2020-01-25 12"},"coordinates":[6725,6115]},{"type":"Point","properties":{"Station_ID":"LBKV1","Station_Nam":"LYE BROOK","Latitude":"43.05000","Longitude":"-73.03330","Snowdepth":"10.000","Units":"in","Rept_Date":"2020-01-26 06"},"coordinates":[5681,4735]},{"type":"Point","properties":{"Station_ID":"KIMM5","Station_Nam":"KIMBALL 3N","Latitude":"45.35330","Longitude":"-94.30560","Snowdepth":"10.000","Units":"in","Rept_Date":"2020-01-25 12"},"coordinates":[688,6132]},{"type":"Point","properties":{"Station_ID":"IA-KS-4","Station_Nam":"ALGONA 0.7 SE, IA","Latitude":"43.06627","Longitude":"-94.22214","Snowdepth":"10.000","Units":"in","Rept_Date":"2020-01-25 13"},"coordinates":[708,4745]},{"type":"Point","properties":{"Station_ID":"HMYM1","Station_Nam":"HARMONY","Latitude":"44.94660","Longitude":"-69.54560","Snowdepth":"10.000","Units":"in","Rept_Date":"2020-01-25 12"},"coordinates":[6499,5886]},{"type":"Point","properties":{"Station_ID":"GRCM7","Station_Nam":"GREEN CITY","Latitude":"40.35030","Longitude":"-92.94920","Snowdepth":"10.000","Units":"in","Rept_Date":"2020-01-25 13"},"coordinates":[1007,3097]},{"type":"Point","properties":{"Station_ID":"GHMN3","Station_Nam":"PINKHAM NOTCH","Latitude":"44.25800","Longitude":"-71.25250","Snowdepth":"10.000","Units":"in","Rept_Date":"2020-01-25 11"},"coordinates":[6099,5468]},{"type":"Point","properties":{"Station_ID":"FLAM4","Station_Nam":"FIFE LAKE 2WNW","Latitude":"44.58480","Longitude":"-85.36530","Snowdepth":"10.000","Units":"in","Rept_Date":"2020-01-25 12"},"coordinates":[2787,5666]},{"type":"Point","properties":{"Station_ID":"ENFV1","Station_Nam":"ENOSBURG FALLS 2","Latitude":"44.90960","Longitude":"-72.81370","Snowdepth":"10.000","Units":"in","Rept_Date":"2020-01-25 14"},"coordinates":[5732,5863]},{"type":"Point","properties":{"Station_ID":"EGNM5","Station_Nam":"ELGIN 2SSW","Latitude":"44.09700","Longitude":"-92.27010","Snowdepth":"10.000","Units":"in","Rept_Date":"2020-01-25 13"},"coordinates":[1166,5370]},{"type":"Point","properties":{"Station_ID":"DENW3","Station_Nam":"DENMARK WWTP","Latitude":"44.35130","Longitude":"-87.81190","Snowdepth":"10.000","Units":"in","Rept_Date":"2020-01-25 14"},"coordinates":[2212,5525]},{"type":"Point","properties":{"Station_ID":"CRCI4","Station_Nam":"CRESCO 1NE","Latitude":"43.38940","Longitude":"-92.09380","Snowdepth":"10.000","Units":"in","Rept_Date":"2020-01-25 15"},"coordinates":[1207,4941]},{"type":"Point","properties":{"Station_ID":"CMRI4","Station_Nam":"CALMAR NE","Latitude":"43.18760","Longitude":"-91.86200","Snowdepth":"10.000","Units":"in","Rept_Date":"2020-01-25 13"},"coordinates":[1262,4819]},{"type":"Point","properties":{"Station_ID":"CLIW3","Station_Nam":"CLINTON,WI","Latitude":"42.60000","Longitude":"-88.88330","Snowdepth":"10.000","Units":"in","Rept_Date":"2020-01-25 13"},"coordinates":[1961,4462]},{"type":"Point","properties":{"Station_ID":"CHMW3","Station_Nam":"MADISON,WI","Latitude":"43.06030","Longitude":"-89.47810","Snowdepth":"10.000","Units":"in","Rept_Date":"2020-01-25 13"},"coordinates":[1821,4741]},{"type":"Point","properties":{"Station_ID":"CHES2","Station_Nam":"CHESTER 2N","Latitude":"43.92830","Longitude":"-96.93160","Snowdepth":"10.000","Units":"in","Rept_Date":"2020-01-25 13"},"coordinates":[72,5268]},{"type":"Point","properties":{"Station_ID":"CAN-PE-10","Station_Nam":"NEW LONDON 1.6 ENE, CA","Latitude":"46.46985","Longitude":"-63.49200","Snowdepth":"10.000","Units":"in","Rept_Date":"2020-01-25 12"},"coordinates":[7920,6810]},{"type":"Point","properties":{"Station_ID":"CAN-ON-208","Station_Nam":"PAKENHAM 7.8 NNW, CAN","Latitude":"45.39166","Longitude":"-76.34111","Snowdepth":"10.000","Units":"in","Rept_Date":"2020-01-25 12"},"coordinates":[4904,6156]},{"type":"Point","properties":{"Station_ID":"BTLN3","Station_Nam":"BARTLETT","Latitude":"44.08380","Longitude":"-71.29340","Snowdepth":"10.000","Units":"in","Rept_Date":"2020-01-25 12"},"coordinates":[6089,5362]},{"type":"Point","properties":{"Station_ID":"BLGW3","Station_Nam":"BELGIUM WWTP","Latitude":"43.51310","Longitude":"-87.85440","Snowdepth":"10.000","Units":"in","Rept_Date":"2020-01-25 13"},"coordinates":[2202,5016]},{"type":"Point","properties":{"Station_ID":"BDMW3","Station_Nam":"BEAVER DAM 1 N","Latitude":"43.46860","Longitude":"-88.83970","Snowdepth":"10.000","Units":"in","Rept_Date":"2020-01-25 17"},"coordinates":[1971,4989]},{"type":"Point","properties":{"Station_ID":"ALLW3","Station_Nam":"ALLENTON","Latitude":"43.42360","Longitude":"-88.35110","Snowdepth":"10.000","Units":"in","Rept_Date":"2020-01-25 13"},"coordinates":[2086,4962]},{"type":"Point","properties":{"Station_ID":"ALGI4","Station_Nam":"ALGONA,IA","Latitude":"43.06670","Longitude":"-94.30610","Snowdepth":"10.000","Units":"in","Rept_Date":"2020-01-25 13"},"coordinates":[688,4745]},{"type":"Point","properties":{"Station_ID":"8D3","Station_Nam":"SISSETON MUNICIPAL AP","Latitude":"45.67080","Longitude":"-96.99610","Snowdepth":"10.000","Units":"in","Rept_Date":"2020-01-26 00"},"coordinates":[57,6325]},{"type":"Point","properties":{"Station_ID":"CAN-NS-163","Station_Nam":"SYDNEY MINES 2.2 WNW, CAN","Latitude":"46.24851","Longitude":"-60.25161","Snowdepth":"9.800","Units":"in","Rept_Date":"2020-01-25 12"},"coordinates":[8681,6676]},{"type":"Point","properties":{"Station_ID":"WI-WK-73","Station_Nam":"MENOMONEE FALLS 3.2 NNW, WI","Latitude":"43.18817","Longitude":"-88.15555","Snowdepth":"9.500","Units":"in","Rept_Date":"2020-01-25 13"},"coordinates":[2132,4819]},{"type":"Point","properties":{"Station_ID":"WI-OZ-17","Station_Nam":"WEST BEND 7.3 E, WI","Latitude":"43.42860","Longitude":"-88.03870","Snowdepth":"9.500","Units":"in","Rept_Date":"2020-01-25 13"},"coordinates":[2159,4965]},{"type":"Point","properties":{"Station_ID":"WI-DD-4","Station_Nam":"BEAVER DAM 1.4 SSW, WI","Latitude":"43.44719","Longitude":"-88.85260","Snowdepth":"9.500","Units":"in","Rept_Date":"2020-01-25 14"},"coordinates":[1968,4976]},{"type":"Point","properties":{"Station_ID":"WI-DA-60","Station_Nam":"MIDDLETON 0.8 SSW, WI","Latitude":"43.09292","Longitude":"-89.51258","Snowdepth":"9.500","Units":"in","Rept_Date":"2020-01-25 14"},"coordinates":[1813,4761]},{"type":"Point","properties":{"Station_ID":"WI-CB-4","Station_Nam":"PORTAGE 5.7 WSW, WI","Latitude":"43.51411","Longitude":"-89.56910","Snowdepth":"9.500","Units":"in","Rept_Date":"2020-01-25 13"},"coordinates":[1800,5017]},{"type":"Point","properties":{"Station_ID":"VT-WR-2","Station_Nam":"POMFRET 2.6 N, VT","Latitude":"43.74230","Longitude":"-72.52550","Snowdepth":"9.500","Units":"in","Rept_Date":"2020-01-25 12"},"coordinates":[5800,5155]},{"type":"Point","properties":{"Station_ID":"MI-MC-4","Station_Nam":"ST. IGNACE 0.5SE, MI","Latitude":"45.86057","Longitude":"-84.71980","Snowdepth":"9.500","Units":"in","Rept_Date":"2020-01-25 12"},"coordinates":[2938,6440]},{"type":"Point","properties":{"Station_ID":"MI-BZ-1","Station_Nam":"BENZONIA 5.3 S, MI","Latitude":"44.53976","Longitude":"-86.10650","Snowdepth":"9.500","Units":"in","Rept_Date":"2020-01-25 14"},"coordinates":[2613,5639]},{"type":"Point","properties":{"Station_ID":"ME-CM-54","Station_Nam":"WINDHAM 3.9 NW, ME","Latitude":"43.85787","Longitude":"-70.46200","Snowdepth":"9.500","Units":"in","Rept_Date":"2020-01-25 12"},"coordinates":[6284,5225]},{"type":"Point","properties":{"Station_ID":"IA-LN-39","Station_Nam":"CEDAR RAPIDS 2.5 WSW, IA","Latitude":"41.95474","Longitude":"-91.71049","Snowdepth":"9.500","Units":"in","Rept_Date":"2020-01-25 14"},"coordinates":[1297,4071]},{"type":"Point","properties":{"Station_ID":"WSTW3","Station_Nam":"WEST BEND -FIRE","Latitude":"43.43138","Longitude":"-88.16111","Snowdepth":"9.000","Units":"in","Rept_Date":"2020-01-25 13"},"coordinates":[2130,4967]},{"type":"Point","properties":{"Station_ID":"WMTI4","Station_Nam":"FORT DODGE,IA","Latitude":"42.50610","Longitude":"-94.20110","Snowdepth":"9.000","Units":"in","Rept_Date":"2020-01-25 15"},"coordinates":[713,4405]},{"type":"Point","properties":{"Station_ID":"WLBI4","Station_Nam":"WILLIAMSBURG 3 SE","Latitude":"41.64020","Longitude":"-91.97840","Snowdepth":"9.000","Units":"in","Rept_Date":"2020-01-25 13"},"coordinates":[1235,3880]},{"type":"Point","properties":{"Station_ID":"WI-WS-4","Station_Nam":"KEWASKUM 1.8 WNW, WI","Latitude":"43.52880","Longitude":"-88.26570","Snowdepth":"9.000","Units":"in","Rept_Date":"2020-01-25 13"},"coordinates":[2106,5026]},{"type":"Point","properties":{"Station_ID":"WI-WS-22","Station_Nam":"JACKSON 3.2 SE, WI","Latitude":"43.29373","Longitude":"-88.11280","Snowdepth":"9.000","Units":"in","Rept_Date":"2020-01-25 15"},"coordinates":[2142,4883]},{"type":"Point","properties":{"Station_ID":"WI-WN-15","Station_Nam":"OSHKOSH 2.0 W, WI","Latitude":"44.01962","Longitude":"-88.59359","Snowdepth":"9.000","Units":"in","Rept_Date":"2020-01-25 13"},"coordinates":[2029,5323]},{"type":"Point","properties":{"Station_ID":"WI-WK-29","Station_Nam":"OCONOMOWOC 4.6 NE, WI","Latitude":"43.14621","Longitude":"-88.42860","Snowdepth":"9.000","Units":"in","Rept_Date":"2020-01-25 15"},"coordinates":[2068,4794]},{"type":"Point","properties":{"Station_ID":"WI-GN-5","Station_Nam":"MONTICELLO 2.2 SE, WI","Latitude":"42.71990","Longitude":"-89.56360","Snowdepth":"9.000","Units":"in","Rept_Date":"2020-01-25 13"},"coordinates":[1801,4535]},{"type":"Point","properties":{"Station_ID":"WI-DR-6","Station_Nam":"SISTER BAY 1.3 NNE, WI","Latitude":"45.20296","Longitude":"-87.11326","Snowdepth":"9.000","Units":"in","Rept_Date":"2020-01-25 13"},"coordinates":[2376,6041]},{"type":"Point","properties":{"Station_ID":"WI-BN-22","Station_Nam":"WRIGHTSTOWN 0.4 ENE, WI","Latitude":"44.32735","Longitude":"-88.16669","Snowdepth":"9.000","Units":"in","Rept_Date":"2020-01-25 13"},"coordinates":[2129,5510]},{"type":"Point","properties":{"Station_ID":"VT-WS-30","Station_Nam":"WOODBURY 3.4 NNW, VT","Latitude":"44.48825","Longitude":"-72.43258","Snowdepth":"9.000","Units":"in","Rept_Date":"2020-01-25 12"},"coordinates":[5822,5608]},{"type":"Point","properties":{"Station_ID":"VT-OL-2","Station_Nam":"BARTON 3.0 ENE, VT","Latitude":"44.75863","Longitude":"-72.11680","Snowdepth":"9.000","Units":"in","Rept_Date":"2020-01-25 12"},"coordinates":[5896,5772]},{"type":"Point","properties":{"Station_ID":"VT-ES-3","Station_Nam":"LUNENBURG 2.3 NNW, VT","Latitude":"44.49324","Longitude":"-71.70446","Snowdepth":"9.000","Units":"in","Rept_Date":"2020-01-25 12"},"coordinates":[5993,5611]},{"type":"Point","properties":{"Station_ID":"VQAW3","Station_Nam":"VIROQUA","Latitude":"43.55970","Longitude":"-90.87560","Snowdepth":"9.000","Units":"in","Rept_Date":"2020-01-25 13"},"coordinates":[1493,5044]},{"type":"Point","properties":{"Station_ID":"TMWN3","Station_Nam":"TAMWORTH 4","Latitude":"43.86390","Longitude":"-71.26610","Snowdepth":"9.000","Units":"in","Rept_Date":"2020-01-25 12"},"coordinates":[6096,5229]},{"type":"Point","properties":{"Station_ID":"STOW3","Station_Nam":"STOUGHTON,WI","Latitude":"42.91670","Longitude":"-89.21670","Snowdepth":"9.000","Units":"in","Rept_Date":"2020-01-25 13"},"coordinates":[1883,4654]},{"type":"Point","properties":{"Station_ID":"SPTI4","Station_Nam":"STRAWBERRY POINT","Latitude":"42.68530","Longitude":"-91.53300","Snowdepth":"9.000","Units":"in","Rept_Date":"2020-01-25 13"},"coordinates":[1339,4514]},{"type":"Point","properties":{"Station_ID":"SNYI4","Station_Nam":"STANLEY","Latitude":"42.63330","Longitude":"-91.86320","Snowdepth":"9.000","Units":"in","Rept_Date":"2020-01-25 13"},"coordinates":[1262,4482]},{"type":"Point","properties":{"Station_ID":"SD-MH-8","Station_Nam":"HARTFORD 6.4 S, SD","Latitude":"43.53128","Longitude":"-96.95020","Snowdepth":"9.000","Units":"in","Rept_Date":"2020-01-25 15"},"coordinates":[68,5027]},{"type":"Point","properties":{"Station_ID":"RST","Station_Nam":"ROCHESTER INTERNATIONAL ARPT","Latitude":"43.90890","Longitude":"-92.49780","Snowdepth":"9.000","Units":"in","Rept_Date":"2020-01-26 00"},"coordinates":[1113,5256]},{"type":"Point","properties":{"Station_ID":"RSRM5","Station_Nam":"ROCHESTER AP 2NE","Latitude":"43.92810","Longitude":"-92.47580","Snowdepth":"9.000","Units":"in","Rept_Date":"2020-01-26 00"},"coordinates":[1118,5268]},{"type":"Point","properties":{"Station_ID":"RKWI4","Station_Nam":"ROCKWELL CITY,IA","Latitude":"42.40000","Longitude":"-94.61670","Snowdepth":"9.000","Units":"in","Rept_Date":"2020-01-25 13"},"coordinates":[615,4341]},{"type":"Point","properties":{"Station_ID":"OSEI4","Station_Nam":"OSCEOLA,IA","Latitude":"41.01670","Longitude":"-93.81670","Snowdepth":"9.000","Units":"in","Rept_Date":"2020-01-25 13"},"coordinates":[803,3502]},{"type":"Point","properties":{"Station_ID":"OOSW3","Station_Nam":"OSHKOSH 6 S","Latitude":"43.93750","Longitude":"-88.54250","Snowdepth":"9.000","Units":"in","Rept_Date":"2020-01-25 13"},"coordinates":[2041,5274]},{"type":"Point","properties":{"Station_ID":"OKHW3","Station_Nam":"OSHKOSH,WI","Latitude":"44.03330","Longitude":"-88.55560","Snowdepth":"9.000","Units":"in","Rept_Date":"2020-01-25 13"},"coordinates":[2038,5332]},{"type":"Point","properties":{"Station_ID":"NWFM4","Station_Nam":"NW MICHIGAN RESEARCH FARM","Latitude":"44.88300","Longitude":"-85.67520","Snowdepth":"9.000","Units":"in","Rept_Date":"2020-01-25 13"},"coordinates":[2714,5847]},{"type":"Point","properties":{"Station_ID":"NUMM5","Station_Nam":"NEW ULM 3SE","Latitude":"44.29450","Longitude":"-94.40840","Snowdepth":"9.000","Units":"in","Rept_Date":"2020-01-25 12"},"coordinates":[664,5490]},