{"type":"Topology","objects":{"snowdepth_geo":{"type":"GeometryCollection","name":"snowdepth","crs":{"type":"name","properties":{"name":"urn:ogc:def:crs:OGC:1.3:CRS84"}},"geometries":[{"type":"Point","properties":{"Station_ID":"PRKM4","Station_Nam":"MUNISING EAST","Latitude":"46.42580","Longitude":"-86.62000","Snowdepth":"76.500","Units":"in","Rept_Date":"2020-04-01 06"},"coordinates":[2492,4208]},{"type":"Point","properties":{"Station_ID":"OGIQ6","Station_Nam":"OGOKI CAMP","Latitude":"50.76680","Longitude":"-87.85820","Snowdepth":"61.100","Units":"in","Rept_Date":"2020-04-01 06"},"coordinates":[2202,8950]},{"type":"Point","properties":{"Station_ID":"DVLQ6","Station_Nam":"DEVIOUS LAKE","Latitude":"49.19890","Longitude":"-87.76440","Snowdepth":"43.460","Units":"in","Rept_Date":"2020-04-01 06"},"coordinates":[2224,7237]},{"type":"Point","properties":{"Station_ID":"PDLM4","Station_Nam":"PAINESDALE","Latitude":"47.04160","Longitude":"-88.67170","Snowdepth":"40.000","Units":"in","Rept_Date":"2020-03-31 12"},"coordinates":[2011,4881]},{"type":"Point","properties":{"Station_ID":"ALSM1","Station_Nam":"ALLAGASH SNOW COURSE","Latitude":"47.07110","Longitude":"-69.07720","Snowdepth":"39.700","Units":"in","Rept_Date":"2020-03-31 16"},"coordinates":[6609,4913]},{"type":"Point","properties":{"Station_ID":"CAN-NS-39","Station_Nam":"ST. ANNS 2.8 NW, CA","Latitude":"46.25082","Longitude":"-60.64340","Snowdepth":"39.000","Units":"in","Rept_Date":"2020-03-31 12"},"coordinates":[8589,4017]},{"type":"Point","properties":{"Station_ID":"CAN-NL-82","Station_Nam":"GANDER 2.7 NW, CAN","Latitude":"48.97737","Longitude":"-54.63396","Snowdepth":"37.400","Units":"in","Rept_Date":"2020-03-31 10"},"coordinates":[9999,6995]},{"type":"Point","properties":{"Station_ID":"WNTM1","Station_Nam":"WINTERVILLE SNOW COURSE","Latitude":"46.93170","Longitude":"-68.52720","Snowdepth":"33.400","Units":"in","Rept_Date":"2020-03-31 18"},"coordinates":[6738,4760]},{"type":"Point","properties":{"Station_ID":"HWRM1","Station_Nam":"HATHAWAY ROAD SNOW CORE","Latitude":"46.80830","Longitude":"-68.49580","Snowdepth":"32.500","Units":"in","Rept_Date":"2020-03-31 18"},"coordinates":[6746,4626]},{"type":"Point","properties":{"Station_ID":"FISM1","Station_Nam":"FORT KENT COOP","Latitude":"47.23850","Longitude":"-68.61240","Snowdepth":"31.700","Units":"in","Rept_Date":"2020-03-31 14"},"coordinates":[6718,5096]},{"type":"Point","properties":{"Station_ID":"GURM1","Station_Nam":"GUERETTE SNOW COURSE","Latitude":"47.08360","Longitude":"-68.23140","Snowdepth":"31.300","Units":"in","Rept_Date":"2020-03-31 13"},"coordinates":[6808,4926]},{"type":"Point","properties":{"Station_ID":"PNKM1","Station_Nam":"PINKHAM MILL SNOW CORE","Latitude":"46.71270","Longitude":"-68.45840","Snowdepth":"30.800","Units":"in","Rept_Date":"2020-03-31 15"},"coordinates":[6755,4521]},{"type":"Point","properties":{"Station_ID":"ME-AR-18","Station_Nam":"NEW SWEDEN 4.9 NNW, ME","Latitude":"47.01080","Longitude":"-68.14390","Snowdepth":"30.500","Units":"in","Rept_Date":"2020-03-31 12"},"coordinates":[6828,4847]},{"type":"Point","properties":{"Station_ID":"MNSM4","Station_Nam":"MUNISING","Latitude":"46.41210","Longitude":"-86.66250","Snowdepth":"29.000","Units":"in","Rept_Date":"2020-03-31 10"},"coordinates":[2482,4193]},{"type":"Point","properties":{"Station_ID":"WLFM5","Station_Nam":"WOLF RIDGE ENVIRON LEARNING CENTER","Latitude":"47.38240","Longitude":"-91.19730","Snowdepth":"28.000","Units":"in","Rept_Date":"2020-03-31 12"},"coordinates":[1418,5253]},{"type":"Point","properties":{"Station_ID":"CAN-QC-47","Station_Nam":"SAINTE-FOY 1.8 ENE, CAN","Latitude":"46.76934","Longitude":"-71.27124","Snowdepth":"27.600","Units":"in","Rept_Date":"2020-03-31 12"},"coordinates":[6094,4583]},{"type":"Point","properties":{"Station_ID":"KSGM4","Station_Nam":"KEARSARGE","Latitude":"47.27520","Longitude":"-88.41700","Snowdepth":"27.000","Units":"in","Rept_Date":"2020-03-31 12"},"coordinates":[2070,5136]},{"type":"Point","properties":{"Station_ID":"QNCM4","Station_Nam":"QUINCY HILL","Latitude":"47.13640","Longitude":"-88.57950","Snowdepth":"26.000","Units":"in","Rept_Date":"2020-03-31 11"},"coordinates":[2032,4984]},{"type":"Point","properties":{"Station_ID":"CAN-NB-13","Station_Nam":"BATHURST 3.8 NW, CAN","Latitude":"47.64212","Longitude":"-65.68756","Snowdepth":"26.000","Units":"in","Rept_Date":"2020-03-31 11"},"coordinates":[7405,5537]},{"type":"Point","properties":{"Station_ID":"PTLQ6","Station_Nam":"PORTAGE LAKE","Latitude":"49.06950","Longitude":"-86.65940","Snowdepth":"25.550","Units":"in","Rept_Date":"2020-04-01 06"},"coordinates":[2483,7096]},{"type":"Point","properties":{"Station_ID":"MQT","Station_Nam":"MARQUETTE, MI","Latitude":"46.53140","Longitude":"-87.54920","Snowdepth":"25.000","Units":"in","Rept_Date":"2020-04-01 06"},"coordinates":[2274,4323]},{"type":"Point","properties":{"Station_ID":"TRIQ6","Station_Nam":"TRIO LAKE","Latitude":"49.22880","Longitude":"-87.22920","Snowdepth":"24.210","Units":"in","Rept_Date":"2020-04-01 06"},"coordinates":[2349,7270]},{"type":"Point","properties":{"Station_ID":"HERM4","Station_Nam":"HERMAN,MI","Latitude":"46.65000","Longitude":"-88.33330","Snowdepth":"24.000","Units":"in","Rept_Date":"2020-03-31 12"},"coordinates":[2090,4453]},{"type":"Point","properties":{"Station_ID":"CA2M1","Station_Nam":"CARIBOU (CARY MED.) SNOW COURSE","Latitude":"46.87920","Longitude":"-68.00030","Snowdepth":"24.000","Units":"in","Rept_Date":"2020-03-31 19"},"coordinates":[6862,4703]},{"type":"Point","properties":{"Station_ID":"MI-BG-3","Station_Nam":"L'ANSE 17.8 SE, MI","Latitude":"46.55730","Longitude":"-88.20770","Snowdepth":"23.500","Units":"in","Rept_Date":"2020-03-31 13"},"coordinates":[2119,4351]},{"type":"Point","properties":{"Station_ID":"KNCM1","Station_Nam":"KNOWLES CORNER - MCOOP","Latitude":"46.20780","Longitude":"-68.31420","Snowdepth":"23.100","Units":"in","Rept_Date":"2020-03-31 17"},"coordinates":[6788,3970]},{"type":"Point","properties":{"Station_ID":"CARM1","Station_Nam":"CARIBOU WFO","Latitude":"46.86810","Longitude":"-68.01250","Snowdepth":"23.000","Units":"in","Rept_Date":"2020-04-01 04"},"coordinates":[6859,4691]},{"type":"Point","properties":{"Station_ID":"CAR","Station_Nam":"CARIBOU, ME","Latitude":"46.86830","Longitude":"-68.01360","Snowdepth":"23.000","Units":"in","Rept_Date":"2020-03-31 12"},"coordinates":[6859,4691]},{"type":"Point","properties":{"Station_ID":"CAN-NB-11","Station_Nam":"MIRAMICHI 3.3 S, CAN","Latitude":"46.99343","Longitude":"-65.50690","Snowdepth":"23.000","Units":"in","Rept_Date":"2020-03-31 09"},"coordinates":[7447,4828]},{"type":"Point","properties":{"Station_ID":"SQPM1","Station_Nam":"SQUA PAN DAM","Latitude":"46.55610","Longitude":"-68.32550","Snowdepth":"22.800","Units":"in","Rept_Date":"2020-03-31 15"},"coordinates":[6786,4350]},{"type":"Point","properties":{"Station_ID":"CAN-NB-105","Station_Nam":"SISSON BROOK 3.8 E, CAN","Latitude":"46.98305","Longitude":"-67.32532","Snowdepth":"22.800","Units":"in","Rept_Date":"2020-03-31 12"},"coordinates":[7020,4817]},{"type":"Point","properties":{"Station_ID":"VANM1","Station_Nam":"VAN BUREN","Latitude":"47.16600","Longitude":"-67.93900","Snowdepth":"22.000","Units":"in","Rept_Date":"2020-03-31 11"},"coordinates":[6876,5016]},{"type":"Point","properties":{"Station_ID":"IBLM5","Station_Nam":"ISABELLA 14W","Latitude":"47.59360","Longitude":"-91.65140","Snowdepth":"21.000","Units":"in","Rept_Date":"2020-03-31 14"},"coordinates":[1311,5484]},{"type":"Point","properties":{"Station_ID":"AUDQ6","Station_Nam":"AUDEN","Latitude":"48.52600","Longitude":"-82.57570","Snowdepth":"20.710","Units":"in","Rept_Date":"2020-04-01 06"},"coordinates":[3441,6502]},{"type":"Point","properties":{"Station_ID":"MTCM1","Station_Nam":"MONTICELLO SNOW COURSE","Latitude":"46.33280","Longitude":"-67.84190","Snowdepth":"20.200","Units":"in","Rept_Date":"2020-03-31 19"},"coordinates":[6899,4106]},{"type":"Point","properties":{"Station_ID":"OXBM1","Station_Nam":"OXBOW - MCOOP","Latitude":"46.42700","Longitude":"-68.55300","Snowdepth":"19.700","Units":"in","Rept_Date":"2020-03-31 16"},"coordinates":[6732,4209]},{"type":"Point","properties":{"Station_ID":"CAN-NB-96","Station_Nam":"SAINT-IGNACE 2.6 NE, CAN","Latitude":"46.71424","Longitude":"-65.05609","Snowdepth":"19.300","Units":"in","Rept_Date":"2020-03-31 11"},"coordinates":[7553,4523]},{"type":"Point","properties":{"Station_ID":"ME-AR-15","Station_Nam":"PRESQUE ISLE 1.3 WSW, ME","Latitude":"46.67960","Longitude":"-68.01270","Snowdepth":"19.000","Units":"in","Rept_Date":"2020-03-31 12"},"coordinates":[6859,4485]},{"type":"Point","properties":{"Station_ID":"RGNM1","Station_Nam":"RANGELEY 2NW","Latitude":"44.98940","Longitude":"-70.67220","Snowdepth":"18.000","Units":"in","Rept_Date":"2020-03-31 10"},"coordinates":[6235,2639]},{"type":"Point","properties":{"Station_ID":"PRDM4","Station_Nam":"PARADISE","Latitude":"46.60380","Longitude":"-85.03960","Snowdepth":"18.000","Units":"in","Rept_Date":"2020-03-31 10"},"coordinates":[2863,4402]},{"type":"Point","properties":{"Station_ID":"MI-HG-6","Station_Nam":"CALUMET 5.8 ENE, MI","Latitude":"47.27200","Longitude":"-88.33400","Snowdepth":"18.000","Units":"in","Rept_Date":"2020-03-31 11"},"coordinates":[2090,5132]},{"type":"Point","properties":{"Station_ID":"DFXM1","Station_Nam":"DOVER-FOXCROFT","Latitude":"45.18720","Longitude":"-69.18350","Snowdepth":"18.000","Units":"in","Rept_Date":"2020-03-31 11"},"coordinates":[6584,2855]},{"type":"Point","properties":{"Station_ID":"CAN-NS-103","Station_Nam":"TRAFALGAR 4.9 WSW, CAN","Latitude":"45.26217","Longitude":"-62.72285","Snowdepth":"18.000","Units":"in","Rept_Date":"2020-03-31 12"},"coordinates":[8101,2937]},{"type":"Point","properties":{"Station_ID":"SVBQ6","Station_Nam":"SAVANT BASE","Latitude":"50.28730","Longitude":"-90.65670","Snowdepth":"17.360","Units":"in","Rept_Date":"2020-04-01 06"},"coordinates":[1545,8426]},{"type":"Point","properties":{"Station_ID":"MI-HG-1","Station_Nam":"HOUGHTON 1.6 ESE, MI","Latitude":"47.10774","Longitude":"-88.52940","Snowdepth":"17.000","Units":"in","Rept_Date":"2020-03-31 13"},"coordinates":[2044,4953]},{"type":"Point","properties":{"Station_ID":"WI-DG-15","Station_Nam":"SUPERIOR 14.8 S, WI","Latitude":"46.48255","Longitude":"-92.07011","Snowdepth":"16.000","Units":"in","Rept_Date":"2020-03-31 13"},"coordinates":[1213,4270]},{"type":"Point","properties":{"Station_ID":"VT-OL-12","Station_Nam":"GREENSBORO 3.9 NNE, VT","Latitude":"44.63100","Longitude":"-72.28000","Snowdepth":"16.000","Units":"in","Rept_Date":"2020-03-31 12"},"coordinates":[5858,2247]},{"type":"Point","properties":{"Station_ID":"VT-CL-3","Station_Nam":"GROTON 4.4 WSW, VT","Latitude":"44.19440","Longitude":"-72.28240","Snowdepth":"16.000","Units":"in","Rept_Date":"2020-03-31 10"},"coordinates":[5857,1770]},{"type":"Point","properties":{"Station_ID":"MN-CK-18","Station_Nam":"GRAND MARAIS 4.4 WSW, MN","Latitude":"47.74462","Longitude":"-90.43796","Snowdepth":"16.000","Units":"in","Rept_Date":"2020-03-31 13"},"coordinates":[1596,5649]},{"type":"Point","properties":{"Station_ID":"ME-FR-22","Station_Nam":"FARMINGTON 4.8 NNW, ME","Latitude":"44.73396","Longitude":"-70.18007","Snowdepth":"16.000","Units":"in","Rept_Date":"2020-03-31 14"},"coordinates":[6350,2360]},{"type":"Point","properties":{"Station_ID":"WI-VL-9","Station_Nam":"LAND O' LAKES 11.7 W, WI","Latitude":"46.19023","Longitude":"-89.45790","Snowdepth":"15.000","Units":"in","Rept_Date":"2020-03-31 13"},"coordinates":[1826,3950]},{"type":"Point","properties":{"Station_ID":"RANM1","Station_Nam":"RANGELEY","Latitude":"44.98910","Longitude":"-70.67190","Snowdepth":"15.000","Units":"in","Rept_Date":"2020-03-31 10"},"coordinates":[6235,2638]},{"type":"Point","properties":{"Station_ID":"MI-MQ-19","Station_Nam":"ISHPEMING 7.2 SW, MI","Latitude":"46.40550","Longitude":"-87.75670","Snowdepth":"15.000","Units":"in","Rept_Date":"2020-03-31 11"},"coordinates":[2225,4186]},{"type":"Point","properties":{"Station_ID":"LNOW3","Station_Nam":"LAND O LAKES","Latitude":"46.19000","Longitude":"-89.45700","Snowdepth":"15.000","Units":"in","Rept_Date":"2020-03-31 12"},"coordinates":[1826,3950]},{"type":"Point","properties":{"Station_ID":"WRPW3","Station_Nam":"WATER PURIFICATION PLANT","Latitude":"44.38800","Longitude":"-89.80550","Snowdepth":"14.000","Units":"in","Rept_Date":"2020-03-31 11"},"coordinates":[1744,1982]},{"type":"Point","properties":{"Station_ID":"LVDW3","Station_Nam":"LAC VIEUX DESERT","Latitude":"46.12110","Longitude":"-89.07580","Snowdepth":"14.000","Units":"in","Rept_Date":"2020-03-31 14"},"coordinates":[1916,3875]},{"type":"Point","properties":{"Station_ID":"KINM1","Station_Nam":"KINGFIELD","Latitude":"44.95950","Longitude":"-70.17530","Snowdepth":"14.000","Units":"in","Rept_Date":"2020-03-31 11"},"coordinates":[6352,2606]},{"type":"Point","properties":{"Station_ID":"CAN-PE-19","Station_Nam":"CHARLOTTETOWN 6.5 NNW, CAN","Latitude":"46.29235","Longitude":"-63.17271","Snowdepth":"14.000","Units":"in","Rept_Date":"2020-03-31 12"},"coordinates":[7995,4062]},{"type":"Point","properties":{"Station_ID":"CAN-NB-18","Station_Nam":"MCLEOD HILL 1.1 ENE, CA","Latitude":"46.02725","Longitude":"-66.67460","Snowdepth":"14.000","Units":"in","Rept_Date":"2020-03-31 12"},"coordinates":[7173,3772]},{"type":"Point","properties":{"Station_ID":"DYRM1","Station_Nam":"DYER BROOK SNOWCOR","Latitude":"46.04820","Longitude":"-68.22600","Snowdepth":"13.700","Units":"in","Rept_Date":"2020-03-31 18"},"coordinates":[6809,3795]},{"type":"Point","properties":{"Station_ID":"WI-VL-10","Station_Nam":"LAND O LAKES 4.3 WNW, WI","Latitude":"46.17440","Longitude":"-89.30380","Snowdepth":"13.000","Units":"in","Rept_Date":"2020-03-31 13"},"coordinates":[1862,3933]},{"type":"Point","properties":{"Station_ID":"GHMN3","Station_Nam":"PINKHAM NOTCH","Latitude":"44.25800","Longitude":"-71.25250","Snowdepth":"13.000","Units":"in","Rept_Date":"2020-03-31 10"},"coordinates":[6099,1840]},{"type":"Point","properties":{"Station_ID":"CRVW3","Station_Nam":"CRIVITZ HIGH FALLS","Latitude":"45.35750","Longitude":"-88.19190","Snowdepth":"13.000","Units":"in","Rept_Date":"2020-03-31 12"},"coordinates":[2123,3041]},{"type":"Point","properties":{"Station_ID":"KABQ6","Station_Nam":"CAB LAKE","Latitude":"49.59950","Longitude":"-89.17990","Snowdepth":"12.010","Units":"in","Rept_Date":"2020-04-01 06"},"coordinates":[1891,7675]},{"type":"Point","properties":{"Station_ID":"MN-IT-23","Station_Nam":"BOVEY 13.4 N, MN","Latitude":"47.48855","Longitude":"-93.43497","Snowdepth":"12.000","Units":"in","Rept_Date":"2020-03-31 13"},"coordinates":[893,5369]},{"type":"Point","properties":{"Station_ID":"MN-IT-10","Station_Nam":"DEER RIVER 3.7 W, MN","Latitude":"47.33564","Longitude":"-93.87514","Snowdepth":"12.000","Units":"in","Rept_Date":"2020-03-31 14"},"coordinates":[789,5202]},{"type":"Point","properties":{"Station_ID":"MI-GG-4","Station_Nam":"WATERSMEET 5.0 SE, MI","Latitude":"46.20333","Longitude":"-89.13170","Snowdepth":"12.000","Units":"in","Rept_Date":"2020-03-31 14"},"coordinates":[1903,3965]},{"type":"Point","properties":{"Station_ID":"ME-FR-4","Station_Nam":"NEW SHARON 2.0 NW, ME","Latitude":"44.66582","Longitude":"-70.02720","Snowdepth":"12.000","Units":"in","Rept_Date":"2020-03-31 12"},"coordinates":[6386,2285]},{"type":"Point","properties":{"Station_ID":"LILM1","Station_Nam":"LILLE","Latitude":"47.27770","Longitude":"-68.10520","Snowdepth":"12.000","Units":"in","Rept_Date":"2020-03-31 11"},"coordinates":[6837,5138]},{"type":"Point","properties":{"Station_ID":"JKMM1","Station_Nam":"JACKMAN","Latitude":"45.62600","Longitude":"-70.24600","Snowdepth":"12.000","Units":"in","Rept_Date":"2020-03-31 11"},"coordinates":[6335,3334]},{"type":"Point","properties":{"Station_ID":"IWOM4","Station_Nam":"IRONWOOD#2","Latitude":"46.46520","Longitude":"-90.13820","Snowdepth":"12.000","Units":"in","Rept_Date":"2020-03-31 12"},"coordinates":[1666,4251]},{"type":"Point","properties":{"Station_ID":"GLDM4","Station_Nam":"GLADSTONE NO. 2","Latitude":"45.84330","Longitude":"-87.03910","Snowdepth":"12.000","Units":"in","Rept_Date":"2020-03-31 11"},"coordinates":[2394,3571]},{"type":"Point","properties":{"Station_ID":"CSLM5","Station_Nam":"CASS LAKE,MN","Latitude":"47.38470","Longitude":"-94.61470","Snowdepth":"12.000","Units":"in","Rept_Date":"2020-03-31 13"},"coordinates":[616,5255]},{"type":"Point","properties":{"Station_ID":"CRNM5","Station_Nam":"NW EXPERIMENT STN","Latitude":"47.80360","Longitude":"-96.61670","Snowdepth":"12.000","Units":"in","Rept_Date":"2020-03-31 13"},"coordinates":[146,5713]},{"type":"Point","properties":{"Station_ID":"CAN-NB-2","Station_Nam":"GRAFTON 2.7 NNE, CA","Latitude":"46.17062","Longitude":"-67.55330","Snowdepth":"12.000","Units":"in","Rept_Date":"2020-03-31 10"},"coordinates":[6967,3929]},{"type":"Point","properties":{"Station_ID":"BRDM1","Station_Nam":"BRIDGEWATER","Latitude":"46.42870","Longitude":"-67.84370","Snowdepth":"12.000","Units":"in","Rept_Date":"2020-03-31 22"},"coordinates":[6899,4211]},{"type":"Point","properties":{"Station_ID":"NH-CS-10","Station_Nam":"RANDOLPH 1.4 NE, NH","Latitude":"44.38824","Longitude":"-71.26950","Snowdepth":"11.500","Units":"in","Rept_Date":"2020-03-31 12"},"coordinates":[6095,1982]},{"type":"Point","properties":{"Station_ID":"SUAW3","Station_Nam":"SUAMICO","Latitude":"44.60190","Longitude":"-88.09780","Snowdepth":"11.000","Units":"in","Rept_Date":"2020-03-31 11"},"coordinates":[2145,2215]},{"type":"Point","properties":{"Station_ID":"STGW3","Station_Nam":"ST GERMAIN","Latitude":"45.91550","Longitude":"-89.48940","Snowdepth":"11.000","Units":"in","Rept_Date":"2020-03-31 11"},"coordinates":[1819,3650]},{"type":"Point","properties":{"Station_ID":"SSMM4","Station_Nam":"SAULT STE MARIE","Latitude":"46.48660","Longitude":"-84.40250","Snowdepth":"11.000","Units":"in","Rept_Date":"2020-03-31 12"},"coordinates":[3013,4274]},{"type":"Point","properties":{"Station_ID":"NOHM5","Station_Nam":"NORTHOME","Latitude":"47.83590","Longitude":"-94.25550","Snowdepth":"11.000","Units":"in","Rept_Date":"2020-03-31 12"},"coordinates":[700,5748]},{"type":"Point","properties":{"Station_ID":"NH-CR-15","Station_Nam":"JACKSON 3.7 NW, NH","Latitude":"44.19069","Longitude":"-71.22598","Snowdepth":"11.000","Units":"in","Rept_Date":"2020-03-31 12"},"coordinates":[6105,1766]},{"type":"Point","properties":{"Station_ID":"MWTM1","Station_Nam":"MILLINOCKET WWTP","Latitude":"45.64030","Longitude":"-68.67480","Snowdepth":"11.000","Units":"in","Rept_Date":"2020-03-31 10"},"coordinates":[6704,3350]},{"type":"Point","properties":{"Station_ID":"MWN","Station_Nam":"MOUNT WASHINGTON","Latitude":"44.26670","Longitude":"-71.30000","Snowdepth":"11.000","Units":"in","Rept_Date":"2020-04-01 04"},"coordinates":[6088,1849]},{"type":"Point","properties":{"Station_ID":"MNRG04NE","Station_Nam":"NORTHOME 2.5 SSE","Latitude":"47.83898","Longitude":"-94.25738","Snowdepth":"11.000","Units":"in","Rept_Date":"2020-03-31 12"},"coordinates":[700,5752]},{"type":"Point","properties":{"Station_ID":"MIEM4","Station_Nam":"MICHIGAMME 3WNW","Latitude":"46.54530","Longitude":"-88.18000","Snowdepth":"11.000","Units":"in","Rept_Date":"2020-03-31 12"},"coordinates":[2126,4338]},{"type":"Point","properties":{"Station_ID":"KMWN","Station_Nam":"MOUNT WASHINGTON","Latitude":"44.26666","Longitude":"-71.30000","Snowdepth":"11.000","Units":"in","Rept_Date":"2020-04-01 06"},"coordinates":[6088,1849]},{"type":"Point","properties":{"Station_ID":"GNLM4","Station_Nam":"GREENLAND 6N","Latitude":"46.87360","Longitude":"-89.10060","Snowdepth":"11.000","Units":"in","Rept_Date":"2020-03-31 12"},"coordinates":[1910,4697]},{"type":"Point","properties":{"Station_ID":"BBEM4","Station_Nam":"BIG BAY 9SW","Latitude":"46.74620","Longitude":"-87.88160","Snowdepth":"11.000","Units":"in","Rept_Date":"2020-03-31 12"},"coordinates":[2196,4558]},{"type":"Point","properties":{"Station_ID":"BABM5","Station_Nam":"BABBITT","Latitude":"47.71210","Longitude":"-91.95330","Snowdepth":"11.000","Units":"in","Rept_Date":"2020-03-31 12"},"coordinates":[1240,5613]},{"type":"Point","properties":{"Station_ID":"ANJ","Station_Nam":"SAULT STE MARIE","Latitude":"46.46670","Longitude":"-84.36670","Snowdepth":"11.000","Units":"in","Rept_Date":"2020-04-01 00"},"coordinates":[3021,4252]},{"type":"Point","properties":{"Station_ID":"SOCQ6","Station_Nam":"SOCKET LAKE","Latitude":"50.77870","Longitude":"-91.79300","Snowdepth":"10.310","Units":"in","Rept_Date":"2020-04-01 06"},"coordinates":[1278,8963]},{"type":"Point","properties":{"Station_ID":"WNBM5","Station_Nam":"DAM","Latitude":"47.43060","Longitude":"-94.05000","Snowdepth":"10.000","Units":"in","Rept_Date":"2020-03-31 13"},"coordinates":[748,5306]},{"type":"Point","properties":{"Station_ID":"PDGM4","Station_Nam":"PAULDING","Latitude":"46.39760","Longitude":"-89.17940","Snowdepth":"10.000","Units":"in","Rept_Date":"2020-03-31 12"},"coordinates":[1891,4177]},{"type":"Point","properties":{"Station_ID":"MN8JKXE2","Station_Nam":"PRAIRIE PORTAGE 5.2 SSW","Latitude":"47.97663","Longitude":"-91.46744","Snowdepth":"10.000","Units":"in","Rept_Date":"2020-03-31 11"},"coordinates":[1354,5902]},{"type":"Point","properties":{"Station_ID":"MN7TCHCK","Station_Nam":"COOK 0.2 ENE","Latitude":"47.85225","Longitude":"-92.68378","Snowdepth":"10.000","Units":"in","Rept_Date":"2020-03-31 11"},"coordinates":[1069,5766]},{"type":"Point","properties":{"Station_ID":"MN70GOES","Station_Nam":"EMBARRASS 0.6 SSE","Latitude":"47.65101","Longitude":"-92.19222","Snowdepth":"10.000","Units":"in","Rept_Date":"2020-03-31 11"},"coordinates":[1184,5546]},{"type":"Point","properties":{"Station_ID":"MN-SL-15","Station_Nam":"CHISHOLM 0.4 WSW, MN","Latitude":"47.48557","Longitude":"-92.88690","Snowdepth":"10.000","Units":"in","Rept_Date":"2020-03-31 13"},"coordinates":[1021,5366]},{"type":"Point","properties":{"Station_ID":"MN-IT-17","Station_Nam":"GRAND RAPIDS 6.1 N, MN","Latitude":"47.31165","Longitude":"-93.55036","Snowdepth":"10.000","Units":"in","Rept_Date":"2020-03-31 13"},"coordinates":[866,5176]},{"type":"Point","properties":{"Station_ID":"GDPM5","Station_Nam":"PIGEON RIVER AT MIDDLE FALLS","Latitude":"48.01220","Longitude":"-89.61610","Snowdepth":"10.000","Units":"in","Rept_Date":"2020-03-31 12"},"coordinates":[1789,5941]},{"type":"Point","properties":{"Station_ID":"EMBM5","Station_Nam":"EMBARASS,MN","Latitude":"47.65810","Longitude":"-92.19580","Snowdepth":"10.000","Units":"in","Rept_Date":"2020-03-31 11"},"coordinates":[1184,5554]},{"type":"Point","properties":{"Station_ID":"COKM5","Station_Nam":"COOK","Latitude":"47.85060","Longitude":"-92.69250","Snowdepth":"10.000","Units":"in","Rept_Date":"2020-03-31 11"},"coordinates":[1067,5764]},{"type":"Point","properties":{"Station_ID":"CLKM4","Station_Nam":"CLARKSBURG","Latitude":"46.49910","Longitude":"-87.84500","Snowdepth":"10.000","Units":"in","Rept_Date":"2020-03-31 11"},"coordinates":[2205,4288]},{"type":"Point","properties":{"Station_ID":"BNDM5","Station_Nam":"ELY 25E","Latitude":"47.97190","Longitude":"-91.44860","Snowdepth":"10.000","Units":"in","Rept_Date":"2020-03-31 12"},"coordinates":[1359,5897]},{"type":"Point","properties":{"Station_ID":"CAN-PE-7","Station_Nam":"MORELL 1.4 NNW, CA","Latitude":"46.42741","Longitude":"-62.70870","Snowdepth":"9.600","Units":"in","Rept_Date":"2020-03-31 12"},"coordinates":[8104,4210]},{"type":"Point","properties":{"Station_ID":"CAN-PE-3","Station_Nam":"WELLINGTON 1.6 NE, CA","Latitude":"46.46672","Longitude":"-63.98920","Snowdepth":"9.500","Units":"in","Rept_Date":"2020-03-31 11"},"coordinates":[7803,4253]},{"type":"Point","properties":{"Station_ID":"SUTV1","Station_Nam":"SUTTON","Latitude":"44.61220","Longitude":"-72.04810","Snowdepth":"9.000","Units":"in","Rept_Date":"2020-03-31 12"},"coordinates":[5912,2227]},{"type":"Point","properties":{"Station_ID":"MN8O09O3","Station_Nam":"ORR 3.6 E","Latitude":"48.04403","Longitude":"-92.75427","Snowdepth":"9.000","Units":"in","Rept_Date":"2020-03-31 11"},"coordinates":[1052,5976]},{"type":"Point","properties":{"Station_ID":"MN-CK-6","Station_Nam":"GRAND MARAIS 4.4 W, MN","Latitude":"47.74865","Longitude":"-90.43760","Snowdepth":"9.000","Units":"in","Rept_Date":"2020-03-31 12"},"coordinates":[1596,5653]},{"type":"Point","properties":{"Station_ID":"ME-OX-2","Station_Nam":"HARTFORD 1.4 N, ME","Latitude":"44.39318","Longitude":"-70.34760","Snowdepth":"9.000","Units":"in","Rept_Date":"2020-03-31 12"},"coordinates":[6311,1987]},{"type":"Point","properties":{"Station_ID":"LEIM5","Station_Nam":"ORR 3E","Latitude":"48.05810","Longitude":"-92.75220","Snowdepth":"9.000","Units":"in","Rept_Date":"2020-03-31 11"},"coordinates":[1053,5991]},{"type":"Point","properties":{"Station_ID":"IRMM4","Station_Nam":"WWTP","Latitude":"46.46670","Longitude":"-90.18330","Snowdepth":"9.000","Units":"in","Rept_Date":"2020-03-31 12"},"coordinates":[1656,4252]},{"type":"Point","properties":{"Station_ID":"EVRW3","Station_Nam":"EAGLE RIVER-4 E","Latitude":"45.91890","Longitude":"-89.15280","Snowdepth":"9.000","Units":"in","Rept_Date":"2020-03-31 12"},"coordinates":[1898,3654]},{"type":"Point","properties":{"Station_ID":"DLH","Station_Nam":"DULUTH, MN","Latitude":"46.83690","Longitude":"-92.21030","Snowdepth":"9.000","Units":"in","Rept_Date":"2020-04-01 00"},"coordinates":[1180,4657]},{"type":"Point","properties":{"Station_ID":"WI-BY-14","Station_Nam":"ASHLAND 9.8 W, WI","Latitude":"46.59742","Longitude":"-91.07856","Snowdepth":"8.500","Units":"in","Rept_Date":"2020-03-31 12"},"coordinates":[1446,4395]},{"type":"Point","properties":{"Station_ID":"VT-BN-12","Station_Nam":"STAMFORD 5.0 NNE, VT","Latitude":"42.82000","Longitude":"-73.02000","Snowdepth":"8.500","Units":"in","Rept_Date":"2020-03-31 21"},"coordinates":[5684,269]},{"type":"Point","properties":{"Station_ID":"MN-IT-7","Station_Nam":"GRAND RAPIDS 6.2 SSW, MN","Latitude":"47.13687","Longitude":"-93.56660","Snowdepth":"8.100","Units":"in","Rept_Date":"2020-03-31 12"},"coordinates":[862,4985]},{"type":"Point","properties":{"Station_ID":"WTNM4","Station_Nam":"WATTON 2WSW","Latitude":"46.52660","Longitude":"-88.64240","Snowdepth":"8.000","Units":"in","Rept_Date":"2020-03-31 12"},"coordinates":[2017,4318]},{"type":"Point","properties":{"Station_ID":"WRSM5","Station_Nam":"WRENSHALL","Latitude":"46.61550","Longitude":"-92.38380","Snowdepth":"8.000","Units":"in","Rept_Date":"2020-03-31 13"},"coordinates":[1139,4415]},{"type":"Point","properties":{"Station_ID":"WI-VL-14","Station_Nam":"BOULDER JUNCTION 1.4 NE, WI","Latitude":"46.12840","Longitude":"-89.62470","Snowdepth":"8.000","Units":"in","Rept_Date":"2020-03-31 13"},"coordinates":[1787,3883]},{"type":"Point","properties":{"Station_ID":"MI-CP-14","Station_Nam":"SAULT STE. MARIE 2.2 E, MI","Latitude":"46.48933","Longitude":"-84.31971","Snowdepth":"8.000","Units":"in","Rept_Date":"2020-03-31 14"},"coordinates":[3032,4277]},{"type":"Point","properties":{"Station_ID":"INL","Station_Nam":"FALLS INTERNATIONAL ARPT","Latitude":"48.56640","Longitude":"-93.40310","Snowdepth":"8.000","Units":"in","Rept_Date":"2020-04-01 00"},"coordinates":[900,6546]},{"type":"Point","properties":{"Station_ID":"IFSM5","Station_Nam":"INTERNATIONAL FALLS SNOW","Latitude":"48.57780","Longitude":"-93.39640","Snowdepth":"8.000","Units":"in","Rept_Date":"2020-03-31 12"},"coordinates":[902,6559]},{"type":"Point","properties":{"Station_ID":"FEDM5","Station_Nam":"LEECH LAKE DAM","Latitude":"47.24670","Longitude":"-94.22280","Snowdepth":"8.000","Units":"in","Rept_Date":"2020-03-31 13"},"coordinates":[708,5105]},{"type":"Point","properties":{"Station_ID":"ELYM5","Station_Nam":"ELY","Latitude":"47.90560","Longitude":"-91.82830","Snowdepth":"8.000","Units":"in","Rept_Date":"2020-03-31 13"},"coordinates":[1270,5824]},{"type":"Point","properties":{"Station_ID":"DLHM5","Station_Nam":"DULUTH NWS","Latitude":"46.83680","Longitude":"-92.21080","Snowdepth":"8.000","Units":"in","Rept_Date":"2020-04-01 00"},"coordinates":[1180,4657]},{"type":"Point","properties":{"Station_ID":"COTM5","Station_Nam":"COTTON","Latitude":"47.16870","Longitude":"-92.46290","Snowdepth":"8.000","Units":"in","Rept_Date":"2020-03-31 11"},"coordinates":[1121,5019]},{"type":"Point","properties":{"Station_ID":"BJIM5","Station_Nam":"BEMIDJI DNR","Latitude":"47.53550","Longitude":"-94.82640","Snowdepth":"8.000","Units":"in","Rept_Date":"2020-03-31 12"},"coordinates":[566,5420]},{"type":"Point","properties":{"Station_ID":"BAUM5","Station_Nam":"BAUDETTE,MN","Latitude":"48.71670","Longitude":"-94.61670","Snowdepth":"8.000","Units":"in","Rept_Date":"2020-03-31 20"},"coordinates":[615,6711]},{"type":"Point","properties":{"Station_ID":"AVLV1","Station_Nam":"AVERILL","Latitude":"45.00570","Longitude":"-71.69030","Snowdepth":"8.000","Units":"in","Rept_Date":"2020-03-31 12"},"coordinates":[5996,2656]},{"type":"Point","properties":{"Station_ID":"AMAM4","Station_Nam":"AMASA 1W","Latitude":"46.23470","Longitude":"-88.45440","Snowdepth":"8.000","Units":"in","Rept_Date":"2020-03-31 13"},"coordinates":[2062,3999]},{"type":"Point","properties":{"Station_ID":"CAN-NB-97","Station_Nam":"NEW MARYLAND 0.6 NW, CAN","Latitude":"45.90112","Longitude":"-66.68739","Snowdepth":"7.900","Units":"in","Rept_Date":"2020-03-31 11"},"coordinates":[7170,3635]},{"type":"Point","properties":{"Station_ID":"TOPM1","Station_Nam":"TOPSFIELD","Latitude":"45.43470","Longitude":"-67.72020","Snowdepth":"7.000","Units":"in","Rept_Date":"2020-03-31 10"},"coordinates":[6928,3125]},{"type":"Point","properties":{"Station_ID":"TOGM5","Station_Nam":"CELINA 2E","Latitude":"47.86630","Longitude":"-93.02660","Snowdepth":"7.000","Units":"in","Rept_Date":"2020-03-31 13"},"coordinates":[989,5781]},{"type":"Point","properties":{"Station_ID":"THRM5","Station_Nam":"THORHULT,MN","Latitude":"48.21670","Longitude":"-95.25000","Snowdepth":"7.000","Units":"in","Rept_Date":"2020-03-31 22"},"coordinates":[467,6164]},{"type":"Point","properties":{"Station_ID":"MN9UO3KA","Station_Nam":"GAPPAS LANDING CG 3.8 N","Latitude":"48.49307","Longitude":"-93.03634","Snowdepth":"7.000","Units":"in","Rept_Date":"2020-03-31 12"},"coordinates":[986,6466]},{"type":"Point","properties":{"Station_ID":"MN7M8EBJ","Station_Nam":"LUTSEN 15.7 NNW","Latitude":"47.85324","Longitude":"-89.92908","Snowdepth":"7.000","Units":"in","Rept_Date":"2020-03-31 13"},"coordinates":[1715,5767]},{"type":"Point","properties":{"Station_ID":"MN-IT-1","Station_Nam":"GRAND RAPIDS 2.0 E, MN","Latitude":"47.22266","Longitude":"-93.49600","Snowdepth":"7.000","Units":"in","Rept_Date":"2020-03-31 13"},"coordinates":[878,5078]},{"type":"Point","properties":{"Station_ID":"KABM5","Station_Nam":"KABETOGAMA LAKE VISITOR CTR","Latitude":"48.40880","Longitude":"-93.04840","Snowdepth":"7.000","Units":"in","Rept_Date":"2020-03-31 12"},"coordinates":[983,6374]},{"type":"Point","properties":{"Station_ID":"ISPM4","Station_Nam":"WWTP","Latitude":"46.50000","Longitude":"-87.68330","Snowdepth":"7.000","Units":"in","Rept_Date":"2020-03-31 12"},"coordinates":[2243,4289]},{"type":"Point","properties":{"Station_ID":"GRBM5","Station_Nam":"GRAND RAPIDS 12N","Latitude":"47.39800","Longitude":"-93.51330","Snowdepth":"7.000","Units":"in","Rept_Date":"2020-03-31 12"},"coordinates":[874,5270]},{"type":"Point","properties":{"Station_ID":"GGRM4","Station_Nam":"GREEN GARDEN NO.2","Latitude":"46.45330","Longitude":"-87.30380","Snowdepth":"7.000","Units":"in","Rept_Date":"2020-03-31 12"},"coordinates":[2332,4238]},{"type":"Point","properties":{"Station_ID":"CRLM5","Station_Nam":"CROSS LAKE DAM","Latitude":"46.66930","Longitude":"-94.11060","Snowdepth":"7.000","Units":"in","Rept_Date":"2020-03-31 13"},"coordinates":[734,4474]},{"type":"Point","properties":{"Station_ID":"COVM4","Station_Nam":"COVINGTON","Latitude":"46.55880","Longitude":"-88.54190","Snowdepth":"7.000","Units":"in","Rept_Date":"2020-03-31 12"},"coordinates":[2041,4353]},{"type":"Point","properties":{"Station_ID":"BTLN3","Station_Nam":"BARTLETT","Latitude":"44.08380","Longitude":"-71.29340","Snowdepth":"7.000","Units":"in","Rept_Date":"2020-03-31 11"},"coordinates":[6089,1649]},{"type":"Point","properties":{"Station_ID":"WRUM5","Station_Nam":"WARROAD 4W","Latitude":"48.89600","Longitude":"-95.40700","Snowdepth":"6.000","Units":"in","Rept_Date":"2020-04-01 03"},"coordinates":[430,6906]},{"type":"Point","properties":{"Station_ID":"WI-BY-1","Station_Nam":"BAYFIELD 8.8 N, WI","Latitude":"46.93855","Longitude":"-90.83490","Snowdepth":"6.000","Units":"in","Rept_Date":"2020-03-31 13"},"coordinates":[1503,4768]},{"type":"Point","properties":{"Station_ID":"TAKW3","Station_Nam":"RICE RESERVOIR NO. 2","Latitude":"45.53770","Longitude":"-89.73220","Snowdepth":"6.000","Units":"in","Rept_Date":"2020-03-31 12"},"coordinates":[1762,3238]},{"type":"Point","properties":{"Station_ID":"PTBN3","Station_Nam":"PITTSBURG RESERVOIR","Latitude":"45.04690","Longitude":"-71.38300","Snowdepth":"6.000","Units":"in","Rept_Date":"2020-03-31 12"},"coordinates":[6068,2701]},{"type":"Point","properties":{"Station_ID":"PKGM5","Station_Nam":"POKEGANA LK DAM","Latitude":"47.25080","Longitude":"-93.58610","Snowdepth":"6.000","Units":"in","Rept_Date":"2020-03-31 13"},"coordinates":[857,5109]},{"type":"Point","properties":{"Station_ID":"NH-CR-26","Station_Nam":"CENTER SANDWICH 4.9 E, NH","Latitude":"43.80976","Longitude":"-71.34150","Snowdepth":"6.000","Units":"in","Rept_Date":"2020-03-31 11"},"coordinates":[6078,1350]},{"type":"Point","properties":{"Station_ID":"MN6JKRHL","Station_Nam":"TOFTE 0.6 SSW","Latitude":"47.56557","Longitude":"-90.84117","Snowdepth":"6.000","Units":"in","Rept_Date":"2020-03-31 12"},"coordinates":[1501,5453]},{"type":"Point","properties":{"Station_ID":"MN-BM-14","Station_Nam":"SOLWAY 2.1 S, MN","Latitude":"47.49069","Longitude":"-95.12177","Snowdepth":"6.000","Units":"in","Rept_Date":"2020-03-31 14"},"coordinates":[497,5371]},{"type":"Point","properties":{"Station_ID":"LNKM1","Station_Nam":"LINCOLN SANITARY DISTRICT/WTP","Latitude":"45.37520","Longitude":"-68.50820","Snowdepth":"6.000","Units":"in","Rept_Date":"2020-03-31 11"},"coordinates":[6743,3060]},{"type":"Point","properties":{"Station_ID":"JCBM4","Station_Nam":"JACOBSVILLE","Latitude":"47.00830","Longitude":"-88.43180","Snowdepth":"6.000","Units":"in","Rept_Date":"2020-03-31 11"},"coordinates":[2067,4844]},{"type":"Point","properties":{"Station_ID":"INDM5","Station_Nam":"INDUS,MN","Latitude":"48.61670","Longitude":"-93.90000","Snowdepth":"6.000","Units":"in","Rept_Date":"2020-03-31 13"},"coordinates":[784,6601]},{"type":"Point","properties":{"Station_ID":"HRVM4","Station_Nam":"HARVEY","Latitude":"46.49080","Longitude":"-87.35470","Snowdepth":"6.000","Units":"in","Rept_Date":"2020-03-31 12"},"coordinates":[2320,4279]},{"type":"Point","properties":{"Station_ID":"ESDN3","Station_Nam":"EAST SANDWICH","Latitude":"43.80990","Longitude":"-71.34250","Snowdepth":"6.000","Units":"in","Rept_Date":"2020-03-31 10"},"coordinates":[6078,1350]},{"type":"Point","properties":{"Station_ID":"CAN-NS-163","Station_Nam":"SYDNEY MINES 2.2 WNW, CAN","Latitude":"46.24851","Longitude":"-60.25161","Snowdepth":"5.900","Units":"in","Rept_Date":"2020-03-31 12"},"coordinates":[8681,4014]},{"type":"Point","properties":{"Station_ID":"CATQ6","Station_Nam":"CAT LAKE","Latitude":"51.72690","Longitude":"-91.82210","Snowdepth":"5.830","Units":"in","Rept_Date":"2020-04-01 06"},"coordinates":[1271,9999]},{"type":"Point","properties":{"Station_ID":"FTHQ6","Station_Nam":"FORT HOPE","Latitude":"51.55820","Longitude":"-87.90510","Snowdepth":"5.710","Units":"in","Rept_Date":"2020-04-01 06"},"coordinates":[2191,9815]},{"type":"Point","properties":{"Station_ID":"VT-WS-7","Station_Nam":"MIDDLESEX 3.1 ENE, VT","Latitude":"44.31799","Longitude":"-72.62650","Snowdepth":"5.500","Units":"in","Rept_Date":"2020-03-31 13"},"coordinates":[5776,1905]},{"type":"Point","properties":{"Station_ID":"WI-ON-6","Station_Nam":"RHINELANDER 5.2 N, WI","Latitude":"45.71388","Longitude":"-89.42150","Snowdepth":"5.000","Units":"in","Rept_Date":"2020-03-31 14"},"coordinates":[1835,3430]},{"type":"Point","properties":{"Station_ID":"VT-OL-9","Station_Nam":"GREENSBORO 2.1 NNW, VT","Latitude":"44.60528","Longitude":"-72.30940","Snowdepth":"5.000","Units":"in","Rept_Date":"2020-03-31 12"},"coordinates":[5851,2219]},{"type":"Point","properties":{"Station_ID":"VT-BN-3","Station_Nam":"LANDGROVE 1.1 NNE, VT","Latitude":"43.29092","Longitude":"-72.83260","Snowdepth":"5.000","Units":"in","Rept_Date":"2020-03-31 12"},"coordinates":[5728,783]},{"type":"Point","properties":{"Station_ID":"PRNW3","Station_Nam":"PRENTICE,WI","Latitude":"45.54780","Longitude":"-90.30000","Snowdepth":"5.000","Units":"in","Rept_Date":"2020-03-31 13"},"coordinates":[1628,3249]},{"type":"Point","properties":{"Station_ID":"NH-CS-4","Station_Nam":"PITTSBURG 6.1 NE, NH","Latitude":"45.11060","Longitude":"-71.29760","Snowdepth":"5.000","Units":"in","Rept_Date":"2020-03-31 12"},"coordinates":[6088,2771]},{"type":"Point","properties":{"Station_ID":"LBKV1","Station_Nam":"LYE BROOK","Latitude":"43.05000","Longitude":"-73.03330","Snowdepth":"5.000","Units":"in","Rept_Date":"2020-04-01 05"},"coordinates":[5681,520]},{"type":"Point","properties":{"Station_ID":"HMYM1","Station_Nam":"HARMONY","Latitude":"44.94660","Longitude":"-69.54560","Snowdepth":"5.000","Units":"in","Rept_Date":"2020-03-31 11"},"coordinates":[6499,2592]},{"type":"Point","properties":{"Station_ID":"ESGM1","Station_Nam":"EAST SANGERVILLE","Latitude":"45.13690","Longitude":"-69.28060","Snowdepth":"5.000","Units":"in","Rept_Date":"2020-03-31 11"},"coordinates":[6562,2800]},{"type":"Point","properties":{"Station_ID":"CORV1","Station_Nam":"CORINTH","Latitude":"44.00690","Longitude":"-72.31940","Snowdepth":"5.000","Units":"in","Rept_Date":"2020-03-31 11"},"coordinates":[5848,1565]},{"type":"Point","properties":{"Station_ID":"CAN-MB-298","Station_Nam":"GARDENTON 4.2 W - SRRCD, CAN","Latitude":"49.09480","Longitude":"-96.75446","Snowdepth":"4.700","Units":"in","Rept_Date":"2020-03-31 13"},"coordinates":[114,7124]},{"type":"Point","properties":{"Station_ID":"CAN-ON-526","Station_Nam":"HILTON BEACH 0.7 SW - MNRF, CAN","Latitude":"46.25357","Longitude":"-83.90014","Snowdepth":"4.300","Units":"in","Rept_Date":"2020-03-31 12"},"coordinates":[3130,4020]},{"type":"Point","properties":{"Station_ID":"CAN-NB-1","Station_Nam":"FREDERICTON 4.0 SSE, CA","Latitude":"45.92897","Longitude":"-66.62830","Snowdepth":"4.300","Units":"in","Rept_Date":"2020-03-31 12"},"coordinates":[7184,3665]},{"type":"Point","properties":{"Station_ID":"VT-ES-3","Station_Nam":"LUNENBURG 2.3 NNW, VT","Latitude":"44.49324","Longitude":"-71.70446","Snowdepth":"4.000","Units":"in","Rept_Date":"2020-03-31 11"},"coordinates":[5993,2097]},{"type":"Point","properties":{"Station_ID":"NWSM1","Station_Nam":"NEW SHARON","Latitude":"44.63520","Longitude":"-70.00020","Snowdepth":"4.000","Units":"in","Rept_Date":"2020-03-31 11"},"coordinates":[6393,2252]},{"type":"Point","properties":{"Station_ID":"MN-PK-15","Station_Nam":"MENTOR 2.5 SSW, MN","Latitude":"47.66625","Longitude":"-96.17328","Snowdepth":"4.000","Units":"in","Rept_Date":"2020-03-31 13"},"coordinates":[250,5563]},{"type":"Point","properties":{"Station_ID":"HURW3","Station_Nam":"HURLEY","Latitude":"46.46250","Longitude":"-90.19550","Snowdepth":"4.000","Units":"in","Rept_Date":"2020-03-31 13"},"coordinates":[1653,4248]},{"type":"Point","properties":{"Station_ID":"DHMM1","Station_Nam":"DEDHAM","Latitude":"44.67880","Longitude":"-68.63560","Snowdepth":"4.000","Units":"in","Rept_Date":"2020-03-31 10"},"coordinates":[6713,2299]},{"type":"Point","properties":{"Station_ID":"CNNW3","Station_Nam":"CRANDON","Latitude":"45.55110","Longitude":"-88.89830","Snowdepth":"4.000","Units":"in","Rept_Date":"2020-03-31 11"},"coordinates":[1957,3252]},{"type":"Point","properties":{"Station_ID":"AVTW3","Station_Nam":"ARBOR VITAE-JOHNSON LAKE","Latitude":"45.89940","Longitude":"-89.72670","Snowdepth":"4.000","Units":"in","Rept_Date":"2020-03-31 11"},"coordinates":[1763,3633]},{"type":"Point","properties":{"Station_ID":"AGNW3","Station_Nam":"ARGONNE-1.5 NW","Latitude":"45.67360","Longitude":"-88.90380","Snowdepth":"4.000","Units":"in","Rept_Date":"2020-03-31 12"},"coordinates":[1956,3386]},{"type":"Point","properties":{"Station_ID":"CAN-NS-13","Station_Nam":"TRURO 5.0 ENE, CA","Latitude":"45.38252","Longitude":"-63.22810","Snowdepth":"3.500","Units":"in","Rept_Date":"2020-03-31 11"},"coordinates":[7982,3068]},{"type":"Point","properties":{"Station_ID":"ZNOM4","Station_Nam":"NORWAY","Latitude":"45.77810","Longitude":"-87.89560","Snowdepth":"3.000","Units":"in","Rept_Date":"2020-03-31 12"},"coordinates":[2193,3500]},{"type":"Point","properties":{"Station_ID":"WLKM5","Station_Nam":"AH-GWAH-CHING","Latitude":"47.15000","Longitude":"-94.65000","Snowdepth":"3.000","Units":"in","Rept_Date":"2020-03-31 16"},"coordinates":[608,4999]},{"type":"Point","properties":{"Station_ID":"WILW3","Station_Nam":"RESERVOIR","Latitude":"45.70000","Longitude":"-89.83330","Snowdepth":"3.000","Units":"in","Rept_Date":"2020-03-31 11"},"coordinates":[1738,3415]},{"type":"Point","properties":{"Station_ID":"WI-BY-2","Station_Nam":"MELLEN 18.6 SW, WI","Latitude":"46.16937","Longitude":"-90.98090","Snowdepth":"3.000","Units":"in","Rept_Date":"2020-03-31 13"},"coordinates":[1469,3928]},{"type":"Point","properties":{"Station_ID":"RFDM1","Station_Nam":"RUMFORD 7SW","Latitude":"44.49470","Longitude":"-70.65640","Snowdepth":"3.000","Units":"in","Rept_Date":"2020-03-31 12"},"coordinates":[6239,2098]},{"type":"Point","properties":{"Station_ID":"PBAN8","Station_Nam":"SITE 1-3MI.N","Latitude":"48.97420","Longitude":"-97.23860","Snowdepth":"3.000","Units":"in","Rept_Date":"2020-03-31 12"},"coordinates":[0,6992]},{"type":"Point","properties":{"Station_ID":"NY-FK-7","Station_Nam":"SARANAC LAKE 6.2 N, NY","Latitude":"44.41359","Longitude":"-74.15211","Snowdepth":"3.000","Units":"in","Rept_Date":"2020-03-31 11"},"coordinates":[5418,2010]},{"type":"Point","properties":{"Station_ID":"NUMN3","Station_Nam":"NORTHUMBERLAND","Latitude":"44.52830","Longitude":"-71.50440","Snowdepth":"3.000","Units":"in","Rept_Date":"2020-03-31 11"},"coordinates":[6040,2135]},{"type":"Point","properties":{"Station_ID":"MN-SL-108","Station_Nam":"IRON JUNCTION 3.4 NNW, MN","Latitude":"47.46150","Longitude":"-92.63130","Snowdepth":"3.000","Units":"in","Rept_Date":"2020-03-31 13"},"coordinates":[1081,5339]},{"type":"Point","properties":{"Station_ID":"ME-AN-32","Station_Nam":"WINTHROP 9.4 W, ME","Latitude":"44.30476","Longitude":"-70.15835","Snowdepth":"3.000","Units":"in","Rept_Date":"2020-03-31 11"},"coordinates":[6356,1891]},{"type":"Point","properties":{"Station_ID":"LPLN6","Station_Nam":"LAKE PLACID 2 S","Latitude":"44.30420","Longitude":"-73.98390","Snowdepth":"3.000","Units":"in","Rept_Date":"2020-03-31 12"},"coordinates":[5458,1890]},{"type":"Point","properties":{"Station_ID":"LNCM1","Station_Nam":"LINCOLN WATER DISTRICT","Latitude":"45.32410","Longitude":"-68.58300","Snowdepth":"3.000","Units":"in","Rept_Date":"2020-03-31 12"},"coordinates":[6725,3004]},{"type":"Point","properties":{"Station_ID":"CMKW3","Station_Nam":"CLAM LAKE 4W","Latitude":"46.16940","Longitude":"-90.98080","Snowdepth":"3.000","Units":"in","Rept_Date":"2020-03-31 12"},"coordinates":[1469,3928]},{"type":"Point","properties":{"Station_ID":"CAN-PE-10","Station_Nam":"NEW LONDON 1.6 ENE, CA","Latitude":"46.46985","Longitude":"-63.49200","Snowdepth":"2.600","Units":"in","Rept_Date":"2020-03-31 12"},"coordinates":[7920,4256]},{"type":"Point","properties":{"Station_ID":"NH-GR-49","Station_Nam":"PLYMOUTH 3.7 N, NH","Latitude":"43.79048","Longitude":"-71.68413","Snowdepth":"2.500","Units":"in","Rept_Date":"2020-03-31 12"},"coordinates":[5997,1329]},{"type":"Point","properties":{"Station_ID":"ME-WL-27","Station_Nam":"PROSPECT 2.6 W, ME","Latitude":"44.55719","Longitude":"-68.91732","Snowdepth":"2.500","Units":"in","Rept_Date":"2020-03-31 11"},"coordinates":[6647,2166]},{"type":"Point","properties":{"Station_ID":"CAN-MB-32","Station_Nam":"PINAWA 1.0 SW, CA","Latitude":"50.14747","Longitude":"-95.89020","Snowdepth":"2.500","Units":"in","Rept_Date":"2020-03-31 13"},"coordinates":[316,8274]},{"type":"Point","properties":{"Station_ID":"ME-PN-55","Station_Nam":"ORONO 1.1 SSW, ME","Latitude":"44.87005","Longitude":"-68.69446","Snowdepth":"2.300","Units":"in","Rept_Date":"2020-03-31 12"},"coordinates":[6699,2508]},{"type":"Point","properties":{"Station_ID":"WI-BY-22","Station_Nam":"MASON 11.5 WNW, WI","Latitude":"46.50198","Longitude":"-91.28339","Snowdepth":"2.000","Units":"in","Rept_Date":"2020-03-31 14"},"coordinates":[1398,4291]},{"type":"Point","properties":{"Station_ID":"VT-WR-2","Station_Nam":"POMFRET 2.6 N, VT","Latitude":"43.74230","Longitude":"-72.52550","Snowdepth":"2.000","Units":"in","Rept_Date":"2020-03-31 12"},"coordinates":[5800,1276]},{"type":"Point","properties":{"Station_ID":"VT-WR-17","Station_Nam":"ROCHESTER 2.3 NE, VT","Latitude":"43.89418","Longitude":"-72.76992","Snowdepth":"2.000","Units":"in","Rept_Date":"2020-03-31 12"},"coordinates":[5743,1442]},{"type":"Point","properties":{"Station_ID":"VT-CL-18","Station_Nam":"WHEELOCK 1.6 S, VT","Latitude":"44.56491","Longitude":"-72.08830","Snowdepth":"2.000","Units":"in","Rept_Date":"2020-03-31 12"},"coordinates":[5903,2175]},{"type":"Point","properties":{"Station_ID":"PERV1","Station_Nam":"PERU","Latitude":"43.26670","Longitude":"-72.90000","Snowdepth":"2.000","Units":"in","Rept_Date":"2020-03-31 11"},"coordinates":[5712,757]},{"type":"Point","properties":{"Station_ID":"MRAM4","Station_Nam":"MORAN","Latitude":"45.99030","Longitude":"-84.83610","Snowdepth":"2.000","Units":"in","Rept_Date":"2020-03-31 12"},"coordinates":[2911,3732]},{"type":"Point","properties":{"Station_ID":"MN2EOYHJ","Station_Nam":"OGILVIE 5.6 N","Latitude":"45.91288","Longitude":"-93.42259","Snowdepth":"2.000","Units":"in","Rept_Date":"2020-03-31 13"},"coordinates":[896,3647]},{"type":"Point","properties":{"Station_ID":"MN-AT-5","Station_Nam":"TAMARACK 1.4 SW, MN","Latitude":"46.63760","Longitude":"-93.14554","Snowdepth":"2.000","Units":"in","Rept_Date":"2020-03-31 13"},"coordinates":[961,4439]},{"type":"Point","properties":{"Station_ID":"MI-OT-17","Station_Nam":"GAYLORD 4.1 S, MI","Latitude":"44.96388","Longitude":"-84.68467","Snowdepth":"2.000","Units":"in","Rept_Date":"2020-03-31 12"},"coordinates":[2946,2611]},{"type":"Point","properties":{"Station_ID":"MI-DL-1","Station_Nam":"GARDEN CORNERS 0.8 NW, MI","Latitude":"45.89815","Longitude":"-86.54850","Snowdepth":"2.000","Units":"in","Rept_Date":"2020-03-31 13"},"coordinates":[2509,3631]},{"type":"Point","properties":{"Station_ID":"MI-CP-7","Station_Nam":"DRUMMOND 2.9 NE, MI","Latitude":"46.05329","Longitude":"-83.69060","Snowdepth":"2.000","Units":"in","Rept_Date":"2020-03-31 14"},"coordinates":[3180,3801]},{"type":"Point","properties":{"Station_ID":"ME-LN-21","Station_Nam":"WESTPORT ISLAND 2.2 SSW, ME","Latitude":"43.88806","Longitude":"-69.70890","Snowdepth":"2.000","Units":"in","Rept_Date":"2020-03-31 13"},"coordinates":[6461,1435]},{"type":"Point","properties":{"Station_ID":"ME-KX-6","Station_Nam":"UNION 3.0 NW, ME","Latitude":"44.24435","Longitude":"-69.31540","Snowdepth":"2.000","Units":"in","Rept_Date":"2020-03-31 12"},"coordinates":[6553,1825]},{"type":"Point","properties":{"Station_ID":"LVRM1","Station_Nam":"LIVERMORE FALLS 1 E","Latitude":"44.47160","Longitude":"-70.15940","Snowdepth":"2.000","Units":"in","Rept_Date":"2020-03-31 11"},"coordinates":[6355,2073]},{"type":"Point","properties":{"Station_ID":"INDN6","Station_Nam":"INDIAN LAKE","Latitude":"43.75500","Longitude":"-74.27560","Snowdepth":"2.000","Units":"in","Rept_Date":"2020-03-31 12"},"coordinates":[5389,1290]},{"type":"Point","properties":{"Station_ID":"HRTM1","Station_Nam":"HARTFORD","Latitude":"44.37440","Longitude":"-70.31620","Snowdepth":"2.000","Units":"in","Rept_Date":"2020-03-31 11"},"coordinates":[6318,1967]},{"type":"Point","properties":{"Station_ID":"GDCM4","Station_Nam":"GARDEN CORNERS","Latitude":"45.89830","Longitude":"-86.54850","Snowdepth":"2.000","Units":"in","Rept_Date":"2020-03-31 12"},"coordinates":[2509,3632]},{"type":"Point","properties":{"Station_ID":"CORM1","Station_Nam":"CORINNA","Latitude":"44.91980","Longitude":"-69.24180","Snowdepth":"2.000","Units":"in","Rept_Date":"2020-03-31 15"},"coordinates":[6571,2563]},{"type":"Point","properties":{"Station_ID":"CAN-NB-16","Station_Nam":"DORCHESTER 1.0 SSE, CAN","Latitude":"45.89160","Longitude":"-64.51269","Snowdepth":"2.000","Units":"in","Rept_Date":"2020-03-31 11"},"coordinates":[7681,3624]},{"type":"Point","properties":{"Station_ID":"ME-LN-4","Station_Nam":"DRESDEN 1.5 NW, ME","Latitude":"44.10540","Longitude":"-69.74060","Snowdepth":"1.800","Units":"in","Rept_Date":"2020-03-31 12"},"coordinates":[6454,1673]},{"type":"Point","properties":{"Station_ID":"VT-WS-30","Station_Nam":"WOODBURY 3.4 NNW, VT","Latitude":"44.48825","Longitude":"-72.43258","Snowdepth":"1.500","Units":"in","Rept_Date":"2020-03-31 12"},"coordinates":[5822,2091]},{"type":"Point","properties":{"Station_ID":"VT-OL-1","Station_Nam":"WESTFIELD 0.7 WNW, VT","Latitude":"44.89160","Longitude":"-72.44350","Snowdepth":"1.500","Units":"in","Rept_Date":"2020-03-31 12"},"coordinates":[5819,2532]},{"type":"Point","properties":{"Station_ID":"NH-MR-60","Station_Nam":"SOUTH SUTTON 1.3 SE, NH","Latitude":"43.29531","Longitude":"-71.90238","Snowdepth":"1.500","Units":"in","Rept_Date":"2020-03-31 13"},"coordinates":[5946,788]},{"type":"Point","properties":{"Station_ID":"NH-MR-41","Station_Nam":"NEWBURY 1.6 NW, NH","Latitude":"43.33667","Longitude":"-72.06060","Snowdepth":"1.500","Units":"in","Rept_Date":"2020-03-31 12"},"coordinates":[5909,833]},{"type":"Point","properties":{"Station_ID":"CAN-ON-757","Station_Nam":"SAULT STE. MARIE 2.8 ESE - GLFC, CAN","Latitude":"46.50300","Longitude":"-84.30300","Snowdepth":"1.100","Units":"in","Rept_Date":"2020-03-31 13"},"coordinates":[3036,4292]},{"type":"Point","properties":{"Station_ID":"WTRM4","Station_Nam":"WATERSMEET 12WSW","Latitude":"46.22310","Longitude":"-89.40850","Snowdepth":"1.000","Units":"in","Rept_Date":"2020-03-31 11"},"coordinates":[1838,3986]},{"type":"Point","properties":{"Station_ID":"WORV1","Station_Nam":"WORCESTER 2 W","Latitude":"44.37470","Longitude":"-72.58220","Snowdepth":"1.000","Units":"in","Rept_Date":"2020-03-31 11"},"coordinates":[5787,1967]},{"type":"Point","properties":{"Station_ID":"WITM1","Station_Nam":"WHITING","Latitude":"44.74240","Longitude":"-67.30520","Snowdepth":"1.000","Units":"in","Rept_Date":"2020-03-31 11"},"coordinates":[7025,2369]},{"type":"Point","properties":{"Station_ID":"VT-OG-11","Station_Nam":"VERSHIRE 1.5 ESE, VT","Latitude":"43.96138","Longitude":"-72.29777","Snowdepth":"1.000","Units":"in","Rept_Date":"2020-03-31 13"},"coordinates":[5853,1516]},{"type":"Point","properties":{"Station_ID":"ROWM3","Station_Nam":"ROWE 3NE","Latitude":"42.73500","Longitude":"-72.86920","Snowdepth":"1.000","Units":"in","Rept_Date":"2020-03-31 11"},"coordinates":[5719,176]},{"type":"Point","properties":{"Station_ID":"RHRW3","Station_Nam":"RHINELANDER WJFW TV-12","Latitude":"45.62220","Longitude":"-89.41000","Snowdepth":"1.000","Units":"in","Rept_Date":"2020-04-01 03"},"coordinates":[1837,3330]},{"type":"Point","properties":{"Station_ID":"RHLW3","Station_Nam":"RHINELANDER 4NE","Latitude":"45.65270","Longitude":"-89.30740","Snowdepth":"1.000","Units":"in","Rept_Date":"2020-03-31 11"},"coordinates":[1861,3363]},{"type":"Point","properties":{"Station_ID":"RHIW3","Station_Nam":"RHINELANDER","Latitude":"45.59860","Longitude":"-89.45080","Snowdepth":"1.000","Units":"in","Rept_Date":"2020-03-31 12"},"coordinates":[1828,3304]},{"type":"Point","properties":{"Station_ID":"RHI","Station_Nam":"RHINELANDER-ONEIDA COUNTY AIRPORT","Latitude":"45.63080","Longitude":"-89.46530","Snowdepth":"1.000","Units":"in","Rept_Date":"2020-04-01 00"},"coordinates":[1824,3339]},{"type":"Point","properties":{"Station_ID":"OTTM5","Station_Nam":"OTTERTAIL,MN","Latitude":"46.41670","Longitude":"-95.56670","Snowdepth":"1.000","Units":"in","Rept_Date":"2020-03-31 11"},"coordinates":[392,4198]},{"type":"Point","properties":{"Station_ID":"NYMM5","Station_Nam":"NEW YORK MILLS","Latitude":"46.50920","Longitude":"-95.37990","Snowdepth":"1.000","Units":"in","Rept_Date":"2020-03-31 12"},"coordinates":[436,4299]},{"type":"Point","properties":{"Station_ID":"ND-CS-25","Station_Nam":"FARGO 2.1 N, ND","Latitude":"46.90816","Longitude":"-96.77937","Snowdepth":"1.000","Units":"in","Rept_Date":"2020-03-31 14"},"coordinates":[108,4735]},{"type":"Point","properties":{"Station_ID":"MTQM4","Station_Nam":"MANISTIQUE WWTP","Latitude":"45.95120","Longitude":"-86.25130","Snowdepth":"1.000","Units":"in","Rept_Date":"2020-03-31 11"},"coordinates":[2579,3689]},{"type":"Point","properties":{"Station_ID":"MRLV1","Station_Nam":"MARLBORO","Latitude":"42.86000","Longitude":"-72.72000","Snowdepth":"1.000","Units":"in","Rept_Date":"2020-03-31 12"},"coordinates":[5754,312]},{"type":"Point","properties":{"Station_ID":"MNMZK7NS","Station_Nam":"NEW YORK MILLS 0.2 NNE","Latitude":"46.52057","Longitude":"-95.37394","Snowdepth":"1.000","Units":"in","Rept_Date":"2020-03-31 12"},"coordinates":[438,4311]},{"type":"Point","properties":{"Station_ID":"MNMQO9OI","Station_Nam":"OTTERTAIL 1.5 WNW","Latitude":"46.43378","Longitude":"-95.58416","Snowdepth":"1.000","Units":"in","Rept_Date":"2020-03-31 10"},"coordinates":[388,4217]},{"type":"Point","properties":{"Station_ID":"ME-WL-12","Station_Nam":"SEARSMONT 3.5 WNW, ME","Latitude":"44.37680","Longitude":"-69.26160","Snowdepth":"1.000","Units":"in","Rept_Date":"2020-03-31 12"},"coordinates":[6566,1969]},{"type":"Point","properties":{"Station_ID":"LBRM5","Station_Nam":"LAKE BRONSON DAM","Latitude":"48.72410","Longitude":"-96.62180","Snowdepth":"1.000","Units":"in","Rept_Date":"2020-03-31 13"},"coordinates":[145,6719]},{"type":"Point","properties":{"Station_ID":"GFK","Station_Nam":"GRAND FORKS INTERNATIONAL AIRPORT","Latitude":"47.94920","Longitude":"-97.17610","Snowdepth":"1.000","Units":"in","Rept_Date":"2020-04-01 00"},"coordinates":[15,5872]},{"type":"Point","properties":{"Station_ID":"EHYM3","Station_Nam":"EAST HAWLEY","Latitude":"42.57410","Longitude":"-72.86790","Snowdepth":"1.000","Units":"in","Rept_Date":"2020-03-31 12"},"coordinates":[5720,0]},{"type":"Point","properties":{"Station_ID":"AURW3","Station_Nam":"AURORA","Latitude":"45.77000","Longitude":"-88.11810","Snowdepth":"1.000","Units":"in","Rept_Date":"2020-03-31 12"},"coordinates":[2141,3491]}]}},"arcs":[],"transform":{"scale":[0.004260890089008902,0.0009153715371537154],"translate":[-97.2386,42.5741]}}