{"type":"Topology","objects":{"snowdepth_geo":{"type":"GeometryCollection","name":"snowdepth","crs":{"type":"name","properties":{"name":"urn:ogc:def:crs:OGC:1.3:CRS84"}},"geometries":[{"type":"Point","properties":{"Station_ID":"PRKM4","Station_Nam":"MUNISING EAST","Latitude":"46.42580","Longitude":"-86.62000","Snowdepth":"76.500","Units":"in","Rept_Date":"2020-04-08 06"},"coordinates":[2492,4048]},{"type":"Point","properties":{"Station_ID":"OGIQ6","Station_Nam":"OGOKI CAMP","Latitude":"50.76680","Longitude":"-87.85820","Snowdepth":"61.100","Units":"in","Rept_Date":"2020-04-08 06"},"coordinates":[2202,8921]},{"type":"Point","properties":{"Station_ID":"GLRM5","Station_Nam":"GLACIAL RIDGE","Latitude":"47.71670","Longitude":"-96.26670","Snowdepth":"55.000","Units":"in","Rept_Date":"2020-04-08 02"},"coordinates":[228,5497]},{"type":"Point","properties":{"Station_ID":"AUDQ6","Station_Nam":"AUDEN","Latitude":"48.52600","Longitude":"-82.57570","Snowdepth":"47.640","Units":"in","Rept_Date":"2020-04-08 06"},"coordinates":[3441,6406]},{"type":"Point","properties":{"Station_ID":"DVLQ6","Station_Nam":"DEVIOUS LAKE","Latitude":"49.19890","Longitude":"-87.76440","Snowdepth":"43.460","Units":"in","Rept_Date":"2020-04-08 06"},"coordinates":[2224,7161]},{"type":"Point","properties":{"Station_ID":"PDLM4","Station_Nam":"PAINESDALE","Latitude":"47.04160","Longitude":"-88.67170","Snowdepth":"30.000","Units":"in","Rept_Date":"2020-04-07 12"},"coordinates":[2011,4739]},{"type":"Point","properties":{"Station_ID":"CAN-NL-82","Station_Nam":"GANDER 2.7 NW, CAN","Latitude":"48.97737","Longitude":"-54.63396","Snowdepth":"27.200","Units":"in","Rept_Date":"2020-04-07 10"},"coordinates":[9999,6912]},{"type":"Point","properties":{"Station_ID":"ALSM1","Station_Nam":"ALLAGASH SNOW COURSE","Latitude":"47.07110","Longitude":"-69.07720","Snowdepth":"24.200","Units":"in","Rept_Date":"2020-04-07 16"},"coordinates":[6609,4772]},{"type":"Point","properties":{"Station_ID":"MNSM4","Station_Nam":"MUNISING","Latitude":"46.41210","Longitude":"-86.66250","Snowdepth":"23.000","Units":"in","Rept_Date":"2020-04-07 10"},"coordinates":[2482,4033]},{"type":"Point","properties":{"Station_ID":"CAN-NB-13","Station_Nam":"BATHURST 3.8 NW, CAN","Latitude":"47.64212","Longitude":"-65.68756","Snowdepth":"22.500","Units":"in","Rept_Date":"2020-04-07 09"},"coordinates":[7405,5413]},{"type":"Point","properties":{"Station_ID":"GURM1","Station_Nam":"GUERETTE SNOW COURSE","Latitude":"47.08360","Longitude":"-68.23140","Snowdepth":"20.200","Units":"in","Rept_Date":"2020-04-07 13"},"coordinates":[6808,4786]},{"type":"Point","properties":{"Station_ID":"WNTM1","Station_Nam":"WINTERVILLE SNOW COURSE","Latitude":"46.93170","Longitude":"-68.52720","Snowdepth":"19.600","Units":"in","Rept_Date":"2020-04-07 18"},"coordinates":[6738,4616]},{"type":"Point","properties":{"Station_ID":"ME-AR-18","Station_Nam":"NEW SWEDEN 4.9 NNW, ME","Latitude":"47.01080","Longitude":"-68.14390","Snowdepth":"18.000","Units":"in","Rept_Date":"2020-04-07 12"},"coordinates":[6828,4705]},{"type":"Point","properties":{"Station_ID":"HERM4","Station_Nam":"HERMAN,MI","Latitude":"46.65000","Longitude":"-88.33330","Snowdepth":"17.000","Units":"in","Rept_Date":"2020-04-07 12"},"coordinates":[2090,4300]},{"type":"Point","properties":{"Station_ID":"CAN-NB-11","Station_Nam":"MIRAMICHI 3.3 S, CAN","Latitude":"46.99343","Longitude":"-65.50690","Snowdepth":"17.000","Units":"in","Rept_Date":"2020-04-07 12"},"coordinates":[7447,4685]},{"type":"Point","properties":{"Station_ID":"PTLQ6","Station_Nam":"PORTAGE LAKE","Latitude":"49.06950","Longitude":"-86.65940","Snowdepth":"16.570","Units":"in","Rept_Date":"2020-04-08 06"},"coordinates":[2483,7016]},{"type":"Point","properties":{"Station_ID":"MI-BG-3","Station_Nam":"L'ANSE 17.8 SE, MI","Latitude":"46.55730","Longitude":"-88.20770","Snowdepth":"16.500","Units":"in","Rept_Date":"2020-04-07 13"},"coordinates":[2119,4196]},{"type":"Point","properties":{"Station_ID":"KNCM1","Station_Nam":"KNOWLES CORNER - MCOOP","Latitude":"46.20780","Longitude":"-68.31420","Snowdepth":"16.200","Units":"in","Rept_Date":"2020-04-07 17"},"coordinates":[6788,3803]},{"type":"Point","properties":{"Station_ID":"SQPM1","Station_Nam":"SQUA PAN DAM","Latitude":"46.55610","Longitude":"-68.32550","Snowdepth":"16.100","Units":"in","Rept_Date":"2020-04-07 15"},"coordinates":[6786,4194]},{"type":"Point","properties":{"Station_ID":"IBLM5","Station_Nam":"ISABELLA 14W","Latitude":"47.59360","Longitude":"-91.65140","Snowdepth":"16.000","Units":"in","Rept_Date":"2020-04-07 14"},"coordinates":[1311,5359]},{"type":"Point","properties":{"Station_ID":"HWRM1","Station_Nam":"HATHAWAY ROAD SNOW CORE","Latitude":"46.80830","Longitude":"-68.49580","Snowdepth":"15.900","Units":"in","Rept_Date":"2020-04-07 18"},"coordinates":[6746,4477]},{"type":"Point","properties":{"Station_ID":"TRIQ6","Station_Nam":"TRIO LAKE","Latitude":"49.22880","Longitude":"-87.22920","Snowdepth":"15.670","Units":"in","Rept_Date":"2020-04-08 06"},"coordinates":[2349,7195]},{"type":"Point","properties":{"Station_ID":"PNKM1","Station_Nam":"PINKHAM MILL SNOW CORE","Latitude":"46.71270","Longitude":"-68.45840","Snowdepth":"15.600","Units":"in","Rept_Date":"2020-04-07 15"},"coordinates":[6755,4370]},{"type":"Point","properties":{"Station_ID":"FISM1","Station_Nam":"FORT KENT COOP","Latitude":"47.23850","Longitude":"-68.61240","Snowdepth":"15.300","Units":"in","Rept_Date":"2020-04-07 14"},"coordinates":[6718,4960]},{"type":"Point","properties":{"Station_ID":"NH-CS-10","Station_Nam":"RANDOLPH 1.4 NE, NH","Latitude":"44.38824","Longitude":"-71.26950","Snowdepth":"15.000","Units":"in","Rept_Date":"2020-04-07 12"},"coordinates":[6095,1761]},{"type":"Point","properties":{"Station_ID":"MQT","Station_Nam":"MARQUETTE, MI","Latitude":"46.53140","Longitude":"-87.54920","Snowdepth":"15.000","Units":"in","Rept_Date":"2020-04-08 04"},"coordinates":[2274,4166]},{"type":"Point","properties":{"Station_ID":"CAN-QC-47","Station_Nam":"SAINTE-FOY 1.8 ENE, CAN","Latitude":"46.76934","Longitude":"-71.27124","Snowdepth":"15.000","Units":"in","Rept_Date":"2020-04-07 12"},"coordinates":[6094,4434]},{"type":"Point","properties":{"Station_ID":"OXBM1","Station_Nam":"OXBOW - MCOOP","Latitude":"46.42700","Longitude":"-68.55300","Snowdepth":"14.200","Units":"in","Rept_Date":"2020-04-07 16"},"coordinates":[6732,4049]},{"type":"Point","properties":{"Station_ID":"STEM4","Station_Nam":"STEUBEN","Latitude":"46.18530","Longitude":"-86.46410","Snowdepth":"14.000","Units":"in","Rept_Date":"2020-04-07 13"},"coordinates":[2529,3778]},{"type":"Point","properties":{"Station_ID":"SVBQ6","Station_Nam":"SAVANT BASE","Latitude":"50.28730","Longitude":"-90.65670","Snowdepth":"13.540","Units":"in","Rept_Date":"2020-04-08 06"},"coordinates":[1545,8383]},{"type":"Point","properties":{"Station_ID":"CAN-NB-96","Station_Nam":"SAINT-IGNACE 2.6 NE, CAN","Latitude":"46.71424","Longitude":"-65.05609","Snowdepth":"12.600","Units":"in","Rept_Date":"2020-04-07 11"},"coordinates":[7553,4372]},{"type":"Point","properties":{"Station_ID":"RGNM1","Station_Nam":"RANGELEY 2NW","Latitude":"44.98940","Longitude":"-70.67220","Snowdepth":"12.000","Units":"in","Rept_Date":"2020-04-07 10"},"coordinates":[6235,2435]},{"type":"Point","properties":{"Station_ID":"ME-FR-2","Station_Nam":"TEMPLE 1.8 W, ME","Latitude":"44.68329","Longitude":"-70.26420","Snowdepth":"11.500","Units":"in","Rept_Date":"2020-04-07 11"},"coordinates":[6331,2092]},{"type":"Point","properties":{"Station_ID":"DYRM1","Station_Nam":"DYER BROOK SNOWCOR","Latitude":"46.04820","Longitude":"-68.22600","Snowdepth":"11.200","Units":"in","Rept_Date":"2020-04-07 18"},"coordinates":[6809,3624]},{"type":"Point","properties":{"Station_ID":"MWN","Station_Nam":"MOUNT WASHINGTON","Latitude":"44.26670","Longitude":"-71.30000","Snowdepth":"11.000","Units":"in","Rept_Date":"2020-04-07 12"},"coordinates":[6088,1624]},{"type":"Point","properties":{"Station_ID":"KMWN","Station_Nam":"MOUNT WASHINGTON","Latitude":"44.26666","Longitude":"-71.30000","Snowdepth":"11.000","Units":"in","Rept_Date":"2020-04-08 06"},"coordinates":[6088,1624]},{"type":"Point","properties":{"Station_ID":"MI-HG-1","Station_Nam":"HOUGHTON 1.6 ESE, MI","Latitude":"47.10774","Longitude":"-88.52940","Snowdepth":"10.500","Units":"in","Rept_Date":"2020-04-07 13"},"coordinates":[2044,4813]},{"type":"Point","properties":{"Station_ID":"CAN-NB-105","Station_Nam":"SISSON BROOK 3.8 E, CAN","Latitude":"46.98305","Longitude":"-67.32532","Snowdepth":"9.100","Units":"in","Rept_Date":"2020-04-07 12"},"coordinates":[7020,4673]},{"type":"Point","properties":{"Station_ID":"CA2M1","Station_Nam":"CARIBOU (CARY MED.) SNOW COURSE","Latitude":"46.87920","Longitude":"-68.00030","Snowdepth":"9.100","Units":"in","Rept_Date":"2020-04-07 19"},"coordinates":[6862,4557]},{"type":"Point","properties":{"Station_ID":"VT-OL-12","Station_Nam":"GREENSBORO 3.9 NNE, VT","Latitude":"44.63100","Longitude":"-72.28000","Snowdepth":"9.000","Units":"in","Rept_Date":"2020-04-07 12"},"coordinates":[5858,2033]},{"type":"Point","properties":{"Station_ID":"PRDM4","Station_Nam":"PARADISE","Latitude":"46.60380","Longitude":"-85.03960","Snowdepth":"9.000","Units":"in","Rept_Date":"2020-04-07 11"},"coordinates":[2863,4248]},{"type":"Point","properties":{"Station_ID":"MN-CK-18","Station_Nam":"GRAND MARAIS 4.4 WSW, MN","Latitude":"47.74462","Longitude":"-90.43796","Snowdepth":"9.000","Units":"in","Rept_Date":"2020-04-07 13"},"coordinates":[1596,5528]},{"type":"Point","properties":{"Station_ID":"GHMN3","Station_Nam":"PINKHAM NOTCH","Latitude":"44.25800","Longitude":"-71.25250","Snowdepth":"9.000","Units":"in","Rept_Date":"2020-04-07 10"},"coordinates":[6099,1614]},{"type":"Point","properties":{"Station_ID":"CARM1","Station_Nam":"CARIBOU WFO","Latitude":"46.86810","Longitude":"-68.01250","Snowdepth":"9.000","Units":"in","Rept_Date":"2020-04-07 12"},"coordinates":[6859,4544]},{"type":"Point","properties":{"Station_ID":"CAR","Station_Nam":"CARIBOU, ME","Latitude":"46.86830","Longitude":"-68.01360","Snowdepth":"9.000","Units":"in","Rept_Date":"2020-04-07 12"},"coordinates":[6859,4545]},{"type":"Point","properties":{"Station_ID":"CAN-NS-60","Station_Nam":"SYDNEY FORKS, CAN","Latitude":"46.05645","Longitude":"-60.31510","Snowdepth":"9.000","Units":"in","Rept_Date":"2020-04-07 13"},"coordinates":[8666,3633]},{"type":"Point","properties":{"Station_ID":"WI-IR-3","Station_Nam":"PENCE 0.1 E, WI","Latitude":"46.41555","Longitude":"-90.27013","Snowdepth":"8.000","Units":"in","Rept_Date":"2020-04-07 13"},"coordinates":[1635,4036]},{"type":"Point","properties":{"Station_ID":"MI-GG-4","Station_Nam":"WATERSMEET 5.0 SE, MI","Latitude":"46.20333","Longitude":"-89.13170","Snowdepth":"8.000","Units":"in","Rept_Date":"2020-04-07 14"},"coordinates":[1903,3798]},{"type":"Point","properties":{"Station_ID":"CAN-NS-103","Station_Nam":"TRAFALGAR 4.9 WSW, CAN","Latitude":"45.26217","Longitude":"-62.72285","Snowdepth":"8.000","Units":"in","Rept_Date":"2020-04-07 12"},"coordinates":[8101,2742]},{"type":"Point","properties":{"Station_ID":"VT-CL-3","Station_Nam":"GROTON 4.4 WSW, VT","Latitude":"44.19440","Longitude":"-72.28240","Snowdepth":"7.500","Units":"in","Rept_Date":"2020-04-07 11"},"coordinates":[5857,1543]},{"type":"Point","properties":{"Station_ID":"WI-VL-9","Station_Nam":"LAND O' LAKES 11.7 W, WI","Latitude":"46.19023","Longitude":"-89.45790","Snowdepth":"7.000","Units":"in","Rept_Date":"2020-04-07 13"},"coordinates":[1826,3783]},{"type":"Point","properties":{"Station_ID":"VANM1","Station_Nam":"VAN BUREN","Latitude":"47.16600","Longitude":"-67.93900","Snowdepth":"7.000","Units":"in","Rept_Date":"2020-04-07 11"},"coordinates":[6876,4879]},{"type":"Point","properties":{"Station_ID":"ME-AR-15","Station_Nam":"PRESQUE ISLE 1.3 WSW, ME","Latitude":"46.67960","Longitude":"-68.01270","Snowdepth":"7.000","Units":"in","Rept_Date":"2020-04-07 12"},"coordinates":[6859,4333]},{"type":"Point","properties":{"Station_ID":"LNOW3","Station_Nam":"LAND O LAKES","Latitude":"46.19000","Longitude":"-89.45700","Snowdepth":"7.000","Units":"in","Rept_Date":"2020-04-07 12"},"coordinates":[1826,3783]},{"type":"Point","properties":{"Station_ID":"RANM1","Station_Nam":"RANGELEY","Latitude":"44.98910","Longitude":"-70.67190","Snowdepth":"6.000","Units":"in","Rept_Date":"2020-04-07 10"},"coordinates":[6235,2435]},{"type":"Point","properties":{"Station_ID":"MN-CK-6","Station_Nam":"GRAND MARAIS 4.4 W, MN","Latitude":"47.74865","Longitude":"-90.43760","Snowdepth":"6.000","Units":"in","Rept_Date":"2020-04-07 13"},"coordinates":[1596,5533]},{"type":"Point","properties":{"Station_ID":"MI-MQ-19","Station_Nam":"ISHPEMING 7.2 SW, MI","Latitude":"46.40550","Longitude":"-87.75670","Snowdepth":"6.000","Units":"in","Rept_Date":"2020-04-07 11"},"coordinates":[2225,4025]},{"type":"Point","properties":{"Station_ID":"LVDW3","Station_Nam":"LAC VIEUX DESERT","Latitude":"46.12110","Longitude":"-89.07580","Snowdepth":"6.000","Units":"in","Rept_Date":"2020-04-07 14"},"coordinates":[1916,3706]},{"type":"Point","properties":{"Station_ID":"WI-VL-10","Station_Nam":"LAND O LAKES 4.3 WNW, WI","Latitude":"46.17440","Longitude":"-89.30380","Snowdepth":"5.500","Units":"in","Rept_Date":"2020-04-07 13"},"coordinates":[1862,3766]},{"type":"Point","properties":{"Station_ID":"KABQ6","Station_Nam":"CAB LAKE","Latitude":"49.59950","Longitude":"-89.17990","Snowdepth":"5.200","Units":"in","Rept_Date":"2020-04-08 06"},"coordinates":[1891,7611]},{"type":"Point","properties":{"Station_ID":"ME-FR-22","Station_Nam":"FARMINGTON 4.8 NNW, ME","Latitude":"44.73396","Longitude":"-70.18007","Snowdepth":"5.000","Units":"in","Rept_Date":"2020-04-07 14"},"coordinates":[6350,2149]},{"type":"Point","properties":{"Station_ID":"BNDM5","Station_Nam":"ELY 25E","Latitude":"47.97190","Longitude":"-91.44860","Snowdepth":"5.000","Units":"in","Rept_Date":"2020-04-07 12"},"coordinates":[1359,5784]},{"type":"Point","properties":{"Station_ID":"CAN-NB-64","Station_Nam":"KESWICK RIDGE 4.0 SE, CAN","Latitude":"45.97014","Longitude":"-66.85538","Snowdepth":"4.700","Units":"in","Rept_Date":"2020-04-07 12"},"coordinates":[7131,3536]},{"type":"Point","properties":{"Station_ID":"MTCM1","Station_Nam":"MONTICELLO SNOW COURSE","Latitude":"46.33280","Longitude":"-67.84190","Snowdepth":"4.400","Units":"in","Rept_Date":"2020-04-07 19"},"coordinates":[6899,3944]},{"type":"Point","properties":{"Station_ID":"SOCQ6","Station_Nam":"SOCKET LAKE","Latitude":"50.77870","Longitude":"-91.79300","Snowdepth":"4.330","Units":"in","Rept_Date":"2020-04-08 06"},"coordinates":[1278,8935]},{"type":"Point","properties":{"Station_ID":"NSNM1","Station_Nam":"NEW SHARON","Latitude":"44.63330","Longitude":"-70.00000","Snowdepth":"4.000","Units":"in","Rept_Date":"2020-04-07 12"},"coordinates":[6393,2036]},{"type":"Point","properties":{"Station_ID":"COKM5","Station_Nam":"COOK","Latitude":"47.85060","Longitude":"-92.69250","Snowdepth":"4.000","Units":"in","Rept_Date":"2020-04-07 11"},"coordinates":[1067,5647]},{"type":"Point","properties":{"Station_ID":"CAN-PE-3","Station_Nam":"WELLINGTON 1.6 NE, CA","Latitude":"46.46672","Longitude":"-63.98920","Snowdepth":"4.000","Units":"in","Rept_Date":"2020-04-07 11"},"coordinates":[7803,4094]},{"type":"Point","properties":{"Station_ID":"NH-CR-15","Station_Nam":"JACKSON 3.7 NW, NH","Latitude":"44.19069","Longitude":"-71.22598","Snowdepth":"3.500","Units":"in","Rept_Date":"2020-04-07 12"},"coordinates":[6105,1539]},{"type":"Point","properties":{"Station_ID":"CAN-PE-7","Station_Nam":"MORELL 1.4 NNW, CA","Latitude":"46.42741","Longitude":"-62.70870","Snowdepth":"3.500","Units":"in","Rept_Date":"2020-04-07 12"},"coordinates":[8104,4050]},{"type":"Point","properties":{"Station_ID":"WI-ON-8","Station_Nam":"HAZELHURST 2.1 SSE, WI","Latitude":"45.78186","Longitude":"-89.70330","Snowdepth":"3.000","Units":"in","Rept_Date":"2020-04-07 13"},"coordinates":[1768,3325]},{"type":"Point","properties":{"Station_ID":"NOHM5","Station_Nam":"NORTHOME","Latitude":"47.83590","Longitude":"-94.25550","Snowdepth":"3.000","Units":"in","Rept_Date":"2020-04-07 12"},"coordinates":[700,5631]},{"type":"Point","properties":{"Station_ID":"MN7M8EBJ","Station_Nam":"LUTSEN 15.7 NNW","Latitude":"47.85324","Longitude":"-89.92908","Snowdepth":"3.000","Units":"in","Rept_Date":"2020-04-07 13"},"coordinates":[1715,5650]},{"type":"Point","properties":{"Station_ID":"MN-SL-15","Station_Nam":"CHISHOLM 0.4 WSW, MN","Latitude":"47.48557","Longitude":"-92.88690","Snowdepth":"3.000","Units":"in","Rept_Date":"2020-04-07 13"},"coordinates":[1021,5238]},{"type":"Point","properties":{"Station_ID":"MN-IT-10","Station_Nam":"DEER RIVER 3.7 W, MN","Latitude":"47.33564","Longitude":"-93.87514","Snowdepth":"3.000","Units":"in","Rept_Date":"2020-04-07 14"},"coordinates":[789,5069]},{"type":"Point","properties":{"Station_ID":"LILM1","Station_Nam":"LILLE","Latitude":"47.27770","Longitude":"-68.10520","Snowdepth":"3.000","Units":"in","Rept_Date":"2020-04-07 11"},"coordinates":[6837,5004]},{"type":"Point","properties":{"Station_ID":"KINM1","Station_Nam":"KINGFIELD","Latitude":"44.95950","Longitude":"-70.17530","Snowdepth":"3.000","Units":"in","Rept_Date":"2020-04-07 10"},"coordinates":[6352,2402]},{"type":"Point","properties":{"Station_ID":"KGFK","Station_Nam":"GRAND FORKS INTERNATIONAL","Latitude":"47.95000","Longitude":"-97.18333","Snowdepth":"3.000","Units":"in","Rept_Date":"2020-04-07 12"},"coordinates":[13,5759]},{"type":"Point","properties":{"Station_ID":"GRBM5","Station_Nam":"GRAND RAPIDS 12N","Latitude":"47.39800","Longitude":"-93.51330","Snowdepth":"3.000","Units":"in","Rept_Date":"2020-04-07 12"},"coordinates":[874,5139]},{"type":"Point","properties":{"Station_ID":"CLKM4","Station_Nam":"CLARKSBURG","Latitude":"46.49910","Longitude":"-87.84500","Snowdepth":"3.000","Units":"in","Rept_Date":"2020-04-07 11"},"coordinates":[2205,4130]},{"type":"Point","properties":{"Station_ID":"FTHQ6","Station_Nam":"FORT HOPE","Latitude":"51.55820","Longitude":"-87.90510","Snowdepth":"2.170","Units":"in","Rept_Date":"2020-04-08 06"},"coordinates":[2191,9810]},{"type":"Point","properties":{"Station_ID":"WI-VL-14","Station_Nam":"BOULDER JUNCTION 1.4 NE, WI","Latitude":"46.12840","Longitude":"-89.62470","Snowdepth":"2.000","Units":"in","Rept_Date":"2020-04-07 13"},"coordinates":[1787,3714]},{"type":"Point","properties":{"Station_ID":"VT-BN-12","Station_Nam":"STAMFORD 5.0 NNE, VT","Latitude":"42.82000","Longitude":"-73.02000","Snowdepth":"2.000","Units":"in","Rept_Date":"2020-04-07 21"},"coordinates":[5684,0]},{"type":"Point","properties":{"Station_ID":"SSMM4","Station_Nam":"SAULT STE MARIE","Latitude":"46.48660","Longitude":"-84.40250","Snowdepth":"2.000","Units":"in","Rept_Date":"2020-04-07 12"},"coordinates":[3013,4116]},{"type":"Point","properties":{"Station_ID":"PBAN8","Station_Nam":"SITE 1-3MI.N","Latitude":"48.97420","Longitude":"-97.23860","Snowdepth":"2.000","Units":"in","Rept_Date":"2020-04-07 12"},"coordinates":[0,6909]},{"type":"Point","properties":{"Station_ID":"MN6V6NSM","Station_Nam":"LUTSEN 1.8 NE","Latitude":"47.66606","Longitude":"-90.64895","Snowdepth":"2.000","Units":"in","Rept_Date":"2020-04-07 13"},"coordinates":[1547,5440]},{"type":"Point","properties":{"Station_ID":"CSLM5","Station_Nam":"CASS LAKE,MN","Latitude":"47.38470","Longitude":"-94.61470","Snowdepth":"2.000","Units":"in","Rept_Date":"2020-04-07 13"},"coordinates":[616,5124]},{"type":"Point","properties":{"Station_ID":"CAN-MB-32","Station_Nam":"PINAWA 1.0 SW, CA","Latitude":"50.14747","Longitude":"-95.89020","Snowdepth":"2.000","Units":"in","Rept_Date":"2020-04-07 13"},"coordinates":[316,8226]},{"type":"Point","properties":{"Station_ID":"BRDM1","Station_Nam":"BRIDGEWATER","Latitude":"46.42870","Longitude":"-67.84370","Snowdepth":"2.000","Units":"in","Rept_Date":"2020-04-07 22"},"coordinates":[6899,4051]},{"type":"Point","properties":{"Station_ID":"ANJM4","Station_Nam":"SNOW PAID OBSERVER FOR KANJ","Latitude":"46.48670","Longitude":"-84.40260","Snowdepth":"2.000","Units":"in","Rept_Date":"2020-04-07 18"},"coordinates":[3013,4116]},{"type":"Point","properties":{"Station_ID":"ANJ","Station_Nam":"SAULT STE MARIE","Latitude":"46.46670","Longitude":"-84.36670","Snowdepth":"2.000","Units":"in","Rept_Date":"2020-04-08 00"},"coordinates":[3021,4094]},{"type":"Point","properties":{"Station_ID":"CAN-NB-97","Station_Nam":"NEW MARYLAND 0.6 NW, CAN","Latitude":"45.90112","Longitude":"-66.68739","Snowdepth":"1.600","Units":"in","Rept_Date":"2020-04-07 11"},"coordinates":[7170,3459]},{"type":"Point","properties":{"Station_ID":"MN-IT-23","Station_Nam":"BOVEY 13.4 N, MN","Latitude":"47.48855","Longitude":"-93.43497","Snowdepth":"1.500","Units":"in","Rept_Date":"2020-04-07 13"},"coordinates":[893,5241]},{"type":"Point","properties":{"Station_ID":"CATQ6","Station_Nam":"CAT LAKE","Latitude":"51.72690","Longitude":"-91.82210","Snowdepth":"1.420","Units":"in","Rept_Date":"2020-04-08 06"},"coordinates":[1271,9999]},{"type":"Point","properties":{"Station_ID":"CAN-NS-94","Station_Nam":"MARGAREE FORKS 2.6 SSE CBN, CAN","Latitude":"46.30937","Longitude":"-61.07603","Snowdepth":"1.200","Units":"in","Rept_Date":"2020-04-07 13"},"coordinates":[8487,3917]},{"type":"Point","properties":{"Station_ID":"SUAW3","Station_Nam":"SUAMICO","Latitude":"44.60190","Longitude":"-88.09780","Snowdepth":"1.000","Units":"in","Rept_Date":"2020-04-07 11"},"coordinates":[2145,2000]},{"type":"Point","properties":{"Station_ID":"STGW3","Station_Nam":"ST GERMAIN","Latitude":"45.91550","Longitude":"-89.48940","Snowdepth":"1.000","Units":"in","Rept_Date":"2020-04-07 11"},"coordinates":[1819,3475]},{"type":"Point","properties":{"Station_ID":"LBRM5","Station_Nam":"LAKE BRONSON DAM","Latitude":"48.72410","Longitude":"-96.62180","Snowdepth":"1.000","Units":"in","Rept_Date":"2020-04-07 13"},"coordinates":[145,6628]},{"type":"Point","properties":{"Station_ID":"JKMM1","Station_Nam":"JACKMAN","Latitude":"45.62600","Longitude":"-70.24600","Snowdepth":"1.000","Units":"in","Rept_Date":"2020-04-07 11"},"coordinates":[6335,3150]},{"type":"Point","properties":{"Station_ID":"IWOM4","Station_Nam":"IRONWOOD#2","Latitude":"46.46520","Longitude":"-90.13820","Snowdepth":"1.000","Units":"in","Rept_Date":"2020-04-07 12"},"coordinates":[1666,4092]},{"type":"Point","properties":{"Station_ID":"INL","Station_Nam":"FALLS INTERNATIONAL ARPT","Latitude":"48.56640","Longitude":"-93.40310","Snowdepth":"1.000","Units":"in","Rept_Date":"2020-04-08 00"},"coordinates":[900,6451]},{"type":"Point","properties":{"Station_ID":"GFK","Station_Nam":"GRAND FORKS INTERNATIONAL AIRPORT","Latitude":"47.94920","Longitude":"-97.17610","Snowdepth":"1.000","Units":"in","Rept_Date":"2020-04-08 00"},"coordinates":[15,5758]},{"type":"Point","properties":{"Station_ID":"ELYM5","Station_Nam":"ELY","Latitude":"47.90560","Longitude":"-91.82830","Snowdepth":"1.000","Units":"in","Rept_Date":"2020-04-07 13"},"coordinates":[1270,5709]},{"type":"Point","properties":{"Station_ID":"CRVW3","Station_Nam":"CRIVITZ HIGH FALLS","Latitude":"45.35750","Longitude":"-88.19190","Snowdepth":"1.000","Units":"in","Rept_Date":"2020-04-07 12"},"coordinates":[2123,2849]},{"type":"Point","properties":{"Station_ID":"COVM4","Station_Nam":"COVINGTON","Latitude":"46.55880","Longitude":"-88.54190","Snowdepth":"1.000","Units":"in","Rept_Date":"2020-04-07 12"},"coordinates":[2041,4197]},{"type":"Point","properties":{"Station_ID":"BAUM5","Station_Nam":"BAUDETTE,MN","Latitude":"48.71670","Longitude":"-94.61670","Snowdepth":"1.000","Units":"in","Rept_Date":"2020-04-07 21"},"coordinates":[615,6620]},{"type":"Point","properties":{"Station_ID":"BABM5","Station_Nam":"BABBITT","Latitude":"47.71210","Longitude":"-91.95330","Snowdepth":"1.000","Units":"in","Rept_Date":"2020-04-07 12"},"coordinates":[1240,5492]}]}},"arcs":[],"transform":{"scale":[0.004260890089008902,0.0008907790779077906],"translate":[-97.2386,42.82]}}