{"type":"Topology","objects":{"snowdepth_geo":{"type":"GeometryCollection","name":"snowdepth","crs":{"type":"name","properties":{"name":"urn:ogc:def:crs:OGC:1.3:CRS84"}},"geometries":[{"type":"Point","properties":{"Station_ID":"MMSV1","Station_Nam":"MOUNT MANSFIELD","Latitude":"44.53330","Longitude":"-72.83330","Snowdepth":"86.000","Units":"in","Rept_Date":"2019-11-15 05"},"coordinates":[6650,5538]},{"type":"Point","properties":{"Station_ID":"PRKM4","Station_Nam":"MUNISING EAST","Latitude":"46.42580","Longitude":"-86.62000","Snowdepth":"76.500","Units":"in","Rept_Date":"2019-11-15 06"},"coordinates":[2833,6712]},{"type":"Point","properties":{"Station_ID":"OGIQ6","Station_Nam":"OGOKI CAMP","Latitude":"50.76680","Longitude":"-87.85820","Snowdepth":"61.100","Units":"in","Rept_Date":"2019-11-15 06"},"coordinates":[2490,9404]},{"type":"Point","properties":{"Station_ID":"AUDQ6","Station_Nam":"AUDEN","Latitude":"48.52600","Longitude":"-82.57570","Snowdepth":"47.640","Units":"in","Rept_Date":"2019-11-15 06"},"coordinates":[3952,8014]},{"type":"Point","properties":{"Station_ID":"DVLQ6","Station_Nam":"DEVIOUS LAKE","Latitude":"49.19890","Longitude":"-87.76440","Snowdepth":"43.460","Units":"in","Rept_Date":"2019-11-15 06"},"coordinates":[2516,8431]},{"type":"Point","properties":{"Station_ID":"PRDM4","Station_Nam":"PARADISE","Latitude":"46.60380","Longitude":"-85.03960","Snowdepth":"21.000","Units":"in","Rept_Date":"2019-11-14 11"},"coordinates":[3270,6822]},{"type":"Point","properties":{"Station_ID":"GMSM4","Station_Nam":"GRAND MARAIS 10S","Latitude":"46.50940","Longitude":"-85.96310","Snowdepth":"20.000","Units":"in","Rept_Date":"2019-11-14 12"},"coordinates":[3015,6763]},{"type":"Point","properties":{"Station_ID":"41.6972_080.9056","Station_Nam":"3 ENE Trumbull  Trained Spotter (CLE1480)","Latitude":"41.69720","Longitude":"-80.90557","Snowdepth":"19.000","Units":"in","Rept_Date":"2019-11-15 01"},"coordinates":[4415,3779]},{"type":"Point","properties":{"Station_ID":"HWLM4","Station_Nam":"HALFWAY LAKE","Latitude":"46.47480","Longitude":"-85.59250","Snowdepth":"17.000","Units":"in","Rept_Date":"2019-11-14 14"},"coordinates":[3117,6742]},{"type":"Point","properties":{"Station_ID":"QGD","Station_Nam":"QGD","Latitude":"51.11140","Longitude":"-67.13940","Snowdepth":"14.134","Units":"in","Rept_Date":"2019-11-14 12"},"coordinates":[8226,9617]},{"type":"Point","properties":{"Station_ID":"QOU","Station_Nam":"QOU","Latitude":"50.79250","Longitude":"-69.67470","Snowdepth":"13.268","Units":"in","Rept_Date":"2019-11-14 12"},"coordinates":[7524,9420]},{"type":"Point","properties":{"Station_ID":"NWFM4","Station_Nam":"NW MICHIGAN RESEARCH FARM","Latitude":"44.88300","Longitude":"-85.67520","Snowdepth":"13.000","Units":"in","Rept_Date":"2019-11-14 13"},"coordinates":[3094,5755]},{"type":"Point","properties":{"Station_ID":"MAPM4","Station_Nam":"MAPLE CITY 1E","Latitude":"44.85500","Longitude":"-85.83520","Snowdepth":"13.000","Units":"in","Rept_Date":"2019-11-14 23"},"coordinates":[3050,5737]},{"type":"Point","properties":{"Station_ID":"IWOM4","Station_Nam":"IRONWOOD#2","Latitude":"46.46520","Longitude":"-90.13820","Snowdepth":"12.000","Units":"in","Rept_Date":"2019-11-14 13"},"coordinates":[1859,6736]},{"type":"Point","properties":{"Station_ID":"BRKN6","Station_Nam":"BROCKPORT","Latitude":"43.21600","Longitude":"-77.95290","Snowdepth":"12.000","Units":"in","Rept_Date":"2019-11-14 14"},"coordinates":[5232,4721]},{"type":"Point","properties":{"Station_ID":"AVLV1","Station_Nam":"AVERILL","Latitude":"45.00570","Longitude":"-71.69030","Snowdepth":"12.000","Units":"in","Rept_Date":"2019-11-14 13"},"coordinates":[6966,5831]},{"type":"Point","properties":{"Station_ID":"QGO","Station_Nam":"QGO","Latitude":"48.85500","Longitude":"-74.20640","Snowdepth":"11.890","Units":"in","Rept_Date":"2019-11-14 12"},"coordinates":[6269,8218]},{"type":"Point","properties":{"Station_ID":"QMA","Station_Nam":"QMA","Latitude":"50.10330","Longitude":"-70.47190","Snowdepth":"11.653","Units":"in","Rept_Date":"2019-11-14 12"},"coordinates":[7303,8992]},{"type":"Point","properties":{"Station_ID":"NY-WN-10","Station_Nam":"WALWORTH 1.7 SW, NY","Latitude":"43.12500","Longitude":"-77.29900","Snowdepth":"11.000","Units":"in","Rept_Date":"2019-11-14 12"},"coordinates":[5413,4665]},{"type":"Point","properties":{"Station_ID":"MMNV1","Station_Nam":"MT. MANSFIELD","Latitude":"44.52480","Longitude":"-72.81540","Snowdepth":"11.000","Units":"in","Rept_Date":"2019-11-14 21"},"coordinates":[6654,5533]},{"type":"Point","properties":{"Station_ID":"MI-OK-94","Station_Nam":"FARMINGTON HILLS 1.4 N, MI","Latitude":"42.50660","Longitude":"-83.37910","Snowdepth":"11.000","Units":"in","Rept_Date":"2019-11-14 12"},"coordinates":[3730,4281]},{"type":"Point","properties":{"Station_ID":"LEXM4","Station_Nam":"LEXINGTON WATER PLANT","Latitude":"43.26310","Longitude":"-82.53280","Snowdepth":"11.000","Units":"in","Rept_Date":"2019-11-14 12"},"coordinates":[3964,4750]},{"type":"Point","properties":{"Station_ID":"NY-MR-71","Station_Nam":"ROCHESTER 4.7 NE, NY","Latitude":"43.21668","Longitude":"-77.55016","Snowdepth":"10.800","Units":"in","Rept_Date":"2019-11-14 12"},"coordinates":[5344,4721]},{"type":"Point","properties":{"Station_ID":"MI-AT-6","Station_Nam":"MANCELONA 0.5 ESE, MI","Latitude":"44.89981","Longitude":"-85.05100","Snowdepth":"10.800","Units":"in","Rept_Date":"2019-11-14 13"},"coordinates":[3267,5765]},{"type":"Point","properties":{"Station_ID":"QMD","Station_Nam":"QMD","Latitude":"49.29060","Longitude":"-75.84500","Snowdepth":"10.315","Units":"in","Rept_Date":"2019-11-14 12"},"coordinates":[5816,8488]},{"type":"Point","properties":{"Station_ID":"MLZ","Station_Nam":"MLZ","Latitude":"50.66170","Longitude":"-68.82360","Snowdepth":"10.039","Units":"in","Rept_Date":"2019-11-14 12"},"coordinates":[7760,9338]},{"type":"Point","properties":{"Station_ID":"VANM1","Station_Nam":"VAN BUREN","Latitude":"47.16600","Longitude":"-67.93900","Snowdepth":"10.000","Units":"in","Rept_Date":"2019-11-14 12"},"coordinates":[8004,7171]},{"type":"Point","properties":{"Station_ID":"SSMM4","Station_Nam":"SAULT STE MARIE","Latitude":"46.48660","Longitude":"-84.40250","Snowdepth":"10.000","Units":"in","Rept_Date":"2019-11-14 13"},"coordinates":[3447,6749]},{"type":"Point","properties":{"Station_ID":"PDLM4","Station_Nam":"PAINESDALE","Latitude":"47.04160","Longitude":"-88.67170","Snowdepth":"10.000","Units":"in","Rept_Date":"2019-11-14 13"},"coordinates":[2265,7093]},{"type":"Point","properties":{"Station_ID":"NY-GN-13","Station_Nam":"BATAVIA 3.4 WSW, NY","Latitude":"42.98866","Longitude":"-78.24729","Snowdepth":"10.000","Units":"in","Rept_Date":"2019-11-14 13"},"coordinates":[5151,4580]},{"type":"Point","properties":{"Station_ID":"MNSM4","Station_Nam":"MUNISING","Latitude":"46.41210","Longitude":"-86.66250","Snowdepth":"10.000","Units":"in","Rept_Date":"2019-11-14 11"},"coordinates":[2821,6703]},{"type":"Point","properties":{"Station_ID":"KSGM4","Station_Nam":"KEARSARGE","Latitude":"47.27520","Longitude":"-88.41700","Snowdepth":"10.000","Units":"in","Rept_Date":"2019-11-14 13"},"coordinates":[2335,7238]},{"type":"Point","properties":{"Station_ID":"FISM1","Station_Nam":"FORT KENT COOP","Latitude":"47.23850","Longitude":"-68.61240","Snowdepth":"10.000","Units":"in","Rept_Date":"2019-11-14 12"},"coordinates":[7818,7216]},{"type":"Point","properties":{"Station_ID":"OH-GG-17","Station_Nam":"CHAGRIN FALLS 5.2 ESE, OH","Latitude":"41.41352","Longitude":"-81.29255","Snowdepth":"9.500","Units":"in","Rept_Date":"2019-11-14 12"},"coordinates":[4308,3603]},{"type":"Point","properties":{"Station_ID":"ME-AR-23","Station_Nam":"MADAWASKA 2.5 E, ME","Latitude":"47.34933","Longitude":"-68.28141","Snowdepth":"9.500","Units":"in","Rept_Date":"2019-11-14 12"},"coordinates":[7910,7284]},{"type":"Point","properties":{"Station_ID":"QLM","Station_Nam":"QLM","Latitude":"48.92030","Longitude":"-70.25280","Snowdepth":"9.488","Units":"in","Rept_Date":"2019-11-14 12"},"coordinates":[7364,8259]},{"type":"Point","properties":{"Station_ID":"CAN-NB-38","Station_Nam":"GRAND FALLS 2.2 NE, CA","Latitude":"47.05701","Longitude":"-67.72630","Snowdepth":"9.200","Units":"in","Rept_Date":"2019-11-14 11"},"coordinates":[8063,7103]},{"type":"Point","properties":{"Station_ID":"RICM4","Station_Nam":"RICHMOND 4 NNW","Latitude":"42.87830","Longitude":"-82.79580","Snowdepth":"9.000","Units":"in","Rept_Date":"2019-11-14 13"},"coordinates":[3892,4512]},{"type":"Point","properties":{"Station_ID":"NY-NG-12","Station_Nam":"LOCKPORT 0.8 NE, NY","Latitude":"43.17645","Longitude":"-78.68340","Snowdepth":"9.000","Units":"in","Rept_Date":"2019-11-14 12"},"coordinates":[5030,4697]},{"type":"Point","properties":{"Station_ID":"MTQM4","Station_Nam":"MANISTIQUE WWTP","Latitude":"45.95120","Longitude":"-86.25130","Snowdepth":"9.000","Units":"in","Rept_Date":"2019-11-14 12"},"coordinates":[2935,6417]},{"type":"Point","properties":{"Station_ID":"LILM1","Station_Nam":"LILLE","Latitude":"47.27770","Longitude":"-68.10520","Snowdepth":"9.000","Units":"in","Rept_Date":"2019-11-14 12"},"coordinates":[7958,7240]},{"type":"Point","properties":{"Station_ID":"JOHV1","Station_Nam":"JOHNSON 2 N","Latitude":"44.65790","Longitude":"-72.67850","Snowdepth":"9.000","Units":"in","Rept_Date":"2019-11-14 12"},"coordinates":[6692,5615]},{"type":"Point","properties":{"Station_ID":"IRMM4","Station_Nam":"WWTP","Latitude":"46.46670","Longitude":"-90.18330","Snowdepth":"9.000","Units":"in","Rept_Date":"2019-11-14 13"},"coordinates":[1846,6737]},{"type":"Point","properties":{"Station_ID":"ANJ","Station_Nam":"SAULT STE MARIE","Latitude":"46.46670","Longitude":"-84.36670","Snowdepth":"9.000","Units":"in","Rept_Date":"2019-11-15 00"},"coordinates":[3457,6737]},{"type":"Point","properties":{"Station_ID":"MI-AN-20","Station_Nam":"HOLLAND 5.3 WSW, MI","Latitude":"42.74900","Longitude":"-86.20200","Snowdepth":"8.800","Units":"in","Rept_Date":"2019-11-14 13"},"coordinates":[2949,4431]},{"type":"Point","properties":{"Station_ID":"OH-GG-11","Station_Nam":"MADISON 4.2 S, OH","Latitude":"41.71238","Longitude":"-81.03871","Snowdepth":"8.500","Units":"in","Rept_Date":"2019-11-14 12"},"coordinates":[4378,3789]},{"type":"Point","properties":{"Station_ID":"NY-ER-158","Station_Nam":"EAST AURORA 2.7 SSE, NY","Latitude":"42.72936","Longitude":"-78.60561","Snowdepth":"8.400","Units":"in","Rept_Date":"2019-11-14 13"},"coordinates":[5052,4419]},{"type":"Point","properties":{"Station_ID":"MI-WS-3","Station_Nam":"PLYMOUTH 5.4 W, MI","Latitude":"42.38279","Longitude":"-83.57120","Snowdepth":"8.400","Units":"in","Rept_Date":"2019-11-14 12"},"coordinates":[3677,4204]},{"type":"Point","properties":{"Station_ID":"MI-MB-55","Station_Nam":"FRASER 1.2 N, MI","Latitude":"42.55697","Longitude":"-82.94938","Snowdepth":"8.300","Units":"in","Rept_Date":"2019-11-14 12"},"coordinates":[3849,4312]},{"type":"Point","properties":{"Station_ID":"NY-WN-9","Station_Nam":"MARION 2.0 NE, NY","Latitude":"43.16668","Longitude":"-77.16750","Snowdepth":"8.200","Units":"in","Rept_Date":"2019-11-14 12"},"coordinates":[5450,4690]},{"type":"Point","properties":{"Station_ID":"CAN-ON-491","Station_Nam":"MILVERTON 1.1 ESE- CANWARN, CAN","Latitude":"43.56074","Longitude":"-80.90887","Snowdepth":"8.200","Units":"in","Rept_Date":"2019-11-14 11"},"coordinates":[4414,4935]},{"type":"Point","properties":{"Station_ID":"QCU","Station_Nam":"QCU","Latitude":"47.82750","Longitude":"-76.59830","Snowdepth":"8.150","Units":"in","Rept_Date":"2019-11-14 12"},"coordinates":[5607,7581]},{"type":"Point","properties":{"Station_ID":"NY-ER-86","Station_Nam":"TONAWANDA 1.5 NNE, NY","Latitude":"43.00507","Longitude":"-78.86600","Snowdepth":"8.100","Units":"in","Rept_Date":"2019-11-14 14"},"coordinates":[4979,4590]},{"type":"Point","properties":{"Station_ID":"OH-TR-4","Station_Nam":"NEWTON FALLS 0.6 N, OH","Latitude":"41.19773","Longitude":"-80.97210","Snowdepth":"8.000","Units":"in","Rept_Date":"2019-11-14 12"},"coordinates":[4396,3469]},{"type":"Point","properties":{"Station_ID":"OH-PT-13","Station_Nam":"MANTUA 1.0 NNW, OH","Latitude":"41.29421","Longitude":"-81.23160","Snowdepth":"8.000","Units":"in","Rept_Date":"2019-11-14 12"},"coordinates":[4325,3529]},{"type":"Point","properties":{"Station_ID":"NY-ER-65","Station_Nam":"BOSTON 1.5 NE, NY","Latitude":"42.65470","Longitude":"-78.72010","Snowdepth":"8.000","Units":"in","Rept_Date":"2019-11-14 13"},"coordinates":[5020,4373]},{"type":"Point","properties":{"Station_ID":"NY-CT-2","Station_Nam":"RANDOLPH 1.1 ENE, NY","Latitude":"42.17056","Longitude":"-78.96120","Snowdepth":"8.000","Units":"in","Rept_Date":"2019-11-14 12"},"coordinates":[4953,4073]},{"type":"Point","properties":{"Station_ID":"MI-MB-9","Station_Nam":"NEW BALTIMORE 0.4 SSE, MI","Latitude":"42.67702","Longitude":"-82.73570","Snowdepth":"8.000","Units":"in","Rept_Date":"2019-11-14 13"},"coordinates":[3908,4387]},{"type":"Point","properties":{"Station_ID":"MI-CP-14","Station_Nam":"SAULT STE. MARIE 2.2 E, MI","Latitude":"46.48933","Longitude":"-84.31971","Snowdepth":"8.000","Units":"in","Rept_Date":"2019-11-14 14"},"coordinates":[3470,6751]},{"type":"Point","properties":{"Station_ID":"MALN6","Station_Nam":"MALONE","Latitude":"44.84180","Longitude":"-74.30600","Snowdepth":"8.000","Units":"in","Rept_Date":"2019-11-14 12"},"coordinates":[6242,5729]},{"type":"Point","properties":{"Station_ID":"LPEM4","Station_Nam":"LAPEER,MI","Latitude":"43.06280","Longitude":"-83.33330","Snowdepth":"8.000","Units":"in","Rept_Date":"2019-11-14 15"},"coordinates":[3743,4626]},{"type":"Point","properties":{"Station_ID":"KROC","Station_Nam":"GREATER ROCHESTER INTERNATIONAL","Latitude":"43.11666","Longitude":"-77.68333","Snowdepth":"8.000","Units":"in","Rept_Date":"2019-11-14 18"},"coordinates":[5307,4659]},{"type":"Point","properties":{"Station_ID":"KLKM4","Station_Nam":"KALKASKA","Latitude":"44.72800","Longitude":"-85.17270","Snowdepth":"8.000","Units":"in","Rept_Date":"2019-11-14 13"},"coordinates":[3234,5659]},{"type":"Point","properties":{"Station_ID":"HURW3","Station_Nam":"HURLEY","Latitude":"46.46250","Longitude":"-90.19550","Snowdepth":"8.000","Units":"in","Rept_Date":"2019-11-14 14"},"coordinates":[1843,6734]},{"type":"Point","properties":{"Station_ID":"HERM4","Station_Nam":"HERMAN,MI","Latitude":"46.65000","Longitude":"-88.33330","Snowdepth":"8.000","Units":"in","Rept_Date":"2019-11-14 13"},"coordinates":[2359,6851]},{"type":"Point","properties":{"Station_ID":"GNLM4","Station_Nam":"GREENLAND 6N","Latitude":"46.87360","Longitude":"-89.10060","Snowdepth":"8.000","Units":"in","Rept_Date":"2019-11-14 13"},"coordinates":[2146,6989]},{"type":"Point","properties":{"Station_ID":"FLAM4","Station_Nam":"FIFE LAKE 2WNW","Latitude":"44.58480","Longitude":"-85.36530","Snowdepth":"8.000","Units":"in","Rept_Date":"2019-11-14 12"},"coordinates":[3180,5570]},{"type":"Point","properties":{"Station_ID":"CHRM4","Station_Nam":"CHARLEVOIX","Latitude":"45.31720","Longitude":"-85.26720","Snowdepth":"8.000","Units":"in","Rept_Date":"2019-11-14 13"},"coordinates":[3207,6024]},{"type":"Point","properties":{"Station_ID":"CARM1","Station_Nam":"CARIBOU WFO","Latitude":"46.86810","Longitude":"-68.01250","Snowdepth":"8.000","Units":"in","Rept_Date":"2019-11-15 05"},"coordinates":[7984,6986]},{"type":"Point","properties":{"Station_ID":"BUNM4","Station_Nam":"BURTON 4N","Latitude":"43.06750","Longitude":"-83.59190","Snowdepth":"8.000","Units":"in","Rept_Date":"2019-11-14 12"},"coordinates":[3671,4629]},{"type":"Point","properties":{"Station_ID":"BGBM4","Station_Nam":"BIG BAY 1NW","Latitude":"46.83250","Longitude":"-87.75040","Snowdepth":"8.000","Units":"in","Rept_Date":"2019-11-14 13"},"coordinates":[2520,6964]},{"type":"Point","properties":{"Station_ID":"ANJM4","Station_Nam":"SNOW PAID OBSERVER FOR KANJ","Latitude":"46.48670","Longitude":"-84.40260","Snowdepth":"8.000","Units":"in","Rept_Date":"2019-11-15 06"},"coordinates":[3447,6749]},{"type":"Point","properties":{"Station_ID":"NY-ER-138","Station_Nam":"EAST AURORA 3.4 NNE, NY","Latitude":"42.81400","Longitude":"-78.59670","Snowdepth":"7.900","Units":"in","Rept_Date":"2019-11-14 12"},"coordinates":[5054,4472]},{"type":"Point","properties":{"Station_ID":"CAN-QC-47","Station_Nam":"SAINTE-FOY 1.8 ENE, CAN","Latitude":"46.76934","Longitude":"-71.27124","Snowdepth":"7.700","Units":"in","Rept_Date":"2019-11-14 12"},"coordinates":[7082,6925]},{"type":"Point","properties":{"Station_ID":"QCO","Station_Nam":"QCO","Latitude":"51.45280","Longitude":"-72.20110","Snowdepth":"7.677","Units":"in","Rept_Date":"2019-11-14 12"},"coordinates":[6825,9829]},{"type":"Point","properties":{"Station_ID":"NY-ES-7","Station_Nam":"KEESEVILLE 0.8 SE, NY","Latitude":"44.49504","Longitude":"-73.47109","Snowdepth":"7.500","Units":"in","Rept_Date":"2019-11-14 12"},"coordinates":[6473,5514]},{"type":"Point","properties":{"Station_ID":"MI-OW-2","Station_Nam":"HOLLAND 3.9 NNE, MI","Latitude":"42.82296","Longitude":"-86.06780","Snowdepth":"7.500","Units":"in","Rept_Date":"2019-11-14 11"},"coordinates":[2986,4477]},{"type":"Point","properties":{"Station_ID":"CAN-NB-13","Station_Nam":"BATHURST 3.8 NW, CAN","Latitude":"47.64212","Longitude":"-65.68756","Snowdepth":"7.500","Units":"in","Rept_Date":"2019-11-14 11"},"coordinates":[8628,7466]},{"type":"Point","properties":{"Station_ID":"QTM","Station_Nam":"QTM","Latitude":"51.05780","Longitude":"-72.57190","Snowdepth":"7.283","Units":"in","Rept_Date":"2019-11-14 12"},"coordinates":[6722,9584]},{"type":"Point","properties":{"Station_ID":"CAN-QC-16","Station_Nam":"SAINT-ARMAND 3.6 W, CAN","Latitude":"45.02631","Longitude":"-73.08795","Snowdepth":"7.200","Units":"in","Rept_Date":"2019-11-14 12"},"coordinates":[6579,5844]},{"type":"Point","properties":{"Station_ID":"CAN-QC-51","Station_Nam":"BELOEIL 0.7 NW, CAN","Latitude":"45.58049","Longitude":"-73.21218","Snowdepth":"7.100","Units":"in","Rept_Date":"2019-11-14 12"},"coordinates":[6545,6187]},{"type":"Point","properties":{"Station_ID":"CAN-ON-86","Station_Nam":"GUELPH 5.1 S - CANWARN, CAN","Latitude":"43.49691","Longitude":"-80.24385","Snowdepth":"7.100","Units":"in","Rept_Date":"2019-11-14 12"},"coordinates":[4598,4895]},{"type":"Point","properties":{"Station_ID":"QWE","Station_Nam":"QWE","Latitude":"47.84610","Longitude":"-73.80670","Snowdepth":"7.047","Units":"in","Rept_Date":"2019-11-14 12"},"coordinates":[6380,7592]},{"type":"Point","properties":{"Station_ID":"QFT","Station_Nam":"QFT","Latitude":"50.83280","Longitude":"-74.40390","Snowdepth":"7.008","Units":"in","Rept_Date":"2019-11-14 12"},"coordinates":[6215,9445]},{"type":"Point","properties":{"Station_ID":"WLSN6","Station_Nam":"WALES","Latitude":"42.73920","Longitude":"-78.58780","Snowdepth":"7.000","Units":"in","Rept_Date":"2019-11-14 12"},"coordinates":[5056,4425]},{"type":"Point","properties":{"Station_ID":"VT-CH-4","Station_Nam":"UNDERHILL 4.4 NNE, VT","Latitude":"44.58774","Longitude":"-72.92250","Snowdepth":"7.000","Units":"in","Rept_Date":"2019-11-14 12"},"coordinates":[6625,5572]},{"type":"Point","properties":{"Station_ID":"SLNM4","Station_Nam":"SALINE,MI","Latitude":"42.13330","Longitude":"-83.81670","Snowdepth":"7.000","Units":"in","Rept_Date":"2019-11-14 15"},"coordinates":[3609,4050]},{"type":"Point","properties":{"Station_ID":"SILN6","Station_Nam":"SILVER CREEK","Latitude":"42.53800","Longitude":"-79.16990","Snowdepth":"7.000","Units":"in","Rept_Date":"2019-11-14 12"},"coordinates":[4895,4301]},{"type":"Point","properties":{"Station_ID":"SCOM4","Station_Nam":"SCOTTVILLE 2 SE","Latitude":"43.93310","Longitude":"-86.24530","Snowdepth":"7.000","Units":"in","Rept_Date":"2019-11-14 12"},"coordinates":[2937,5166]},{"type":"Point","properties":{"Station_ID":"QNCM4","Station_Nam":"QUINCY HILL","Latitude":"47.13640","Longitude":"-88.57950","Snowdepth":"7.000","Units":"in","Rept_Date":"2019-11-14 12"},"coordinates":[2290,7152]},{"type":"Point","properties":{"Station_ID":"PONM4","Station_Nam":"STATE HOSPITAL","Latitude":"42.65000","Longitude":"-83.30000","Snowdepth":"7.000","Units":"in","Rept_Date":"2019-11-14 12"},"coordinates":[3752,4370]},{"type":"Point","properties":{"Station_ID":"OH-GG-4","Station_Nam":"MONTVILLE 1.2 SSE, OH","Latitude":"41.59030","Longitude":"-81.04800","Snowdepth":"7.000","Units":"in","Rept_Date":"2019-11-14 12"},"coordinates":[4375,3713]},{"type":"Point","properties":{"Station_ID":"OH-GG-16","Station_Nam":"CHARDON 5.1 SSE, OH","Latitude":"41.50776","Longitude":"-81.18304","Snowdepth":"7.000","Units":"in","Rept_Date":"2019-11-14 12"},"coordinates":[4338,3662]},{"type":"Point","properties":{"Station_ID":"NY-GN-6","Station_Nam":"STAFFORD 1.8 NE, NY","Latitude":"42.99890","Longitude":"-78.04830","Snowdepth":"7.000","Units":"in","Rept_Date":"2019-11-14 11"},"coordinates":[5206,4586]},{"type":"Point","properties":{"Station_ID":"NY-ER-60","Station_Nam":"BLASDELL 1.5 SSW, NY","Latitude":"42.77657","Longitude":"-78.84440","Snowdepth":"7.000","Units":"in","Rept_Date":"2019-11-14 12"},"coordinates":[4985,4449]},{"type":"Point","properties":{"Station_ID":"NY-ER-102","Station_Nam":"CHEEKTOWAGA 2.7 NE, NY","Latitude":"42.94119","Longitude":"-78.71933","Snowdepth":"7.000","Units":"in","Rept_Date":"2019-11-14 12"},"coordinates":[5020,4551]},{"type":"Point","properties":{"Station_ID":"NY-CQ-39","Station_Nam":"GERRY 0.8 N, NY","Latitude":"42.20500","Longitude":"-79.24700","Snowdepth":"7.000","Units":"in","Rept_Date":"2019-11-14 13"},"coordinates":[4874,4094]},{"type":"Point","properties":{"Station_ID":"NH-GR-47","Station_Nam":"LITTLETON 7.3 W, NH","Latitude":"44.31847","Longitude":"-71.91086","Snowdepth":"7.000","Units":"in","Rept_Date":"2019-11-14 13"},"coordinates":[6905,5405]},{"type":"Point","properties":{"Station_ID":"NH-CS-4","Station_Nam":"PITTSBURG 6.1 NE, NH","Latitude":"45.11060","Longitude":"-71.29760","Snowdepth":"7.000","Units":"in","Rept_Date":"2019-11-14 12"},"coordinates":[7075,5896]},{"type":"Point","properties":{"Station_ID":"MI-OT-17","Station_Nam":"GAYLORD 4.1 S, MI","Latitude":"44.96388","Longitude":"-84.68467","Snowdepth":"7.000","Units":"in","Rept_Date":"2019-11-14 12"},"coordinates":[3369,5805]},{"type":"Point","properties":{"Station_ID":"MI-BG-3","Station_Nam":"L'ANSE 17.8 SE, MI","Latitude":"46.55730","Longitude":"-88.20770","Snowdepth":"7.000","Units":"in","Rept_Date":"2019-11-14 13"},"coordinates":[2393,6793]},{"type":"Point","properties":{"Station_ID":"LERN6","Station_Nam":"LE ROY 1E","Latitude":"42.97360","Longitude":"-77.96710","Snowdepth":"7.000","Units":"in","Rept_Date":"2019-11-14 13"},"coordinates":[5228,4571]},{"type":"Point","properties":{"Station_ID":"KTVC","Station_Nam":"CHERRY CAPITAL AIRPORT","Latitude":"44.73333","Longitude":"-85.56666","Snowdepth":"7.000","Units":"in","Rept_Date":"2019-11-15 00"},"coordinates":[3124,5662]},{"type":"Point","properties":{"Station_ID":"JEFV1","Station_Nam":"JEFFERSONVILLE","Latitude":"44.58430","Longitude":"-72.78700","Snowdepth":"7.000","Units":"in","Rept_Date":"2019-11-14 12"},"coordinates":[6662,5570]},{"type":"Point","properties":{"Station_ID":"GPFM4","Station_Nam":"GROSSE POINTE FARMS,MI","Latitude":"42.38330","Longitude":"-82.90000","Snowdepth":"7.000","Units":"in","Rept_Date":"2019-11-14 13"},"coordinates":[3863,4205]},{"type":"Point","properties":{"Station_ID":"ENGM4","Station_Nam":"ENGADINE MDOT","Latitude":"46.12800","Longitude":"-85.56960","Snowdepth":"7.000","Units":"in","Rept_Date":"2019-11-14 12"},"coordinates":[3124,6527]},{"type":"Point","properties":{"Station_ID":"CSSM4","Station_Nam":"CASS CITY,MI","Latitude":"43.58330","Longitude":"-83.18330","Snowdepth":"7.000","Units":"in","Rept_Date":"2019-11-14 11"},"coordinates":[3784,4949]},{"type":"Point","properties":{"Station_ID":"CHRO1","Station_Nam":"CHARDON,OH","Latitude":"41.58330","Longitude":"-81.18330","Snowdepth":"7.000","Units":"in","Rept_Date":"2019-11-14 13"},"coordinates":[4338,3709]},{"type":"Point","properties":{"Station_ID":"BRAM1","Station_Nam":"BRASSUA DAM","Latitude":"45.66020","Longitude":"-69.81190","Snowdepth":"7.000","Units":"in","Rept_Date":"2019-11-14 12"},"coordinates":[7486,6237]},{"type":"Point","properties":{"Station_ID":"AASM4","Station_Nam":"ANN ARBOR SE","Latitude":"42.24160","Longitude":"-83.69330","Snowdepth":"7.000","Units":"in","Rept_Date":"2019-11-14 12"},"coordinates":[3643,4117]},{"type":"Point","properties":{"Station_ID":"SVBQ6","Station_Nam":"SAVANT BASE","Latitude":"50.28730","Longitude":"-90.65670","Snowdepth":"6.930","Units":"in","Rept_Date":"2019-11-15 06"},"coordinates":[1715,9106]},{"type":"Point","properties":{"Station_ID":"CAN-ON-46","Station_Nam":"WROXETER 0.3 WSW - MVCA, CAN","Latitude":"43.86365","Longitude":"-81.15225","Snowdepth":"6.700","Units":"in","Rept_Date":"2019-11-14 13"},"coordinates":[4347,5123]},{"type":"Point","properties":{"Station_ID":"MI-IH-34","Station_Nam":"MASON 5.8 ENE, MI","Latitude":"42.61430","Longitude":"-84.33813","Snowdepth":"6.600","Units":"in","Rept_Date":"2019-11-14 13"},"coordinates":[3465,4348]},{"type":"Point","properties":{"Station_ID":"WI-IR-4","Station_Nam":"MERCER 7.0 NNE, WI","Latitude":"46.26677","Longitude":"-90.03360","Snowdepth":"6.500","Units":"in","Rept_Date":"2019-11-14 13"},"coordinates":[1888,6613]},{"type":"Point","properties":{"Station_ID":"VT-OL-12","Station_Nam":"GREENSBORO 3.9 NNE, VT","Latitude":"44.63100","Longitude":"-72.28000","Snowdepth":"6.500","Units":"in","Rept_Date":"2019-11-14 12"},"coordinates":[6803,5599]},{"type":"Point","properties":{"Station_ID":"OH-PT-15","Station_Nam":"AURORA 2.0 W, OH","Latitude":"41.31224","Longitude":"-81.38221","Snowdepth":"6.500","Units":"in","Rept_Date":"2019-11-14 12"},"coordinates":[4283,3540]},{"type":"Point","properties":{"Station_ID":"NY-ER-166","Station_Nam":"BOSTON 2.5 NE, NY","Latitude":"42.65480","Longitude":"-78.70300","Snowdepth":"6.500","Units":"in","Rept_Date":"2019-11-14 12"},"coordinates":[5025,4373]},{"type":"Point","properties":{"Station_ID":"NY-ER-13","Station_Nam":"WEST SENECA 2.3 NW, NY","Latitude":"42.85926","Longitude":"-78.78539","Snowdepth":"6.500","Units":"in","Rept_Date":"2019-11-14 12"},"coordinates":[5002,4500]},{"type":"Point","properties":{"Station_ID":"NY-CQ-22","Station_Nam":"FREDONIA 0.8 WNW, NY","Latitude":"42.44414","Longitude":"-79.34610","Snowdepth":"6.500","Units":"in","Rept_Date":"2019-11-14 10"},"coordinates":[4847,4242]},{"type":"Point","properties":{"Station_ID":"MI-SW-5","Station_Nam":"DURAND 6.2 WNW, MI","Latitude":"42.92995","Longitude":"-84.10460","Snowdepth":"6.500","Units":"in","Rept_Date":"2019-11-14 13"},"coordinates":[3529,4544]},{"type":"Point","properties":{"Station_ID":"MI-MB-54","Station_Nam":"UTICA 2.9 E, MI","Latitude":"42.63518","Longitude":"-82.96528","Snowdepth":"6.500","Units":"in","Rept_Date":"2019-11-14 12"},"coordinates":[3845,4361]},{"type":"Point","properties":{"Station_ID":"MI-HR-10","Station_Nam":"BAY PORT 3.2 SSW, MI","Latitude":"43.80746","Longitude":"-83.40013","Snowdepth":"6.500","Units":"in","Rept_Date":"2019-11-14 13"},"coordinates":[3724,5088]},{"type":"Point","properties":{"Station_ID":"MI-GT-25","Station_Nam":"TRAVERSE CITY 4.7 ESE, MI","Latitude":"44.73370","Longitude":"-85.51189","Snowdepth":"6.500","Units":"in","Rept_Date":"2019-11-14 12"},"coordinates":[3140,5662]},{"type":"Point","properties":{"Station_ID":"SOCQ6","Station_Nam":"SOCKET LAKE","Latitude":"50.77870","Longitude":"-91.79300","Snowdepth":"6.460","Units":"in","Rept_Date":"2019-11-15 06"},"coordinates":[1401,9411]},{"type":"Point","properties":{"Station_ID":"NY-CQ-9","Station_Nam":"DUNKIRK 0.7 SW, NY","Latitude":"42.47167","Longitude":"-79.33360","Snowdepth":"6.300","Units":"in","Rept_Date":"2019-11-14 12"},"coordinates":[4850,4259]},{"type":"Point","properties":{"Station_ID":"QLP","Station_Nam":"QLP","Latitude":"48.13920","Longitude":"-72.63830","Snowdepth":"6.181","Units":"in","Rept_Date":"2019-11-14 12"},"coordinates":[6704,7774]},{"type":"Point","properties":{"Station_ID":"QCX","Station_Nam":"QCX","Latitude":"51.32830","Longitude":"-70.08060","Snowdepth":"6.024","Units":"in","Rept_Date":"2019-11-14 12"},"coordinates":[7412,9752]},{"type":"Point","properties":{"Station_ID":"YALM4","Station_Nam":"YALE,MI","Latitude":"43.15000","Longitude":"-82.80000","Snowdepth":"6.000","Units":"in","Rept_Date":"2019-11-14 12"},"coordinates":[3890,4680]},{"type":"Point","properties":{"Station_ID":"WYTM4","Station_Nam":"WYANDOTTE","Latitude":"42.20110","Longitude":"-83.16830","Snowdepth":"6.000","Units":"in","Rept_Date":"2019-11-14 13"},"coordinates":[3788,4092]},{"type":"Point","properties":{"Station_ID":"WI-IR-3","Station_Nam":"PENCE 0.1 E, WI","Latitude":"46.41555","Longitude":"-90.27013","Snowdepth":"6.000","Units":"in","Rept_Date":"2019-11-14 13"},"coordinates":[1822,6705]},{"type":"Point","properties":{"Station_ID":"WHKM4","Station_Nam":"WHITE LAKE,MI","Latitude":"42.69750","Longitude":"-83.47220","Snowdepth":"6.000","Units":"in","Rept_Date":"2019-11-15 06"},"coordinates":[3704,4400]},{"type":"Point","properties":{"Station_ID":"WHFN6","Station_Nam":"WILMINGTON 2W","Latitude":"44.39310","Longitude":"-73.85890","Snowdepth":"6.000","Units":"in","Rept_Date":"2019-11-14 13"},"coordinates":[6366,5451]},{"type":"Point","properties":{"Station_ID":"VT-OL-5","Station_Nam":"DERBY CENTER 1.8 NW, VT","Latitude":"44.97200","Longitude":"-72.14780","Snowdepth":"6.000","Units":"in","Rept_Date":"2019-11-14 12"},"coordinates":[6839,5810]},{"type":"Point","properties":{"Station_ID":"VT-OL-2","Station_Nam":"BARTON 3.0 ENE, VT","Latitude":"44.75863","Longitude":"-72.11680","Snowdepth":"6.000","Units":"in","Rept_Date":"2019-11-14 12"},"coordinates":[6848,5678]},{"type":"Point","properties":{"Station_ID":"VT-OL-1","Station_Nam":"WESTFIELD 0.7 WNW, VT","Latitude":"44.89160","Longitude":"-72.44350","Snowdepth":"6.000","Units":"in","Rept_Date":"2019-11-14 12"},"coordinates":[6757,5760]},{"type":"Point","properties":{"Station_ID":"VT-ES-3","Station_Nam":"LUNENBURG 2.3 NNW, VT","Latitude":"44.49324","Longitude":"-71.70446","Snowdepth":"6.000","Units":"in","Rept_Date":"2019-11-14 11"},"coordinates":[6962,5513]},{"type":"Point","properties":{"Station_ID":"VT-CH-11","Station_Nam":"UNDERHILL 5.1 NNE, VT","Latitude":"44.59811","Longitude":"-72.91880","Snowdepth":"6.000","Units":"in","Rept_Date":"2019-11-14 13"},"coordinates":[6626,5578]},{"type":"Point","properties":{"Station_ID":"TCMM4","Station_Nam":"TRAVERSE CITY MUNSON","Latitude":"44.76070","Longitude":"-85.64430","Snowdepth":"6.000","Units":"in","Rept_Date":"2019-11-14 11"},"coordinates":[3103,5679]},{"type":"Point","properties":{"Station_ID":"TCEM4","Station_Nam":"TRAVERSE CITY 5ESE","Latitude":"44.73370","Longitude":"-85.51180","Snowdepth":"6.000","Units":"in","Rept_Date":"2019-11-14 12"},"coordinates":[3140,5662]},{"type":"Point","properties":{"Station_ID":"SUAW3","Station_Nam":"SUAMICO","Latitude":"44.60190","Longitude":"-88.09780","Snowdepth":"6.000","Units":"in","Rept_Date":"2019-11-14 12"},"coordinates":[2424,5581]},{"type":"Point","properties":{"Station_ID":"SBNN6","Station_Nam":"SANBORN","Latitude":"43.17050","Longitude":"-78.81810","Snowdepth":"6.000","Units":"in","Rept_Date":"2019-11-14 12"},"coordinates":[4993,4693]},{"type":"Point","properties":{"Station_ID":"ROC","Station_Nam":"GREATER ROCHESTER INTL","Latitude":"43.11890","Longitude":"-77.67280","Snowdepth":"6.000","Units":"in","Rept_Date":"2019-11-15 06"},"coordinates":[5310,4661]},{"type":"Point","properties":{"Station_ID":"RKWM1","Station_Nam":"MOOSEHEAD LAKE","Latitude":"45.58330","Longitude":"-69.71670","Snowdepth":"6.000","Units":"in","Rept_Date":"2019-11-14 12"},"coordinates":[7512,6189]},{"type":"Point","properties":{"Station_ID":"PTBN3","Station_Nam":"DAM WITHIN","Latitude":"45.05000","Longitude":"-71.38330","Snowdepth":"6.000","Units":"in","Rept_Date":"2019-11-14 12"},"coordinates":[7051,5858]},{"type":"Point","properties":{"Station_ID":"POAM4","Station_Nam":"PORT AUSTIN WWTP","Latitude":"44.04670","Longitude":"-82.97030","Snowdepth":"6.000","Units":"in","Rept_Date":"2019-11-14 12"},"coordinates":[3843,5236]},{"type":"Point","properties":{"Station_ID":"OH-PT-9","Station_Nam":"HIRAM 0.4 N, OH","Latitude":"41.31595","Longitude":"-81.14340","Snowdepth":"6.000","Units":"in","Rept_Date":"2019-11-14 13"},"coordinates":[4349,3543]},{"type":"Point","properties":{"Station_ID":"OH-PT-17","Station_Nam":"KENT 1.5 W, OH","Latitude":"41.14718","Longitude":"-81.39079","Snowdepth":"6.000","Units":"in","Rept_Date":"2019-11-14 12"},"coordinates":[4280,3438]},{"type":"Point","properties":{"Station_ID":"OH-GG-7","Station_Nam":"MIDDLEFIELD 0.6 NE, OH","Latitude":"41.46438","Longitude":"-81.06520","Snowdepth":"6.000","Units":"in","Rept_Date":"2019-11-14 13"},"coordinates":[4371,3635]},{"type":"Point","properties":{"Station_ID":"OBEO1","Station_Nam":"OBERLIN,OH","Latitude":"41.26670","Longitude":"-82.21670","Snowdepth":"6.000","Units":"in","Rept_Date":"2019-11-14 13"},"coordinates":[4052,3512]},{"type":"Point","properties":{"Station_ID":"NY-OG-61","Station_Nam":"SKANEATELES 0.8 NNW, NY","Latitude":"42.95538","Longitude":"-76.43362","Snowdepth":"6.000","Units":"in","Rept_Date":"2019-11-14 12"},"coordinates":[5653,4559]},{"type":"Point","properties":{"Station_ID":"NY-NG-2","Station_Nam":"NORTH TONAWANDA 1.0 NNE, NY","Latitude":"43.05725","Longitude":"-78.86170","Snowdepth":"6.000","Units":"in","Rept_Date":"2019-11-14 11"},"coordinates":[4981,4623]},{"type":"Point","properties":{"Station_ID":"NY-ER-75","Station_Nam":"ELMA CENTER 0.7 SE, NY","Latitude":"42.81936","Longitude":"-78.62140","Snowdepth":"6.000","Units":"in","Rept_Date":"2019-11-14 14"},"coordinates":[5047,4475]},{"type":"Point","properties":{"Station_ID":"NY-CL-7","Station_Nam":"PERU 4.1 ESE, NY","Latitude":"44.56461","Longitude":"-73.45390","Snowdepth":"6.000","Units":"in","Rept_Date":"2019-11-14 11"},"coordinates":[6478,5557]},{"type":"Point","properties":{"Station_ID":"NTON6","Station_Nam":"NORTH TONAWANDA","Latitude":"43.05730","Longitude":"-78.86170","Snowdepth":"6.000","Units":"in","Rept_Date":"2019-11-14 11"},"coordinates":[4981,4623]},{"type":"Point","properties":{"Station_ID":"NPTV1","Station_Nam":"NEWPORT","Latitude":"44.94900","Longitude":"-72.19120","Snowdepth":"6.000","Units":"in","Rept_Date":"2019-11-14 12"},"coordinates":[6827,5796]},{"type":"Point","properties":{"Station_ID":"NCBN6","Station_Nam":"NEWCOMB","Latitude":"43.97070","Longitude":"-74.22200","Snowdepth":"6.000","Units":"in","Rept_Date":"2019-11-14 13"},"coordinates":[6265,5189]},{"type":"Point","properties":{"Station_ID":"MILM4","Station_Nam":"GM PROVING GD","Latitude":"42.58330","Longitude":"-83.70000","Snowdepth":"6.000","Units":"in","Rept_Date":"2019-11-15 05"},"coordinates":[3641,4329]},{"type":"Point","properties":{"Station_ID":"MI-WY-33","Station_Nam":"LIVONIA 2.3 NNW, MI","Latitude":"42.43100","Longitude":"-83.38190","Snowdepth":"6.000","Units":"in","Rept_Date":"2019-11-14 12"},"coordinates":[3729,4234]},{"type":"Point","properties":{"Station_ID":"MI-WS-11","Station_Nam":"ANN ARBOR 2.1 WNW, MI","Latitude":"42.28323","Longitude":"-83.77150","Snowdepth":"6.000","Units":"in","Rept_Date":"2019-11-14 13"},"coordinates":[3621,4143]},{"type":"Point","properties":{"Station_ID":"MI-SC-3","Station_Nam":"PORT HURON 1.6 W, MI","Latitude":"42.99617","Longitude":"-82.46430","Snowdepth":"6.000","Units":"in","Rept_Date":"2019-11-14 13"},"coordinates":[3983,4585]},{"type":"Point","properties":{"Station_ID":"MI-OT-4","Station_Nam":"GAYLORD 1.7 WNW, MI","Latitude":"45.03280","Longitude":"-84.71090","Snowdepth":"6.000","Units":"in","Rept_Date":"2019-11-14 13"},"coordinates":[3361,5848]},{"type":"Point","properties":{"Station_ID":"MI-OK-13","Station_Nam":"PLEASANT RIDGE 0.5 WNW, MI","Latitude":"42.47247","Longitude":"-83.15360","Snowdepth":"6.000","Units":"in","Rept_Date":"2019-11-14 13"},"coordinates":[3792,4260]},{"type":"Point","properties":{"Station_ID":"MI-OK-112","Station_Nam":"TROY 2.8 W, MI","Latitude":"42.57358","Longitude":"-83.19643","Snowdepth":"6.000","Units":"in","Rept_Date":"2019-11-14 12"},"coordinates":[3781,4323]},{"type":"Point","properties":{"Station_ID":"MI-OK-109","Station_Nam":"HIGHLAND 1.3 NE, MI","Latitude":"42.67877","Longitude":"-83.59361","Snowdepth":"6.000","Units":"in","Rept_Date":"2019-11-14 12"},"coordinates":[3671,4388]},{"type":"Point","properties":{"Station_ID":"MI-LV-26","Station_Nam":"FENTON 6.2 WSW, MI","Latitude":"42.76832","Longitude":"-83.82928","Snowdepth":"6.000","Units":"in","Rept_Date":"2019-11-14 13"},"coordinates":[3605,4443]},{"type":"Point","properties":{"Station_ID":"MI-IH-32","Station_Nam":"WILLIAMSTON 4.0 ESE, MI","Latitude":"42.65859","Longitude":"-84.21630","Snowdepth":"6.000","Units":"in","Rept_Date":"2019-11-14 13"},"coordinates":[3498,4375]},{"type":"Point","properties":{"Station_ID":"MI-HG-6","Station_Nam":"CALUMET 5.8 ENE, MI","Latitude":"47.27200","Longitude":"-88.33400","Snowdepth":"6.000","Units":"in","Rept_Date":"2019-11-14 11"},"coordinates":[2358,7236]},{"type":"Point","properties":{"Station_ID":"MI-CT-18","Station_Nam":"LAINGSBURG 2.1 NNW, MI","Latitude":"42.91661","Longitude":"-84.36803","Snowdepth":"6.000","Units":"in","Rept_Date":"2019-11-14 14"},"coordinates":[3456,4535]},{"type":"Point","properties":{"Station_ID":"MI-BN-5","Station_Nam":"BUCHANAN 1.3 WNW, MI","Latitude":"41.83634","Longitude":"-86.38900","Snowdepth":"6.000","Units":"in","Rept_Date":"2019-11-14 13"},"coordinates":[2897,3865]},{"type":"Point","properties":{"Station_ID":"MEDN6","Station_Nam":"MEDINA","Latitude":"43.20930","Longitude":"-78.38940","Snowdepth":"6.000","Units":"in","Rept_Date":"2019-11-14 11"},"coordinates":[5111,4717]},{"type":"Point","properties":{"Station_ID":"ME-AR-15","Station_Nam":"PRESQUE ISLE 1.3 WSW, ME","Latitude":"46.67960","Longitude":"-68.01270","Snowdepth":"6.000","Units":"in","Rept_Date":"2019-11-14 12"},"coordinates":[7984,6869]},{"type":"Point","properties":{"Station_ID":"MCHM4","Station_Nam":"MANCHESTER,MI","Latitude":"42.15000","Longitude":"-84.01670","Snowdepth":"6.000","Units":"in","Rept_Date":"2019-11-14 12"},"coordinates":[3554,4060]},{"type":"Point","properties":{"Station_ID":"LPTN6","Station_Nam":"LOCKPORT","Latitude":"43.18760","Longitude":"-78.60910","Snowdepth":"6.000","Units":"in","Rept_Date":"2019-11-15 00"},"coordinates":[5051,4703]},{"type":"Point","properties":{"Station_ID":"LPLN6","Station_Nam":"LAKE PLACID 2 S","Latitude":"44.30420","Longitude":"-73.98390","Snowdepth":"6.000","Units":"in","Rept_Date":"2019-11-14 12"},"coordinates":[6331,5396]},{"type":"Point","properties":{"Station_ID":"LKVN6","Station_Nam":"LAKE VIEW","Latitude":"42.73180","Longitude":"-78.92400","Snowdepth":"6.000","Units":"in","Rept_Date":"2019-11-14 13"},"coordinates":[4963,4421]},{"type":"Point","properties":{"Station_ID":"KBUF","Station_Nam":"GREATER BUFFALO INTERNATIONAL  AIRPORT","Latitude":"42.93333","Longitude":"-78.73333","Snowdepth":"6.000","Units":"in","Rept_Date":"2019-11-15 06"},"coordinates":[5016,4546]},{"type":"Point","properties":{"Station_ID":"JEFN3","Station_Nam":"JEFFERSON","Latitude":"44.41690","Longitude":"-71.50080","Snowdepth":"6.000","Units":"in","Rept_Date":"2019-11-14 12"},"coordinates":[7018,5466]},{"type":"Point","properties":{"Station_ID":"GODM4","Station_Nam":"GOODRICH","Latitude":"42.91640","Longitude":"-83.50970","Snowdepth":"6.000","Units":"in","Rept_Date":"2019-11-14 12"},"coordinates":[3694,4535]},{"type":"Point","properties":{"Station_ID":"GAYM4","Station_Nam":"GAYLORD","Latitude":"45.03320","Longitude":"-84.71130","Snowdepth":"6.000","Units":"in","Rept_Date":"2019-11-14 13"},"coordinates":[3361,5848]},{"type":"Point","properties":{"Station_ID":"EJNM4","Station_Nam":"EAST JORDAN 2NW","Latitude":"45.18630","Longitude":"-85.14770","Snowdepth":"6.000","Units":"in","Rept_Date":"2019-11-14 13"},"coordinates":[3240,5943]},{"type":"Point","properties":{"Station_ID":"DKKN6","Station_Nam":"DUNKIRK 1S","Latitude":"42.47170","Longitude":"-79.33360","Snowdepth":"6.000","Units":"in","Rept_Date":"2019-11-14 12"},"coordinates":[4850,4259]},{"type":"Point","properties":{"Station_ID":"CEFM4","Station_Nam":"EXPERIMENT FARM #2","Latitude":"46.33330","Longitude":"-86.91670","Snowdepth":"6.000","Units":"in","Rept_Date":"2019-11-14 13"},"coordinates":[2751,6654]},{"type":"Point","properties":{"Station_ID":"CAN-ON-118","Station_Nam":"DURHAM 1.4 S, CAN","Latitude":"44.16525","Longitude":"-80.82064","Snowdepth":"6.000","Units":"in","Rept_Date":"2019-11-14 12"},"coordinates":[4438,5310]},{"type":"Point","properties":{"Station_ID":"BUF","Station_Nam":"BUFFALO, NY","Latitude":"42.94140","Longitude":"-78.71920","Snowdepth":"6.000","Units":"in","Rept_Date":"2019-11-15 06"},"coordinates":[5020,4551]},{"type":"Point","properties":{"Station_ID":"BEUM4","Station_Nam":"BEULAH 7SSW","Latitude":"44.53160","Longitude":"-86.13110","Snowdepth":"6.000","Units":"in","Rept_Date":"2019-11-14 13"},"coordinates":[2968,5537]},{"type":"Point","properties":{"Station_ID":"BDAM4","Station_Nam":"BAD AXE,MI","Latitude":"43.81670","Longitude":"-83.00000","Snowdepth":"6.000","Units":"in","Rept_Date":"2019-11-14 12"},"coordinates":[3835,5094]},{"type":"Point","properties":{"Station_ID":"AUBN6","Station_Nam":"AUBURN","Latitude":"42.93270","Longitude":"-76.54470","Snowdepth":"6.000","Units":"in","Rept_Date":"2019-11-14 11"},"coordinates":[5622,4545]},{"type":"Point","properties":{"Station_ID":"APXM4","Station_Nam":"GAYLORD 9SSW","Latitude":"44.90720","Longitude":"-84.71880","Snowdepth":"6.000","Units":"in","Rept_Date":"2019-11-15 06"},"coordinates":[3359,5770]},{"type":"Point","properties":{"Station_ID":"ABNN6","Station_Nam":"ALBION","Latitude":"43.26330","Longitude":"-78.21520","Snowdepth":"6.000","Units":"in","Rept_Date":"2019-11-14 23"},"coordinates":[5160,4750]},{"type":"Point","properties":{"Station_ID":"NY-ER-96","Station_Nam":"ELMA 2.7 WSW, NY","Latitude":"42.81004","Longitude":"-78.68130","Snowdepth":"5.900","Units":"in","Rept_Date":"2019-11-14 13"},"coordinates":[5031,4469]},{"type":"Point","properties":{"Station_ID":"CAN-ON-466","Station_Nam":"PICTON 12.7 NNE, CAN","Latitude":"44.11197","Longitude":"-77.08426","Snowdepth":"5.900","Units":"in","Rept_Date":"2019-11-14 12"},"coordinates":[5473,5277]},{"type":"Point","properties":{"Station_ID":"QTV","Station_Nam":"QTV","Latitude":"49.66000","Longitude":"-69.35690","Snowdepth":"5.866","Units":"in","Rept_Date":"2019-11-14 12"},"coordinates":[7612,8717]},{"type":"Point","properties":{"Station_ID":"QGA","Station_Nam":"QGA","Latitude":"47.25640","Longitude":"-73.73810","Snowdepth":"5.827","Units":"in","Rept_Date":"2019-11-14 12"},"coordinates":[6399,7227]},{"type":"Point","properties":{"Station_ID":"MI-WY-125","Station_Nam":"CANTON 2.7 N, MI","Latitude":"42.34732","Longitude":"-83.47286","Snowdepth":"5.800","Units":"in","Rept_Date":"2019-11-14 12"},"coordinates":[3704,4182]},{"type":"Point","properties":{"Station_ID":"QWG","Station_Nam":"QWG","Latitude":"48.48890","Longitude":"-73.45940","Snowdepth":"5.787","Units":"in","Rept_Date":"2019-11-14 12"},"coordinates":[6476,7991]},{"type":"Point","properties":{"Station_ID":"IL-MCH-93","Station_Nam":"MARENGO 0.8 S, IL","Latitude":"42.23612","Longitude":"-88.60322","Snowdepth":"5.750","Units":"in","Rept_Date":"2019-11-14 13"},"coordinates":[2284,4113]},{"type":"Point","properties":{"Station_ID":"NY-WN-18","Station_Nam":"MACEDON 2.6 ESE, NY","Latitude":"43.05200","Longitude":"-77.25700","Snowdepth":"5.700","Units":"in","Rept_Date":"2019-11-14 12"},"coordinates":[5425,4619]},{"type":"Point","properties":{"Station_ID":"MI-VB-12","Station_Nam":"PAW PAW 0.7 ESE, MI","Latitude":"42.21583","Longitude":"-85.87741","Snowdepth":"5.700","Units":"in","Rept_Date":"2019-11-15 02"},"coordinates":[3038,4101]},{"type":"Point","properties":{"Station_ID":"QYR","Station_Nam":"QYR","Latitude":"48.87220","Longitude":"-75.61470","Snowdepth":"5.551","Units":"in","Rept_Date":"2019-11-14 12"},"coordinates":[5880,8229]},{"type":"Point","properties":{"Station_ID":"VT-WS-30","Station_Nam":"WOODBURY 3.4 NNW, VT","Latitude":"44.48825","Longitude":"-72.43258","Snowdepth":"5.500","Units":"in","Rept_Date":"2019-11-14 12"},"coordinates":[6760,5510]},{"type":"Point","properties":{"Station_ID":"VT-CL-14","Station_Nam":"LYNDONVILLE 1.1 W, VT","Latitude":"44.53582","Longitude":"-72.02867","Snowdepth":"5.500","Units":"in","Rept_Date":"2019-11-14 12"},"coordinates":[6872,5540]},{"type":"Point","properties":{"Station_ID":"PA-ER-5","Station_Nam":"NORTH EAST 1.2 WNW, PA","Latitude":"42.22058","Longitude":"-79.85510","Snowdepth":"5.500","Units":"in","Rept_Date":"2019-11-14 13"},"coordinates":[4706,4104]},{"type":"Point","properties":{"Station_ID":"NY-ES-6","Station_Nam":"OLMSTEDVILLE 4.6 NNE, NY","Latitude":"43.83350","Longitude":"-73.89780","Snowdepth":"5.500","Units":"in","Rept_Date":"2019-11-14 13"},"coordinates":[6355,5104]},{"type":"Point","properties":{"Station_ID":"NY-ER-77","Station_Nam":"COLDEN 2.4 ENE, NY","Latitude":"42.65088","Longitude":"-78.61060","Snowdepth":"5.500","Units":"in","Rept_Date":"2019-11-14 13"},"coordinates":[5050,4371]},{"type":"Point","properties":{"Station_ID":"NY-ER-39","Station_Nam":"HAMBURG 0.4 WSW, NY","Latitude":"42.72253","Longitude":"-78.84330","Snowdepth":"5.500","Units":"in","Rept_Date":"2019-11-14 12"},"coordinates":[4986,4415]},{"type":"Point","properties":{"Station_ID":"NY-CT-22","Station_Nam":"FRANKLINVILLE 0.5 NNE, NY","Latitude":"42.34166","Longitude":"-78.45280","Snowdepth":"5.500","Units":"in","Rept_Date":"2019-11-14 12"},"coordinates":[5094,4179]},{"type":"Point","properties":{"Station_ID":"NY-CQ-34","Station_Nam":"KENNEDY 2.6 SE, NY","Latitude":"42.12567","Longitude":"-79.07235","Snowdepth":"5.500","Units":"in","Rept_Date":"2019-11-14 13"},"coordinates":[4922,4045]},{"type":"Point","properties":{"Station_ID":"MI-WS-7","Station_Nam":"ANN ARBOR 3.1 SE, MI","Latitude":"42.23914","Longitude":"-83.69580","Snowdepth":"5.500","Units":"in","Rept_Date":"2019-11-14 12"},"coordinates":[3642,4115]},{"type":"Point","properties":{"Station_ID":"MI-VB-4","Station_Nam":"PAW PAW 3.6 NNE, MI","Latitude":"42.26582","Longitude":"-85.86190","Snowdepth":"5.500","Units":"in","Rept_Date":"2019-11-14 12"},"coordinates":[3043,4132]},{"type":"Point","properties":{"Station_ID":"MI-VB-13","Station_Nam":"PAW PAW 2.0 NE, MI","Latitude":"42.23743","Longitude":"-85.86171","Snowdepth":"5.500","Units":"in","Rept_Date":"2019-11-14 12"},"coordinates":[3043,4114]},{"type":"Point","properties":{"Station_ID":"MI-OT-16","Station_Nam":"GAYLORD 2.2 SSE, MI","Latitude":"44.99441","Longitude":"-84.65820","Snowdepth":"5.500","Units":"in","Rept_Date":"2019-11-14 13"},"coordinates":[3376,5824]},{"type":"Point","properties":{"Station_ID":"MI-MD-10","Station_Nam":"MIDLAND 1.5 NNE, MI","Latitude":"43.64412","Longitude":"-84.21729","Snowdepth":"5.500","Units":"in","Rept_Date":"2019-11-14 11"},"coordinates":[3498,4987]},{"type":"Point","properties":{"Station_ID":"MI-GT-21","Station_Nam":"KINGSLEY 2.7 ENE, MI","Latitude":"44.59871","Longitude":"-85.48426","Snowdepth":"5.500","Units":"in","Rept_Date":"2019-11-14 11"},"coordinates":[3147,5579]},{"type":"Point","properties":{"Station_ID":"MI-CX-7","Station_Nam":"EAST JORDAN 2.1 NNW, MI","Latitude":"45.18639","Longitude":"-85.14750","Snowdepth":"5.500","Units":"in","Rept_Date":"2019-11-14 13"},"coordinates":[3240,5943]},{"type":"Point","properties":{"Station_ID":"MI-AN-25","Station_Nam":"PLAINWELL 0.5 WSW, MI","Latitude":"42.44318","Longitude":"-85.65374","Snowdepth":"5.500","Units":"in","Rept_Date":"2019-11-14 12"},"coordinates":[3100,4242]},{"type":"Point","properties":{"Station_ID":"CAN-ON-526","Station_Nam":"HILTON BEACH 0.7 SW - MNRF, CAN","Latitude":"46.25357","Longitude":"-83.90014","Snowdepth":"5.500","Units":"in","Rept_Date":"2019-11-14 12"},"coordinates":[3586,6605]},{"type":"Point","properties":{"Station_ID":"CAN-ON-33","Station_Nam":"BURLINGTON 1.7 W, CA","Latitude":"43.37134","Longitude":"-79.83550","Snowdepth":"5.500","Units":"in","Rept_Date":"2019-11-14 12"},"coordinates":[4711,4817]},{"type":"Point","properties":{"Station_ID":"CAN-ON-748","Station_Nam":"WHITBY 2.4 SW, CAN","Latitude":"43.88036","Longitude":"-78.95664","Snowdepth":"5.400","Units":"in","Rept_Date":"2019-11-14 12"},"coordinates":[4954,5133]},{"type":"Point","properties":{"Station_ID":"CAN-ON-232","Station_Nam":"MILFORD 0.1 NNE - QUINTE CONSERVATION, CAN","Latitude":"43.93499","Longitude":"-77.09098","Snowdepth":"5.100","Units":"in","Rept_Date":"2019-11-14 14"},"coordinates":[5471,5167]},{"type":"Point","properties":{"Station_ID":"YGTN6","Station_Nam":"YOUNGSTOWN 2NE","Latitude":"43.26820","Longitude":"-79.01020","Snowdepth":"5.000","Units":"in","Rept_Date":"2019-11-14 13"},"coordinates":[4940,4753]},{"type":"Point","properties":{"Station_ID":"WYON6","Station_Nam":"WYOMING 3W","Latitude":"42.81750","Longitude":"-78.14810","Snowdepth":"5.000","Units":"in","Rept_Date":"2019-11-14 12"},"coordinates":[5178,4474]},{"type":"Point","properties":{"Station_ID":"WTRM4","Station_Nam":"WATERSMEET 12WSW","Latitude":"46.22310","Longitude":"-89.40850","Snowdepth":"5.000","Units":"in","Rept_Date":"2019-11-14 13"},"coordinates":[2061,6586]},{"type":"Point","properties":{"Station_ID":"WRSN6","Station_Nam":"WARSAW 6SW","Latitude":"42.68550","Longitude":"-78.22020","Snowdepth":"5.000","Units":"in","Rept_Date":"2019-11-14 12"},"coordinates":[5158,4392]},{"type":"Point","properties":{"Station_ID":"WLNM4","Station_Nam":"WELLSTON 1N","Latitude":"44.22940","Longitude":"-85.95690","Snowdepth":"5.000","Units":"in","Rept_Date":"2019-11-14 12"},"coordinates":[3016,5350]},{"type":"Point","properties":{"Station_ID":"WI-VL-10","Station_Nam":"LAND O LAKES 4.3 WNW, WI","Latitude":"46.17440","Longitude":"-89.30380","Snowdepth":"5.000","Units":"in","Rept_Date":"2019-11-14 13"},"coordinates":[2090,6556]},{"type":"Point","properties":{"Station_ID":"WBSN6","Station_Nam":"WEBSTER 2 NE","Latitude":"43.24190","Longitude":"-77.38810","Snowdepth":"5.000","Units":"in","Rept_Date":"2019-11-15 01"},"coordinates":[5389,4737]},{"type":"Point","properties":{"Station_ID":"WAIV1","Station_Nam":"WAITSFIELD","Latitude":"44.17560","Longitude":"-72.79610","Snowdepth":"5.000","Units":"in","Rept_Date":"2019-11-14 12"},"coordinates":[6660,5316]},{"type":"Point","properties":{"Station_ID":"VT-WS-11","Station_Nam":"WAITSFIELD 1.8 SE, VT","Latitude":"44.17551","Longitude":"-72.79540","Snowdepth":"5.000","Units":"in","Rept_Date":"2019-11-14 12"},"coordinates":[6660,5316]},{"type":"Point","properties":{"Station_ID":"VT-LM-7","Station_Nam":"HYDE PARK 2.9 NE, VT","Latitude":"44.62080","Longitude":"-72.57250","Snowdepth":"5.000","Units":"in","Rept_Date":"2019-11-14 13"},"coordinates":[6722,5592]},{"type":"Point","properties":{"Station_ID":"VT-ES-1","Station_Nam":"GRANBY 1.4 NW, VT","Latitude":"44.58330","Longitude":"-71.77870","Snowdepth":"5.000","Units":"in","Rept_Date":"2019-11-14 13"},"coordinates":[6941,5569]},{"type":"Point","properties":{"Station_ID":"VT-CL-23","Station_Nam":"RYEGATE 1.5 N, VT","Latitude":"44.23024","Longitude":"-72.10523","Snowdepth":"5.000","Units":"in","Rept_Date":"2019-11-14 12"},"coordinates":[6851,5350]},{"type":"Point","properties":{"Station_ID":"VT-CH-38","Station_Nam":"WILLISTON 0.2 WSW, VT","Latitude":"44.43669","Longitude":"-73.07154","Snowdepth":"5.000","Units":"in","Rept_Date":"2019-11-14 12"},"coordinates":[6584,5478]},{"type":"Point","properties":{"Station_ID":"VSSM4","Station_Nam":"VASSAR,MI","Latitude":"43.36670","Longitude":"-83.58330","Snowdepth":"5.000","Units":"in","Rept_Date":"2019-11-14 12"},"coordinates":[3674,4815]},{"type":"Point","properties":{"Station_ID":"VRGV1","Station_Nam":"VERGENNES","Latitude":"44.17190","Longitude":"-73.24720","Snowdepth":"5.000","Units":"in","Rept_Date":"2019-11-14 10"},"coordinates":[6535,5314]},{"type":"Point","properties":{"Station_ID":"TRIQ6","Station_Nam":"TRIO LAKE","Latitude":"49.22880","Longitude":"-87.22920","Snowdepth":"5.000","Units":"in","Rept_Date":"2019-11-15 06"},"coordinates":[2664,8450]},{"type":"Point","properties":{"Station_ID":"TOPN6","Station_Nam":"TUPPER LAKE SUNMOUNT","Latitude":"44.23070","Longitude":"-74.43820","Snowdepth":"5.000","Units":"in","Rept_Date":"2019-11-14 12"},"coordinates":[6205,5350]},{"type":"Point","properties":{"Station_ID":"TIPM4","Station_Nam":"TIPTON,MI","Latitude":"42.03330","Longitude":"-84.10000","Snowdepth":"5.000","Units":"in","Rept_Date":"2019-11-14 13"},"coordinates":[3530,3988]},{"type":"Point","properties":{"Station_ID":"SVSN6","Station_Nam":"SILVER SPRINGS 3N","Latitude":"42.70580","Longitude":"-78.09370","Snowdepth":"5.000","Units":"in","Rept_Date":"2019-11-14 12"},"coordinates":[5193,4405]},{"type":"Point","properties":{"Station_ID":"SUTV1","Station_Nam":"SUTTON","Latitude":"44.61220","Longitude":"-72.04810","Snowdepth":"5.000","Units":"in","Rept_Date":"2019-11-14 13"},"coordinates":[6867,5587]},{"type":"Point","properties":{"Station_ID":"STIM4","Station_Nam":"ST IGNACE","Latitude":"45.86080","Longitude":"-84.71960","Snowdepth":"5.000","Units":"in","Rept_Date":"2019-11-14 12"},"coordinates":[3359,6361]},{"type":"Point","properties":{"Station_ID":"SLNV1","Station_Nam":"SOUTH LINCOLN","Latitude":"44.07460","Longitude":"-72.97180","Snowdepth":"5.000","Units":"in","Rept_Date":"2019-11-14 12"},"coordinates":[6611,5254]},{"type":"Point","properties":{"Station_ID":"RGNM1","Station_Nam":"RANGELEY 2NW","Latitude":"44.98940","Longitude":"-70.67220","Snowdepth":"5.000","Units":"in","Rept_Date":"2019-11-14 11"},"coordinates":[7248,5821]},{"type":"Point","properties":{"Station_ID":"PDGM4","Station_Nam":"PAULDING","Latitude":"46.39760","Longitude":"-89.17940","Snowdepth":"5.000","Units":"in","Rept_Date":"2019-11-14 14"},"coordinates":[2124,6694]},{"type":"Point","properties":{"Station_ID":"OH-ER-5","Station_Nam":"WAKEMAN 4.6 NNE, OH","Latitude":"41.31902","Longitude":"-82.37730","Snowdepth":"5.000","Units":"in","Rept_Date":"2019-11-14 12"},"coordinates":[4007,3545]},{"type":"Point","properties":{"Station_ID":"NY-WY-11","Station_Nam":"SILVER SPRINGS COOP, NY","Latitude":"42.70580","Longitude":"-78.09370","Snowdepth":"5.000","Units":"in","Rept_Date":"2019-11-14 12"},"coordinates":[5193,4405]},{"type":"Point","properties":{"Station_ID":"NY-WY-10","Station_Nam":"WYOMING COOP, NY","Latitude":"42.82060","Longitude":"-78.14810","Snowdepth":"5.000","Units":"in","Rept_Date":"2019-11-14 12"},"coordinates":[5178,4476]},{"type":"Point","properties":{"Station_ID":"NY-ER-63","Station_Nam":"GLENWOOD 1.5 SE, NY","Latitude":"42.60195","Longitude":"-78.63910","Snowdepth":"5.000","Units":"in","Rept_Date":"2019-11-14 13"},"coordinates":[5042,4340]},{"type":"Point","properties":{"Station_ID":"NY-ER-59","Station_Nam":"KENMORE 0.3 ESE, NY","Latitude":"42.96316","Longitude":"-78.86690","Snowdepth":"5.000","Units":"in","Rept_Date":"2019-11-14 13"},"coordinates":[4979,4564]},{"type":"Point","properties":{"Station_ID":"NY-ER-50","Station_Nam":"EAST AURORA 0.1 ENE, NY","Latitude":"42.76750","Longitude":"-78.61580","Snowdepth":"5.000","Units":"in","Rept_Date":"2019-11-14 12"},"coordinates":[5049,4443]},{"type":"Point","properties":{"Station_ID":"NY-CQ-27","Station_Nam":"SILVER CREEK 1.0 SSE, NY","Latitude":"42.53088","Longitude":"-79.15986","Snowdepth":"5.000","Units":"in","Rept_Date":"2019-11-14 12"},"coordinates":[4898,4296]},{"type":"Point","properties":{"Station_ID":"NVLV1","Station_Nam":"NASHVILLE","Latitude":"44.44970","Longitude":"-72.92640","Snowdepth":"5.000","Units":"in","Rept_Date":"2019-11-14 12"},"coordinates":[6624,5486]},{"type":"Point","properties":{"Station_ID":"NH-CS-10","Station_Nam":"RANDOLPH 1.4 NE, NH","Latitude":"44.38824","Longitude":"-71.26950","Snowdepth":"5.000","Units":"in","Rept_Date":"2019-11-14 12"},"coordinates":[7082,5448]},{"type":"Point","properties":{"Station_ID":"NALN6","Station_Nam":"CATTARAUGUS","Latitude":"42.32450","Longitude":"-78.86700","Snowdepth":"5.000","Units":"in","Rept_Date":"2019-11-14 13"},"coordinates":[4979,4168]},{"type":"Point","properties":{"Station_ID":"MIEM4","Station_Nam":"MICHIGAMME 3WNW","Latitude":"46.54530","Longitude":"-88.18000","Snowdepth":"5.000","Units":"in","Rept_Date":"2019-11-14 13"},"coordinates":[2401,6786]},{"type":"Point","properties":{"Station_ID":"MI-WS-28","Station_Nam":"DEXTER 0.3 ENE, MI","Latitude":"42.33367","Longitude":"-83.87510","Snowdepth":"5.000","Units":"in","Rept_Date":"2019-11-14 12"},"coordinates":[3593,4174]},{"type":"Point","properties":{"Station_ID":"MI-WS-25","Station_Nam":"SALINE 3.8 SSW, MI","Latitude":"42.12618","Longitude":"-83.81090","Snowdepth":"5.000","Units":"in","Rept_Date":"2019-11-14 12"},"coordinates":[3611,4045]},{"type":"Point","properties":{"Station_ID":"MI-HL-4","Station_Nam":"JONESVILLE 5.9 ENE, MI","Latitude":"42.01472","Longitude":"-84.56190","Snowdepth":"5.000","Units":"in","Rept_Date":"2019-11-14 12"},"coordinates":[3403,3976]},{"type":"Point","properties":{"Station_ID":"MI-HG-1","Station_Nam":"HOUGHTON 1.6 ESE, MI","Latitude":"47.10774","Longitude":"-88.52940","Snowdepth":"5.000","Units":"in","Rept_Date":"2019-11-14 13"},"coordinates":[2304,7134]},{"type":"Point","properties":{"Station_ID":"MI-AN-11","Station_Nam":"HOPKINS 0.6 NNE, MI","Latitude":"42.63430","Longitude":"-85.76120","Snowdepth":"5.000","Units":"in","Rept_Date":"2019-11-14 12"},"coordinates":[3071,4360]},{"type":"Point","properties":{"Station_ID":"LPRM4","Station_Nam":"OAKDALE REGIONAL CENTER","Latitude":"43.05000","Longitude":"-83.35000","Snowdepth":"5.000","Units":"in","Rept_Date":"2019-11-14 12"},"coordinates":[3738,4618]},{"type":"Point","properties":{"Station_ID":"KGTB","Station_Nam":"FORT DRUM / WHEELER-SACK U. S. ARMY AIRFIELD","Latitude":"44.05000","Longitude":"-75.73333","Snowdepth":"5.000","Units":"in","Rept_Date":"2019-11-15 06"},"coordinates":[5847,5238]},{"type":"Point","properties":{"Station_ID":"KBTV","Station_Nam":"BURLINGTON INTERNATIONAL","Latitude":"44.46666","Longitude":"-73.15000","Snowdepth":"5.000","Units":"in","Rept_Date":"2019-11-15 00"},"coordinates":[6562,5497]},{"type":"Point","properties":{"Station_ID":"INDN6","Station_Nam":"INDIAN LAKE","Latitude":"43.75500","Longitude":"-74.27560","Snowdepth":"5.000","Units":"in","Rept_Date":"2019-11-14 14"},"coordinates":[6250,5055]},{"type":"Point","properties":{"Station_ID":"IBLM5","Station_Nam":"ISABELLA 14W","Latitude":"47.59360","Longitude":"-91.65140","Snowdepth":"5.000","Units":"in","Rept_Date":"2019-11-14 15"},"coordinates":[1440,7436]},{"type":"Point","properties":{"Station_ID":"HTLN3","Station_Nam":"HERMIT LAKE SNOWPLOT","Latitude":"44.26130","Longitude":"-71.28330","Snowdepth":"5.000","Units":"in","Rept_Date":"2019-11-14 12"},"coordinates":[7079,5369]},{"type":"Point","properties":{"Station_ID":"HPKM4","Station_Nam":"HOPKINS 1 N","Latitude":"42.63520","Longitude":"-85.76100","Snowdepth":"5.000","Units":"in","Rept_Date":"2019-11-14 12"},"coordinates":[3071,4361]},{"type":"Point","properties":{"Station_ID":"HOLM4","Station_Nam":"HOLLAND,MI","Latitude":"42.80000","Longitude":"-86.11670","Snowdepth":"5.000","Units":"in","Rept_Date":"2019-11-14 12"},"coordinates":[2972,4463]},{"type":"Point","properties":{"Station_ID":"HGHN6","Station_Nam":"HIGHMARKET","Latitude":"43.57520","Longitude":"-75.52070","Snowdepth":"5.000","Units":"in","Rept_Date":"2019-11-14 10"},"coordinates":[5906,4944]},{"type":"Point","properties":{"Station_ID":"GHMN3","Station_Nam":"PINKHAM NOTCH","Latitude":"44.25800","Longitude":"-71.25250","Snowdepth":"5.000","Units":"in","Rept_Date":"2019-11-14 10"},"coordinates":[7087,5367]},{"type":"Point","properties":{"Station_ID":"FARM4","Station_Nam":"FARMINGTON,MI","Latitude":"42.46670","Longitude":"-83.36670","Snowdepth":"5.000","Units":"in","Rept_Date":"2019-11-14 12"},"coordinates":[3733,4256]},{"type":"Point","properties":{"Station_ID":"ESGM1","Station_Nam":"EAST SANGERVILLE","Latitude":"45.13690","Longitude":"-69.28060","Snowdepth":"5.000","Units":"in","Rept_Date":"2019-11-14 12"},"coordinates":[7633,5912]},{"type":"Point","properties":{"Station_ID":"EAHV1","Station_Nam":"EAST HAVEN","Latitude":"44.64250","Longitude":"-71.89120","Snowdepth":"5.000","Units":"in","Rept_Date":"2019-11-14 12"},"coordinates":[6910,5606]},{"type":"Point","properties":{"Station_ID":"DTW","Station_Nam":"DETROIT METROPOLITAN","Latitude":"42.21220","Longitude":"-83.35330","Snowdepth":"5.000","Units":"in","Rept_Date":"2019-11-15 06"},"coordinates":[3737,4099]},{"type":"Point","properties":{"Station_ID":"DRBM4","Station_Nam":"DEARBORN,MI","Latitude":"42.31670","Longitude":"-83.23330","Snowdepth":"5.000","Units":"in","Rept_Date":"2019-11-14 14"},"coordinates":[3770,4163]},{"type":"Point","properties":{"Station_ID":"CVWP1","Station_Nam":"CHANDLER VALLEY 1SE","Latitude":"41.93010","Longitude":"-79.29700","Snowdepth":"5.000","Units":"in","Rept_Date":"2019-11-14 12"},"coordinates":[4860,3924]},{"type":"Point","properties":{"Station_ID":"CODN6","Station_Nam":"COLDEN 1W","Latitude":"42.64720","Longitude":"-78.71110","Snowdepth":"5.000","Units":"in","Rept_Date":"2019-11-14 12"},"coordinates":[5022,4368]},{"type":"Point","properties":{"Station_ID":"CLKM4","Station_Nam":"CLARKSBURG","Latitude":"46.49910","Longitude":"-87.84500","Snowdepth":"5.000","Units":"in","Rept_Date":"2019-11-14 12"},"coordinates":[2494,6757]},{"type":"Point","properties":{"Station_ID":"CDLM4","Station_Nam":"CADILLAC 9&10 NEWS","Latitude":"44.21130","Longitude":"-85.40860","Snowdepth":"5.000","Units":"in","Rept_Date":"2019-11-14 12"},"coordinates":[3168,5338]},{"type":"Point","properties":{"Station_ID":"CAN-ON-42","Station_Nam":"VANKLEEK HILL 3.4 S, CA","Latitude":"45.48987","Longitude":"-74.64570","Snowdepth":"5.000","Units":"in","Rept_Date":"2019-11-14 12"},"coordinates":[6148,6131]},{"type":"Point","properties":{"Station_ID":"CAN-ON-322","Station_Nam":"WINDSOR 4.0 NE, CAN","Latitude":"42.31785","Longitude":"-83.01522","Snowdepth":"5.000","Units":"in","Rept_Date":"2019-11-14 12"},"coordinates":[3831,4164]},{"type":"Point","properties":{"Station_ID":"CAN-NB-2","Station_Nam":"GRAFTON 2.7 NNE, CA","Latitude":"46.17062","Longitude":"-67.55330","Snowdepth":"5.000","Units":"in","Rept_Date":"2019-11-14 10"},"coordinates":[8111,6553]},{"type":"Point","properties":{"Station_ID":"BTV","Station_Nam":"BURLINGTON, VT","Latitude":"44.47140","Longitude":"-73.15330","Snowdepth":"5.000","Units":"in","Rept_Date":"2019-11-15 01"},"coordinates":[6561,5500]},{"type":"Point","properties":{"Station_ID":"BBEM4","Station_Nam":"BIG BAY 9SW","Latitude":"46.74620","Longitude":"-87.88160","Snowdepth":"5.000","Units":"in","Rept_Date":"2019-11-14 13"},"coordinates":[2484,6910]},{"type":"Point","properties":{"Station_ID":"AUBM4","Station_Nam":"AUBURN 2NE","Latitude":"43.62530","Longitude":"-84.01890","Snowdepth":"5.000","Units":"in","Rept_Date":"2019-11-14 11"},"coordinates":[3553,4975]},{"type":"Point","properties":{"Station_ID":"ATAN6","Station_Nam":"ATTICA 7 SW","Latitude":"42.81070","Longitude":"-78.39790","Snowdepth":"5.000","Units":"in","Rept_Date":"2019-11-14 11"},"coordinates":[5109,4470]},{"type":"Point","properties":{"Station_ID":"ALMM4","Station_Nam":"ALMA,MI","Latitude":"43.38330","Longitude":"-84.66670","Snowdepth":"5.000","Units":"in","Rept_Date":"2019-11-14 12"},"coordinates":[3374,4825]},{"type":"Point","properties":{"Station_ID":"MFU","Station_Nam":"MFU","Latitude":"51.52170","Longitude":"-66.91110","Snowdepth":"4.921","Units":"in","Rept_Date":"2019-11-14 12"},"coordinates":[8289,9872]},{"type":"Point","properties":{"Station_ID":"NY-NG-30","Station_Nam":"LOCKPORT 2.5 ESE, NY","Latitude":"43.15207","Longitude":"-78.65338","Snowdepth":"4.900","Units":"in","Rept_Date":"2019-11-14 12"},"coordinates":[5038,4681]},{"type":"Point","properties":{"Station_ID":"CAN-ON-9","Station_Nam":"WINDSOR 1.7 SE, CAN","Latitude":"42.28448","Longitude":"-83.03456","Snowdepth":"4.900","Units":"in","Rept_Date":"2019-11-14 12"},"coordinates":[3825,4143]},{"type":"Point","properties":{"Station_ID":"QLB","Station_Nam":"QLB","Latitude":"50.72360","Longitude":"-75.10000","Snowdepth":"4.724","Units":"in","Rept_Date":"2019-11-14 12"},"coordinates":[6022,9377]},{"type":"Point","properties":{"Station_ID":"VT-AD-24","Station_Nam":"MIDDLEBURY 0.3 N, VT","Latitude":"44.01808","Longitude":"-73.16844","Snowdepth":"4.700","Units":"in","Rept_Date":"2019-11-14 11"},"coordinates":[6557,5218]},{"type":"Point","properties":{"Station_ID":"CAN-ON-31","Station_Nam":"KOMOKA 2.8 W, CAN","Latitude":"42.95424","Longitude":"-81.43488","Snowdepth":"4.700","Units":"in","Rept_Date":"2019-11-14 14"},"coordinates":[4268,4559]},{"type":"Point","properties":{"Station_ID":"VT-WS-19","Station_Nam":"WATERBURY 3.0 NW, VT","Latitude":"44.36060","Longitude":"-72.80770","Snowdepth":"4.500","Units":"in","Rept_Date":"2019-11-14 11"},"coordinates":[6657,5431]},{"type":"Point","properties":{"Station_ID":"VT-CH-13","Station_Nam":"RICHMOND 3.4 SSE, VT","Latitude":"44.36084","Longitude":"-72.96400","Snowdepth":"4.500","Units":"in","Rept_Date":"2019-11-14 12"},"coordinates":[6613,5431]},{"type":"Point","properties":{"Station_ID":"PA-CW-18","Station_Nam":"CONNEAUT LAKE 1.3 WNW, PA","Latitude":"41.60816","Longitude":"-80.33371","Snowdepth":"4.500","Units":"in","Rept_Date":"2019-11-14 12"},"coordinates":[4573,3724]},{"type":"Point","properties":{"Station_ID":"OH-AL-5","Station_Nam":"LIMA 2.7 NE, OH","Latitude":"40.77390","Longitude":"-84.08000","Snowdepth":"4.500","Units":"in","Rept_Date":"2019-11-14 12"},"coordinates":[3536,3207]},{"type":"Point","properties":{"Station_ID":"NY-LV-1","Station_Nam":"DANSVILLE 3.6 WSW, NY","Latitude":"42.53210","Longitude":"-77.75540","Snowdepth":"4.500","Units":"in","Rept_Date":"2019-11-14 11"},"coordinates":[5287,4297]},{"type":"Point","properties":{"Station_ID":"NY-ER-72","Station_Nam":"TONAWANDA 3.1 NE, NY","Latitude":"43.01368","Longitude":"-78.82960","Snowdepth":"4.500","Units":"in","Rept_Date":"2019-11-14 12"},"coordinates":[4990,4596]},{"type":"Point","properties":{"Station_ID":"NY-CY-27","Station_Nam":"MORAVIA 5.9 ENE, NY","Latitude":"42.73491","Longitude":"-76.31137","Snowdepth":"4.500","Units":"in","Rept_Date":"2019-11-14 12"},"coordinates":[5687,4423]},{"type":"Point","properties":{"Station_ID":"MI-WS-42","Station_Nam":"ANN ARBOR 4.5 W, MI","Latitude":"42.27814","Longitude":"-83.81884","Snowdepth":"4.500","Units":"in","Rept_Date":"2019-11-14 12"},"coordinates":[3608,4139]},{"type":"Point","properties":{"Station_ID":"MI-MC-4","Station_Nam":"ST. IGNACE 0.5SE, MI","Latitude":"45.86057","Longitude":"-84.71980","Snowdepth":"4.500","Units":"in","Rept_Date":"2019-11-14 12"},"coordinates":[3359,6361]},{"type":"Point","properties":{"Station_ID":"MI-LN-16","Station_Nam":"CLINTON 0.5 NE, MI","Latitude":"42.07710","Longitude":"-83.96530","Snowdepth":"4.500","Units":"in","Rept_Date":"2019-11-14 12"},"coordinates":[3568,4015]},{"type":"Point","properties":{"Station_ID":"MI-JC-13","Station_Nam":"HANOVER 3.8 W, MI","Latitude":"42.10700","Longitude":"-84.62600","Snowdepth":"4.500","Units":"in","Rept_Date":"2019-11-14 12"},"coordinates":[3385,4033]},{"type":"Point","properties":{"Station_ID":"MI-HL-1","Station_Nam":"LITCHFIELD 0.3 ENE, MI","Latitude":"42.04528","Longitude":"-84.75310","Snowdepth":"4.500","Units":"in","Rept_Date":"2019-11-14 12"},"coordinates":[3350,3995]},{"type":"Point","properties":{"Station_ID":"MI-CT-2","Station_Nam":"HASLETT 1.2 N, MI","Latitude":"42.76997","Longitude":"-84.40310","Snowdepth":"4.500","Units":"in","Rept_Date":"2019-11-14 12"},"coordinates":[3447,4444]},{"type":"Point","properties":{"Station_ID":"MI-CF-9","Station_Nam":"GRAYLING 15.8 NE, MI","Latitude":"44.80464","Longitude":"-84.46313","Snowdepth":"4.500","Units":"in","Rept_Date":"2019-11-14 11"},"coordinates":[3430,5706]},{"type":"Point","properties":{"Station_ID":"IN-LP-7","Station_Nam":"LA PORTE 1.6 SW, IN","Latitude":"41.59040","Longitude":"-86.73430","Snowdepth":"4.500","Units":"in","Rept_Date":"2019-11-14 13"},"coordinates":[2801,3713]},{"type":"Point","properties":{"Station_ID":"IN-EL-59","Station_Nam":"GOSHEN 1.2 SW, IN","Latitude":"41.56898","Longitude":"-85.85356","Snowdepth":"4.500","Units":"in","Rept_Date":"2019-11-14 12"},"coordinates":[3045,3700]},{"type":"Point","properties":{"Station_ID":"IL-SP-7","Station_Nam":"DAVIS 0.5 N, IL","Latitude":"42.42919","Longitude":"-89.41730","Snowdepth":"4.500","Units":"in","Rept_Date":"2019-11-14 13"},"coordinates":[2058,4233]},{"type":"Point","properties":{"Station_ID":"IL-MCH-43","Station_Nam":"ALGONQUIN 0.7 N, IL","Latitude":"42.17392","Longitude":"-88.29930","Snowdepth":"4.500","Units":"in","Rept_Date":"2019-11-14 12"},"coordinates":[2368,4075]},{"type":"Point","properties":{"Station_ID":"IL-MCH-33","Station_Nam":"WOODSTOCK 3.8 SW, IL","Latitude":"42.27554","Longitude":"-88.49500","Snowdepth":"4.500","Units":"in","Rept_Date":"2019-11-14 14"},"coordinates":[2314,4138]},{"type":"Point","properties":{"Station_ID":"IL-MCH-30","Station_Nam":"WONDER LAKE 0.8 WNW, IL","Latitude":"42.38354","Longitude":"-88.37090","Snowdepth":"4.500","Units":"in","Rept_Date":"2019-11-14 13"},"coordinates":[2348,4205]},{"type":"Point","properties":{"Station_ID":"CAN-ON-245","Station_Nam":"PHELPSTON 3.1 ESE, CAN","Latitude":"44.50564","Longitude":"-79.81035","Snowdepth":"4.500","Units":"in","Rept_Date":"2019-11-14 12"},"coordinates":[4718,5521]},{"type":"Point","properties":{"Station_ID":"CAN-NB-18","Station_Nam":"MCLEOD HILL 1.1 ENE, CA","Latitude":"46.02725","Longitude":"-66.67460","Snowdepth":"4.500","Units":"in","Rept_Date":"2019-11-14 12"},"coordinates":[8354,6464]},{"type":"Point","properties":{"Station_ID":"IL-WN-32","Station_Nam":"ROCKFORD 5.5 S, IL","Latitude":"42.19058","Longitude":"-89.06040","Snowdepth":"4.400","Units":"in","Rept_Date":"2019-11-14 13"},"coordinates":[2157,4085]},{"type":"Point","properties":{"Station_ID":"CAN-ON-452","Station_Nam":"CHATSWORTH 1.8 ENE - GSCA, CAN","Latitude":"44.46118","Longitude":"-80.87506","Snowdepth":"4.400","Units":"in","Rept_Date":"2019-11-14 12"},"coordinates":[4423,5493]},{"type":"Point","properties":{"Station_ID":"CAN-ON-342","Station_Nam":"LURGAN BEACH 1.4 NNE - LHCC, CAN","Latitude":"44.09777","Longitude":"-81.72765","Snowdepth":"4.300","Units":"in","Rept_Date":"2019-11-14 12"},"coordinates":[4187,5268]},{"type":"Point","properties":{"Station_ID":"PTLQ6","Station_Nam":"PORTAGE LAKE","Latitude":"49.06950","Longitude":"-86.65940","Snowdepth":"4.290","Units":"in","Rept_Date":"2019-11-15 06"},"coordinates":[2822,8351]},{"type":"Point","properties":{"Station_ID":"FTHQ6","Station_Nam":"FORT HOPE","Latitude":"51.55820","Longitude":"-87.90510","Snowdepth":"4.210","Units":"in","Rept_Date":"2019-11-15 06"},"coordinates":[2477,9894]},{"type":"Point","properties":{"Station_ID":"QIQ","Station_Nam":"QIQ","Latitude":"49.82390","Longitude":"-68.54310","Snowdepth":"4.094","Units":"in","Rept_Date":"2019-11-14 12"},"coordinates":[7837,8819]},{"type":"Point","properties":{"Station_ID":"WTNM4","Station_Nam":"WATTON 2WSW","Latitude":"46.52660","Longitude":"-88.64240","Snowdepth":"4.000","Units":"in","Rept_Date":"2019-11-14 13"},"coordinates":[2273,6774]},{"type":"Point","properties":{"Station_ID":"WRPW3","Station_Nam":"WATER PURIFICATION PLANT","Latitude":"44.38800","Longitude":"-89.80550","Snowdepth":"4.000","Units":"in","Rept_Date":"2019-11-14 12"},"coordinates":[1951,5448]},{"type":"Point","properties":{"Station_ID":"WORV1","Station_Nam":"WORCESTER 2 W","Latitude":"44.37470","Longitude":"-72.58220","Snowdepth":"4.000","Units":"in","Rept_Date":"2019-11-14 12"},"coordinates":[6719,5440]},{"type":"Point","properties":{"Station_ID":"WI-WN-9","Station_Nam":"NEENAH 1.1 ENE, WI","Latitude":"44.17370","Longitude":"-88.45130","Snowdepth":"4.000","Units":"in","Rept_Date":"2019-11-14 13"},"coordinates":[2326,5315]},{"type":"Point","properties":{"Station_ID":"WI-VL-9","Station_Nam":"LAND O' LAKES 11.7 W, WI","Latitude":"46.19023","Longitude":"-89.45790","Snowdepth":"4.000","Units":"in","Rept_Date":"2019-11-14 13"},"coordinates":[2047,6565]},{"type":"Point","properties":{"Station_ID":"WI-RK-12","Station_Nam":"JANESVILLE 3.1 W, WI","Latitude":"42.67576","Longitude":"-89.07614","Snowdepth":"4.000","Units":"in","Rept_Date":"2019-11-14 13"},"coordinates":[2153,4386]},{"type":"Point","properties":{"Station_ID":"WI-GN-8","Station_Nam":"BRODHEAD 0.7 NNW, WI","Latitude":"42.62658","Longitude":"-89.38124","Snowdepth":"4.000","Units":"in","Rept_Date":"2019-11-14 14"},"coordinates":[2068,4356]},{"type":"Point","properties":{"Station_ID":"VT-WS-10","Station_Nam":"NORTHFIELD 1.5 N, VT","Latitude":"44.16986","Longitude":"-72.65200","Snowdepth":"4.000","Units":"in","Rept_Date":"2019-11-14 12"},"coordinates":[6700,5313]},{"type":"Point","properties":{"Station_ID":"VT-WR-17","Station_Nam":"ROCHESTER 2.3 NE, VT","Latitude":"43.89418","Longitude":"-72.76992","Snowdepth":"4.000","Units":"in","Rept_Date":"2019-11-14 12"},"coordinates":[6667,5142]},{"type":"Point","properties":{"Station_ID":"VT-LM-1","Station_Nam":"STOWE 0.2 SW, VT","Latitude":"44.46399","Longitude":"-72.69070","Snowdepth":"4.000","Units":"in","Rept_Date":"2019-11-14 12"},"coordinates":[6689,5495]},{"type":"Point","properties":{"Station_ID":"VT-CL-18","Station_Nam":"WHEELOCK 1.6 S, VT","Latitude":"44.56491","Longitude":"-72.08830","Snowdepth":"4.000","Units":"in","Rept_Date":"2019-11-14 12"},"coordinates":[6856,5558]},{"type":"Point","properties":{"Station_ID":"TRVM4","Station_Nam":"THREE RIVERS,MI","Latitude":"41.93330","Longitude":"-85.63330","Snowdepth":"4.000","Units":"in","Rept_Date":"2019-11-14 12"},"coordinates":[3106,3926]},{"type":"Point","properties":{"Station_ID":"TECM4","Station_Nam":"TECUMSEH,MI","Latitude":"42.00000","Longitude":"-83.95000","Snowdepth":"4.000","Units":"in","Rept_Date":"2019-11-14 11"},"coordinates":[3572,3967]},{"type":"Point","properties":{"Station_ID":"STJM4","Station_Nam":"SAINT JOHNS,MI","Latitude":"43.01670","Longitude":"-84.55000","Snowdepth":"4.000","Units":"in","Rept_Date":"2019-11-14 12"},"coordinates":[3406,4597]},{"type":"Point","properties":{"Station_ID":"SJBV1","Station_Nam":"SAINT JOHNSBURY","Latitude":"44.42000","Longitude":"-72.01940","Snowdepth":"4.000","Units":"in","Rept_Date":"2019-11-14 21"},"coordinates":[6875,5468]},{"type":"Point","properties":{"Station_ID":"SHIW3","Station_Nam":"SHIOCTON","Latitude":"44.43890","Longitude":"-88.58390","Snowdepth":"4.000","Units":"in","Rept_Date":"2019-11-14 13"},"coordinates":[2289,5479]},{"type":"Point","properties":{"Station_ID":"SGVN6","Station_Nam":"SPRINGVILLE","Latitude":"42.54970","Longitude":"-78.57670","Snowdepth":"4.000","Units":"in","Rept_Date":"2019-11-15 00"},"coordinates":[5060,4308]},{"type":"Point","properties":{"Station_ID":"RUTV1","Station_Nam":"RUTLAND","Latitude":"43.62530","Longitude":"-72.97810","Snowdepth":"4.000","Units":"in","Rept_Date":"2019-11-14 12"},"coordinates":[6609,4975]},{"type":"Point","properties":{"Station_ID":"RDFN6","Station_Nam":"REDFIELD 8N","Latitude":"43.64130","Longitude":"-75.88400","Snowdepth":"4.000","Units":"in","Rept_Date":"2019-11-14 12"},"coordinates":[5805,4985]},{"type":"Point","properties":{"Station_ID":"PYMI3","Station_Nam":"PLYMOUTH","Latitude":"41.33920","Longitude":"-86.33580","Snowdepth":"4.000","Units":"in","Rept_Date":"2019-11-14 11"},"coordinates":[2912,3557]},{"type":"Point","properties":{"Station_ID":"PTYM4","Station_Nam":"PETOSKEY NCMC","Latitude":"45.36120","Longitude":"-84.95110","Snowdepth":"4.000","Units":"in","Rept_Date":"2019-11-14 13"},"coordinates":[3295,6051]},{"type":"Point","properties":{"Station_ID":"PLLW3","Station_Nam":"PELL LAKE","Latitude":"42.53220","Longitude":"-88.33280","Snowdepth":"4.000","Units":"in","Rept_Date":"2019-11-14 13"},"coordinates":[2359,4297]},{"type":"Point","properties":{"Station_ID":"PENN6","Station_Nam":"PENDLETON 1 NE","Latitude":"43.10100","Longitude":"-78.71380","Snowdepth":"4.000","Units":"in","Rept_Date":"2019-11-14 13"},"coordinates":[5022,4650]},{"type":"Point","properties":{"Station_ID":"OWSM4","Station_Nam":"OWOSSO,MI","Latitude":"42.96670","Longitude":"-84.20000","Snowdepth":"4.000","Units":"in","Rept_Date":"2019-11-14 12"},"coordinates":[3503,4566]},{"type":"Point","properties":{"Station_ID":"OH-WD-23","Station_Nam":"BOWLING GREEN 0.8 W, OH","Latitude":"41.37570","Longitude":"-83.66406","Snowdepth":"4.000","Units":"in","Rept_Date":"2019-11-14 12"},"coordinates":[3651,3580]},{"type":"Point","properties":{"Station_ID":"OH-LS-1","Station_Nam":"TOLEDO 2.4 ENE, OH","Latitude":"41.68227","Longitude":"-83.54121","Snowdepth":"4.000","Units":"in","Rept_Date":"2019-11-14 12"},"coordinates":[3685,3770]},{"type":"Point","properties":{"Station_ID":"OH-CY-42","Station_Nam":"STRONGSVILLE 1.3 SE, OH","Latitude":"41.29815","Longitude":"-81.81507","Snowdepth":"4.000","Units":"in","Rept_Date":"2019-11-14 13"},"coordinates":[4163,3532]},{"type":"Point","properties":{"Station_ID":"NY-OL-5","Station_Nam":"MEDINA 0.4 WNW, NY","Latitude":"43.22300","Longitude":"-78.39539","Snowdepth":"4.000","Units":"in","Rept_Date":"2019-11-14 13"},"coordinates":[5110,4725]},{"type":"Point","properties":{"Station_ID":"NY-NG-22","Station_Nam":"NIAGARA FALLS 5.7 E, NY","Latitude":"43.08297","Longitude":"-78.90460","Snowdepth":"4.000","Units":"in","Rept_Date":"2019-11-14 13"},"coordinates":[4969,4639]},{"type":"Point","properties":{"Station_ID":"NY-MR-21","Station_Nam":"PITTSFORD 4.0 SSE, NY","Latitude":"43.03498","Longitude":"-77.49450","Snowdepth":"4.000","Units":"in","Rept_Date":"2019-11-14 11"},"coordinates":[5359,4609]},{"type":"Point","properties":{"Station_ID":"NY-MD-10","Station_Nam":"CAZENOVIA 2.9 SE, NY","Latitude":"42.90003","Longitude":"-75.81140","Snowdepth":"4.000","Units":"in","Rept_Date":"2019-11-14 12"},"coordinates":[5825,4525]},{"type":"Point","properties":{"Station_ID":"NY-ER-7","Station_Nam":"WILLIAMSVILLE 2.7 E, NY","Latitude":"42.96930","Longitude":"-78.68790","Snowdepth":"4.000","Units":"in","Rept_Date":"2019-11-14 13"},"coordinates":[5029,4568]},{"type":"Point","properties":{"Station_ID":"NY-ER-122","Station_Nam":"CHEEKTOWAGA 2.4 NW, NY","Latitude":"42.93457","Longitude":"-78.78295","Snowdepth":"4.000","Units":"in","Rept_Date":"2019-11-14 13"},"coordinates":[5002,4547]},{"type":"Point","properties":{"Station_ID":"NWPM4","Station_Nam":"NEWPORT 4SSE","Latitude":"41.94970","Longitude":"-83.28000","Snowdepth":"4.000","Units":"in","Rept_Date":"2019-11-14 12"},"coordinates":[3757,3936]},{"type":"Point","properties":{"Station_ID":"NCKN6","Station_Nam":"NORTH CREEK 5 SE","Latitude":"43.66110","Longitude":"-73.89690","Snowdepth":"4.000","Units":"in","Rept_Date":"2019-11-14 12"},"coordinates":[6355,4997]},{"type":"Point","properties":{"Station_ID":"MYOM4","Station_Nam":"MIO WWTP","Latitude":"44.64660","Longitude":"-84.11580","Snowdepth":"4.000","Units":"in","Rept_Date":"2019-11-14 13"},"coordinates":[3526,5608]},{"type":"Point","properties":{"Station_ID":"MXON6","Station_Nam":"MEXICO","Latitude":"43.43830","Longitude":"-76.26560","Snowdepth":"4.000","Units":"in","Rept_Date":"2019-11-14 12"},"coordinates":[5699,4859]},{"type":"Point","properties":{"Station_ID":"MWN","Station_Nam":"MOUNT WASHINGTON","Latitude":"44.26670","Longitude":"-71.30000","Snowdepth":"4.000","Units":"in","Rept_Date":"2019-11-15 05"},"coordinates":[7074,5373]},{"type":"Point","properties":{"Station_ID":"MTCM4","Station_Nam":"MT. CLEMENS","Latitude":"42.59580","Longitude":"-82.90890","Snowdepth":"4.000","Units":"in","Rept_Date":"2019-11-14 12"},"coordinates":[3860,4336]},{"type":"Point","properties":{"Station_ID":"MOPO1","Station_Nam":"MONTPELIER","Latitude":"41.58590","Longitude":"-84.62340","Snowdepth":"4.000","Units":"in","Rept_Date":"2019-11-14 11"},"coordinates":[3386,3710]},{"type":"Point","properties":{"Station_ID":"MNPV1","Station_Nam":"MONTPELIER 2","Latitude":"44.25530","Longitude":"-72.60060","Snowdepth":"4.000","Units":"in","Rept_Date":"2019-11-14 12"},"coordinates":[6714,5366]},{"type":"Point","properties":{"Station_ID":"MKNM4","Station_Nam":"MUSKEGON 4 SE","Latitude":"43.18390","Longitude":"-86.20370","Snowdepth":"4.000","Units":"in","Rept_Date":"2019-11-15 06"},"coordinates":[2948,4701]},{"type":"Point","properties":{"Station_ID":"MKG","Station_Nam":"MUSKEGON COUNTY AIRPORT","Latitude":"43.16940","Longitude":"-86.23810","Snowdepth":"4.000","Units":"in","Rept_Date":"2019-11-15 00"},"coordinates":[2939,4692]},{"type":"Point","properties":{"Station_ID":"MI-OK-35","Station_Nam":"WATERFORD 2.1 NW, MI","Latitude":"42.68742","Longitude":"-83.41320","Snowdepth":"4.000","Units":"in","Rept_Date":"2019-11-14 12"},"coordinates":[3721,4393]},{"type":"Point","properties":{"Station_ID":"MI-MT-9","Station_Nam":"FENWICK 3.3 E, MI","Latitude":"43.15067","Longitude":"-85.01435","Snowdepth":"4.000","Units":"in","Rept_Date":"2019-11-14 12"},"coordinates":[3277,4681]},{"type":"Point","properties":{"Station_ID":"MI-MR-16","Station_Nam":"OTTAWA LAKE 1.4 SSW, MI","Latitude":"41.78278","Longitude":"-83.73895","Snowdepth":"4.000","Units":"in","Rept_Date":"2019-11-14 12"},"coordinates":[3630,3832]},{"type":"Point","properties":{"Station_ID":"MI-MR-1","Station_Nam":"NEWPORT 3.1 SE, MI","Latitude":"41.94960","Longitude":"-83.28010","Snowdepth":"4.000","Units":"in","Rept_Date":"2019-11-14 12"},"coordinates":[3757,3936]},{"type":"Point","properties":{"Station_ID":"MI-MQ-2","Station_Nam":"MARQUETTE 6.5 SSE, MI","Latitude":"46.46461","Longitude":"-87.34064","Snowdepth":"4.000","Units":"in","Rept_Date":"2019-11-14 12"},"coordinates":[2633,6736]},{"type":"Point","properties":{"Station_ID":"MI-KZ-6","Station_Nam":"WESTERN MICHIGAN UNIVERSITY, MI","Latitude":"42.28300","Longitude":"-85.61500","Snowdepth":"4.000","Units":"in","Rept_Date":"2019-11-15 05"},"coordinates":[3111,4142]},{"type":"Point","properties":{"Station_ID":"MI-HL-9","Station_Nam":"MONTGOMERY 1.9 SSE, MI","Latitude":"41.75167","Longitude":"-84.78952","Snowdepth":"4.000","Units":"in","Rept_Date":"2019-11-14 13"},"coordinates":[3340,3813]},{"type":"Point","properties":{"Station_ID":"MI-CT-1","Station_Nam":"LAINGSBURG 5.0 SW, MI","Latitude":"42.84028","Longitude":"-84.41970","Snowdepth":"4.000","Units":"in","Rept_Date":"2019-11-14 11"},"coordinates":[3442,4488]},{"type":"Point","properties":{"Station_ID":"ME-SM-4","Station_Nam":"SOLON 3.9 ESE, ME","Latitude":"44.94705","Longitude":"-69.77790","Snowdepth":"4.000","Units":"in","Rept_Date":"2019-11-14 12"},"coordinates":[7495,5795]},{"type":"Point","properties":{"Station_ID":"MBS","Station_Nam":"MBS INTERNATIONAL AIRPORT","Latitude":"43.53310","Longitude":"-84.07970","Snowdepth":"4.000","Units":"in","Rept_Date":"2019-11-14 12"},"coordinates":[3536,4918]},{"type":"Point","properties":{"Station_ID":"LTVN6","Station_Nam":"LITTLE VALLEY","Latitude":"42.24730","Longitude":"-78.81250","Snowdepth":"4.000","Units":"in","Rept_Date":"2019-11-14 12"},"coordinates":[4994,4120]},{"type":"Point","properties":{"Station_ID":"LOWN6","Station_Nam":"LOWVILLE","Latitude":"43.79280","Longitude":"-75.48290","Snowdepth":"4.000","Units":"in","Rept_Date":"2019-11-14 12"},"coordinates":[5916,5079]},{"type":"Point","properties":{"Station_ID":"LNOW3","Station_Nam":"LAND O LAKES","Latitude":"46.19000","Longitude":"-89.45700","Snowdepth":"4.000","Units":"in","Rept_Date":"2019-11-14 13"},"coordinates":[2047,6565]},{"type":"Point","properties":{"Station_ID":"LIDM4","Station_Nam":"LINDEN WWTP","Latitude":"42.81330","Longitude":"-83.80380","Snowdepth":"4.000","Units":"in","Rept_Date":"2019-11-14 13"},"coordinates":[3612,4471]},{"type":"Point","properties":{"Station_ID":"LGEW3","Station_Nam":"LAKE GENEVA, WI","Latitude":"42.60000","Longitude":"-88.43440","Snowdepth":"4.000","Units":"in","Rept_Date":"2019-11-14 13"},"coordinates":[2331,4339]},{"type":"Point","properties":{"Station_ID":"KSEM4","Station_Nam":"KALKASKA 11SE","Latitude":"44.58970","Longitude":"-85.04860","Snowdepth":"4.000","Units":"in","Rept_Date":"2019-11-14 13"},"coordinates":[3268,5573]},{"type":"Point","properties":{"Station_ID":"KMWN","Station_Nam":"MOUNT WASHINGTON","Latitude":"44.26666","Longitude":"-71.30000","Snowdepth":"4.000","Units":"in","Rept_Date":"2019-11-15 06"},"coordinates":[7074,5373]},{"type":"Point","properties":{"Station_ID":"KABM5","Station_Nam":"KABETOGAMA LAKE VISITOR CTR","Latitude":"48.40880","Longitude":"-93.04840","Snowdepth":"4.000","Units":"in","Rept_Date":"2019-11-14 13"},"coordinates":[1053,7941]},{"type":"Point","properties":{"Station_ID":"JKMM1","Station_Nam":"JACKMAN","Latitude":"45.62600","Longitude":"-70.24600","Snowdepth":"4.000","Units":"in","Rept_Date":"2019-11-14 12"},"coordinates":[7366,6216]},{"type":"Point","properties":{"Station_ID":"JCBM4","Station_Nam":"JACOBSVILLE","Latitude":"47.00830","Longitude":"-88.43180","Snowdepth":"4.000","Units":"in","Rept_Date":"2019-11-14 12"},"coordinates":[2331,7073]},{"type":"Point","properties":{"Station_ID":"ISLV1","Station_Nam":"ISLAND POND","Latitude":"44.81280","Longitude":"-71.89020","Snowdepth":"4.000","Units":"in","Rept_Date":"2019-11-14 15"},"coordinates":[6911,5711]},{"type":"Point","properties":{"Station_ID":"IN-SJ-28","Station_Nam":"SOUTH BEND 4.6 SE, IN","Latitude":"41.62090","Longitude":"-86.21520","Snowdepth":"4.000","Units":"in","Rept_Date":"2019-11-14 12"},"coordinates":[2945,3732]},{"type":"Point","properties":{"Station_ID":"IN-SJ-17","Station_Nam":"WALKERTON 5.7 ENE, IN","Latitude":"41.50190","Longitude":"-86.38510","Snowdepth":"4.000","Units":"in","Rept_Date":"2019-11-14 12"},"coordinates":[2898,3658]},{"type":"Point","properties":{"Station_ID":"IN-NB-11","Station_Nam":"ALBION 3.7 S, IN","Latitude":"41.34161","Longitude":"-85.41560","Snowdepth":"4.000","Units":"in","Rept_Date":"2019-11-14 14"},"coordinates":[3166,3559]},{"type":"Point","properties":{"Station_ID":"IN-KS-32","Station_Nam":"LEESBURG 6.7 ESE, IN","Latitude":"41.31009","Longitude":"-85.72290","Snowdepth":"4.000","Units":"in","Rept_Date":"2019-11-14 12"},"coordinates":[3081,3539]},{"type":"Point","properties":{"Station_ID":"IN-EL-8","Station_Nam":"WAKARUSA 2.4 NNE, IN","Latitude":"41.56551","Longitude":"-85.99330","Snowdepth":"4.000","Units":"in","Rept_Date":"2019-11-14 12"},"coordinates":[3006,3698]},{"type":"Point","properties":{"Station_ID":"IN-EL-39","Station_Nam":"GOSHEN 3.0 WSW, IN","Latitude":"41.55775","Longitude":"-85.88342","Snowdepth":"4.000","Units":"in","Rept_Date":"2019-11-14 12"},"coordinates":[3037,3693]},{"type":"Point","properties":{"Station_ID":"IL-WN-26","Station_Nam":"ROCKFORD 1.5 ENE, IL","Latitude":"42.27775","Longitude":"-89.03590","Snowdepth":"4.000","Units":"in","Rept_Date":"2019-11-14 15"},"coordinates":[2164,4139]},{"type":"Point","properties":{"Station_ID":"IL-SP-6","Station_Nam":"FREEPORT 2.0 NW, IL","Latitude":"42.30955","Longitude":"-89.66370","Snowdepth":"4.000","Units":"in","Rept_Date":"2019-11-14 13"},"coordinates":[1990,4159]},{"type":"Point","properties":{"Station_ID":"IL-SP-25","Station_Nam":"FREEPORT 1.7 NW, IL","Latitude":"42.30427","Longitude":"-89.66285","Snowdepth":"4.000","Units":"in","Rept_Date":"2019-11-14 13"},"coordinates":[1990,4156]},{"type":"Point","properties":{"Station_ID":"IL-MCH-13","Station_Nam":"BULL VALLEY 2.5 WNW, IL","Latitude":"42.32455","Longitude":"-88.39460","Snowdepth":"4.000","Units":"in","Rept_Date":"2019-11-14 14"},"coordinates":[2342,4168]},{"type":"Point","properties":{"Station_ID":"IL-LK-9","Station_Nam":"LAKE VILLA 1.1 SSW, IL","Latitude":"42.40305","Longitude":"-88.09050","Snowdepth":"4.000","Units":"in","Rept_Date":"2019-11-14 12"},"coordinates":[2426,4217]},{"type":"Point","properties":{"Station_ID":"IL-KN-118","Station_Nam":"SLEEPY HOLLOW 0.7 W, IL","Latitude":"42.09500","Longitude":"-88.32790","Snowdepth":"4.000","Units":"in","Rept_Date":"2019-11-14 13"},"coordinates":[2360,4026]},{"type":"Point","properties":{"Station_ID":"HVJP1","Station_Nam":"HIDDEN VALLEY COOP","Latitude":"40.04200","Longitude":"-79.25660","Snowdepth":"4.000","Units":"in","Rept_Date":"2019-11-14 13"},"coordinates":[4871,2753]},{"type":"Point","properties":{"Station_ID":"HTLM4","Station_Nam":"SNOW PAID OBSERVER FOR KHTL","Latitude":"44.34470","Longitude":"-84.67730","Snowdepth":"4.000","Units":"in","Rept_Date":"2019-11-14 18"},"coordinates":[3371,5421]},{"type":"Point","properties":{"Station_ID":"HTL","Station_Nam":"ROSCOMMON COUNTY AIRPORT","Latitude":"44.35000","Longitude":"-84.66670","Snowdepth":"4.000","Units":"in","Rept_Date":"2019-11-15 00"},"coordinates":[3374,5424]},{"type":"Point","properties":{"Station_ID":"HRVM4","Station_Nam":"HARVEY","Latitude":"46.49080","Longitude":"-87.35470","Snowdepth":"4.000","Units":"in","Rept_Date":"2019-11-14 12"},"coordinates":[2629,6752]},{"type":"Point","properties":{"Station_ID":"HONN6","Station_Nam":"HONEOYE","Latitude":"42.79200","Longitude":"-77.51360","Snowdepth":"4.000","Units":"in","Rept_Date":"2019-11-14 12"},"coordinates":[5354,4458]},{"type":"Point","properties":{"Station_ID":"HEBI2","Station_Nam":"HEBRON","Latitude":"42.46750","Longitude":"-88.48060","Snowdepth":"4.000","Units":"in","Rept_Date":"2019-11-14 13"},"coordinates":[2318,4257]},{"type":"Point","properties":{"Station_ID":"GOVN6","Station_Nam":"GOUVERNEUR 3 NW","Latitude":"44.35400","Longitude":"-75.51230","Snowdepth":"4.000","Units":"in","Rept_Date":"2019-11-14 12"},"coordinates":[5908,5427]},{"type":"Point","properties":{"Station_ID":"GLNM4","Station_Nam":"GLENNIE 2SE","Latitude":"44.53580","Longitude":"-83.70220","Snowdepth":"4.000","Units":"in","Rept_Date":"2019-11-14 12"},"coordinates":[3641,5540]},{"type":"Point","properties":{"Station_ID":"GGRM4","Station_Nam":"GREEN GARDEN NO.2","Latitude":"46.45330","Longitude":"-87.30380","Snowdepth":"4.000","Units":"in","Rept_Date":"2019-11-14 11"},"coordinates":[2644,6729]},{"type":"Point","properties":{"Station_ID":"GFDN6","Station_Nam":"CHASE LAKE","Latitude":"43.75920","Longitude":"-75.29980","Snowdepth":"4.000","Units":"in","Rept_Date":"2019-11-14 11"},"coordinates":[5967,5058]},{"type":"Point","properties":{"Station_ID":"GDLM4","Station_Nam":"GRAND LEDGE,MI","Latitude":"42.76670","Longitude":"-84.76670","Snowdepth":"4.000","Units":"in","Rept_Date":"2019-11-14 12"},"coordinates":[3346,4442]},{"type":"Point","properties":{"Station_ID":"FNT","Station_Nam":"FLINT BISHOP INTL AIRPORT","Latitude":"42.96560","Longitude":"-83.74360","Snowdepth":"4.000","Units":"in","Rept_Date":"2019-11-15 06"},"coordinates":[3629,4566]},{"type":"Point","properties":{"Station_ID":"DFXM1","Station_Nam":"DOVER-FOXCROFT","Latitude":"45.18720","Longitude":"-69.18350","Snowdepth":"4.000","Units":"in","Rept_Date":"2019-11-14 12"},"coordinates":[7660,5943]},{"type":"Point","properties":{"Station_ID":"CLUI4","Station_Nam":"CLUTIER,IA","Latitude":"42.08330","Longitude":"-92.40000","Snowdepth":"4.000","Units":"in","Rept_Date":"2019-11-14 13"},"coordinates":[1233,4019]},{"type":"Point","properties":{"Station_ID":"CHSM4","Station_Nam":"CHESANING,MI","Latitude":"43.21670","Longitude":"-84.10000","Snowdepth":"4.000","Units":"in","Rept_Date":"2019-11-14 12"},"coordinates":[3530,4721]},{"type":"Point","properties":{"Station_ID":"CARM4","Station_Nam":"REGIONAL CENTER","Latitude":"43.45000","Longitude":"-83.40000","Snowdepth":"4.000","Units":"in","Rept_Date":"2019-11-14 13"},"coordinates":[3724,4866]},{"type":"Point","properties":{"Station_ID":"CAN-ON-5","Station_Nam":"OWEN SOUND 1.5 NW - GSCA, CAN","Latitude":"44.57837","Longitude":"-80.95461","Snowdepth":"4.000","Units":"in","Rept_Date":"2019-11-14 13"},"coordinates":[4401,5566]},{"type":"Point","properties":{"Station_ID":"CAN-ON-178","Station_Nam":"GODERICH 10.2 S - MVCA, CAN","Latitude":"43.64655","Longitude":"-81.70734","Snowdepth":"4.000","Units":"in","Rept_Date":"2019-11-14 13"},"coordinates":[4193,4988]},{"type":"Point","properties":{"Station_ID":"BRDM1","Station_Nam":"BRIDGEWATER","Latitude":"46.42870","Longitude":"-67.84370","Snowdepth":"4.000","Units":"in","Rept_Date":"2019-11-14 23"},"coordinates":[8031,6713]},{"type":"Point","properties":{"Station_ID":"BOON6","Station_Nam":"BOONVILLE 4 SSW","Latitude":"43.43610","Longitude":"-75.36970","Snowdepth":"4.000","Units":"in","Rept_Date":"2019-11-14 12"},"coordinates":[5947,4858]},{"type":"Point","properties":{"Station_ID":"BLTW3","Station_Nam":"BELOIT,WI","Latitude":"42.50000","Longitude":"-89.03330","Snowdepth":"4.000","Units":"in","Rept_Date":"2019-11-14 12"},"coordinates":[2165,4277]},{"type":"Point","properties":{"Station_ID":"BETM1","Station_Nam":"BETHEL 6 SSE","Latitude":"44.32000","Longitude":"-70.75680","Snowdepth":"4.000","Units":"in","Rept_Date":"2019-11-14 12"},"coordinates":[7224,5406]},{"type":"Point","properties":{"Station_ID":"BENN6","Station_Nam":"BENNETTS BRIDGE","Latitude":"43.53180","Longitude":"-75.95260","Snowdepth":"4.000","Units":"in","Rept_Date":"2019-11-14 12"},"coordinates":[5786,4917]},{"type":"Point","properties":{"Station_ID":"ANGN6","Station_Nam":"ANGELICA","Latitude":"42.31080","Longitude":"-78.02300","Snowdepth":"4.000","Units":"in","Rept_Date":"2019-11-14 12"},"coordinates":[5213,4160]},{"type":"Point","properties":{"Station_ID":"ANDM1","Station_Nam":"ANDOVER 2","Latitude":"44.65300","Longitude":"-70.79410","Snowdepth":"4.000","Units":"in","Rept_Date":"2019-11-14 11"},"coordinates":[7214,5612]},{"type":"Point","properties":{"Station_ID":"AMOI4","Station_Nam":"ANAMOSA 3 SSW","Latitude":"42.07630","Longitude":"-91.30190","Snowdepth":"4.000","Units":"in","Rept_Date":"2019-11-14 13"},"coordinates":[1537,4014]},{"type":"Point","properties":{"Station_ID":"ALO","Station_Nam":"WATERLOO MUNICIPAL AIRPORT","Latitude":"42.55690","Longitude":"-92.40000","Snowdepth":"4.000","Units":"in","Rept_Date":"2019-11-14 12"},"coordinates":[1233,4312]},{"type":"Point","properties":{"Station_ID":"41.3151_081.1434","Station_Nam":"HIRAM (CLE2220)","Latitude":"41.31510","Longitude":"-81.14340","Snowdepth":"4.000","Units":"in","Rept_Date":"2019-11-15 02"},"coordinates":[4349,3542]},{"type":"Point","properties":{"Station_ID":"CAN-ON-451","Station_Nam":"OWEN SOUND 1.2 N - GSCA, CAN","Latitude":"44.58092","Longitude":"-80.93025","Snowdepth":"3.900","Units":"in","Rept_Date":"2019-11-14 13"},"coordinates":[4408,5568]},{"type":"Point","properties":{"Station_ID":"CAN-ON-132","Station_Nam":"ORANGEVILLE 5.1 SSW - CANWARN, CAN","Latitude":"43.87372","Longitude":"-80.13428","Snowdepth":"3.900","Units":"in","Rept_Date":"2019-11-14 11"},"coordinates":[4628,5129]},{"type":"Point","properties":{"Station_ID":"PA-ER-2","Station_Nam":"ERIE 5.6 SW, PA","Latitude":"42.06086","Longitude":"-80.15260","Snowdepth":"3.800","Units":"in","Rept_Date":"2019-11-14 12"},"coordinates":[4623,4005]},{"type":"Point","properties":{"Station_ID":"MI-MR-4","Station_Nam":"MONROE 3.0 S, MI","Latitude":"41.87263","Longitude":"-83.38093","Snowdepth":"3.700","Units":"in","Rept_Date":"2019-11-14 12"},"coordinates":[3730,3888]},{"type":"Point","properties":{"Station_ID":"CAN-ON-324","Station_Nam":"AMHERSTBURG 4.0 NNE, CAN","Latitude":"42.13151","Longitude":"-83.08810","Snowdepth":"3.700","Units":"in","Rept_Date":"2019-11-14 12"},"coordinates":[3811,4049]},{"type":"Point","properties":{"Station_ID":"IL-MCH-95","Station_Nam":"CARY 0.5 SSW, IL","Latitude":"42.20235","Longitude":"-88.25224","Snowdepth":"3.600","Units":"in","Rept_Date":"2019-11-14 13"},"coordinates":[2381,4092]},{"type":"Point","properties":{"Station_ID":"VT-WS-33","Station_Nam":"WAITSFIELD 3.5 WNW, VT","Latitude":"44.20052","Longitude":"-72.89421","Snowdepth":"3.500","Units":"in","Rept_Date":"2019-11-14 13"},"coordinates":[6633,5332]},{"type":"Point","properties":{"Station_ID":"OH-LS-23","Station_Nam":"SWANTON 6.7 NNE, OH","Latitude":"41.67098","Longitude":"-83.83534","Snowdepth":"3.500","Units":"in","Rept_Date":"2019-11-14 12"},"coordinates":[3604,3763]},{"type":"Point","properties":{"Station_ID":"OH-HC-12","Station_Nam":"FINDLAY 0.4 WSW, OH","Latitude":"41.04010","Longitude":"-83.64919","Snowdepth":"3.500","Units":"in","Rept_Date":"2019-11-14 14"},"coordinates":[3655,3372]},{"type":"Point","properties":{"Station_ID":"OH-AL-8","Station_Nam":"DELPHOS 2.3 ESE, OH","Latitude":"40.83350","Longitude":"-84.29820","Snowdepth":"3.500","Units":"in","Rept_Date":"2019-11-14 12"},"coordinates":[3476,3244]},{"type":"Point","properties":{"Station_ID":"NY-TM-42","Station_Nam":"ITHACA 6.4 E, NY","Latitude":"42.43350","Longitude":"-76.37860","Snowdepth":"3.500","Units":"in","Rept_Date":"2019-11-14 12"},"coordinates":[5668,4236]},{"type":"Point","properties":{"Station_ID":"NY-TM-27","Station_Nam":"GROTON 3.2 SSW, NY","Latitude":"42.54725","Longitude":"-76.39960","Snowdepth":"3.500","Units":"in","Rept_Date":"2019-11-14 12"},"coordinates":[5662,4306]},{"type":"Point","properties":{"Station_ID":"NY-TG-15","Station_Nam":"BERKSHIRE 1.9 ENE, NY","Latitude":"42.31910","Longitude":"-76.21940","Snowdepth":"3.500","Units":"in","Rept_Date":"2019-11-14 13"},"coordinates":[5712,4165]},{"type":"Point","properties":{"Station_ID":"NY-OS-15","Station_Nam":"MINETTO 0.1 SE, NY","Latitude":"43.39771","Longitude":"-76.47960","Snowdepth":"3.500","Units":"in","Rept_Date":"2019-11-14 13"},"coordinates":[5640,4834]},{"type":"Point","properties":{"Station_ID":"NY-ON-17","Station_Nam":"CANANDAIGUA 4.6 S, NY","Latitude":"42.82200","Longitude":"-77.28840","Snowdepth":"3.500","Units":"in","Rept_Date":"2019-11-14 14"},"coordinates":[5416,4477]},{"type":"Point","properties":{"Station_ID":"MI-SG-17","Station_Nam":"SAGINAW 6.4 W, MI","Latitude":"43.42271","Longitude":"-84.07757","Snowdepth":"3.500","Units":"in","Rept_Date":"2019-11-14 14"},"coordinates":[3537,4849]},{"type":"Point","properties":{"Station_ID":"MI-KZ-1","Station_Nam":"KALAMAZOO 6.0 SW, MI","Latitude":"42.20613","Longitude":"-85.65900","Snowdepth":"3.500","Units":"in","Rept_Date":"2019-11-14 13"},"coordinates":[3099,4095]},{"type":"Point","properties":{"Station_ID":"MI-KN-93","Station_Nam":"GRANDVILLE 0.6 SSW, MI","Latitude":"42.89531","Longitude":"-85.76006","Snowdepth":"3.500","Units":"in","Rept_Date":"2019-11-14 12"},"coordinates":[3071,4522]},{"type":"Point","properties":{"Station_ID":"MI-IN-1","Station_Nam":"SARANAC 2.6 NE, MI","Latitude":"42.95764","Longitude":"-85.17380","Snowdepth":"3.500","Units":"in","Rept_Date":"2019-11-14 11"},"coordinates":[3233,4561]},{"type":"Point","properties":{"Station_ID":"MI-CP-7","Station_Nam":"DRUMMOND 2.9 NE, MI","Latitude":"46.05329","Longitude":"-83.69060","Snowdepth":"3.500","Units":"in","Rept_Date":"2019-11-14 14"},"coordinates":[3644,6481]},{"type":"Point","properties":{"Station_ID":"MI-BR-13","Station_Nam":"HASTINGS 4.3 SSW, MI","Latitude":"42.59178","Longitude":"-85.31610","Snowdepth":"3.500","Units":"in","Rept_Date":"2019-11-14 11"},"coordinates":[3194,4334]},{"type":"Point","properties":{"Station_ID":"MI-BN-4","Station_Nam":"NILES 2.7 W, MI","Latitude":"41.83705","Longitude":"-86.30050","Snowdepth":"3.500","Units":"in","Rept_Date":"2019-11-14 13"},"coordinates":[2921,3866]},{"type":"Point","properties":{"Station_ID":"MI-BN-2","Station_Nam":"STEVENSVILLE 1.7 SSE, MI","Latitude":"41.99114","Longitude":"-86.50860","Snowdepth":"3.500","Units":"in","Rept_Date":"2019-11-14 12"},"coordinates":[2864,3961]},{"type":"Point","properties":{"Station_ID":"MI-AN-1","Station_Nam":"WAYLAND 2.0 W, MI","Latitude":"42.67323","Longitude":"-85.68010","Snowdepth":"3.500","Units":"in","Rept_Date":"2019-11-14 13"},"coordinates":[3093,4384]},{"type":"Point","properties":{"Station_ID":"IN-WY-12","Station_Nam":"LARWILL 4.7 N, IN","Latitude":"41.24677","Longitude":"-85.61481","Snowdepth":"3.500","Units":"in","Rept_Date":"2019-11-14 12"},"coordinates":[3111,3500]},{"type":"Point","properties":{"Station_ID":"IN-SN-37","Station_Nam":"ANGOLA 8.8 ESE, IN","Latitude":"41.61638","Longitude":"-84.83442","Snowdepth":"3.500","Units":"in","Rept_Date":"2019-11-14 13"},"coordinates":[3327,3729]},{"type":"Point","properties":{"Station_ID":"IL-CK-214","Station_Nam":"ROGERS PARK 1.5 SW, IL","Latitude":"41.99567","Longitude":"-87.69180","Snowdepth":"3.500","Units":"in","Rept_Date":"2019-11-14 13"},"coordinates":[2536,3964]},{"type":"Point","properties":{"Station_ID":"IL-CK-180","Station_Nam":"PARK RIDGE 0.5 SSW, IL","Latitude":"42.00443","Longitude":"-87.84600","Snowdepth":"3.500","Units":"in","Rept_Date":"2019-11-14 13"},"coordinates":[2493,3970]},