{"type":"Topology","objects":{"snowdepth_geo":{"type":"GeometryCollection","name":"snowdepth","crs":{"type":"name","properties":{"name":"urn:ogc:def:crs:OGC:1.3:CRS84"}},"geometries":[{"type":"Point","properties":{"Station_ID":"PRKM4","Station_Nam":"MUNISING EAST","Latitude":"46.42580","Longitude":"-86.62000","Snowdepth":"76.500","Units":"in","Rept_Date":"2019-11-30 06"},"coordinates":[2388,6220]},{"type":"Point","properties":{"Station_ID":"OGIQ6","Station_Nam":"OGOKI CAMP","Latitude":"50.76680","Longitude":"-87.85820","Snowdepth":"61.100","Units":"in","Rept_Date":"2019-11-30 06"},"coordinates":[2110,9315]},{"type":"Point","properties":{"Station_ID":"DVLQ6","Station_Nam":"DEVIOUS LAKE","Latitude":"49.19890","Longitude":"-87.76440","Snowdepth":"43.460","Units":"in","Rept_Date":"2019-11-30 06"},"coordinates":[2131,8197]},{"type":"Point","properties":{"Station_ID":"HTLN3","Station_Nam":"HERMIT LAKE SNOWPLOT","Latitude":"44.26130","Longitude":"-71.28330","Snowdepth":"24.000","Units":"in","Rept_Date":"2019-11-29 11"},"coordinates":[5839,4677]},{"type":"Point","properties":{"Station_ID":"IWOM4","Station_Nam":"IRONWOOD#2","Latitude":"46.46520","Longitude":"-90.13820","Snowdepth":"21.000","Units":"in","Rept_Date":"2019-11-29 13"},"coordinates":[1597,6248]},{"type":"Point","properties":{"Station_ID":"GMSM4","Station_Nam":"GRAND MARAIS 10S","Latitude":"46.50940","Longitude":"-85.96310","Snowdepth":"19.000","Units":"in","Rept_Date":"2019-11-29 12"},"coordinates":[2536,6280]},{"type":"Point","properties":{"Station_ID":"BERM4","Station_Nam":"BERGLAND DAM","Latitude":"46.58690","Longitude":"-89.54750","Snowdepth":"19.000","Units":"in","Rept_Date":"2019-11-29 13"},"coordinates":[1729,6335]},{"type":"Point","properties":{"Station_ID":"CAN-NB-50","Station_Nam":"DOYLEVILLE 2.4 WNW, CAN","Latitude":"47.90803","Longitude":"-66.13279","Snowdepth":"18.900","Units":"in","Rept_Date":"2019-11-29 13"},"coordinates":[6998,7277]},{"type":"Point","properties":{"Station_ID":"PDLM4","Station_Nam":"PAINESDALE","Latitude":"47.04160","Longitude":"-88.67170","Snowdepth":"17.000","Units":"in","Rept_Date":"2019-11-29 13"},"coordinates":[1927,6659]},{"type":"Point","properties":{"Station_ID":"CBVM1","Station_Nam":"CARRABASSETT VALLEY","Latitude":"45.08040","Longitude":"-70.30310","Snowdepth":"17.000","Units":"in","Rept_Date":"2019-11-29 15"},"coordinates":[6060,5261]},{"type":"Point","properties":{"Station_ID":"QGD","Station_Nam":"QGD","Latitude":"51.11140","Longitude":"-67.13940","Snowdepth":"16.929","Units":"in","Rept_Date":"2019-11-29 12"},"coordinates":[6772,9560]},{"type":"Point","properties":{"Station_ID":"QNCM4","Station_Nam":"QUINCY HILL","Latitude":"47.13640","Longitude":"-88.57950","Snowdepth":"16.000","Units":"in","Rept_Date":"2019-11-29 12"},"coordinates":[1947,6727]},{"type":"Point","properties":{"Station_ID":"QOU","Station_Nam":"QOU","Latitude":"50.79250","Longitude":"-69.67470","Snowdepth":"15.866","Units":"in","Rept_Date":"2019-11-29 12"},"coordinates":[6201,9333]},{"type":"Point","properties":{"Station_ID":"MI-BG-3","Station_Nam":"L'ANSE 17.8 SE, MI","Latitude":"46.55730","Longitude":"-88.20770","Snowdepth":"15.400","Units":"in","Rept_Date":"2019-11-29 13"},"coordinates":[2031,6314]},{"type":"Point","properties":{"Station_ID":"WI-IR-3","Station_Nam":"PENCE 0.1 E, WI","Latitude":"46.41555","Longitude":"-90.27013","Snowdepth":"15.000","Units":"in","Rept_Date":"2019-11-29 13"},"coordinates":[1567,6213]},{"type":"Point","properties":{"Station_ID":"HURW3","Station_Nam":"HURLEY","Latitude":"46.46250","Longitude":"-90.19550","Snowdepth":"15.000","Units":"in","Rept_Date":"2019-11-29 14"},"coordinates":[1584,6246]},{"type":"Point","properties":{"Station_ID":"GNLM4","Station_Nam":"GREENLAND 6N","Latitude":"46.87360","Longitude":"-89.10060","Snowdepth":"15.000","Units":"in","Rept_Date":"2019-11-29 13"},"coordinates":[1830,6539]},{"type":"Point","properties":{"Station_ID":"WTRM4","Station_Nam":"WATERSMEET 12WSW","Latitude":"46.22310","Longitude":"-89.40850","Snowdepth":"14.000","Units":"in","Rept_Date":"2019-11-29 12"},"coordinates":[1761,6076]},{"type":"Point","properties":{"Station_ID":"WRPW3","Station_Nam":"WATER PURIFICATION PLANT","Latitude":"44.38800","Longitude":"-89.80550","Snowdepth":"14.000","Units":"in","Rept_Date":"2019-11-29 12"},"coordinates":[1671,4768]},{"type":"Point","properties":{"Station_ID":"WI-VL-9","Station_Nam":"LAND O' LAKES 11.7 W, WI","Latitude":"46.19023","Longitude":"-89.45790","Snowdepth":"14.000","Units":"in","Rept_Date":"2019-11-29 13"},"coordinates":[1750,6052]},{"type":"Point","properties":{"Station_ID":"WI-VL-10","Station_Nam":"LAND O LAKES 4.3 WNW, WI","Latitude":"46.17440","Longitude":"-89.30380","Snowdepth":"14.000","Units":"in","Rept_Date":"2019-11-29 13"},"coordinates":[1784,6041]},{"type":"Point","properties":{"Station_ID":"RGNM1","Station_Nam":"RANGELEY 2NW","Latitude":"44.98940","Longitude":"-70.67220","Snowdepth":"14.000","Units":"in","Rept_Date":"2019-11-29 13"},"coordinates":[5977,5196]},{"type":"Point","properties":{"Station_ID":"RANM1","Station_Nam":"RANGELEY,ME","Latitude":"44.96670","Longitude":"-70.65000","Snowdepth":"14.000","Units":"in","Rept_Date":"2019-11-29 12"},"coordinates":[5982,5180]},{"type":"Point","properties":{"Station_ID":"PDGM4","Station_Nam":"PAULDING","Latitude":"46.39760","Longitude":"-89.17940","Snowdepth":"14.000","Units":"in","Rept_Date":"2019-11-29 13"},"coordinates":[1812,6200]},{"type":"Point","properties":{"Station_ID":"MMNV1","Station_Nam":"MT. MANSFIELD","Latitude":"44.52480","Longitude":"-72.81540","Snowdepth":"14.000","Units":"in","Rept_Date":"2019-11-29 21"},"coordinates":[5495,4865]},{"type":"Point","properties":{"Station_ID":"LVDW3","Station_Nam":"LAC VIEUX DESERT","Latitude":"46.12110","Longitude":"-89.07580","Snowdepth":"14.000","Units":"in","Rept_Date":"2019-11-29 14"},"coordinates":[1836,6003]},{"type":"Point","properties":{"Station_ID":"LNOW3","Station_Nam":"LAND O LAKES","Latitude":"46.19000","Longitude":"-89.45700","Snowdepth":"14.000","Units":"in","Rept_Date":"2019-11-29 13"},"coordinates":[1750,6052]},{"type":"Point","properties":{"Station_ID":"IBLM5","Station_Nam":"ISABELLA 14W","Latitude":"47.59360","Longitude":"-91.65140","Snowdepth":"14.000","Units":"in","Rept_Date":"2019-11-29 15"},"coordinates":[1256,7053]},{"type":"Point","properties":{"Station_ID":"HERM4","Station_Nam":"HERMAN,MI","Latitude":"46.65000","Longitude":"-88.33330","Snowdepth":"14.000","Units":"in","Rept_Date":"2019-11-29 13"},"coordinates":[2003,6380]},{"type":"Point","properties":{"Station_ID":"ESGM1","Station_Nam":"EAST SANGERVILLE","Latitude":"45.13690","Longitude":"-69.28060","Snowdepth":"14.000","Units":"in","Rept_Date":"2019-11-29 12"},"coordinates":[6290,5301]},{"type":"Point","properties":{"Station_ID":"BRAM1","Station_Nam":"BRASSUA DAM","Latitude":"45.66020","Longitude":"-69.81190","Snowdepth":"14.000","Units":"in","Rept_Date":"2019-11-29 12"},"coordinates":[6170,5674]},{"type":"Point","properties":{"Station_ID":"ATMM4","Station_Nam":"ATLANTIC MINE 5NW","Latitude":"47.15440","Longitude":"-88.71670","Snowdepth":"14.000","Units":"in","Rept_Date":"2019-11-29 14"},"coordinates":[1916,6740]},{"type":"Point","properties":{"Station_ID":"MLZ","Station_Nam":"MLZ","Latitude":"50.66170","Longitude":"-68.82360","Snowdepth":"13.779","Units":"in","Rept_Date":"2019-11-29 12"},"coordinates":[6393,9240]},{"type":"Point","properties":{"Station_ID":"ME-AR-18","Station_Nam":"NEW SWEDEN 4.9 NNW, ME","Latitude":"47.01080","Longitude":"-68.14390","Snowdepth":"13.500","Units":"in","Rept_Date":"2019-11-29 13"},"coordinates":[6546,6637]},{"type":"Point","properties":{"Station_ID":"QCU","Station_Nam":"QCU","Latitude":"47.82750","Longitude":"-76.59830","Snowdepth":"13.307","Units":"in","Rept_Date":"2019-11-29 12"},"coordinates":[4643,7219]},{"type":"Point","properties":{"Station_ID":"SUAW3","Station_Nam":"SUAMICO","Latitude":"44.60190","Longitude":"-88.09780","Snowdepth":"13.000","Units":"in","Rept_Date":"2019-11-29 12"},"coordinates":[2056,4920]},{"type":"Point","properties":{"Station_ID":"MQT","Station_Nam":"MARQUETTE, MI","Latitude":"46.53140","Longitude":"-87.54920","Snowdepth":"13.000","Units":"in","Rept_Date":"2019-11-30 05"},"coordinates":[2179,6295]},{"type":"Point","properties":{"Station_ID":"MI-HG-1","Station_Nam":"HOUGHTON 1.6 ESE, MI","Latitude":"47.10774","Longitude":"-88.52940","Snowdepth":"13.000","Units":"in","Rept_Date":"2019-11-29 13"},"coordinates":[1959,6706]},{"type":"Point","properties":{"Station_ID":"ME-PN-45","Station_Nam":"MILLINOCKET 2.7 ESE, ME","Latitude":"45.65002","Longitude":"-68.64472","Snowdepth":"13.000","Units":"in","Rept_Date":"2019-11-29 12"},"coordinates":[6433,5667]},{"type":"Point","properties":{"Station_ID":"KISM4","Station_Nam":"K.I. SAWYER WWTP","Latitude":"46.33410","Longitude":"-87.37790","Snowdepth":"13.000","Units":"in","Rept_Date":"2019-11-29 13"},"coordinates":[2218,6155]},{"type":"Point","properties":{"Station_ID":"MFU","Station_Nam":"MFU","Latitude":"51.52170","Longitude":"-66.91110","Snowdepth":"12.677","Units":"in","Rept_Date":"2019-11-29 12"},"coordinates":[6823,9853]},{"type":"Point","properties":{"Station_ID":"ME-FR-2","Station_Nam":"TEMPLE 1.8 W, ME","Latitude":"44.68329","Longitude":"-70.26420","Snowdepth":"12.500","Units":"in","Rept_Date":"2019-11-29 11"},"coordinates":[6069,4978]},{"type":"Point","properties":{"Station_ID":"QGO","Station_Nam":"QGO","Latitude":"48.85500","Longitude":"-74.20640","Snowdepth":"12.087","Units":"in","Rept_Date":"2019-11-29 12"},"coordinates":[5182,7952]},{"type":"Point","properties":{"Station_ID":"STGW3","Station_Nam":"ST GERMAIN","Latitude":"45.91550","Longitude":"-89.48940","Snowdepth":"12.000","Units":"in","Rept_Date":"2019-11-29 12"},"coordinates":[1743,5856]},{"type":"Point","properties":{"Station_ID":"RKWM1","Station_Nam":"MOOSEHEAD LAKE","Latitude":"45.58330","Longitude":"-69.71670","Snowdepth":"12.000","Units":"in","Rept_Date":"2019-11-29 12"},"coordinates":[6192,5620]},{"type":"Point","properties":{"Station_ID":"MI-MQ-19","Station_Nam":"ISHPEMING 7.2 SW, MI","Latitude":"46.40550","Longitude":"-87.75670","Snowdepth":"12.000","Units":"in","Rept_Date":"2019-11-29 11"},"coordinates":[2132,6206]},{"type":"Point","properties":{"Station_ID":"ME-AR-15","Station_Nam":"PRESQUE ISLE 1.3 WSW, ME","Latitude":"46.67960","Longitude":"-68.01270","Snowdepth":"12.000","Units":"in","Rept_Date":"2019-11-29 12"},"coordinates":[6575,6401]},{"type":"Point","properties":{"Station_ID":"LTMW3","Station_Nam":"LAKE TOMAHAWK 2 SE","Latitude":"45.80750","Longitude":"-89.55830","Snowdepth":"12.000","Units":"in","Rept_Date":"2019-11-29 12"},"coordinates":[1727,5779]},{"type":"Point","properties":{"Station_ID":"KSGM4","Station_Nam":"KEARSARGE","Latitude":"47.27520","Longitude":"-88.41700","Snowdepth":"12.000","Units":"in","Rept_Date":"2019-11-29 13"},"coordinates":[1984,6826]},{"type":"Point","properties":{"Station_ID":"EVRW3","Station_Nam":"EAGLE RIVER-4 E","Latitude":"45.91890","Longitude":"-89.15280","Snowdepth":"12.000","Units":"in","Rept_Date":"2019-11-29 13"},"coordinates":[1818,5859]},{"type":"Point","properties":{"Station_ID":"CAN-NB-97","Station_Nam":"NEW MARYLAND 0.6 NW, CAN","Latitude":"45.90112","Longitude":"-66.68739","Snowdepth":"11.800","Units":"in","Rept_Date":"2019-11-29 11"},"coordinates":[6873,5846]},{"type":"Point","properties":{"Station_ID":"QCX","Station_Nam":"QCX","Latitude":"51.32830","Longitude":"-70.08060","Snowdepth":"11.339","Units":"in","Rept_Date":"2019-11-29 12"},"coordinates":[6110,9715]},{"type":"Point","properties":{"Station_ID":"WLFM5","Station_Nam":"WOLF RIDGE ENVIRON LEARNING CENTER","Latitude":"47.38240","Longitude":"-91.19730","Snowdepth":"11.000","Units":"in","Rept_Date":"2019-11-29 13"},"coordinates":[1358,6902]},{"type":"Point","properties":{"Station_ID":"WI-PR-7","Station_Nam":"BRANTWOOD 7.4 S, WI","Latitude":"45.45450","Longitude":"-90.10249","Snowdepth":"11.000","Units":"in","Rept_Date":"2019-11-29 10"},"coordinates":[1605,5528]},{"type":"Point","properties":{"Station_ID":"WI-PR-6","Station_Nam":"PHILLIPS 1.3 S, WI","Latitude":"45.67677","Longitude":"-90.39543","Snowdepth":"11.000","Units":"in","Rept_Date":"2019-11-29 12"},"coordinates":[1539,5686]},{"type":"Point","properties":{"Station_ID":"WI-BY-2","Station_Nam":"MELLEN 18.6 SW, WI","Latitude":"46.16937","Longitude":"-90.98090","Snowdepth":"11.000","Units":"in","Rept_Date":"2019-11-29 13"},"coordinates":[1407,6037]},{"type":"Point","properties":{"Station_ID":"PHEW3","Station_Nam":"PHELPS","Latitude":"46.06630","Longitude":"-89.07520","Snowdepth":"11.000","Units":"in","Rept_Date":"2019-11-29 13"},"coordinates":[1836,5964]},{"type":"Point","properties":{"Station_ID":"JCBM4","Station_Nam":"JACOBSVILLE","Latitude":"47.00830","Longitude":"-88.43180","Snowdepth":"11.000","Units":"in","Rept_Date":"2019-11-29 12"},"coordinates":[1981,6635]},{"type":"Point","properties":{"Station_ID":"IRMM4","Station_Nam":"WWTP","Latitude":"46.46670","Longitude":"-90.18330","Snowdepth":"11.000","Units":"in","Rept_Date":"2019-11-29 13"},"coordinates":[1586,6249]},{"type":"Point","properties":{"Station_ID":"CMKW3","Station_Nam":"CLAM LAKE 4W","Latitude":"46.16940","Longitude":"-90.98080","Snowdepth":"11.000","Units":"in","Rept_Date":"2019-11-29 13"},"coordinates":[1407,6037]},{"type":"Point","properties":{"Station_ID":"CAN-NB-2","Station_Nam":"GRAFTON 2.7 NNE, CA","Latitude":"46.17062","Longitude":"-67.55330","Snowdepth":"11.000","Units":"in","Rept_Date":"2019-11-29 11"},"coordinates":[6679,6038]},{"type":"Point","properties":{"Station_ID":"CAN-NB-105","Station_Nam":"SISSON BROOK 3.8 E, CAN","Latitude":"46.98305","Longitude":"-67.32532","Snowdepth":"11.000","Units":"in","Rept_Date":"2019-11-29 12"},"coordinates":[6730,6617]},{"type":"Point","properties":{"Station_ID":"WI-BY-14","Station_Nam":"ASHLAND 9.8 W, WI","Latitude":"46.59742","Longitude":"-91.07856","Snowdepth":"10.500","Units":"in","Rept_Date":"2019-11-29 12"},"coordinates":[1385,6342]},{"type":"Point","properties":{"Station_ID":"CAN-NB-13","Station_Nam":"BATHURST 3.8 NW, CAN","Latitude":"47.64212","Longitude":"-65.68756","Snowdepth":"10.500","Units":"in","Rept_Date":"2019-11-29 11"},"coordinates":[7098,7087]},{"type":"Point","properties":{"Station_ID":"QFT","Station_Nam":"QFT","Latitude":"50.83280","Longitude":"-74.40390","Snowdepth":"10.276","Units":"in","Rept_Date":"2019-11-29 12"},"coordinates":[5137,9362]},{"type":"Point","properties":{"Station_ID":"QLB","Station_Nam":"QLB","Latitude":"50.72360","Longitude":"-75.10000","Snowdepth":"10.236","Units":"in","Rept_Date":"2019-11-29 12"},"coordinates":[4980,9284]},{"type":"Point","properties":{"Station_ID":"QCO","Station_Nam":"QCO","Latitude":"51.45280","Longitude":"-72.20110","Snowdepth":"10.118","Units":"in","Rept_Date":"2019-11-29 12"},"coordinates":[5633,9804]},{"type":"Point","properties":{"Station_ID":"WI-RS-1","Station_Nam":"LADYSMITH 2.8 WNW, WI","Latitude":"45.48180","Longitude":"-91.14680","Snowdepth":"10.000","Units":"in","Rept_Date":"2019-11-29 13"},"coordinates":[1370,5547]},{"type":"Point","properties":{"Station_ID":"WI-PR-2","Station_Nam":"BUTTERNUT 5.9 SW, WI","Latitude":"45.96501","Longitude":"-90.59750","Snowdepth":"10.000","Units":"in","Rept_Date":"2019-11-29 12"},"coordinates":[1493,5892]},{"type":"Point","properties":{"Station_ID":"RHLW3","Station_Nam":"RHINELANDER 4NE","Latitude":"45.65270","Longitude":"-89.30740","Snowdepth":"10.000","Units":"in","Rept_Date":"2019-11-29 12"},"coordinates":[1783,5669]},{"type":"Point","properties":{"Station_ID":"MWTM1","Station_Nam":"MILLINOCKET WWTP","Latitude":"45.64030","Longitude":"-68.67480","Snowdepth":"10.000","Units":"in","Rept_Date":"2019-11-29 12"},"coordinates":[6426,5660]},{"type":"Point","properties":{"Station_ID":"JKMM1","Station_Nam":"JACKMAN","Latitude":"45.62600","Longitude":"-70.24600","Snowdepth":"10.000","Units":"in","Rept_Date":"2019-11-29 12"},"coordinates":[6073,5650]},{"type":"Point","properties":{"Station_ID":"IA-DK-11","Station_Nam":"SPIRIT LAKE 1.7 SW, IA","Latitude":"43.40694","Longitude":"-95.13694","Snowdepth":"10.000","Units":"in","Rept_Date":"2019-11-29 13"},"coordinates":[472,4068]},{"type":"Point","properties":{"Station_ID":"ELYM5","Station_Nam":"ELY","Latitude":"47.90560","Longitude":"-91.82830","Snowdepth":"10.000","Units":"in","Rept_Date":"2019-11-29 14"},"coordinates":[1216,7275]},{"type":"Point","properties":{"Station_ID":"EGRW3","Station_Nam":"EAGLE RIVER-SOUTH","Latitude":"45.91360","Longitude":"-89.24360","Snowdepth":"10.000","Units":"in","Rept_Date":"2019-11-29 13"},"coordinates":[1798,5855]},{"type":"Point","properties":{"Station_ID":"DFXM1","Station_Nam":"DOVER-FOXCROFT","Latitude":"45.18720","Longitude":"-69.18350","Snowdepth":"10.000","Units":"in","Rept_Date":"2019-11-29 12"},"coordinates":[6312,5337]},{"type":"Point","properties":{"Station_ID":"CARM1","Station_Nam":"CARIBOU WFO","Latitude":"46.86810","Longitude":"-68.01250","Snowdepth":"10.000","Units":"in","Rept_Date":"2019-11-30 04"},"coordinates":[6575,6535]},{"type":"Point","properties":{"Station_ID":"CAR","Station_Nam":"CARIBOU, ME","Latitude":"46.86830","Longitude":"-68.01360","Snowdepth":"10.000","Units":"in","Rept_Date":"2019-11-29 12"},"coordinates":[6575,6536]},{"type":"Point","properties":{"Station_ID":"BRDM1","Station_Nam":"BRIDGEWATER","Latitude":"46.42870","Longitude":"-67.84370","Snowdepth":"10.000","Units":"in","Rept_Date":"2019-11-29 23"},"coordinates":[6613,6222]},{"type":"Point","properties":{"Station_ID":"BNDM5","Station_Nam":"ELY 25E","Latitude":"47.97190","Longitude":"-91.44860","Snowdepth":"10.000","Units":"in","Rept_Date":"2019-11-29 13"},"coordinates":[1302,7322]},{"type":"Point","properties":{"Station_ID":"BFHW3","Station_Nam":"BAYFIELD FISH HATCHERY","Latitude":"46.78670","Longitude":"-90.86420","Snowdepth":"10.000","Units":"in","Rept_Date":"2019-11-29 14"},"coordinates":[1433,6477]},{"type":"Point","properties":{"Station_ID":"PTLQ6","Station_Nam":"PORTAGE LAKE","Latitude":"49.06950","Longitude":"-86.65940","Snowdepth":"9.960","Units":"in","Rept_Date":"2019-11-30 06"},"coordinates":[2379,8105]},{"type":"Point","properties":{"Station_ID":"QLM","Station_Nam":"QLM","Latitude":"48.92030","Longitude":"-70.25280","Snowdepth":"9.724","Units":"in","Rept_Date":"2019-11-29 12"},"coordinates":[6071,7998]},{"type":"Point","properties":{"Station_ID":"QWE","Station_Nam":"QWE","Latitude":"47.84610","Longitude":"-73.80670","Snowdepth":"9.449","Units":"in","Rept_Date":"2019-11-29 12"},"coordinates":[5271,7233]},{"type":"Point","properties":{"Station_ID":"QTV","Station_Nam":"QTV","Latitude":"49.66000","Longitude":"-69.35690","Snowdepth":"9.409","Units":"in","Rept_Date":"2019-11-29 12"},"coordinates":[6273,8526]},{"type":"Point","properties":{"Station_ID":"QMD","Station_Nam":"QMD","Latitude":"49.29060","Longitude":"-75.84500","Snowdepth":"9.331","Units":"in","Rept_Date":"2019-11-29 12"},"coordinates":[4813,8262]},{"type":"Point","properties":{"Station_ID":"QLP","Station_Nam":"QLP","Latitude":"48.13920","Longitude":"-72.63830","Snowdepth":"9.291","Units":"in","Rept_Date":"2019-11-29 12"},"coordinates":[5534,7442]},{"type":"Point","properties":{"Station_ID":"QGA","Station_Nam":"QGA","Latitude":"47.25640","Longitude":"-73.73810","Snowdepth":"9.055","Units":"in","Rept_Date":"2019-11-29 12"},"coordinates":[5287,6812]},{"type":"Point","properties":{"Station_ID":"WTNM4","Station_Nam":"WATTON 2WSW","Latitude":"46.52660","Longitude":"-88.64240","Snowdepth":"9.000","Units":"in","Rept_Date":"2019-11-29 13"},"coordinates":[1933,6292]},{"type":"Point","properties":{"Station_ID":"WILW3","Station_Nam":"RESERVOIR","Latitude":"45.70000","Longitude":"-89.83330","Snowdepth":"9.000","Units":"in","Rept_Date":"2019-11-29 12"},"coordinates":[1665,5703]},{"type":"Point","properties":{"Station_ID":"WI-ON-6","Station_Nam":"RHINELANDER 5.2 N, WI","Latitude":"45.71388","Longitude":"-89.42150","Snowdepth":"9.000","Units":"in","Rept_Date":"2019-11-29 14"},"coordinates":[1758,5713]},{"type":"Point","properties":{"Station_ID":"VANM1","Station_Nam":"VAN BUREN","Latitude":"47.16600","Longitude":"-67.93900","Snowdepth":"9.000","Units":"in","Rept_Date":"2019-11-29 12"},"coordinates":[6592,6748]},{"type":"Point","properties":{"Station_ID":"SULW3","Station_Nam":"SUMMIT LAKE","Latitude":"45.37880","Longitude":"-89.19410","Snowdepth":"9.000","Units":"in","Rept_Date":"2019-11-29 17"},"coordinates":[1809,5474]},{"type":"Point","properties":{"Station_ID":"MN-HS-4","Station_Nam":"CALEDONIA 5.4 S, MN","Latitude":"43.55696","Longitude":"-91.51300","Snowdepth":"9.000","Units":"in","Rept_Date":"2019-11-29 14"},"coordinates":[1287,4175]},{"type":"Point","properties":{"Station_ID":"LILM1","Station_Nam":"LILLE","Latitude":"47.27770","Longitude":"-68.10520","Snowdepth":"9.000","Units":"in","Rept_Date":"2019-11-29 12"},"coordinates":[6554,6827]},{"type":"Point","properties":{"Station_ID":"GHMN3","Station_Nam":"PINKHAM NOTCH","Latitude":"44.25800","Longitude":"-71.25250","Snowdepth":"9.000","Units":"in","Rept_Date":"2019-11-29 10"},"coordinates":[5846,4675]},{"type":"Point","properties":{"Station_ID":"QIQ","Station_Nam":"QIQ","Latitude":"49.82390","Longitude":"-68.54310","Snowdepth":"8.740","Units":"in","Rept_Date":"2019-11-29 12"},"coordinates":[6456,8642]},{"type":"Point","properties":{"Station_ID":"WI-LN-2","Station_Nam":"MERRILL 7.0 W, WI","Latitude":"45.17746","Longitude":"-89.84820","Snowdepth":"8.500","Units":"in","Rept_Date":"2019-11-29 12"},"coordinates":[1662,5330]},{"type":"Point","properties":{"Station_ID":"WRSM5","Station_Nam":"WRENSHALL","Latitude":"46.61550","Longitude":"-92.38380","Snowdepth":"8.000","Units":"in","Rept_Date":"2019-11-29 14"},"coordinates":[1091,6355]},{"type":"Point","properties":{"Station_ID":"WI-PR-8","Station_Nam":"PHILLIPS 0.4 SSW, WI","Latitude":"45.69086","Longitude":"-90.40200","Snowdepth":"8.000","Units":"in","Rept_Date":"2019-11-29 13"},"coordinates":[1537,5696]},{"type":"Point","properties":{"Station_ID":"WELM5","Station_Nam":"WELLS","Latitude":"43.74680","Longitude":"-93.73680","Snowdepth":"8.000","Units":"in","Rept_Date":"2019-11-29 14"},"coordinates":[787,4310]},{"type":"Point","properties":{"Station_ID":"STMM4","Station_Nam":"STAMBAUGH 2SSE","Latitude":"46.05550","Longitude":"-88.62780","Snowdepth":"8.000","Units":"in","Rept_Date":"2019-11-29 13"},"coordinates":[1936,5956]},{"type":"Point","properties":{"Station_ID":"ROBW3","Station_Nam":"ROBERTS WWTP","Latitude":"44.97070","Longitude":"-92.56200","Snowdepth":"8.000","Units":"in","Rept_Date":"2019-11-29 12"},"coordinates":[1051,5183]},{"type":"Point","properties":{"Station_ID":"PRNW3","Station_Nam":"PRENTICE,WI","Latitude":"45.54780","Longitude":"-90.30000","Snowdepth":"8.000","Units":"in","Rept_Date":"2019-11-29 14"},"coordinates":[1560,5594]},{"type":"Point","properties":{"Station_ID":"MWN","Station_Nam":"MOUNT WASHINGTON","Latitude":"44.26670","Longitude":"-71.30000","Snowdepth":"8.000","Units":"in","Rept_Date":"2019-11-30 05"},"coordinates":[5836,4681]},{"type":"Point","properties":{"Station_ID":"KMWN","Station_Nam":"MOUNT WASHINGTON","Latitude":"44.26666","Longitude":"-71.30000","Snowdepth":"8.000","Units":"in","Rept_Date":"2019-11-30 06"},"coordinates":[5836,4681]},{"type":"Point","properties":{"Station_ID":"HMYM1","Station_Nam":"HARMONY","Latitude":"44.94660","Longitude":"-69.54560","Snowdepth":"8.000","Units":"in","Rept_Date":"2019-11-29 11"},"coordinates":[6230,5166]},{"type":"Point","properties":{"Station_ID":"CLGM5","Station_Nam":"COLLEGEVILLE ST JOHN","Latitude":"45.57940","Longitude":"-94.39200","Snowdepth":"8.000","Units":"in","Rept_Date":"2019-11-30 00"},"coordinates":[639,5617]},{"type":"Point","properties":{"Station_ID":"AVTW3","Station_Nam":"ARBOR VITAE-JOHNSON LAKE","Latitude":"45.89940","Longitude":"-89.72670","Snowdepth":"8.000","Units":"in","Rept_Date":"2019-11-29 12"},"coordinates":[1689,5845]},{"type":"Point","properties":{"Station_ID":"AURW3","Station_Nam":"AURORA","Latitude":"45.77000","Longitude":"-88.11810","Snowdepth":"8.000","Units":"in","Rept_Date":"2019-11-29 13"},"coordinates":[2051,5753]},{"type":"Point","properties":{"Station_ID":"AGNW3","Station_Nam":"ARGONNE-1.5 NW","Latitude":"45.67360","Longitude":"-88.90380","Snowdepth":"8.000","Units":"in","Rept_Date":"2019-11-29 13"},"coordinates":[1874,5684]},{"type":"Point","properties":{"Station_ID":"QTM","Station_Nam":"QTM","Latitude":"51.05780","Longitude":"-72.57190","Snowdepth":"7.795","Units":"in","Rept_Date":"2019-11-29 12"},"coordinates":[5549,9522]},{"type":"Point","properties":{"Station_ID":"TRIQ6","Station_Nam":"TRIO LAKE","Latitude":"49.22880","Longitude":"-87.22920","Snowdepth":"7.760","Units":"in","Rept_Date":"2019-11-30 06"},"coordinates":[2251,8218]},{"type":"Point","properties":{"Station_ID":"AUDQ6","Station_Nam":"AUDEN","Latitude":"48.52600","Longitude":"-82.57570","Snowdepth":"7.440","Units":"in","Rept_Date":"2019-11-30 06"},"coordinates":[3298,7717]},{"type":"Point","properties":{"Station_ID":"QMA","Station_Nam":"QMA","Latitude":"50.10330","Longitude":"-70.47190","Snowdepth":"7.008","Units":"in","Rept_Date":"2019-11-29 12"},"coordinates":[6022,8842]},{"type":"Point","properties":{"Station_ID":"WI-BY-1","Station_Nam":"BAYFIELD 8.8 N, WI","Latitude":"46.93855","Longitude":"-90.83490","Snowdepth":"7.000","Units":"in","Rept_Date":"2019-11-29 13"},"coordinates":[1440,6586]},{"type":"Point","properties":{"Station_ID":"TOPM1","Station_Nam":"TOPSFIELD","Latitude":"45.43470","Longitude":"-67.72020","Snowdepth":"7.000","Units":"in","Rept_Date":"2019-11-29 11"},"coordinates":[6641,5514]},{"type":"Point","properties":{"Station_ID":"SIBI4","Station_Nam":"SIBLEY","Latitude":"43.40470","Longitude":"-95.74830","Snowdepth":"7.000","Units":"in","Rept_Date":"2019-11-29 13"},"coordinates":[334,4067]},{"type":"Point","properties":{"Station_ID":"MN-WC-5","Station_Nam":"WASECA 0.9 NNE, MN","Latitude":"44.09451","Longitude":"-93.49289","Snowdepth":"7.000","Units":"in","Rept_Date":"2019-11-29 13"},"coordinates":[842,4558]},{"type":"Point","properties":{"Station_ID":"MIEM4","Station_Nam":"MICHIGAMME 3WNW","Latitude":"46.54530","Longitude":"-88.18000","Snowdepth":"7.000","Units":"in","Rept_Date":"2019-11-29 13"},"coordinates":[2037,6305]},{"type":"Point","properties":{"Station_ID":"LDSW3","Station_Nam":"LADYSMITH 3W","Latitude":"45.46510","Longitude":"-91.12360","Snowdepth":"7.000","Units":"in","Rept_Date":"2019-11-29 11"},"coordinates":[1375,5535]},{"type":"Point","properties":{"Station_ID":"LADW3","Station_Nam":"LADYSMITH WTP","Latitude":"45.44290","Longitude":"-91.08970","Snowdepth":"7.000","Units":"in","Rept_Date":"2019-11-29 13"},"coordinates":[1382,5519]},{"type":"Point","properties":{"Station_ID":"GNFM5","Station_Nam":"GUNFLINT LAKE","Latitude":"48.16670","Longitude":"-90.88750","Snowdepth":"7.000","Units":"in","Rept_Date":"2019-11-29 13"},"coordinates":[1428,7461]},{"type":"Point","properties":{"Station_ID":"FISM1","Station_Nam":"FORT KENT COOP","Latitude":"47.23850","Longitude":"-68.61240","Snowdepth":"7.000","Units":"in","Rept_Date":"2019-11-29 12"},"coordinates":[6440,6799]},{"type":"Point","properties":{"Station_ID":"ELWW3","Station_Nam":"ELLSWORTH 1E","Latitude":"44.73030","Longitude":"-92.45860","Snowdepth":"7.000","Units":"in","Rept_Date":"2019-11-29 13"},"coordinates":[1074,5012]},{"type":"Point","properties":{"Station_ID":"COUW3","Station_Nam":"COUDERAY,WI","Latitude":"45.86670","Longitude":"-91.45000","Snowdepth":"7.000","Units":"in","Rept_Date":"2019-11-29 22"},"coordinates":[1301,5822]},{"type":"Point","properties":{"Station_ID":"CORM1","Station_Nam":"CORINNA","Latitude":"44.91980","Longitude":"-69.24180","Snowdepth":"7.000","Units":"in","Rept_Date":"2019-11-29 13"},"coordinates":[6299,5147]},{"type":"Point","properties":{"Station_ID":"CLKM4","Station_Nam":"CLARKSBURG","Latitude":"46.49910","Longitude":"-87.84500","Snowdepth":"7.000","Units":"in","Rept_Date":"2019-11-29 12"},"coordinates":[2113,6272]},{"type":"Point","properties":{"Station_ID":"CHPW3","Station_Nam":"CHIPPEWA FALLS","Latitude":"44.92770","Longitude":"-91.40810","Snowdepth":"7.000","Units":"in","Rept_Date":"2019-11-29 14"},"coordinates":[1311,5152]},{"type":"Point","properties":{"Station_ID":"CAN-NB-11","Station_Nam":"MIRAMICHI 3.3 S, CAN","Latitude":"46.99343","Longitude":"-65.50690","Snowdepth":"7.000","Units":"in","Rept_Date":"2019-11-29 09"},"coordinates":[7139,6625]},{"type":"Point","properties":{"Station_ID":"FTHQ6","Station_Nam":"FORT HOPE","Latitude":"51.55820","Longitude":"-87.90510","Snowdepth":"6.850","Units":"in","Rept_Date":"2019-11-30 06"},"coordinates":[2099,9879]},{"type":"Point","properties":{"Station_ID":"SVBQ6","Station_Nam":"SAVANT BASE","Latitude":"50.28730","Longitude":"-90.65670","Snowdepth":"6.810","Units":"in","Rept_Date":"2019-11-30 06"},"coordinates":[1480,8973]},{"type":"Point","properties":{"Station_ID":"QYR","Station_Nam":"QYR","Latitude":"48.87220","Longitude":"-75.61470","Snowdepth":"6.614","Units":"in","Rept_Date":"2019-11-29 12"},"coordinates":[4865,7964]},{"type":"Point","properties":{"Station_ID":"WI-BY-6","Station_Nam":"BARNES 2.2 S, WI","Latitude":"46.30264","Longitude":"-91.50320","Snowdepth":"6.500","Units":"in","Rept_Date":"2019-11-29 13"},"coordinates":[1289,6132]},{"type":"Point","properties":{"Station_ID":"WI-AS-4","Station_Nam":"ASHLAND 0.5 WNW, WI","Latitude":"46.58240","Longitude":"-90.88390","Snowdepth":"6.500","Units":"in","Rept_Date":"2019-11-29 13"},"coordinates":[1429,6332]},{"type":"Point","properties":{"Station_ID":"MN-RM-56","Station_Nam":"ROSEVILLE 1.6 NW, MN","Latitude":"45.03303","Longitude":"-93.17523","Snowdepth":"6.500","Units":"in","Rept_Date":"2019-11-29 13"},"coordinates":[913,5227]},{"type":"Point","properties":{"Station_ID":"MN-CV-40","Station_Nam":"EXCELSIOR 0.8 S, MN","Latitude":"44.88996","Longitude":"-93.56646","Snowdepth":"6.500","Units":"in","Rept_Date":"2019-11-29 13"},"coordinates":[825,5125]},{"type":"Point","properties":{"Station_ID":"CAN-NB-64","Station_Nam":"KESWICK RIDGE 4.0 SE, CAN","Latitude":"45.97014","Longitude":"-66.85538","Snowdepth":"6.300","Units":"in","Rept_Date":"2019-11-29 13"},"coordinates":[6836,5895]},{"type":"Point","properties":{"Station_ID":"KABQ6","Station_Nam":"CAB LAKE","Latitude":"49.59950","Longitude":"-89.17990","Snowdepth":"6.180","Units":"in","Rept_Date":"2019-11-30 06"},"coordinates":[1812,8482]},{"type":"Point","properties":{"Station_ID":"WNNM5","Station_Nam":"WINNEBAGO","Latitude":"43.76920","Longitude":"-94.18730","Snowdepth":"6.000","Units":"in","Rept_Date":"2019-11-29 14"},"coordinates":[685,4326]},{"type":"Point","properties":{"Station_ID":"WMRM5","Station_Nam":"WILLMAR 5N","Latitude":"45.19010","Longitude":"-95.05860","Snowdepth":"6.000","Units":"in","Rept_Date":"2019-11-29 12"},"coordinates":[489,5339]},{"type":"Point","properties":{"Station_ID":"WI-WB-2","Station_Nam":"STONE LAKE 2.0 NW, WI","Latitude":"45.85960","Longitude":"-91.57710","Snowdepth":"6.000","Units":"in","Rept_Date":"2019-11-29 11"},"coordinates":[1273,5817]},{"type":"Point","properties":{"Station_ID":"WI-SC-24","Station_Nam":"DEER PARK 2.6 SSE, WI","Latitude":"45.15739","Longitude":"-92.35759","Snowdepth":"6.000","Units":"in","Rept_Date":"2019-11-29 13"},"coordinates":[1097,5316]},{"type":"Point","properties":{"Station_ID":"WI-SC-21","Station_Nam":"CLEAR LAKE 4.0 S, WI","Latitude":"45.19250","Longitude":"-92.27860","Snowdepth":"6.000","Units":"in","Rept_Date":"2019-11-29 14"},"coordinates":[1115,5341]},{"type":"Point","properties":{"Station_ID":"WI-PC-25","Station_Nam":"ELLSWORTH 2.6 SW, WI","Latitude":"44.71119","Longitude":"-92.51849","Snowdepth":"6.000","Units":"in","Rept_Date":"2019-11-29 13"},"coordinates":[1061,4998]},{"type":"Point","properties":{"Station_ID":"WI-DG-20","Station_Nam":"SOLON SPRINGS 1.2 W, WI","Latitude":"46.35217","Longitude":"-91.84405","Snowdepth":"6.000","Units":"in","Rept_Date":"2019-11-29 13"},"coordinates":[1213,6168]},{"type":"Point","properties":{"Station_ID":"WI-CH-3","Station_Nam":"CORNELL 4.1 W, WI","Latitude":"45.17024","Longitude":"-91.23610","Snowdepth":"6.000","Units":"in","Rept_Date":"2019-11-29 14"},"coordinates":[1349,5325]},{"type":"Point","properties":{"Station_ID":"WDOM5","Station_Nam":"WINDOM","Latitude":"43.87700","Longitude":"-95.11590","Snowdepth":"6.000","Units":"in","Rept_Date":"2019-11-29 14"},"coordinates":[476,4403]},{"type":"Point","properties":{"Station_ID":"TOGM5","Station_Nam":"CELINA 2E","Latitude":"47.86630","Longitude":"-93.02660","Snowdepth":"6.000","Units":"in","Rept_Date":"2019-11-29 14"},"coordinates":[947,7247]},{"type":"Point","properties":{"Station_ID":"SRAW3","Station_Nam":"SARONA","Latitude":"45.80250","Longitude":"-91.86700","Snowdepth":"6.000","Units":"in","Rept_Date":"2019-11-29 14"},"coordinates":[1208,5776]},{"type":"Point","properties":{"Station_ID":"SPRI4","Station_Nam":"SPIRIT LAKE","Latitude":"43.42310","Longitude":"-95.10000","Snowdepth":"6.000","Units":"in","Rept_Date":"2019-11-29 13"},"coordinates":[480,4080]},{"type":"Point","properties":{"Station_ID":"SLBI4","Station_Nam":"STORM LAKE","Latitude":"42.64690","Longitude":"-95.19330","Snowdepth":"6.000","Units":"in","Rept_Date":"2019-11-29 14"},"coordinates":[459,3526]},{"type":"Point","properties":{"Station_ID":"SANI4","Station_Nam":"ST ANSGAR","Latitude":"43.38170","Longitude":"-92.92320","Snowdepth":"6.000","Units":"in","Rept_Date":"2019-11-29 12"},"coordinates":[970,4050]},{"type":"Point","properties":{"Station_ID":"RHRW3","Station_Nam":"RHINELANDER WJFW TV-12","Latitude":"45.62220","Longitude":"-89.41000","Snowdepth":"6.000","Units":"in","Rept_Date":"2019-11-30 04"},"coordinates":[1760,5647]},{"type":"Point","properties":{"Station_ID":"PRDM4","Station_Nam":"PARADISE","Latitude":"46.60380","Longitude":"-85.03960","Snowdepth":"6.000","Units":"in","Rept_Date":"2019-11-29 11"},"coordinates":[2744,6347]},{"type":"Point","properties":{"Station_ID":"OWAM5","Station_Nam":"OWATONNA","Latitude":"44.09760","Longitude":"-93.23180","Snowdepth":"6.000","Units":"in","Rept_Date":"2019-11-29 14"},"coordinates":[900,4560]},{"type":"Point","properties":{"Station_ID":"MSP","Station_Nam":"MINNEAPOLIS-ST PAUL INTL AP","Latitude":"44.88310","Longitude":"-93.22890","Snowdepth":"6.000","Units":"in","Rept_Date":"2019-11-30 00"},"coordinates":[901,5120]},{"type":"Point","properties":{"Station_ID":"MOOM5","Station_Nam":"MOOSE LAKE,MN","Latitude":"46.45000","Longitude":"-92.75780","Snowdepth":"6.000","Units":"in","Rept_Date":"2019-11-30 06"},"coordinates":[1007,6237]},{"type":"Point","properties":{"Station_ID":"MNSM4","Station_Nam":"MUNISING","Latitude":"46.41210","Longitude":"-86.66250","Snowdepth":"6.000","Units":"in","Rept_Date":"2019-11-29 11"},"coordinates":[2379,6210]},{"type":"Point","properties":{"Station_ID":"MNHZK4CP","Station_Nam":"WATERTOWN 0.8 NW","Latitude":"44.97073","Longitude":"-93.85906","Snowdepth":"6.000","Units":"in","Rept_Date":"2019-11-29 13"},"coordinates":[759,5183]},{"type":"Point","properties":{"Station_ID":"MNG0GYSN","Station_Nam":"LONSDALE 1.1 SSW","Latitude":"44.46445","Longitude":"-93.43293","Snowdepth":"6.000","Units":"in","Rept_Date":"2019-11-29 12"},"coordinates":[855,4822]},{"type":"Point","properties":{"Station_ID":"MNCKG6BM","Station_Nam":"VISTA 4.6 SE","Latitude":"43.91333","Longitude":"-93.39663","Snowdepth":"6.000","Units":"in","Rept_Date":"2019-11-29 13"},"coordinates":[863,4429]},{"type":"Point","properties":{"Station_ID":"MN0GWSNW","Station_Nam":"LAKE ELMO 2.9 SE","Latitude":"44.97220","Longitude":"-92.83065","Snowdepth":"6.000","Units":"in","Rept_Date":"2019-11-29 13"},"coordinates":[991,5184]},{"type":"Point","properties":{"Station_ID":"MN-WR-25","Station_Nam":"SAINT MICHAEL 2.0 ENE, MN","Latitude":"45.20820","Longitude":"-93.65280","Snowdepth":"6.000","Units":"in","Rept_Date":"2019-11-29 12"},"coordinates":[806,5352]},{"type":"Point","properties":{"Station_ID":"MN-SR-29","Station_Nam":"ALBANY 3.8 S, MN","Latitude":"45.57441","Longitude":"-94.55543","Snowdepth":"6.000","Units":"in","Rept_Date":"2019-11-29 13"},"coordinates":[603,5613]},{"type":"Point","properties":{"Station_ID":"MN-SH-10","Station_Nam":"BIG LAKE 5.6 NNE, MN","Latitude":"45.41409","Longitude":"-93.69190","Snowdepth":"6.000","Units":"in","Rept_Date":"2019-11-29 13"},"coordinates":[797,5499]},{"type":"Point","properties":{"Station_ID":"MN-SC-2","Station_Nam":"PRIOR LAKE 2.0 W, MN","Latitude":"44.71250","Longitude":"-93.46360","Snowdepth":"6.000","Units":"in","Rept_Date":"2019-11-29 13"},"coordinates":[848,4999]},{"type":"Point","properties":{"Station_ID":"MN-RM-15","Station_Nam":"ROSEVILLE 2.1 NW, MN","Latitude":"45.03502","Longitude":"-93.18620","Snowdepth":"6.000","Units":"in","Rept_Date":"2019-11-29 12"},"coordinates":[911,5229]},{"type":"Point","properties":{"Station_ID":"MN-RC-1","Station_Nam":"MONTGOMERY 3.2 ENE, MN","Latitude":"44.46400","Longitude":"-93.51980","Snowdepth":"6.000","Units":"in","Rept_Date":"2019-11-29 12"},"coordinates":[836,4822]},{"type":"Point","properties":{"Station_ID":"MN-OL-18","Station_Nam":"ROCHESTER 2.6 NE, MN","Latitude":"44.03975","Longitude":"-92.43750","Snowdepth":"6.000","Units":"in","Rept_Date":"2019-11-29 12"},"coordinates":[1079,4519]},{"type":"Point","properties":{"Station_ID":"MN-HN-9","Station_Nam":"MINNEAPOLIS 3.0 NNW, MN","Latitude":"45.00387","Longitude":"-93.28950","Snowdepth":"6.000","Units":"in","Rept_Date":"2019-11-29 13"},"coordinates":[887,5207]},{"type":"Point","properties":{"Station_ID":"MN-DK-73","Station_Nam":"LAKEVILLE 2.6 NNE, MN","Latitude":"44.71250","Longitude":"-93.23043","Snowdepth":"6.000","Units":"in","Rept_Date":"2019-11-29 13"},"coordinates":[901,4999]},{"type":"Point","properties":{"Station_ID":"MN-CV-8","Station_Nam":"WATERTOWN 0.5 NNW, MN","Latitude":"44.96631","Longitude":"-93.84890","Snowdepth":"6.000","Units":"in","Rept_Date":"2019-11-29 11"},"coordinates":[762,5180]},{"type":"Point","properties":{"Station_ID":"MN-CV-22","Station_Nam":"VICTORIA 1.6 WSW, MN","Latitude":"44.85670","Longitude":"-93.68640","Snowdepth":"6.000","Units":"in","Rept_Date":"2019-11-29 13"},"coordinates":[798,5102]},{"type":"Point","properties":{"Station_ID":"MN-CK-3","Station_Nam":"TOFTE 4.9 NE, MN","Latitude":"47.62394","Longitude":"-90.76100","Snowdepth":"6.000","Units":"in","Rept_Date":"2019-11-29 13"},"coordinates":[1456,7074]},{"type":"Point","properties":{"Station_ID":"MLCM5","Station_Nam":"MILACA","Latitude":"45.75320","Longitude":"-93.66170","Snowdepth":"6.000","Units":"in","Rept_Date":"2019-11-29 13"},"coordinates":[804,5741]},{"type":"Point","properties":{"Station_ID":"MEDW3","Station_Nam":"MEDFORD","Latitude":"45.13080","Longitude":"-90.34390","Snowdepth":"6.000","Units":"in","Rept_Date":"2019-11-29 14"},"coordinates":[1550,5297]},{"type":"Point","properties":{"Station_ID":"LKFM5","Station_Nam":"LAKEFIELD,MN","Latitude":"43.68330","Longitude":"-95.18330","Snowdepth":"6.000","Units":"in","Rept_Date":"2019-11-29 13"},"coordinates":[461,4265]},{"type":"Point","properties":{"Station_ID":"LEIM5","Station_Nam":"ORR 3E","Latitude":"48.05810","Longitude":"-92.75220","Snowdepth":"6.000","Units":"in","Rept_Date":"2019-11-29 12"},"coordinates":[1008,7384]},{"type":"Point","properties":{"Station_ID":"KMSP","Station_Nam":"MINNEAPOLIS-ST PAUL INTERNATIONAL","Latitude":"44.86666","Longitude":"-93.21666","Snowdepth":"6.000","Units":"in","Rept_Date":"2019-11-30 06"},"coordinates":[904,5109]},{"type":"Point","properties":{"Station_ID":"KIMM5","Station_Nam":"KIMBALL 3N","Latitude":"45.35330","Longitude":"-94.30560","Snowdepth":"6.000","Units":"in","Rept_Date":"2019-11-29 12"},"coordinates":[659,5456]},{"type":"Point","properties":{"Station_ID":"FORM5","Station_Nam":"FOREST LAKE 5NE","Latitude":"45.33170","Longitude":"-92.89820","Snowdepth":"6.000","Units":"in","Rept_Date":"2019-11-29 13"},"coordinates":[975,5440]},{"type":"Point","properties":{"Station_ID":"ELRW3","Station_Nam":"EAU CLAIRE 3SW","Latitude":"44.78780","Longitude":"-91.51650","Snowdepth":"6.000","Units":"in","Rept_Date":"2019-11-30 06"},"coordinates":[1286,5053]},{"type":"Point","properties":{"Station_ID":"EGNM5","Station_Nam":"ELGIN 2SSW","Latitude":"44.09700","Longitude":"-92.27010","Snowdepth":"6.000","Units":"in","Rept_Date":"2019-11-29 13"},"coordinates":[1117,4560]},{"type":"Point","properties":{"Station_ID":"COKM5","Station_Nam":"COOK","Latitude":"47.85060","Longitude":"-92.69250","Snowdepth":"6.000","Units":"in","Rept_Date":"2019-11-29 12"},"coordinates":[1022,7236]},{"type":"Point","properties":{"Station_ID":"CAN-NS-103","Station_Nam":"TRAFALGAR 4.9 WSW, CAN","Latitude":"45.26217","Longitude":"-62.72285","Snowdepth":"6.000","Units":"in","Rept_Date":"2019-11-29 12"},"coordinates":[7766,5391]},{"type":"Point","properties":{"Station_ID":"AWXW3","Station_Nam":"ASHLAND","Latitude":"46.58240","Longitude":"-90.88390","Snowdepth":"6.000","Units":"in","Rept_Date":"2019-11-29 13"},"coordinates":[1429,6332]},{"type":"Point","properties":{"Station_ID":"SOCQ6","Station_Nam":"SOCKET LAKE","Latitude":"50.77870","Longitude":"-91.79300","Snowdepth":"5.910","Units":"in","Rept_Date":"2019-11-30 06"},"coordinates":[1224,9323]},{"type":"Point","properties":{"Station_ID":"CATQ6","Station_Nam":"CAT LAKE","Latitude":"51.72690","Longitude":"-91.82210","Snowdepth":"5.710","Units":"in","Rept_Date":"2019-11-30 06"},"coordinates":[1218,9999]},{"type":"Point","properties":{"Station_ID":"QWG","Station_Nam":"QWG","Latitude":"48.48890","Longitude":"-73.45940","Snowdepth":"5.591","Units":"in","Rept_Date":"2019-11-29 12"},"coordinates":[5350,7691]},{"type":"Point","properties":{"Station_ID":"WI-MT-4","Station_Nam":"WAUSAU 1.7 ENE, WI","Latitude":"44.96943","Longitude":"-89.61090","Snowdepth":"5.500","Units":"in","Rept_Date":"2019-11-29 13"},"coordinates":[1715,5182]},{"type":"Point","properties":{"Station_ID":"WI-EC-23","Station_Nam":"EAU CLAIRE 3.7 S, WI","Latitude":"44.76858","Longitude":"-91.49898","Snowdepth":"5.500","Units":"in","Rept_Date":"2019-11-29 15"},"coordinates":[1290,5039]},{"type":"Point","properties":{"Station_ID":"MN-WC-8","Station_Nam":"WASECA 2.0 N, MN","Latitude":"44.11194","Longitude":"-93.49972","Snowdepth":"5.500","Units":"in","Rept_Date":"2019-11-29 13"},"coordinates":[840,4571]},{"type":"Point","properties":{"Station_ID":"MN-HN-240","Station_Nam":"BLOOMINGTON 3.1 E, MN","Latitude":"44.83704","Longitude":"-93.25318","Snowdepth":"5.500","Units":"in","Rept_Date":"2019-11-29 15"},"coordinates":[896,5088]},{"type":"Point","properties":{"Station_ID":"MN-FM-10","Station_Nam":"WYKOFF 3.1 NW, MN","Latitude":"43.74340","Longitude":"-92.30650","Snowdepth":"5.500","Units":"in","Rept_Date":"2019-11-29 13"},"coordinates":[1109,4308]},{"type":"Point","properties":{"Station_ID":"CAN-QC-47","Station_Nam":"SAINTE-FOY 1.8 ENE, CAN","Latitude":"46.76934","Longitude":"-71.27124","Snowdepth":"5.500","Units":"in","Rept_Date":"2019-11-29 12"},"coordinates":[5842,6465]},{"type":"Point","properties":{"Station_ID":"WLKW3","Station_Nam":"WHITE LAKE 1 SE","Latitude":"45.14520","Longitude":"-88.74160","Snowdepth":"5.000","Units":"in","Rept_Date":"2019-11-29 14"},"coordinates":[1911,5307]},{"type":"Point","properties":{"Station_ID":"WI-PC-5","Station_Nam":"RIVER FALLS 1.2 SSW, WI","Latitude":"44.84032","Longitude":"-92.63500","Snowdepth":"5.000","Units":"in","Rept_Date":"2019-11-29 13"},"coordinates":[1035,5090]},{"type":"Point","properties":{"Station_ID":"WI-EC-5","Station_Nam":"ALTOONA 0.4 SW, WI","Latitude":"44.80128","Longitude":"-91.44819","Snowdepth":"5.000","Units":"in","Rept_Date":"2019-11-29 13"},"coordinates":[1302,5062]},{"type":"Point","properties":{"Station_ID":"WI-BR-2","Station_Nam":"CHETEK 2.0 SE, WI","Latitude":"45.29427","Longitude":"-91.62470","Snowdepth":"5.000","Units":"in","Rept_Date":"2019-11-29 13"},"coordinates":[1262,5414]},{"type":"Point","properties":{"Station_ID":"VT-OL-12","Station_Nam":"GREENSBORO 3.9 NNE, VT","Latitude":"44.63100","Longitude":"-72.28000","Snowdepth":"5.000","Units":"in","Rept_Date":"2019-11-29 13"},"coordinates":[5615,4941]},{"type":"Point","properties":{"Station_ID":"VT-CL-3","Station_Nam":"GROTON 4.4 WSW, VT","Latitude":"44.19440","Longitude":"-72.28240","Snowdepth":"5.000","Units":"in","Rept_Date":"2019-11-29 11"},"coordinates":[5614,4630]},{"type":"Point","properties":{"Station_ID":"TOHM5","Station_Nam":"TWO HARBORS WWTP","Latitude":"47.01760","Longitude":"-91.66480","Snowdepth":"5.000","Units":"in","Rept_Date":"2019-11-29 13"},"coordinates":[1253,6642]},{"type":"Point","properties":{"Station_ID":"SUXI4","Station_Nam":"SNOW PAID FOR KSUX","Latitude":"42.40530","Longitude":"-96.36000","Snowdepth":"5.000","Units":"in","Rept_Date":"2019-11-29 12"},"coordinates":[197,3354]},{"type":"Point","properties":{"Station_ID":"SUX","Station_Nam":"SIOUX GATEWAY AIRPORT","Latitude":"42.40390","Longitude":"-96.38330","Snowdepth":"5.000","Units":"in","Rept_Date":"2019-11-29 13"},"coordinates":[191,3353]},{"type":"Point","properties":{"Station_ID":"SSMM4","Station_Nam":"SAULT STE MARIE","Latitude":"46.48660","Longitude":"-84.40250","Snowdepth":"5.000","Units":"in","Rept_Date":"2019-11-29 13"},"coordinates":[2887,6263]},{"type":"Point","properties":{"Station_ID":"SD-MH-41","Station_Nam":"SIOUX FALLS 3.9 SW, SD","Latitude":"43.50475","Longitude":"-96.78660","Snowdepth":"5.000","Units":"in","Rept_Date":"2019-11-29 14"},"coordinates":[101,4138]},{"type":"Point","properties":{"Station_ID":"SCSM5","Station_Nam":"ST CLOUD STATE","Latitude":"45.55100","Longitude":"-94.14950","Snowdepth":"5.000","Units":"in","Rept_Date":"2019-11-29 12"},"coordinates":[694,5597]},{"type":"Point","properties":{"Station_ID":"RRLW3","Station_Nam":"MERRILL,WI","Latitude":"45.17860","Longitude":"-89.66170","Snowdepth":"5.000","Units":"in","Rept_Date":"2019-11-29 14"},"coordinates":[1704,5331]},{"type":"Point","properties":{"Station_ID":"MPXM5","Station_Nam":"CHANHASSEN WSFO","Latitude":"44.84960","Longitude":"-93.56440","Snowdepth":"5.000","Units":"in","Rept_Date":"2019-11-30 06"},"coordinates":[826,5097]},{"type":"Point","properties":{"Station_ID":"MN228YHJ","Station_Nam":"RICE 2.8 ESE","Latitude":"45.73609","Longitude":"-94.17230","Snowdepth":"5.000","Units":"in","Rept_Date":"2019-11-29 13"},"coordinates":[689,5728]},{"type":"Point","properties":{"Station_ID":"MN-SL-15","Station_Nam":"CHISHOLM 0.4 WSW, MN","Latitude":"47.48557","Longitude":"-92.88690","Snowdepth":"5.000","Units":"in","Rept_Date":"2019-11-29 13"},"coordinates":[978,6976]},{"type":"Point","properties":{"Station_ID":"MN-SL-139","Station_Nam":"DULUTH 1.2 SE, MN","Latitude":"46.77000","Longitude":"-92.08826","Snowdepth":"5.000","Units":"in","Rept_Date":"2019-11-29 11"},"coordinates":[1158,6466]},{"type":"Point","properties":{"Station_ID":"MN-SE-2","Station_Nam":"OWATONNA 0.8 E, MN","Latitude":"44.09170","Longitude":"-93.21380","Snowdepth":"5.000","Units":"in","Rept_Date":"2019-11-29 13"},"coordinates":[904,4556]},{"type":"Point","properties":{"Station_ID":"MN-RM-54","Station_Nam":"SAINT PAUL 5.1 SW, MN","Latitude":"44.90390","Longitude":"-93.18820","Snowdepth":"5.000","Units":"in","Rept_Date":"2019-11-29 13"},"coordinates":[910,5135]},{"type":"Point","properties":{"Station_ID":"MN-RM-2","Station_Nam":"NORTH SAINT PAUL 1.0 NNW, MN","Latitude":"45.02629","Longitude":"-93.00790","Snowdepth":"5.000","Units":"in","Rept_Date":"2019-11-29 12"},"coordinates":[951,5223]},{"type":"Point","properties":{"Station_ID":"MN-MT-6","Station_Nam":"FAIRMONT 0.7 E, MN","Latitude":"43.64501","Longitude":"-94.44860","Snowdepth":"5.000","Units":"in","Rept_Date":"2019-11-29 13"},"coordinates":[627,4238]},{"type":"Point","properties":{"Station_ID":"MN-HN-78","Station_Nam":"RICHFIELD 1.9 WNW, MN","Latitude":"44.89129","Longitude":"-93.31410","Snowdepth":"5.000","Units":"in","Rept_Date":"2019-11-29 11"},"coordinates":[882,5126]},{"type":"Point","properties":{"Station_ID":"MI-MQ-2","Station_Nam":"MARQUETTE 6.5 SSE, MI","Latitude":"46.46461","Longitude":"-87.34064","Snowdepth":"5.000","Units":"in","Rept_Date":"2019-11-29 13"},"coordinates":[2226,6248]},{"type":"Point","properties":{"Station_ID":"ME-SM-10","Station_Nam":"NORTH NEW PORTLAND 0.3 WSW, ME","Latitude":"44.92353","Longitude":"-70.02788","Snowdepth":"5.000","Units":"in","Rept_Date":"2019-11-29 12"},"coordinates":[6122,5149]},{"type":"Point","properties":{"Station_ID":"MABM5","Station_Nam":"MABEL","Latitude":"43.52410","Longitude":"-91.76160","Snowdepth":"5.000","Units":"in","Rept_Date":"2019-11-29 13"},"coordinates":[1231,4152]},{"type":"Point","properties":{"Station_ID":"LSXI4","Station_Nam":"LITTLE SIOUX,IA","Latitude":"41.81670","Longitude":"-96.01670","Snowdepth":"5.000","Units":"in","Rept_Date":"2019-11-29 13"},"coordinates":[274,2935]},{"type":"Point","properties":{"Station_ID":"JORM5","Station_Nam":"JORDAN 1SSW","Latitude":"44.65010","Longitude":"-93.63560","Snowdepth":"5.000","Units":"in","Rept_Date":"2019-11-29 11"},"coordinates":[810,4954]},{"type":"Point","properties":{"Station_ID":"JIMW3","Station_Nam":"JIM FALLS 3NW","Latitude":"45.08270","Longitude":"-91.33130","Snowdepth":"5.000","Units":"in","Rept_Date":"2019-11-29 12"},"coordinates":[1328,5263]},{"type":"Point","properties":{"Station_ID":"JEFN3","Station_Nam":"JEFFERSON","Latitude":"44.41690","Longitude":"-71.50080","Snowdepth":"5.000","Units":"in","Rept_Date":"2019-11-29 12"},"coordinates":[5790,4788]},{"type":"Point","properties":{"Station_ID":"GLDM4","Station_Nam":"GLADSTONE NO. 2","Latitude":"45.84330","Longitude":"-87.03910","Snowdepth":"5.000","Units":"in","Rept_Date":"2019-11-29 12"},"coordinates":[2294,5805]},{"type":"Point","properties":{"Station_ID":"EVYI4","Station_Nam":"EVERLY,IA","Latitude":"43.18330","Longitude":"-95.36670","Snowdepth":"5.000","Units":"in","Rept_Date":"2019-11-29 13"},"coordinates":[420,3909]},{"type":"Point","properties":{"Station_ID":"EMBM5","Station_Nam":"EMBARASS,MN","Latitude":"47.65810","Longitude":"-92.19580","Snowdepth":"5.000","Units":"in","Rept_Date":"2019-11-29 12"},"coordinates":[1134,7099]},{"type":"Point","properties":{"Station_ID":"DLHM5","Station_Nam":"DULUTH NWS","Latitude":"46.83680","Longitude":"-92.21080","Snowdepth":"5.000","Units":"in","Rept_Date":"2019-11-30 06"},"coordinates":[1130,6513]},{"type":"Point","properties":{"Station_ID":"CLDM5","Station_Nam":"CALEDONIA","Latitude":"43.63090","Longitude":"-91.50270","Snowdepth":"5.000","Units":"in","Rept_Date":"2019-11-29 17"},"coordinates":[1290,4228]},{"type":"Point","properties":{"Station_ID":"CBLW3","Station_Nam":"CUMBERLAND","Latitude":"45.53310","Longitude":"-92.02260","Snowdepth":"5.000","Units":"in","Rept_Date":"2019-11-29 13"},"coordinates":[1173,5584]},{"type":"Point","properties":{"Station_ID":"CAN-NB-18","Station_Nam":"MCLEOD HILL 1.1 ENE, CA","Latitude":"46.02725","Longitude":"-66.67460","Snowdepth":"5.000","Units":"in","Rept_Date":"2019-11-29 12"},"coordinates":[6876,5936]},{"type":"Point","properties":{"Station_ID":"ASTM5","Station_Nam":"AUSTIN WASTE WATER TREATMENT FACILITY","Latitude":"43.65420","Longitude":"-92.97390","Snowdepth":"5.000","Units":"in","Rept_Date":"2019-11-29 13"},"coordinates":[958,4244]},{"type":"Point","properties":{"Station_ID":"ARX","Station_Nam":"LA CROSSE, WI","Latitude":"43.82280","Longitude":"-91.19190","Snowdepth":"5.000","Units":"in","Rept_Date":"2019-11-30 06"},"coordinates":[1359,4365]},{"type":"Point","properties":{"Station_ID":"ANJ","Station_Nam":"SAULT STE MARIE","Latitude":"46.46670","Longitude":"-84.36670","Snowdepth":"5.000","Units":"in","Rept_Date":"2019-11-30 00"},"coordinates":[2895,6249]},{"type":"Point","properties":{"Station_ID":"MN-SC-33","Station_Nam":"SHAKOPEE 2.6 W, MN","Latitude":"44.78173","Longitude":"-93.52868","Snowdepth":"4.700","Units":"in","Rept_Date":"2019-11-29 14"},"coordinates":[834,5048]},{"type":"Point","properties":{"Station_ID":"WI-DN-5","Station_Nam":"ELK MOUND 1.3 NE, WI","Latitude":"44.88627","Longitude":"-91.66680","Snowdepth":"4.500","Units":"in","Rept_Date":"2019-11-29 13"},"coordinates":[1253,5123]},{"type":"Point","properties":{"Station_ID":"WI-BT-14","Station_Nam":"OAKLAND 9.0 ENE, WI","Latitude":"45.95184","Longitude":"-92.21653","Snowdepth":"4.500","Units":"in","Rept_Date":"2019-11-29 13"},"coordinates":[1129,5882]},{"type":"Point","properties":{"Station_ID":"MN-SR-24","Station_Nam":"PAYNESVILLE 1.9 SSW, MN","Latitude":"45.35170","Longitude":"-94.73120","Snowdepth":"4.500","Units":"in","Rept_Date":"2019-11-29 13"},"coordinates":[563,5454]},{"type":"Point","properties":{"Station_ID":"MN-SL-108","Station_Nam":"IRON JUNCTION 3.4 NNW, MN","Latitude":"47.46150","Longitude":"-92.63130","Snowdepth":"4.500","Units":"in","Rept_Date":"2019-11-29 12"},"coordinates":[1036,6958]},{"type":"Point","properties":{"Station_ID":"MN-MW-8","Station_Nam":"AUSTIN 2.4 W, MN","Latitude":"43.67190","Longitude":"-93.02280","Snowdepth":"4.500","Units":"in","Rept_Date":"2019-11-29 13"},"coordinates":[947,4257]},{"type":"Point","properties":{"Station_ID":"MN-MC-16","Station_Nam":"HUTCHINSON 0.1 ENE, MN","Latitude":"44.88633","Longitude":"-94.37503","Snowdepth":"4.500","Units":"in","Rept_Date":"2019-11-29 13"},"coordinates":[643,5123]},{"type":"Point","properties":{"Station_ID":"MN-GH-28","Station_Nam":"CANNON FALLS 0.5 SE, MN","Latitude":"44.50866","Longitude":"-92.89526","Snowdepth":"4.500","Units":"in","Rept_Date":"2019-11-29 14"},"coordinates":[976,4854]},{"type":"Point","properties":{"Station_ID":"MN-DK-70","Station_Nam":"EAGAN 2.0 NNW, MN","Latitude":"44.84322","Longitude":"-93.17899","Snowdepth":"4.500","Units":"in","Rept_Date":"2019-11-29 14"},"coordinates":[912,5092]},{"type":"Point","properties":{"Station_ID":"MN-CK-18","Station_Nam":"GRAND MARAIS 4.4 WSW, MN","Latitude":"47.74462","Longitude":"-90.43796","Snowdepth":"4.500","Units":"in","Rept_Date":"2019-11-29 13"},"coordinates":[1529,7160]},{"type":"Point","properties":{"Station_ID":"CAN-NB-98","Station_Nam":"HOYT 4.2 S, CAN","Latitude":"45.54763","Longitude":"-66.55440","Snowdepth":"4.500","Units":"in","Rept_Date":"2019-11-29 11"},"coordinates":[6903,5594]},{"type":"Point","properties":{"Station_ID":"WABM5","Station_Nam":"WABASHA","Latitude":"44.38500","Longitude":"-92.04860","Snowdepth":"4.000","Units":"in","Rept_Date":"2019-11-29 13"},"coordinates":[1167,4765]},{"type":"Point","properties":{"Station_ID":"VQAW3","Station_Nam":"VIROQUA","Latitude":"43.55970","Longitude":"-90.87560","Snowdepth":"4.000","Units":"in","Rept_Date":"2019-11-29 13"},"coordinates":[1431,4177]},{"type":"Point","properties":{"Station_ID":"SPCW3","Station_Nam":"SPENCER-WWTP","Latitude":"44.75390","Longitude":"-90.28920","Snowdepth":"4.000","Units":"in","Rept_Date":"2019-11-29 13"},"coordinates":[1563,5028]},{"type":"Point","properties":{"Station_ID":"SHDI4","Station_Nam":"SHELDON,IA","Latitude":"43.18080","Longitude":"-95.85280","Snowdepth":"4.000","Units":"in","Rept_Date":"2019-11-29 13"},"coordinates":[311,3907]},{"type":"Point","properties":{"Station_ID":"SCRW3","Station_Nam":"ST CROIX FALLS","Latitude":"45.41170","Longitude":"-92.64660","Snowdepth":"4.000","Units":"in","Rept_Date":"2019-11-29 13"},"coordinates":[1032,5497]},{"type":"Point","properties":{"Station_ID":"SAUW3","Station_Nam":"WAUSAU WSAW TV","Latitude":"44.94630","Longitude":"-89.62220","Snowdepth":"4.000","Units":"in","Rept_Date":"2019-11-29 14"},"coordinates":[1713,5165]},{"type":"Point","properties":{"Station_ID":"RST","Station_Nam":"ROCHESTER INTERNATIONAL ARPT","Latitude":"43.90890","Longitude":"-92.49780","Snowdepth":"4.000","Units":"in","Rept_Date":"2019-11-30 00"},"coordinates":[1066,4426]},{"type":"Point","properties":{"Station_ID":"RMSI4","Station_Nam":"REMSEN NO. 2","Latitude":"42.81050","Longitude":"-95.97530","Snowdepth":"4.000","Units":"in","Rept_Date":"2019-11-29 16"},"coordinates":[283,3643]},{"type":"Point","properties":{"Station_ID":"RFDM5","Station_Nam":"ROCKFORD","Latitude":"45.08960","Longitude":"-93.73990","Snowdepth":"4.000","Units":"in","Rept_Date":"2019-11-29 13"},"coordinates":[786,5268]},{"type":"Point","properties":{"Station_ID":"PTNM5","Station_Nam":"PRESTON","Latitude":"43.67250","Longitude":"-92.07470","Snowdepth":"4.000","Units":"in","Rept_Date":"2019-11-29 14"},"coordinates":[1161,4257]},{"type":"Point","properties":{"Station_ID":"ORCI4","Station_Nam":"ORANGE CITY","Latitude":"43.00080","Longitude":"-96.05390","Snowdepth":"4.000","Units":"in","Rept_Date":"2019-11-29 13"},"coordinates":[265,3779]},{"type":"Point","properties":{"Station_ID":"NWSM1","Station_Nam":"NEW SHARON","Latitude":"44.63520","Longitude":"-70.00020","Snowdepth":"4.000","Units":"in","Rept_Date":"2019-11-29 12"},"coordinates":[6128,4944]},{"type":"Point","properties":{"Station_ID":"NUMM5","Station_Nam":"NEW ULM 3SE","Latitude":"44.29450","Longitude":"-94.40840","Snowdepth":"4.000","Units":"in","Rept_Date":"2019-11-29 12"},"coordinates":[636,4701]},{"type":"Point","properties":{"Station_ID":"MRFS2","Station_Nam":"MADISON,SD","Latitude":"44.00000","Longitude":"-97.23330","Snowdepth":"4.000","Units":"in","Rept_Date":"2019-11-29 15"},"coordinates":[0,4491]},{"type":"Point","properties":{"Station_ID":"MNE9SLWI","Station_Nam":"LEAVENWORTH 5.4 S","Latitude":"44.14481","Longitude":"-94.78882","Snowdepth":"4.000","Units":"in","Rept_Date":"2019-11-29 13"},"coordinates":[550,4594]},{"type":"Point","properties":{"Station_ID":"MN0HS1SL","Station_Nam":"NORTH SAINT PAUL 1.6 NW","Latitude":"45.02800","Longitude":"-93.01506","Snowdepth":"4.000","Units":"in","Rept_Date":"2019-11-29 13"},"coordinates":[949,5224]},{"type":"Point","properties":{"Station_ID":"MN-SL-115","Station_Nam":"COTTON 5.7 ESE, MN","Latitude":"47.15142","Longitude":"-92.35772","Snowdepth":"4.000","Units":"in","Rept_Date":"2019-11-29 14"},"coordinates":[1097,6737]},{"type":"Point","properties":{"Station_ID":"MN-RM-63","Station_Nam":"NORTH SAINT PAUL 1.0 NW, MN","Latitude":"45.02410","Longitude":"-93.01400","Snowdepth":"4.000","Units":"in","Rept_Date":"2019-11-29 13"},"coordinates":[949,5221]},{"type":"Point","properties":{"Station_ID":"MN-HN-6","Station_Nam":"LONG LAKE 0.2 WSW, MN","Latitude":"44.98290","Longitude":"-93.57360","Snowdepth":"4.000","Units":"in","Rept_Date":"2019-11-29 13"},"coordinates":[824,5192]},{"type":"Point","properties":{"Station_ID":"MN-HN-110","Station_Nam":"EDINA 1.9 SSE, MN","Latitude":"44.86875","Longitude":"-93.33940","Snowdepth":"4.000","Units":"in","Rept_Date":"2019-11-29 13"},"coordinates":[876,5110]},{"type":"Point","properties":{"Station_ID":"MN-CW-29","Station_Nam":"BRAINERD 7.7 SSE, MN","Latitude":"46.24996","Longitude":"-94.14576","Snowdepth":"4.000","Units":"in","Rept_Date":"2019-11-29 13"},"coordinates":[695,6095]},{"type":"Point","properties":{"Station_ID":"MN-CV-1","Station_Nam":"CARVER 0.7 W, MN","Latitude":"44.75728","Longitude":"-93.64160","Snowdepth":"4.000","Units":"in","Rept_Date":"2019-11-29 13"},"coordinates":[808,5031]},{"type":"Point","properties":{"Station_ID":"MN-CK-6","Station_Nam":"GRAND MARAIS 4.4 W, MN","Latitude":"47.74865","Longitude":"-90.43760","Snowdepth":"4.000","Units":"in","Rept_Date":"2019-11-29 13"},"coordinates":[1529,7163]},{"type":"Point","properties":{"Station_ID":"MN-BW-8","Station_Nam":"COMFREY 6.5 ENE, MN","Latitude":"44.15109","Longitude":"-94.78516","Snowdepth":"4.000","Units":"in","Rept_Date":"2019-11-29 13"},"coordinates":[551,4599]},{"type":"Point","properties":{"Station_ID":"MMLM5","Station_Nam":"DIVERSION","Latitude":"44.47060","Longitude":"-95.80000","Snowdepth":"4.000","Units":"in","Rept_Date":"2019-11-29 14"},"coordinates":[323,4826]},{"type":"Point","properties":{"Station_ID":"ME-FR-4","Station_Nam":"NEW SHARON 2.0 NW, ME","Latitude":"44.66582","Longitude":"-70.02720","Snowdepth":"4.000","Units":"in","Rept_Date":"2019-11-29 12"},"coordinates":[6122,4966]},{"type":"Point","properties":{"Station_ID":"MCWI4","Station_Nam":"WINNEBAGO RIVER","Latitude":"43.15000","Longitude":"-93.19250","Snowdepth":"4.000","Units":"in","Rept_Date":"2019-11-29 13"},"coordinates":[909,3885]},{"type":"Point","properties":{"Station_ID":"LNGM5","Station_Nam":"LONG PRAIRIE","Latitude":"45.96460","Longitude":"-94.88920","Snowdepth":"4.000","Units":"in","Rept_Date":"2019-11-29 13"},"coordinates":[527,5891]},{"type":"Point","properties":{"Station_ID":"LBKV1","Station_Nam":"LYE BROOK","Latitude":"43.05000","Longitude":"-73.03330","Snowdepth":"4.000","Units":"in","Rept_Date":"2019-11-30 06"},"coordinates":[5445,3814]},{"type":"Point","properties":{"Station_ID":"KABM5","Station_Nam":"KABETOGAMA LAKE VISITOR CTR","Latitude":"48.40880","Longitude":"-93.04840","Snowdepth":"4.000","Units":"in","Rept_Date":"2019-11-29 13"},"coordinates":[942,7634]},{"type":"Point","properties":{"Station_ID":"INL","Station_Nam":"FALLS INTERNATIONAL ARPT","Latitude":"48.56640","Longitude":"-93.40310","Snowdepth":"4.000","Units":"in","Rept_Date":"2019-11-30 00"},"coordinates":[862,7746]},{"type":"Point","properties":{"Station_ID":"IFSM5","Station_Nam":"INTERNATIONAL FALLS SNOW","Latitude":"48.57780","Longitude":"-93.39640","Snowdepth":"4.000","Units":"in","Rept_Date":"2019-11-29 18"},"coordinates":[863,7754]},{"type":"Point","properties":{"Station_ID":"HSTM5","Station_Nam":"HASTINGS DAM 2","Latitude":"44.75970","Longitude":"-92.86890","Snowdepth":"4.000","Units":"in","Rept_Date":"2019-11-29 12"},"coordinates":[982,5032]},{"type":"Point","properties":{"Station_ID":"HOLW3","Station_Nam":"HOLCOMBE","Latitude":"45.22370","Longitude":"-91.12700","Snowdepth":"4.000","Units":"in","Rept_Date":"2019-11-29 13"},"coordinates":[1374,5363]},{"type":"Point","properties":{"Station_ID":"FUHS2","Station_Nam":"SIOUX FALLS,SD","Latitude":"43.49310","Longitude":"-96.71330","Snowdepth":"4.000","Units":"in","Rept_Date":"2019-11-29 13"},"coordinates":[117,4130]},{"type":"Point","properties":{"Station_ID":"EAU","Station_Nam":"CHIPPEWA VALLEY REGIONAL AIRPORT","Latitude":"44.86650","Longitude":"-91.48790","Snowdepth":"4.000","Units":"in","Rept_Date":"2019-11-30 00"},"coordinates":[1293,5109]},{"type":"Point","properties":{"Station_ID":"DLH","Station_Nam":"DULUTH, MN","Latitude":"46.83690","Longitude":"-92.21030","Snowdepth":"4.000","Units":"in","Rept_Date":"2019-11-30 00"},"coordinates":[1130,6513]},{"type":"Point","properties":{"Station_ID":"CRVW3","Station_Nam":"CRIVITZ HIGH FALLS","Latitude":"45.35750","Longitude":"-88.19190","Snowdepth":"4.000","Units":"in","Rept_Date":"2019-11-29 13"},"coordinates":[2035,5459]},{"type":"Point","properties":{"Station_ID":"COTM5","Station_Nam":"COTTON","Latitude":"47.16870","Longitude":"-92.46290","Snowdepth":"4.000","Units":"in","Rept_Date":"2019-11-29 13"},"coordinates":[1073,6750]},{"type":"Point","properties":{"Station_ID":"CHES2","Station_Nam":"CHESTER 2N","Latitude":"43.92830","Longitude":"-96.93160","Snowdepth":"4.000","Units":"in","Rept_Date":"2019-11-29 13"},"coordinates":[68,4440]},{"type":"Point","properties":{"Station_ID":"BTHM5","Station_Nam":"BLUE EARTH 1S","Latitude":"43.62370","Longitude":"-94.09470","Snowdepth":"4.000","Units":"in","Rept_Date":"2019-11-29 14"},"coordinates":[706,4223]},{"type":"Point","properties":{"Station_ID":"BRMM5","Station_Nam":"BRIMSON 2S","Latitude":"47.24720","Longitude":"-91.86240","Snowdepth":"4.000","Units":"in","Rept_Date":"2019-11-30 01"},"coordinates":[1209,6806]},{"type":"Point","properties":{"Station_ID":"BRLN3","Station_Nam":"BERLIN","Latitude":"44.45350","Longitude":"-71.18540","Snowdepth":"4.000","Units":"in","Rept_Date":"2019-11-29 14"},"coordinates":[5861,4814]},{"type":"Point","properties":{"Station_ID":"BRAM5","Station_Nam":"BRAINERD","Latitude":"46.34320","Longitude":"-94.20900","Snowdepth":"4.000","Units":"in","Rept_Date":"2019-11-29 13"},"coordinates":[681,6161]},{"type":"Point","properties":{"Station_ID":"ASXW3","Station_Nam":"ASHLAND,WI","Latitude":"46.55220","Longitude":"-90.91610","Snowdepth":"4.000","Units":"in","Rept_Date":"2019-11-29 14"},"coordinates":[1422,6310]},{"type":"Point","properties":{"Station_ID":"ASTW3","Station_Nam":"ATHELSTANE","Latitude":"45.42500","Longitude":"-88.05750","Snowdepth":"4.000","Units":"in","Rept_Date":"2019-11-29 12"},"coordinates":[2065,5507]},{"type":"Point","properties":{"Station_ID":"ALGI4","Station_Nam":"ALGONA,IA","Latitude":"43.06670","Longitude":"-94.30610","Snowdepth":"4.000","Units":"in","Rept_Date":"2019-11-29 13"},"coordinates":[659,3826]},{"type":"Point","properties":{"Station_ID":"CAN-ON-621","Station_Nam":"THUNDER BAY 4.2 WSW - MNRF, CAN","Latitude":"48.39163","Longitude":"-89.29107","Snowdepth":"3.900","Units":"in","Rept_Date":"2019-11-29 12"},"coordinates":[1787,7621]},{"type":"Point","properties":{"Station_ID":"CAN-NB-1","Station_Nam":"FREDERICTON 4.0 SSE, CA","Latitude":"45.92897","Longitude":"-66.62830","Snowdepth":"3.900","Units":"in","Rept_Date":"2019-11-29 11"},"coordinates":[6887,5866]},{"type":"Point","properties":{"Station_ID":"MN-HN-19","Station_Nam":"EDINA 1.3 SW, MN","Latitude":"44.87830","Longitude":"-93.37890","Snowdepth":"3.700","Units":"in","Rept_Date":"2019-11-29 13"},"coordinates":[867,5117]},{"type":"Point","properties":{"Station_ID":"SD-UN-2","Station_Nam":"ELK POINT 5.6 NNE, SD","Latitude":"42.76126","Longitude":"-96.65320","Snowdepth":"3.500","Units":"in","Rept_Date":"2019-11-29 16"},"coordinates":[131,3608]},{"type":"Point","properties":{"Station_ID":"MN-WG-33","Station_Nam":"COTTAGE GROVE 1.6 NNW, MN","Latitude":"44.83821","Longitude":"-92.93590","Snowdepth":"3.500","Units":"in","Rept_Date":"2019-11-29 13"},"coordinates":[967,5088]},{"type":"Point","properties":{"Station_ID":"MN-HN-31","Station_Nam":"MAPLE GROVE 1.0 NNE, MN","Latitude":"45.12261","Longitude":"-93.45790","Snowdepth":"3.500","Units":"in","Rept_Date":"2019-11-29 16"},"coordinates":[850,5291]},{"type":"Point","properties":{"Station_ID":"MN-GH-4","Station_Nam":"NERSTRAND 4.2 E, MN","Latitude":"44.34247","Longitude":"-92.97920","Snowdepth":"3.500","Units":"in","Rept_Date":"2019-11-29 13"},"coordinates":[957,4735]},{"type":"Point","properties":{"Station_ID":"MN-CW-22","Station_Nam":"FORT RIPLEY 0.8 N, MN","Latitude":"46.18089","Longitude":"-94.36510","Snowdepth":"3.500","Units":"in","Rept_Date":"2019-11-29 13"},"coordinates":[645,6046]},{"type":"Point","properties":{"Station_ID":"IA-KS-4","Station_Nam":"ALGONA 0.7 SE, IA","Latitude":"43.06627","Longitude":"-94.22214","Snowdepth":"3.500","Units":"in","Rept_Date":"2019-11-29 13"},"coordinates":[678,3825]},{"type":"Point","properties":{"Station_ID":"SD-CY-10","Station_Nam":"VERMILLION 1.4 SE, SD","Latitude":"42.76865","Longitude":"-96.90649","Snowdepth":"3.300","Units":"in","Rept_Date":"2019-11-29 12"},"coordinates":[74,3613]},{"type":"Point","properties":{"Station_ID":"CAN-ON-757","Station_Nam":"SAULT STE. MARIE 2.8 ESE - GLFC, CAN","Latitude":"46.50300","Longitude":"-84.30300","Snowdepth":"3.300","Units":"in","Rept_Date":"2019-11-29 13"},"coordinates":[2910,6275]},{"type":"Point","properties":{"Station_ID":"QLI","Station_Nam":"QLI","Latitude":"50.27080","Longitude":"-73.92280","Snowdepth":"3.071","Units":"in","Rept_Date":"2019-11-29 12"},"coordinates":[5245,8961]},{"type":"Point","properties":{"Station_ID":"WUNW3","Station_Nam":"WAUSAU-NORTHEAST","Latitude":"44.97310","Longitude":"-89.61690","Snowdepth":"3.000","Units":"in","Rept_Date":"2019-11-29 11"},"coordinates":[1714,5185]},{"type":"Point","properties":{"Station_ID":"WSKW3","Station_Nam":"WAUSAUKEE","Latitude":"45.38020","Longitude":"-87.95660","Snowdepth":"3.000","Units":"in","Rept_Date":"2019-11-29 14"},"coordinates":[2087,5475]},{"type":"Point","properties":{"Station_ID":"WRIM5","Station_Nam":"WRIGHT 3E","Latitude":"46.68040","Longitude":"-92.95420","Snowdepth":"3.000","Units":"in","Rept_Date":"2019-11-29 12"},"coordinates":[963,6402]},{"type":"Point","properties":{"Station_ID":"WLDM5","Station_Nam":"WILD RIVER STATE PARK","Latitude":"45.52310","Longitude":"-92.74890","Snowdepth":"3.000","Units":"in","Rept_Date":"2019-11-29 14"},"coordinates":[1009,5577]},{"type":"Point","properties":{"Station_ID":"WIDM5","Station_Nam":"WINONA DAM 5A","Latitude":"44.08750","Longitude":"-91.67030","Snowdepth":"3.000","Units":"in","Rept_Date":"2019-11-29 14"},"coordinates":[1252,4553]},{"type":"Point","properties":{"Station_ID":"WI-PT-8","Station_Nam":"RUDOLPH 2.1 NNE, WI","Latitude":"44.52553","Longitude":"-89.78677","Snowdepth":"3.000","Units":"in","Rept_Date":"2019-11-29 11"},"coordinates":[1676,4866]},{"type":"Point","properties":{"Station_ID":"WI-PC-10","Station_Nam":"RIVER FALLS 1.4 S, WI","Latitude":"44.83580","Longitude":"-92.62100","Snowdepth":"3.000","Units":"in","Rept_Date":"2019-11-29 13"},"coordinates":[1038,5087]},{"type":"Point","properties":{"Station_ID":"WI-MT-14","Station_Nam":"MOSINEE 2.7 WSW, WI","Latitude":"44.77240","Longitude":"-89.73441","Snowdepth":"3.000","Units":"in","Rept_Date":"2019-11-29 13"},"coordinates":[1687,5042]},{"type":"Point","properties":{"Station_ID":"WESN1","Station_Nam":"WESTON 3NW","Latitude":"41.22110","Longitude":"-96.77750","Snowdepth":"3.000","Units":"in","Rept_Date":"2019-11-29 14"},"coordinates":[103,2510]},{"type":"Point","properties":{"Station_ID":"WACM5","Station_Nam":"WACONIA","Latitude":"44.85330","Longitude":"-93.80260","Snowdepth":"3.000","Units":"in","Rept_Date":"2019-11-29 12"},"coordinates":[772,5099]},{"type":"Point","properties":{"Station_ID":"VT-WS-30","Station_Nam":"WOODBURY 3.4 NNW, VT","Latitude":"44.48825","Longitude":"-72.43258","Snowdepth":"3.000","Units":"in","Rept_Date":"2019-11-29 12"},"coordinates":[5581,4839]},{"type":"Point","properties":{"Station_ID":"TEKN1","Station_Nam":"TEKAMAH,NE","Latitude":"41.76670","Longitude":"-96.23330","Snowdepth":"3.000","Units":"in","Rept_Date":"2019-11-29 13"},"coordinates":[225,2899]},{"type":"Point","properties":{"Station_ID":"SXGI4","Station_Nam":"ANG BASE","Latitude":"42.39640","Longitude":"-96.37780","Snowdepth":"3.000","Units":"in","Rept_Date":"2019-11-29 12"},"coordinates":[193,3348]},{"type":"Point","properties":{"Station_ID":"SWEI4","Station_Nam":"SWEA CITY,IA","Latitude":"43.38530","Longitude":"-94.25000","Snowdepth":"3.000","Units":"in","Rept_Date":"2019-11-29 12"},"coordinates":[671,4053]},{"type":"Point","properties":{"Station_ID":"STIM5","Station_Nam":"STILLWATER 2SW","Latitude":"45.04540","Longitude":"-92.85220","Snowdepth":"3.000","Units":"in","Rept_Date":"2019-11-29 14"},"coordinates":[986,5236]},{"type":"Point","properties":{"Station_ID":"SD-MH-8","Station_Nam":"HARTFORD 6.4 S, SD","Latitude":"43.53128","Longitude":"-96.95020","Snowdepth":"3.000","Units":"in","Rept_Date":"2019-11-29 14"},"coordinates":[64,4157]},{"type":"Point","properties":{"Station_ID":"SD-MH-1","Station_Nam":"SIOUX FALLS 5.0 SE ARPT, SD","Latitude":"43.52360","Longitude":"-96.66780","Snowdepth":"3.000","Units":"in","Rept_Date":"2019-11-29 13"},"coordinates":[127,4151]},{"type":"Point","properties":{"Station_ID":"RWGM5","Station_Nam":"RED WING","Latitude":"44.57120","Longitude":"-92.52830","Snowdepth":"3.000","Units":"in","Rept_Date":"2019-11-29 14"},"coordinates":[1059,4898]},{"type":"Point","properties":{"Station_ID":"RSTW3","Station_Nam":"ROSHOLT","Latitude":"44.62710","Longitude":"-89.30600","Snowdepth":"3.000","Units":"in","Rept_Date":"2019-11-29 17"},"coordinates":[1784,4938]},{"type":"Point","properties":{"Station_ID":"RSRM5","Station_Nam":"ROCHESTER AP 2NE","Latitude":"43.92810","Longitude":"-92.47580","Snowdepth":"3.000","Units":"in","Rept_Date":"2019-11-30 06"},"coordinates":[1071,4440]},{"type":"Point","properties":{"Station_ID":"REWM5","Station_Nam":"REDWOOD FALLS","Latitude":"44.54850","Longitude":"-95.09980","Snowdepth":"3.000","Units":"in","Rept_Date":"2019-11-29 13"},"coordinates":[480,4882]},{"type":"Point","properties":{"Station_ID":"RCEM5","Station_Nam":"RICE","Latitude":"45.75760","Longitude":"-94.20720","Snowdepth":"3.000","Units":"in","Rept_Date":"2019-11-29 13"},"coordinates":[681,5744]},{"type":"Point","properties":{"Station_ID":"PTBN3","Station_Nam":"DAM WITHIN","Latitude":"45.05000","Longitude":"-71.38330","Snowdepth":"3.000","Units":"in","Rept_Date":"2019-11-29 12"},"coordinates":[5817,5239]},{"type":"Point","properties":{"Station_ID":"POCI4","Station_Nam":"POCAHONTAS,IA","Latitude":"42.72920","Longitude":"-94.66060","Snowdepth":"3.000","Units":"in","Rept_Date":"2019-11-29 14"},"coordinates":[579,3585]},{"type":"Point","properties":{"Station_ID":"PIPM5","Station_Nam":"PIPESTONE,MN","Latitude":"44.01390","Longitude":"-96.32580","Snowdepth":"3.000","Units":"in","Rept_Date":"2019-11-29 14"},"coordinates":[204,4501]},{"type":"Point","properties":{"Station_ID":"NUMN3","Station_Nam":"NORTHUMBERLAND","Latitude":"44.52830","Longitude":"-71.50440","Snowdepth":"3.000","Units":"in","Rept_Date":"2019-11-29 13"},"coordinates":[5790,4868]},{"type":"Point","properties":{"Station_ID":"NEWN1","Station_Nam":"NEWCASTLE","Latitude":"42.65300","Longitude":"-96.87750","Snowdepth":"3.000","Units":"in","Rept_Date":"2019-11-29 12"},"coordinates":[80,3531]},{"type":"Point","properties":{"Station_ID":"MSCM5","Station_Nam":"MINNESOTA CITY","Latitude":"44.16000","Longitude":"-91.81220","Snowdepth":"3.000","Units":"in","Rept_Date":"2019-11-29 14"},"coordinates":[1220,4605]},{"type":"Point","properties":{"Station_ID":"MN7M8EBJ","Station_Nam":"LUTSEN 15.7 NNW","Latitude":"47.85324","Longitude":"-89.92908","Snowdepth":"3.000","Units":"in","Rept_Date":"2019-11-29 14"},"coordinates":[1644,7238]},{"type":"Point","properties":{"Station_ID":"MN76ACVS","Station_Nam":"GRAND MARAIS 3.0 WNW","Latitude":"47.76602","Longitude":"-90.26427","Snowdepth":"3.000","Units":"in","Rept_Date":"2019-11-29 13"},"coordinates":[1568,7176]},{"type":"Point","properties":{"Station_ID":"MN6JKRHL","Station_Nam":"TOFTE 0.6 SSW","Latitude":"47.56557","Longitude":"-90.84117","Snowdepth":"3.000","Units":"in","Rept_Date":"2019-11-29 13"},"coordinates":[1438,7033]},{"type":"Point","properties":{"Station_ID":"MN-WR-42","Station_Nam":"HOWARD LAKE 1.2 NW, MN","Latitude":"45.07454","Longitude":"-94.08120","Snowdepth":"3.000","Units":"in","Rept_Date":"2019-11-29 14"},"coordinates":[709,5257]},{"type":"Point","properties":{"Station_ID":"MN-WG-74","Station_Nam":"OAKDALE 0.4 S, MN","Latitude":"44.98208","Longitude":"-92.96510","Snowdepth":"3.000","Units":"in","Rept_Date":"2019-11-29 13"},"coordinates":[960,5191]},{"type":"Point","properties":{"Station_ID":"MN-RW-11","Station_Nam":"BELVIEW 0.3 S, MN","Latitude":"44.60224","Longitude":"-95.32848","Snowdepth":"3.000","Units":"in","Rept_Date":"2019-11-29 13"},"coordinates":[429,4920]},{"type":"Point","properties":{"Station_ID":"MN-RC-11","Station_Nam":"NEW PRAGUE 4.8 ESE, MN","Latitude":"44.51999","Longitude":"-93.48470","Snowdepth":"3.000","Units":"in","Rept_Date":"2019-11-29 11"},"coordinates":[844,4862]},{"type":"Point","properties":{"Station_ID":"MN-PN-17","Station_Nam":"BROOK PARK 3.9 S, MN","Latitude":"45.89189","Longitude":"-93.06306","Snowdepth":"3.000","Units":"in","Rept_Date":"2019-11-29 13"},"coordinates":[938,5840]},{"type":"Point","properties":{"Station_ID":"MN-MR-4","Station_Nam":"LITTLE FALLS 1.2 SW, MN","Latitude":"45.96886","Longitude":"-94.37720","Snowdepth":"3.000","Units":"in","Rept_Date":"2019-11-29 13"},"coordinates":[643,5894]},{"type":"Point","properties":{"Station_ID":"MN-MR-13","Station_Nam":"LITTLE FALLS 8.0 NE, MN","Latitude":"46.06785","Longitude":"-94.24789","Snowdepth":"3.000","Units":"in","Rept_Date":"2019-11-29 13"},"coordinates":[672,5965]},{"type":"Point","properties":{"Station_ID":"MI-DL-4","Station_Nam":"GLADSTONE 2.1 SW, MI","Latitude":"45.83218","Longitude":"-87.05727","Snowdepth":"3.000","Units":"in","Rept_Date":"2019-11-29 12"},"coordinates":[2290,5797]},{"type":"Point","properties":{"Station_ID":"MI-DL-1","Station_Nam":"GARDEN CORNERS 0.8 NW, MI","Latitude":"45.89815","Longitude":"-86.54850","Snowdepth":"3.000","Units":"in","Rept_Date":"2019-11-29 13"},"coordinates":[2404,5844]},{"type":"Point","properties":{"Station_ID":"LUCW3","Station_Nam":"LUCK","Latitude":"45.57330","Longitude":"-92.48520","Snowdepth":"3.000","Units":"in","Rept_Date":"2019-11-29 23"},"coordinates":[1068,5612]},{"type":"Point","properties":{"Station_ID":"LPLN6","Station_Nam":"LAKE PLACID 2 S","Latitude":"44.30420","Longitude":"-73.98390","Snowdepth":"3.000","Units":"in","Rept_Date":"2019-11-29 12"},"coordinates":[5232,4708]},{"type":"Point","properties":{"Station_ID":"KINM1","Station_Nam":"KINGFIELD","Latitude":"44.95950","Longitude":"-70.17530","Snowdepth":"3.000","Units":"in","Rept_Date":"2019-11-29 13"},"coordinates":[6089,5175]},{"type":"Point","properties":{"Station_ID":"ISLV1","Station_Nam":"ISLAND POND","Latitude":"44.81280","Longitude":"-71.89020","Snowdepth":"3.000","Units":"in","Rept_Date":"2019-11-29 15"},"coordinates":[5703,5070]},{"type":"Point","properties":{"Station_ID":"HSTI4","Station_Nam":"HOLSTEIN,IA","Latitude":"42.48920","Longitude":"-95.53330","Snowdepth":"3.000","Units":"in","Rept_Date":"2019-11-29 13"},"coordinates":[383,3414]},{"type":"Point","properties":{"Station_ID":"GDCM4","Station_Nam":"GARDEN CORNERS","Latitude":"45.89830","Longitude":"-86.54850","Snowdepth":"3.000","Units":"in","Rept_Date":"2019-11-29 13"},"coordinates":[2404,5844]},{"type":"Point","properties":{"Station_ID":"FARM7","Station_Nam":"FARMINGTON,MO","Latitude":"37.70000","Longitude":"-90.38330","Snowdepth":"3.000","Units":"in","Rept_Date":"2019-11-30 06"},"coordinates":[1541,0]},{"type":"Point","properties":{"Station_ID":"FARM1","Station_Nam":"FARMINGTON","Latitude":"44.68930","Longitude":"-70.15640","Snowdepth":"3.000","Units":"in","Rept_Date":"2019-11-29 12"},"coordinates":[6093,4982]},{"type":"Point","properties":{"Station_ID":"EPTW3","Station_Nam":"EAU PLEINE TENDER","Latitude":"44.77220","Longitude":"-89.76720","Snowdepth":"3.000","Units":"in","Rept_Date":"2019-11-29 13"},"coordinates":[1680,5041]},{"type":"Point","properties":{"Station_ID":"DHMM1","Station_Nam":"DEDHAM","Latitude":"44.67880","Longitude":"-68.63560","Snowdepth":"3.000","Units":"in","Rept_Date":"2019-11-29 12"},"coordinates":[6435,4975]},{"type":"Point","properties":{"Station_ID":"DEMS2","Station_Nam":"SIOUX FALLS 5SE FSD ARPT","Latitude":"43.52690","Longitude":"-96.66830","Snowdepth":"3.000","Units":"in","Rept_Date":"2019-11-29 13"},"coordinates":[127,4154]},{"type":"Point","properties":{"Station_ID":"CSLM5","Station_Nam":"CASS LAKE,MN","Latitude":"47.38470","Longitude":"-94.61470","Snowdepth":"3.000","Units":"in","Rept_Date":"2019-11-29 14"},"coordinates":[589,6904]},{"type":"Point","properties":{"Station_ID":"CRCI4","Station_Nam":"CRESCO 1NE","Latitude":"43.38940","Longitude":"-92.09380","Snowdepth":"3.000","Units":"in","Rept_Date":"2019-11-29 13"},"coordinates":[1156,4056]},{"type":"Point","properties":{"Station_ID":"CMRI4","Station_Nam":"CALMAR NE","Latitude":"43.18760","Longitude":"-91.86200","Snowdepth":"3.000","Units":"in","Rept_Date":"2019-11-30 00"},"coordinates":[1209,3912]},{"type":"Point","properties":{"Station_ID":"CANM5","Station_Nam":"CANBY","Latitude":"44.71840","Longitude":"-96.26960","Snowdepth":"3.000","Units":"in","Rept_Date":"2019-11-29 14"},"coordinates":[217,5003]},{"type":"Point","properties":{"Station_ID":"BROS2","Station_Nam":"BROOKINGS,SD","Latitude":"44.31670","Longitude":"-96.76670","Snowdepth":"3.000","Units":"in","Rept_Date":"2019-11-29 14"},"coordinates":[105,4717]},{"type":"Point","properties":{"Station_ID":"BMRW3","Station_Nam":"BLOOMER","Latitude":"45.09070","Longitude":"-91.48640","Snowdepth":"3.000","Units":"in","Rept_Date":"2019-11-29 14"},"coordinates":[1293,5268]},{"type":"Point","properties":{"Station_ID":"BETM1","Station_Nam":"BETHEL 6 SSE","Latitude":"44.32000","Longitude":"-70.75680","Snowdepth":"3.000","Units":"in","Rept_Date":"2019-11-29 12"},"coordinates":[5958,4719]},{"type":"Point","properties":{"Station_ID":"ABGW3","Station_Nam":"AMBERG 9 E","Latitude":"45.48250","Longitude":"-87.81190","Snowdepth":"3.000","Units":"in","Rept_Date":"2019-11-29 12"},"coordinates":[2120,5548]},{"type":"Point","properties":{"Station_ID":"QGT","Station_Nam":"QGT","Latitude":"49.64720","Longitude":"-67.62640","Snowdepth":"2.598","Units":"in","Rept_Date":"2019-11-29 12"},"coordinates":[6662,8517]},{"type":"Point","properties":{"Station_ID":"VT-WS-15","Station_Nam":"EAST CALAIS 1.5 SW, VT","Latitude":"44.35523","Longitude":"-72.45540","Snowdepth":"2.500","Units":"in","Rept_Date":"2019-11-29 12"},"coordinates":[5576,4744]},{"type":"Point","properties":{"Station_ID":"VT-OL-9","Station_Nam":"GREENSBORO 2.1 NNW, VT","Latitude":"44.60528","Longitude":"-72.30940","Snowdepth":"2.500","Units":"in","Rept_Date":"2019-11-29 12"},"coordinates":[5608,4922]},{"type":"Point","properties":{"Station_ID":"VT-CL-40","Station_Nam":"LYNDONVILLE 4.2 NNW, VT","Latitude":"44.59440","Longitude":"-72.02389","Snowdepth":"2.500","Units":"in","Rept_Date":"2019-11-29 12"},"coordinates":[5673,4915]},{"type":"Point","properties":{"Station_ID":"MN-AT-5","Station_Nam":"TAMARACK 1.4 SW, MN","Latitude":"46.63760","Longitude":"-93.14554","Snowdepth":"2.500","Units":"in","Rept_Date":"2019-11-29 11"},"coordinates":[920,6371]},{"type":"Point","properties":{"Station_ID":"MI-CP-14","Station_Nam":"SAULT STE. MARIE 2.2 E, MI","Latitude":"46.48933","Longitude":"-84.31971","Snowdepth":"2.500","Units":"in","Rept_Date":"2019-11-29 13"},"coordinates":[2906,6265]},{"type":"Point","properties":{"Station_ID":"ZNOM4","Station_Nam":"NORWAY","Latitude":"45.77810","Longitude":"-87.89560","Snowdepth":"2.000","Units":"in","Rept_Date":"2019-11-30 01"},"coordinates":[2101,5758]},{"type":"Point","properties":{"Station_ID":"WSLW3","Station_Nam":"WEST SALEM","Latitude":"43.89670","Longitude":"-91.08570","Snowdepth":"2.000","Units":"in","Rept_Date":"2019-11-29 13"},"coordinates":[1383,4417]},{"type":"Point","properties":{"Station_ID":"WRUM5","Station_Nam":"WARROAD 4W","Latitude":"48.89600","Longitude":"-95.40700","Snowdepth":"2.000","Units":"in","Rept_Date":"2019-11-30 04"},"coordinates":[411,7981]},{"type":"Point","properties":{"Station_ID":"WMTI4","Station_Nam":"FORT DODGE,IA","Latitude":"42.50610","Longitude":"-94.20110","Snowdepth":"2.000","Units":"in","Rept_Date":"2019-11-29 13"},"coordinates":[682,3426]},{"type":"Point","properties":{"Station_ID":"WI-PK-4","Station_Nam":"DRESSER 6.1 ESE, WI","Latitude":"45.32436","Longitude":"-92.52080","Snowdepth":"2.000","Units":"in","Rept_Date":"2019-11-29 14"},"coordinates":[1060,5435]},{"type":"Point","properties":{"Station_ID":"WI-LC-1","Station_Nam":"WEST SALEM 0.7 W, WI","Latitude":"43.89817","Longitude":"-91.09548","Snowdepth":"2.000","Units":"in","Rept_Date":"2019-11-29 13"},"coordinates":[1381,4418]},{"type":"Point","properties":{"Station_ID":"VT-WS-19","Station_Nam":"WATERBURY 3.0 NW, VT","Latitude":"44.36060","Longitude":"-72.80770","Snowdepth":"2.000","Units":"in","Rept_Date":"2019-11-29 11"},"coordinates":[5496,4748]},{"type":"Point","properties":{"Station_ID":"VT-WR-2","Station_Nam":"POMFRET 2.6 N, VT","Latitude":"43.74230","Longitude":"-72.52550","Snowdepth":"2.000","Units":"in","Rept_Date":"2019-11-29 12"},"coordinates":[5560,4307]},{"type":"Point","properties":{"Station_ID":"VT-OL-5","Station_Nam":"DERBY CENTER 1.8 NW, VT","Latitude":"44.97200","Longitude":"-72.14780","Snowdepth":"2.000","Units":"in","Rept_Date":"2019-11-29 12"},"coordinates":[5645,5184]},{"type":"Point","properties":{"Station_ID":"VT-ES-3","Station_Nam":"LUNENBURG 2.3 NNW, VT","Latitude":"44.49324","Longitude":"-71.70446","Snowdepth":"2.000","Units":"in","Rept_Date":"2019-11-29 12"},"coordinates":[5745,4843]},{"type":"Point","properties":{"Station_ID":"VRMS2","Station_Nam":"VERMILLION,SD","Latitude":"42.76250","Longitude":"-96.91940","Snowdepth":"2.000","Units":"in","Rept_Date":"2019-11-29 21"},"coordinates":[71,3609]},{"type":"Point","properties":{"Station_ID":"THRM5","Station_Nam":"THORHULT,MN","Latitude":"48.21670","Longitude":"-95.25000","Snowdepth":"2.000","Units":"in","Rept_Date":"2019-11-29 23"},"coordinates":[446,7497]},{"type":"Point","properties":{"Station_ID":"SUTV1","Station_Nam":"SUTTON","Latitude":"44.61220","Longitude":"-72.04810","Snowdepth":"2.000","Units":"in","Rept_Date":"2019-11-29 13"},"coordinates":[5667,4927]},{"type":"Point","properties":{"Station_ID":"STRW3","Station_Nam":"STRATFORD 1NW","Latitude":"44.81750","Longitude":"-90.08990","Snowdepth":"2.000","Units":"in","Rept_Date":"2019-11-29 13"},"coordinates":[1607,5074]},{"type":"Point","properties":{"Station_ID":"SJBV1","Station_Nam":"SAINT JOHNSBURY","Latitude":"44.42000","Longitude":"-72.01940","Snowdepth":"2.000","Units":"in","Rept_Date":"2019-11-29 21"},"coordinates":[5674,4790]},{"type":"Point","properties":{"Station_ID":"RKWI4","Station_Nam":"ROCKWELL CITY,IA","Latitude":"42.40000","Longitude":"-94.61670","Snowdepth":"2.000","Units":"in","Rept_Date":"2019-11-29 13"},"coordinates":[589,3350]},{"type":"Point","properties":{"Station_ID":"PLFV1","Station_Nam":"PLAINFIELD","Latitude":"44.27610","Longitude":"-72.41500","Snowdepth":"2.000","Units":"in","Rept_Date":"2019-11-29 12"},"coordinates":[5585,4688]},{"type":"Point","properties":{"Station_ID":"OTRW3","Station_Nam":"ONTARIO 3E","Latitude":"43.71940","Longitude":"-90.53010","Snowdepth":"2.000","Units":"in","Rept_Date":"2019-11-29 13"},"coordinates":[1508,4291]},{"type":"Point","properties":{"Station_ID":"NVLV1","Station_Nam":"NASHVILLE","Latitude":"44.44970","Longitude":"-72.92640","Snowdepth":"2.000","Units":"in","Rept_Date":"2019-11-29 12"},"coordinates":[5470,4811]},{"type":"Point","properties":{"Station_ID":"NSNM1","Station_Nam":"NEW SHARON","Latitude":"44.63330","Longitude":"-70.00000","Snowdepth":"2.000","Units":"in","Rept_Date":"2019-11-29 11"},"coordinates":[6128,4942]},{"type":"Point","properties":{"Station_ID":"NH-GR-47","Station_Nam":"LITTLETON 7.3 W, NH","Latitude":"44.31847","Longitude":"-71.91086","Snowdepth":"2.000","Units":"in","Rept_Date":"2019-11-29 13"},"coordinates":[5698,4718]},{"type":"Point","properties":{"Station_ID":"NE-DD-3","Station_Nam":"FREMONT 0.6 S, NE","Latitude":"41.43141","Longitude":"-96.49210","Snowdepth":"2.000","Units":"in","Rept_Date":"2019-11-29 13"},"coordinates":[167,2660]},{"type":"Point","properties":{"Station_ID":"MRQM4","Station_Nam":"MARQUETTE WFP","Latitude":"46.54580","Longitude":"-87.37950","Snowdepth":"2.000","Units":"in","Rept_Date":"2019-11-29 13"},"coordinates":[2217,6306]},{"type":"Point","properties":{"Station_ID":"MRAM4","Station_Nam":"MORAN","Latitude":"45.99030","Longitude":"-84.83610","Snowdepth":"2.000","Units":"in","Rept_Date":"2019-11-29 13"},"coordinates":[2790,5910]},{"type":"Point","properties":{"Station_ID":"MN-PS-6","Station_Nam":"EDGERTON 0.2 WSW, MN","Latitude":"43.87444","Longitude":"-96.13328","Snowdepth":"2.000","Units":"in","Rept_Date":"2019-11-29 12"},"coordinates":[248,4401]},{"type":"Point","properties":{"Station_ID":"MN-IT-7","Station_Nam":"GRAND RAPIDS 6.2 SSW, MN","Latitude":"47.13687","Longitude":"-93.56660","Snowdepth":"2.000","Units":"in","Rept_Date":"2019-11-29 12"},"coordinates":[825,6727]},{"type":"Point","properties":{"Station_ID":"MN-DK-104","Station_Nam":"HASTINGS 1.6 NW, MN","Latitude":"44.74458","Longitude":"-92.88035","Snowdepth":"2.000","Units":"in","Rept_Date":"2019-11-29 14"},"coordinates":[980,5022]},{"type":"Point","properties":{"Station_ID":"MN-CG-16","Station_Nam":"NORTH BRANCH 1.3 NNW, MN","Latitude":"45.53121","Longitude":"-92.97110","Snowdepth":"2.000","Units":"in","Rept_Date":"2019-11-29 12"},"coordinates":[959,5582]},{"type":"Point","properties":{"Station_ID":"MLRM5","Station_Nam":"MELROSE","Latitude":"45.67710","Longitude":"-94.80200","Snowdepth":"2.000","Units":"in","Rept_Date":"2019-11-29 13"},"coordinates":[547,5686]},{"type":"Point","properties":{"Station_ID":"MIAM5","Station_Nam":"MILAN 1NW","Latitude":"45.12190","Longitude":"-95.92690","Snowdepth":"2.000","Units":"in","Rept_Date":"2019-11-30 00"},"coordinates":[294,5291]},{"type":"Point","properties":{"Station_ID":"ME-WL-27","Station_Nam":"PROSPECT 2.6 W, ME","Latitude":"44.55719","Longitude":"-68.91732","Snowdepth":"2.000","Units":"in","Rept_Date":"2019-11-29 12"},"coordinates":[6372,4888]},{"type":"Point","properties":{"Station_ID":"MATW3","Station_Nam":"MATHER 3NW","Latitude":"44.17460","Longitude":"-90.34820","Snowdepth":"2.000","Units":"in","Rept_Date":"2019-11-29 13"},"coordinates":[1549,4615]},{"type":"Point","properties":{"Station_ID":"MALN6","Station_Nam":"MALONE","Latitude":"44.84180","Longitude":"-74.30600","Snowdepth":"2.000","Units":"in","Rept_Date":"2019-11-29 12"},"coordinates":[5159,5091]},{"type":"Point","properties":{"Station_ID":"LYON1","Station_Nam":"LYONS,NE","Latitude":"41.93810","Longitude":"-96.47920","Snowdepth":"2.000","Units":"in","Rept_Date":"2019-11-29 14"},"coordinates":[170,3021]},{"type":"Point","properties":{"Station_ID":"LSE","Station_Nam":"LA CROSSE MUNICIPAL AIRPORT","Latitude":"43.87920","Longitude":"-91.25610","Snowdepth":"2.000","Units":"in","Rept_Date":"2019-11-30 00"},"coordinates":[1345,4405]},{"type":"Point","properties":{"Station_ID":"HPTI4","Station_Nam":"HAMPTON,IA","Latitude":"42.75000","Longitude":"-93.20000","Snowdepth":"2.000","Units":"in","Rept_Date":"2019-11-29 13"},"coordinates":[908,3600]},{"type":"Point","properties":{"Station_ID":"HOKM5","Station_Nam":"HOKAH 4NW","Latitude":"43.79560","Longitude":"-91.42640","Snowdepth":"2.000","Units":"in","Rept_Date":"2019-11-29 13"},"coordinates":[1307,4345]},{"type":"Point","properties":{"Station_ID":"GLLM5","Station_Nam":"GULL LAKE DAM","Latitude":"46.41190","Longitude":"-94.35000","Snowdepth":"2.000","Units":"in","Rept_Date":"2019-11-29 14"},"coordinates":[649,6210]},{"type":"Point","properties":{"Station_ID":"GENW3","Station_Nam":"GENOA DAM 8","Latitude":"43.57050","Longitude":"-91.22950","Snowdepth":"2.000","Units":"in","Rept_Date":"2019-11-29 14"},"coordinates":[1351,4185]},{"type":"Point","properties":{"Station_ID":"FMTN1","Station_Nam":"FREMONT,NE","Latitude":"41.43330","Longitude":"-96.48330","Snowdepth":"2.000","Units":"in","Rept_Date":"2019-11-29 13"},"coordinates":[169,2661]},{"type":"Point","properties":{"Station_ID":"FLDM5","Station_Nam":"FLOODWOOD,MN","Latitude":"47.00000","Longitude":"-92.91670","Snowdepth":"2.000","Units":"in","Rept_Date":"2019-11-29 14"},"coordinates":[971,6629]},{"type":"Point","properties":{"Station_ID":"CORV1","Station_Nam":"CORINTH","Latitude":"44.00690","Longitude":"-72.31940","Snowdepth":"2.000","Units":"in","Rept_Date":"2019-11-29 12"},"coordinates":[5606,4496]},{"type":"Point","properties":{"Station_ID":"CAN-NS-43","Station_Nam":"BEDFORD 0.6 WNW, CAN","Latitude":"44.72917","Longitude":"-63.67521","Snowdepth":"2.000","Units":"in","Rept_Date":"2019-11-29 12"},"coordinates":[7551,5011]},{"type":"Point","properties":{"Station_ID":"CAN-MB-63","Station_Nam":"STEINBACH 0.8 SSE, CA","Latitude":"49.51964","Longitude":"-96.67940","Snowdepth":"2.000","Units":"in","Rept_Date":"2019-11-29 13"},"coordinates":[125,8426]},{"type":"Point","properties":{"Station_ID":"BRCM5","Station_Nam":"BRICELYN","Latitude":"43.54400","Longitude":"-93.84230","Snowdepth":"2.000","Units":"in","Rept_Date":"2019-11-29 13"},"coordinates":[763,4166]},{"type":"Point","properties":{"Station_ID":"ALMW3","Station_Nam":"ALMA DAM 4","Latitude":"44.32710","Longitude":"-91.91940","Snowdepth":"2.000","Units":"in","Rept_Date":"2019-11-29 14"},"coordinates":[1196,4724]},{"type":"Point","properties":{"Station_ID":"CAN-NL-11","Station_Nam":"MOUNT PEARL 2.1 SSE, CA","Latitude":"47.50347","Longitude":"-52.79730","Snowdepth":"1.900","Units":"in","Rept_Date":"2019-11-29 10"},"coordinates":[9999,6988]},{"type":"Point","properties":{"Station_ID":"CAN-NL-79","Station_Nam":"MOUNT PEARL 1.3 WNW, CAN","Latitude":"47.51955","Longitude":"-52.82838","Snowdepth":"1.600","Units":"in","Rept_Date":"2019-11-29 09"},"coordinates":[9992,7000]},{"type":"Point","properties":{"Station_ID":"VT-OG-11","Station_Nam":"VERSHIRE 1.5 ESE, VT","Latitude":"43.96138","Longitude":"-72.29777","Snowdepth":"1.500","Units":"in","Rept_Date":"2019-11-29 12"},"coordinates":[5611,4463]},{"type":"Point","properties":{"Station_ID":"SD-BK-7","Station_Nam":"BROOKINGS 0.2 SSW, SD","Latitude":"44.30389","Longitude":"-96.78780","Snowdepth":"1.500","Units":"in","Rept_Date":"2019-11-29 13"},"coordinates":[100,4708]},{"type":"Point","properties":{"Station_ID":"NY-WR-10","Station_Nam":"WARRENSBURG 2.1 WNW, NY","Latitude":"43.51784","Longitude":"-73.81069","Snowdepth":"1.500","Units":"in","Rept_Date":"2019-11-29 13"},"coordinates":[5271,4147]},{"type":"Point","properties":{"Station_ID":"MN-IT-11","Station_Nam":"NASHWAUK 11.5 N, MN","Latitude":"47.54496","Longitude":"-93.19420","Snowdepth":"1.500","Units":"in","Rept_Date":"2019-11-29 13"},"coordinates":[909,7018]},{"type":"Point","properties":{"Station_ID":"MN-IT-1","Station_Nam":"GRAND RAPIDS 2.0 E, MN","Latitude":"47.22266","Longitude":"-93.49600","Snowdepth":"1.500","Units":"in","Rept_Date":"2019-11-29 15"},"coordinates":[841,6788]},{"type":"Point","properties":{"Station_ID":"MN-GH-3","Station_Nam":"LAKE CITY 1.2 NNW, MN","Latitude":"44.45597","Longitude":"-92.29070","Snowdepth":"1.500","Units":"in","Rept_Date":"2019-11-29 13"},"coordinates":[1112,4816]},{"type":"Point","properties":{"Station_ID":"MN-BM-15","Station_Nam":"BEMIDJI 7.8 ENE, MN","Latitude":"47.52043","Longitude":"-94.72121","Snowdepth":"1.500","Units":"in","Rept_Date":"2019-11-29 13"},"coordinates":[565,7000]},{"type":"Point","properties":{"Station_ID":"ME-WL-8","Station_Nam":"WINTERPORT 2.9 N, ME","Latitude":"44.69369","Longitude":"-68.84800","Snowdepth":"1.500","Units":"in","Rept_Date":"2019-11-29 12"},"coordinates":[6387,4985]},{"type":"Point","properties":{"Station_ID":"IA-WH-5","Station_Nam":"DECORAH 4.9SE, IA","Latitude":"43.26481","Longitude":"-91.70294","Snowdepth":"1.500","Units":"in","Rept_Date":"2019-11-29 13"},"coordinates":[1244,3967]},{"type":"Point","properties":{"Station_ID":"IA-WH-1","Station_Nam":"DECORAH 7.9 ENE, IA","Latitude":"43.34391","Longitude":"-91.64430","Snowdepth":"1.500","Units":"in","Rept_Date":"2019-11-29 14"},"coordinates":[1258,4023]},{"type":"Point","properties":{"Station_ID":"MRL","Station_Nam":"MRL","Latitude":"51.28330","Longitude":"-68.84060","Snowdepth":"1.220","Units":"in","Rept_Date":"2019-11-29 12"},"coordinates":[6389,9683]},{"type":"Point","properties":{"Station_ID":"CAN-NS-56","Station_Nam":"HAMMOND PLAINS 2.9 WSW, CA","Latitude":"44.72456","Longitude":"-63.81920","Snowdepth":"1.200","Units":"in","Rept_Date":"2019-11-29 12"},"coordinates":[7519,5007]},{"type":"Point","properties":{"Station_ID":"CAN-NS-160","Station_Nam":"DARTMOUTH 2.3 ENE, CAN","Latitude":"44.67708","Longitude":"-63.53360","Snowdepth":"1.200","Units":"in","Rept_Date":"2019-11-29 11"},"coordinates":[7583,4974]},{"type":"Point","properties":{"Station_ID":"CAN-NL-14","Station_Nam":"WHITBOURNE 1.4 NE, CA","Latitude":"47.42741","Longitude":"-53.51950","Snowdepth":"1.200","Units":"in","Rept_Date":"2019-11-29 12"},"coordinates":[9836,6934]},{"type":"Point","properties":{"Station_ID":"CAN-NB-84","Station_Nam":"NORTON 7.1 WNW - KWRC, CAN","Latitude":"45.66195","Longitude":"-65.78279","Snowdepth":"1.200","Units":"in","Rept_Date":"2019-11-29 12"},"coordinates":[7077,5676]},{"type":"Point","properties":{"Station_ID":"CAN-NB-5","Station_Nam":"OAK POINT 0.9 SSW, CA","Latitude":"45.50752","Longitude":"-66.09860","Snowdepth":"1.200","Units":"in","Rept_Date":"2019-11-29 12"},"coordinates":[7006,5566]},{"type":"Point","properties":{"Station_ID":"WNDP1","Station_Nam":"WINDBER COUNTY CLUB","Latitude":"40.28780","Longitude":"-78.77530","Snowdepth":"1.000","Units":"in","Rept_Date":"2019-11-29 12"},"coordinates":[4153,1845]},{"type":"Point","properties":{"Station_ID":"WIRW3","Station_Nam":"WIS RAPIDS GRAND AV B","Latitude":"44.39940","Longitude":"-89.83050","Snowdepth":"1.000","Units":"in","Rept_Date":"2019-11-29 13"},"coordinates":[1666,4776]},{"type":"Point","properties":{"Station_ID":"WI-VR-6","Station_Nam":"STODDARD 0.1 SW, WI","Latitude":"43.66050","Longitude":"-91.21930","Snowdepth":"1.000","Units":"in","Rept_Date":"2019-11-29 13"},"coordinates":[1353,4249]},{"type":"Point","properties":{"Station_ID":"VT-WS-33","Station_Nam":"WAITSFIELD 3.5 WNW, VT","Latitude":"44.20052","Longitude":"-72.89421","Snowdepth":"1.000","Units":"in","Rept_Date":"2019-11-29 13"},"coordinates":[5477,4634]},{"type":"Point","properties":{"Station_ID":"VT-OL-2","Station_Nam":"BARTON 3.0 ENE, VT","Latitude":"44.75863","Longitude":"-72.11680","Snowdepth":"1.000","Units":"in","Rept_Date":"2019-11-29 12"},"coordinates":[5652,5032]},{"type":"Point","properties":{"Station_ID":"VT-OL-1","Station_Nam":"WESTFIELD 0.7 WNW, VT","Latitude":"44.89160","Longitude":"-72.44350","Snowdepth":"1.000","Units":"in","Rept_Date":"2019-11-29 13"},"coordinates":[5578,5126]},{"type":"Point","properties":{"Station_ID":"VT-LM-7","Station_Nam":"HYDE PARK 2.9 NE, VT","Latitude":"44.62080","Longitude":"-72.57250","Snowdepth":"1.000","Units":"in","Rept_Date":"2019-11-29 13"},"coordinates":[5549,4933]},{"type":"Point","properties":{"Station_ID":"VT-CH-13","Station_Nam":"RICHMOND 3.4 SSE, VT","Latitude":"44.36084","Longitude":"-72.96400","Snowdepth":"1.000","Units":"in","Rept_Date":"2019-11-29 12"},"coordinates":[5461,4748]},{"type":"Point","properties":{"Station_ID":"VT-CH-11","Station_Nam":"UNDERHILL 5.1 NNE, VT","Latitude":"44.59811","Longitude":"-72.91880","Snowdepth":"1.000","Units":"in","Rept_Date":"2019-11-29 13"},"coordinates":[5471,4917]},{"type":"Point","properties":{"Station_ID":"SVSN6","Station_Nam":"SILVER SPRINGS 3N","Latitude":"42.70580","Longitude":"-78.09370","Snowdepth":"1.000","Units":"in","Rept_Date":"2019-11-29 12"},"coordinates":[4307,3568]},{"type":"Point","properties":{"Station_ID":"STDW3","Station_Nam":"STODDARD","Latitude":"43.66020","Longitude":"-91.21930","Snowdepth":"1.000","Units":"in","Rept_Date":"2019-11-29 13"},"coordinates":[1353,4249]},{"type":"Point","properties":{"Station_ID":"SD-BK-9","Station_Nam":"BRUCE 4.1 NE, SD","Latitude":"44.48479","Longitude":"-96.83750","Snowdepth":"1.000","Units":"in","Rept_Date":"2019-11-29 13"},"coordinates":[89,4837]},{"type":"Point","properties":{"Station_ID":"SD-BK-2","Station_Nam":"ASTORIA 2.2 SSE, SD","Latitude":"44.53093","Longitude":"-96.52270","Snowdepth":"1.000","Units":"in","Rept_Date":"2019-11-29 13"},"coordinates":[160,4869]},{"type":"Point","properties":{"Station_ID":"SACI4","Station_Nam":"SAC CITY,IA","Latitude":"42.42390","Longitude":"-94.99080","Snowdepth":"1.000","Units":"in","Rept_Date":"2019-11-29 12"},"coordinates":[505,3367]},{"type":"Point","properties":{"Station_ID":"RRVM4","Station_Nam":"RAPID RIVER 9S","Latitude":"45.78750","Longitude":"-86.93920","Snowdepth":"1.000","Units":"in","Rept_Date":"2019-11-29 16"},"coordinates":[2316,5765]},{"type":"Point","properties":{"Station_ID":"RDFN6","Station_Nam":"REDFIELD 8N","Latitude":"43.64130","Longitude":"-75.88400","Snowdepth":"1.000","Units":"in","Rept_Date":"2019-11-29 12"},"coordinates":[4804,4235]},{"type":"Point","properties":{"Station_ID":"PLOW3","Station_Nam":"PLOVER","Latitude":"44.44280","Longitude":"-89.54530","Snowdepth":"1.000","Units":"in","Rept_Date":"2019-11-29 13"},"coordinates":[1730,4807]},{"type":"Point","properties":{"Station_ID":"PITW3","Station_Nam":"PITTSVILLE-WWTP","Latitude":"44.43690","Longitude":"-90.13170","Snowdepth":"1.000","Units":"in","Rept_Date":"2019-11-29 13"},"coordinates":[1598,4802]},{"type":"Point","properties":{"Station_ID":"ORAN3","Station_Nam":"ORANGE","Latitude":"43.66880","Longitude":"-71.94830","Snowdepth":"1.000","Units":"in","Rept_Date":"2019-11-29 12"},"coordinates":[5690,4255]},{"type":"Point","properties":{"Station_ID":"OAXN1","Station_Nam":"VALLEY 1WNW","Latitude":"41.31970","Longitude":"-96.36720","Snowdepth":"1.000","Units":"in","Rept_Date":"2019-11-30 06"},"coordinates":[195,2580]},{"type":"Point","properties":{"Station_ID":"OAX","Station_Nam":"OMAHA, NE","Latitude":"41.32000","Longitude":"-96.36670","Snowdepth":"1.000","Units":"in","Rept_Date":"2019-11-30 00"},"coordinates":[195,2581]},{"type":"Point","properties":{"Station_ID":"NY-SR-22","Station_Nam":"GREENFIELD CENTER 1.6 W, NY","Latitude":"43.12684","Longitude":"-73.87860","Snowdepth":"1.000","Units":"in","Rept_Date":"2019-11-29 13"},"coordinates":[5255,3868]},