{"type":"Topology","objects":{"snowdepth_geo":{"type":"GeometryCollection","name":"snowdepth","crs":{"type":"name","properties":{"name":"urn:ogc:def:crs:OGC:1.3:CRS84"}},"geometries":[{"type":"Point","properties":{"Station_ID":"MMSV1","Station_Nam":"MOUNT MANSFIELD","Latitude":"44.53330","Longitude":"-72.83330","Snowdepth":"79.000","Units":"in","Rept_Date":"2019-11-03 05"},"coordinates":[9999,3074]},{"type":"Point","properties":{"Station_ID":"PRKM4","Station_Nam":"MUNISING EAST","Latitude":"46.42580","Longitude":"-86.62000","Snowdepth":"76.500","Units":"in","Rept_Date":"2019-11-03 06"},"coordinates":[3579,4896]},{"type":"Point","properties":{"Station_ID":"OGIQ6","Station_Nam":"OGOKI CAMP","Latitude":"50.76680","Longitude":"-87.85820","Snowdepth":"61.100","Units":"in","Rept_Date":"2019-11-03 06"},"coordinates":[3002,9075]},{"type":"Point","properties":{"Station_ID":"AUDQ6","Station_Nam":"AUDEN","Latitude":"48.52600","Longitude":"-82.57570","Snowdepth":"47.640","Units":"in","Rept_Date":"2019-11-03 06"},"coordinates":[5462,6918]},{"type":"Point","properties":{"Station_ID":"DVLQ6","Station_Nam":"DEVIOUS LAKE","Latitude":"49.19890","Longitude":"-87.76440","Snowdepth":"43.460","Units":"in","Rept_Date":"2019-11-03 06"},"coordinates":[3046,7565]},{"type":"Point","properties":{"Station_ID":"APXM4","Station_Nam":"GAYLORD 9SSW","Latitude":"44.90720","Longitude":"-84.71880","Snowdepth":"5.000","Units":"in","Rept_Date":"2019-11-03 06"},"coordinates":[4464,3434]},{"type":"Point","properties":{"Station_ID":"GNLM4","Station_Nam":"GREENLAND 6N","Latitude":"46.87360","Longitude":"-89.10060","Snowdepth":"4.000","Units":"in","Rept_Date":"2019-11-02 12"},"coordinates":[2424,5327]},{"type":"Point","properties":{"Station_ID":"MI-CF-9","Station_Nam":"GRAYLING 15.8 NE, MI","Latitude":"44.80464","Longitude":"-84.46313","Snowdepth":"3.500","Units":"in","Rept_Date":"2019-11-02 11"},"coordinates":[4583,3335]},{"type":"Point","properties":{"Station_ID":"WI-WK-65","Station_Nam":"EAGLE 3.4 SW, WI","Latitude":"42.85067","Longitude":"-88.52596","Snowdepth":"3.000","Units":"in","Rept_Date":"2019-11-02 13"},"coordinates":[2691,1454]},{"type":"Point","properties":{"Station_ID":"WI-WK-61","Station_Nam":"HARTLAND 5.0 NNE, WI","Latitude":"43.16351","Longitude":"-88.30400","Snowdepth":"3.000","Units":"in","Rept_Date":"2019-11-02 12"},"coordinates":[2795,1755]},{"type":"Point","properties":{"Station_ID":"TAHW3","Station_Nam":"TAYCHEEDAH","Latitude":"43.83390","Longitude":"-88.34690","Snowdepth":"3.000","Units":"in","Rept_Date":"2019-11-02 12"},"coordinates":[2775,2401]},{"type":"Point","properties":{"Station_ID":"LEWM4","Station_Nam":"LEWISTON 3W","Latitude":"44.88210","Longitude":"-84.36540","Snowdepth":"3.000","Units":"in","Rept_Date":"2019-11-02 12"},"coordinates":[4629,3410]},{"type":"Point","properties":{"Station_ID":"CHMW3","Station_Nam":"MADISON,WI","Latitude":"43.06030","Longitude":"-89.47810","Snowdepth":"3.000","Units":"in","Rept_Date":"2019-11-02 13"},"coordinates":[2248,1656]},{"type":"Point","properties":{"Station_ID":"SOCQ6","Station_Nam":"SOCKET LAKE","Latitude":"50.77870","Longitude":"-91.79300","Snowdepth":"2.830","Units":"in","Rept_Date":"2019-11-03 06"},"coordinates":[1170,9086]},{"type":"Point","properties":{"Station_ID":"WI-WW-12","Station_Nam":"ELKHORN 0.4 ESE, WI","Latitude":"42.66970","Longitude":"-88.53170","Snowdepth":"2.800","Units":"in","Rept_Date":"2019-11-02 10"},"coordinates":[2689,1280]},{"type":"Point","properties":{"Station_ID":"SVBQ6","Station_Nam":"SAVANT BASE","Latitude":"50.28730","Longitude":"-90.65670","Snowdepth":"2.560","Units":"in","Rept_Date":"2019-11-03 06"},"coordinates":[1699,8613]},{"type":"Point","properties":{"Station_ID":"WI-RK-6","Station_Nam":"EVANSVILLE 0.4 E, WI","Latitude":"42.77913","Longitude":"-89.29020","Snowdepth":"2.400","Units":"in","Rept_Date":"2019-11-02 14"},"coordinates":[2336,1385]},{"type":"Point","properties":{"Station_ID":"CATQ6","Station_Nam":"CAT LAKE","Latitude":"51.72690","Longitude":"-91.82210","Snowdepth":"2.240","Units":"in","Rept_Date":"2019-11-03 06"},"coordinates":[1156,9999]},{"type":"Point","properties":{"Station_ID":"MI-AT-6","Station_Nam":"MANCELONA 0.5 ESE, MI","Latitude":"44.89981","Longitude":"-85.05100","Snowdepth":"2.200","Units":"in","Rept_Date":"2019-11-02 12"},"coordinates":[4310,3427]},{"type":"Point","properties":{"Station_ID":"FTHQ6","Station_Nam":"FORT HOPE","Latitude":"51.55820","Longitude":"-87.90510","Snowdepth":"2.090","Units":"in","Rept_Date":"2019-11-03 06"},"coordinates":[2981,9837]},{"type":"Point","properties":{"Station_ID":"WI-WS-5","Station_Nam":"JACKSON 0.2 WSW, WI","Latitude":"43.32007","Longitude":"-88.16820","Snowdepth":"2.000","Units":"in","Rept_Date":"2019-11-02 11"},"coordinates":[2858,1906]},{"type":"Point","properties":{"Station_ID":"WI-WS-15","Station_Nam":"WEST BEND 5.4 SE, WI","Latitude":"43.37259","Longitude":"-88.10086","Snowdepth":"2.000","Units":"in","Rept_Date":"2019-11-02 13"},"coordinates":[2889,1957]},{"type":"Point","properties":{"Station_ID":"WI-WK-55","Station_Nam":"HARTLAND 4.4 NNE, WI","Latitude":"43.15341","Longitude":"-88.30146","Snowdepth":"2.000","Units":"in","Rept_Date":"2019-11-02 12"},"coordinates":[2796,1746]},{"type":"Point","properties":{"Station_ID":"WI-RC-3","Station_Nam":"RACINE 2.3 WSW, WI","Latitude":"42.71124","Longitude":"-87.84570","Snowdepth":"2.000","Units":"in","Rept_Date":"2019-11-02 12"},"coordinates":[3008,1320]},{"type":"Point","properties":{"Station_ID":"WI-AD-5","Station_Nam":"NEKOOSA 8.0 SSE, WI","Latitude":"44.20533","Longitude":"-89.84798","Snowdepth":"2.000","Units":"in","Rept_Date":"2019-11-02 12"},"coordinates":[2076,2758]},{"type":"Point","properties":{"Station_ID":"ROCW3","Station_Nam":"ROCHESTER WWTP","Latitude":"42.72690","Longitude":"-88.22580","Snowdepth":"2.000","Units":"in","Rept_Date":"2019-11-02 14"},"coordinates":[2831,1335]},{"type":"Point","properties":{"Station_ID":"RCHW3","Station_Nam":"RICHRIELD,WI","Latitude":"43.21080","Longitude":"-88.20940","Snowdepth":"2.000","Units":"in","Rept_Date":"2019-11-02 11"},"coordinates":[2839,1801]},{"type":"Point","properties":{"Station_ID":"PYRW3","Station_Nam":"PALMYRA WWTP","Latitude":"42.88720","Longitude":"-88.58310","Snowdepth":"2.000","Units":"in","Rept_Date":"2019-11-02 12"},"coordinates":[2665,1489]},{"type":"Point","properties":{"Station_ID":"NGLW3","Station_Nam":"NEW GLARUS","Latitude":"42.83500","Longitude":"-89.62080","Snowdepth":"2.000","Units":"in","Rept_Date":"2019-11-02 12"},"coordinates":[2182,1439]},{"type":"Point","properties":{"Station_ID":"MI-OT-17","Station_Nam":"GAYLORD 4.1 S, MI","Latitude":"44.96388","Longitude":"-84.68467","Snowdepth":"2.000","Units":"in","Rept_Date":"2019-11-02 11"},"coordinates":[4480,3488]},{"type":"Point","properties":{"Station_ID":"LUPM4","Station_Nam":"LUPTON 1S","Latitude":"44.41990","Longitude":"-84.02320","Snowdepth":"2.000","Units":"in","Rept_Date":"2019-11-02 12"},"coordinates":[4788,2965]},{"type":"Point","properties":{"Station_ID":"JACW3","Station_Nam":"JACKSON","Latitude":"43.31940","Longitude":"-88.16810","Snowdepth":"2.000","Units":"in","Rept_Date":"2019-11-02 11"},"coordinates":[2858,1905]},{"type":"Point","properties":{"Station_ID":"ALLW3","Station_Nam":"ALLENTON","Latitude":"43.42360","Longitude":"-88.35110","Snowdepth":"2.000","Units":"in","Rept_Date":"2019-11-02 12"},"coordinates":[2773,2006]},{"type":"Point","properties":{"Station_ID":"IL-MCH-83","Station_Nam":"CRYSTAL LAKE 1.0 WSW, IL","Latitude":"42.22882","Longitude":"-88.34964","Snowdepth":"1.800","Units":"in","Rept_Date":"2019-11-02 12"},"coordinates":[2774,855]},{"type":"Point","properties":{"Station_ID":"WI-WS-16","Station_Nam":"GERMANTOWN 1.3 NE, WI","Latitude":"43.23127","Longitude":"-88.10234","Snowdepth":"1.500","Units":"in","Rept_Date":"2019-11-02 11"},"coordinates":[2889,1821]},{"type":"Point","properties":{"Station_ID":"IL-HY-5","Station_Nam":"COAL VALLEY 1.9 SE, IL","Latitude":"41.43339","Longitude":"-90.41750","Snowdepth":"1.500","Units":"in","Rept_Date":"2019-11-02 12"},"coordinates":[1811,90]},{"type":"Point","properties":{"Station_ID":"WTBW3","Station_Nam":"WEST BEND PUBLIC WORKS","Latitude":"43.41110","Longitude":"-88.19380","Snowdepth":"1.000","Units":"in","Rept_Date":"2019-11-02 12"},"coordinates":[2846,1994]},{"type":"Point","properties":{"Station_ID":"WSTW3","Station_Nam":"WEST BEND -FIRE","Latitude":"43.43138","Longitude":"-88.16111","Snowdepth":"1.000","Units":"in","Rept_Date":"2019-11-02 12"},"coordinates":[2861,2013]},{"type":"Point","properties":{"Station_ID":"WSFW3","Station_Nam":"TOWN OF WESTFORD","Latitude":"43.47190","Longitude":"-88.88250","Snowdepth":"1.000","Units":"in","Rept_Date":"2019-11-02 12"},"coordinates":[2525,2052]},{"type":"Point","properties":{"Station_ID":"WI-WS-4","Station_Nam":"KEWASKUM 1.8 WNW, WI","Latitude":"43.52880","Longitude":"-88.26570","Snowdepth":"1.000","Units":"in","Rept_Date":"2019-11-02 12"},"coordinates":[2813,2107]},{"type":"Point","properties":{"Station_ID":"WI-WK-73","Station_Nam":"MENOMONEE FALLS 3.2 NNW, WI","Latitude":"43.18817","Longitude":"-88.15555","Snowdepth":"1.000","Units":"in","Rept_Date":"2019-11-02 12"},"coordinates":[2864,1779]},{"type":"Point","properties":{"Station_ID":"WI-WK-68","Station_Nam":"OCONOMOWOC 0.9 W, WI","Latitude":"43.10089","Longitude":"-88.51441","Snowdepth":"1.000","Units":"in","Rept_Date":"2019-11-02 13"},"coordinates":[2697,1695]},{"type":"Point","properties":{"Station_ID":"WI-WK-29","Station_Nam":"OCONOMOWOC 4.6 NE, WI","Latitude":"43.14621","Longitude":"-88.42860","Snowdepth":"1.000","Units":"in","Rept_Date":"2019-11-02 14"},"coordinates":[2737,1739]},{"type":"Point","properties":{"Station_ID":"WI-WH-7","Station_Nam":"WILD ROSE 0.5 E, WI","Latitude":"44.17764","Longitude":"-89.23812","Snowdepth":"1.000","Units":"in","Rept_Date":"2019-11-02 12"},"coordinates":[2360,2732]},{"type":"Point","properties":{"Station_ID":"WI-SB-19","Station_Nam":"SHEBOYGAN 0.7 SSW, WI","Latitude":"43.73560","Longitude":"-87.73490","Snowdepth":"1.000","Units":"in","Rept_Date":"2019-11-02 13"},"coordinates":[3060,2306]},{"type":"Point","properties":{"Station_ID":"WI-SB-10","Station_Nam":"RANDOM LAKE 0.5 SSE, WI","Latitude":"43.54812","Longitude":"-87.95050","Snowdepth":"1.000","Units":"in","Rept_Date":"2019-11-02 12"},"coordinates":[2959,2126]},{"type":"Point","properties":{"Station_ID":"WI-RK-12","Station_Nam":"JANESVILLE 3.1 W, WI","Latitude":"42.67576","Longitude":"-89.07614","Snowdepth":"1.000","Units":"in","Rept_Date":"2019-11-02 12"},"coordinates":[2435,1286]},{"type":"Point","properties":{"Station_ID":"WI-OZ-17","Station_Nam":"WEST BEND 7.3 E, WI","Latitude":"43.42860","Longitude":"-88.03870","Snowdepth":"1.000","Units":"in","Rept_Date":"2019-11-02 12"},"coordinates":[2918,2010]},{"type":"Point","properties":{"Station_ID":"WI-MW-18","Station_Nam":"WEST ALLIS 0.7 SSE, WI","Latitude":"42.99802","Longitude":"-88.02380","Snowdepth":"1.000","Units":"in","Rept_Date":"2019-11-02 13"},"coordinates":[2925,1596]},{"type":"Point","properties":{"Station_ID":"WI-DD-15","Station_Nam":"COLUMBUS 4.8 ENE, WI","Latitude":"43.35742","Longitude":"-88.93819","Snowdepth":"1.000","Units":"in","Rept_Date":"2019-11-02 13"},"coordinates":[2499,1942]},{"type":"Point","properties":{"Station_ID":"WI-DA-78","Station_Nam":"SUN PRAIRIE 3.0 W, WI","Latitude":"43.17607","Longitude":"-89.29134","Snowdepth":"1.000","Units":"in","Rept_Date":"2019-11-02 12"},"coordinates":[2335,1767]},{"type":"Point","properties":{"Station_ID":"WI-DA-33","Station_Nam":"OREGON 0.4 SSW, WI","Latitude":"42.92080","Longitude":"-89.38540","Snowdepth":"1.000","Units":"in","Rept_Date":"2019-11-02 12"},"coordinates":[2291,1522]},{"type":"Point","properties":{"Station_ID":"WHTW3","Station_Nam":"WHITEWATER,WI","Latitude":"42.85670","Longitude":"-88.72940","Snowdepth":"1.000","Units":"in","Rept_Date":"2019-11-02 13"},"coordinates":[2597,1460]},{"type":"Point","properties":{"Station_ID":"UGRW3","Station_Nam":"UNION GROVE,WI","Latitude":"42.70000","Longitude":"-88.03220","Snowdepth":"1.000","Units":"in","Rept_Date":"2019-11-02 12"},"coordinates":[2921,1309]},{"type":"Point","properties":{"Station_ID":"SLRW3","Station_Nam":"SLINGER","Latitude":"43.33390","Longitude":"-88.29780","Snowdepth":"1.000","Units":"in","Rept_Date":"2019-11-02 11"},"coordinates":[2798,1919]},{"type":"Point","properties":{"Station_ID":"SEEW3","Station_Nam":"SOUTH MILWAUKEE WWTP","Latitude":"42.90110","Longitude":"-87.84940","Snowdepth":"1.000","Units":"in","Rept_Date":"2019-11-02 13"},"coordinates":[3006,1503]},{"type":"Point","properties":{"Station_ID":"QNCM4","Station_Nam":"QUINCY HILL","Latitude":"47.13640","Longitude":"-88.57950","Snowdepth":"1.000","Units":"in","Rept_Date":"2019-11-02 11"},"coordinates":[2666,5580]},{"type":"Point","properties":{"Station_ID":"POYW3","Station_Nam":"POY SIPPI - 2 SW","Latitude":"44.10810","Longitude":"-89.01610","Snowdepth":"1.000","Units":"in","Rept_Date":"2019-11-02 13"},"coordinates":[2463,2665]},{"type":"Point","properties":{"Station_ID":"ONCW3","Station_Nam":"SOUTH","Latitude":"43.11170","Longitude":"-88.49970","Snowdepth":"1.000","Units":"in","Rept_Date":"2019-11-02 13"},"coordinates":[2704,1705]},{"type":"Point","properties":{"Station_ID":"MYOM4","Station_Nam":"MIO WWTP","Latitude":"44.64660","Longitude":"-84.11580","Snowdepth":"1.000","Units":"in","Rept_Date":"2019-11-02 12"},"coordinates":[4745,3183]},{"type":"Point","properties":{"Station_ID":"MSN","Station_Nam":"MADISON DANE COUNTY RGNL","Latitude":"43.13970","Longitude":"-89.33750","Snowdepth":"1.000","Units":"in","Rept_Date":"2019-11-03 00"},"coordinates":[2313,1732]},{"type":"Point","properties":{"Station_ID":"MRBW3","Station_Nam":"MT HOREB","Latitude":"42.98030","Longitude":"-89.73940","Snowdepth":"1.000","Units":"in","Rept_Date":"2019-11-02 12"},"coordinates":[2126,1579]},{"type":"Point","properties":{"Station_ID":"MI-OT-4","Station_Nam":"GAYLORD 1.7 WNW, MI","Latitude":"45.03280","Longitude":"-84.71090","Snowdepth":"1.000","Units":"in","Rept_Date":"2019-11-02 12"},"coordinates":[4468,3555]},{"type":"Point","properties":{"Station_ID":"MI-HG-1","Station_Nam":"HOUGHTON 1.6 ESE, MI","Latitude":"47.10774","Longitude":"-88.52940","Snowdepth":"1.000","Units":"in","Rept_Date":"2019-11-02 14"},"coordinates":[2690,5552]},{"type":"Point","properties":{"Station_ID":"MDDW3","Station_Nam":"MIDDLETON,WI","Latitude":"43.09060","Longitude":"-89.51470","Snowdepth":"1.000","Units":"in","Rept_Date":"2019-11-02 12"},"coordinates":[2231,1685]},{"type":"Point","properties":{"Station_ID":"LGEW3","Station_Nam":"LAKE GENEVA, WI","Latitude":"42.60000","Longitude":"-88.43440","Snowdepth":"1.000","Units":"in","Rept_Date":"2019-11-02 12"},"coordinates":[2734,1213]},{"type":"Point","properties":{"Station_ID":"LEIM5","Station_Nam":"ORR 3E","Latitude":"48.05810","Longitude":"-92.75220","Snowdepth":"1.000","Units":"in","Rept_Date":"2019-11-02 11"},"coordinates":[723,6467]},{"type":"Point","properties":{"Station_ID":"KSEM4","Station_Nam":"KALKASKA 11SE","Latitude":"44.58970","Longitude":"-85.04860","Snowdepth":"1.000","Units":"in","Rept_Date":"2019-11-02 12"},"coordinates":[4311,3128]},{"type":"Point","properties":{"Station_ID":"KMSN","Station_Nam":"MADISON DANE COUNTY RGNL","Latitude":"43.13333","Longitude":"-89.35000","Snowdepth":"1.000","Units":"in","Rept_Date":"2019-11-03 00"},"coordinates":[2308,1726]},{"type":"Point","properties":{"Station_ID":"KIMM5","Station_Nam":"KIMBALL 3N","Latitude":"45.35330","Longitude":"-94.30560","Snowdepth":"1.000","Units":"in","Rept_Date":"2019-11-02 11"},"coordinates":[0,3863]},{"type":"Point","properties":{"Station_ID":"JCBM4","Station_Nam":"JACOBSVILLE","Latitude":"47.00830","Longitude":"-88.43180","Snowdepth":"1.000","Units":"in","Rept_Date":"2019-11-02 11"},"coordinates":[2735,5457]},{"type":"Point","properties":{"Station_ID":"IL-MCH-95","Station_Nam":"CARY 0.5 SSW, IL","Latitude":"42.20235","Longitude":"-88.25224","Snowdepth":"1.000","Units":"in","Rept_Date":"2019-11-02 12"},"coordinates":[2819,830]},{"type":"Point","properties":{"Station_ID":"IL-MCH-30","Station_Nam":"WONDER LAKE 0.8 WNW, IL","Latitude":"42.38354","Longitude":"-88.37090","Snowdepth":"1.000","Units":"in","Rept_Date":"2019-11-02 12"},"coordinates":[2764,1004]},{"type":"Point","properties":{"Station_ID":"IL-LS-34","Station_Nam":"LA SALLE 0.1 W, IL","Latitude":"41.34015","Longitude":"-89.09590","Snowdepth":"1.000","Units":"in","Rept_Date":"2019-11-02 12"},"coordinates":[2426,0]},{"type":"Point","properties":{"Station_ID":"IL-JD-6","Station_Nam":"HANOVER 0.2 NW, IL","Latitude":"42.25640","Longitude":"-90.28109","Snowdepth":"1.000","Units":"in","Rept_Date":"2019-11-02 12"},"coordinates":[1874,882]},{"type":"Point","properties":{"Station_ID":"IBLM5","Station_Nam":"ISABELLA 14W","Latitude":"47.59360","Longitude":"-91.65140","Snowdepth":"1.000","Units":"in","Rept_Date":"2019-11-02 14"},"coordinates":[1236,6020]},{"type":"Point","properties":{"Station_ID":"HARW3","Station_Nam":"HARTFORD,WI","Latitude":"43.31670","Longitude":"-88.40000","Snowdepth":"1.000","Units":"in","Rept_Date":"2019-11-02 12"},"coordinates":[2750,1903]},{"type":"Point","properties":{"Station_ID":"GPBI2","Station_Nam":"GALENA","Latitude":"42.39950","Longitude":"-90.38600","Snowdepth":"1.000","Units":"in","Rept_Date":"2019-11-02 12"},"coordinates":[1825,1020]},{"type":"Point","properties":{"Station_ID":"GNFM5","Station_Nam":"GUNFLINT LAKE","Latitude":"48.16670","Longitude":"-90.88750","Snowdepth":"1.000","Units":"in","Rept_Date":"2019-11-02 12"},"coordinates":[1592,6572]},{"type":"Point","properties":{"Station_ID":"GEOI2","Station_Nam":"GENOA,IL","Latitude":"42.08000","Longitude":"-88.70750","Snowdepth":"1.000","Units":"in","Rept_Date":"2019-11-02 10"},"coordinates":[2607,712]},{"type":"Point","properties":{"Station_ID":"GAYM4","Station_Nam":"GAYLORD","Latitude":"45.03320","Longitude":"-84.71130","Snowdepth":"1.000","Units":"in","Rept_Date":"2019-11-02 12"},"coordinates":[4468,3555]},{"type":"Point","properties":{"Station_ID":"FLAM4","Station_Nam":"FIFE LAKE 2WNW","Latitude":"44.58480","Longitude":"-85.36530","Snowdepth":"1.000","Units":"in","Rept_Date":"2019-11-02 11"},"coordinates":[4163,3124]},{"type":"Point","properties":{"Station_ID":"ELYM5","Station_Nam":"ELY","Latitude":"47.90560","Longitude":"-91.82830","Snowdepth":"1.000","Units":"in","Rept_Date":"2019-11-02 13"},"coordinates":[1154,6320]},{"type":"Point","properties":{"Station_ID":"DARW3","Station_Nam":"DARLINGTON","Latitude":"42.67780","Longitude":"-90.11860","Snowdepth":"1.000","Units":"in","Rept_Date":"2019-11-02 12"},"coordinates":[1950,1288]},{"type":"Point","properties":{"Station_ID":"CLIW3","Station_Nam":"CLINTON,WI","Latitude":"42.60000","Longitude":"-88.88330","Snowdepth":"1.000","Units":"in","Rept_Date":"2019-11-02 12"},"coordinates":[2525,1213]},{"type":"Point","properties":{"Station_ID":"BGTW3","Station_Nam":"SEWAGE DISPOSAL PLANT","Latitude":"42.68330","Longitude":"-88.20000","Snowdepth":"1.000","Units":"in","Rept_Date":"2019-11-02 11"},"coordinates":[2843,1293]},{"type":"Point","properties":{"Station_ID":"BFDW3","Station_Nam":"BROOKFIELD","Latitude":"43.05390","Longitude":"-88.17640","Snowdepth":"1.000","Units":"in","Rept_Date":"2019-11-02 12"},"coordinates":[2854,1650]},{"type":"Point","properties":{"Station_ID":"BAGM4","Station_Nam":"BARAGA 7NW","Latitude":"46.82100","Longitude":"-88.60590","Snowdepth":"1.000","Units":"in","Rept_Date":"2019-11-02 12"},"coordinates":[2654,5276]},{"type":"Point","properties":{"Station_ID":"ATMM4","Station_Nam":"ATLANTIC MINE 5NW","Latitude":"47.15440","Longitude":"-88.71670","Snowdepth":"1.000","Units":"in","Rept_Date":"2019-11-02 14"},"coordinates":[2603,5597]}]}},"arcs":[],"transform":{"scale":[0.002147444744474448,0.0010387788778877885],"translate":[-94.3056,41.34015]}}