{"type":"Topology","objects":{"snowdepth_geo":{"type":"GeometryCollection","name":"snowdepth","crs":{"type":"name","properties":{"name":"urn:ogc:def:crs:OGC:1.3:CRS84"}},"geometries":[{"type":"Point","properties":{"Station_ID":"NH-MR-6","Station_Nam":"DANBURY 2.2 ESE, NH","Latitude":"43.52000","Longitude":"-71.81900","Snowdepth":"90.000","Units":"in","Rept_Date":"2020-01-01 12"},"coordinates":[6112,2976]},{"type":"Point","properties":{"Station_ID":"PRKM4","Station_Nam":"MUNISING EAST","Latitude":"46.42580","Longitude":"-86.62000","Snowdepth":"76.500","Units":"in","Rept_Date":"2020-01-02 06"},"coordinates":[2553,5463]},{"type":"Point","properties":{"Station_ID":"OGIQ6","Station_Nam":"OGOKI CAMP","Latitude":"50.76680","Longitude":"-87.85820","Snowdepth":"61.100","Units":"in","Rept_Date":"2020-01-02 06"},"coordinates":[2255,9177]},{"type":"Point","properties":{"Station_ID":"AUDQ6","Station_Nam":"AUDEN","Latitude":"48.52600","Longitude":"-82.57570","Snowdepth":"47.640","Units":"in","Rept_Date":"2020-01-02 06"},"coordinates":[3526,7260]},{"type":"Point","properties":{"Station_ID":"DVLQ6","Station_Nam":"DEVIOUS LAKE","Latitude":"49.19890","Longitude":"-87.76440","Snowdepth":"43.460","Units":"in","Rept_Date":"2020-01-02 06"},"coordinates":[2278,7836]},{"type":"Point","properties":{"Station_ID":"PDLM4","Station_Nam":"PAINESDALE","Latitude":"47.04160","Longitude":"-88.67170","Snowdepth":"39.000","Units":"in","Rept_Date":"2020-01-01 13"},"coordinates":[2060,5990]},{"type":"Point","properties":{"Station_ID":"HTLN3","Station_Nam":"HERMIT LAKE SNOWPLOT","Latitude":"44.26130","Longitude":"-71.28330","Snowdepth":"37.000","Units":"in","Rept_Date":"2020-01-01 10"},"coordinates":[6241,3611]},{"type":"Point","properties":{"Station_ID":"QOU","Station_Nam":"QOU","Latitude":"50.79250","Longitude":"-69.67470","Snowdepth":"31.378","Units":"in","Rept_Date":"2020-01-01 12"},"coordinates":[6628,9199]},{"type":"Point","properties":{"Station_ID":"WLFM5","Station_Nam":"WOLF RIDGE ENVIRON LEARNING CENTER","Latitude":"47.38240","Longitude":"-91.19730","Snowdepth":"31.000","Units":"in","Rept_Date":"2020-01-01 13"},"coordinates":[1453,6281]},{"type":"Point","properties":{"Station_ID":"KSGM4","Station_Nam":"KEARSARGE","Latitude":"47.27520","Longitude":"-88.41700","Snowdepth":"31.000","Units":"in","Rept_Date":"2020-01-01 13"},"coordinates":[2121,6190]},{"type":"Point","properties":{"Station_ID":"QGO","Station_Nam":"QGO","Latitude":"48.85500","Longitude":"-74.20640","Snowdepth":"30.276","Units":"in","Rept_Date":"2020-01-01 12"},"coordinates":[5538,7541]},{"type":"Point","properties":{"Station_ID":"GMSM4","Station_Nam":"GRAND MARAIS 10S","Latitude":"46.50940","Longitude":"-85.96310","Snowdepth":"30.000","Units":"in","Rept_Date":"2020-01-01 12"},"coordinates":[2711,5534]},{"type":"Point","properties":{"Station_ID":"MLZ","Station_Nam":"MLZ","Latitude":"50.66170","Longitude":"-68.82360","Snowdepth":"29.291","Units":"in","Rept_Date":"2020-01-01 12"},"coordinates":[6832,9087]},{"type":"Point","properties":{"Station_ID":"QGD","Station_Nam":"QGD","Latitude":"51.11140","Longitude":"-67.13940","Snowdepth":"28.071","Units":"in","Rept_Date":"2020-01-01 12"},"coordinates":[7237,9472]},{"type":"Point","properties":{"Station_ID":"QNCM4","Station_Nam":"QUINCY HILL","Latitude":"47.13640","Longitude":"-88.57950","Snowdepth":"28.000","Units":"in","Rept_Date":"2020-01-01 13"},"coordinates":[2082,6071]},{"type":"Point","properties":{"Station_ID":"MI-BG-3","Station_Nam":"L'ANSE 17.8 SE, MI","Latitude":"46.55730","Longitude":"-88.20770","Snowdepth":"28.000","Units":"in","Rept_Date":"2020-01-01 13"},"coordinates":[2171,5575]},{"type":"Point","properties":{"Station_ID":"IWOM4","Station_Nam":"IRONWOOD#2","Latitude":"46.46520","Longitude":"-90.13820","Snowdepth":"27.000","Units":"in","Rept_Date":"2020-01-01 13"},"coordinates":[1707,5496]},{"type":"Point","properties":{"Station_ID":"IBLM5","Station_Nam":"ISABELLA 14W","Latitude":"47.59360","Longitude":"-91.65140","Snowdepth":"27.000","Units":"in","Rept_Date":"2020-01-01 15"},"coordinates":[1343,6462]},{"type":"Point","properties":{"Station_ID":"NOHM5","Station_Nam":"NORTHOME","Latitude":"47.83590","Longitude":"-94.25550","Snowdepth":"26.000","Units":"in","Rept_Date":"2020-01-01 13"},"coordinates":[717,6669]},{"type":"Point","properties":{"Station_ID":"MQT","Station_Nam":"MARQUETTE, MI","Latitude":"46.53140","Longitude":"-87.54920","Snowdepth":"26.000","Units":"in","Rept_Date":"2020-01-02 06"},"coordinates":[2330,5553]},{"type":"Point","properties":{"Station_ID":"WRPW3","Station_Nam":"WATER PURIFICATION PLANT","Latitude":"44.38800","Longitude":"-89.80550","Snowdepth":"25.000","Units":"in","Rept_Date":"2020-01-01 12"},"coordinates":[1787,3719]},{"type":"Point","properties":{"Station_ID":"MN-SL-15","Station_Nam":"CHISHOLM 0.4 WSW, MN","Latitude":"47.48557","Longitude":"-92.88690","Snowdepth":"25.000","Units":"in","Rept_Date":"2020-01-01 13"},"coordinates":[1046,6370]},{"type":"Point","properties":{"Station_ID":"HURW3","Station_Nam":"HURLEY","Latitude":"46.46250","Longitude":"-90.19550","Snowdepth":"25.000","Units":"in","Rept_Date":"2020-01-01 14"},"coordinates":[1693,5494]},{"type":"Point","properties":{"Station_ID":"QCU","Station_Nam":"QCU","Latitude":"47.82750","Longitude":"-76.59830","Snowdepth":"24.016","Units":"in","Rept_Date":"2020-01-01 12"},"coordinates":[4963,6662]},{"type":"Point","properties":{"Station_ID":"WRSM5","Station_Nam":"WRENSHALL","Latitude":"46.61550","Longitude":"-92.38380","Snowdepth":"24.000","Units":"in","Rept_Date":"2020-01-01 14"},"coordinates":[1167,5625]},{"type":"Point","properties":{"Station_ID":"WI-VL-10","Station_Nam":"LAND O LAKES 4.3 WNW, WI","Latitude":"46.17440","Longitude":"-89.30380","Snowdepth":"24.000","Units":"in","Rept_Date":"2020-01-01 13"},"coordinates":[1908,5248]},{"type":"Point","properties":{"Station_ID":"BBEM4","Station_Nam":"BIG BAY 9SW","Latitude":"46.74620","Longitude":"-87.88160","Snowdepth":"24.000","Units":"in","Rept_Date":"2020-01-01 13"},"coordinates":[2250,5737]},{"type":"Point","properties":{"Station_ID":"QLB","Station_Nam":"QLB","Latitude":"50.72360","Longitude":"-75.10000","Snowdepth":"23.898","Units":"in","Rept_Date":"2020-01-01 12"},"coordinates":[5323,9140]},{"type":"Point","properties":{"Station_ID":"QCX","Station_Nam":"QCX","Latitude":"51.32830","Longitude":"-70.08060","Snowdepth":"23.701","Units":"in","Rept_Date":"2020-01-01 12"},"coordinates":[6530,9658]},{"type":"Point","properties":{"Station_ID":"MN-BK-6","Station_Nam":"LAKE PARK 6.0 S, MN","Latitude":"46.79850","Longitude":"-96.12180","Snowdepth":"23.500","Units":"in","Rept_Date":"2020-01-01 13"},"coordinates":[269,5782]},{"type":"Point","properties":{"Station_ID":"TWOM5","Station_Nam":"TWO HARBORS,MN","Latitude":"47.12580","Longitude":"-91.70750","Snowdepth":"23.000","Units":"in","Rept_Date":"2020-01-02 01"},"coordinates":[1330,6062]},{"type":"Point","properties":{"Station_ID":"PDGM4","Station_Nam":"PAULDING","Latitude":"46.39760","Longitude":"-89.17940","Snowdepth":"23.000","Units":"in","Rept_Date":"2020-01-01 15"},"coordinates":[1938,5439]},{"type":"Point","properties":{"Station_ID":"MCLN8","Station_Nam":"MC LEOD,ND","Latitude":"46.40250","Longitude":"-97.23810","Snowdepth":"23.000","Units":"in","Rept_Date":"2020-01-01 14"},"coordinates":[0,5443]},{"type":"Point","properties":{"Station_ID":"GNLM4","Station_Nam":"GREENLAND 6N","Latitude":"46.87360","Longitude":"-89.10060","Snowdepth":"23.000","Units":"in","Rept_Date":"2020-01-01 13"},"coordinates":[1957,5846]},{"type":"Point","properties":{"Station_ID":"NY-JF-30","Station_Nam":"WEST CARTHAGE 0.3 ENE, NY","Latitude":"43.97493","Longitude":"-75.61640","Snowdepth":"22.500","Units":"in","Rept_Date":"2020-01-01 12"},"coordinates":[5199,3365]},{"type":"Point","properties":{"Station_ID":"WTRM4","Station_Nam":"WATERSMEET 12WSW","Latitude":"46.22310","Longitude":"-89.40850","Snowdepth":"22.000","Units":"in","Rept_Date":"2020-01-01 12"},"coordinates":[1883,5289]},{"type":"Point","properties":{"Station_ID":"WI-VL-9","Station_Nam":"LAND O' LAKES 11.7 W, WI","Latitude":"46.19023","Longitude":"-89.45790","Snowdepth":"22.000","Units":"in","Rept_Date":"2020-01-01 13"},"coordinates":[1871,5261]},{"type":"Point","properties":{"Station_ID":"LNOW3","Station_Nam":"LAND O LAKES","Latitude":"46.19000","Longitude":"-89.45700","Snowdepth":"22.000","Units":"in","Rept_Date":"2020-01-01 13"},"coordinates":[1871,5261]},{"type":"Point","properties":{"Station_ID":"KISM4","Station_Nam":"K.I. SAWYER WWTP","Latitude":"46.33410","Longitude":"-87.37790","Snowdepth":"22.000","Units":"in","Rept_Date":"2020-01-01 13"},"coordinates":[2371,5384]},{"type":"Point","properties":{"Station_ID":"ILIM5","Station_Nam":"ISLAND LAKE","Latitude":"47.02400","Longitude":"-92.07000","Snowdepth":"22.000","Units":"in","Rept_Date":"2020-01-01 15"},"coordinates":[1243,5975]},{"type":"Point","properties":{"Station_ID":"QYR","Station_Nam":"QYR","Latitude":"48.87220","Longitude":"-75.61470","Snowdepth":"21.496","Units":"in","Rept_Date":"2020-01-01 12"},"coordinates":[5199,7556]},{"type":"Point","properties":{"Station_ID":"WI-WB-2","Station_Nam":"STONE LAKE 2.0 NW, WI","Latitude":"45.85960","Longitude":"-91.57710","Snowdepth":"21.000","Units":"in","Rept_Date":"2020-01-01 13"},"coordinates":[1361,4978]},{"type":"Point","properties":{"Station_ID":"MNSM4","Station_Nam":"MUNISING","Latitude":"46.41210","Longitude":"-86.66250","Snowdepth":"21.000","Units":"in","Rept_Date":"2020-01-01 11"},"coordinates":[2543,5451]},{"type":"Point","properties":{"Station_ID":"MI-MQ-19","Station_Nam":"ISHPEMING 7.2 SW, MI","Latitude":"46.40550","Longitude":"-87.75670","Snowdepth":"21.000","Units":"in","Rept_Date":"2020-01-01 11"},"coordinates":[2280,5445]},{"type":"Point","properties":{"Station_ID":"MI-HG-1","Station_Nam":"HOUGHTON 1.6 ESE, MI","Latitude":"47.10774","Longitude":"-88.52940","Snowdepth":"21.000","Units":"in","Rept_Date":"2020-01-01 13"},"coordinates":[2094,6046]},{"type":"Point","properties":{"Station_ID":"MAIW3","Station_Nam":"MADELINE ISLAND","Latitude":"46.78330","Longitude":"-90.76670","Snowdepth":"21.000","Units":"in","Rept_Date":"2020-01-01 14"},"coordinates":[1556,5769]},{"type":"Point","properties":{"Station_ID":"LVDW3","Station_Nam":"LAC VIEUX DESERT","Latitude":"46.12110","Longitude":"-89.07580","Snowdepth":"21.000","Units":"in","Rept_Date":"2020-01-01 15"},"coordinates":[1963,5202]},{"type":"Point","properties":{"Station_ID":"IRMM4","Station_Nam":"WWTP","Latitude":"46.46670","Longitude":"-90.18330","Snowdepth":"21.000","Units":"in","Rept_Date":"2020-01-01 13"},"coordinates":[1696,5498]},{"type":"Point","properties":{"Station_ID":"GLRM5","Station_Nam":"GLACIAL RIDGE","Latitude":"47.71670","Longitude":"-96.26670","Snowdepth":"21.000","Units":"in","Rept_Date":"2020-01-02 06"},"coordinates":[234,6567]},{"type":"Point","properties":{"Station_ID":"DLHM5","Station_Nam":"DULUTH NWS","Latitude":"46.83680","Longitude":"-92.21080","Snowdepth":"21.000","Units":"in","Rept_Date":"2020-01-02 06"},"coordinates":[1209,5814]},{"type":"Point","properties":{"Station_ID":"DLH","Station_Nam":"DULUTH, MN","Latitude":"46.83690","Longitude":"-92.21030","Snowdepth":"21.000","Units":"in","Rept_Date":"2020-01-02 00"},"coordinates":[1209,5815]},{"type":"Point","properties":{"Station_ID":"BNDM5","Station_Nam":"ELY 25E","Latitude":"47.97190","Longitude":"-91.44860","Snowdepth":"21.000","Units":"in","Rept_Date":"2020-01-01 13"},"coordinates":[1392,6786]},{"type":"Point","properties":{"Station_ID":"WI-IR-2","Station_Nam":"MERCER 2.0 SE, WI","Latitude":"46.14749","Longitude":"-90.03097","Snowdepth":"20.800","Units":"in","Rept_Date":"2020-01-01 13"},"coordinates":[1733,5225]},{"type":"Point","properties":{"Station_ID":"MN-IT-23","Station_Nam":"BOVEY 13.4 N, MN","Latitude":"47.48855","Longitude":"-93.43497","Snowdepth":"20.500","Units":"in","Rept_Date":"2020-01-01 13"},"coordinates":[915,6372]},{"type":"Point","properties":{"Station_ID":"QWE","Station_Nam":"QWE","Latitude":"47.84610","Longitude":"-73.80670","Snowdepth":"20.236","Units":"in","Rept_Date":"2020-01-01 12"},"coordinates":[5634,6678]},{"type":"Point","properties":{"Station_ID":"WI-DG-16","Station_Nam":"POPLAR 2.0 E, WI","Latitude":"46.58390","Longitude":"-91.74620","Snowdepth":"20.000","Units":"in","Rept_Date":"2020-01-01 13"},"coordinates":[1321,5598]},{"type":"Point","properties":{"Station_ID":"WI-BY-14","Station_Nam":"ASHLAND 9.8 W, WI","Latitude":"46.59742","Longitude":"-91.07856","Snowdepth":"20.000","Units":"in","Rept_Date":"2020-01-01 13"},"coordinates":[1481,5610]},{"type":"Point","properties":{"Station_ID":"STGW3","Station_Nam":"ST GERMAIN","Latitude":"45.91550","Longitude":"-89.48940","Snowdepth":"20.000","Units":"in","Rept_Date":"2020-01-01 12"},"coordinates":[1863,5026]},{"type":"Point","properties":{"Station_ID":"HERM4","Station_Nam":"HERMAN,MI","Latitude":"46.65000","Longitude":"-88.33330","Snowdepth":"20.000","Units":"in","Rept_Date":"2020-01-01 13"},"coordinates":[2141,5655]},{"type":"Point","properties":{"Station_ID":"EVRW3","Station_Nam":"EAGLE RIVER-4 E","Latitude":"45.91890","Longitude":"-89.15280","Snowdepth":"20.000","Units":"in","Rept_Date":"2020-01-01 13"},"coordinates":[1944,5029]},{"type":"Point","properties":{"Station_ID":"CSLM5","Station_Nam":"CASS LAKE,MN","Latitude":"47.38470","Longitude":"-94.61470","Snowdepth":"20.000","Units":"in","Rept_Date":"2020-01-01 14"},"coordinates":[631,6283]},{"type":"Point","properties":{"Station_ID":"CLKS2","Station_Nam":"WATERTOWN-23MI.ESE","Latitude":"44.75000","Longitude":"-96.68330","Snowdepth":"20.000","Units":"in","Rept_Date":"2020-01-01 15"},"coordinates":[134,4029]},{"type":"Point","properties":{"Station_ID":"BRMM5","Station_Nam":"BRIMSON 2S","Latitude":"47.24720","Longitude":"-91.86240","Snowdepth":"20.000","Units":"in","Rept_Date":"2020-01-02 01"},"coordinates":[1293,6166]},{"type":"Point","properties":{"Station_ID":"QMD","Station_Nam":"QMD","Latitude":"49.29060","Longitude":"-75.84500","Snowdepth":"19.961","Units":"in","Rept_Date":"2020-01-01 12"},"coordinates":[5144,7914]},{"type":"Point","properties":{"Station_ID":"CAN-NB-50","Station_Nam":"DOYLEVILLE 2.4 WNW, CAN","Latitude":"47.90803","Longitude":"-66.13279","Snowdepth":"19.700","Units":"in","Rept_Date":"2020-01-01 13"},"coordinates":[7479,6731]},{"type":"Point","properties":{"Station_ID":"PTLQ6","Station_Nam":"PORTAGE LAKE","Latitude":"49.06950","Longitude":"-86.65940","Snowdepth":"19.610","Units":"in","Rept_Date":"2020-01-02 06"},"coordinates":[2544,7725]},{"type":"Point","properties":{"Station_ID":"MN-SL-18","Station_Nam":"DULUTH 1.4 NNW, MN","Latitude":"46.80321","Longitude":"-92.11240","Snowdepth":"19.500","Units":"in","Rept_Date":"2020-01-01 14"},"coordinates":[1233,5786]},{"type":"Point","properties":{"Station_ID":"SVBQ6","Station_Nam":"SAVANT BASE","Latitude":"50.28730","Longitude":"-90.65670","Snowdepth":"19.490","Units":"in","Rept_Date":"2020-01-02 06"},"coordinates":[1583,8767]},{"type":"Point","properties":{"Station_ID":"QTV","Station_Nam":"QTV","Latitude":"49.66000","Longitude":"-69.35690","Snowdepth":"19.449","Units":"in","Rept_Date":"2020-01-01 12"},"coordinates":[6704,8230]},{"type":"Point","properties":{"Station_ID":"QFT","Station_Nam":"QFT","Latitude":"50.83280","Longitude":"-74.40390","Snowdepth":"19.016","Units":"in","Rept_Date":"2020-01-01 12"},"coordinates":[5491,9234]},{"type":"Point","properties":{"Station_ID":"WI-VL-14","Station_Nam":"BOULDER JUNCTION 1.4 NE, WI","Latitude":"46.12840","Longitude":"-89.62470","Snowdepth":"19.000","Units":"in","Rept_Date":"2020-01-01 13"},"coordinates":[1831,5208]},{"type":"Point","properties":{"Station_ID":"THRM5","Station_Nam":"THORHULT,MN","Latitude":"48.21670","Longitude":"-95.25000","Snowdepth":"19.000","Units":"in","Rept_Date":"2020-01-01 23"},"coordinates":[478,6995]},{"type":"Point","properties":{"Station_ID":"MN-IT-17","Station_Nam":"GRAND RAPIDS 6.1 N, MN","Latitude":"47.31165","Longitude":"-93.55036","Snowdepth":"19.000","Units":"in","Rept_Date":"2020-01-01 13"},"coordinates":[887,6221]},{"type":"Point","properties":{"Station_ID":"MN-BM-15","Station_Nam":"BEMIDJI 7.8 ENE, MN","Latitude":"47.52043","Longitude":"-94.72121","Snowdepth":"19.000","Units":"in","Rept_Date":"2020-01-01 13"},"coordinates":[605,6399]},{"type":"Point","properties":{"Station_ID":"KABM5","Station_Nam":"KABETOGAMA LAKE VISITOR CTR","Latitude":"48.40880","Longitude":"-93.04840","Snowdepth":"19.000","Units":"in","Rept_Date":"2020-01-01 13"},"coordinates":[1008,7160]},{"type":"Point","properties":{"Station_ID":"COVM4","Station_Nam":"COVINGTON","Latitude":"46.55880","Longitude":"-88.54190","Snowdepth":"19.000","Units":"in","Rept_Date":"2020-01-01 13"},"coordinates":[2091,5577]},{"type":"Point","properties":{"Station_ID":"CMKW3","Station_Nam":"CLAM LAKE 4W","Latitude":"46.16940","Longitude":"-90.98080","Snowdepth":"19.000","Units":"in","Rept_Date":"2020-01-01 13"},"coordinates":[1505,5243]},{"type":"Point","properties":{"Station_ID":"MFU","Station_Nam":"MFU","Latitude":"51.52170","Longitude":"-66.91110","Snowdepth":"18.504","Units":"in","Rept_Date":"2020-01-01 12"},"coordinates":[7292,9823]},{"type":"Point","properties":{"Station_ID":"WI-DG-20","Station_Nam":"SOLON SPRINGS 1.2 W, WI","Latitude":"46.35217","Longitude":"-91.84405","Snowdepth":"18.000","Units":"in","Rept_Date":"2020-01-01 13"},"coordinates":[1297,5400]},{"type":"Point","properties":{"Station_ID":"SUAW3","Station_Nam":"SUAMICO","Latitude":"44.60190","Longitude":"-88.09780","Snowdepth":"18.000","Units":"in","Rept_Date":"2020-01-01 12"},"coordinates":[2198,3902]},{"type":"Point","properties":{"Station_ID":"RHIW3","Station_Nam":"RHINELANDER","Latitude":"45.59860","Longitude":"-89.45080","Snowdepth":"18.000","Units":"in","Rept_Date":"2020-01-01 13"},"coordinates":[1873,4755]},{"type":"Point","properties":{"Station_ID":"PRDM4","Station_Nam":"PARADISE","Latitude":"46.60380","Longitude":"-85.03960","Snowdepth":"18.000","Units":"in","Rept_Date":"2020-01-01 11"},"coordinates":[2933,5615]},{"type":"Point","properties":{"Station_ID":"NYMM5","Station_Nam":"NEW YORK MILLS","Latitude":"46.50920","Longitude":"-95.37990","Snowdepth":"18.000","Units":"in","Rept_Date":"2020-01-01 15"},"coordinates":[447,5534]},{"type":"Point","properties":{"Station_ID":"MN-PK-15","Station_Nam":"MENTOR 2.5 SSW, MN","Latitude":"47.66625","Longitude":"-96.17328","Snowdepth":"18.000","Units":"in","Rept_Date":"2020-01-01 14"},"coordinates":[256,6524]},{"type":"Point","properties":{"Station_ID":"ELYM5","Station_Nam":"ELY","Latitude":"47.90560","Longitude":"-91.82830","Snowdepth":"18.000","Units":"in","Rept_Date":"2020-01-01 14"},"coordinates":[1301,6729]},{"type":"Point","properties":{"Station_ID":"EGRW3","Station_Nam":"EAGLE RIVER-SOUTH","Latitude":"45.91360","Longitude":"-89.24360","Snowdepth":"18.000","Units":"in","Rept_Date":"2020-01-01 13"},"coordinates":[1922,5024]},{"type":"Point","properties":{"Station_ID":"TRIQ6","Station_Nam":"TRIO LAKE","Latitude":"49.22880","Longitude":"-87.22920","Snowdepth":"17.910","Units":"in","Rept_Date":"2020-01-02 06"},"coordinates":[2407,7861]},{"type":"Point","properties":{"Station_ID":"KABQ6","Station_Nam":"CAB LAKE","Latitude":"49.59950","Longitude":"-89.17990","Snowdepth":"17.400","Units":"in","Rept_Date":"2020-01-02 06"},"coordinates":[1938,8179]},{"type":"Point","properties":{"Station_ID":"ND-CS-25","Station_Nam":"FARGO 2.1 N, ND","Latitude":"46.90816","Longitude":"-96.77937","Snowdepth":"17.000","Units":"in","Rept_Date":"2020-01-01 14"},"coordinates":[110,5876]},{"type":"Point","properties":{"Station_ID":"MN-SL-108","Station_Nam":"IRON JUNCTION 3.4 NNW, MN","Latitude":"47.46150","Longitude":"-92.63130","Snowdepth":"17.000","Units":"in","Rept_Date":"2020-01-01 13"},"coordinates":[1108,6349]},{"type":"Point","properties":{"Station_ID":"GLDM4","Station_Nam":"GLADSTONE NO. 2","Latitude":"45.84330","Longitude":"-87.03910","Snowdepth":"17.000","Units":"in","Rept_Date":"2020-01-01 12"},"coordinates":[2452,4964]},{"type":"Point","properties":{"Station_ID":"FAR","Station_Nam":"HECTOR INTERNATIONAL ARPT","Latitude":"46.91560","Longitude":"-96.81440","Snowdepth":"17.000","Units":"in","Rept_Date":"2020-01-01 12"},"coordinates":[102,5882]},{"type":"Point","properties":{"Station_ID":"CLKM4","Station_Nam":"CLARKSBURG","Latitude":"46.49910","Longitude":"-87.84500","Snowdepth":"17.000","Units":"in","Rept_Date":"2020-01-01 12"},"coordinates":[2259,5525]},{"type":"Point","properties":{"Station_ID":"QLP","Station_Nam":"QLP","Latitude":"48.13920","Longitude":"-72.63830","Snowdepth":"16.929","Units":"in","Rept_Date":"2020-01-01 12"},"coordinates":[5915,6929]},{"type":"Point","properties":{"Station_ID":"QIQ","Station_Nam":"QIQ","Latitude":"49.82390","Longitude":"-68.54310","Snowdepth":"16.929","Units":"in","Rept_Date":"2020-01-01 12"},"coordinates":[6900,8371]},{"type":"Point","properties":{"Station_ID":"QCO","Station_Nam":"QCO","Latitude":"51.45280","Longitude":"-72.20110","Snowdepth":"16.811","Units":"in","Rept_Date":"2020-01-01 12"},"coordinates":[6020,9764]},{"type":"Point","properties":{"Station_ID":"QMA","Station_Nam":"QMA","Latitude":"50.10330","Longitude":"-70.47190","Snowdepth":"16.693","Units":"in","Rept_Date":"2020-01-01 12"},"coordinates":[6436,8610]},{"type":"Point","properties":{"Station_ID":"WI-BY-1","Station_Nam":"BAYFIELD 8.8 N, WI","Latitude":"46.93855","Longitude":"-90.83490","Snowdepth":"16.500","Units":"in","Rept_Date":"2020-01-01 13"},"coordinates":[1540,5902]},{"type":"Point","properties":{"Station_ID":"TOHM5","Station_Nam":"TWO HARBORS WWTP","Latitude":"47.01760","Longitude":"-91.66480","Snowdepth":"16.000","Units":"in","Rept_Date":"2020-01-01 13"},"coordinates":[1340,5969]},{"type":"Point","properties":{"Station_ID":"SBNM5","Station_Nam":"SABIN","Latitude":"46.77690","Longitude":"-96.65610","Snowdepth":"16.000","Units":"in","Rept_Date":"2020-01-01 17"},"coordinates":[140,5763]},{"type":"Point","properties":{"Station_ID":"RLKW3","Station_Nam":"REST LAKE","Latitude":"46.12220","Longitude":"-89.87720","Snowdepth":"16.000","Units":"in","Rept_Date":"2020-01-01 14"},"coordinates":[1770,5203]},{"type":"Point","properties":{"Station_ID":"OTTM5","Station_Nam":"OTTERTAIL,MN","Latitude":"46.41670","Longitude":"-95.56670","Snowdepth":"16.000","Units":"in","Rept_Date":"2020-01-01 14"},"coordinates":[402,5455]},{"type":"Point","properties":{"Station_ID":"NH-CS-10","Station_Nam":"RANDOLPH 1.4 NE, NH","Latitude":"44.38824","Longitude":"-71.26950","Snowdepth":"16.000","Units":"in","Rept_Date":"2020-01-01 12"},"coordinates":[6244,3719]},{"type":"Point","properties":{"Station_ID":"NH-CR-26","Station_Nam":"CENTER SANDWICH 4.9 E, NH","Latitude":"43.80976","Longitude":"-71.34150","Snowdepth":"16.000","Units":"in","Rept_Date":"2020-01-01 12"},"coordinates":[6227,3224]},{"type":"Point","properties":{"Station_ID":"LTMW3","Station_Nam":"LAKE TOMAHAWK 2 SE","Latitude":"45.80750","Longitude":"-89.55830","Snowdepth":"16.000","Units":"in","Rept_Date":"2020-01-01 12"},"coordinates":[1847,4934]},{"type":"Point","properties":{"Station_ID":"LEIM5","Station_Nam":"ORR 3E","Latitude":"48.05810","Longitude":"-92.75220","Snowdepth":"16.000","Units":"in","Rept_Date":"2020-01-01 12"},"coordinates":[1079,6860]},{"type":"Point","properties":{"Station_ID":"INL","Station_Nam":"FALLS INTERNATIONAL ARPT","Latitude":"48.56640","Longitude":"-93.40310","Snowdepth":"16.000","Units":"in","Rept_Date":"2020-01-02 00"},"coordinates":[922,7295]},{"type":"Point","properties":{"Station_ID":"IFSM5","Station_Nam":"INTERNATIONAL FALLS SNOW","Latitude":"48.57780","Longitude":"-93.39640","Snowdepth":"16.000","Units":"in","Rept_Date":"2020-01-02 06"},"coordinates":[924,7304]},{"type":"Point","properties":{"Station_ID":"GRFN8","Station_Nam":"UNIVERSITY","Latitude":"47.93330","Longitude":"-97.08330","Snowdepth":"16.000","Units":"in","Rept_Date":"2020-01-02 06"},"coordinates":[37,6753]},{"type":"Point","properties":{"Station_ID":"GNFM5","Station_Nam":"GUNFLINT LAKE","Latitude":"48.16670","Longitude":"-90.88750","Snowdepth":"16.000","Units":"in","Rept_Date":"2020-01-01 13"},"coordinates":[1527,6952]},{"type":"Point","properties":{"Station_ID":"GGRM4","Station_Nam":"GREEN GARDEN NO.2","Latitude":"46.45330","Longitude":"-87.30380","Snowdepth":"16.000","Units":"in","Rept_Date":"2020-01-01 14"},"coordinates":[2389,5486]},{"type":"Point","properties":{"Station_ID":"FDRN8","Station_Nam":"FARGO 3S","Latitude":"46.82930","Longitude":"-96.79620","Snowdepth":"16.000","Units":"in","Rept_Date":"2020-01-02 06"},"coordinates":[106,5808]},{"type":"Point","properties":{"Station_ID":"ESDN3","Station_Nam":"EAST SANDWICH","Latitude":"43.80990","Longitude":"-71.34250","Snowdepth":"16.000","Units":"in","Rept_Date":"2020-01-01 11"},"coordinates":[6227,3224]},{"type":"Point","properties":{"Station_ID":"CRVW3","Station_Nam":"CRIVITZ HIGH FALLS","Latitude":"45.35750","Longitude":"-88.19190","Snowdepth":"16.000","Units":"in","Rept_Date":"2020-01-01 13"},"coordinates":[2175,4549]},{"type":"Point","properties":{"Station_ID":"BFHW3","Station_Nam":"BAYFIELD FISH HATCHERY","Latitude":"46.78670","Longitude":"-90.86420","Snowdepth":"16.000","Units":"in","Rept_Date":"2020-01-01 14"},"coordinates":[1533,5772]},{"type":"Point","properties":{"Station_ID":"AVTW3","Station_Nam":"ARBOR VITAE-JOHNSON LAKE","Latitude":"45.89940","Longitude":"-89.72670","Snowdepth":"16.000","Units":"in","Rept_Date":"2020-01-01 12"},"coordinates":[1806,5012]},{"type":"Point","properties":{"Station_ID":"QLM","Station_Nam":"QLM","Latitude":"48.92030","Longitude":"-70.25280","Snowdepth":"15.709","Units":"in","Rept_Date":"2020-01-01 12"},"coordinates":[6489,7597]},{"type":"Point","properties":{"Station_ID":"QGA","Station_Nam":"QGA","Latitude":"47.25640","Longitude":"-73.73810","Snowdepth":"15.551","Units":"in","Rept_Date":"2020-01-01 12"},"coordinates":[5651,6174]},{"type":"Point","properties":{"Station_ID":"WI-ON-6","Station_Nam":"RHINELANDER 5.2 N, WI","Latitude":"45.71388","Longitude":"-89.42150","Snowdepth":"15.500","Units":"in","Rept_Date":"2020-01-01 15"},"coordinates":[1880,4854]},{"type":"Point","properties":{"Station_ID":"SOCQ6","Station_Nam":"SOCKET LAKE","Latitude":"50.77870","Longitude":"-91.79300","Snowdepth":"15.280","Units":"in","Rept_Date":"2020-01-02 06"},"coordinates":[1309,9188]},{"type":"Point","properties":{"Station_ID":"QLI","Station_Nam":"QLI","Latitude":"50.27080","Longitude":"-73.92280","Snowdepth":"15.118","Units":"in","Rept_Date":"2020-01-01 12"},"coordinates":[5606,8753]},{"type":"Point","properties":{"Station_ID":"WI-PR-6","Station_Nam":"PHILLIPS 1.3 S, WI","Latitude":"45.67677","Longitude":"-90.39543","Snowdepth":"15.000","Units":"in","Rept_Date":"2020-01-01 12"},"coordinates":[1645,4822]},{"type":"Point","properties":{"Station_ID":"RLWM5","Station_Nam":"CAMP NORRIS DNR","Latitude":"48.61000","Longitude":"-95.18170","Snowdepth":"15.000","Units":"in","Rept_Date":"2020-01-01 15"},"coordinates":[495,7332]},{"type":"Point","properties":{"Station_ID":"MIEM4","Station_Nam":"MICHIGAMME 3WNW","Latitude":"46.54530","Longitude":"-88.18000","Snowdepth":"15.000","Units":"in","Rept_Date":"2020-01-01 13"},"coordinates":[2178,5565]},{"type":"Point","properties":{"Station_ID":"MI-AT-6","Station_Nam":"MANCELONA 0.5 ESE, MI","Latitude":"44.89981","Longitude":"-85.05100","Snowdepth":"15.000","Units":"in","Rept_Date":"2020-01-01 13"},"coordinates":[2930,4157]},{"type":"Point","properties":{"Station_ID":"IL-DP-78","Station_Nam":"NAPERVILLE 2.4 SE, IL","Latitude":"41.74184","Longitude":"-88.11620","Snowdepth":"15.000","Units":"in","Rept_Date":"2020-01-01 13"},"coordinates":[2193,1455]},{"type":"Point","properties":{"Station_ID":"GHMN3","Station_Nam":"PINKHAM NOTCH","Latitude":"44.25800","Longitude":"-71.25250","Snowdepth":"15.000","Units":"in","Rept_Date":"2020-01-01 11"},"coordinates":[6248,3608]},{"type":"Point","properties":{"Station_ID":"CBVM1","Station_Nam":"CARRABASSETT VALLEY","Latitude":"45.08040","Longitude":"-70.30310","Snowdepth":"15.000","Units":"in","Rept_Date":"2020-01-01 12"},"coordinates":[6477,4311]},{"type":"Point","properties":{"Station_ID":"CANM5","Station_Nam":"CANBY","Latitude":"44.71840","Longitude":"-96.26960","Snowdepth":"15.000","Units":"in","Rept_Date":"2020-01-01 14"},"coordinates":[233,4002]},{"type":"Point","properties":{"Station_ID":"CAN-NB-105","Station_Nam":"SISSON BROOK 3.8 E, CAN","Latitude":"46.98305","Longitude":"-67.32532","Snowdepth":"15.000","Units":"in","Rept_Date":"2020-01-01 12"},"coordinates":[7193,5940]},{"type":"Point","properties":{"Station_ID":"BRUM5","Station_Nam":"BRUNO,MN","Latitude":"46.28330","Longitude":"-92.50000","Snowdepth":"15.000","Units":"in","Rept_Date":"2020-01-01 14"},"coordinates":[1139,5341]},{"type":"Point","properties":{"Station_ID":"BRDM1","Station_Nam":"BRIDGEWATER","Latitude":"46.42870","Longitude":"-67.84370","Snowdepth":"15.000","Units":"in","Rept_Date":"2020-01-01 23"},"coordinates":[7068,5465]},{"type":"Point","properties":{"Station_ID":"BRAM5","Station_Nam":"BRAINERD","Latitude":"46.34320","Longitude":"-94.20900","Snowdepth":"15.000","Units":"in","Rept_Date":"2020-01-01 13"},"coordinates":[728,5392]},{"type":"Point","properties":{"Station_ID":"BETM1","Station_Nam":"BETHEL 6 SSE","Latitude":"44.32000","Longitude":"-70.75680","Snowdepth":"15.000","Units":"in","Rept_Date":"2020-01-01 12"},"coordinates":[6367,3661]},{"type":"Point","properties":{"Station_ID":"BAGM4","Station_Nam":"BARAGA 7NW","Latitude":"46.82100","Longitude":"-88.60590","Snowdepth":"15.000","Units":"in","Rept_Date":"2020-01-01 13"},"coordinates":[2076,5801]},{"type":"Point","properties":{"Station_ID":"AGNW3","Station_Nam":"ARGONNE-1.5 NW","Latitude":"45.67360","Longitude":"-88.90380","Snowdepth":"15.000","Units":"in","Rept_Date":"2020-01-01 13"},"coordinates":[2004,4819]},{"type":"Point","properties":{"Station_ID":"MN-IT-7","Station_Nam":"GRAND RAPIDS 6.2 SSW, MN","Latitude":"47.13687","Longitude":"-93.56660","Snowdepth":"14.800","Units":"in","Rept_Date":"2020-01-01 12"},"coordinates":[883,6071]},{"type":"Point","properties":{"Station_ID":"WI-AS-4","Station_Nam":"ASHLAND 0.5 WNW, WI","Latitude":"46.58240","Longitude":"-90.88390","Snowdepth":"14.500","Units":"in","Rept_Date":"2020-01-01 13"},"coordinates":[1528,5597]},{"type":"Point","properties":{"Station_ID":"WTNM4","Station_Nam":"WATTON 2WSW","Latitude":"46.52660","Longitude":"-88.64240","Snowdepth":"14.000","Units":"in","Rept_Date":"2020-01-01 13"},"coordinates":[2067,5549]},{"type":"Point","properties":{"Station_ID":"WI-RS-1","Station_Nam":"LADYSMITH 2.8 WNW, WI","Latitude":"45.48180","Longitude":"-91.14680","Snowdepth":"14.000","Units":"in","Rept_Date":"2020-01-01 13"},"coordinates":[1465,4655]},{"type":"Point","properties":{"Station_ID":"WI-PR-2","Station_Nam":"BUTTERNUT 5.9 SW, WI","Latitude":"45.96501","Longitude":"-90.59750","Snowdepth":"14.000","Units":"in","Rept_Date":"2020-01-01 12"},"coordinates":[1597,5068]},{"type":"Point","properties":{"Station_ID":"RARM4","Station_Nam":"RAPID RIVER 1 SW","Latitude":"45.91500","Longitude":"-86.98800","Snowdepth":"14.000","Units":"in","Rept_Date":"2020-01-01 12"},"coordinates":[2465,5026]},{"type":"Point","properties":{"Station_ID":"MN-IT-1","Station_Nam":"GRAND RAPIDS 2.0 E, MN","Latitude":"47.22266","Longitude":"-93.49600","Snowdepth":"14.000","Units":"in","Rept_Date":"2020-01-01 15"},"coordinates":[900,6145]},{"type":"Point","properties":{"Station_ID":"MN-CW-22","Station_Nam":"FORT RIPLEY 0.8 N, MN","Latitude":"46.18089","Longitude":"-94.36510","Snowdepth":"14.000","Units":"in","Rept_Date":"2020-01-01 13"},"coordinates":[691,5253]},{"type":"Point","properties":{"Station_ID":"MN-CK-18","Station_Nam":"GRAND MARAIS 4.4 WSW, MN","Latitude":"47.74462","Longitude":"-90.43796","Snowdepth":"14.000","Units":"in","Rept_Date":"2020-01-01 13"},"coordinates":[1635,6591]},{"type":"Point","properties":{"Station_ID":"MN-BK-10","Station_Nam":"DETROIT LAKES 5.7 N, MN","Latitude":"46.88666","Longitude":"-95.84444","Snowdepth":"14.000","Units":"in","Rept_Date":"2020-01-01 10"},"coordinates":[335,5857]},{"type":"Point","properties":{"Station_ID":"JCBM4","Station_Nam":"JACOBSVILLE","Latitude":"47.00830","Longitude":"-88.43180","Snowdepth":"14.000","Units":"in","Rept_Date":"2020-01-01 12"},"coordinates":[2118,5961]},{"type":"Point","properties":{"Station_ID":"GRBM5","Station_Nam":"GRAND RAPIDS 12N","Latitude":"47.39800","Longitude":"-93.51330","Snowdepth":"14.000","Units":"in","Rept_Date":"2020-01-01 13"},"coordinates":[896,6295]},{"type":"Point","properties":{"Station_ID":"COUW3","Station_Nam":"COUDERAY,WI","Latitude":"45.86670","Longitude":"-91.45000","Snowdepth":"14.000","Units":"in","Rept_Date":"2020-01-01 22"},"coordinates":[1392,4984]},{"type":"Point","properties":{"Station_ID":"AWXW3","Station_Nam":"ASHLAND","Latitude":"46.58240","Longitude":"-90.88390","Snowdepth":"14.000","Units":"in","Rept_Date":"2020-01-01 13"},"coordinates":[1528,5597]},{"type":"Point","properties":{"Station_ID":"AROM4","Station_Nam":"ARNOLD,MI","Latitude":"46.06670","Longitude":"-87.48330","Snowdepth":"14.000","Units":"in","Rept_Date":"2020-01-01 13"},"coordinates":[2346,5155]},{"type":"Point","properties":{"Station_ID":"ALBM4","Station_Nam":"ALBERTA FORD FOR CEN","Latitude":"46.64480","Longitude":"-88.48120","Snowdepth":"14.000","Units":"in","Rept_Date":"2020-01-01 14"},"coordinates":[2106,5650]},{"type":"Point","properties":{"Station_ID":"CAN-NL-81","Station_Nam":"GRAND FALLS-WINDSOR 1.2 S, CAN","Latitude":"48.93123","Longitude":"-55.65333","Snowdepth":"13.800","Units":"in","Rept_Date":"2020-01-01 11"},"coordinates":[9999,7607]},{"type":"Point","properties":{"Station_ID":"QTM","Station_Nam":"QTM","Latitude":"51.05780","Longitude":"-72.57190","Snowdepth":"13.661","Units":"in","Rept_Date":"2020-01-01 12"},"coordinates":[5931,9426]},{"type":"Point","properties":{"Station_ID":"QWG","Station_Nam":"QWG","Latitude":"48.48890","Longitude":"-73.45940","Snowdepth":"13.504","Units":"in","Rept_Date":"2020-01-01 12"},"coordinates":[5718,7228]},{"type":"Point","properties":{"Station_ID":"NH-CR-1","Station_Nam":"EAST WAKEFIELD 1.2 SE, NH","Latitude":"43.60370","Longitude":"-70.98670","Snowdepth":"13.500","Units":"in","Rept_Date":"2020-01-01 13"},"coordinates":[6312,3048]},{"type":"Point","properties":{"Station_ID":"QGT","Station_Nam":"QGT","Latitude":"49.64720","Longitude":"-67.62640","Snowdepth":"13.228","Units":"in","Rept_Date":"2020-01-01 12"},"coordinates":[7120,8219]},{"type":"Point","properties":{"Station_ID":"WRTS2","Station_Nam":"WATERTOWN,SD","Latitude":"44.90280","Longitude":"-97.11360","Snowdepth":"13.000","Units":"in","Rept_Date":"2020-01-01 15"},"coordinates":[30,4159]},{"type":"Point","properties":{"Station_ID":"TAKW3","Station_Nam":"RICE RESERVOIR NO. 2","Latitude":"45.53770","Longitude":"-89.73220","Snowdepth":"13.000","Units":"in","Rept_Date":"2020-01-01 13"},"coordinates":[1805,4703]},{"type":"Point","properties":{"Station_ID":"STMM4","Station_Nam":"STAMBAUGH 2SSE","Latitude":"46.05550","Longitude":"-88.62780","Snowdepth":"13.000","Units":"in","Rept_Date":"2020-01-01 13"},"coordinates":[2070,5146]},{"type":"Point","properties":{"Station_ID":"SRAW3","Station_Nam":"SARONA","Latitude":"45.80250","Longitude":"-91.86700","Snowdepth":"13.000","Units":"in","Rept_Date":"2020-01-01 14"},"coordinates":[1292,4929]},{"type":"Point","properties":{"Station_ID":"SIWS2","Station_Nam":"SISSETON 3W","Latitude":"45.65870","Longitude":"-97.12450","Snowdepth":"13.000","Units":"in","Rept_Date":"2020-01-01 13"},"coordinates":[27,4806]},{"type":"Point","properties":{"Station_ID":"SD-RB-1","Station_Nam":"SISSETON 3.8 W, SD","Latitude":"45.65865","Longitude":"-97.12370","Snowdepth":"13.000","Units":"in","Rept_Date":"2020-01-01 13"},"coordinates":[28,4806]},{"type":"Point","properties":{"Station_ID":"MQRW3","Station_Nam":"MINOCQUA","Latitude":"45.88630","Longitude":"-89.73220","Snowdepth":"13.000","Units":"in","Rept_Date":"2020-01-01 12"},"coordinates":[1805,5001]},{"type":"Point","properties":{"Station_ID":"ME-PN-45","Station_Nam":"MILLINOCKET 2.7 ESE, ME","Latitude":"45.65002","Longitude":"-68.64472","Snowdepth":"13.000","Units":"in","Rept_Date":"2020-01-01 12"},"coordinates":[6875,4799]},{"type":"Point","properties":{"Station_ID":"ME-AR-23","Station_Nam":"MADAWASKA 2.5 E, ME","Latitude":"47.34933","Longitude":"-68.28141","Snowdepth":"13.000","Units":"in","Rept_Date":"2020-01-01 12"},"coordinates":[6963,6253]},{"type":"Point","properties":{"Station_ID":"LGRN8","Station_Nam":"LIDGERWOOD,ND","Latitude":"46.06670","Longitude":"-97.16670","Snowdepth":"13.000","Units":"in","Rept_Date":"2020-01-01 13"},"coordinates":[17,5155]},{"type":"Point","properties":{"Station_ID":"COTM5","Station_Nam":"COTTON","Latitude":"47.16870","Longitude":"-92.46290","Snowdepth":"13.000","Units":"in","Rept_Date":"2020-01-01 14"},"coordinates":[1148,6098]},{"type":"Point","properties":{"Station_ID":"BRVM5","Station_Nam":"BROWNS VALLEY,MN","Latitude":"45.61670","Longitude":"-96.83330","Snowdepth":"13.000","Units":"in","Rept_Date":"2020-01-01 12"},"coordinates":[97,4770]},{"type":"Point","properties":{"Station_ID":"VT-OL-12","Station_Nam":"GREENSBORO 3.9 NNE, VT","Latitude":"44.63100","Longitude":"-72.28000","Snowdepth":"12.500","Units":"in","Rept_Date":"2020-01-01 13"},"coordinates":[6001,3927]},{"type":"Point","properties":{"Station_ID":"ME-CM-125","Station_Nam":"CUMBERLAND CENTER 4.4 NW, ME","Latitude":"43.84640","Longitude":"-70.31340","Snowdepth":"12.500","Units":"in","Rept_Date":"2020-01-01 12"},"coordinates":[6474,3256]},{"type":"Point","properties":{"Station_ID":"CATQ6","Station_Nam":"CAT LAKE","Latitude":"51.72690","Longitude":"-91.82210","Snowdepth":"12.320","Units":"in","Rept_Date":"2020-01-02 06"},"coordinates":[1302,9999]},{"type":"Point","properties":{"Station_ID":"WILW3","Station_Nam":"RESERVOIR","Latitude":"45.70000","Longitude":"-89.83330","Snowdepth":"12.000","Units":"in","Rept_Date":"2020-01-01 12"},"coordinates":[1781,4842]},{"type":"Point","properties":{"Station_ID":"WI-OC-1","Station_Nam":"MOUNTAIN 1.1 SW, WI","Latitude":"45.17239","Longitude":"-88.48990","Snowdepth":"12.000","Units":"in","Rept_Date":"2020-01-01 13"},"coordinates":[2104,4390]},{"type":"Point","properties":{"Station_ID":"WI-CH-7","Station_Nam":"CHIPPEWA FALLS 1.2 E, WI","Latitude":"44.92920","Longitude":"-91.36730","Snowdepth":"12.000","Units":"in","Rept_Date":"2020-01-01 13"},"coordinates":[1412,4182]},{"type":"Point","properties":{"Station_ID":"WI-CH-3","Station_Nam":"CORNELL 4.1 W, WI","Latitude":"45.17024","Longitude":"-91.23610","Snowdepth":"12.000","Units":"in","Rept_Date":"2020-01-01 14"},"coordinates":[1443,4388]},{"type":"Point","properties":{"Station_ID":"WI-BT-14","Station_Nam":"OAKLAND 9.0 ENE, WI","Latitude":"45.95184","Longitude":"-92.21653","Snowdepth":"12.000","Units":"in","Rept_Date":"2020-01-01 13"},"coordinates":[1208,5057]},{"type":"Point","properties":{"Station_ID":"WI-BR-2","Station_Nam":"CHETEK 2.0 SE, WI","Latitude":"45.29427","Longitude":"-91.62470","Snowdepth":"12.000","Units":"in","Rept_Date":"2020-01-01 13"},"coordinates":[1350,4494]},{"type":"Point","properties":{"Station_ID":"VT-WH-9","Station_Nam":"WEST HALIFAX 0.2 SE, VT","Latitude":"42.78561","Longitude":"-72.76950","Snowdepth":"12.000","Units":"in","Rept_Date":"2020-01-01 13"},"coordinates":[5883,2348]},{"type":"Point","properties":{"Station_ID":"VT-BN-12","Station_Nam":"STAMFORD 5.0 NNE, VT","Latitude":"42.82000","Longitude":"-73.02000","Snowdepth":"12.000","Units":"in","Rept_Date":"2020-01-01 21"},"coordinates":[5823,2377]},{"type":"Point","properties":{"Station_ID":"SUTV1","Station_Nam":"SUTTON","Latitude":"44.61220","Longitude":"-72.04810","Snowdepth":"12.000","Units":"in","Rept_Date":"2020-01-01 13"},"coordinates":[6057,3911]},{"type":"Point","properties":{"Station_ID":"SULW3","Station_Nam":"SUMMIT LAKE","Latitude":"45.37880","Longitude":"-89.19410","Snowdepth":"12.000","Units":"in","Rept_Date":"2020-01-01 11"},"coordinates":[1934,4567]},{"type":"Point","properties":{"Station_ID":"SSMM4","Station_Nam":"SAULT STE MARIE","Latitude":"46.48660","Longitude":"-84.40250","Snowdepth":"12.000","Units":"in","Rept_Date":"2020-01-01 13"},"coordinates":[3086,5515]},{"type":"Point","properties":{"Station_ID":"SD-RB-4","Station_Nam":"SISSETON 10.4 ENE, SD","Latitude":"45.69480","Longitude":"-96.83480","Snowdepth":"12.000","Units":"in","Rept_Date":"2020-01-01 13"},"coordinates":[97,4837]},{"type":"Point","properties":{"Station_ID":"RHRW3","Station_Nam":"RHINELANDER WJFW TV-12","Latitude":"45.62220","Longitude":"-89.41000","Snowdepth":"12.000","Units":"in","Rept_Date":"2020-01-02 04"},"coordinates":[1882,4775]},{"type":"Point","properties":{"Station_ID":"RHLW3","Station_Nam":"RHINELANDER 4NE","Latitude":"45.65270","Longitude":"-89.30740","Snowdepth":"12.000","Units":"in","Rept_Date":"2020-01-01 12"},"coordinates":[1907,4801]},{"type":"Point","properties":{"Station_ID":"RHI","Station_Nam":"RHINELANDER-ONEIDA COUNTY AIRPORT","Latitude":"45.63080","Longitude":"-89.46530","Snowdepth":"12.000","Units":"in","Rept_Date":"2020-01-02 00"},"coordinates":[1869,4782]},{"type":"Point","properties":{"Station_ID":"MOUW3","Station_Nam":"MOUNTAIN 1 SW","Latitude":"45.17220","Longitude":"-88.49390","Snowdepth":"12.000","Units":"in","Rept_Date":"2020-01-01 13"},"coordinates":[2103,4390]},{"type":"Point","properties":{"Station_ID":"MI-OT-17","Station_Nam":"GAYLORD 4.1 S, MI","Latitude":"44.96388","Longitude":"-84.68467","Snowdepth":"12.000","Units":"in","Rept_Date":"2020-01-01 13"},"coordinates":[3019,4212]},{"type":"Point","properties":{"Station_ID":"ME-SG-1","Station_Nam":"BATH 1.1 WSW, ME","Latitude":"43.93063","Longitude":"-69.85730","Snowdepth":"12.000","Units":"in","Rept_Date":"2020-01-01 12"},"coordinates":[6584,3328]},{"type":"Point","properties":{"Station_ID":"ME-CM-18","Station_Nam":"PORTLAND 5.5 WNW, ME","Latitude":"43.70288","Longitude":"-70.30550","Snowdepth":"12.000","Units":"in","Rept_Date":"2020-01-01 12"},"coordinates":[6476,3133]},{"type":"Point","properties":{"Station_ID":"ME-AR-18","Station_Nam":"NEW SWEDEN 4.9 NNW, ME","Latitude":"47.01080","Longitude":"-68.14390","Snowdepth":"12.000","Units":"in","Rept_Date":"2020-01-01 12"},"coordinates":[6996,5963]},{"type":"Point","properties":{"Station_ID":"LUCW3","Station_Nam":"LUCK","Latitude":"45.57330","Longitude":"-92.48520","Snowdepth":"12.000","Units":"in","Rept_Date":"2020-01-01 16"},"coordinates":[1143,4733]},{"type":"Point","properties":{"Station_ID":"KGFK","Station_Nam":"GRAND FORKS INTERNATIONAL","Latitude":"47.95000","Longitude":"-97.18333","Snowdepth":"12.000","Units":"in","Rept_Date":"2020-01-02 06"},"coordinates":[13,6767]},{"type":"Point","properties":{"Station_ID":"HOLW3","Station_Nam":"HOLCOMBE","Latitude":"45.22370","Longitude":"-91.12700","Snowdepth":"12.000","Units":"in","Rept_Date":"2020-01-01 13"},"coordinates":[1470,4434]},{"type":"Point","properties":{"Station_ID":"GFK","Station_Nam":"GRAND FORKS INTERNATIONAL AIRPORT","Latitude":"47.94920","Longitude":"-97.17610","Snowdepth":"12.000","Units":"in","Rept_Date":"2020-01-02 00"},"coordinates":[15,6766]},{"type":"Point","properties":{"Station_ID":"ESAM4","Station_Nam":"ESCANABA","Latitude":"45.74380","Longitude":"-87.04060","Snowdepth":"12.000","Units":"in","Rept_Date":"2020-01-01 15"},"coordinates":[2452,4879]},{"type":"Point","properties":{"Station_ID":"COKM5","Station_Nam":"COOK","Latitude":"47.85060","Longitude":"-92.69250","Snowdepth":"12.000","Units":"in","Rept_Date":"2020-01-01 12"},"coordinates":[1093,6682]},{"type":"Point","properties":{"Station_ID":"CLGM5","Station_Nam":"COLLEGEVILLE ST JOHN","Latitude":"45.57940","Longitude":"-94.39200","Snowdepth":"12.000","Units":"in","Rept_Date":"2020-01-02 00"},"coordinates":[684,4738]},{"type":"Point","properties":{"Station_ID":"CAN-NB-2","Station_Nam":"GRAFTON 2.7 NNE, CA","Latitude":"46.17062","Longitude":"-67.55330","Snowdepth":"12.000","Units":"in","Rept_Date":"2020-01-01 11"},"coordinates":[7138,5244]},{"type":"Point","properties":{"Station_ID":"BTHM1","Station_Nam":"BATH","Latitude":"43.93160","Longitude":"-69.85640","Snowdepth":"12.000","Units":"in","Rept_Date":"2020-01-01 12"},"coordinates":[6584,3328]},{"type":"Point","properties":{"Station_ID":"AVLV1","Station_Nam":"AVERILL","Latitude":"45.00570","Longitude":"-71.69030","Snowdepth":"12.000","Units":"in","Rept_Date":"2020-01-01 13"},"coordinates":[6143,4248]},{"type":"Point","properties":{"Station_ID":"ANJM4","Station_Nam":"SNOW PAID OBSERVER FOR KANJ","Latitude":"46.48670","Longitude":"-84.40260","Snowdepth":"12.000","Units":"in","Rept_Date":"2020-01-01 18"},"coordinates":[3086,5515]},{"type":"Point","properties":{"Station_ID":"ANJ","Station_Nam":"SAULT STE MARIE","Latitude":"46.46670","Longitude":"-84.36670","Snowdepth":"12.000","Units":"in","Rept_Date":"2020-01-02 00"},"coordinates":[3095,5498]},{"type":"Point","properties":{"Station_ID":"ALXM5","Station_Nam":"ALEXANDRIA","Latitude":"45.87820","Longitude":"-95.38270","Snowdepth":"12.000","Units":"in","Rept_Date":"2020-01-01 12"},"coordinates":[446,4994]},{"type":"Point","properties":{"Station_ID":"WI-SR-5","Station_Nam":"HAYWARD 9.7 NE, WI","Latitude":"46.12030","Longitude":"-91.35370","Snowdepth":"11.500","Units":"in","Rept_Date":"2020-01-01 14"},"coordinates":[1415,5201]},{"type":"Point","properties":{"Station_ID":"WI-EC-23","Station_Nam":"EAU CLAIRE 3.7 S, WI","Latitude":"44.76858","Longitude":"-91.49898","Snowdepth":"11.500","Units":"in","Rept_Date":"2020-01-01 13"},"coordinates":[1380,4045]},{"type":"Point","properties":{"Station_ID":"MN-CK-6","Station_Nam":"GRAND MARAIS 4.4 W, MN","Latitude":"47.74865","Longitude":"-90.43760","Snowdepth":"11.500","Units":"in","Rept_Date":"2020-01-01 13"},"coordinates":[1635,6595]},{"type":"Point","properties":{"Station_ID":"MI-CX-7","Station_Nam":"EAST JORDAN 2.1 NNW, MI","Latitude":"45.18639","Longitude":"-85.14750","Snowdepth":"11.500","Units":"in","Rept_Date":"2020-01-01 13"},"coordinates":[2907,4402]},{"type":"Point","properties":{"Station_ID":"ME-SM-10","Station_Nam":"NORTH NEW PORTLAND 0.3 WSW, ME","Latitude":"44.92353","Longitude":"-70.02788","Snowdepth":"11.500","Units":"in","Rept_Date":"2020-01-01 12"},"coordinates":[6543,4177]},{"type":"Point","properties":{"Station_ID":"ZNOM4","Station_Nam":"NORWAY","Latitude":"45.77810","Longitude":"-87.89560","Snowdepth":"11.000","Units":"in","Rept_Date":"2020-01-01 13"},"coordinates":[2246,4908]},{"type":"Point","properties":{"Station_ID":"WLKW3","Station_Nam":"WHITE LAKE 1 SE","Latitude":"45.14520","Longitude":"-88.74160","Snowdepth":"11.000","Units":"in","Rept_Date":"2020-01-01 14"},"coordinates":[2043,4367]},{"type":"Point","properties":{"Station_ID":"WI-MT-14","Station_Nam":"MOSINEE 2.7 WSW, WI","Latitude":"44.77240","Longitude":"-89.73441","Snowdepth":"11.000","Units":"in","Rept_Date":"2020-01-01 11"},"coordinates":[1804,4048]},{"type":"Point","properties":{"Station_ID":"WI-LN-2","Station_Nam":"MERRILL 7.0 W, WI","Latitude":"45.17746","Longitude":"-89.84820","Snowdepth":"11.000","Units":"in","Rept_Date":"2020-01-01 12"},"coordinates":[1777,4395]},{"type":"Point","properties":{"Station_ID":"WI-BY-6","Station_Nam":"BARNES 2.2 S, WI","Latitude":"46.30264","Longitude":"-91.50320","Snowdepth":"11.000","Units":"in","Rept_Date":"2020-01-01 13"},"coordinates":[1379,5357]},{"type":"Point","properties":{"Station_ID":"VT-OL-1","Station_Nam":"WESTFIELD 0.7 WNW, VT","Latitude":"44.89160","Longitude":"-72.44350","Snowdepth":"11.000","Units":"in","Rept_Date":"2020-01-01 13"},"coordinates":[5962,4150]},{"type":"Point","properties":{"Station_ID":"VT-ES-1","Station_Nam":"GRANBY 1.4 NW, VT","Latitude":"44.58330","Longitude":"-71.77870","Snowdepth":"11.000","Units":"in","Rept_Date":"2020-01-01 15"},"coordinates":[6122,3886]},{"type":"Point","properties":{"Station_ID":"PRGN6","Station_Nam":"PERRYSBURG","Latitude":"42.46470","Longitude":"-79.00310","Snowdepth":"11.000","Units":"in","Rept_Date":"2020-01-01 12"},"coordinates":[4385,2073]},{"type":"Point","properties":{"Station_ID":"NH-CR-41","Station_Nam":"ALBANY 2.8 SW, NH","Latitude":"43.92648","Longitude":"-71.21556","Snowdepth":"11.000","Units":"in","Rept_Date":"2020-01-01 13"},"coordinates":[6257,3324]},{"type":"Point","properties":{"Station_ID":"NH-CR-16","Station_Nam":"WOLFEBORO 0.6 SW, NH","Latitude":"43.58464","Longitude":"-71.21760","Snowdepth":"11.000","Units":"in","Rept_Date":"2020-01-01 12"},"coordinates":[6257,3032]},{"type":"Point","properties":{"Station_ID":"MWN","Station_Nam":"MOUNT WASHINGTON","Latitude":"44.26670","Longitude":"-71.30000","Snowdepth":"11.000","Units":"in","Rept_Date":"2020-01-02 05"},"coordinates":[6237,3615]},{"type":"Point","properties":{"Station_ID":"MTQM4","Station_Nam":"MANISTIQUE WWTP","Latitude":"45.95120","Longitude":"-86.25130","Snowdepth":"11.000","Units":"in","Rept_Date":"2020-01-01 12"},"coordinates":[2642,5057]},{"type":"Point","properties":{"Station_ID":"MN-MR-13","Station_Nam":"LITTLE FALLS 8.0 NE, MN","Latitude":"46.06785","Longitude":"-94.24789","Snowdepth":"11.000","Units":"in","Rept_Date":"2020-01-01 13"},"coordinates":[719,5156]},{"type":"Point","properties":{"Station_ID":"MLLW3","Station_Nam":"MERRILL 8W","Latitude":"45.17810","Longitude":"-89.84810","Snowdepth":"11.000","Units":"in","Rept_Date":"2020-01-01 12"},"coordinates":[1777,4395]},{"type":"Point","properties":{"Station_ID":"MI-OT-4","Station_Nam":"GAYLORD 1.7 WNW, MI","Latitude":"45.03280","Longitude":"-84.71090","Snowdepth":"11.000","Units":"in","Rept_Date":"2020-01-01 13"},"coordinates":[3012,4271]},{"type":"Point","properties":{"Station_ID":"MI-OT-16","Station_Nam":"GAYLORD 2.2 SSE, MI","Latitude":"44.99441","Longitude":"-84.65820","Snowdepth":"11.000","Units":"in","Rept_Date":"2020-01-01 14"},"coordinates":[3025,4238]},{"type":"Point","properties":{"Station_ID":"ME-YK-67","Station_Nam":"CORNISH 5.6 ESE, ME","Latitude":"43.78308","Longitude":"-70.69539","Snowdepth":"11.000","Units":"in","Rept_Date":"2020-01-01 12"},"coordinates":[6382,3201]},{"type":"Point","properties":{"Station_ID":"ME-SG-16","Station_Nam":"TOPSHAM 3.7 NE, ME","Latitude":"43.96548","Longitude":"-69.88555","Snowdepth":"11.000","Units":"in","Rept_Date":"2020-01-01 12"},"coordinates":[6577,3357]},{"type":"Point","properties":{"Station_ID":"ME-OX-2","Station_Nam":"HARTFORD 1.4 N, ME","Latitude":"44.39318","Longitude":"-70.34760","Snowdepth":"11.000","Units":"in","Rept_Date":"2020-01-01 12"},"coordinates":[6466,3723]},{"type":"Point","properties":{"Station_ID":"ME-FR-4","Station_Nam":"NEW SHARON 2.0 NW, ME","Latitude":"44.66582","Longitude":"-70.02720","Snowdepth":"11.000","Units":"in","Rept_Date":"2020-01-01 12"},"coordinates":[6543,3957]},{"type":"Point","properties":{"Station_ID":"ME-CM-86","Station_Nam":"POWNAL 4.1 S, ME","Latitude":"43.85370","Longitude":"-70.17210","Snowdepth":"11.000","Units":"in","Rept_Date":"2020-01-01 12"},"coordinates":[6508,3262]},{"type":"Point","properties":{"Station_ID":"ME-CM-3","Station_Nam":"NEW GLOUCESTER 3.0 SE, ME","Latitude":"43.92372","Longitude":"-70.25790","Snowdepth":"11.000","Units":"in","Rept_Date":"2020-01-01 12"},"coordinates":[6487,3322]},{"type":"Point","properties":{"Station_ID":"LNGM5","Station_Nam":"LONG PRAIRIE","Latitude":"45.96460","Longitude":"-94.88920","Snowdepth":"11.000","Units":"in","Rept_Date":"2020-01-01 12"},"coordinates":[565,5068]},{"type":"Point","properties":{"Station_ID":"LBRM5","Station_Nam":"LAKE BRONSON DAM","Latitude":"48.72410","Longitude":"-96.62180","Snowdepth":"11.000","Units":"in","Rept_Date":"2020-01-01 14"},"coordinates":[148,7429]},{"type":"Point","properties":{"Station_ID":"LADW3","Station_Nam":"LADYSMITH WTP","Latitude":"45.44290","Longitude":"-91.08970","Snowdepth":"11.000","Units":"in","Rept_Date":"2020-01-01 13"},"coordinates":[1478,4622]},{"type":"Point","properties":{"Station_ID":"KMWN","Station_Nam":"MOUNT WASHINGTON","Latitude":"44.26666","Longitude":"-71.30000","Snowdepth":"11.000","Units":"in","Rept_Date":"2020-01-02 06"},"coordinates":[6237,3615]},{"type":"Point","properties":{"Station_ID":"GAYM4","Station_Nam":"GAYLORD","Latitude":"45.03320","Longitude":"-84.71130","Snowdepth":"11.000","Units":"in","Rept_Date":"2020-01-01 13"},"coordinates":[3012,4271]},{"type":"Point","properties":{"Station_ID":"FLDM5","Station_Nam":"FLOODWOOD,MN","Latitude":"47.00000","Longitude":"-92.91670","Snowdepth":"11.000","Units":"in","Rept_Date":"2020-01-01 14"},"coordinates":[1039,5954]},{"type":"Point","properties":{"Station_ID":"ELRW3","Station_Nam":"EAU CLAIRE 3SW","Latitude":"44.78780","Longitude":"-91.51650","Snowdepth":"11.000","Units":"in","Rept_Date":"2020-01-02 06"},"coordinates":[1376,4061]},{"type":"Point","properties":{"Station_ID":"EJNM4","Station_Nam":"EAST JORDAN 2NW","Latitude":"45.18630","Longitude":"-85.14770","Snowdepth":"11.000","Units":"in","Rept_Date":"2020-01-01 13"},"coordinates":[2907,4402]},{"type":"Point","properties":{"Station_ID":"DURM1","Station_Nam":"DURHAM","Latitude":"43.99960","Longitude":"-70.09630","Snowdepth":"11.000","Units":"in","Rept_Date":"2020-01-01 12"},"coordinates":[6526,3387]},{"type":"Point","properties":{"Station_ID":"CORV1","Station_Nam":"CORINTH","Latitude":"44.00690","Longitude":"-72.31940","Snowdepth":"11.000","Units":"in","Rept_Date":"2020-01-01 12"},"coordinates":[5992,3393]},{"type":"Point","properties":{"Station_ID":"BMRW3","Station_Nam":"BLOOMER","Latitude":"45.09070","Longitude":"-91.48640","Snowdepth":"11.000","Units":"in","Rept_Date":"2020-01-01 14"},"coordinates":[1383,4320]},{"type":"Point","properties":{"Station_ID":"ARTM5","Station_Nam":"ARTICHOKE LAKE 1 E","Latitude":"45.38560","Longitude":"-96.12570","Snowdepth":"11.000","Units":"in","Rept_Date":"2020-01-02 00"},"coordinates":[268,4573]},{"type":"Point","properties":{"Station_ID":"ABGW3","Station_Nam":"AMBERG 9 E","Latitude":"45.48250","Longitude":"-87.81190","Snowdepth":"11.000","Units":"in","Rept_Date":"2020-01-01 12"},"coordinates":[2267,4656]},{"type":"Point","properties":{"Station_ID":"CAN-ON-757","Station_Nam":"SAULT STE. MARIE 2.8 ESE - GLFC, CAN","Latitude":"46.50300","Longitude":"-84.30300","Snowdepth":"10.600","Units":"in","Rept_Date":"2020-01-01 13"},"coordinates":[3110,5529]},{"type":"Point","properties":{"Station_ID":"NH-BK-7","Station_Nam":"LACONIA 7.9 E, NH","Latitude":"43.55415","Longitude":"-71.32310","Snowdepth":"10.500","Units":"in","Rept_Date":"2020-01-01 12"},"coordinates":[6231,3005]},{"type":"Point","properties":{"Station_ID":"MI-CP-14","Station_Nam":"SAULT STE. MARIE 2.2 E, MI","Latitude":"46.48933","Longitude":"-84.31971","Snowdepth":"10.500","Units":"in","Rept_Date":"2020-01-01 13"},"coordinates":[3106,5517]},{"type":"Point","properties":{"Station_ID":"ME-CM-98","Station_Nam":"SEBAGO 2.4 ESE, ME","Latitude":"43.88000","Longitude":"-70.63000","Snowdepth":"10.500","Units":"in","Rept_Date":"2020-01-01 15"},"coordinates":[6398,3284]},{"type":"Point","properties":{"Station_ID":"ME-AN-32","Station_Nam":"WINTHROP 9.4 W, ME","Latitude":"44.30476","Longitude":"-70.15835","Snowdepth":"10.500","Units":"in","Rept_Date":"2020-01-01 12"},"coordinates":[6511,3648]},{"type":"Point","properties":{"Station_ID":"CAN-NB-11","Station_Nam":"MIRAMICHI 3.3 S, CAN","Latitude":"46.99343","Longitude":"-65.50690","Snowdepth":"10.500","Units":"in","Rept_Date":"2020-01-01 13"},"coordinates":[7630,5948]},{"type":"Point","properties":{"Station_ID":"CAN-ON-92","Station_Nam":"DUNROBIN 1.9 W - MVCA, CAN","Latitude":"45.42318","Longitude":"-76.04525","Snowdepth":"10.400","Units":"in","Rept_Date":"2020-01-01 12"},"coordinates":[5096,4605]},{"type":"Point","properties":{"Station_ID":"CAN-NS-94","Station_Nam":"MARGAREE FORKS 2.6 SSE CBN, CAN","Latitude":"46.30937","Longitude":"-61.07603","Snowdepth":"10.200","Units":"in","Rept_Date":"2020-01-01 13"},"coordinates":[8695,5363]},{"type":"Point","properties":{"Station_ID":"WUNW3","Station_Nam":"WAUSAU-NORTHEAST","Latitude":"44.97310","Longitude":"-89.61690","Snowdepth":"10.000","Units":"in","Rept_Date":"2020-01-01 13"},"coordinates":[1833,4220]},{"type":"Point","properties":{"Station_ID":"WLDM5","Station_Nam":"WILD RIVER STATE PARK","Latitude":"45.52310","Longitude":"-92.74890","Snowdepth":"10.000","Units":"in","Rept_Date":"2020-01-01 14"},"coordinates":[1080,4690]},{"type":"Point","properties":{"Station_ID":"WHTM5","Station_Nam":"WHEATON,MN","Latitude":"45.80000","Longitude":"-96.48330","Snowdepth":"10.000","Units":"in","Rept_Date":"2020-01-01 14"},"coordinates":[182,4927]},{"type":"Point","properties":{"Station_ID":"STRW3","Station_Nam":"STRATFORD 1NW","Latitude":"44.81750","Longitude":"-90.08990","Snowdepth":"10.000","Units":"in","Rept_Date":"2020-01-01 13"},"coordinates":[1719,4086]},{"type":"Point","properties":{"Station_ID":"SIBI4","Station_Nam":"SIBLEY","Latitude":"43.40470","Longitude":"-95.74830","Snowdepth":"10.000","Units":"in","Rept_Date":"2020-01-01 13"},"coordinates":[358,2878]},{"type":"Point","properties":{"Station_ID":"RSTW3","Station_Nam":"ROSHOLT","Latitude":"44.62710","Longitude":"-89.30600","Snowdepth":"10.000","Units":"in","Rept_Date":"2020-01-01 15"},"coordinates":[1907,3924]},{"type":"Point","properties":{"Station_ID":"RRVM4","Station_Nam":"RAPID RIVER 9S","Latitude":"45.78750","Longitude":"-86.93920","Snowdepth":"10.000","Units":"in","Rept_Date":"2020-01-01 15"},"coordinates":[2476,4917]},{"type":"Point","properties":{"Station_ID":"RFDM1","Station_Nam":"RUMFORD 7SW","Latitude":"44.49470","Longitude":"-70.65640","Snowdepth":"10.000","Units":"in","Rept_Date":"2020-01-01 13"},"coordinates":[6392,3810]},{"type":"Point","properties":{"Station_ID":"POLM1","Station_Nam":"POLAND,ME","Latitude":"44.00750","Longitude":"-70.36190","Snowdepth":"10.000","Units":"in","Rept_Date":"2020-01-01 12"},"coordinates":[6462,3393]},{"type":"Point","properties":{"Station_ID":"NH-GR-49","Station_Nam":"PLYMOUTH 3.7 N, NH","Latitude":"43.79048","Longitude":"-71.68413","Snowdepth":"10.000","Units":"in","Rept_Date":"2020-01-01 12"},"coordinates":[6144,3208]},{"type":"Point","properties":{"Station_ID":"NH-CR-9","Station_Nam":"MADISON 1.7 SE, NH","Latitude":"43.87928","Longitude":"-71.12660","Snowdepth":"10.000","Units":"in","Rept_Date":"2020-01-01 12"},"coordinates":[6279,3284]},{"type":"Point","properties":{"Station_ID":"NCON3","Station_Nam":"NORTH CONWAY,NH","Latitude":"44.05000","Longitude":"-71.13330","Snowdepth":"10.000","Units":"in","Rept_Date":"2020-01-01 14"},"coordinates":[6277,3430]},{"type":"Point","properties":{"Station_ID":"MRQM4","Station_Nam":"MARQUETTE WFP","Latitude":"46.54580","Longitude":"-87.37950","Snowdepth":"10.000","Units":"in","Rept_Date":"2020-01-01 13"},"coordinates":[2371,5565]},{"type":"Point","properties":{"Station_ID":"MN-SH-10","Station_Nam":"BIG LAKE 5.6 NNE, MN","Latitude":"45.41409","Longitude":"-93.69190","Snowdepth":"10.000","Units":"in","Rept_Date":"2020-01-01 13"},"coordinates":[853,4597]},{"type":"Point","properties":{"Station_ID":"MN-MR-4","Station_Nam":"LITTLE FALLS 1.2 SW, MN","Latitude":"45.96886","Longitude":"-94.37720","Snowdepth":"10.000","Units":"in","Rept_Date":"2020-01-01 13"},"coordinates":[688,5072]},{"type":"Point","properties":{"Station_ID":"MI-DL-1","Station_Nam":"GARDEN CORNERS 0.8 NW, MI","Latitude":"45.89815","Longitude":"-86.54850","Snowdepth":"10.000","Units":"in","Rept_Date":"2020-01-01 13"},"coordinates":[2570,5011]},{"type":"Point","properties":{"Station_ID":"ME-YK-65","Station_Nam":"NORTH BERWICK 5.3 W, ME","Latitude":"43.29801","Longitude":"-70.83956","Snowdepth":"10.000","Units":"in","Rept_Date":"2020-01-01 14"},"coordinates":[6348,2786]},{"type":"Point","properties":{"Station_ID":"ME-YK-5","Station_Nam":"KENNEBUNK 1.8 WNW, ME","Latitude":"43.39320","Longitude":"-70.58060","Snowdepth":"10.000","Units":"in","Rept_Date":"2020-01-01 12"},"coordinates":[6410,2868]},{"type":"Point","properties":{"Station_ID":"ME-YK-3","Station_Nam":"HOLLIS CENTER 5.4 NW, ME","Latitude":"43.64750","Longitude":"-70.67510","Snowdepth":"10.000","Units":"in","Rept_Date":"2020-01-01 12"},"coordinates":[6387,3085]},{"type":"Point","properties":{"Station_ID":"ME-YK-28","Station_Nam":"BIDDEFORD 1.5 NNE, ME","Latitude":"43.48679","Longitude":"-70.43470","Snowdepth":"10.000","Units":"in","Rept_Date":"2020-01-01 12"},"coordinates":[6445,2948]},{"type":"Point","properties":{"Station_ID":"ME-CM-128","Station_Nam":"SOUTH PORTLAND 1.6 S, ME","Latitude":"43.60900","Longitude":"-70.28600","Snowdepth":"10.000","Units":"in","Rept_Date":"2020-01-01 12"},"coordinates":[6481,3052]},{"type":"Point","properties":{"Station_ID":"ME-AR-15","Station_Nam":"PRESQUE ISLE 1.3 WSW, ME","Latitude":"46.67960","Longitude":"-68.01270","Snowdepth":"10.000","Units":"in","Rept_Date":"2020-01-01 12"},"coordinates":[7027,5680]},{"type":"Point","properties":{"Station_ID":"LKPN3","Station_Nam":"LAKEPORT 2","Latitude":"43.54910","Longitude":"-71.46450","Snowdepth":"10.000","Units":"in","Rept_Date":"2020-01-01 15"},"coordinates":[6197,3001]},{"type":"Point","properties":{"Station_ID":"JIMW3","Station_Nam":"JIM FALLS 3NW","Latitude":"45.08270","Longitude":"-91.33130","Snowdepth":"10.000","Units":"in","Rept_Date":"2020-01-01 12"},"coordinates":[1420,4313]},{"type":"Point","properties":{"Station_ID":"HRTM1","Station_Nam":"HARTFORD","Latitude":"44.37440","Longitude":"-70.31620","Snowdepth":"10.000","Units":"in","Rept_Date":"2020-01-01 12"},"coordinates":[6473,3707]},{"type":"Point","properties":{"Station_ID":"HOLM1","Station_Nam":"HOLLIS","Latitude":"43.64750","Longitude":"-70.67490","Snowdepth":"10.000","Units":"in","Rept_Date":"2020-01-01 12"},"coordinates":[6387,3085]},{"type":"Point","properties":{"Station_ID":"GYX","Station_Nam":"PORTLAND, ME","Latitude":"43.89250","Longitude":"-70.25500","Snowdepth":"10.000","Units":"in","Rept_Date":"2020-01-01 12"},"coordinates":[6488,3295]},{"type":"Point","properties":{"Station_ID":"GDCM4","Station_Nam":"GARDEN CORNERS","Latitude":"45.89830","Longitude":"-86.54850","Snowdepth":"10.000","Units":"in","Rept_Date":"2020-01-01 13"},"coordinates":[2570,5011]},{"type":"Point","properties":{"Station_ID":"EPTW3","Station_Nam":"EAU PLEINE TENDER","Latitude":"44.77220","Longitude":"-89.76720","Snowdepth":"10.000","Units":"in","Rept_Date":"2020-01-01 13"},"coordinates":[1796,4048]},{"type":"Point","properties":{"Station_ID":"EAU","Station_Nam":"CHIPPEWA VALLEY REGIONAL AIRPORT","Latitude":"44.86650","Longitude":"-91.48790","Snowdepth":"10.000","Units":"in","Rept_Date":"2020-01-02 00"},"coordinates":[1383,4128]},{"type":"Point","properties":{"Station_ID":"EAHV1","Station_Nam":"EAST HAVEN","Latitude":"44.64250","Longitude":"-71.89120","Snowdepth":"10.000","Units":"in","Rept_Date":"2020-01-01 12"},"coordinates":[6095,3937]},{"type":"Point","properties":{"Station_ID":"CARM1","Station_Nam":"CARIBOU WFO","Latitude":"46.86810","Longitude":"-68.01250","Snowdepth":"10.000","Units":"in","Rept_Date":"2020-01-02 05"},"coordinates":[7027,5841]},{"type":"Point","properties":{"Station_ID":"CAR","Station_Nam":"CARIBOU, ME","Latitude":"46.86830","Longitude":"-68.01360","Snowdepth":"10.000","Units":"in","Rept_Date":"2020-01-01 12"},"coordinates":[7027,5841]},{"type":"Point","properties":{"Station_ID":"BTLN3","Station_Nam":"BARTLETT","Latitude":"44.08380","Longitude":"-71.29340","Snowdepth":"10.000","Units":"in","Rept_Date":"2020-01-01 12"},"coordinates":[6238,3459]},{"type":"Point","properties":{"Station_ID":"BROS2","Station_Nam":"BROOKINGS,SD","Latitude":"44.31670","Longitude":"-96.76670","Snowdepth":"10.000","Units":"in","Rept_Date":"2020-01-01 14"},"coordinates":[113,3658]},{"type":"Point","properties":{"Station_ID":"BALW3","Station_Nam":"BALDWIN","Latitude":"44.96330","Longitude":"-92.39050","Snowdepth":"10.000","Units":"in","Rept_Date":"2020-01-01 13"},"coordinates":[1166,4211]},{"type":"Point","properties":{"Station_ID":"APXM4","Station_Nam":"GAYLORD 9SSW","Latitude":"44.90720","Longitude":"-84.71880","Snowdepth":"10.000","Units":"in","Rept_Date":"2020-01-02 06"},"coordinates":[3010,4163]},{"type":"Point","properties":{"Station_ID":"WI-PT-8","Station_Nam":"RUDOLPH 2.1 NNE, WI","Latitude":"44.52553","Longitude":"-89.78677","Snowdepth":"9.500","Units":"in","Rept_Date":"2020-01-01 11"},"coordinates":[1792,3837]},{"type":"Point","properties":{"Station_ID":"VT-OL-9","Station_Nam":"GREENSBORO 2.1 NNW, VT","Latitude":"44.60528","Longitude":"-72.30940","Snowdepth":"9.500","Units":"in","Rept_Date":"2020-01-01 13"},"coordinates":[5994,3905]},{"type":"Point","properties":{"Station_ID":"VT-ES-3","Station_Nam":"LUNENBURG 2.3 NNW, VT","Latitude":"44.49324","Longitude":"-71.70446","Snowdepth":"9.500","Units":"in","Rept_Date":"2020-01-01 11"},"coordinates":[6140,3809]},{"type":"Point","properties":{"Station_ID":"VT-CL-18","Station_Nam":"WHEELOCK 1.6 S, VT","Latitude":"44.56491","Longitude":"-72.08830","Snowdepth":"9.500","Units":"in","Rept_Date":"2020-01-01 12"},"coordinates":[6047,3870]},{"type":"Point","properties":{"Station_ID":"NH-ST-31","Station_Nam":"STRAFFORD 2.9 N, NH","Latitude":"43.31175","Longitude":"-71.13510","Snowdepth":"9.500","Units":"in","Rept_Date":"2020-01-01 12"},"coordinates":[6276,2798]},{"type":"Point","properties":{"Station_ID":"NH-CR-11","Station_Nam":"NORTH CONWAY 1.4 SSW, NH","Latitude":"44.03556","Longitude":"-71.14010","Snowdepth":"9.500","Units":"in","Rept_Date":"2020-01-01 12"},"coordinates":[6275,3417]},{"type":"Point","properties":{"Station_ID":"ME-YK-46","Station_Nam":"PARSONSFIELD 3.9 NE, ME","Latitude":"43.76517","Longitude":"-70.86860","Snowdepth":"9.500","Units":"in","Rept_Date":"2020-01-01 14"},"coordinates":[6341,3186]},{"type":"Point","properties":{"Station_ID":"ME-FR-22","Station_Nam":"FARMINGTON 4.8 NNW, ME","Latitude":"44.73396","Longitude":"-70.18007","Snowdepth":"9.500","Units":"in","Rept_Date":"2020-01-01 14"},"coordinates":[6506,4015]},{"type":"Point","properties":{"Station_ID":"MA-HS-7","Station_Nam":"PLAINFIELD 2.2 SW, MA","Latitude":"42.49272","Longitude":"-72.94540","Snowdepth":"9.500","Units":"in","Rept_Date":"2020-01-01 13"},"coordinates":[5841,2097]},{"type":"Point","properties":{"Station_ID":"WRUM5","Station_Nam":"WARROAD 4W","Latitude":"48.89600","Longitude":"-95.40700","Snowdepth":"9.000","Units":"in","Rept_Date":"2020-01-02 04"},"coordinates":[440,7577]},{"type":"Point","properties":{"Station_ID":"VT-WR-17","Station_Nam":"ROCHESTER 2.3 NE, VT","Latitude":"43.89418","Longitude":"-72.76992","Snowdepth":"9.000","Units":"in","Rept_Date":"2020-01-01 12"},"coordinates":[5883,3296]},{"type":"Point","properties":{"Station_ID":"VT-OL-2","Station_Nam":"BARTON 3.0 ENE, VT","Latitude":"44.75863","Longitude":"-72.11680","Snowdepth":"9.000","Units":"in","Rept_Date":"2020-01-01 12"},"coordinates":[6040,4036]},{"type":"Point","properties":{"Station_ID":"VANM1","Station_Nam":"VAN BUREN","Latitude":"47.16600","Longitude":"-67.93900","Snowdepth":"9.000","Units":"in","Rept_Date":"2020-01-01 11"},"coordinates":[7045,6096]},{"type":"Point","properties":{"Station_ID":"SSSS2","Station_Nam":"MILBANK-36MI.NW","Latitude":"45.66670","Longitude":"-97.00000","Snowdepth":"9.000","Units":"in","Rept_Date":"2020-01-02 04"},"coordinates":[57,4813]},{"type":"Point","properties":{"Station_ID":"SAUW3","Station_Nam":"WAUSAU WSAW TV","Latitude":"44.94630","Longitude":"-89.62220","Snowdepth":"9.000","Units":"in","Rept_Date":"2020-01-02 04"},"coordinates":[1831,4197]},{"type":"Point","properties":{"Station_ID":"RCEM5","Station_Nam":"RICE","Latitude":"45.75760","Longitude":"-94.20720","Snowdepth":"9.000","Units":"in","Rept_Date":"2020-01-01 13"},"coordinates":[729,4891]},{"type":"Point","properties":{"Station_ID":"PARM4","Station_Nam":"PARENT BAY","Latitude":"45.79610","Longitude":"-86.40110","Snowdepth":"9.000","Units":"in","Rept_Date":"2020-01-01 18"},"coordinates":[2606,4924]},{"type":"Point","properties":{"Station_ID":"NH-MR-41","Station_Nam":"NEWBURY 1.6 NW, NH","Latitude":"43.33667","Longitude":"-72.06060","Snowdepth":"9.000","Units":"in","Rept_Date":"2020-01-01 12"},"coordinates":[6054,2819]},{"type":"Point","properties":{"Station_ID":"NH-CR-15","Station_Nam":"JACKSON 3.7 NW, NH","Latitude":"44.19069","Longitude":"-71.22598","Snowdepth":"9.000","Units":"in","Rept_Date":"2020-01-01 12"},"coordinates":[6255,3550]},{"type":"Point","properties":{"Station_ID":"NH-BK-9","Station_Nam":"MEREDITH 2.9 SSW, NH","Latitude":"43.62245","Longitude":"-71.53510","Snowdepth":"9.000","Units":"in","Rept_Date":"2020-01-01 13"},"coordinates":[6180,3064]},{"type":"Point","properties":{"Station_ID":"MRFS2","Station_Nam":"MADISON,SD","Latitude":"44.00000","Longitude":"-97.23330","Snowdepth":"9.000","Units":"in","Rept_Date":"2020-01-01 15"},"coordinates":[1,3387]},{"type":"Point","properties":{"Station_ID":"MN-RM-2","Station_Nam":"NORTH SAINT PAUL 1.0 NNW, MN","Latitude":"45.02629","Longitude":"-93.00790","Snowdepth":"9.000","Units":"in","Rept_Date":"2020-01-01 12"},"coordinates":[1017,4265]},{"type":"Point","properties":{"Station_ID":"MLCM5","Station_Nam":"MILACA","Latitude":"45.75320","Longitude":"-93.66170","Snowdepth":"9.000","Units":"in","Rept_Date":"2020-01-01 13"},"coordinates":[860,4887]},{"type":"Point","properties":{"Station_ID":"ME-AN-41","Station_Nam":"AUBURN 2.1 NNW, ME","Latitude":"44.11275","Longitude":"-70.26452","Snowdepth":"9.000","Units":"in","Rept_Date":"2020-01-01 12"},"coordinates":[6486,3483]},{"type":"Point","properties":{"Station_ID":"LPLN6","Station_Nam":"LAKE PLACID 2 S","Latitude":"44.30420","Longitude":"-73.98390","Snowdepth":"9.000","Units":"in","Rept_Date":"2020-01-01 15"},"coordinates":[5591,3647]},{"type":"Point","properties":{"Station_ID":"LBKV1","Station_Nam":"LYE BROOK","Latitude":"43.05000","Longitude":"-73.03330","Snowdepth":"9.000","Units":"in","Rept_Date":"2020-01-02 06"},"coordinates":[5820,2574]},{"type":"Point","properties":{"Station_ID":"JOHV1","Station_Nam":"JOHNSON 2 N","Latitude":"44.65790","Longitude":"-72.67850","Snowdepth":"9.000","Units":"in","Rept_Date":"2020-01-01 12"},"coordinates":[5905,3950]},{"type":"Point","properties":{"Station_ID":"JEFN3","Station_Nam":"JEFFERSON","Latitude":"44.41690","Longitude":"-71.50080","Snowdepth":"9.000","Units":"in","Rept_Date":"2020-01-01 12"},"coordinates":[6189,3744]},{"type":"Point","properties":{"Station_ID":"FORM5","Station_Nam":"FOREST LAKE 5NE","Latitude":"45.33170","Longitude":"-92.89820","Snowdepth":"9.000","Units":"in","Rept_Date":"2020-01-01 13"},"coordinates":[1044,4527]},{"type":"Point","properties":{"Station_ID":"ESGM1","Station_Nam":"EAST SANGERVILLE","Latitude":"45.13690","Longitude":"-69.28060","Snowdepth":"9.000","Units":"in","Rept_Date":"2020-01-01 12"},"coordinates":[6722,4360]},{"type":"Point","properties":{"Station_ID":"CNRM1","Station_Nam":"CONNOR TWP","Latitude":"46.95830","Longitude":"-68.03330","Snowdepth":"9.000","Units":"in","Rept_Date":"2020-01-01 12"},"coordinates":[7022,5918]},{"type":"Point","properties":{"Station_ID":"CAN-NS-39","Station_Nam":"ST. ANNS 2.8 NW, CA","Latitude":"46.25082","Longitude":"-60.64340","Snowdepth":"9.000","Units":"in","Rept_Date":"2020-01-01 13"},"coordinates":[8799,5313]},{"type":"Point","properties":{"Station_ID":"BRLN3","Station_Nam":"BERLIN","Latitude":"44.45350","Longitude":"-71.18540","Snowdepth":"9.000","Units":"in","Rept_Date":"2020-01-01 14"},"coordinates":[6264,3775]},{"type":"Point","properties":{"Station_ID":"AUW","Station_Nam":"WAUSAU MUNICIPAL AIRPORT","Latitude":"44.92580","Longitude":"-89.62560","Snowdepth":"9.000","Units":"in","Rept_Date":"2020-01-02 00"},"coordinates":[1831,4179]},{"type":"Point","properties":{"Station_ID":"FTHQ6","Station_Nam":"FORT HOPE","Latitude":"51.55820","Longitude":"-87.90510","Snowdepth":"8.740","Units":"in","Rept_Date":"2020-01-02 06"},"coordinates":[2244,9855]},{"type":"Point","properties":{"Station_ID":"CAN-QC-47","Station_Nam":"SAINTE-FOY 1.8 ENE, CAN","Latitude":"46.76934","Longitude":"-71.27124","Snowdepth":"8.700","Units":"in","Rept_Date":"2020-01-01 12"},"coordinates":[6244,5757]},{"type":"Point","properties":{"Station_ID":"VT-OG-10","Station_Nam":"BRAINTREE 2.8 SW, VT","Latitude":"43.93570","Longitude":"-72.74830","Snowdepth":"8.500","Units":"in","Rept_Date":"2020-01-01 11"},"coordinates":[5889,3332]},{"type":"Point","properties":{"Station_ID":"NY-HR-18","Station_Nam":"SALISBURY CENTER 1.8 NW, NY","Latitude":"43.16260","Longitude":"-74.80880","Snowdepth":"8.500","Units":"in","Rept_Date":"2020-01-01 11"},"coordinates":[5393,2670]},{"type":"Point","properties":{"Station_ID":"NH-BK-1","Station_Nam":"TILTON NORTHFIELD 3.3 NE, NH","Latitude":"43.48000","Longitude":"-71.55000","Snowdepth":"8.500","Units":"in","Rept_Date":"2020-01-01 12"},"coordinates":[6177,2942]},{"type":"Point","properties":{"Station_ID":"ME-OX-29","Station_Nam":"SUMNER 1.1 N, ME","Latitude":"44.40840","Longitude":"-70.44010","Snowdepth":"8.500","Units":"in","Rept_Date":"2020-01-01 14"},"coordinates":[6444,3736]},{"type":"Point","properties":{"Station_ID":"MA-HS-14","Station_Nam":"PLAINFIELD 2.4 ESE, MA","Latitude":"42.49792","Longitude":"-72.87769","Snowdepth":"8.500","Units":"in","Rept_Date":"2020-01-01 12"},"coordinates":[5857,2102]},{"type":"Point","properties":{"Station_ID":"CAN-PE-19","Station_Nam":"CHARLOTTETOWN 6.5 NNW, CAN","Latitude":"46.29235","Longitude":"-63.17271","Snowdepth":"8.300","Units":"in","Rept_Date":"2020-01-01 12"},"coordinates":[8191,5349]},{"type":"Point","properties":{"Station_ID":"MI-EM-8","Station_Nam":"PETOSKEY 1.7 SSW, MI","Latitude":"45.34209","Longitude":"-84.96530","Snowdepth":"8.100","Units":"in","Rept_Date":"2020-01-01 11"},"coordinates":[2951,4535]},{"type":"Point","properties":{"Station_ID":"WIRW3","Station_Nam":"WIS RAPIDS GRAND AV B","Latitude":"44.39940","Longitude":"-89.83050","Snowdepth":"8.000","Units":"in","Rept_Date":"2020-01-01 13"},"coordinates":[1781,3729]},{"type":"Point","properties":{"Station_ID":"WI-PK-4","Station_Nam":"DRESSER 6.1 ESE, WI","Latitude":"45.32436","Longitude":"-92.52080","Snowdepth":"8.000","Units":"in","Rept_Date":"2020-01-01 14"},"coordinates":[1134,4520]},{"type":"Point","properties":{"Station_ID":"WDOM5","Station_Nam":"WINDOM","Latitude":"43.87700","Longitude":"-95.11590","Snowdepth":"8.000","Units":"in","Rept_Date":"2020-01-01 14"},"coordinates":[510,3282]},{"type":"Point","properties":{"Station_ID":"WASW3","Station_Nam":"WASHINGTON IS","Latitude":"45.35800","Longitude":"-86.89110","Snowdepth":"8.000","Units":"in","Rept_Date":"2020-01-01 13"},"coordinates":[2488,4549]},{"type":"Point","properties":{"Station_ID":"VT-WS-30","Station_Nam":"WOODBURY 3.4 NNW, VT","Latitude":"44.48825","Longitude":"-72.43258","Snowdepth":"8.000","Units":"in","Rept_Date":"2020-01-01 12"},"coordinates":[5965,3805]},{"type":"Point","properties":{"Station_ID":"TURM1","Station_Nam":"TURNER","Latitude":"44.28220","Longitude":"-70.25610","Snowdepth":"8.000","Units":"in","Rept_Date":"2020-01-01 12"},"coordinates":[6488,3628]},{"type":"Point","properties":{"Station_ID":"STC","Station_Nam":"ST. CLOUD REGIONAL AIRPORT","Latitude":"45.54330","Longitude":"-94.05140","Snowdepth":"8.000","Units":"in","Rept_Date":"2020-01-02 00"},"coordinates":[766,4708]},{"type":"Point","properties":{"Station_ID":"SD-BK-7","Station_Nam":"BROOKINGS 0.2 SSW, SD","Latitude":"44.30389","Longitude":"-96.78780","Snowdepth":"8.000","Units":"in","Rept_Date":"2020-01-01 13"},"coordinates":[108,3647]},{"type":"Point","properties":{"Station_ID":"SCSM5","Station_Nam":"ST CLOUD STATE","Latitude":"45.55100","Longitude":"-94.14950","Snowdepth":"8.000","Units":"in","Rept_Date":"2020-01-01 11"},"coordinates":[743,4714]},{"type":"Point","properties":{"Station_ID":"ROWM3","Station_Nam":"ROWE 3NE","Latitude":"42.73500","Longitude":"-72.86920","Snowdepth":"8.000","Units":"in","Rept_Date":"2020-01-01 14"},"coordinates":[5860,2304]},{"type":"Point","properties":{"Station_ID":"PITW3","Station_Nam":"PITTSVILLE-WWTP","Latitude":"44.43690","Longitude":"-90.13170","Snowdepth":"8.000","Units":"in","Rept_Date":"2020-01-01 13"},"coordinates":[1709,3761]},{"type":"Point","properties":{"Station_ID":"ORAN3","Station_Nam":"ORANGE","Latitude":"43.66880","Longitude":"-71.94830","Snowdepth":"8.000","Units":"in","Rept_Date":"2020-01-01 12"},"coordinates":[6081,3104]},{"type":"Point","properties":{"Station_ID":"NWSM1","Station_Nam":"NEW SHARON","Latitude":"44.63520","Longitude":"-70.00020","Snowdepth":"8.000","Units":"in","Rept_Date":"2020-01-01 12"},"coordinates":[6549,3930]},{"type":"Point","properties":{"Station_ID":"NUMN3","Station_Nam":"NORTHUMBERLAND","Latitude":"44.52830","Longitude":"-71.50440","Snowdepth":"8.000","Units":"in","Rept_Date":"2020-01-01 12"},"coordinates":[6188,3839]},{"type":"Point","properties":{"Station_ID":"NH-CS-4","Station_Nam":"PITTSBURG 6.1 NE, NH","Latitude":"45.11060","Longitude":"-71.29760","Snowdepth":"8.000","Units":"in","Rept_Date":"2020-01-01 12"},"coordinates":[6237,4337]},{"type":"Point","properties":{"Station_ID":"MWTM1","Station_Nam":"MILLINOCKET WWTP","Latitude":"45.64030","Longitude":"-68.67480","Snowdepth":"8.000","Units":"in","Rept_Date":"2020-01-01 12"},"coordinates":[6868,4791]},{"type":"Point","properties":{"Station_ID":"MRLV1","Station_Nam":"MARLBORO","Latitude":"42.86000","Longitude":"-72.72000","Snowdepth":"8.000","Units":"in","Rept_Date":"2020-01-01 13"},"coordinates":[5895,2411]},{"type":"Point","properties":{"Station_ID":"MRAM5","Station_Nam":"MORA","Latitude":"45.87760","Longitude":"-93.31470","Snowdepth":"8.000","Units":"in","Rept_Date":"2020-01-01 13"},"coordinates":[943,4994]},{"type":"Point","properties":{"Station_ID":"MRAM4","Station_Nam":"MORAN","Latitude":"45.99030","Longitude":"-84.83610","Snowdepth":"8.000","Units":"in","Rept_Date":"2020-01-01 13"},"coordinates":[2982,5090]},{"type":"Point","properties":{"Station_ID":"MN76ACVS","Station_Nam":"GRAND MARAIS 3.0 WNW","Latitude":"47.76602","Longitude":"-90.26427","Snowdepth":"8.000","Units":"in","Rept_Date":"2020-01-01 13"},"coordinates":[1677,6610]},{"type":"Point","properties":{"Station_ID":"MN-HN-6","Station_Nam":"LONG LAKE 0.2 WSW, MN","Latitude":"44.98290","Longitude":"-93.57360","Snowdepth":"8.000","Units":"in","Rept_Date":"2020-01-01 13"},"coordinates":[881,4228]},{"type":"Point","properties":{"Station_ID":"MN-CG-16","Station_Nam":"NORTH BRANCH 1.3 NNW, MN","Latitude":"45.53121","Longitude":"-92.97110","Snowdepth":"8.000","Units":"in","Rept_Date":"2020-01-01 12"},"coordinates":[1026,4697]},{"type":"Point","properties":{"Station_ID":"MI-CP-7","Station_Nam":"DRUMMOND 2.9 NE, MI","Latitude":"46.05329","Longitude":"-83.69060","Snowdepth":"8.000","Units":"in","Rept_Date":"2020-01-01 14"},"coordinates":[3258,5144]},{"type":"Point","properties":{"Station_ID":"MI-BZ-1","Station_Nam":"BENZONIA 5.3 S, MI","Latitude":"44.53976","Longitude":"-86.10650","Snowdepth":"8.000","Units":"in","Rept_Date":"2020-01-01 14"},"coordinates":[2677,3849]},{"type":"Point","properties":{"Station_ID":"KINM1","Station_Nam":"KINGFIELD","Latitude":"44.95950","Longitude":"-70.17530","Snowdepth":"8.000","Units":"in","Rept_Date":"2020-01-01 14"},"coordinates":[6507,4208]},{"type":"Point","properties":{"Station_ID":"HYTS2","Station_Nam":"HAYTI 1W","Latitude":"44.66330","Longitude":"-97.22670","Snowdepth":"8.000","Units":"in","Rept_Date":"2020-01-01 14"},"coordinates":[3,3955]},{"type":"Point","properties":{"Station_ID":"GILV1","Station_Nam":"GILMAN","Latitude":"44.41120","Longitude":"-71.71860","Snowdepth":"8.000","Units":"in","Rept_Date":"2020-01-01 12"},"coordinates":[6136,3739]},{"type":"Point","properties":{"Station_ID":"BREW3","Station_Nam":"SURING","Latitude":"44.99580","Longitude":"-88.37860","Snowdepth":"8.000","Units":"in","Rept_Date":"2020-01-01 15"},"coordinates":[2130,4239]},{"type":"Point","properties":{"Station_ID":"ASTW3","Station_Nam":"ATHELSTANE","Latitude":"45.42500","Longitude":"-88.05750","Snowdepth":"8.000","Units":"in","Rept_Date":"2020-01-01 12"},"coordinates":[2208,4606]},{"type":"Point","properties":{"Station_ID":"VT-AD-20","Station_Nam":"HANCOCK 0.3 S, VT","Latitude":"43.92166","Longitude":"-72.84042","Snowdepth":"7.500","Units":"in","Rept_Date":"2020-01-01 12"},"coordinates":[5866,3320]},{"type":"Point","properties":{"Station_ID":"NY-ES-6","Station_Nam":"OLMSTEDVILLE 4.6 NNE, NY","Latitude":"43.83350","Longitude":"-73.89780","Snowdepth":"7.500","Units":"in","Rept_Date":"2020-01-01 13"},"coordinates":[5612,3244]},{"type":"Point","properties":{"Station_ID":"NH-MR-60","Station_Nam":"SOUTH SUTTON 1.3 SE, NH","Latitude":"43.29531","Longitude":"-71.90238","Snowdepth":"7.500","Units":"in","Rept_Date":"2020-01-01 13"},"coordinates":[6092,2784]},{"type":"Point","properties":{"Station_ID":"NH-CR-46","Station_Nam":"NORTH CONWAY 1.8 SSE, NH","Latitude":"44.02955","Longitude":"-71.11664","Snowdepth":"7.500","Units":"in","Rept_Date":"2020-01-01 15"},"coordinates":[6281,3412]},{"type":"Point","properties":{"Station_ID":"NH-BK-29","Station_Nam":"SANBORNTON 2.3 WNW, NH","Latitude":"43.49730","Longitude":"-71.62800","Snowdepth":"7.500","Units":"in","Rept_Date":"2020-01-01 12"},"coordinates":[6158,2957]},{"type":"Point","properties":{"Station_ID":"MN-MC-16","Station_Nam":"HUTCHINSON 0.1 ENE, MN","Latitude":"44.88633","Longitude":"-94.37503","Snowdepth":"7.500","Units":"in","Rept_Date":"2020-01-01 13"},"coordinates":[689,4145]},{"type":"Point","properties":{"Station_ID":"MN-DK-53","Station_Nam":"LAKEVILLE 3.8 ENE, MN","Latitude":"44.70423","Longitude":"-93.18460","Snowdepth":"7.500","Units":"in","Rept_Date":"2020-01-01 14"},"coordinates":[975,3990]},{"type":"Point","properties":{"Station_ID":"ME-YK-52","Station_Nam":"YORK 5.2 N, ME","Latitude":"43.23585","Longitude":"-70.63400","Snowdepth":"7.500","Units":"in","Rept_Date":"2020-01-01 12"},"coordinates":[6397,2733]},{"type":"Point","properties":{"Station_ID":"WLNM4","Station_Nam":"WELLSTON 1N","Latitude":"44.22940","Longitude":"-85.95690","Snowdepth":"7.000","Units":"in","Rept_Date":"2020-01-01 12"},"coordinates":[2713,3583]},{"type":"Point","properties":{"Station_ID":"WI-WD-7","Station_Nam":"NEKOOSA 3.7 SSW, WI","Latitude":"44.26305","Longitude":"-89.93526","Snowdepth":"7.000","Units":"in","Rept_Date":"2020-01-01 13"},"coordinates":[1756,3612]},{"type":"Point","properties":{"Station_ID":"WI-WD-2","Station_Nam":"WISCONSIN RAPIDS 4.6 SSE, WI","Latitude":"44.33823","Longitude":"-89.78200","Snowdepth":"7.000","Units":"in","Rept_Date":"2020-01-01 14"},"coordinates":[1793,3676]},{"type":"Point","properties":{"Station_ID":"WI-PC-5","Station_Nam":"RIVER FALLS 1.2 SSW, WI","Latitude":"44.84032","Longitude":"-92.63500","Snowdepth":"7.000","Units":"in","Rept_Date":"2020-01-01 13"},"coordinates":[1107,4106]},{"type":"Point","properties":{"Station_ID":"VT-WS-15","Station_Nam":"EAST CALAIS 1.5 SW, VT","Latitude":"44.35523","Longitude":"-72.45540","Snowdepth":"7.000","Units":"in","Rept_Date":"2020-01-01 12"},"coordinates":[5959,3691]},{"type":"Point","properties":{"Station_ID":"TOPM1","Station_Nam":"TOPSFIELD","Latitude":"45.43470","Longitude":"-67.72020","Snowdepth":"7.000","Units":"in","Rept_Date":"2020-01-01 12"},"coordinates":[7098,4615]},{"type":"Point","properties":{"Station_ID":"TMWN3","Station_Nam":"TAMWORTH 4","Latitude":"43.86390","Longitude":"-71.26610","Snowdepth":"7.000","Units":"in","Rept_Date":"2020-01-01 12"},"coordinates":[6245,3270]},{"type":"Point","properties":{"Station_ID":"SD-MH-8","Station_Nam":"HARTFORD 6.4 S, SD","Latitude":"43.53128","Longitude":"-96.95020","Snowdepth":"7.000","Units":"in","Rept_Date":"2020-01-01 14"},"coordinates":[69,2986]},{"type":"Point","properties":{"Station_ID":"RFDM5","Station_Nam":"ROCKFORD","Latitude":"45.08960","Longitude":"-93.73990","Snowdepth":"7.000","Units":"in","Rept_Date":"2020-01-01 13"},"coordinates":[841,4319]},{"type":"Point","properties":{"Station_ID":"RFDM4","Station_Nam":"ROCKFORD","Latitude":"43.11580","Longitude":"-85.56410","Snowdepth":"7.000","Units":"in","Rept_Date":"2020-01-01 12"},"coordinates":[2807,2630]},{"type":"Point","properties":{"Station_ID":"PTYM4","Station_Nam":"PETOSKEY NCMC","Latitude":"45.36120","Longitude":"-84.95110","Snowdepth":"7.000","Units":"in","Rept_Date":"2020-01-01 13"},"coordinates":[2954,4552]},{"type":"Point","properties":{"Station_ID":"PA-ER-5","Station_Nam":"NORTH EAST 1.2 WNW, PA","Latitude":"42.22058","Longitude":"-79.85510","Snowdepth":"7.000","Units":"in","Rept_Date":"2020-01-01 13"},"coordinates":[4180,1864]},{"type":"Point","properties":{"Station_ID":"NPTM4","Station_Nam":"NORTHPORT 2W","Latitude":"45.13220","Longitude":"-85.64720","Snowdepth":"7.000","Units":"in","Rept_Date":"2020-01-01 13"},"coordinates":[2787,4356]},{"type":"Point","properties":{"Station_ID":"NH-RC-48","Station_Nam":"NORTHWOOD 2.9 WSW, NH","Latitude":"43.20114","Longitude":"-71.25750","Snowdepth":"7.000","Units":"in","Rept_Date":"2020-01-01 12"},"coordinates":[6247,2703]},{"type":"Point","properties":{"Station_ID":"NH-MR-4","Station_Nam":"BOW 1.6 NW, NH","Latitude":"43.14994","Longitude":"-71.55650","Snowdepth":"7.000","Units":"in","Rept_Date":"2020-01-01 13"},"coordinates":[6175,2660]},{"type":"Point","properties":{"Station_ID":"NH-MR-26","Station_Nam":"PITTSFIELD 0.2 SSW, NH","Latitude":"43.29880","Longitude":"-71.33450","Snowdepth":"7.000","Units":"in","Rept_Date":"2020-01-01 13"},"coordinates":[6229,2787]},{"type":"Point","properties":{"Station_ID":"NH-GR-47","Station_Nam":"LITTLETON 7.3 W, NH","Latitude":"44.31847","Longitude":"-71.91086","Snowdepth":"7.000","Units":"in","Rept_Date":"2020-01-01 13"},"coordinates":[6090,3659]},{"type":"Point","properties":{"Station_ID":"NH-GR-1","Station_Nam":"BRISTOL 0.4 SSE, NH","Latitude":"43.59490","Longitude":"-71.74140","Snowdepth":"7.000","Units":"in","Rept_Date":"2020-01-01 12"},"coordinates":[6131,3040]},{"type":"Point","properties":{"Station_ID":"NH-CR-27","Station_Nam":"TAMWORTH 0.4 NNW, NH","Latitude":"43.86449","Longitude":"-71.26610","Snowdepth":"7.000","Units":"in","Rept_Date":"2020-01-01 12"},"coordinates":[6245,3271]},{"type":"Point","properties":{"Station_ID":"NH-BK-2","Station_Nam":"BELMONT 1.7 SW, NH","Latitude":"43.43556","Longitude":"-71.50690","Snowdepth":"7.000","Units":"in","Rept_Date":"2020-01-01 12"},"coordinates":[6187,2904]},{"type":"Point","properties":{"Station_ID":"NEDM1","Station_Nam":"CAPE NEDDICK","Latitude":"43.22410","Longitude":"-70.63880","Snowdepth":"7.000","Units":"in","Rept_Date":"2020-01-01 12"},"coordinates":[6396,2723]},{"type":"Point","properties":{"Station_ID":"NCBN6","Station_Nam":"NEWCOMB","Latitude":"43.97070","Longitude":"-74.22200","Snowdepth":"7.000","Units":"in","Rept_Date":"2020-01-01 13"},"coordinates":[5534,3362]},{"type":"Point","properties":{"Station_ID":"MN228YHJ","Station_Nam":"RICE 2.8 ESE","Latitude":"45.73609","Longitude":"-94.17230","Snowdepth":"7.000","Units":"in","Rept_Date":"2020-01-01 13"},"coordinates":[737,4873]},{"type":"Point","properties":{"Station_ID":"MN-SR-36","Station_Nam":"SAINT JOSEPH 6.4 N, MN","Latitude":"45.65317","Longitude":"-94.28876","Snowdepth":"7.000","Units":"in","Rept_Date":"2020-01-01 15"},"coordinates":[709,4802]},{"type":"Point","properties":{"Station_ID":"MN-SR-29","Station_Nam":"ALBANY 3.8 S, MN","Latitude":"45.57441","Longitude":"-94.55543","Snowdepth":"7.000","Units":"in","Rept_Date":"2020-01-01 13"},"coordinates":[645,4734]},{"type":"Point","properties":{"Station_ID":"MN-DK-73","Station_Nam":"LAKEVILLE 2.6 NNE, MN","Latitude":"44.71250","Longitude":"-93.23043","Snowdepth":"7.000","Units":"in","Rept_Date":"2020-01-01 13"},"coordinates":[964,3997]},{"type":"Point","properties":{"Station_ID":"MN-CV-40","Station_Nam":"EXCELSIOR 0.8 S, MN","Latitude":"44.88996","Longitude":"-93.56646","Snowdepth":"7.000","Units":"in","Rept_Date":"2020-01-01 13"},"coordinates":[883,4149]},{"type":"Point","properties":{"Station_ID":"MIAM5","Station_Nam":"MILAN 1NW","Latitude":"45.12190","Longitude":"-95.92690","Snowdepth":"7.000","Units":"in","Rept_Date":"2020-01-02 00"},"coordinates":[315,4347]},{"type":"Point","properties":{"Station_ID":"ME-LN-21","Station_Nam":"WESTPORT ISLAND 2.2 SSW, ME","Latitude":"43.88806","Longitude":"-69.70890","Snowdepth":"7.000","Units":"in","Rept_Date":"2020-01-01 13"},"coordinates":[6619,3291]},{"type":"Point","properties":{"Station_ID":"LVRM1","Station_Nam":"LIVERMORE FALLS 1 E","Latitude":"44.47160","Longitude":"-70.15940","Snowdepth":"7.000","Units":"in","Rept_Date":"2020-01-01 12"},"coordinates":[6511,3791]},{"type":"Point","properties":{"Station_ID":"ISLV1","Station_Nam":"ISLAND POND","Latitude":"44.81280","Longitude":"-71.89020","Snowdepth":"7.000","Units":"in","Rept_Date":"2020-01-01 14"},"coordinates":[6095,4082]},{"type":"Point","properties":{"Station_ID":"HMYM1","Station_Nam":"HARMONY","Latitude":"44.94660","Longitude":"-69.54560","Snowdepth":"7.000","Units":"in","Rept_Date":"2020-01-01 12"},"coordinates":[6659,4197]},{"type":"Point","properties":{"Station_ID":"FREM4","Station_Nam":"FREMONT,MI","Latitude":"43.45000","Longitude":"-86.03330","Snowdepth":"7.000","Units":"in","Rept_Date":"2020-01-01 12"},"coordinates":[2694,2916]},{"type":"Point","properties":{"Station_ID":"EHYM3","Station_Nam":"EAST HAWLEY","Latitude":"42.57410","Longitude":"-72.86790","Snowdepth":"7.000","Units":"in","Rept_Date":"2020-01-01 14"},"coordinates":[5860,2167]},{"type":"Point","properties":{"Station_ID":"CHRM4","Station_Nam":"CHARLEVOIX","Latitude":"45.31720","Longitude":"-85.26720","Snowdepth":"7.000","Units":"in","Rept_Date":"2020-01-01 13"},"coordinates":[2878,4514]},{"type":"Point","properties":{"Station_ID":"CHPW3","Station_Nam":"CHIPPEWA FALLS","Latitude":"44.92770","Longitude":"-91.40810","Snowdepth":"7.000","Units":"in","Rept_Date":"2020-01-01 14"},"coordinates":[1402,4181]},{"type":"Point","properties":{"Station_ID":"CAN-NB-18","Station_Nam":"MCLEOD HILL 1.1 ENE, CA","Latitude":"46.02725","Longitude":"-66.67460","Snowdepth":"7.000","Units":"in","Rept_Date":"2020-01-01 12"},"coordinates":[7349,5122]},{"type":"Point","properties":{"Station_ID":"42.2168_079.8473","Station_Nam":"NORTH EAST  SNOW SPOTTER (X4220798)","Latitude":"42.21680","Longitude":"-79.84730","Snowdepth":"7.000","Units":"in","Rept_Date":"2020-01-01 14"},"coordinates":[4182,1861]},{"type":"Point","properties":{"Station_ID":"42.1284_079.8945","Station_Nam":"NORTHEAST 6SW (CLE0249)","Latitude":"42.12840","Longitude":"-79.89450","Snowdepth":"7.000","Units":"in","Rept_Date":"2020-01-01 11"},"coordinates":[4170,1785]},{"type":"Point","properties":{"Station_ID":"CAN-PE-43","Station_Nam":"GLENCOE 0.3 W, CAN","Latitude":"46.20115","Longitude":"-62.81740","Snowdepth":"6.700","Units":"in","Rept_Date":"2020-01-01 12"},"coordinates":[8276,5271]},{"type":"Point","properties":{"Station_ID":"NH-MR-55","Station_Nam":"CANTERBURY 2.5 SSW, NH","Latitude":"43.30277","Longitude":"-71.57893","Snowdepth":"6.600","Units":"in","Rept_Date":"2020-01-01 13"},"coordinates":[6170,2790]},{"type":"Point","properties":{"Station_ID":"VT-WS-10","Station_Nam":"NORTHFIELD 1.5 N, VT","Latitude":"44.16986","Longitude":"-72.65200","Snowdepth":"6.500","Units":"in","Rept_Date":"2020-01-01 12"},"coordinates":[5912,3532]},{"type":"Point","properties":{"Station_ID":"VT-WR-2","Station_Nam":"POMFRET 2.6 N, VT","Latitude":"43.74230","Longitude":"-72.52550","Snowdepth":"6.500","Units":"in","Rept_Date":"2020-01-01 12"},"coordinates":[5942,3166]},{"type":"Point","properties":{"Station_ID":"VT-LM-7","Station_Nam":"HYDE PARK 2.9 NE, VT","Latitude":"44.62080","Longitude":"-72.57250","Snowdepth":"6.500","Units":"in","Rept_Date":"2020-01-01 13"},"coordinates":[5931,3918]},{"type":"Point","properties":{"Station_ID":"MN-DK-70","Station_Nam":"EAGAN 2.0 NNW, MN","Latitude":"44.84322","Longitude":"-93.17899","Snowdepth":"6.500","Units":"in","Rept_Date":"2020-01-01 16"},"coordinates":[976,4109]},{"type":"Point","properties":{"Station_ID":"CAN-ON-120","Station_Nam":"DUNROBIN 5.8 NE MIVCA, CA","Latitude":"45.46243","Longitude":"-75.97120","Snowdepth":"6.300","Units":"in","Rept_Date":"2020-01-01 12"},"coordinates":[5114,4638]},{"type":"Point","properties":{"Station_ID":"WI-WH-7","Station_Nam":"WILD ROSE 0.5 E, WI","Latitude":"44.17764","Longitude":"-89.23812","Snowdepth":"6.000","Units":"in","Rept_Date":"2020-01-01 13"},"coordinates":[1924,3539]},{"type":"Point","properties":{"Station_ID":"WELM4","Station_Nam":"WELLSTON TIPPY DAM","Latitude":"44.25860","Longitude":"-85.93940","Snowdepth":"6.000","Units":"in","Rept_Date":"2020-01-01 13"},"coordinates":[2717,3608]},{"type":"Point","properties":{"Station_ID":"WDSV1","Station_Nam":"WOODSTOCK","Latitude":"43.63030","Longitude":"-72.50720","Snowdepth":"6.000","Units":"in","Rept_Date":"2020-01-01 13"},"coordinates":[5947,3071]},{"type":"Point","properties":{"Station_ID":"VT-WH-29","Station_Nam":"BRATTLEBORO 0.7 S, VT","Latitude":"42.84030","Longitude":"-72.55580","Snowdepth":"6.000","Units":"in","Rept_Date":"2020-01-01 12"},"coordinates":[5935,2395]},{"type":"Point","properties":{"Station_ID":"VT-CL-23","Station_Nam":"RYEGATE 1.5 N, VT","Latitude":"44.23024","Longitude":"-72.10523","Snowdepth":"6.000","Units":"in","Rept_Date":"2020-01-01 12"},"coordinates":[6043,3584]},{"type":"Point","properties":{"Station_ID":"VT-BN-3","Station_Nam":"LANDGROVE 1.1 NNE, VT","Latitude":"43.29092","Longitude":"-72.83260","Snowdepth":"6.000","Units":"in","Rept_Date":"2020-01-01 12"},"coordinates":[5868,2780]},{"type":"Point","properties":{"Station_ID":"TOPN6","Station_Nam":"TUPPER LAKE SUNMOUNT","Latitude":"44.23070","Longitude":"-74.43820","Snowdepth":"6.000","Units":"in","Rept_Date":"2020-01-01 12"},"coordinates":[5482,3584]},{"type":"Point","properties":{"Station_ID":"THLM5","Station_Nam":"THEILMAN 1SSW","Latitude":"44.28130","Longitude":"-92.19430","Snowdepth":"6.000","Units":"in","Rept_Date":"2020-01-01 13"},"coordinates":[1213,3628]},{"type":"Point","properties":{"Station_ID":"STPW3","Station_Nam":"STEVENS POINT","Latitude":"44.51130","Longitude":"-89.58550","Snowdepth":"6.000","Units":"in","Rept_Date":"2020-01-01 13"},"coordinates":[1840,3824]},{"type":"Point","properties":{"Station_ID":"STIM5","Station_Nam":"STILLWATER 2SW","Latitude":"45.04540","Longitude":"-92.85220","Snowdepth":"6.000","Units":"in","Rept_Date":"2020-01-01 14"},"coordinates":[1055,4282]},{"type":"Point","properties":{"Station_ID":"SGVN6","Station_Nam":"SPRINGVILLE","Latitude":"42.54970","Longitude":"-78.57670","Snowdepth":"6.000","Units":"in","Rept_Date":"2020-01-01 22"},"coordinates":[4487,2146]},{"type":"Point","properties":{"Station_ID":"SD-MH-41","Station_Nam":"SIOUX FALLS 3.9 SW, SD","Latitude":"43.50475","Longitude":"-96.78660","Snowdepth":"6.000","Units":"in","Rept_Date":"2020-01-01 13"},"coordinates":[109,2963]},{"type":"Point","properties":{"Station_ID":"SCOM4","Station_Nam":"SCOTTVILLE 2 SE","Latitude":"43.93310","Longitude":"-86.24530","Snowdepth":"6.000","Units":"in","Rept_Date":"2020-01-01 12"},"coordinates":[2643,3330]},{"type":"Point","properties":{"Station_ID":"RGNM1","Station_Nam":"RANGELEY 2NW","Latitude":"44.98940","Longitude":"-70.67220","Snowdepth":"6.000","Units":"in","Rept_Date":"2020-01-01 13"},"coordinates":[6388,4234]},{"type":"Point","properties":{"Station_ID":"PVRW3","Station_Nam":"PLOVER-2-E WATER TREATMENT PLANT","Latitude":"44.45920","Longitude":"-89.49530","Snowdepth":"6.000","Units":"in","Rept_Date":"2020-01-01 13"},"coordinates":[1862,3780]},{"type":"Point","properties":{"Station_ID":"PLOW3","Station_Nam":"PLOVER","Latitude":"44.44280","Longitude":"-89.54530","Snowdepth":"6.000","Units":"in","Rept_Date":"2020-01-01 13"},"coordinates":[1850,3766]},{"type":"Point","properties":{"Station_ID":"PLFV1","Station_Nam":"PLAINFIELD","Latitude":"44.27610","Longitude":"-72.41500","Snowdepth":"6.000","Units":"in","Rept_Date":"2020-01-01 12"},"coordinates":[5969,3623]},{"type":"Point","properties":{"Station_ID":"PEKN6","Station_Nam":"PECK LAKE","Latitude":"43.11500","Longitude":"-74.42360","Snowdepth":"6.000","Units":"in","Rept_Date":"2020-01-01 12"},"coordinates":[5486,2630]},{"type":"Point","properties":{"Station_ID":"PBAN8","Station_Nam":"SITE 1-3MI.N","Latitude":"48.97420","Longitude":"-97.23860","Snowdepth":"6.000","Units":"in","Rept_Date":"2020-01-01 13"},"coordinates":[0,7643]},{"type":"Point","properties":{"Station_ID":"NH-CS-7","Station_Nam":"LANCASTER 0.5 N, NH","Latitude":"44.49611","Longitude":"-71.57640","Snowdepth":"6.000","Units":"in","Rept_Date":"2020-01-01 12"},"coordinates":[6170,3811]},{"type":"Point","properties":{"Station_ID":"MNHZK4CP","Station_Nam":"WATERTOWN 0.8 NW","Latitude":"44.97073","Longitude":"-93.85906","Snowdepth":"6.000","Units":"in","Rept_Date":"2020-01-01 13"},"coordinates":[813,4218]},{"type":"Point","properties":{"Station_ID":"MN0HS1SL","Station_Nam":"NORTH SAINT PAUL 1.6 NW","Latitude":"45.02800","Longitude":"-93.01506","Snowdepth":"6.000","Units":"in","Rept_Date":"2020-01-01 13"},"coordinates":[1016,4267]},{"type":"Point","properties":{"Station_ID":"MN-WR-25","Station_Nam":"SAINT MICHAEL 2.0 ENE, MN","Latitude":"45.20820","Longitude":"-93.65280","Snowdepth":"6.000","Units":"in","Rept_Date":"2020-01-01 12"},"coordinates":[862,4421]},{"type":"Point","properties":{"Station_ID":"MN-WG-74","Station_Nam":"OAKDALE 0.4 S, MN","Latitude":"44.98208","Longitude":"-92.96510","Snowdepth":"6.000","Units":"in","Rept_Date":"2020-01-01 13"},"coordinates":[1028,4227]},{"type":"Point","properties":{"Station_ID":"MN-RM-63","Station_Nam":"NORTH SAINT PAUL 1.0 NW, MN","Latitude":"45.02410","Longitude":"-93.01400","Snowdepth":"6.000","Units":"in","Rept_Date":"2020-01-01 13"},"coordinates":[1016,4263]},{"type":"Point","properties":{"Station_ID":"MN-HN-110","Station_Nam":"EDINA 1.9 SSE, MN","Latitude":"44.86875","Longitude":"-93.33940","Snowdepth":"6.000","Units":"in","Rept_Date":"2020-01-01 13"},"coordinates":[938,4130]},{"type":"Point","properties":{"Station_ID":"MN-GH-28","Station_Nam":"CANNON FALLS 0.5 SE, MN","Latitude":"44.50866","Longitude":"-92.89526","Snowdepth":"6.000","Units":"in","Rept_Date":"2020-01-01 14"},"coordinates":[1044,3822]},{"type":"Point","properties":{"Station_ID":"MN-CV-8","Station_Nam":"WATERTOWN 0.5 NNW, MN","Latitude":"44.96631","Longitude":"-93.84890","Snowdepth":"6.000","Units":"in","Rept_Date":"2020-01-01 11"},"coordinates":[815,4214]},{"type":"Point","properties":{"Station_ID":"MMLM5","Station_Nam":"DIVERSION","Latitude":"44.47060","Longitude":"-95.80000","Snowdepth":"6.000","Units":"in","Rept_Date":"2020-01-01 14"},"coordinates":[346,3790]},{"type":"Point","properties":{"Station_ID":"MI-OG-6","Station_Nam":"WEST BRANCH 2.1 SSW, MI","Latitude":"44.24814","Longitude":"-84.25089","Snowdepth":"6.000","Units":"in","Rept_Date":"2020-01-01 12"},"coordinates":[3123,3599]},{"type":"Point","properties":{"Station_ID":"MI-CF-9","Station_Nam":"GRAYLING 15.8 NE, MI","Latitude":"44.80464","Longitude":"-84.46313","Snowdepth":"6.000","Units":"in","Rept_Date":"2020-01-01 12"},"coordinates":[3072,4075]},{"type":"Point","properties":{"Station_ID":"MA-WR-22","Station_Nam":"FITCHBURG 2.0 NNE, MA","Latitude":"42.61671","Longitude":"-71.80100","Snowdepth":"6.000","Units":"in","Rept_Date":"2020-01-01 13"},"coordinates":[6116,2203]},{"type":"Point","properties":{"Station_ID":"MA-FR-13","Station_Nam":"CONWAY 2.9 NW, MA","Latitude":"42.54419","Longitude":"-72.72743","Snowdepth":"6.000","Units":"in","Rept_Date":"2020-01-01 13"},"coordinates":[5894,2141]},{"type":"Point","properties":{"Station_ID":"LKFM5","Station_Nam":"LAKEFIELD,MN","Latitude":"43.68330","Longitude":"-95.18330","Snowdepth":"6.000","Units":"in","Rept_Date":"2020-01-01 13"},"coordinates":[494,3116]},{"type":"Point","properties":{"Station_ID":"KIMM5","Station_Nam":"KIMBALL 3N","Latitude":"45.35330","Longitude":"-94.30560","Snowdepth":"6.000","Units":"in","Rept_Date":"2020-01-01 12"},"coordinates":[705,4545]},{"type":"Point","properties":{"Station_ID":"JKMM1","Station_Nam":"JACKMAN","Latitude":"45.62600","Longitude":"-70.24600","Snowdepth":"6.000","Units":"in","Rept_Date":"2020-01-01 12"},"coordinates":[6490,4778]},{"type":"Point","properties":{"Station_ID":"INDN6","Station_Nam":"INDIAN LAKE","Latitude":"43.75500","Longitude":"-74.27560","Snowdepth":"6.000","Units":"in","Rept_Date":"2020-01-01 13"},"coordinates":[5521,3177]},{"type":"Point","properties":{"Station_ID":"FRSW3","Station_Nam":"FRIENDSHIP","Latitude":"43.97500","Longitude":"-89.83080","Snowdepth":"6.000","Units":"in","Rept_Date":"2020-01-01 13"},"coordinates":[1781,3366]},