{"type":"Topology","objects":{"snowdepth_geo":{"type":"GeometryCollection","name":"snowdepth","crs":{"type":"name","properties":{"name":"urn:ogc:def:crs:OGC:1.3:CRS84"}},"geometries":[{"type":"Point","properties":{"Station_ID":"PRKM4","Station_Nam":"MUNISING EAST","Latitude":"46.42580","Longitude":"-86.62000","Snowdepth":"76.500","Units":"in","Rept_Date":"2020-12-16 06"},"coordinates":[2374,7371]},{"type":"Point","properties":{"Station_ID":"QOU","Station_Nam":"QOU","Latitude":"50.79250","Longitude":"-69.67470","Snowdepth":"20.866","Units":"in","Rept_Date":"2020-12-15 12"},"coordinates":[6186,9536]},{"type":"Point","properties":{"Station_ID":"MLZ","Station_Nam":"MLZ","Latitude":"50.66170","Longitude":"-68.82360","Snowdepth":"19.291","Units":"in","Rept_Date":"2020-12-15 12"},"coordinates":[6378,9471]},{"type":"Point","properties":{"Station_ID":"QGO","Station_Nam":"QGO","Latitude":"48.85500","Longitude":"-74.20640","Snowdepth":"16.929","Units":"in","Rept_Date":"2020-12-15 12"},"coordinates":[5167,8575]},{"type":"Point","properties":{"Station_ID":"QCO","Station_Nam":"QCO","Latitude":"51.45280","Longitude":"-72.20110","Snowdepth":"16.496","Units":"in","Rept_Date":"2020-12-15 12"},"coordinates":[5618,9863]},{"type":"Point","properties":{"Station_ID":"QLB","Station_Nam":"QLB","Latitude":"50.72360","Longitude":"-75.10000","Snowdepth":"15.669","Units":"in","Rept_Date":"2020-12-15 12"},"coordinates":[4966,9502]},{"type":"Point","properties":{"Station_ID":"QCU","Station_Nam":"QCU","Latitude":"47.82750","Longitude":"-76.59830","Snowdepth":"14.882","Units":"in","Rept_Date":"2020-12-15 12"},"coordinates":[4629,8066]},{"type":"Point","properties":{"Station_ID":"QMD","Station_Nam":"QMD","Latitude":"49.29060","Longitude":"-75.84500","Snowdepth":"14.606","Units":"in","Rept_Date":"2020-12-15 12"},"coordinates":[4798,8791]},{"type":"Point","properties":{"Station_ID":"QCX","Station_Nam":"QCX","Latitude":"51.32830","Longitude":"-70.08060","Snowdepth":"12.992","Units":"in","Rept_Date":"2020-12-15 12"},"coordinates":[6095,9801]},{"type":"Point","properties":{"Station_ID":"QFT","Station_Nam":"QFT","Latitude":"50.83280","Longitude":"-74.40390","Snowdepth":"12.559","Units":"in","Rept_Date":"2020-12-15 12"},"coordinates":[5122,9556]},{"type":"Point","properties":{"Station_ID":"ME-AR-18","Station_Nam":"NEW SWEDEN 4.9 NNW, ME","Latitude":"47.01080","Longitude":"-68.14390","Snowdepth":"12.500","Units":"in","Rept_Date":"2020-12-15 12"},"coordinates":[6531,7661]},{"type":"Point","properties":{"Station_ID":"QMA","Station_Nam":"QMA","Latitude":"50.10330","Longitude":"-70.47190","Snowdepth":"12.047","Units":"in","Rept_Date":"2020-12-15 12"},"coordinates":[6007,9194]},{"type":"Point","properties":{"Station_ID":"HTLN3","Station_Nam":"HERMIT LAKE SNOWPLOT","Latitude":"44.26130","Longitude":"-71.28330","Snowdepth":"12.000","Units":"in","Rept_Date":"2020-12-15 10"},"coordinates":[5824,6298]},{"type":"Point","properties":{"Station_ID":"APN","Station_Nam":"PHELPS COLLINS FIELD","Latitude":"45.07810","Longitude":"-83.56030","Snowdepth":"12.000","Units":"in","Rept_Date":"2020-12-16 00"},"coordinates":[3062,6703]},{"type":"Point","properties":{"Station_ID":"ALPM4","Station_Nam":"SNOW PAID OBSERVER FOR KAPN","Latitude":"45.03110","Longitude":"-83.55970","Snowdepth":"12.000","Units":"in","Rept_Date":"2020-12-15 12"},"coordinates":[3062,6680]},{"type":"Point","properties":{"Station_ID":"QTV","Station_Nam":"QTV","Latitude":"49.66000","Longitude":"-69.35690","Snowdepth":"11.850","Units":"in","Rept_Date":"2020-12-15 12"},"coordinates":[6258,8974]},{"type":"Point","properties":{"Station_ID":"QTM","Station_Nam":"QTM","Latitude":"51.05780","Longitude":"-72.57190","Snowdepth":"11.850","Units":"in","Rept_Date":"2020-12-15 12"},"coordinates":[5535,9667]},{"type":"Point","properties":{"Station_ID":"QWE","Station_Nam":"QWE","Latitude":"47.84610","Longitude":"-73.80670","Snowdepth":"11.024","Units":"in","Rept_Date":"2020-12-15 12"},"coordinates":[5257,8075]},{"type":"Point","properties":{"Station_ID":"MI-OT-17","Station_Nam":"GAYLORD 4.1 S, MI","Latitude":"44.96388","Longitude":"-84.68467","Snowdepth":"11.000","Units":"in","Rept_Date":"2020-12-15 11"},"coordinates":[2809,6646]},{"type":"Point","properties":{"Station_ID":"CARM1","Station_Nam":"CARIBOU WFO","Latitude":"46.86810","Longitude":"-68.01250","Snowdepth":"11.000","Units":"in","Rept_Date":"2020-12-16 05"},"coordinates":[6560,7590]},{"type":"Point","properties":{"Station_ID":"DVLQ6","Station_Nam":"DEVIOUS LAKE","Latitude":"49.19890","Longitude":"-87.76440","Snowdepth":"10.940","Units":"in","Rept_Date":"2020-12-16 06"},"coordinates":[2116,8746]},{"type":"Point","properties":{"Station_ID":"MFU","Station_Nam":"MFU","Latitude":"51.52170","Longitude":"-66.91110","Snowdepth":"10.394","Units":"in","Rept_Date":"2020-12-15 12"},"coordinates":[6808,9897]},{"type":"Point","properties":{"Station_ID":"QLM","Station_Nam":"QLM","Latitude":"48.92030","Longitude":"-70.25280","Snowdepth":"10.197","Units":"in","Rept_Date":"2020-12-15 12"},"coordinates":[6056,8608]},{"type":"Point","properties":{"Station_ID":"QLP","Station_Nam":"QLP","Latitude":"48.13920","Longitude":"-72.63830","Snowdepth":"10.118","Units":"in","Rept_Date":"2020-12-15 12"},"coordinates":[5520,8221]},{"type":"Point","properties":{"Station_ID":"PTLQ6","Station_Nam":"PORTAGE LAKE","Latitude":"49.06950","Longitude":"-86.65940","Snowdepth":"9.720","Units":"in","Rept_Date":"2020-12-16 06"},"coordinates":[2365,8682]},{"type":"Point","properties":{"Station_ID":"TRIQ6","Station_Nam":"TRIO LAKE","Latitude":"49.22880","Longitude":"-87.22920","Snowdepth":"9.690","Units":"in","Rept_Date":"2020-12-16 06"},"coordinates":[2237,8761]},{"type":"Point","properties":{"Station_ID":"AUDQ6","Station_Nam":"AUDEN","Latitude":"48.52600","Longitude":"-82.57570","Snowdepth":"9.250","Units":"in","Rept_Date":"2020-12-16 06"},"coordinates":[3284,8412]},{"type":"Point","properties":{"Station_ID":"RGNM1","Station_Nam":"RANGELEY 2NW","Latitude":"44.98940","Longitude":"-70.67220","Snowdepth":"9.000","Units":"in","Rept_Date":"2020-12-15 12"},"coordinates":[5962,6659]},{"type":"Point","properties":{"Station_ID":"MWN","Station_Nam":"MOUNT WASHINGTON","Latitude":"44.26670","Longitude":"-71.30000","Snowdepth":"9.000","Units":"in","Rept_Date":"2020-12-15 12"},"coordinates":[5821,6301]},{"type":"Point","properties":{"Station_ID":"MI-OT-16","Station_Nam":"GAYLORD 2.2 SSE, MI","Latitude":"44.99441","Longitude":"-84.65820","Snowdepth":"9.000","Units":"in","Rept_Date":"2020-12-15 14"},"coordinates":[2815,6662]},{"type":"Point","properties":{"Station_ID":"MI-OG-6","Station_Nam":"WEST BRANCH 2.1 SSW, MI","Latitude":"44.24814","Longitude":"-84.25089","Snowdepth":"9.000","Units":"in","Rept_Date":"2020-12-15 12"},"coordinates":[2907,6292]},{"type":"Point","properties":{"Station_ID":"ME-AR-15","Station_Nam":"PRESQUE ISLE 1.3 WSW, ME","Latitude":"46.67960","Longitude":"-68.01270","Snowdepth":"9.000","Units":"in","Rept_Date":"2020-12-15 12"},"coordinates":[6560,7497]},{"type":"Point","properties":{"Station_ID":"IL-CL-2","Station_Nam":"MARSHALL 4.6 W, IL","Latitude":"39.38378","Longitude":"-87.77430","Snowdepth":"9.000","Units":"in","Rept_Date":"2020-12-15 12"},"coordinates":[2114,3880]},{"type":"Point","properties":{"Station_ID":"FISM1","Station_Nam":"FORT KENT COOP","Latitude":"47.23850","Longitude":"-68.61240","Snowdepth":"9.000","Units":"in","Rept_Date":"2020-12-15 12"},"coordinates":[6425,7774]},{"type":"Point","properties":{"Station_ID":"QLI","Station_Nam":"QLI","Latitude":"50.27080","Longitude":"-73.92280","Snowdepth":"8.858","Units":"in","Rept_Date":"2020-12-15 12"},"coordinates":[5231,9277]},{"type":"Point","properties":{"Station_ID":"HLSN3","Station_Nam":"HERMIT LAKE SNOTEL","Latitude":"44.26130","Longitude":"-71.28320","Snowdepth":"8.820","Units":"in","Rept_Date":"2020-12-16 06"},"coordinates":[5825,6298]},{"type":"Point","properties":{"Station_ID":"MRL","Station_Nam":"MRL","Latitude":"51.28330","Longitude":"-68.84060","Snowdepth":"8.425","Units":"in","Rept_Date":"2020-12-15 12"},"coordinates":[6374,9779]},{"type":"Point","properties":{"Station_ID":"WI-DA-45","Station_Nam":"MADISON 6.1 W, WI","Latitude":"43.06948","Longitude":"-89.50788","Snowdepth":"8.200","Units":"in","Rept_Date":"2020-12-15 13"},"coordinates":[1724,5707]},{"type":"Point","properties":{"Station_ID":"SNOW2","Station_Nam":"SNOWSHOE","Latitude":"38.39900","Longitude":"-79.99490","Snowdepth":"8.000","Units":"in","Rept_Date":"2020-12-15 11"},"coordinates":[3864,3392]},{"type":"Point","properties":{"Station_ID":"ONAM4","Station_Nam":"ONAWAY 4N","Latitude":"45.41080","Longitude":"-84.22330","Snowdepth":"8.000","Units":"in","Rept_Date":"2020-12-15 23"},"coordinates":[2913,6868]},{"type":"Point","properties":{"Station_ID":"MYOM4","Station_Nam":"MIO WWTP","Latitude":"44.64660","Longitude":"-84.11580","Snowdepth":"8.000","Units":"in","Rept_Date":"2020-12-15 13"},"coordinates":[2937,6489]},{"type":"Point","properties":{"Station_ID":"MI-BZ-6","Station_Nam":"LAKE ANN 2.0 N, MI","Latitude":"44.75487","Longitude":"-85.84505","Snowdepth":"8.000","Units":"in","Rept_Date":"2020-12-15 13"},"coordinates":[2548,6543]},{"type":"Point","properties":{"Station_ID":"KMWN","Station_Nam":"MOUNT WASHINGTON","Latitude":"44.26666","Longitude":"-71.30000","Snowdepth":"8.000","Units":"in","Rept_Date":"2020-12-16 06"},"coordinates":[5821,6301]},{"type":"Point","properties":{"Station_ID":"HERM4","Station_Nam":"HERMAN,MI","Latitude":"46.65000","Longitude":"-88.33330","Snowdepth":"8.000","Units":"in","Rept_Date":"2020-12-15 13"},"coordinates":[1988,7482]},{"type":"Point","properties":{"Station_ID":"ATLM4","Station_Nam":"ATLANTA","Latitude":"45.00470","Longitude":"-84.14040","Snowdepth":"8.000","Units":"in","Rept_Date":"2020-12-15 12"},"coordinates":[2932,6667]},{"type":"Point","properties":{"Station_ID":"QWG","Station_Nam":"QWG","Latitude":"48.48890","Longitude":"-73.45940","Snowdepth":"7.953","Units":"in","Rept_Date":"2020-12-15 12"},"coordinates":[5335,8394]},{"type":"Point","properties":{"Station_ID":"WI-DA-35","Station_Nam":"MADISON 5.5 N, WI","Latitude":"43.15858","Longitude":"-89.37280","Snowdepth":"7.900","Units":"in","Rept_Date":"2020-12-15 14"},"coordinates":[1755,5752]},{"type":"Point","properties":{"Station_ID":"ME-SM-45","Station_Nam":"BRIGHTON PLANTATION 2.1 N, ME","Latitude":"45.07098","Longitude":"-69.69860","Snowdepth":"7.500","Units":"in","Rept_Date":"2020-12-15 12"},"coordinates":[6181,6700]},{"type":"Point","properties":{"Station_ID":"CAN-NB-105","Station_Nam":"SISSON BROOK 3.8 E, CAN","Latitude":"46.98305","Longitude":"-67.32532","Snowdepth":"7.500","Units":"in","Rept_Date":"2020-12-15 12"},"coordinates":[6715,7647]},{"type":"Point","properties":{"Station_ID":"WI-DA-99","Station_Nam":"FITCHBURG 1.1 NW, WI","Latitude":"42.99740","Longitude":"-89.44046","Snowdepth":"7.000","Units":"in","Rept_Date":"2020-12-15 13"},"coordinates":[1739,5672]},{"type":"Point","properties":{"Station_ID":"VANM1","Station_Nam":"VAN BUREN","Latitude":"47.16600","Longitude":"-67.93900","Snowdepth":"7.000","Units":"in","Rept_Date":"2020-12-15 12"},"coordinates":[6577,7738]},{"type":"Point","properties":{"Station_ID":"TCEM4","Station_Nam":"TRAVERSE CITY 5ESE","Latitude":"44.73370","Longitude":"-85.51180","Snowdepth":"7.000","Units":"in","Rept_Date":"2020-12-15 12"},"coordinates":[2623,6532]},{"type":"Point","properties":{"Station_ID":"RANM1","Station_Nam":"RANGELEY","Latitude":"44.98910","Longitude":"-70.67190","Snowdepth":"7.000","Units":"in","Rept_Date":"2020-12-15 11"},"coordinates":[5962,6659]},{"type":"Point","properties":{"Station_ID":"PDLM4","Station_Nam":"PAINESDALE","Latitude":"47.04160","Longitude":"-88.67170","Snowdepth":"7.000","Units":"in","Rept_Date":"2020-12-15 13"},"coordinates":[1912,7676]},{"type":"Point","properties":{"Station_ID":"NH-CS-10","Station_Nam":"RANDOLPH 1.4 NE, NH","Latitude":"44.38824","Longitude":"-71.26950","Snowdepth":"7.000","Units":"in","Rept_Date":"2020-12-15 12"},"coordinates":[5828,6361]},{"type":"Point","properties":{"Station_ID":"MONW3","Station_Nam":"MONROE,WI","Latitude":"42.60000","Longitude":"-89.66670","Snowdepth":"7.000","Units":"in","Rept_Date":"2020-12-15 13"},"coordinates":[1688,5475]},{"type":"Point","properties":{"Station_ID":"MNSM4","Station_Nam":"MUNISING","Latitude":"46.41210","Longitude":"-86.66250","Snowdepth":"7.000","Units":"in","Rept_Date":"2020-12-15 11"},"coordinates":[2364,7364]},{"type":"Point","properties":{"Station_ID":"MMNV1","Station_Nam":"MT. MANSFIELD","Latitude":"44.52480","Longitude":"-72.81540","Snowdepth":"7.000","Units":"in","Rept_Date":"2020-12-15 21"},"coordinates":[5480,6429]},{"type":"Point","properties":{"Station_ID":"MI-OT-4","Station_Nam":"GAYLORD 1.7 WNW, MI","Latitude":"45.03280","Longitude":"-84.71090","Snowdepth":"7.000","Units":"in","Rept_Date":"2020-12-15 13"},"coordinates":[2803,6681]},{"type":"Point","properties":{"Station_ID":"MI-KW-2","Station_Nam":"DELAWARE 5.2 SW, MI","Latitude":"47.36928","Longitude":"-88.17919","Snowdepth":"7.000","Units":"in","Rept_Date":"2020-12-15 09"},"coordinates":[2023,7839]},{"type":"Point","properties":{"Station_ID":"MI-GT-25","Station_Nam":"TRAVERSE CITY 4.7 ESE, MI","Latitude":"44.73370","Longitude":"-85.51189","Snowdepth":"7.000","Units":"in","Rept_Date":"2020-12-15 12"},"coordinates":[2623,6532]},{"type":"Point","properties":{"Station_ID":"MI-GT-21","Station_Nam":"KINGSLEY 2.7 ENE, MI","Latitude":"44.59871","Longitude":"-85.48426","Snowdepth":"7.000","Units":"in","Rept_Date":"2020-12-15 13"},"coordinates":[2629,6465]},{"type":"Point","properties":{"Station_ID":"MDDW3","Station_Nam":"MIDDLETON,WI","Latitude":"43.09060","Longitude":"-89.51470","Snowdepth":"7.000","Units":"in","Rept_Date":"2020-12-15 13"},"coordinates":[1723,5718]},{"type":"Point","properties":{"Station_ID":"LILM1","Station_Nam":"LILLE","Latitude":"47.27770","Longitude":"-68.10520","Snowdepth":"7.000","Units":"in","Rept_Date":"2020-12-15 12"},"coordinates":[6540,7793]},{"type":"Point","properties":{"Station_ID":"KSEM4","Station_Nam":"KALKASKA 11SE","Latitude":"44.58970","Longitude":"-85.04860","Snowdepth":"7.000","Units":"in","Rept_Date":"2020-12-15 13"},"coordinates":[2727,6461]},{"type":"Point","properties":{"Station_ID":"HWLM4","Station_Nam":"HALFWAY LAKE","Latitude":"46.47480","Longitude":"-85.59250","Snowdepth":"7.000","Units":"in","Rept_Date":"2020-12-15 14"},"coordinates":[2605,7395]},{"type":"Point","properties":{"Station_ID":"GAYM4","Station_Nam":"GAYLORD","Latitude":"45.03320","Longitude":"-84.71130","Snowdepth":"7.000","Units":"in","Rept_Date":"2020-12-15 13"},"coordinates":[2803,6681]},{"type":"Point","properties":{"Station_ID":"FLAM4","Station_Nam":"FIFE LAKE 2WNW","Latitude":"44.58480","Longitude":"-85.36530","Snowdepth":"7.000","Units":"in","Rept_Date":"2020-12-15 12"},"coordinates":[2656,6459]},{"type":"Point","properties":{"Station_ID":"DUBI4","Station_Nam":"DUBUQUE #3","Latitude":"42.40870","Longitude":"-90.73250","Snowdepth":"7.000","Units":"in","Rept_Date":"2020-12-16 00"},"coordinates":[1449,5380]},{"type":"Point","properties":{"Station_ID":"DBQ","Station_Nam":"DUBUQUE REGIONAL AIRPORT","Latitude":"42.40310","Longitude":"-90.70920","Snowdepth":"7.000","Units":"in","Rept_Date":"2020-12-16 00"},"coordinates":[1454,5377]},{"type":"Point","properties":{"Station_ID":"CLQM5","Station_Nam":"CLOQUET","Latitude":"46.70470","Longitude":"-92.52530","Snowdepth":"7.000","Units":"in","Rept_Date":"2020-12-15 14"},"coordinates":[1045,7509]},{"type":"Point","properties":{"Station_ID":"WI-IW-7","Station_Nam":"DODGEVILLE 2.7 NE, WI","Latitude":"42.99414","Longitude":"-90.09488","Snowdepth":"6.500","Units":"in","Rept_Date":"2020-12-15 13"},"coordinates":[1592,5670]},{"type":"Point","properties":{"Station_ID":"KABQ6","Station_Nam":"CAB LAKE","Latitude":"49.59950","Longitude":"-89.17990","Snowdepth":"6.500","Units":"in","Rept_Date":"2020-12-16 06"},"coordinates":[1798,8944]},{"type":"Point","properties":{"Station_ID":"CAN-NB-13","Station_Nam":"BATHURST 3.8 NW, CAN","Latitude":"47.64212","Longitude":"-65.68756","Snowdepth":"6.500","Units":"in","Rept_Date":"2020-12-15 11"},"coordinates":[7083,7974]},{"type":"Point","properties":{"Station_ID":"MI-CF-9","Station_Nam":"GRAYLING 15.8 NE, MI","Latitude":"44.80464","Longitude":"-84.46313","Snowdepth":"6.200","Units":"in","Rept_Date":"2020-12-15 12"},"coordinates":[2859,6568]},{"type":"Point","properties":{"Station_ID":"SOCQ6","Station_Nam":"SOCKET LAKE","Latitude":"50.77870","Longitude":"-91.79300","Snowdepth":"6.140","Units":"in","Rept_Date":"2020-12-16 06"},"coordinates":[1210,9529]},{"type":"Point","properties":{"Station_ID":"OGIQ6","Station_Nam":"OGOKI CAMP","Latitude":"50.76680","Longitude":"-87.85820","Snowdepth":"6.100","Units":"in","Rept_Date":"2020-12-16 06"},"coordinates":[2095,9523]},{"type":"Point","properties":{"Station_ID":"QGA","Station_Nam":"QGA","Latitude":"47.25640","Longitude":"-73.73810","Snowdepth":"6.024","Units":"in","Rept_Date":"2020-12-15 12"},"coordinates":[5272,7783]},{"type":"Point","properties":{"Station_ID":"WRUM5","Station_Nam":"WARROAD 4W","Latitude":"48.89600","Longitude":"-95.40700","Snowdepth":"6.000","Units":"in","Rept_Date":"2020-12-16 04"},"coordinates":[397,8596]},{"type":"Point","properties":{"Station_ID":"WI-IW-3","Station_Nam":"MINERAL POINT 7.3 ENE, WI","Latitude":"42.91400","Longitude":"-90.05700","Snowdepth":"6.000","Units":"in","Rept_Date":"2020-12-15 13"},"coordinates":[1601,5630]},{"type":"Point","properties":{"Station_ID":"WI-DA-46","Station_Nam":"MADISON 6.4 W, WI","Latitude":"43.08337","Longitude":"-89.51503","Snowdepth":"6.000","Units":"in","Rept_Date":"2020-12-15 13"},"coordinates":[1723,5714]},{"type":"Point","properties":{"Station_ID":"WBRM4","Station_Nam":"WEST BRANCH 3SE","Latitude":"44.25410","Longitude":"-84.20110","Snowdepth":"6.000","Units":"in","Rept_Date":"2020-12-15 13"},"coordinates":[2918,6295]},{"type":"Point","properties":{"Station_ID":"STOI2","Station_Nam":"STOCKTON 3 NNE","Latitude":"42.40050","Longitude":"-89.99580","Snowdepth":"6.000","Units":"in","Rept_Date":"2020-12-16 03"},"coordinates":[1614,5376]},{"type":"Point","properties":{"Station_ID":"POLM1","Station_Nam":"POLAND","Latitude":"44.00700","Longitude":"-70.36140","Snowdepth":"6.000","Units":"in","Rept_Date":"2020-12-15 12"},"coordinates":[6032,6172]},{"type":"Point","properties":{"Station_ID":"MI-HG-20","Station_Nam":"CALUMET 1.1 SSW, MI","Latitude":"47.23165","Longitude":"-88.45823","Snowdepth":"6.000","Units":"in","Rept_Date":"2020-12-15 11"},"coordinates":[1960,7771]},{"type":"Point","properties":{"Station_ID":"ME-KB-53","Station_Nam":"READFIELD 2.0 NNE, ME","Latitude":"44.41620","Longitude":"-69.95190","Snowdepth":"6.000","Units":"in","Rept_Date":"2020-12-15 12"},"coordinates":[6124,6375]},{"type":"Point","properties":{"Station_ID":"ME-FR-2","Station_Nam":"TEMPLE 1.8 W, ME","Latitude":"44.68329","Longitude":"-70.26420","Snowdepth":"6.000","Units":"in","Rept_Date":"2020-12-15 12"},"coordinates":[6054,6507]},{"type":"Point","properties":{"Station_ID":"KLKM4","Station_Nam":"KALKASKA","Latitude":"44.72800","Longitude":"-85.17270","Snowdepth":"6.000","Units":"in","Rept_Date":"2020-12-15 13"},"coordinates":[2700,6530]},{"type":"Point","properties":{"Station_ID":"IL-JD-8","Station_Nam":"STOCKTON 3.4 NNE, IL","Latitude":"42.39960","Longitude":"-89.99020","Snowdepth":"6.000","Units":"in","Rept_Date":"2020-12-15 13"},"coordinates":[1616,5375]},{"type":"Point","properties":{"Station_ID":"IA-JH-20","Station_Nam":"CORALVILLE 1.4 S, IA","Latitude":"41.67016","Longitude":"-91.60296","Snowdepth":"6.000","Units":"in","Rept_Date":"2020-12-15 14"},"coordinates":[1253,5014]},{"type":"Point","properties":{"Station_ID":"HTLM4","Station_Nam":"SNOW PAID OBSERVER FOR KHTL","Latitude":"44.34470","Longitude":"-84.67730","Snowdepth":"6.000","Units":"in","Rept_Date":"2020-12-15 18"},"coordinates":[2811,6340]},{"type":"Point","properties":{"Station_ID":"HTL","Station_Nam":"ROSCOMMON COUNTY AIRPORT","Latitude":"44.35000","Longitude":"-84.66670","Snowdepth":"6.000","Units":"in","Rept_Date":"2020-12-16 00"},"coordinates":[2813,6342]},{"type":"Point","properties":{"Station_ID":"GLNM4","Station_Nam":"GLENNIE 2SE","Latitude":"44.53580","Longitude":"-83.70220","Snowdepth":"6.000","Units":"in","Rept_Date":"2020-12-15 12"},"coordinates":[3030,6434]},{"type":"Point","properties":{"Station_ID":"DLDI4","Station_Nam":"MISSISSIPPI RIVER","Latitude":"42.51670","Longitude":"-90.65000","Snowdepth":"6.000","Units":"in","Rept_Date":"2020-12-15 12"},"coordinates":[1467,5433]},{"type":"Point","properties":{"Station_ID":"CHMW3","Station_Nam":"MADISON,WI","Latitude":"43.06030","Longitude":"-89.47810","Snowdepth":"6.000","Units":"in","Rept_Date":"2020-12-15 14"},"coordinates":[1731,5703]},{"type":"Point","properties":{"Station_ID":"CAN-ON-118","Station_Nam":"DURHAM 1.4 S, CAN","Latitude":"44.16525","Longitude":"-80.82064","Snowdepth":"6.000","Units":"in","Rept_Date":"2020-12-15 12"},"coordinates":[3679,6251]},{"type":"Point","properties":{"Station_ID":"BNWI4","Station_Nam":"BOONE,IA","Latitude":"42.05000","Longitude":"-93.93330","Snowdepth":"6.000","Units":"in","Rept_Date":"2020-12-15 14"},"coordinates":[729,5202]},{"type":"Point","properties":{"Station_ID":"BKBW2","Station_Nam":"DAVIS.","Latitude":"39.09830","Longitude":"-79.43190","Snowdepth":"6.000","Units":"in","Rept_Date":"2020-12-15 12"},"coordinates":[3991,3739]},{"type":"Point","properties":{"Station_ID":"ARBW3","Station_Nam":"SOUTH SIDE-ARBORETUM UNIV WI","Latitude":"43.04110","Longitude":"-89.42860","Snowdepth":"6.000","Units":"in","Rept_Date":"2020-12-15 15"},"coordinates":[1742,5693]},{"type":"Point","properties":{"Station_ID":"APXM4","Station_Nam":"GAYLORD 9SSW","Latitude":"44.90720","Longitude":"-84.71880","Snowdepth":"6.000","Units":"in","Rept_Date":"2020-12-16 06"},"coordinates":[2802,6618]},{"type":"Point","properties":{"Station_ID":"SVBQ6","Station_Nam":"SAVANT BASE","Latitude":"50.28730","Longitude":"-90.65670","Snowdepth":"5.870","Units":"in","Rept_Date":"2020-12-16 06"},"coordinates":[1466,9285]},{"type":"Point","properties":{"Station_ID":"CATQ6","Station_Nam":"CAT LAKE","Latitude":"51.72690","Longitude":"-91.82210","Snowdepth":"5.630","Units":"in","Rept_Date":"2020-12-16 06"},"coordinates":[1204,9999]},{"type":"Point","properties":{"Station_ID":"WI-DA-13","Station_Nam":"MADISON 3.7 WSW, WI","Latitude":"43.06230","Longitude":"-89.45650","Snowdepth":"5.500","Units":"in","Rept_Date":"2020-12-15 13"},"coordinates":[1736,5704]},{"type":"Point","properties":{"Station_ID":"MI-BG-3","Station_Nam":"THREE LAKES, MI","Latitude":"46.55730","Longitude":"-88.20770","Snowdepth":"5.500","Units":"in","Rept_Date":"2020-12-15 13"},"coordinates":[2017,7436]},{"type":"Point","properties":{"Station_ID":"MI-AT-6","Station_Nam":"MANCELONA 0.5 ESE, MI","Latitude":"44.89981","Longitude":"-85.05100","Snowdepth":"5.500","Units":"in","Rept_Date":"2020-12-15 13"},"coordinates":[2727,6615]},{"type":"Point","properties":{"Station_ID":"ME-SM-4","Station_Nam":"SOLON 3.9 ESE, ME","Latitude":"44.94705","Longitude":"-69.77790","Snowdepth":"5.500","Units":"in","Rept_Date":"2020-12-15 12"},"coordinates":[6163,6638]},{"type":"Point","properties":{"Station_ID":"CAN-NL-82","Station_Nam":"GANDER 2.7 NW, CAN","Latitude":"48.97737","Longitude":"-54.63396","Snowdepth":"5.500","Units":"in","Rept_Date":"2020-12-15 10"},"coordinates":[9570,8636]},{"type":"Point","properties":{"Station_ID":"CAN-MB-32","Station_Nam":"PINAWA 1.0 SW, CA","Latitude":"50.14747","Longitude":"-95.89020","Snowdepth":"5.500","Units":"in","Rept_Date":"2020-12-15 13"},"coordinates":[288,9216]},{"type":"Point","properties":{"Station_ID":"FTHQ6","Station_Nam":"FORT HOPE","Latitude":"51.55820","Longitude":"-87.90510","Snowdepth":"5.430","Units":"in","Rept_Date":"2020-12-16 06"},"coordinates":[2085,9915]},{"type":"Point","properties":{"Station_ID":"CAN-MB-368","Station_Nam":"WHITESHELL 1.3 NE, CAN","Latitude":"49.74405","Longitude":"-95.19123","Snowdepth":"5.300","Units":"in","Rept_Date":"2020-12-15 14"},"coordinates":[446,9016]},{"type":"Point","properties":{"Station_ID":"CAN-QC-47","Station_Nam":"SAINTE-FOY 1.8 ENE, CAN","Latitude":"46.76934","Longitude":"-71.27124","Snowdepth":"5.100","Units":"in","Rept_Date":"2020-12-15 12"},"coordinates":[5827,7541]},{"type":"Point","properties":{"Station_ID":"WSFW3","Station_Nam":"TOWN OF WESTFORD","Latitude":"43.47190","Longitude":"-88.88250","Snowdepth":"5.000","Units":"in","Rept_Date":"2020-12-15 13"},"coordinates":[1865,5907]},{"type":"Point","properties":{"Station_ID":"WLFM5","Station_Nam":"WOLF RIDGE ENVIRON LEARNING CENTER","Latitude":"47.38240","Longitude":"-91.19730","Snowdepth":"5.000","Units":"in","Rept_Date":"2020-12-15 13"},"coordinates":[1344,7845]},{"type":"Point","properties":{"Station_ID":"WI-DD-5","Station_Nam":"THERESA 3.1 SE, WI","Latitude":"43.49201","Longitude":"-88.40165","Snowdepth":"5.000","Units":"in","Rept_Date":"2020-12-15 14"},"coordinates":[1973,5917]},{"type":"Point","properties":{"Station_ID":"WI-DD-16","Station_Nam":"BEAVER DAM 2.4 WNW, WI","Latitude":"43.47210","Longitude":"-88.88280","Snowdepth":"5.000","Units":"in","Rept_Date":"2020-12-15 13"},"coordinates":[1865,5907]},{"type":"Point","properties":{"Station_ID":"WI-DA-39","Station_Nam":"MADISON 4.0 W, WI","Latitude":"43.07741","Longitude":"-89.46757","Snowdepth":"5.000","Units":"in","Rept_Date":"2020-12-15 13"},"coordinates":[1733,5711]},{"type":"Point","properties":{"Station_ID":"WI-DA-33","Station_Nam":"OREGON 0.4 SSW, WI","Latitude":"42.92080","Longitude":"-89.38540","Snowdepth":"5.000","Units":"in","Rept_Date":"2020-12-15 13"},"coordinates":[1752,5634]},{"type":"Point","properties":{"Station_ID":"SCOM4","Station_Nam":"SCOTTVILLE 2 SE","Latitude":"43.93310","Longitude":"-86.24530","Snowdepth":"5.000","Units":"in","Rept_Date":"2020-12-15 12"},"coordinates":[2458,6135]},{"type":"Point","properties":{"Station_ID":"RKWM1","Station_Nam":"MOOSEHEAD LAKE","Latitude":"45.58330","Longitude":"-69.71670","Snowdepth":"5.000","Units":"in","Rept_Date":"2020-12-15 12"},"coordinates":[6177,6954]},{"type":"Point","properties":{"Station_ID":"QNCM4","Station_Nam":"QUINCY HILL","Latitude":"47.13640","Longitude":"-88.57950","Snowdepth":"5.000","Units":"in","Rept_Date":"2020-12-15 13"},"coordinates":[1933,7723]},{"type":"Point","properties":{"Station_ID":"MSN","Station_Nam":"MADISON DANE COUNTY RGNL","Latitude":"43.13970","Longitude":"-89.33750","Snowdepth":"5.000","Units":"in","Rept_Date":"2020-12-16 00"},"coordinates":[1763,5742]},{"type":"Point","properties":{"Station_ID":"MI-OC-3","Station_Nam":"HART 3 WSW, MI","Latitude":"43.67470","Longitude":"-86.42250","Snowdepth":"5.000","Units":"in","Rept_Date":"2020-12-15 12"},"coordinates":[2418,6007]},{"type":"Point","properties":{"Station_ID":"ME-OX-26","Station_Nam":"OXFORD 5.3 SW, ME","Latitude":"44.09787","Longitude":"-70.59612","Snowdepth":"5.000","Units":"in","Rept_Date":"2020-12-15 12"},"coordinates":[5979,6217]},{"type":"Point","properties":{"Station_ID":"ME-FR-22","Station_Nam":"FARMINGTON 4.8 NNW, ME","Latitude":"44.73396","Longitude":"-70.18007","Snowdepth":"5.000","Units":"in","Rept_Date":"2020-12-15 14"},"coordinates":[6073,6532]},{"type":"Point","properties":{"Station_ID":"LSXI4","Station_Nam":"LITTLE SIOUX,IA","Latitude":"41.81670","Longitude":"-96.01670","Snowdepth":"5.000","Units":"in","Rept_Date":"2020-12-15 13"},"coordinates":[260,5086]},{"type":"Point","properties":{"Station_ID":"LKMW3","Station_Nam":"LAKE MILLS,WI","Latitude":"43.06670","Longitude":"-88.91220","Snowdepth":"5.000","Units":"in","Rept_Date":"2020-12-15 14"},"coordinates":[1858,5706]},{"type":"Point","properties":{"Station_ID":"KMSN","Station_Nam":"MADISON DANE COUNTY RGNL","Latitude":"43.13333","Longitude":"-89.35000","Snowdepth":"5.000","Units":"in","Rept_Date":"2020-12-16 06"},"coordinates":[1760,5739]},{"type":"Point","properties":{"Station_ID":"KDSM","Station_Nam":"DES MOINES INTERNATIONAL","Latitude":"41.53333","Longitude":"-93.66666","Snowdepth":"5.000","Units":"in","Rept_Date":"2020-12-16 06"},"coordinates":[789,4946]},{"type":"Point","properties":{"Station_ID":"INL","Station_Nam":"FALLS INTERNATIONAL ARPT","Latitude":"48.56640","Longitude":"-93.40310","Snowdepth":"5.000","Units":"in","Rept_Date":"2020-12-16 00"},"coordinates":[848,8432]},{"type":"Point","properties":{"Station_ID":"IFSM5","Station_Nam":"INTERNATIONAL FALLS SNOW","Latitude":"48.57780","Longitude":"-93.39640","Snowdepth":"5.000","Units":"in","Rept_Date":"2020-12-16 00"},"coordinates":[849,8438]},{"type":"Point","properties":{"Station_ID":"IA-SR-17","Station_Nam":"AMES 0.9 ENE, IA","Latitude":"42.02886","Longitude":"-93.60950","Snowdepth":"5.000","Units":"in","Rept_Date":"2020-12-15 13"},"coordinates":[801,5192]},{"type":"Point","properties":{"Station_ID":"IA-PK-97","Station_Nam":"ANKENY 1.5 NNE, IA","Latitude":"41.74376","Longitude":"-93.59088","Snowdepth":"5.000","Units":"in","Rept_Date":"2020-12-15 13"},"coordinates":[806,5050]},{"type":"Point","properties":{"Station_ID":"IA-PK-89","Station_Nam":"ANKENY 3.7 NNE, IA","Latitude":"41.77305","Longitude":"-93.57635","Snowdepth":"5.000","Units":"in","Rept_Date":"2020-12-15 13"},"coordinates":[809,5065]},{"type":"Point","properties":{"Station_ID":"IA-PK-73","Station_Nam":"DES MOINES 4.1 N, IA","Latitude":"41.63605","Longitude":"-93.60630","Snowdepth":"5.000","Units":"in","Rept_Date":"2020-12-15 13"},"coordinates":[802,4997]},{"type":"Point","properties":{"Station_ID":"IA-PK-21","Station_Nam":"JOHNSTON 3.7 NNW, IA","Latitude":"41.73660","Longitude":"-93.72360","Snowdepth":"5.000","Units":"in","Rept_Date":"2020-12-15 13"},"coordinates":[776,5047]},{"type":"Point","properties":{"Station_ID":"IA-DL-33","Station_Nam":"WAUKEE 1.6 N, IA","Latitude":"41.63119","Longitude":"-93.85778","Snowdepth":"5.000","Units":"in","Rept_Date":"2020-12-15 13"},"coordinates":[746,4994]},{"type":"Point","properties":{"Station_ID":"HRTM4","Station_Nam":"HART,MI","Latitude":"43.70000","Longitude":"-86.36670","Snowdepth":"5.000","Units":"in","Rept_Date":"2020-12-15 12"},"coordinates":[2431,6020]},{"type":"Point","properties":{"Station_ID":"GLAM4","Station_Nam":"GLADWIN","Latitude":"43.97580","Longitude":"-84.49080","Snowdepth":"5.000","Units":"in","Rept_Date":"2020-12-15 12"},"coordinates":[2853,6157]},{"type":"Point","properties":{"Station_ID":"ESGM1","Station_Nam":"EAST SANGERVILLE","Latitude":"45.13690","Longitude":"-69.28060","Snowdepth":"5.000","Units":"in","Rept_Date":"2020-12-15 12"},"coordinates":[6275,6732]},{"type":"Point","properties":{"Station_ID":"EJNM4","Station_Nam":"EAST JORDAN 2NW","Latitude":"45.18630","Longitude":"-85.14770","Snowdepth":"5.000","Units":"in","Rept_Date":"2020-12-15 13"},"coordinates":[2705,6757]},{"type":"Point","properties":{"Station_ID":"DSXI4","Station_Nam":"DES MOINES SNOW","Latitude":"41.54130","Longitude":"-93.65570","Snowdepth":"5.000","Units":"in","Rept_Date":"2020-12-16 06"},"coordinates":[791,4950]},{"type":"Point","properties":{"Station_ID":"DSM","Station_Nam":"DES MOINES INTERNATIONAL","Latitude":"41.53340","Longitude":"-93.66300","Snowdepth":"5.000","Units":"in","Rept_Date":"2020-12-16 00"},"coordinates":[789,4946]},{"type":"Point","properties":{"Station_ID":"DMX","Station_Nam":"DES MOINES, IA","Latitude":"41.73610","Longitude":"-93.72330","Snowdepth":"5.000","Units":"in","Rept_Date":"2020-12-16 06"},"coordinates":[776,5046]},{"type":"Point","properties":{"Station_ID":"DGVW3","Station_Nam":"DODGEVILLE","Latitude":"42.96670","Longitude":"-90.11670","Snowdepth":"5.000","Units":"in","Rept_Date":"2020-12-15 13"},"coordinates":[1587,5656]},{"type":"Point","properties":{"Station_ID":"DFXM1","Station_Nam":"DOVER-FOXCROFT","Latitude":"45.18720","Longitude":"-69.18350","Snowdepth":"5.000","Units":"in","Rept_Date":"2020-12-15 12"},"coordinates":[6297,6757]},{"type":"Point","properties":{"Station_ID":"CUSW3","Station_Nam":"COLUMBUS","Latitude":"43.32610","Longitude":"-89.00810","Snowdepth":"5.000","Units":"in","Rept_Date":"2020-12-15 13"},"coordinates":[1837,5835]},{"type":"Point","properties":{"Station_ID":"CLUI4","Station_Nam":"CLUTIER,IA","Latitude":"42.08330","Longitude":"-92.40000","Snowdepth":"5.000","Units":"in","Rept_Date":"2020-12-15 13"},"coordinates":[1074,5219]},{"type":"Point","properties":{"Station_ID":"CAN-NL-65","Station_Nam":"KIPPENS 0.7 NE, CA","Latitude":"48.55436","Longitude":"-58.61850","Snowdepth":"5.000","Units":"in","Rept_Date":"2020-12-15 12"},"coordinates":[8674,8426]},{"type":"Point","properties":{"Station_ID":"CAAW2","Station_Nam":"CANAAN VALLEY","Latitude":"39.05890","Longitude":"-79.44030","Snowdepth":"5.000","Units":"in","Rept_Date":"2020-12-15 14"},"coordinates":[3989,3719]},{"type":"Point","properties":{"Station_ID":"BRAM1","Station_Nam":"BRASSUA DAM","Latitude":"45.66020","Longitude":"-69.81190","Snowdepth":"5.000","Units":"in","Rept_Date":"2020-12-15 12"},"coordinates":[6156,6992]},{"type":"Point","properties":{"Station_ID":"BLVI4","Station_Nam":"MISSISSIPPI RIVER","Latitude":"42.26670","Longitude":"-90.41670","Snowdepth":"5.000","Units":"in","Rept_Date":"2020-12-15 12"},"coordinates":[1520,5309]},{"type":"Point","properties":{"Station_ID":"BGBM4","Station_Nam":"BIG BAY 1NW","Latitude":"46.83250","Longitude":"-87.75040","Snowdepth":"5.000","Units":"in","Rept_Date":"2020-12-15 13"},"coordinates":[2120,7573]},{"type":"Point","properties":{"Station_ID":"BERM4","Station_Nam":"BERGLAND DAM","Latitude":"46.58690","Longitude":"-89.54750","Snowdepth":"5.000","Units":"in","Rept_Date":"2020-12-15 13"},"coordinates":[1715,7451]},{"type":"Point","properties":{"Station_ID":"BDMW3","Station_Nam":"BEAVER DAM 1 N","Latitude":"43.46860","Longitude":"-88.83970","Snowdepth":"5.000","Units":"in","Rept_Date":"2020-12-15 13"},"coordinates":[1875,5905]},{"type":"Point","properties":{"Station_ID":"BBEM4","Station_Nam":"BIG BAY 9SW","Latitude":"46.74620","Longitude":"-87.88160","Snowdepth":"5.000","Units":"in","Rept_Date":"2020-12-15 13"},"coordinates":[2090,7530]},{"type":"Point","properties":{"Station_ID":"ARLW3","Station_Nam":"UNIV FARM","Latitude":"43.30000","Longitude":"-89.35000","Snowdepth":"5.000","Units":"in","Rept_Date":"2020-12-15 14"},"coordinates":[1760,5822]},{"type":"Point","properties":{"Station_ID":"AR-BT-12","Station_Nam":"DECATUR 2.6 ESE, AR","Latitude":"36.32755","Longitude":"-94.41300","Snowdepth":"5.000","Units":"in","Rept_Date":"2020-12-15 13"},"coordinates":[621,2365]},{"type":"Point","properties":{"Station_ID":"AMOI4","Station_Nam":"ANAMOSA 3 SSW","Latitude":"42.07630","Longitude":"-91.30190","Snowdepth":"5.000","Units":"in","Rept_Date":"2020-12-15 12"},"coordinates":[1321,5215]},{"type":"Point","properties":{"Station_ID":"WI-DA-87","Station_Nam":"DUNKIRK 0.1 NW, WI","Latitude":"42.88356","Longitude":"-89.21056","Snowdepth":"4.500","Units":"in","Rept_Date":"2020-12-15 12"},"coordinates":[1791,5615]},{"type":"Point","properties":{"Station_ID":"OK-TL-14","Station_Nam":"TULSA 5.4 SSE, OK","Latitude":"36.05716","Longitude":"-95.87300","Snowdepth":"4.500","Units":"in","Rept_Date":"2020-12-15 13"},"coordinates":[292,2231]},{"type":"Point","properties":{"Station_ID":"NH-ST-31","Station_Nam":"STRAFFORD 2.9 N, NH","Latitude":"43.31175","Longitude":"-71.13510","Snowdepth":"4.500","Units":"in","Rept_Date":"2020-12-15 11"},"coordinates":[5858,5827]},{"type":"Point","properties":{"Station_ID":"MI-CX-7","Station_Nam":"EAST JORDAN 2.1 NNW, MI","Latitude":"45.18639","Longitude":"-85.14750","Snowdepth":"4.500","Units":"in","Rept_Date":"2020-12-15 13"},"coordinates":[2705,6757]},{"type":"Point","properties":{"Station_ID":"MI-BZ-1","Station_Nam":"BENZONIA 5.3 S, MI","Latitude":"44.53976","Longitude":"-86.10650","Snowdepth":"4.500","Units":"in","Rept_Date":"2020-12-15 14"},"coordinates":[2489,6436]},{"type":"Point","properties":{"Station_ID":"IA-SR-42","Station_Nam":"AMES 2.1 WNW, IA","Latitude":"42.03730","Longitude":"-93.66180","Snowdepth":"4.500","Units":"in","Rept_Date":"2020-12-15 15"},"coordinates":[790,5196]},{"type":"Point","properties":{"Station_ID":"CAN-ON-245","Station_Nam":"PHELPSTON 3.1 ESE, CAN","Latitude":"44.50564","Longitude":"-79.81035","Snowdepth":"4.500","Units":"in","Rept_Date":"2020-12-15 13"},"coordinates":[3906,6419]},{"type":"Point","properties":{"Station_ID":"WI-RK-6","Station_Nam":"EVANSVILLE 0.4 E, WI","Latitude":"42.77913","Longitude":"-89.29020","Snowdepth":"4.300","Units":"in","Rept_Date":"2020-12-15 12"},"coordinates":[1773,5563]},{"type":"Point","properties":{"Station_ID":"CAN-ON-771","Station_Nam":"KENORA 8.7 NNE - CANWARN, CAN","Latitude":"49.84171","Longitude":"-94.44386","Snowdepth":"4.300","Units":"in","Rept_Date":"2020-12-15 13"},"coordinates":[614,9064]},{"type":"Point","properties":{"Station_ID":"CAN-NL-81","Station_Nam":"GRAND FALLS-WINDSOR 1.2 S, CAN","Latitude":"48.93123","Longitude":"-55.65333","Snowdepth":"4.300","Units":"in","Rept_Date":"2020-12-15 11"},"coordinates":[9341,8613]},{"type":"Point","properties":{"Station_ID":"MO-BY-25","Station_Nam":"CASSVILLE 4.8 SSE, MO","Latitude":"36.61445","Longitude":"-93.83630","Snowdepth":"4.200","Units":"in","Rept_Date":"2020-12-15 13"},"coordinates":[750,2507]},{"type":"Point","properties":{"Station_ID":"IA-PK-37","Station_Nam":"WINDSOR HEIGHTS 0.8 SE, IA","Latitude":"41.59810","Longitude":"-93.69950","Snowdepth":"4.100","Units":"in","Rept_Date":"2020-12-15 13"},"coordinates":[781,4978]},{"type":"Point","properties":{"Station_ID":"WTBW3","Station_Nam":"WEST BEND PUBLIC WORKS","Latitude":"43.41110","Longitude":"-88.19380","Snowdepth":"4.000","Units":"in","Rept_Date":"2020-12-15 14"},"coordinates":[2020,5877]},{"type":"Point","properties":{"Station_ID":"WLNM4","Station_Nam":"WELLSTON 1N","Latitude":"44.22940","Longitude":"-85.95690","Snowdepth":"4.000","Units":"in","Rept_Date":"2020-12-15 12"},"coordinates":[2523,6282]},{"type":"Point","properties":{"Station_ID":"WI-JF-2","Station_Nam":"WATERTOWN 1.6 ESE, WI","Latitude":"43.17916","Longitude":"-88.69720","Snowdepth":"4.000","Units":"in","Rept_Date":"2020-12-15 14"},"coordinates":[1907,5762]},{"type":"Point","properties":{"Station_ID":"WI-JF-19","Station_Nam":"WATERTOWN 0.8 S, WI","Latitude":"43.18063","Longitude":"-88.72399","Snowdepth":"4.000","Units":"in","Rept_Date":"2020-12-15 13"},"coordinates":[1901,5762]},{"type":"Point","properties":{"Station_ID":"WI-JF-17","Station_Nam":"JOHNSON CREEK 2.7 SSW, WI","Latitude":"43.04559","Longitude":"-88.79925","Snowdepth":"4.000","Units":"in","Rept_Date":"2020-12-15 12"},"coordinates":[1884,5696]},{"type":"Point","properties":{"Station_ID":"WI-DA-31","Station_Nam":"DEERFIELD 0.6 N, WI","Latitude":"43.05958","Longitude":"-89.07340","Snowdepth":"4.000","Units":"in","Rept_Date":"2020-12-15 15"},"coordinates":[1822,5702]},{"type":"Point","properties":{"Station_ID":"WGCI4","Station_Nam":"WAVELAND","Latitude":"41.58330","Longitude":"-93.66670","Snowdepth":"4.000","Units":"in","Rept_Date":"2020-12-15 13"},"coordinates":[789,4971]},{"type":"Point","properties":{"Station_ID":"WATW3","Station_Nam":"WATERTOWN,WI","Latitude":"43.17500","Longitude":"-88.73530","Snowdepth":"4.000","Units":"in","Rept_Date":"2020-12-15 13"},"coordinates":[1898,5760]},{"type":"Point","properties":{"Station_ID":"TURM1","Station_Nam":"TURNER","Latitude":"44.28220","Longitude":"-70.25610","Snowdepth":"4.000","Units":"in","Rept_Date":"2020-12-15 12"},"coordinates":[6056,6309]},{"type":"Point","properties":{"Station_ID":"TSAO2","Station_Nam":"WFO TULSA","Latitude":"36.14860","Longitude":"-95.86110","Snowdepth":"4.000","Units":"in","Rept_Date":"2020-12-16 06"},"coordinates":[295,2277]},{"type":"Point","properties":{"Station_ID":"STOW3","Station_Nam":"STOUGHTON,WI","Latitude":"42.91670","Longitude":"-89.21670","Snowdepth":"4.000","Units":"in","Rept_Date":"2020-12-15 13"},"coordinates":[1790,5632]},{"type":"Point","properties":{"Station_ID":"SSMM4","Station_Nam":"SAULT STE MARIE","Latitude":"46.48660","Longitude":"-84.40250","Snowdepth":"4.000","Units":"in","Rept_Date":"2020-12-15 13"},"coordinates":[2873,7401]},{"type":"Point","properties":{"Station_ID":"RCHW3","Station_Nam":"RICHRIELD,WI","Latitude":"43.21080","Longitude":"-88.20940","Snowdepth":"4.000","Units":"in","Rept_Date":"2020-12-15 12"},"coordinates":[2016,5777]},{"type":"Point","properties":{"Station_ID":"PRDM4","Station_Nam":"PARADISE","Latitude":"46.60380","Longitude":"-85.03960","Snowdepth":"4.000","Units":"in","Rept_Date":"2020-12-15 12"},"coordinates":[2729,7459]},{"type":"Point","properties":{"Station_ID":"OK-TL-53","Station_Nam":"TULSA 1.4 S, OK","Latitude":"36.10744","Longitude":"-95.91428","Snowdepth":"4.000","Units":"in","Rept_Date":"2020-12-15 13"},"coordinates":[283,2256]},{"type":"Point","properties":{"Station_ID":"OK-TL-42","Station_Nam":"BROKEN ARROW 4.6 NNW, OK","Latitude":"36.10028","Longitude":"-95.81360","Snowdepth":"4.000","Units":"in","Rept_Date":"2020-12-15 13"},"coordinates":[305,2253]},{"type":"Point","properties":{"Station_ID":"NWSM1","Station_Nam":"NEW SHARON","Latitude":"44.63520","Longitude":"-70.00020","Snowdepth":"4.000","Units":"in","Rept_Date":"2020-12-15 12"},"coordinates":[6113,6484]},{"type":"Point","properties":{"Station_ID":"NPTM4","Station_Nam":"NORTHPORT 2W","Latitude":"45.13220","Longitude":"-85.64720","Snowdepth":"4.000","Units":"in","Rept_Date":"2020-12-15 13"},"coordinates":[2593,6730]},{"type":"Point","properties":{"Station_ID":"NH-CS-19","Station_Nam":"CARROLL 4.6 NE, NH","Latitude":"44.33765","Longitude":"-71.46461","Snowdepth":"4.000","Units":"in","Rept_Date":"2020-12-15 12"},"coordinates":[5784,6336]},{"type":"Point","properties":{"Station_ID":"NH-CR-34","Station_Nam":"WAKEFIELD 6.0 NNW, NH","Latitude":"43.63917","Longitude":"-71.05210","Snowdepth":"4.000","Units":"in","Rept_Date":"2020-12-15 12"},"coordinates":[5877,5990]},{"type":"Point","properties":{"Station_ID":"MWTM1","Station_Nam":"MILLINOCKET WWTP","Latitude":"45.64030","Longitude":"-68.67480","Snowdepth":"4.000","Units":"in","Rept_Date":"2020-12-15 11"},"coordinates":[6411,6982]},{"type":"Point","properties":{"Station_ID":"MRBW3","Station_Nam":"MT HOREB","Latitude":"42.98030","Longitude":"-89.73940","Snowdepth":"4.000","Units":"in","Rept_Date":"2020-12-15 13"},"coordinates":[1672,5663]},{"type":"Point","properties":{"Station_ID":"MN-CN-36","Station_Nam":"CLOQUET 3.4 ENE, MN","Latitude":"46.74146","Longitude":"-92.42698","Snowdepth":"4.000","Units":"in","Rept_Date":"2020-12-15 13"},"coordinates":[1067,7528]},{"type":"Point","properties":{"Station_ID":"MI-CP-7","Station_Nam":"DRUMMOND 2.9 NE, MI","Latitude":"46.05329","Longitude":"-83.69060","Snowdepth":"4.000","Units":"in","Rept_Date":"2020-12-15 14"},"coordinates":[3033,7186]},{"type":"Point","properties":{"Station_ID":"ME-FR-4","Station_Nam":"NEW SHARON 2.0 NW, ME","Latitude":"44.66582","Longitude":"-70.02720","Snowdepth":"4.000","Units":"in","Rept_Date":"2020-12-15 12"},"coordinates":[6107,6499]},{"type":"Point","properties":{"Station_ID":"ME-CM-125","Station_Nam":"GRAY 2.9 SSE, ME","Latitude":"43.84640","Longitude":"-70.31340","Snowdepth":"4.000","Units":"in","Rept_Date":"2020-12-15 12"},"coordinates":[6043,6093]},{"type":"Point","properties":{"Station_ID":"MAPM4","Station_Nam":"MAPLE CITY 1E","Latitude":"44.85500","Longitude":"-85.83520","Snowdepth":"4.000","Units":"in","Rept_Date":"2020-12-15 23"},"coordinates":[2551,6592]},{"type":"Point","properties":{"Station_ID":"LOOW3","Station_Nam":"WATERLOO","Latitude":"43.18830","Longitude":"-88.98440","Snowdepth":"4.000","Units":"in","Rept_Date":"2020-12-15 14"},"coordinates":[1842,5766]},{"type":"Point","properties":{"Station_ID":"LODW3","Station_Nam":"LODI","Latitude":"43.32170","Longitude":"-89.53110","Snowdepth":"4.000","Units":"in","Rept_Date":"2020-12-15 13"},"coordinates":[1719,5832]},{"type":"Point","properties":{"Station_ID":"LEIM5","Station_Nam":"ORR 3E","Latitude":"48.05810","Longitude":"-92.75220","Snowdepth":"4.000","Units":"in","Rept_Date":"2020-12-15 12"},"coordinates":[994,8180]},{"type":"Point","properties":{"Station_ID":"KTVC","Station_Nam":"CHERRY CAPITAL AIRPORT","Latitude":"44.73333","Longitude":"-85.56666","Snowdepth":"4.000","Units":"in","Rept_Date":"2020-12-16 00"},"coordinates":[2611,6532]},{"type":"Point","properties":{"Station_ID":"IWOM4","Station_Nam":"IRONWOOD#2","Latitude":"46.46520","Longitude":"-90.13820","Snowdepth":"4.000","Units":"in","Rept_Date":"2020-12-15 13"},"coordinates":[1582,7391]},{"type":"Point","properties":{"Station_ID":"IA-WR-7","Station_Nam":"INDIANOLA 0.8 SSW, IA","Latitude":"41.35047","Longitude":"-93.57290","Snowdepth":"4.000","Units":"in","Rept_Date":"2020-12-15 13"},"coordinates":[810,4855]},{"type":"Point","properties":{"Station_ID":"IA-SR-12","Station_Nam":"AMES 2.1 N, IA","Latitude":"42.05442","Longitude":"-93.62670","Snowdepth":"4.000","Units":"in","Rept_Date":"2020-12-15 14"},"coordinates":[798,5204]},{"type":"Point","properties":{"Station_ID":"IA-JH-1","Station_Nam":"SOLON 0.3 ESE, IA","Latitude":"41.80398","Longitude":"-91.48910","Snowdepth":"4.000","Units":"in","Rept_Date":"2020-12-15 13"},"coordinates":[1278,5080]},{"type":"Point","properties":{"Station_ID":"HURW3","Station_Nam":"HURLEY","Latitude":"46.46250","Longitude":"-90.19550","Snowdepth":"4.000","Units":"in","Rept_Date":"2020-12-15 14"},"coordinates":[1569,7389]},{"type":"Point","properties":{"Station_ID":"HRTM1","Station_Nam":"HARTFORD","Latitude":"44.37440","Longitude":"-70.31620","Snowdepth":"4.000","Units":"in","Rept_Date":"2020-12-15 12"},"coordinates":[6042,6354]},{"type":"Point","properties":{"Station_ID":"HORW3","Station_Nam":"HORICON WWTP","Latitude":"43.45000","Longitude":"-88.63330","Snowdepth":"4.000","Units":"in","Rept_Date":"2020-12-15 13"},"coordinates":[1921,5896]},{"type":"Point","properties":{"Station_ID":"HMYM1","Station_Nam":"HARMONY","Latitude":"44.94660","Longitude":"-69.54560","Snowdepth":"4.000","Units":"in","Rept_Date":"2020-12-15 12"},"coordinates":[6215,6638]},{"type":"Point","properties":{"Station_ID":"GTHI4","Station_Nam":"GUTHRIE CENTER,IA","Latitude":"41.68330","Longitude":"-94.50000","Snowdepth":"4.000","Units":"in","Rept_Date":"2020-12-15 14"},"coordinates":[601,5020]},{"type":"Point","properties":{"Station_ID":"GHMN3","Station_Nam":"PINKHAM NOTCH","Latitude":"44.25800","Longitude":"-71.25250","Snowdepth":"4.000","Units":"in","Rept_Date":"2020-12-15 10"},"coordinates":[5831,6297]},{"type":"Point","properties":{"Station_ID":"FRKM4","Station_Nam":"FRANKFORT 2NE","Latitude":"44.64800","Longitude":"-86.21000","Snowdepth":"4.000","Units":"in","Rept_Date":"2020-12-15 23"},"coordinates":[2466,6490]},{"type":"Point","properties":{"Station_ID":"DLHM5","Station_Nam":"DULUTH NWS","Latitude":"46.83680","Longitude":"-92.21080","Snowdepth":"4.000","Units":"in","Rept_Date":"2020-12-16 06"},"coordinates":[1116,7575]},{"type":"Point","properties":{"Station_ID":"DLH","Station_Nam":"DULUTH, MN","Latitude":"46.83690","Longitude":"-92.21030","Snowdepth":"4.000","Units":"in","Rept_Date":"2020-12-16 00"},"coordinates":[1116,7575]},{"type":"Point","properties":{"Station_ID":"COKM5","Station_Nam":"COOK","Latitude":"47.85060","Longitude":"-92.69250","Snowdepth":"4.000","Units":"in","Rept_Date":"2020-12-15 12"},"coordinates":[1008,8077]},{"type":"Point","properties":{"Station_ID":"BNDM5","Station_Nam":"ELY 25E","Latitude":"47.97190","Longitude":"-91.44860","Snowdepth":"4.000","Units":"in","Rept_Date":"2020-12-15 13"},"coordinates":[1288,8138]},{"type":"Point","properties":{"Station_ID":"BGRM4","Station_Nam":"WATER WORKS","Latitude":"43.70000","Longitude":"-85.48330","Snowdepth":"4.000","Units":"in","Rept_Date":"2020-12-15 12"},"coordinates":[2630,6020]},{"type":"Point","properties":{"Station_ID":"AUDI4","Station_Nam":"AUDUBON,IA","Latitude":"41.71670","Longitude":"-94.93330","Snowdepth":"4.000","Units":"in","Rept_Date":"2020-12-15 14"},"coordinates":[504,5037]},{"type":"Point","properties":{"Station_ID":"ARGW3","Station_Nam":"ARGYLE","Latitude":"42.70060","Longitude":"-89.01890","Snowdepth":"4.000","Units":"in","Rept_Date":"2020-12-15 13"},"coordinates":[1834,5525]},{"type":"Point","properties":{"Station_ID":"ANJM4","Station_Nam":"SNOW PAID OBSERVER FOR KANJ","Latitude":"46.48670","Longitude":"-84.40260","Snowdepth":"4.000","Units":"in","Rept_Date":"2020-12-15 18"},"coordinates":[2873,7401]},{"type":"Point","properties":{"Station_ID":"ANJ","Station_Nam":"SAULT STE MARIE","Latitude":"46.46670","Longitude":"-84.36670","Snowdepth":"4.000","Units":"in","Rept_Date":"2020-12-16 00"},"coordinates":[2881,7391]},{"type":"Point","properties":{"Station_ID":"ABNM3","Station_Nam":"ASHBURNHAM NORTH","Latitude":"42.66170","Longitude":"-71.93590","Snowdepth":"4.000","Units":"in","Rept_Date":"2020-12-15 12"},"coordinates":[5678,5505]},{"type":"Point","properties":{"Station_ID":"CAN-ON-130","Station_Nam":"BARRIE 3.6 N - CANWARN, CAN","Latitude":"44.41135","Longitude":"-79.69817","Snowdepth":"3.900","Units":"in","Rept_Date":"2020-12-15 13"},"coordinates":[3931,6373]},{"type":"Point","properties":{"Station_ID":"CAN-ON-757","Station_Nam":"SAULT STE. MARIE 2.8 ESE - GLFC, CAN","Latitude":"46.50300","Longitude":"-84.30300","Snowdepth":"3.700","Units":"in","Rept_Date":"2020-12-15 13"},"coordinates":[2895,7409]},{"type":"Point","properties":{"Station_ID":"WI-DA-72","Station_Nam":"MADISON 4.0 SW, WI","Latitude":"43.03801","Longitude":"-89.44355","Snowdepth":"3.500","Units":"in","Rept_Date":"2020-12-15 13"},"coordinates":[1739,5692]},{"type":"Point","properties":{"Station_ID":"OK-TL-30","Station_Nam":"BROKEN ARROW 1.5 WSW, OK","Latitude":"36.02560","Longitude":"-95.81070","Snowdepth":"3.500","Units":"in","Rept_Date":"2020-12-15 13"},"coordinates":[306,2216]},{"type":"Point","properties":{"Station_ID":"OK-TL-28","Station_Nam":"BROKEN ARROW 2.2 SW, OK","Latitude":"36.01140","Longitude":"-95.80970","Snowdepth":"3.500","Units":"in","Rept_Date":"2020-12-15 13"},"coordinates":[306,2209]},{"type":"Point","properties":{"Station_ID":"NY-OT-11","Station_Nam":"HARTWICK, NY","Latitude":"42.65990","Longitude":"-75.05000","Snowdepth":"3.500","Units":"in","Rept_Date":"2020-12-15 15"},"coordinates":[4977,5504]},{"type":"Point","properties":{"Station_ID":"MI-MC-4","Station_Nam":"ST. IGNACE 0.5SE, MI","Latitude":"45.86057","Longitude":"-84.71980","Snowdepth":"3.500","Units":"in","Rept_Date":"2020-12-15 12"},"coordinates":[2801,7091]},{"type":"Point","properties":{"Station_ID":"IA-GT-7","Station_Nam":"BAGLEY 0.2 W, IA","Latitude":"41.84592","Longitude":"-94.43346","Snowdepth":"3.500","Units":"in","Rept_Date":"2020-12-15 14"},"coordinates":[616,5101]},{"type":"Point","properties":{"Station_ID":"CAN-NB-11","Station_Nam":"MIRAMICHI 3.3 S, CAN","Latitude":"46.99343","Longitude":"-65.50690","Snowdepth":"3.500","Units":"in","Rept_Date":"2020-12-15 12"},"coordinates":[7124,7653]},{"type":"Point","properties":{"Station_ID":"WV-PR-19","Station_Nam":"TERRA ALTA 3.3 ENE, WV","Latitude":"39.45929","Longitude":"-79.48470","Snowdepth":"3.100","Units":"in","Rept_Date":"2020-12-15 12"},"coordinates":[3979,3918]},{"type":"Point","properties":{"Station_ID":"CAN-ON-526","Station_Nam":"HILTON BEACH 0.7 SW - MNRF, CAN","Latitude":"46.25357","Longitude":"-83.90014","Snowdepth":"3.100","Units":"in","Rept_Date":"2020-12-15 12"},"coordinates":[2986,7286]},{"type":"Point","properties":{"Station_ID":"WV-NC-4","Station_Nam":"CRAIGSVILLE 0.6 NE, WV","Latitude":"38.33698","Longitude":"-80.64520","Snowdepth":"3.000","Units":"in","Rept_Date":"2020-12-15 12"},"coordinates":[3718,3361]},{"type":"Point","properties":{"Station_ID":"WI-WS-4","Station_Nam":"KEWASKUM 1.8 WNW, WI","Latitude":"43.52880","Longitude":"-88.26570","Snowdepth":"3.000","Units":"in","Rept_Date":"2020-12-15 13"},"coordinates":[2004,5935]},{"type":"Point","properties":{"Station_ID":"WI-WS-15","Station_Nam":"WEST BEND 5.4 SE, WI","Latitude":"43.37259","Longitude":"-88.10086","Snowdepth":"3.000","Units":"in","Rept_Date":"2020-12-15 14"},"coordinates":[2041,5858]},{"type":"Point","properties":{"Station_ID":"WI-VL-9","Station_Nam":"LAND O' LAKES 11.7 W, WI","Latitude":"46.19023","Longitude":"-89.45790","Snowdepth":"3.000","Units":"in","Rept_Date":"2020-12-15 13"},"coordinates":[1735,7254]},{"type":"Point","properties":{"Station_ID":"WI-OZ-17","Station_Nam":"WEST BEND 7.3 E, WI","Latitude":"43.42860","Longitude":"-88.03870","Snowdepth":"3.000","Units":"in","Rept_Date":"2020-12-15 13"},"coordinates":[2055,5885]},{"type":"Point","properties":{"Station_ID":"WI-CB-5","Station_Nam":"PORTAGE 7.2 SW, WI","Latitude":"43.47933","Longitude":"-89.57370","Snowdepth":"3.000","Units":"in","Rept_Date":"2020-12-15 13"},"coordinates":[1709,5911]},{"type":"Point","properties":{"Station_ID":"UNDI4","Station_Nam":"UNDERWOOD","Latitude":"41.38940","Longitude":"-95.68110","Snowdepth":"3.000","Units":"in","Rept_Date":"2020-12-15 13"},"coordinates":[335,4875]},{"type":"Point","properties":{"Station_ID":"TAHW3","Station_Nam":"TAYCHEEDAH","Latitude":"43.83390","Longitude":"-88.34690","Snowdepth":"3.000","Units":"in","Rept_Date":"2020-12-15 13"},"coordinates":[1985,6086]},{"type":"Point","properties":{"Station_ID":"SWHI4","Station_Nam":"SWISHER #2","Latitude":"41.84970","Longitude":"-91.67650","Snowdepth":"3.000","Units":"in","Rept_Date":"2020-12-15 14"},"coordinates":[1236,5103]},{"type":"Point","properties":{"Station_ID":"SUAW3","Station_Nam":"SUAMICO","Latitude":"44.60190","Longitude":"-88.09780","Snowdepth":"3.000","Units":"in","Rept_Date":"2020-12-15 12"},"coordinates":[2041,6467]},{"type":"Point","properties":{"Station_ID":"STIM4","Station_Nam":"ST IGNACE","Latitude":"45.86080","Longitude":"-84.71960","Snowdepth":"3.000","Units":"in","Rept_Date":"2020-12-15 12"},"coordinates":[2801,7091]},{"type":"Point","properties":{"Station_ID":"SPTI4","Station_Nam":"STRAWBERRY POINT","Latitude":"42.68530","Longitude":"-91.53300","Snowdepth":"3.000","Units":"in","Rept_Date":"2020-12-15 13"},"coordinates":[1269,5517]},{"type":"Point","properties":{"Station_ID":"SLRW3","Station_Nam":"SLINGER","Latitude":"43.33390","Longitude":"-88.29780","Snowdepth":"3.000","Units":"in","Rept_Date":"2020-12-15 13"},"coordinates":[1996,5838]},{"type":"Point","properties":{"Station_ID":"PERI4","Station_Nam":"PERRY,IA","Latitude":"41.83810","Longitude":"-94.11110","Snowdepth":"3.000","Units":"in","Rept_Date":"2020-12-15 13"},"coordinates":[689,5097]},{"type":"Point","properties":{"Station_ID":"PDGM4","Station_Nam":"PAULDING","Latitude":"46.39760","Longitude":"-89.17940","Snowdepth":"3.000","Units":"in","Rept_Date":"2020-12-15 13"},"coordinates":[1798,7357]},{"type":"Point","properties":{"Station_ID":"OMA","Station_Nam":"EPPLEY AIRFIELD","Latitude":"41.30220","Longitude":"-95.89330","Snowdepth":"3.000","Units":"in","Rept_Date":"2020-12-16 00"},"coordinates":[288,4831]},{"type":"Point","properties":{"Station_ID":"OK-RG-11","Station_Nam":"CLAREMORE 7.5 W, OK","Latitude":"36.30430","Longitude":"-95.75420","Snowdepth":"3.000","Units":"in","Rept_Date":"2020-12-15 13"},"coordinates":[319,2354]},{"type":"Point","properties":{"Station_ID":"OK-CK-8","Station_Nam":"DRUMRIGHT 0.6 SW, OK","Latitude":"35.98500","Longitude":"-96.60530","Snowdepth":"3.000","Units":"in","Rept_Date":"2020-12-15 13"},"coordinates":[127,2195]},{"type":"Point","properties":{"Station_ID":"NWTI4","Station_Nam":"NEWTON,IA","Latitude":"41.70000","Longitude":"-93.05000","Snowdepth":"3.000","Units":"in","Rept_Date":"2020-12-15 13"},"coordinates":[927,5028]},{"type":"Point","properties":{"Station_ID":"NH-RC-48","Station_Nam":"NORTHWOOD 2.9 WSW, NH","Latitude":"43.20114","Longitude":"-71.25750","Snowdepth":"3.000","Units":"in","Rept_Date":"2020-12-15 12"},"coordinates":[5830,5773]},{"type":"Point","properties":{"Station_ID":"NE-DG-8","Station_Nam":"OMAHA 7.0 W, NE","Latitude":"41.27451","Longitude":"-96.14630","Snowdepth":"3.000","Units":"in","Rept_Date":"2020-12-15 13"},"coordinates":[231,4818]},{"type":"Point","properties":{"Station_ID":"NE-DG-19","Station_Nam":"ELKHORN 0.7 ENE, NE","Latitude":"41.28780","Longitude":"-96.22450","Snowdepth":"3.000","Units":"in","Rept_Date":"2020-12-15 13"},"coordinates":[213,4824]},{"type":"Point","properties":{"Station_ID":"NCKN1","Station_Nam":"NICKERSON 3NE","Latitude":"41.56500","Longitude":"-96.44250","Snowdepth":"3.000","Units":"in","Rept_Date":"2020-12-15 13"},"coordinates":[164,4962]},{"type":"Point","properties":{"Station_ID":"MSHI4","Station_Nam":"MARSHALLTOWN,IA","Latitude":"42.06670","Longitude":"-92.93330","Snowdepth":"3.000","Units":"in","Rept_Date":"2020-12-15 13"},"coordinates":[954,5210]},{"type":"Point","properties":{"Station_ID":"MNBW2","Station_Nam":"MT. NEBO 1S","Latitude":"38.18790","Longitude":"-80.84840","Snowdepth":"3.000","Units":"in","Rept_Date":"2020-12-15 12"},"coordinates":[3672,3287]},{"type":"Point","properties":{"Station_ID":"MKX","Station_Nam":"MILWAUKEE, WI","Latitude":"42.96810","Longitude":"-88.54920","Snowdepth":"3.000","Units":"in","Rept_Date":"2020-12-16 06"},"coordinates":[1940,5657]},{"type":"Point","properties":{"Station_ID":"MIEM4","Station_Nam":"MICHIGAMME 3WNW","Latitude":"46.54530","Longitude":"-88.18000","Snowdepth":"3.000","Units":"in","Rept_Date":"2020-12-15 13"},"coordinates":[2023,7430]},{"type":"Point","properties":{"Station_ID":"MI-NW-8","Station_Nam":"WHITE CLOUD 7.5 ENE, MI","Latitude":"43.60630","Longitude":"-85.64190","Snowdepth":"3.000","Units":"in","Rept_Date":"2020-12-15 12"},"coordinates":[2594,5973]},{"type":"Point","properties":{"Station_ID":"MI-EM-5","Station_Nam":"HARBOR SPRINGS 0.7 ENE, MI","Latitude":"45.43450","Longitude":"-84.97540","Snowdepth":"3.000","Units":"in","Rept_Date":"2020-12-15 12"},"coordinates":[2744,6880]},{"type":"Point","properties":{"Station_ID":"MI-CP-14","Station_Nam":"SAULT STE. MARIE 2.2 E, MI","Latitude":"46.48933","Longitude":"-84.31971","Snowdepth":"3.000","Units":"in","Rept_Date":"2020-12-15 12"},"coordinates":[2891,7403]},{"type":"Point","properties":{"Station_ID":"ME-YK-3","Station_Nam":"HOLLIS CENTER 5.4 NW, ME","Latitude":"43.64750","Longitude":"-70.67510","Snowdepth":"3.000","Units":"in","Rept_Date":"2020-12-15 12"},"coordinates":[5961,5994]},{"type":"Point","properties":{"Station_ID":"ME-CM-137","Station_Nam":"GRAY 1.5 NE, ME","Latitude":"43.90034","Longitude":"-70.30883","Snowdepth":"3.000","Units":"in","Rept_Date":"2020-12-15 12"},"coordinates":[6044,6119]},{"type":"Point","properties":{"Station_ID":"MCRW2","Station_Nam":"RUPERT 4N","Latitude":"38.01800","Longitude":"-80.68250","Snowdepth":"3.000","Units":"in","Rept_Date":"2020-12-15 12"},"coordinates":[3710,3203]},{"type":"Point","properties":{"Station_ID":"MA-WR-89","Station_Nam":"HOLDEN 0.9 SSE, MA","Latitude":"42.33809","Longitude":"-71.85686","Snowdepth":"3.000","Units":"in","Rept_Date":"2020-12-15 12"},"coordinates":[5695,5345]},{"type":"Point","properties":{"Station_ID":"LOGI4","Station_Nam":"LOGAN,IA","Latitude":"41.63330","Longitude":"-95.81670","Snowdepth":"3.000","Units":"in","Rept_Date":"2020-12-15 13"},"coordinates":[305,4995]},{"type":"Point","properties":{"Station_ID":"LNOW3","Station_Nam":"LAND O LAKES","Latitude":"46.19000","Longitude":"-89.45700","Snowdepth":"3.000","Units":"in","Rept_Date":"2020-12-15 13"},"coordinates":[1736,7254]},{"type":"Point","properties":{"Station_ID":"LBRM5","Station_Nam":"LAKE BRONSON DAM","Latitude":"48.72410","Longitude":"-96.62180","Snowdepth":"3.000","Units":"in","Rept_Date":"2020-12-15 14"},"coordinates":[124,8510]},{"type":"Point","properties":{"Station_ID":"LANW3","Station_Nam":"LANCASTER 4WSW","Latitude":"42.82780","Longitude":"-90.78890","Snowdepth":"3.000","Units":"in","Rept_Date":"2020-12-15 14"},"coordinates":[1436,5588]},{"type":"Point","properties":{"Station_ID":"LANC007","Station_Nam":"DAVEY 1.2 NNW, NE","Latitude":"41.00320","Longitude":"-96.67630","Snowdepth":"3.000","Units":"in","Rept_Date":"2020-12-15 13"},"coordinates":[111,4683]},{"type":"Point","properties":{"Station_ID":"KSGM4","Station_Nam":"KEARSARGE","Latitude":"47.27520","Longitude":"-88.41700","Snowdepth":"3.000","Units":"in","Rept_Date":"2020-12-15 13"},"coordinates":[1970,7792]},{"type":"Point","properties":{"Station_ID":"KOMA","Station_Nam":"OMAHA EPPLEY AIRFIELD","Latitude":"41.30000","Longitude":"-95.90000","Snowdepth":"3.000","Units":"in","Rept_Date":"2020-12-16 06"},"coordinates":[286,4830]},{"type":"Point","properties":{"Station_ID":"KOFF","Station_Nam":"OMAHA / OFFUTT AIR FORCE BASE","Latitude":"41.11666","Longitude":"-95.90000","Snowdepth":"3.000","Units":"in","Rept_Date":"2020-12-15 18"},"coordinates":[286,4739]},{"type":"Point","properties":{"Station_ID":"IRMM4","Station_Nam":"WWTP","Latitude":"46.46670","Longitude":"-90.18330","Snowdepth":"3.000","Units":"in","Rept_Date":"2020-12-15 13"},"coordinates":[1572,7391]},{"type":"Point","properties":{"Station_ID":"IL-SP-7","Station_Nam":"DAVIS 0.5 N, IL","Latitude":"42.42919","Longitude":"-89.41730","Snowdepth":"3.000","Units":"in","Rept_Date":"2020-12-15 13"},"coordinates":[1745,5390]},{"type":"Point","properties":{"Station_ID":"IL-SP-3","Station_Nam":"ORANGEVILLE 2.8 NW, IL","Latitude":"42.49607","Longitude":"-89.68430","Snowdepth":"3.000","Units":"in","Rept_Date":"2020-12-15 13"},"coordinates":[1685,5423]},{"type":"Point","properties":{"Station_ID":"IL-SP-27","Station_Nam":"DAVIS 2.7 N, IL","Latitude":"42.46110","Longitude":"-89.40890","Snowdepth":"3.000","Units":"in","Rept_Date":"2020-12-15 13"},"coordinates":[1746,5406]},{"type":"Point","properties":{"Station_ID":"IA-WR-5","Station_Nam":"HARTFORD 1.0 E, IA","Latitude":"41.46014","Longitude":"-93.38550","Snowdepth":"3.000","Units":"in","Rept_Date":"2020-12-15 14"},"coordinates":[852,4910]},{"type":"Point","properties":{"Station_ID":"IA-PT-13","Station_Nam":"COUNCIL BLUFFS 2.1 SSE, IA","Latitude":"41.21159","Longitude":"-95.84800","Snowdepth":"3.000","Units":"in","Rept_Date":"2020-12-15 14"},"coordinates":[298,4786]},{"type":"Point","properties":{"Station_ID":"IA-JH-14","Station_Nam":"SWISHER 0.4 NNE, IA","Latitude":"41.84830","Longitude":"-91.69210","Snowdepth":"3.000","Units":"in","Rept_Date":"2020-12-15 14"},"coordinates":[1233,5102]},{"type":"Point","properties":{"Station_ID":"IA-HR-16","Station_Nam":"LOGAN 0.8 WNW, IA","Latitude":"41.65000","Longitude":"-95.80577","Snowdepth":"3.000","Units":"in","Rept_Date":"2020-12-15 13"},"coordinates":[307,5004]},{"type":"Point","properties":{"Station_ID":"IA-DV-7","Station_Nam":"BLOOMFIELD 4.2 WNW, IA","Latitude":"40.77675","Longitude":"-92.48850","Snowdepth":"3.000","Units":"in","Rept_Date":"2020-12-15 13"},"coordinates":[1054,4571]},{"type":"Point","properties":{"Station_ID":"IA-DV-2","Station_Nam":"MOULTON 3.6 ENE, IA","Latitude":"40.70487","Longitude":"-92.61551","Snowdepth":"3.000","Units":"in","Rept_Date":"2020-12-15 13"},"coordinates":[1025,4535]},{"type":"Point","properties":{"Station_ID":"IA-BN-12","Station_Nam":"BOONE 4.5 WSW, IA","Latitude":"42.03152","Longitude":"-93.96190","Snowdepth":"3.000","Units":"in","Rept_Date":"2020-12-15 13"},"coordinates":[722,5193]},{"type":"Point","properties":{"Station_ID":"HOLM1","Station_Nam":"HOLLIS","Latitude":"43.64750","Longitude":"-70.67490","Snowdepth":"3.000","Units":"in","Rept_Date":"2020-12-15 12"},"coordinates":[5961,5994]},{"type":"Point","properties":{"Station_ID":"HGHN6","Station_Nam":"HIGHMARKET","Latitude":"43.60510","Longitude":"-75.55430","Snowdepth":"3.000","Units":"in","Rept_Date":"2020-12-15 11"},"coordinates":[4864,5973]},{"type":"Point","properties":{"Station_ID":"HARW3","Station_Nam":"HARTFORD,WI","Latitude":"43.31670","Longitude":"-88.40000","Snowdepth":"3.000","Units":"in","Rept_Date":"2020-12-15 12"},"coordinates":[1973,5830]},{"type":"Point","properties":{"Station_ID":"HALM4","Station_Nam":"LOUD DAM","Latitude":"44.46250","Longitude":"-83.72190","Snowdepth":"3.000","Units":"in","Rept_Date":"2020-12-15 14"},"coordinates":[3026,6398]},{"type":"Point","properties":{"Station_ID":"GERW3","Station_Nam":"GERMANTOWN,WI","Latitude":"43.21670","Longitude":"-88.11670","Snowdepth":"3.000","Units":"in","Rept_Date":"2020-12-15 13"},"coordinates":[2037,5780]},{"type":"Point","properties":{"Station_ID":"FMTN1","Station_Nam":"FREMONT,NE","Latitude":"41.43330","Longitude":"-96.48330","Snowdepth":"3.000","Units":"in","Rept_Date":"2020-12-15 13"},"coordinates":[155,4896]},{"type":"Point","properties":{"Station_ID":"FLDM5","Station_Nam":"FLOODWOOD,MN","Latitude":"47.00000","Longitude":"-92.91670","Snowdepth":"3.000","Units":"in","Rept_Date":"2020-12-15 14"},"coordinates":[957,7656]},{"type":"Point","properties":{"Station_ID":"FDCW3","Station_Nam":"FOND DU LAC-MID","Latitude":"43.63330","Longitude":"-88.45000","Snowdepth":"3.000","Units":"in","Rept_Date":"2020-12-16 06"},"coordinates":[1962,5987]},{"type":"Point","properties":{"Station_ID":"FCLN1","Station_Nam":"FT CALHOUN 4W","Latitude":"41.44670","Longitude":"-96.09190","Snowdepth":"3.000","Units":"in","Rept_Date":"2020-12-15 13"},"coordinates":[243,4903]},{"type":"Point","properties":{"Station_ID":"FCDW3","Station_Nam":"FOND DU LAC-AM","Latitude":"43.76670","Longitude":"-88.46670","Snowdepth":"3.000","Units":"in","Rept_Date":"2020-12-15 13"},"coordinates":[1958,6053]},{"type":"Point","properties":{"Station_ID":"FATW3","Station_Nam":"FORT ATKINSON,WI","Latitude":"42.88330","Longitude":"-88.83330","Snowdepth":"3.000","Units":"in","Rept_Date":"2020-12-15 13"},"coordinates":[1876,5615]},{"type":"Point","properties":{"Station_ID":"FARM1","Station_Nam":"FARMINGTON","Latitude":"44.68930","Longitude":"-70.15640","Snowdepth":"3.000","Units":"in","Rept_Date":"2020-12-15 12"},"coordinates":[6078,6510]},{"type":"Point","properties":{"Station_ID":"EZBI2","Station_Nam":"ELIZABETH","Latitude":"42.31620","Longitude":"-90.22690","Snowdepth":"3.000","Units":"in","Rept_Date":"2020-12-15 12"},"coordinates":[1562,5334]},{"type":"Point","properties":{"Station_ID":"EHYM3","Station_Nam":"EAST HAWLEY","Latitude":"42.57410","Longitude":"-72.86790","Snowdepth":"3.000","Units":"in","Rept_Date":"2020-12-15 14"},"coordinates":[5468,5462]},{"type":"Point","properties":{"Station_ID":"DURM1","Station_Nam":"DURHAM","Latitude":"43.99960","Longitude":"-70.09630","Snowdepth":"3.000","Units":"in","Rept_Date":"2020-12-15 12"},"coordinates":[6092,6168]},{"type":"Point","properties":{"Station_ID":"DTVM4","Station_Nam":"DETOUR VILLAGE","Latitude":"45.99830","Longitude":"-83.90130","Snowdepth":"3.000","Units":"in","Rept_Date":"2020-12-15 13"},"coordinates":[2986,7159]},{"type":"Point","properties":{"Station_ID":"DOUG006","Station_Nam":"OMAHA 2.9 W, NE","Latitude":"41.26580","Longitude":"-95.99270","Snowdepth":"3.000","Units":"in","Rept_Date":"2020-12-15 13"},"coordinates":[265,4813]},{"type":"Point","properties":{"Station_ID":"DARW3","Station_Nam":"DARLINGTON","Latitude":"42.67780","Longitude":"-90.11860","Snowdepth":"3.000","Units":"in","Rept_Date":"2020-12-15 13"},"coordinates":[1587,5513]},{"type":"Point","properties":{"Station_ID":"CRNI4","Station_Nam":"CORNING","Latitude":"40.98860","Longitude":"-94.74910","Snowdepth":"3.000","Units":"in","Rept_Date":"2020-12-15 13"},"coordinates":[545,4676]},{"type":"Point","properties":{"Station_ID":"CORM1","Station_Nam":"CORINNA","Latitude":"44.91980","Longitude":"-69.24180","Snowdepth":"3.000","Units":"in","Rept_Date":"2020-12-15 15"},"coordinates":[6284,6625]},{"type":"Point","properties":{"Station_ID":"CHRM4","Station_Nam":"CHARLEVOIX","Latitude":"45.31720","Longitude":"-85.26720","Snowdepth":"3.000","Units":"in","Rept_Date":"2020-12-15 13"},"coordinates":[2678,6822]},{"type":"Point","properties":{"Station_ID":"CCTI4","Station_Nam":"CENTRAL CITY","Latitude":"42.21480","Longitude":"-91.52230","Snowdepth":"3.000","Units":"in","Rept_Date":"2020-12-15 15"},"coordinates":[1271,5284]},{"type":"Point","properties":{"Station_ID":"CASM7","Station_Nam":"CASSVILLE","Latitude":"36.68740","Longitude":"-93.86950","Snowdepth":"3.000","Units":"in","Rept_Date":"2020-12-15 14"},"coordinates":[743,2544]},{"type":"Point","properties":{"Station_ID":"BSSW2","Station_Nam":"BECKLEY AIRPORT SNOW OBSERVATION","Latitude":"37.78690","Longitude":"-81.11370","Snowdepth":"3.000","Units":"in","Rept_Date":"2020-12-15 12"},"coordinates":[3613,3089]},{"type":"Point","properties":{"Station_ID":"BROW3","Station_Nam":"BRODHEAD,WI","Latitude":"42.61720","Longitude":"-89.38970","Snowdepth":"3.000","Units":"in","Rept_Date":"2020-12-15 13"},"coordinates":[1751,5483]},{"type":"Point","properties":{"Station_ID":"BEAW3","Station_Nam":"BEAVER DAM,WI","Latitude":"43.45000","Longitude":"-88.85000","Snowdepth":"3.000","Units":"in","Rept_Date":"2020-12-15 13"},"coordinates":[1872,5896]},{"type":"Point","properties":{"Station_ID":"ATLI4","Station_Nam":"ATLANTIC,IA","Latitude":"41.41810","Longitude":"-95.00310","Snowdepth":"3.000","Units":"in","Rept_Date":"2020-12-15 13"},"coordinates":[488,4889]},{"type":"Point","properties":{"Station_ID":"AR-NW-13","Station_Nam":"JASPER 3.8 SE, AR","Latitude":"35.96980","Longitude":"-93.13810","Snowdepth":"3.000","Units":"in","Rept_Date":"2020-12-15 13"},"coordinates":[907,2188]},{"type":"Point","properties":{"Station_ID":"AR-CR-8","Station_Nam":"HOLIDAY ISLAND 1.3 SSW, AR","Latitude":"36.46714","Longitude":"-93.73700","Snowdepth":"3.000","Units":"in","Rept_Date":"2020-12-15 13"},"coordinates":[773,2434]},{"type":"Point","properties":{"Station_ID":"AR-BT-4","Station_Nam":"PEA RIDGE 0.2 WSW, AR","Latitude":"36.44960","Longitude":"-94.11860","Snowdepth":"3.000","Units":"in","Rept_Date":"2020-12-15 13"},"coordinates":[687,2426]},{"type":"Point","properties":{"Station_ID":"AESI4","Station_Nam":"BLO SQUAW CK ON THE SOUTH SKUNK R.","Latitude":"41.96250","Longitude":"-93.56110","Snowdepth":"3.000","Units":"in","Rept_Date":"2020-12-15 12"},"coordinates":[812,5159]},{"type":"Point","properties":{"Station_ID":"ACEP1","Station_Nam":"DONEGAL 2 NW","Latitude":"40.13470","Longitude":"-79.40720","Snowdepth":"3.000","Units":"in","Rept_Date":"2020-12-15 12"},"coordinates":[3997,4253]},{"type":"Point","properties":{"Station_ID":"CAN-NL-72","Station_Nam":"ST. JOHN'S 3.4 N, CAN","Latitude":"47.59389","Longitude":"-52.72879","Snowdepth":"2.900","Units":"in","Rept_Date":"2020-12-15 11"},"coordinates":[9999,7950]},{"type":"Point","properties":{"Station_ID":"WV-PR-10","Station_Nam":"TERRA ALTA 4.9 NNE, WV","Latitude":"39.51024","Longitude":"-79.51024","Snowdepth":"2.800","Units":"in","Rept_Date":"2020-12-15 13"},"coordinates":[3974,3943]},{"type":"Point","properties":{"Station_ID":"MI-AG-6","Station_Nam":"MUNISING 11.1 SSW, MI","Latitude":"46.27805","Longitude":"-86.75747","Snowdepth":"2.800","Units":"in","Rept_Date":"2020-12-15 12"},"coordinates":[2343,7298]},{"type":"Point","properties":{"Station_ID":"CAN-ON-620","Station_Nam":"GOODERHAM 3.4 SSW, CAN","Latitude":"44.87690","Longitude":"-78.39265","Snowdepth":"2.800","Units":"in","Rept_Date":"2020-12-15 12"},"coordinates":[4225,6603]},{"type":"Point","properties":{"Station_ID":"QIQ","Station_Nam":"QIQ","Latitude":"49.82390","Longitude":"-68.54310","Snowdepth":"2.795","Units":"in","Rept_Date":"2020-12-15 12"},"coordinates":[6441,9056]},{"type":"Point","properties":{"Station_ID":"IA-BT-12","Station_Nam":"FAIRFAX 4.0 NW, IA","Latitude":"41.96223","Longitude":"-91.83675","Snowdepth":"2.700","Units":"in","Rept_Date":"2020-12-15 13"},"coordinates":[1200,5158]},{"type":"Point","properties":{"Station_ID":"IA-CL-4","Station_Nam":"MURRAY 1.7 W, IA","Latitude":"41.04128","Longitude":"-93.98046","Snowdepth":"2.600","Units":"in","Rept_Date":"2020-12-15 13"},"coordinates":[718,4702]},{"type":"Point","properties":{"Station_ID":"WI-SR-1","Station_Nam":"HAYWARD 9.2 NNE, WI","Latitude":"46.13255","Longitude":"-91.40500","Snowdepth":"2.500","Units":"in","Rept_Date":"2020-12-15 12"},"coordinates":[1297,7226]},{"type":"Point","properties":{"Station_ID":"WI-IR-3","Station_Nam":"PENCE 0.1 E, WI","Latitude":"46.41555","Longitude":"-90.27013","Snowdepth":"2.500","Units":"in","Rept_Date":"2020-12-15 13"},"coordinates":[1553,7366]},{"type":"Point","properties":{"Station_ID":"WI-DD-15","Station_Nam":"COLUMBUS 4.8 ENE, WI","Latitude":"43.35742","Longitude":"-88.93819","Snowdepth":"2.500","Units":"in","Rept_Date":"2020-12-15 15"},"coordinates":[1852,5850]},{"type":"Point","properties":{"Station_ID":"OK-TL-66","Station_Nam":"TULSA 8.4 ESE, OK","Latitude":"36.10114","Longitude":"-95.76878","Snowdepth":"2.500","Units":"in","Rept_Date":"2020-12-15 14"},"coordinates":[316,2253]},{"type":"Point","properties":{"Station_ID":"OK-TL-35","Station_Nam":"TULSA 3.4 ENE, OK","Latitude":"36.14830","Longitude":"-95.86180","Snowdepth":"2.500","Units":"in","Rept_Date":"2020-12-15 13"},"coordinates":[295,2276]},{"type":"Point","properties":{"Station_ID":"NY-MD-16","Station_Nam":"CHITTENANGO 2.1 ESE, NY","Latitude":"43.03297","Longitude":"-75.83480","Snowdepth":"2.500","Units":"in","Rept_Date":"2020-12-15 13"},"coordinates":[4800,5689]},{"type":"Point","properties":{"Station_ID":"NY-MD-10","Station_Nam":"CAZENOVIA 2.9 SE, NY","Latitude":"42.90003","Longitude":"-75.81140","Snowdepth":"2.500","Units":"in","Rept_Date":"2020-12-15 12"},"coordinates":[4806,5623]},{"type":"Point","properties":{"Station_ID":"NH-GR-56","Station_Nam":"EASTON 0.6 ESE, NH","Latitude":"44.14790","Longitude":"-71.78950","Snowdepth":"2.500","Units":"in","Rept_Date":"2020-12-15 13"},"coordinates":[5711,6242]},{"type":"Point","properties":{"Station_ID":"NE-SY-31","Station_Nam":"GRETNA 3.0 NNE, NE","Latitude":"41.18158","Longitude":"-96.22400","Snowdepth":"2.500","Units":"in","Rept_Date":"2020-12-15 13"},"coordinates":[213,4772]},{"type":"Point","properties":{"Station_ID":"NE-SY-11","Station_Nam":"LA VISTA 2.0 WSW, NE","Latitude":"41.17702","Longitude":"-96.07571","Snowdepth":"2.500","Units":"in","Rept_Date":"2020-12-15 13"},"coordinates":[247,4769]},{"type":"Point","properties":{"Station_ID":"NE-SW-7","Station_Nam":"SEWARD 0.5 NE, NE","Latitude":"40.91689","Longitude":"-97.08981","Snowdepth":"2.500","Units":"in","Rept_Date":"2020-12-15 13"},"coordinates":[18,4640]},{"type":"Point","properties":{"Station_ID":"NE-LA-41","Station_Nam":"MALCOLM 0.3 SSE, NE","Latitude":"40.90461","Longitude":"-96.86279","Snowdepth":"2.500","Units":"in","Rept_Date":"2020-12-15 15"},"coordinates":[69,4634]},{"type":"Point","properties":{"Station_ID":"NE-LA-38","Station_Nam":"LINCOLN 4.6 S, NE","Latitude":"40.74920","Longitude":"-96.68970","Snowdepth":"2.500","Units":"in","Rept_Date":"2020-12-15 13"},"coordinates":[108,4557]},{"type":"Point","properties":{"Station_ID":"MO-TY-27","Station_Nam":"FORSYTH 0.9 S, MO","Latitude":"36.67440","Longitude":"-93.10750","Snowdepth":"2.500","Units":"in","Rept_Date":"2020-12-15 14"},"coordinates":[914,2537]},{"type":"Point","properties":{"Station_ID":"ME-SM-10","Station_Nam":"NORTH NEW PORTLAND 0.3 WSW, ME","Latitude":"44.92353","Longitude":"-70.02788","Snowdepth":"2.500","Units":"in","Rept_Date":"2020-12-15 12"},"coordinates":[6107,6626]},{"type":"Point","properties":{"Station_ID":"IA-SH-6","Station_Nam":"KIRKMAN 1.0 SE, IA","Latitude":"41.71810","Longitude":"-95.25310","Snowdepth":"2.500","Units":"in","Rept_Date":"2020-12-15 13"},"coordinates":[432,5037]},{"type":"Point","properties":{"Station_ID":"IA-CL-3","Station_Nam":"MURRAY 0.5 N, IA","Latitude":"41.04831","Longitude":"-93.94960","Snowdepth":"2.500","Units":"in","Rept_Date":"2020-12-15 13"},"coordinates":[725,4705]},{"type":"Point","properties":{"Station_ID":"WI-WS-5","Station_Nam":"JACKSON 0.2 WSW, WI","Latitude":"43.32007","Longitude":"-88.16820","Snowdepth":"2.400","Units":"in","Rept_Date":"2020-12-15 12"},"coordinates":[2026,5832]},{"type":"Point","properties":{"Station_ID":"ME-CM-54","Station_Nam":"WINDHAM 3.9 NW, ME","Latitude":"43.85787","Longitude":"-70.46200","Snowdepth":"2.400","Units":"in","Rept_Date":"2020-12-15 12"},"coordinates":[6009,6098]},{"type":"Point","properties":{"Station_ID":"CAN-ON-452","Station_Nam":"CHATSWORTH 1.8 ENE - GSCA, CAN","Latitude":"44.46118","Longitude":"-80.87506","Snowdepth":"2.400","Units":"in","Rept_Date":"2020-12-15 12"},"coordinates":[3666,6397]},{"type":"Point","properties":{"Station_ID":"OK-NB-7","Station_Nam":"GLENCOE 1.7 N, OK","Latitude":"36.25000","Longitude":"-96.92700","Snowdepth":"2.300","Units":"in","Rept_Date":"2020-12-15 13"},"coordinates":[55,2327]},{"type":"Point","properties":{"Station_ID":"QGT","Station_Nam":"QGT","Latitude":"49.64720","Longitude":"-67.62640","Snowdepth":"2.205","Units":"in","Rept_Date":"2020-12-15 12"},"coordinates":[6647,8968]},{"type":"Point","properties":{"Station_ID":"NE-SY-25","Station_Nam":"GRETNA 2.9 NNE, NE","Latitude":"41.17831","Longitude":"-96.21984","Snowdepth":"2.200","Units":"in","Rept_Date":"2020-12-15 14"},"coordinates":[214,4770]},{"type":"Point","properties":{"Station_ID":"MI-MC-3","Station_Nam":"CEDARVILLE 3.2 ESE, MI","Latitude":"45.98938","Longitude":"-84.29780","Snowdepth":"2.100","Units":"in","Rept_Date":"2020-12-15 13"},"coordinates":[2896,7155]},{"type":"Point","properties":{"Station_ID":"WTRM4","Station_Nam":"WATERSMEET 12WSW","Latitude":"46.22310","Longitude":"-89.40850","Snowdepth":"2.000","Units":"in","Rept_Date":"2020-12-15 12"},"coordinates":[1747,7271]},{"type":"Point","properties":{"Station_ID":"WTNM4","Station_Nam":"WATTON 2WSW","Latitude":"46.52660","Longitude":"-88.64240","Snowdepth":"2.000","Units":"in","Rept_Date":"2020-12-15 13"},"coordinates":[1919,7421]},{"type":"Point","properties":{"Station_ID":"WTHM1","Station_Nam":"WINTHROP","Latitude":"44.30650","Longitude":"-69.97010","Snowdepth":"2.000","Units":"in","Rept_Date":"2020-12-15 13"},"coordinates":[6120,6321]},{"type":"Point","properties":{"Station_ID":"WRSM5","Station_Nam":"WRENSHALL","Latitude":"46.61550","Longitude":"-92.38380","Snowdepth":"2.000","Units":"in","Rept_Date":"2020-12-15 14"},"coordinates":[1077,7465]},{"type":"Point","properties":{"Station_ID":"WNDP1","Station_Nam":"WINDBER COUNTY CLUB","Latitude":"40.28780","Longitude":"-78.77530","Snowdepth":"2.000","Units":"in","Rept_Date":"2020-12-15 12"},"coordinates":[4139,4328]},{"type":"Point","properties":{"Station_ID":"WNDM1","Station_Nam":"WINDHAM 2NW","Latitude":"43.85670","Longitude":"-70.46630","Snowdepth":"2.000","Units":"in","Rept_Date":"2020-12-15 12"},"coordinates":[6008,6098]},{"type":"Point","properties":{"Station_ID":"WI-WW-14","Station_Nam":"DARIEN 1.6 NNE, WI","Latitude":"42.62361","Longitude":"-88.70083","Snowdepth":"2.000","Units":"in","Rept_Date":"2020-12-15 13"},"coordinates":[1906,5486]},{"type":"Point","properties":{"Station_ID":"WI-RK-12","Station_Nam":"JANESVILLE 3.1 W, WI","Latitude":"42.67576","Longitude":"-89.07614","Snowdepth":"2.000","Units":"in","Rept_Date":"2020-12-15 13"},"coordinates":[1821,5512]},{"type":"Point","properties":{"Station_ID":"WI-GL-4","Station_Nam":"GREEN LAKE 0.8 E, WI","Latitude":"43.84369","Longitude":"-88.94066","Snowdepth":"2.000","Units":"in","Rept_Date":"2020-12-15 13"},"coordinates":[1852,6091]},{"type":"Point","properties":{"Station_ID":"WI-DA-86","Station_Nam":"COTTAGE GROVE 3.6 SSW, WI","Latitude":"43.03516","Longitude":"-89.22080","Snowdepth":"2.000","Units":"in","Rept_Date":"2020-12-15 13"},"coordinates":[1789,5690]},{"type":"Point","properties":{"Station_ID":"WI-DA-62","Station_Nam":"WAUNAKEE 4.9 W, WI","Latitude":"43.19755","Longitude":"-89.54904","Snowdepth":"2.000","Units":"in","Rept_Date":"2020-12-15 13"},"coordinates":[1715,5771]},{"type":"Point","properties":{"Station_ID":"WI-CB-4","Station_Nam":"PORTAGE 5.7 WSW, WI","Latitude":"43.51411","Longitude":"-89.56910","Snowdepth":"2.000","Units":"in","Rept_Date":"2020-12-15 12"},"coordinates":[1710,5928]},{"type":"Point","properties":{"Station_ID":"WELM4","Station_Nam":"WELLSTON TIPPY DAM","Latitude":"44.25860","Longitude":"-85.93940","Snowdepth":"2.000","Units":"in","Rept_Date":"2020-12-15 13"},"coordinates":[2527,6297]},{"type":"Point","properties":{"Station_ID":"WAAM5","Station_Nam":"WARREN WSD","Latitude":"48.19530","Longitude":"-96.77590","Snowdepth":"2.000","Units":"in","Rept_Date":"2020-12-15 14"},"coordinates":[89,8248]},{"type":"Point","properties":{"Station_ID":"VOLI4","Station_Nam":"VOLGA 1NE","Latitude":"42.81150","Longitude":"-91.52300","Snowdepth":"2.000","Units":"in","Rept_Date":"2020-12-15 12"},"coordinates":[1271,5579]},{"type":"Point","properties":{"Station_ID":"TX-LT-2","Station_Nam":"MEXIA 9.4 SSE, TX","Latitude":"31.55614","Longitude":"-96.42510","Snowdepth":"2.000","Units":"in","Rept_Date":"2020-12-15 11"},"coordinates":[168,0]},{"type":"Point","properties":{"Station_ID":"TOPM1","Station_Nam":"TOPSFIELD","Latitude":"45.43470","Longitude":"-67.72020","Snowdepth":"2.000","Units":"in","Rept_Date":"2020-12-15 12"},"coordinates":[6626,6880]},{"type":"Point","properties":{"Station_ID":"TOGM5","Station_Nam":"CELINA 2E","Latitude":"47.86630","Longitude":"-93.02660","Snowdepth":"2.000","Units":"in","Rept_Date":"2020-12-15 15"},"coordinates":[933,8085]},{"type":"Point","properties":{"Station_ID":"TLDI4","Station_Nam":"TOLEDO,IA","Latitude":"41.98330","Longitude":"-92.58330","Snowdepth":"2.000","Units":"in","Rept_Date":"2020-12-15 13"},"coordinates":[1032,5169]},{"type":"Point","properties":{"Station_ID":"TCMN1","Station_Nam":"TECUMSEH,NE","Latitude":"40.36670","Longitude":"-96.18330","Snowdepth":"2.000","Units":"in","Rept_Date":"2020-12-15 14"},"coordinates":[222,4368]},{"type":"Point","properties":{"Station_ID":"TCMM4","Station_Nam":"TRAVERSE CITY MUNSON","Latitude":"44.76070","Longitude":"-85.64430","Snowdepth":"2.000","Units":"in","Rept_Date":"2020-12-15 11"},"coordinates":[2593,6546]},{"type":"Point","properties":{"Station_ID":"SPNN1","Station_Nam":"MAHA SCOUT CAMP","Latitude":"41.06390","Longitude":"-96.00690","Snowdepth":"2.000","Units":"in","Rept_Date":"2020-12-15 14"},"coordinates":[262,4713]},{"type":"Point","properties":{"Station_ID":"SNYI4","Station_Nam":"STANLEY","Latitude":"42.63330","Longitude":"-91.86320","Snowdepth":"2.000","Units":"in","Rept_Date":"2020-12-15 13"},"coordinates":[1194,5491]},{"type":"Point","properties":{"Station_ID":"SACW3","Station_Nam":"SAUK CITY","Latitude":"43.26000","Longitude":"-89.73580","Snowdepth":"2.000","Units":"in","Rept_Date":"2020-12-15 12"},"coordinates":[1673,5802]},{"type":"Point","properties":{"Station_ID":"ROCW3","Station_Nam":"ROCHESTER WWTP","Latitude":"42.72690","Longitude":"-88.22580","Snowdepth":"2.000","Units":"in","Rept_Date":"2020-12-15 11"},"coordinates":[2013,5538]},{"type":"Point","properties":{"Station_ID":"RKNW3","Station_Nam":"MARKESAN","Latitude":"43.70280","Longitude":"-88.99890","Snowdepth":"2.000","Units":"in","Rept_Date":"2020-12-15 13"},"coordinates":[1839,6021]},{"type":"Point","properties":{"Station_ID":"RDFN6","Station_Nam":"REDFIELD 8N","Latitude":"43.64130","Longitude":"-75.88400","Snowdepth":"2.000","Units":"in","Rept_Date":"2020-12-15 12"},"coordinates":[4789,5991]},{"type":"Point","properties":{"Station_ID":"QCAI2","Station_Nam":"MOLINE SNOW","Latitude":"41.39990","Longitude":"-90.54800","Snowdepth":"2.000","Units":"in","Rept_Date":"2020-12-16 00"},"coordinates":[1490,4880]},{"type":"Point","properties":{"Station_ID":"PTBN3","Station_Nam":"PITTSBURG RESERVOIR","Latitude":"45.04690","Longitude":"-71.38300","Snowdepth":"2.000","Units":"in","Rept_Date":"2020-12-15 12"},"coordinates":[5802,6688]},{"type":"Point","properties":{"Station_ID":"PRGO2","Station_Nam":"PRAGUE,OK","Latitude":"35.48610","Longitude":"-96.69420","Snowdepth":"2.000","Units":"in","Rept_Date":"2020-12-15 13"},"coordinates":[107,1948]},{"type":"Point","properties":{"Station_ID":"PORW3","Station_Nam":"PORTAGE,WI","Latitude":"43.53190","Longitude":"-89.43780","Snowdepth":"2.000","Units":"in","Rept_Date":"2020-12-15 14"},"coordinates":[1740,5937]},{"type":"Point","properties":{"Station_ID":"PA-MN-16","Station_Nam":"MOUNT POCONO 0.7 N, PA","Latitude":"41.13190","Longitude":"-75.35804","Snowdepth":"2.000","Units":"in","Rept_Date":"2020-12-15 12"},"coordinates":[4908,4747]},{"type":"Point","properties":{"Station_ID":"PA-CB-4","Station_Nam":"PALMERTON 5.8 ENE, PA","Latitude":"40.83902","Longitude":"-75.51850","Snowdepth":"2.000","Units":"in","Rept_Date":"2020-12-15 13"},"coordinates":[4872,4602]},{"type":"Point","properties":{"Station_ID":"OZRM7","Station_Nam":"OZARK BEACH","Latitude":"36.67450","Longitude":"-93.10760","Snowdepth":"2.000","Units":"in","Rept_Date":"2020-12-15 14"},"coordinates":[914,2537]},{"type":"Point","properties":{"Station_ID":"OSEI4","Station_Nam":"OSCEOLA,IA","Latitude":"41.01670","Longitude":"-93.81670","Snowdepth":"2.000","Units":"in","Rept_Date":"2020-12-15 13"},"coordinates":[755,4690]},{"type":"Point","properties":{"Station_ID":"ONCW3","Station_Nam":"SOUTH","Latitude":"43.11170","Longitude":"-88.49970","Snowdepth":"2.000","Units":"in","Rept_Date":"2020-12-15 14"},"coordinates":[1951,5728]},{"type":"Point","properties":{"Station_ID":"OKLM2","Station_Nam":"SINES DEEP CREEK LAKE","Latitude":"39.52270","Longitude":"-79.41310","Snowdepth":"2.000","Units":"in","Rept_Date":"2020-12-15 12"},"coordinates":[3995,3949]},{"type":"Point","properties":{"Station_ID":"OK-LN-5","Station_Nam":"CHANDLER 4.6 NNE, OK","Latitude":"35.77280","Longitude":"-96.86040","Snowdepth":"2.000","Units":"in","Rept_Date":"2020-12-15 13"},"coordinates":[70,2090]},{"type":"Point","properties":{"Station_ID":"OK-KY-7","Station_Nam":"NEWKIRK 0.3 W, OK","Latitude":"36.88200","Longitude":"-97.06130","Snowdepth":"2.000","Units":"in","Rept_Date":"2020-12-15 14"},"coordinates":[25,2640]},{"type":"Point","properties":{"Station_ID":"OK-DL-2","Station_Nam":"JAY 3.3 NNE, OK","Latitude":"36.47100","Longitude":"-94.78300","Snowdepth":"2.000","Units":"in","Rept_Date":"2020-12-15 14"},"coordinates":[537,2436]},{"type":"Point","properties":{"Station_ID":"OK-CG-2","Station_Nam":"VINITA 8.6 ESE, OK","Latitude":"36.57451","Longitude":"-95.02370","Snowdepth":"2.000","Units":"in","Rept_Date":"2020-12-15 13"},"coordinates":[483,2488]},{"type":"Point","properties":{"Station_ID":"OCON6","Station_Nam":"OSCEOLA","Latitude":"43.50370","Longitude":"-75.72170","Snowdepth":"2.000","Units":"in","Rept_Date":"2020-12-15 13"},"coordinates":[4826,5923]},{"type":"Point","properties":{"Station_ID":"OAXN1","Station_Nam":"VALLEY 1WNW","Latitude":"41.31970","Longitude":"-96.36720","Snowdepth":"2.000","Units":"in","Rept_Date":"2020-12-16 06"},"coordinates":[181,4840]},{"type":"Point","properties":{"Station_ID":"OAX","Station_Nam":"OMAHA, NE","Latitude":"41.32000","Longitude":"-96.36670","Snowdepth":"2.000","Units":"in","Rept_Date":"2020-12-16 00"},"coordinates":[181,4840]},{"type":"Point","properties":{"Station_ID":"OAKI4","Station_Nam":"OAKLAND,IA","Latitude":"41.31330","Longitude":"-95.39060","Snowdepth":"2.000","Units":"in","Rept_Date":"2020-12-15 13"},"coordinates":[401,4837]},{"type":"Point","properties":{"Station_ID":"NWFM4","Station_Nam":"NW MICHIGAN RESEARCH FARM","Latitude":"44.88300","Longitude":"-85.67520","Snowdepth":"2.000","Units":"in","Rept_Date":"2020-12-15 13"},"coordinates":[2586,6606]},{"type":"Point","properties":{"Station_ID":"NJ-HN-12","Station_Nam":"HOLLAND TWP 2.6 NNE, NJ","Latitude":"40.63168","Longitude":"-75.10450","Snowdepth":"2.000","Units":"in","Rept_Date":"2020-12-15 10"},"coordinates":[4965,4499]},{"type":"Point","properties":{"Station_ID":"NH-HL-48","Station_Nam":"GREENVILLE 1.1 ENE, NH","Latitude":"42.77674","Longitude":"-71.77990","Snowdepth":"2.000","Units":"in","Rept_Date":"2020-12-15 13"},"coordinates":[5713,5562]},{"type":"Point","properties":{"Station_ID":"NH-BK-2","Station_Nam":"BELMONT 1.7 SW, NH","Latitude":"43.43556","Longitude":"-71.50690","Snowdepth":"2.000","Units":"in","Rept_Date":"2020-12-15 12"},"coordinates":[5774,5889]},{"type":"Point","properties":{"Station_ID":"NE-SY-18","Station_Nam":"PAPILLION 0.8 WSW, NE","Latitude":"41.15318","Longitude":"-96.05580","Snowdepth":"2.000","Units":"in","Rept_Date":"2020-12-15 13"},"coordinates":[251,4757]},{"type":"Point","properties":{"Station_ID":"NE-LA-52","Station_Nam":"LINCOLN 1.2 ENE, NE","Latitude":"40.82411","Longitude":"-96.66780","Snowdepth":"2.000","Units":"in","Rept_Date":"2020-12-15 13"},"coordinates":[113,4594]},{"type":"Point","properties":{"Station_ID":"NE-LA-40","Station_Nam":"LINCOLN 3.9 S, NE","Latitude":"40.76142","Longitude":"-96.70244","Snowdepth":"2.000","Units":"in","Rept_Date":"2020-12-15 13"},"coordinates":[106,4563]},{"type":"Point","properties":{"Station_ID":"NE-LA-19","Station_Nam":"LINCOLN 6.8 SE, NE","Latitude":"40.74944","Longitude":"-96.59280","Snowdepth":"2.000","Units":"in","Rept_Date":"2020-12-15 13"},"coordinates":[130,4557]},{"type":"Point","properties":{"Station_ID":"NE-DD-3","Station_Nam":"FREMONT 0.6 S, NE","Latitude":"41.43141","Longitude":"-96.49210","Snowdepth":"2.000","Units":"in","Rept_Date":"2020-12-15 13"},"coordinates":[153,4895]},{"type":"Point","properties":{"Station_ID":"MQT","Station_Nam":"MARQUETTE, MI","Latitude":"46.53140","Longitude":"-87.54920","Snowdepth":"2.000","Units":"in","Rept_Date":"2020-12-16 06"},"coordinates":[2165,7424]},{"type":"Point","properties":{"Station_ID":"MN-SL-15","Station_Nam":"CHISHOLM 0.4 WSW, MN","Latitude":"47.48557","Longitude":"-92.88690","Snowdepth":"2.000","Units":"in","Rept_Date":"2020-12-15 13"},"coordinates":[964,7897]},{"type":"Point","properties":{"Station_ID":"MN-SL-108","Station_Nam":"IRON JUNCTION 3.4 NNW, MN","Latitude":"47.46150","Longitude":"-92.63130","Snowdepth":"2.000","Units":"in","Rept_Date":"2020-12-15 13"},"coordinates":[1021,7885]},{"type":"Point","properties":{"Station_ID":"MN-CK-6","Station_Nam":"GRAND MARAIS 4.4 W, MN","Latitude":"47.74865","Longitude":"-90.43760","Snowdepth":"2.000","Units":"in","Rept_Date":"2020-12-15 13"},"coordinates":[1515,8027]},{"type":"Point","properties":{"Station_ID":"MLI","Station_Nam":"QUAD CITY INTL","Latitude":"41.44860","Longitude":"-90.50750","Snowdepth":"2.000","Units":"in","Rept_Date":"2020-12-16 00"},"coordinates":[1499,4904]},{"type":"Point","properties":{"Station_ID":"MKTI4","Station_Nam":"MAQUOKETA","Latitude":"42.07710","Longitude":"-90.66470","Snowdepth":"2.000","Units":"in","Rept_Date":"2020-12-15 13"},"coordinates":[1464,5215]},{"type":"Point","properties":{"Station_ID":"ME-CM-86","Station_Nam":"POWNAL 4.1 S, ME","Latitude":"43.85370","Longitude":"-70.17210","Snowdepth":"2.000","Units":"in","Rept_Date":"2020-12-15 12"},"coordinates":[6074,6096]},{"type":"Point","properties":{"Station_ID":"ME-AN-41","Station_Nam":"AUBURN 2.1 NNW, ME","Latitude":"44.11275","Longitude":"-70.26452","Snowdepth":"2.000","Units":"in","Rept_Date":"2020-12-15 12"},"coordinates":[6054,6225]},{"type":"Point","properties":{"Station_ID":"LVRM1","Station_Nam":"LIVERMORE FALLS 1 E","Latitude":"44.47160","Longitude":"-70.15940","Snowdepth":"2.000","Units":"in","Rept_Date":"2020-12-15 12"},"coordinates":[6077,6402]},{"type":"Point","properties":{"Station_ID":"LNKM1","Station_Nam":"LINCOLN SANITARY DISTRICT/WTP","Latitude":"45.37520","Longitude":"-68.50820","Snowdepth":"2.000","Units":"in","Rept_Date":"2020-12-15 12"},"coordinates":[6449,6850]},{"type":"Point","properties":{"Station_ID":"LAUP1","Station_Nam":"1.5MI S OF RT 30 ON SMIT (LAUREL RIDGE)","Latitude":"40.05000","Longitude":"-79.22060","Snowdepth":"2.000","Units":"in","Rept_Date":"2020-12-15 12"},"coordinates":[4039,4211]},{"type":"Point","properties":{"Station_ID":"KABM5","Station_Nam":"KABETOGAMA LAKE VISITOR CTR","Latitude":"48.40880","Longitude":"-93.04840","Snowdepth":"2.000","Units":"in","Rept_Date":"2020-12-15 13"},"coordinates":[928,8354]},{"type":"Point","properties":{"Station_ID":"JEFN3","Station_Nam":"JEFFERSON","Latitude":"44.41690","Longitude":"-71.50080","Snowdepth":"2.000","Units":"in","Rept_Date":"2020-12-15 12"},"coordinates":[5776,6375]},{"type":"Point","properties":{"Station_ID":"JCBM4","Station_Nam":"JACOBSVILLE","Latitude":"47.00830","Longitude":"-88.43180","Snowdepth":"2.000","Units":"in","Rept_Date":"2020-12-15 12"},"coordinates":[1966,7660]},{"type":"Point","properties":{"Station_ID":"JACW3","Station_Nam":"JACKSON","Latitude":"43.31940","Longitude":"-88.16810","Snowdepth":"2.000","Units":"in","Rept_Date":"2020-12-15 12"},"coordinates":[2026,5831]},{"type":"Point","properties":{"Station_ID":"INDM5","Station_Nam":"INDUS,MN","Latitude":"48.61670","Longitude":"-93.90000","Snowdepth":"2.000","Units":"in","Rept_Date":"2020-12-15 14"},"coordinates":[736,8457]},{"type":"Point","properties":{"Station_ID":"IL-HY-5","Station_Nam":"COAL VALLEY 1.9 SE, IL","Latitude":"41.43339","Longitude":"-90.41750","Snowdepth":"2.000","Units":"in","Rept_Date":"2020-12-15 13"},"coordinates":[1520,4896]},{"type":"Point","properties":{"Station_ID":"ICYI4","Station_Nam":"IOWA CITY","Latitude":"41.60930","Longitude":"-91.50510","Snowdepth":"2.000","Units":"in","Rept_Date":"2020-12-15 13"},"coordinates":[1275,4984]},{"type":"Point","properties":{"Station_ID":"IA-TY-2","Station_Nam":"NEW MARKET 4.7 N, IA","Latitude":"40.80060","Longitude":"-94.91020","Snowdepth":"2.000","Units":"in","Rept_Date":"2020-12-15 13"},"coordinates":[509,4583]},{"type":"Point","properties":{"Station_ID":"IA-IA-2","Station_Nam":"MARENGO 2.6 SSW, IA","Latitude":"41.76208","Longitude":"-92.08470","Snowdepth":"2.000","Units":"in","Rept_Date":"2020-12-15 13"},"coordinates":[1144,5059]},{"type":"Point","properties":{"Station_ID":"IA-BH-6","Station_Nam":"WATERLOO 1.9 SSE, IA","Latitude":"42.46500","Longitude":"-92.34100","Snowdepth":"2.000","Units":"in","Rept_Date":"2020-12-15 13"},"coordinates":[1087,5408]},{"type":"Point","properties":{"Station_ID":"HUBN3","Station_Nam":"HUBBARD BROOK","Latitude":"43.93330","Longitude":"-71.71670","Snowdepth":"2.000","Units":"in","Rept_Date":"2020-12-16 06"},"coordinates":[5727,6136]},{"type":"Point","properties":{"Station_ID":"HRVM4","Station_Nam":"HARVEY","Latitude":"46.49080","Longitude":"-87.35470","Snowdepth":"2.000","Units":"in","Rept_Date":"2020-12-15 12"},"coordinates":[2209,7403]},{"type":"Point","properties":{"Station_ID":"HEBI2","Station_Nam":"HEBRON","Latitude":"42.46750","Longitude":"-88.48060","Snowdepth":"2.000","Units":"in","Rept_Date":"2020-12-15 13"},"coordinates":[1955,5409]},{"type":"Point","properties":{"Station_ID":"GYX","Station_Nam":"PORTLAND, ME","Latitude":"43.89250","Longitude":"-70.25500","Snowdepth":"2.000","Units":"in","Rept_Date":"2020-12-15 12"},"coordinates":[6056,6115]},{"type":"Point","properties":{"Station_ID":"GRAN1","Station_Nam":"GRETNA,NE","Latitude":"41.20000","Longitude":"-96.20000","Snowdepth":"2.000","Units":"in","Rept_Date":"2020-12-15 14"},"coordinates":[219,4781]},{"type":"Point","properties":{"Station_ID":"FREM4","Station_Nam":"FREMONT,MI","Latitude":"43.45000","Longitude":"-86.03330","Snowdepth":"2.000","Units":"in","Rept_Date":"2020-12-15 12"},"coordinates":[2506,5896]},{"type":"Point","properties":{"Station_ID":"FDLW3","Station_Nam":"SEWAGE TREATMENT PLANT","Latitude":"43.80000","Longitude":"-88.45000","Snowdepth":"2.000","Units":"in","Rept_Date":"2020-12-15 13"},"coordinates":[1962,6070]},{"type":"Point","properties":{"Station_ID":"EKRI4","Station_Nam":"ELKADER 6SSW","Latitude":"42.77540","Longitude":"-91.45370","Snowdepth":"2.000","Units":"in","Rept_Date":"2020-12-15 13"},"coordinates":[1286,5562]},{"type":"Point","properties":{"Station_ID":"DENW3","Station_Nam":"DENMARK WWTP","Latitude":"44.35130","Longitude":"-87.81190","Snowdepth":"2.000","Units":"in","Rept_Date":"2020-12-15 14"},"coordinates":[2106,6343]},{"type":"Point","properties":{"Station_ID":"CTEN1","Station_Nam":"DOANE COLLEGE","Latitude":"40.61670","Longitude":"-96.95000","Snowdepth":"2.000","Units":"in","Rept_Date":"2020-12-15 13"},"coordinates":[50,4491]},{"type":"Point","properties":{"Station_ID":"CRLM5","Station_Nam":"CROSS LAKE DAM","Latitude":"46.66930","Longitude":"-94.11060","Snowdepth":"2.000","Units":"in","Rept_Date":"2020-12-15 14"},"coordinates":[689,7492]},{"type":"Point","properties":{"Station_ID":"COTM5","Station_Nam":"COTTON","Latitude":"47.16870","Longitude":"-92.46290","Snowdepth":"2.000","Units":"in","Rept_Date":"2020-12-15 12"},"coordinates":[1059,7739]},{"type":"Point","properties":{"Station_ID":"CON","Station_Nam":"CONCORD MUNI ARPT","Latitude":"43.20280","Longitude":"-71.50220","Snowdepth":"2.000","Units":"in","Rept_Date":"2020-12-15 12"},"coordinates":[5775,5773]},{"type":"Point","properties":{"Station_ID":"CLKM4","Station_Nam":"CLARKSBURG","Latitude":"46.49910","Longitude":"-87.84500","Snowdepth":"2.000","Units":"in","Rept_Date":"2020-12-15 12"},"coordinates":[2098,7407]},{"type":"Point","properties":{"Station_ID":"CHIW3","Station_Nam":"CHILTON,WI","Latitude":"44.03330","Longitude":"-88.15000","Snowdepth":"2.000","Units":"in","Rept_Date":"2020-12-15 13"},"coordinates":[2030,6185]},{"type":"Point","properties":{"Station_ID":"CASS001","Station_Nam":"PLATTSMOUTH 1.4 SW, NE","Latitude":"40.99460","Longitude":"-95.89760","Snowdepth":"2.000","Units":"in","Rept_Date":"2020-12-15 13"},"coordinates":[287,4679]},{"type":"Point","properties":{"Station_ID":"CAN-ON-804","Station_Nam":"KEMBLE 1.6 S - GSCA, CAN","Latitude":"44.71013","Longitude":"-80.92735","Snowdepth":"2.000","Units":"in","Rept_Date":"2020-12-15 13"},"coordinates":[3655,6521]},{"type":"Point","properties":{"Station_ID":"CAN-NB-64","Station_Nam":"KESWICK RIDGE 4.0 SE, CAN","Latitude":"45.97014","Longitude":"-66.85538","Snowdepth":"2.000","Units":"in","Rept_Date":"2020-12-15 12"},"coordinates":[6821,7145]},{"type":"Point","properties":{"Station_ID":"CAN-MB-298","Station_Nam":"GARDENTON 4.2 W - SRRCD, CAN","Latitude":"49.09480","Longitude":"-96.75446","Snowdepth":"2.000","Units":"in","Rept_Date":"2020-12-15 14"},"coordinates":[94,8694]},{"type":"Point","properties":{"Station_ID":"BRKI4","Station_Nam":"BROOKLYN,IA","Latitude":"41.72830","Longitude":"-92.43330","Snowdepth":"2.000","Units":"in","Rept_Date":"2020-12-15 13"},"coordinates":[1066,5043]},{"type":"Point","properties":{"Station_ID":"BOON6","Station_Nam":"BOONVILLE 4 SSW","Latitude":"43.43610","Longitude":"-75.36970","Snowdepth":"2.000","Units":"in","Rept_Date":"2020-12-15 12"},"coordinates":[4905,5889]},{"type":"Point","properties":{"Station_ID":"BLLI4","Station_Nam":"BELLE PLAINE","Latitude":"41.88140","Longitude":"-92.27640","Snowdepth":"2.000","Units":"in","Rept_Date":"2020-12-15 13"},"coordinates":[1101,5118]},{"type":"Point","properties":{"Station_ID":"BEUM4","Station_Nam":"BEULAH 7SSW","Latitude":"44.53160","Longitude":"-86.13110","Snowdepth":"2.000","Units":"in","Rept_Date":"2020-12-15 13"},"coordinates":[2484,6432]},{"type":"Point","properties":{"Station_ID":"BETM1","Station_Nam":"BETHEL 6 SSE","Latitude":"44.32000","Longitude":"-70.75680","Snowdepth":"2.000","Units":"in","Rept_Date":"2020-12-15 12"},"coordinates":[5943,6327]},{"type":"Point","properties":{"Station_ID":"BCKW2","Station_Nam":"BECKLEY V.A. HOSPITAL","Latitude":"37.76470","Longitude":"-81.19400","Snowdepth":"2.000","Units":"in","Rept_Date":"2020-12-15 12"},"coordinates":[3595,3078]},{"type":"Point","properties":{"Station_ID":"BARW2","Station_Nam":"BARTOW 1S","Latitude":"38.53120","Longitude":"-79.77140","Snowdepth":"2.000","Units":"in","Rept_Date":"2020-12-15 12"},"coordinates":[3915,3458]},{"type":"Point","properties":{"Station_ID":"BABW3","Station_Nam":"BARABOO WWTP","Latitude":"43.48330","Longitude":"-89.63330","Snowdepth":"2.000","Units":"in","Rept_Date":"2020-12-15 13"},"coordinates":[1696,5913]},{"type":"Point","properties":{"Station_ID":"ASBM3","Station_Nam":"ASHBURNHAM","Latitude":"42.61780","Longitude":"-71.91590","Snowdepth":"2.000","Units":"in","Rept_Date":"2020-12-15 12"},"coordinates":[5682,5483]},{"type":"Point","properties":{"Station_ID":"AR-BT-50","Station_Nam":"ROGERS 2.4 SSW, AR","Latitude":"36.29671","Longitude":"-94.14241","Snowdepth":"2.000","Units":"in","Rept_Date":"2020-12-15 13"},"coordinates":[681,2350]},{"type":"Point","properties":{"Station_ID":"ALXI4","Station_Nam":"WATERLOO SNOW","Latitude":"42.53130","Longitude":"-92.37550","Snowdepth":"2.000","Units":"in","Rept_Date":"2020-12-16 06"},"coordinates":[1079,5441]},{"type":"Point","properties":{"Station_ID":"ALO","Station_Nam":"WATERLOO MUNICIPAL AIRPORT","Latitude":"42.55690","Longitude":"-92.40000","Snowdepth":"2.000","Units":"in","Rept_Date":"2020-12-16 00"},"coordinates":[1074,5453]},{"type":"Point","properties":{"Station_ID":"AR-SR-8","Station_Nam":"ST. JOE 2.7 WNW, AR","Latitude":"36.05180","Longitude":"-92.84340","Snowdepth":"1.800","Units":"in","Rept_Date":"2020-12-15 13"},