{"type":"Topology","objects":{"snowdepth_geo":{"type":"GeometryCollection","name":"snowdepth","crs":{"type":"name","properties":{"name":"urn:ogc:def:crs:OGC:1.3:CRS84"}},"geometries":[{"type":"Point","properties":{"Station_ID":"PRKM4","Station_Nam":"MUNISING EAST","Latitude":"46.42580","Longitude":"-86.62000","Snowdepth":"76.500","Units":"in","Rept_Date":"2020-11-26 06"},"coordinates":[2713,4810]},{"type":"Point","properties":{"Station_ID":"QOU","Station_Nam":"QOU","Latitude":"50.79250","Longitude":"-69.67470","Snowdepth":"13.031","Units":"in","Rept_Date":"2020-11-25 12"},"coordinates":[7122,9084]},{"type":"Point","properties":{"Station_ID":"MLZ","Station_Nam":"MLZ","Latitude":"50.66170","Longitude":"-68.82360","Snowdepth":"11.457","Units":"in","Rept_Date":"2020-11-25 12"},"coordinates":[7344,8956]},{"type":"Point","properties":{"Station_ID":"QTV","Station_Nam":"QTV","Latitude":"49.66000","Longitude":"-69.35690","Snowdepth":"10.984","Units":"in","Rept_Date":"2020-11-25 12"},"coordinates":[7205,7976]},{"type":"Point","properties":{"Station_ID":"QGD","Station_Nam":"QGD","Latitude":"51.11140","Longitude":"-67.13940","Snowdepth":"10.079","Units":"in","Rept_Date":"2020-11-25 12"},"coordinates":[7782,9397]},{"type":"Point","properties":{"Station_ID":"TRIQ6","Station_Nam":"TRIO LAKE","Latitude":"49.22880","Longitude":"-87.22920","Snowdepth":"9.760","Units":"in","Rept_Date":"2020-11-26 06"},"coordinates":[2555,7554]},{"type":"Point","properties":{"Station_ID":"QLM","Station_Nam":"QLM","Latitude":"48.92030","Longitude":"-70.25280","Snowdepth":"9.173","Units":"in","Rept_Date":"2020-11-25 12"},"coordinates":[6972,7252]},{"type":"Point","properties":{"Station_ID":"MMNV1","Station_Nam":"MT. MANSFIELD","Latitude":"44.52480","Longitude":"-72.81540","Snowdepth":"9.000","Units":"in","Rept_Date":"2020-11-25 21"},"coordinates":[6305,2949]},{"type":"Point","properties":{"Station_ID":"CAN-ON-208","Station_Nam":"PAKENHAM 7.8 NNW, CAN","Latitude":"45.39166","Longitude":"-76.34111","Snowdepth":"8.000","Units":"in","Rept_Date":"2020-11-25 12"},"coordinates":[5388,3798]},{"type":"Point","properties":{"Station_ID":"CAN-ON-620","Station_Nam":"GOODERHAM 3.4 SSW, CAN","Latitude":"44.87690","Longitude":"-78.39265","Snowdepth":"7.900","Units":"in","Rept_Date":"2020-11-25 12"},"coordinates":[4854,3294]},{"type":"Point","properties":{"Station_ID":"DVLQ6","Station_Nam":"DEVIOUS LAKE","Latitude":"49.19890","Longitude":"-87.76440","Snowdepth":"7.870","Units":"in","Rept_Date":"2020-11-26 06"},"coordinates":[2415,7525]},{"type":"Point","properties":{"Station_ID":"AUDQ6","Station_Nam":"AUDEN","Latitude":"48.52600","Longitude":"-82.57570","Snowdepth":"7.870","Units":"in","Rept_Date":"2020-11-26 06"},"coordinates":[3765,6866]},{"type":"Point","properties":{"Station_ID":"PTLQ6","Station_Nam":"PORTAGE LAKE","Latitude":"49.06950","Longitude":"-86.65940","Snowdepth":"7.130","Units":"in","Rept_Date":"2020-11-26 06"},"coordinates":[2703,7398]},{"type":"Point","properties":{"Station_ID":"CLQM5","Station_Nam":"CLOQUET","Latitude":"46.70470","Longitude":"-92.52530","Snowdepth":"7.000","Units":"in","Rept_Date":"2020-11-25 14"},"coordinates":[1177,5083]},{"type":"Point","properties":{"Station_ID":"MWN","Station_Nam":"MOUNT WASHINGTON","Latitude":"44.26670","Longitude":"-71.30000","Snowdepth":"6.000","Units":"in","Rept_Date":"2020-11-25 12"},"coordinates":[6699,2697]},{"type":"Point","properties":{"Station_ID":"KMWN","Station_Nam":"MOUNT WASHINGTON","Latitude":"44.26666","Longitude":"-71.30000","Snowdepth":"6.000","Units":"in","Rept_Date":"2020-11-26 06"},"coordinates":[6699,2697]},{"type":"Point","properties":{"Station_ID":"QCX","Station_Nam":"QCX","Latitude":"51.32830","Longitude":"-70.08060","Snowdepth":"5.984","Units":"in","Rept_Date":"2020-11-25 12"},"coordinates":[7017,9609]},{"type":"Point","properties":{"Station_ID":"MFU","Station_Nam":"MFU","Latitude":"51.52170","Longitude":"-66.91110","Snowdepth":"5.945","Units":"in","Rept_Date":"2020-11-25 12"},"coordinates":[7841,9798]},{"type":"Point","properties":{"Station_ID":"QLB","Station_Nam":"QLB","Latitude":"50.72360","Longitude":"-75.10000","Snowdepth":"5.905","Units":"in","Rept_Date":"2020-11-25 12"},"coordinates":[5711,9017]},{"type":"Point","properties":{"Station_ID":"QLP","Station_Nam":"QLP","Latitude":"48.13920","Longitude":"-72.63830","Snowdepth":"5.669","Units":"in","Rept_Date":"2020-11-25 12"},"coordinates":[6351,6487]},{"type":"Point","properties":{"Station_ID":"CAN-ON-92","Station_Nam":"DUNROBIN 1.9 W - MVCA, CAN","Latitude":"45.42318","Longitude":"-76.04525","Snowdepth":"5.600","Units":"in","Rept_Date":"2020-11-25 12"},"coordinates":[5465,3829]},{"type":"Point","properties":{"Station_ID":"QGT","Station_Nam":"QGT","Latitude":"49.64720","Longitude":"-67.62640","Snowdepth":"5.236","Units":"in","Rept_Date":"2020-11-25 12"},"coordinates":[7655,7963]},{"type":"Point","properties":{"Station_ID":"QGO","Station_Nam":"QGO","Latitude":"48.85500","Longitude":"-74.20640","Snowdepth":"5.236","Units":"in","Rept_Date":"2020-11-25 12"},"coordinates":[5943,7188]},{"type":"Point","properties":{"Station_ID":"MI-CF-9","Station_Nam":"GRAYLING 15.8 NE, MI","Latitude":"44.80464","Longitude":"-84.46313","Snowdepth":"5.200","Units":"in","Rept_Date":"2020-11-25 11"},"coordinates":[3274,3223]},{"type":"Point","properties":{"Station_ID":"WLNM4","Station_Nam":"WELLSTON 1N","Latitude":"44.22940","Longitude":"-85.95690","Snowdepth":"5.000","Units":"in","Rept_Date":"2020-11-25 12"},"coordinates":[2886,2660]},{"type":"Point","properties":{"Station_ID":"WI-MN-9","Station_Nam":"WARRENS 4.7 WSW, WI","Latitude":"44.10386","Longitude":"-90.58884","Snowdepth":"5.000","Units":"in","Rept_Date":"2020-11-25 13"},"coordinates":[1681,2537]},{"type":"Point","properties":{"Station_ID":"QWE","Station_Nam":"QWE","Latitude":"47.84610","Longitude":"-73.80670","Snowdepth":"5.000","Units":"in","Rept_Date":"2020-11-25 12"},"coordinates":[6047,6200]},{"type":"Point","properties":{"Station_ID":"HERM4","Station_Nam":"HERMAN,MI","Latitude":"46.65000","Longitude":"-88.33330","Snowdepth":"5.000","Units":"in","Rept_Date":"2020-11-25 13"},"coordinates":[2267,5030]},{"type":"Point","properties":{"Station_ID":"MI-BG-3","Station_Nam":"THREE LAKES, MI","Latitude":"46.55730","Longitude":"-88.20770","Snowdepth":"4.800","Units":"in","Rept_Date":"2020-11-25 13"},"coordinates":[2300,4939]},{"type":"Point","properties":{"Station_ID":"QGA","Station_Nam":"QGA","Latitude":"47.25640","Longitude":"-73.73810","Snowdepth":"4.606","Units":"in","Rept_Date":"2020-11-25 12"},"coordinates":[6065,5623]},{"type":"Point","properties":{"Station_ID":"OGIQ6","Station_Nam":"OGOKI CAMP","Latitude":"50.76680","Longitude":"-87.85820","Snowdepth":"4.530","Units":"in","Rept_Date":"2020-11-26 06"},"coordinates":[2391,9059]},{"type":"Point","properties":{"Station_ID":"QMA","Station_Nam":"QMA","Latitude":"50.10330","Longitude":"-70.47190","Snowdepth":"4.528","Units":"in","Rept_Date":"2020-11-25 12"},"coordinates":[6915,8410]},{"type":"Point","properties":{"Station_ID":"QCO","Station_Nam":"QCO","Latitude":"51.45280","Longitude":"-72.20110","Snowdepth":"4.528","Units":"in","Rept_Date":"2020-11-25 12"},"coordinates":[6465,9731]},{"type":"Point","properties":{"Station_ID":"CAN-ON-220","Station_Nam":"DEEP RIVER 1.5 SE - MNRF, CAN","Latitude":"46.09592","Longitude":"-77.47853","Snowdepth":"4.500","Units":"in","Rept_Date":"2020-11-25 12"},"coordinates":[5092,4487]},{"type":"Point","properties":{"Station_ID":"FTHQ6","Station_Nam":"FORT HOPE","Latitude":"51.55820","Longitude":"-87.90510","Snowdepth":"4.490","Units":"in","Rept_Date":"2020-11-26 06"},"coordinates":[2379,9834]},{"type":"Point","properties":{"Station_ID":"QIQ","Station_Nam":"QIQ","Latitude":"49.82390","Longitude":"-68.54310","Snowdepth":"4.370","Units":"in","Rept_Date":"2020-11-25 12"},"coordinates":[7417,8136]},{"type":"Point","properties":{"Station_ID":"CAN-ON-815","Station_Nam":"KEENE 1.8 SSW, CAN","Latitude":"44.22623","Longitude":"-78.17317","Snowdepth":"4.100","Units":"in","Rept_Date":"2020-11-25 12"},"coordinates":[4911,2657]},{"type":"Point","properties":{"Station_ID":"WI-WD-13","Station_Nam":"BABCOCK 0.6 W, WI","Latitude":"44.30120","Longitude":"-90.12315","Snowdepth":"4.000","Units":"in","Rept_Date":"2020-11-25 13"},"coordinates":[1802,2731]},{"type":"Point","properties":{"Station_ID":"VT-WS-19","Station_Nam":"WATERBURY 3.0 NW, VT","Latitude":"44.36060","Longitude":"-72.80770","Snowdepth":"4.000","Units":"in","Rept_Date":"2020-11-25 11"},"coordinates":[6307,2789]},{"type":"Point","properties":{"Station_ID":"MYOM4","Station_Nam":"MIO WWTP","Latitude":"44.64660","Longitude":"-84.11580","Snowdepth":"4.000","Units":"in","Rept_Date":"2020-11-25 13"},"coordinates":[3365,3069]},{"type":"Point","properties":{"Station_ID":"MN-SL-18","Station_Nam":"DULUTH 1.4 NNW, MN","Latitude":"46.80321","Longitude":"-92.11240","Snowdepth":"4.000","Units":"in","Rept_Date":"2020-11-25 14"},"coordinates":[1284,5180]},{"type":"Point","properties":{"Station_ID":"MN-CN-36","Station_Nam":"CLOQUET 3.4 ENE, MN","Latitude":"46.74146","Longitude":"-92.42698","Snowdepth":"4.000","Units":"in","Rept_Date":"2020-11-25 13"},"coordinates":[1202,5119]},{"type":"Point","properties":{"Station_ID":"MIEM4","Station_Nam":"MICHIGAMME 3WNW","Latitude":"46.54530","Longitude":"-88.18000","Snowdepth":"4.000","Units":"in","Rept_Date":"2020-11-25 13"},"coordinates":[2307,4927]},{"type":"Point","properties":{"Station_ID":"LUPM4","Station_Nam":"LUPTON 1S","Latitude":"44.41990","Longitude":"-84.02320","Snowdepth":"4.000","Units":"in","Rept_Date":"2020-11-25 13"},"coordinates":[3389,2847]},{"type":"Point","properties":{"Station_ID":"LKCM4","Station_Nam":"LAKE CITY EXP FARM","Latitude":"44.30880","Longitude":"-85.20500","Snowdepth":"4.000","Units":"in","Rept_Date":"2020-11-25 13"},"coordinates":[3081,2738]},{"type":"Point","properties":{"Station_ID":"KSEM4","Station_Nam":"KALKASKA 11SE","Latitude":"44.58970","Longitude":"-85.04860","Snowdepth":"4.000","Units":"in","Rept_Date":"2020-11-25 13"},"coordinates":[3122,3013]},{"type":"Point","properties":{"Station_ID":"FLDM5","Station_Nam":"FLOODWOOD,MN","Latitude":"47.00000","Longitude":"-92.91670","Snowdepth":"4.000","Units":"in","Rept_Date":"2020-11-25 14"},"coordinates":[1075,5372]},{"type":"Point","properties":{"Station_ID":"FLAM4","Station_Nam":"FIFE LAKE 2WNW","Latitude":"44.58480","Longitude":"-85.36530","Snowdepth":"4.000","Units":"in","Rept_Date":"2020-11-25 12"},"coordinates":[3040,3008]},{"type":"Point","properties":{"Station_ID":"FISM1","Station_Nam":"FORT KENT COOP","Latitude":"47.23850","Longitude":"-68.61240","Snowdepth":"4.000","Units":"in","Rept_Date":"2020-11-25 12"},"coordinates":[7399,5606]},{"type":"Point","properties":{"Station_ID":"DLHM5","Station_Nam":"DULUTH NWS","Latitude":"46.83680","Longitude":"-92.21080","Snowdepth":"4.000","Units":"in","Rept_Date":"2020-11-26 06"},"coordinates":[1258,5212]},{"type":"Point","properties":{"Station_ID":"DLH","Station_Nam":"DULUTH, MN","Latitude":"46.83690","Longitude":"-92.21030","Snowdepth":"4.000","Units":"in","Rept_Date":"2020-11-26 00"},"coordinates":[1259,5213]},{"type":"Point","properties":{"Station_ID":"CDLM4","Station_Nam":"CADILLAC 9&10 NEWS","Latitude":"44.21130","Longitude":"-85.40860","Snowdepth":"4.000","Units":"in","Rept_Date":"2020-11-25 12"},"coordinates":[3028,2643]},{"type":"Point","properties":{"Station_ID":"CARM1","Station_Nam":"CARIBOU WFO","Latitude":"46.86810","Longitude":"-68.01250","Snowdepth":"4.000","Units":"in","Rept_Date":"2020-11-26 05"},"coordinates":[7555,5243]},{"type":"Point","properties":{"Station_ID":"CAN-ON-245","Station_Nam":"PHELPSTON 3.1 ESE, CAN","Latitude":"44.50564","Longitude":"-79.81035","Snowdepth":"4.000","Units":"in","Rept_Date":"2020-11-25 13"},"coordinates":[4485,2931]},{"type":"Point","properties":{"Station_ID":"BGRM4","Station_Nam":"WATER WORKS","Latitude":"43.70000","Longitude":"-85.48330","Snowdepth":"4.000","Units":"in","Rept_Date":"2020-11-25 12"},"coordinates":[3009,2142]},{"type":"Point","properties":{"Station_ID":"CATQ6","Station_Nam":"CAT LAKE","Latitude":"51.72690","Longitude":"-91.82210","Snowdepth":"3.860","Units":"in","Rept_Date":"2020-11-26 06"},"coordinates":[1360,9999]},{"type":"Point","properties":{"Station_ID":"MI-GT-21","Station_Nam":"KINGSLEY 2.7 ENE, MI","Latitude":"44.59871","Longitude":"-85.48426","Snowdepth":"3.800","Units":"in","Rept_Date":"2020-11-25 11"},"coordinates":[3009,3022]},{"type":"Point","properties":{"Station_ID":"MRL","Station_Nam":"MRL","Latitude":"51.28330","Longitude":"-68.84060","Snowdepth":"3.779","Units":"in","Rept_Date":"2020-11-25 12"},"coordinates":[7339,9565]},{"type":"Point","properties":{"Station_ID":"QTM","Station_Nam":"QTM","Latitude":"51.05780","Longitude":"-72.57190","Snowdepth":"3.622","Units":"in","Rept_Date":"2020-11-25 12"},"coordinates":[6368,9344]},{"type":"Point","properties":{"Station_ID":"QLI","Station_Nam":"QLI","Latitude":"50.27080","Longitude":"-73.92280","Snowdepth":"3.583","Units":"in","Rept_Date":"2020-11-25 12"},"coordinates":[6017,8574]},{"type":"Point","properties":{"Station_ID":"SVBQ6","Station_Nam":"SAVANT BASE","Latitude":"50.28730","Longitude":"-90.65670","Snowdepth":"3.580","Units":"in","Rept_Date":"2020-11-26 06"},"coordinates":[1663,8590]},{"type":"Point","properties":{"Station_ID":"MI-BZ-1","Station_Nam":"BENZONIA 5.3 S, MI","Latitude":"44.53976","Longitude":"-86.10650","Snowdepth":"3.500","Units":"in","Rept_Date":"2020-11-25 13"},"coordinates":[2847,2964]},{"type":"Point","properties":{"Station_ID":"ME-AR-18","Station_Nam":"NEW SWEDEN 4.9 NNW, ME","Latitude":"47.01080","Longitude":"-68.14390","Snowdepth":"3.500","Units":"in","Rept_Date":"2020-11-25 12"},"coordinates":[7521,5383]},{"type":"Point","properties":{"Station_ID":"QMD","Station_Nam":"QMD","Latitude":"49.29060","Longitude":"-75.84500","Snowdepth":"3.110","Units":"in","Rept_Date":"2020-11-25 12"},"coordinates":[5517,7614]},{"type":"Point","properties":{"Station_ID":"CAN-MB-368","Station_Nam":"WHITESHELL 1.3 NE, CAN","Latitude":"49.74405","Longitude":"-95.19123","Snowdepth":"3.100","Units":"in","Rept_Date":"2020-11-25 14"},"coordinates":[483,8058]},{"type":"Point","properties":{"Station_ID":"QFT","Station_Nam":"QFT","Latitude":"50.83280","Longitude":"-74.40390","Snowdepth":"3.031","Units":"in","Rept_Date":"2020-11-25 12"},"coordinates":[5892,9124]},{"type":"Point","properties":{"Station_ID":"SOCQ6","Station_Nam":"SOCKET LAKE","Latitude":"50.77870","Longitude":"-91.79300","Snowdepth":"3.030","Units":"in","Rept_Date":"2020-11-26 06"},"coordinates":[1367,9071]},{"type":"Point","properties":{"Station_ID":"WTNM4","Station_Nam":"WATTON 2WSW","Latitude":"46.52660","Longitude":"-88.64240","Snowdepth":"3.000","Units":"in","Rept_Date":"2020-11-25 13"},"coordinates":[2187,4909]},{"type":"Point","properties":{"Station_ID":"WI-WD-7","Station_Nam":"NEKOOSA 3.7 SSW, WI","Latitude":"44.26305","Longitude":"-89.93526","Snowdepth":"3.000","Units":"in","Rept_Date":"2020-11-25 13"},"coordinates":[1851,2693]},{"type":"Point","properties":{"Station_ID":"WI-TR-8","Station_Nam":"ETTRICK 4.0 WNW, WI","Latitude":"44.19004","Longitude":"-91.34249","Snowdepth":"3.000","Units":"in","Rept_Date":"2020-11-25 13"},"coordinates":[1484,2622]},{"type":"Point","properties":{"Station_ID":"WI-PT-8","Station_Nam":"RUDOLPH 2.1 NNE, WI","Latitude":"44.52553","Longitude":"-89.78677","Snowdepth":"3.000","Units":"in","Rept_Date":"2020-11-25 11"},"coordinates":[1889,2950]},{"type":"Point","properties":{"Station_ID":"WI-BY-29","Station_Nam":"BAYFIELD 5.1 NNW, WI","Latitude":"46.88063","Longitude":"-90.85854","Snowdepth":"3.000","Units":"in","Rept_Date":"2020-11-25 13"},"coordinates":[1610,5255]},{"type":"Point","properties":{"Station_ID":"WHFN6","Station_Nam":"WILMINGTON 2W","Latitude":"44.39310","Longitude":"-73.85890","Snowdepth":"3.000","Units":"in","Rept_Date":"2020-11-25 13"},"coordinates":[6034,2821]},{"type":"Point","properties":{"Station_ID":"VT-CH-4","Station_Nam":"UNDERHILL 4.4 NNE, VT","Latitude":"44.58774","Longitude":"-72.92250","Snowdepth":"3.000","Units":"in","Rept_Date":"2020-11-25 13"},"coordinates":[6277,3011]},{"type":"Point","properties":{"Station_ID":"TREW3","Station_Nam":"DAM 6","Latitude":"43.99970","Longitude":"-91.43580","Snowdepth":"3.000","Units":"in","Rept_Date":"2020-11-25 14"},"coordinates":[1460,2435]},{"type":"Point","properties":{"Station_ID":"SUTV1","Station_Nam":"SUTTON","Latitude":"44.61220","Longitude":"-72.04810","Snowdepth":"3.000","Units":"in","Rept_Date":"2020-11-25 13"},"coordinates":[6505,3035]},{"type":"Point","properties":{"Station_ID":"SCOM4","Station_Nam":"SCOTTVILLE 2 SE","Latitude":"43.93310","Longitude":"-86.24530","Snowdepth":"3.000","Units":"in","Rept_Date":"2020-11-25 12"},"coordinates":[2811,2370]},{"type":"Point","properties":{"Station_ID":"RST","Station_Nam":"ROCHESTER INTERNATIONAL ARPT","Latitude":"43.90890","Longitude":"-92.49780","Snowdepth":"3.000","Units":"in","Rept_Date":"2020-11-26 00"},"coordinates":[1184,2347]},{"type":"Point","properties":{"Station_ID":"PLOW3","Station_Nam":"PLOVER","Latitude":"44.44280","Longitude":"-89.54530","Snowdepth":"3.000","Units":"in","Rept_Date":"2020-11-25 13"},"coordinates":[1952,2869]},{"type":"Point","properties":{"Station_ID":"NY-FK-7","Station_Nam":"SARANAC LAKE 6.2 N, NY","Latitude":"44.41359","Longitude":"-74.15211","Snowdepth":"3.000","Units":"in","Rept_Date":"2020-11-25 13"},"coordinates":[5957,2841]},{"type":"Point","properties":{"Station_ID":"NUNV1","Station_Nam":"NORTH UNDERHILL","Latitude":"44.58760","Longitude":"-72.92150","Snowdepth":"3.000","Units":"in","Rept_Date":"2020-11-25 13"},"coordinates":[6277,3011]},{"type":"Point","properties":{"Station_ID":"MN-CK-22","Station_Nam":"GRAND MARAIS 1.8 NE, MN","Latitude":"47.77630","Longitude":"-90.31508","Snowdepth":"3.000","Units":"in","Rept_Date":"2020-11-25 13"},"coordinates":[1752,6132]},{"type":"Point","properties":{"Station_ID":"MN-CK-18","Station_Nam":"GRAND MARAIS 4.4 WSW, MN","Latitude":"47.74462","Longitude":"-90.43796","Snowdepth":"3.000","Units":"in","Rept_Date":"2020-11-25 13"},"coordinates":[1720,6101]},{"type":"Point","properties":{"Station_ID":"MI-OT-4","Station_Nam":"GAYLORD 1.7 WNW, MI","Latitude":"45.03280","Longitude":"-84.71090","Snowdepth":"3.000","Units":"in","Rept_Date":"2020-11-25 13"},"coordinates":[3210,3447]},{"type":"Point","properties":{"Station_ID":"MI-OT-17","Station_Nam":"GAYLORD 4.1 S, MI","Latitude":"44.96388","Longitude":"-84.68467","Snowdepth":"3.000","Units":"in","Rept_Date":"2020-11-25 12"},"coordinates":[3217,3379]},{"type":"Point","properties":{"Station_ID":"MI-OT-16","Station_Nam":"GAYLORD 2.2 SSE, MI","Latitude":"44.99441","Longitude":"-84.65820","Snowdepth":"3.000","Units":"in","Rept_Date":"2020-11-25 12"},"coordinates":[3224,3409]},{"type":"Point","properties":{"Station_ID":"MI-NW-8","Station_Nam":"WHITE CLOUD 7.5 ENE, MI","Latitude":"43.60630","Longitude":"-85.64190","Snowdepth":"3.000","Units":"in","Rept_Date":"2020-11-25 12"},"coordinates":[2968,2050]},{"type":"Point","properties":{"Station_ID":"MI-MQ-19","Station_Nam":"ISHPEMING 7.2 SW, MI","Latitude":"46.40550","Longitude":"-87.75670","Snowdepth":"3.000","Units":"in","Rept_Date":"2020-11-25 11"},"coordinates":[2417,4790]},{"type":"Point","properties":{"Station_ID":"MATW3","Station_Nam":"MATHER 3NW","Latitude":"44.17460","Longitude":"-90.34820","Snowdepth":"3.000","Units":"in","Rept_Date":"2020-11-25 13"},"coordinates":[1743,2607]},{"type":"Point","properties":{"Station_ID":"LNOW3","Station_Nam":"LAND O LAKES","Latitude":"46.19000","Longitude":"-89.45700","Snowdepth":"3.000","Units":"in","Rept_Date":"2020-11-25 13"},"coordinates":[1975,4579]},{"type":"Point","properties":{"Station_ID":"LEIM5","Station_Nam":"ORR 3E","Latitude":"48.05810","Longitude":"-92.75220","Snowdepth":"3.000","Units":"in","Rept_Date":"2020-11-25 12"},"coordinates":[1118,6408]},{"type":"Point","properties":{"Station_ID":"JEFV1","Station_Nam":"JEFFERSONVILLE","Latitude":"44.58430","Longitude":"-72.78700","Snowdepth":"3.000","Units":"in","Rept_Date":"2020-11-25 12"},"coordinates":[6312,3008]},{"type":"Point","properties":{"Station_ID":"GLNM4","Station_Nam":"GLENNIE 2SE","Latitude":"44.53580","Longitude":"-83.70220","Snowdepth":"3.000","Units":"in","Rept_Date":"2020-11-25 12"},"coordinates":[3472,2960]},{"type":"Point","properties":{"Station_ID":"GLAM4","Station_Nam":"GLADWIN","Latitude":"43.97580","Longitude":"-84.49080","Snowdepth":"3.000","Units":"in","Rept_Date":"2020-11-25 12"},"coordinates":[3267,2412]},{"type":"Point","properties":{"Station_ID":"GAYM4","Station_Nam":"GAYLORD","Latitude":"45.03320","Longitude":"-84.71130","Snowdepth":"3.000","Units":"in","Rept_Date":"2020-11-25 13"},"coordinates":[3210,3447]},{"type":"Point","properties":{"Station_ID":"CLKM4","Station_Nam":"CLARKSBURG","Latitude":"46.49910","Longitude":"-87.84500","Snowdepth":"3.000","Units":"in","Rept_Date":"2020-11-25 12"},"coordinates":[2394,4882]},{"type":"Point","properties":{"Station_ID":"CAN-MB-32","Station_Nam":"PINAWA 1.0 SW, CA","Latitude":"50.14747","Longitude":"-95.89020","Snowdepth":"3.000","Units":"in","Rept_Date":"2020-11-25 13"},"coordinates":[301,8453]},{"type":"Point","properties":{"Station_ID":"BABM5","Station_Nam":"BABBITT","Latitude":"47.71210","Longitude":"-91.95330","Snowdepth":"3.000","Units":"in","Rept_Date":"2020-11-25 13"},"coordinates":[1325,6069]},{"type":"Point","properties":{"Station_ID":"ARX","Station_Nam":"LA CROSSE, WI","Latitude":"43.82280","Longitude":"-91.19190","Snowdepth":"3.000","Units":"in","Rept_Date":"2020-11-26 06"},"coordinates":[1524,2262]},{"type":"Point","properties":{"Station_ID":"AMDW3","Station_Nam":"ALMOND-5 NE","Latitude":"44.30830","Longitude":"-89.34640","Snowdepth":"3.000","Units":"in","Rept_Date":"2020-11-25 14"},"coordinates":[2004,2738]},{"type":"Point","properties":{"Station_ID":"AMAM4","Station_Nam":"AMASA 1W","Latitude":"46.23470","Longitude":"-88.45440","Snowdepth":"3.000","Units":"in","Rept_Date":"2020-11-25 14"},"coordinates":[2236,4623]},{"type":"Point","properties":{"Station_ID":"CAN-ON-593","Station_Nam":"KITCHENER 4.5 E, CAN","Latitude":"43.45147","Longitude":"-80.43180","Snowdepth":"2.800","Units":"in","Rept_Date":"2020-11-25 14"},"coordinates":[4323,1899]},{"type":"Point","properties":{"Station_ID":"CAN-ON-771","Station_Nam":"KENORA 8.7 NNE - CANWARN, CAN","Latitude":"49.84171","Longitude":"-94.44386","Snowdepth":"2.700","Units":"in","Rept_Date":"2020-11-25 13"},"coordinates":[677,8154]},{"type":"Point","properties":{"Station_ID":"KABQ6","Station_Nam":"CAB LAKE","Latitude":"49.59950","Longitude":"-89.17990","Snowdepth":"2.640","Units":"in","Rept_Date":"2020-11-26 06"},"coordinates":[2047,7917]},{"type":"Point","properties":{"Station_ID":"WI-VL-9","Station_Nam":"LAND O' LAKES 11.7 W, WI","Latitude":"46.19023","Longitude":"-89.45790","Snowdepth":"2.500","Units":"in","Rept_Date":"2020-11-25 13"},"coordinates":[1975,4580]},{"type":"Point","properties":{"Station_ID":"WI-DA-90","Station_Nam":"BELLEVILLE 0.3 W, WI","Latitude":"42.86182","Longitude":"-89.54267","Snowdepth":"2.500","Units":"in","Rept_Date":"2020-11-25 13"},"coordinates":[1953,1322]},{"type":"Point","properties":{"Station_ID":"WI-AD-5","Station_Nam":"NEKOOSA 8.0 SSE, WI","Latitude":"44.20533","Longitude":"-89.84798","Snowdepth":"2.500","Units":"in","Rept_Date":"2020-11-25 13"},"coordinates":[1873,2637]},{"type":"Point","properties":{"Station_ID":"VT-WS-33","Station_Nam":"WAITSFIELD 3.5 WNW, VT","Latitude":"44.20052","Longitude":"-72.89421","Snowdepth":"2.500","Units":"in","Rept_Date":"2020-11-25 13"},"coordinates":[6285,2632]},{"type":"Point","properties":{"Station_ID":"VT-OL-12","Station_Nam":"GREENSBORO 3.9 NNE, VT","Latitude":"44.63100","Longitude":"-72.28000","Snowdepth":"2.500","Units":"in","Rept_Date":"2020-11-25 12"},"coordinates":[6444,3053]},{"type":"Point","properties":{"Station_ID":"VT-CH-11","Station_Nam":"UNDERHILL 5.1 NNE, VT","Latitude":"44.59811","Longitude":"-72.91880","Snowdepth":"2.500","Units":"in","Rept_Date":"2020-11-25 12"},"coordinates":[6278,3021]},{"type":"Point","properties":{"Station_ID":"NY-SL-17","Station_Nam":"OGDENSBURG 1.1 WSW, NY","Latitude":"44.69994","Longitude":"-75.48995","Snowdepth":"2.500","Units":"in","Rept_Date":"2020-11-25 13"},"coordinates":[5609,3121]},{"type":"Point","properties":{"Station_ID":"NY-FK-9","Station_Nam":"GABRIELS 1.3 SE, NY","Latitude":"44.41934","Longitude":"-74.16194","Snowdepth":"2.500","Units":"in","Rept_Date":"2020-11-25 12"},"coordinates":[5955,2846]},{"type":"Point","properties":{"Station_ID":"MI-OG-6","Station_Nam":"WEST BRANCH 2.1 SSW, MI","Latitude":"44.24814","Longitude":"-84.25089","Snowdepth":"2.500","Units":"in","Rept_Date":"2020-11-25 13"},"coordinates":[3330,2679]},{"type":"Point","properties":{"Station_ID":"MI-MQ-28","Station_Nam":"CARLSHEND, MI","Latitude":"46.31638","Longitude":"-87.19944","Snowdepth":"2.500","Units":"in","Rept_Date":"2020-11-25 13"},"coordinates":[2562,4703]},{"type":"Point","properties":{"Station_ID":"MI-AT-6","Station_Nam":"MANCELONA 0.5 ESE, MI","Latitude":"44.89981","Longitude":"-85.05100","Snowdepth":"2.500","Units":"in","Rept_Date":"2020-11-25 13"},"coordinates":[3121,3317]},{"type":"Point","properties":{"Station_ID":"CAN-ON-86","Station_Nam":"GUELPH 5.1 S - CANWARN, CAN","Latitude":"43.49691","Longitude":"-80.24385","Snowdepth":"2.400","Units":"in","Rept_Date":"2020-11-25 12"},"coordinates":[4372,1943]},{"type":"Point","properties":{"Station_ID":"CAN-ON-525","Station_Nam":"WOODSTOCK 1.2 ENE, CAN","Latitude":"43.13734","Longitude":"-80.73688","Snowdepth":"2.400","Units":"in","Rept_Date":"2020-11-25 12"},"coordinates":[4244,1591]},{"type":"Point","properties":{"Station_ID":"MI-ME-11","Station_Nam":"BIG RAPIDS 5.4 S, MI","Latitude":"43.62630","Longitude":"-85.47600","Snowdepth":"2.200","Units":"in","Rept_Date":"2020-11-25 12"},"coordinates":[3011,2070]},{"type":"Point","properties":{"Station_ID":"CAN-QC-47","Station_Nam":"SAINTE-FOY 1.8 ENE, CAN","Latitude":"46.76934","Longitude":"-71.27124","Snowdepth":"2.200","Units":"in","Rept_Date":"2020-11-25 12"},"coordinates":[6707,5146]},{"type":"Point","properties":{"Station_ID":"WTRM4","Station_Nam":"WATERSMEET 12WSW","Latitude":"46.22310","Longitude":"-89.40850","Snowdepth":"2.000","Units":"in","Rept_Date":"2020-11-25 12"},"coordinates":[1988,4612]},{"type":"Point","properties":{"Station_ID":"WRSM5","Station_Nam":"WRENSHALL","Latitude":"46.61550","Longitude":"-92.38380","Snowdepth":"2.000","Units":"in","Rept_Date":"2020-11-25 14"},"coordinates":[1213,4996]},{"type":"Point","properties":{"Station_ID":"WORV1","Station_Nam":"WORCESTER 2 W","Latitude":"44.37470","Longitude":"-72.58220","Snowdepth":"2.000","Units":"in","Rept_Date":"2020-11-25 12"},"coordinates":[6366,2803]},{"type":"Point","properties":{"Station_ID":"WIRW3","Station_Nam":"WIS RAPIDS GRAND AV B","Latitude":"44.39940","Longitude":"-89.83050","Snowdepth":"2.000","Units":"in","Rept_Date":"2020-11-25 13"},"coordinates":[1878,2827]},{"type":"Point","properties":{"Station_ID":"WIPW3","Station_Nam":"WISCONSIN RAPIDS-SOUTHEAST","Latitude":"44.38190","Longitude":"-89.80470","Snowdepth":"2.000","Units":"in","Rept_Date":"2020-11-25 12"},"coordinates":[1885,2810]},{"type":"Point","properties":{"Station_ID":"WI-WP-8","Station_Nam":"WAUPACA 5.7 WSW, WI","Latitude":"44.33239","Longitude":"-89.18714","Snowdepth":"2.000","Units":"in","Rept_Date":"2020-11-25 13"},"coordinates":[2045,2761]},{"type":"Point","properties":{"Station_ID":"WI-WH-7","Station_Nam":"WILD ROSE 0.5 E, WI","Latitude":"44.17764","Longitude":"-89.23812","Snowdepth":"2.000","Units":"in","Rept_Date":"2020-11-25 13"},"coordinates":[2032,2610]},{"type":"Point","properties":{"Station_ID":"WI-WD-2","Station_Nam":"WISCONSIN RAPIDS 4.6 SSE, WI","Latitude":"44.33823","Longitude":"-89.78200","Snowdepth":"2.000","Units":"in","Rept_Date":"2020-11-25 11"},"coordinates":[1890,2767]},{"type":"Point","properties":{"Station_ID":"WBRM4","Station_Nam":"WEST BRANCH 3SE","Latitude":"44.25410","Longitude":"-84.20110","Snowdepth":"2.000","Units":"in","Rept_Date":"2020-11-25 13"},"coordinates":[3343,2685]},{"type":"Point","properties":{"Station_ID":"WAIV1","Station_Nam":"WAITSFIELD","Latitude":"44.17560","Longitude":"-72.79610","Snowdepth":"2.000","Units":"in","Rept_Date":"2020-11-25 12"},"coordinates":[6310,2608]},{"type":"Point","properties":{"Station_ID":"VT-WS-7","Station_Nam":"MIDDLESEX 3.1 ENE, VT","Latitude":"44.31799","Longitude":"-72.62650","Snowdepth":"2.000","Units":"in","Rept_Date":"2020-11-25 13"},"coordinates":[6354,2747]},{"type":"Point","properties":{"Station_ID":"VT-WS-11","Station_Nam":"WAITSFIELD 1.8 SE, VT","Latitude":"44.17551","Longitude":"-72.79540","Snowdepth":"2.000","Units":"in","Rept_Date":"2020-11-25 12"},"coordinates":[6310,2608]},{"type":"Point","properties":{"Station_ID":"VT-OL-9","Station_Nam":"GREENSBORO 2.1 NNW, VT","Latitude":"44.60528","Longitude":"-72.30940","Snowdepth":"2.000","Units":"in","Rept_Date":"2020-11-25 12"},"coordinates":[6437,3028]},{"type":"Point","properties":{"Station_ID":"VT-OL-2","Station_Nam":"BARTON 3.0 ENE, VT","Latitude":"44.75863","Longitude":"-72.11680","Snowdepth":"2.000","Units":"in","Rept_Date":"2020-11-25 12"},"coordinates":[6487,3178]},{"type":"Point","properties":{"Station_ID":"VT-LM-1","Station_Nam":"STOWE 0.2 SW, VT","Latitude":"44.46399","Longitude":"-72.69070","Snowdepth":"2.000","Units":"in","Rept_Date":"2020-11-25 12"},"coordinates":[6338,2890]},{"type":"Point","properties":{"Station_ID":"VT-CL-14","Station_Nam":"LYNDONVILLE 1.1 W, VT","Latitude":"44.53582","Longitude":"-72.02867","Snowdepth":"2.000","Units":"in","Rept_Date":"2020-11-25 13"},"coordinates":[6510,2960]},{"type":"Point","properties":{"Station_ID":"VT-CH-13","Station_Nam":"RICHMOND 3.4 SSE, VT","Latitude":"44.36084","Longitude":"-72.96400","Snowdepth":"2.000","Units":"in","Rept_Date":"2020-11-25 12"},"coordinates":[6266,2789]},{"type":"Point","properties":{"Station_ID":"TOGM5","Station_Nam":"CELINA 2E","Latitude":"47.86630","Longitude":"-93.02660","Snowdepth":"2.000","Units":"in","Rept_Date":"2020-11-25 15"},"coordinates":[1046,6220]},{"type":"Point","properties":{"Station_ID":"TCMM4","Station_Nam":"TRAVERSE CITY MUNSON","Latitude":"44.76070","Longitude":"-85.64430","Snowdepth":"2.000","Units":"in","Rept_Date":"2020-11-25 11"},"coordinates":[2967,3180]},{"type":"Point","properties":{"Station_ID":"TCEM4","Station_Nam":"TRAVERSE CITY 5ESE","Latitude":"44.73370","Longitude":"-85.51180","Snowdepth":"2.000","Units":"in","Rept_Date":"2020-11-25 12"},"coordinates":[3002,3154]},{"type":"Point","properties":{"Station_ID":"SUAW3","Station_Nam":"SUAMICO","Latitude":"44.60190","Longitude":"-88.09780","Snowdepth":"2.000","Units":"in","Rept_Date":"2020-11-25 12"},"coordinates":[2329,3025]},{"type":"Point","properties":{"Station_ID":"STMM4","Station_Nam":"STAMBAUGH 2SSE","Latitude":"46.05550","Longitude":"-88.62780","Snowdepth":"2.000","Units":"in","Rept_Date":"2020-11-25 13"},"coordinates":[2191,4448]},{"type":"Point","properties":{"Station_ID":"SPGM5","Station_Nam":"SPRING VALLEY","Latitude":"43.69330","Longitude":"-92.39260","Snowdepth":"2.000","Units":"in","Rept_Date":"2020-11-25 13"},"coordinates":[1211,2136]},{"type":"Point","properties":{"Station_ID":"RSRM5","Station_Nam":"ROCHESTER AP 2NE","Latitude":"43.92810","Longitude":"-92.47580","Snowdepth":"2.000","Units":"in","Rept_Date":"2020-11-25 18"},"coordinates":[1190,2365]},{"type":"Point","properties":{"Station_ID":"RFDM4","Station_Nam":"ROCKFORD","Latitude":"43.11580","Longitude":"-85.56410","Snowdepth":"2.000","Units":"in","Rept_Date":"2020-11-25 12"},"coordinates":[2988,1570]},{"type":"Point","properties":{"Station_ID":"QNCM4","Station_Nam":"QUINCY HILL","Latitude":"47.13640","Longitude":"-88.57950","Snowdepth":"2.000","Units":"in","Rept_Date":"2020-11-25 12"},"coordinates":[2203,5506]},{"type":"Point","properties":{"Station_ID":"PITW3","Station_Nam":"PITTSVILLE-WWTP","Latitude":"44.43690","Longitude":"-90.13170","Snowdepth":"2.000","Units":"in","Rept_Date":"2020-11-25 13"},"coordinates":[1799,2863]},{"type":"Point","properties":{"Station_ID":"PDGM4","Station_Nam":"PAULDING","Latitude":"46.39760","Longitude":"-89.17940","Snowdepth":"2.000","Units":"in","Rept_Date":"2020-11-25 13"},"coordinates":[2047,4783]},{"type":"Point","properties":{"Station_ID":"OILM4","Station_Nam":"OIL CITY 3E","Latitude":"43.61140","Longitude":"-84.52810","Snowdepth":"2.000","Units":"in","Rept_Date":"2020-11-25 12"},"coordinates":[3257,2055]},{"type":"Point","properties":{"Station_ID":"NY-CL-12","Station_Nam":"SARANAC 0.8 SSE, NY","Latitude":"44.63980","Longitude":"-73.73848","Snowdepth":"2.000","Units":"in","Rept_Date":"2020-11-25 12"},"coordinates":[6065,3062]},{"type":"Point","properties":{"Station_ID":"NVLV1","Station_Nam":"NASHVILLE","Latitude":"44.44970","Longitude":"-72.92640","Snowdepth":"2.000","Units":"in","Rept_Date":"2020-11-25 12"},"coordinates":[6276,2876]},{"type":"Point","properties":{"Station_ID":"MQT","Station_Nam":"MARQUETTE, MI","Latitude":"46.53140","Longitude":"-87.54920","Snowdepth":"2.000","Units":"in","Rept_Date":"2020-11-26 06"},"coordinates":[2471,4914]},{"type":"Point","properties":{"Station_ID":"MN-SL-15","Station_Nam":"CHISHOLM 0.4 WSW, MN","Latitude":"47.48557","Longitude":"-92.88690","Snowdepth":"2.000","Units":"in","Rept_Date":"2020-11-25 13"},"coordinates":[1083,5848]},{"type":"Point","properties":{"Station_ID":"MN-SL-108","Station_Nam":"IRON JUNCTION 3.4 NNW, MN","Latitude":"47.46150","Longitude":"-92.63130","Snowdepth":"2.000","Units":"in","Rept_Date":"2020-11-25 13"},"coordinates":[1149,5824]},{"type":"Point","properties":{"Station_ID":"MN-CK-6","Station_Nam":"GRAND MARAIS 4.4 W, MN","Latitude":"47.74865","Longitude":"-90.43760","Snowdepth":"2.000","Units":"in","Rept_Date":"2020-11-25 12"},"coordinates":[1720,6105]},{"type":"Point","properties":{"Station_ID":"MI-MT-8","Station_Nam":"EDMORE 3.8 ESE, MI","Latitude":"43.37974","Longitude":"-84.97319","Snowdepth":"2.000","Units":"in","Rept_Date":"2020-11-25 15"},"coordinates":[3142,1829]},{"type":"Point","properties":{"Station_ID":"MI-HG-20","Station_Nam":"CALUMET 1.1 SSW, MI","Latitude":"47.23165","Longitude":"-88.45823","Snowdepth":"2.000","Units":"in","Rept_Date":"2020-11-25 11"},"coordinates":[2235,5599]},{"type":"Point","properties":{"Station_ID":"MI-GT-25","Station_Nam":"TRAVERSE CITY 4.7 ESE, MI","Latitude":"44.73370","Longitude":"-85.51189","Snowdepth":"2.000","Units":"in","Rept_Date":"2020-11-25 12"},"coordinates":[3002,3154]},{"type":"Point","properties":{"Station_ID":"LPLN6","Station_Nam":"LAKE PLACID 2 S","Latitude":"44.30420","Longitude":"-73.98390","Snowdepth":"2.000","Units":"in","Rept_Date":"2020-11-25 13"},"coordinates":[6001,2734]},{"type":"Point","properties":{"Station_ID":"LILM1","Station_Nam":"LILLE","Latitude":"47.27770","Longitude":"-68.10520","Snowdepth":"2.000","Units":"in","Rept_Date":"2020-11-25 12"},"coordinates":[7531,5644]},{"type":"Point","properties":{"Station_ID":"KSGM4","Station_Nam":"KEARSARGE","Latitude":"47.27520","Longitude":"-88.41700","Snowdepth":"2.000","Units":"in","Rept_Date":"2020-11-25 13"},"coordinates":[2246,5642]},{"type":"Point","properties":{"Station_ID":"JOHV1","Station_Nam":"JOHNSON 2 N","Latitude":"44.65790","Longitude":"-72.67850","Snowdepth":"2.000","Units":"in","Rept_Date":"2020-11-25 12"},"coordinates":[6341,3080]},{"type":"Point","properties":{"Station_ID":"HTLM4","Station_Nam":"SNOW PAID OBSERVER FOR KHTL","Latitude":"44.34470","Longitude":"-84.67730","Snowdepth":"2.000","Units":"in","Rept_Date":"2020-11-25 18"},"coordinates":[3219,2773]},{"type":"Point","properties":{"Station_ID":"HTL","Station_Nam":"ROSCOMMON COUNTY AIRPORT","Latitude":"44.35000","Longitude":"-84.66670","Snowdepth":"2.000","Units":"in","Rept_Date":"2020-11-26 00"},"coordinates":[3221,2778]},{"type":"Point","properties":{"Station_ID":"HRVM4","Station_Nam":"HARVEY","Latitude":"46.49080","Longitude":"-87.35470","Snowdepth":"2.000","Units":"in","Rept_Date":"2020-11-25 12"},"coordinates":[2522,4874]},{"type":"Point","properties":{"Station_ID":"HALM4","Station_Nam":"LOUD DAM","Latitude":"44.46250","Longitude":"-83.72190","Snowdepth":"2.000","Units":"in","Rept_Date":"2020-11-25 14"},"coordinates":[3467,2888]},{"type":"Point","properties":{"Station_ID":"EVRW3","Station_Nam":"EAGLE RIVER-4 E","Latitude":"45.91890","Longitude":"-89.15280","Snowdepth":"2.000","Units":"in","Rept_Date":"2020-11-25 13"},"coordinates":[2054,4314]},{"type":"Point","properties":{"Station_ID":"EMBM5","Station_Nam":"EMBARASS,MN","Latitude":"47.65810","Longitude":"-92.19580","Snowdepth":"2.000","Units":"in","Rept_Date":"2020-11-25 12"},"coordinates":[1262,6016]},{"type":"Point","properties":{"Station_ID":"CRLM5","Station_Nam":"CROSS LAKE DAM","Latitude":"46.66930","Longitude":"-94.11060","Snowdepth":"2.000","Units":"in","Rept_Date":"2020-11-25 14"},"coordinates":[764,5049]},{"type":"Point","properties":{"Station_ID":"COTM5","Station_Nam":"COTTON","Latitude":"47.16870","Longitude":"-92.46290","Snowdepth":"2.000","Units":"in","Rept_Date":"2020-11-25 13"},"coordinates":[1193,5537]},{"type":"Point","properties":{"Station_ID":"COKM5","Station_Nam":"COOK","Latitude":"47.85060","Longitude":"-92.69250","Snowdepth":"2.000","Units":"in","Rept_Date":"2020-11-25 12"},"coordinates":[1133,6205]},{"type":"Point","properties":{"Station_ID":"CAN-ON-751","Station_Nam":"WENDOVER 4.7 ESE - SNCA, CAN","Latitude":"45.56191","Longitude":"-75.06690","Snowdepth":"2.000","Units":"in","Rept_Date":"2020-11-25 13"},"coordinates":[5719,3965]},{"type":"Point","properties":{"Station_ID":"CAN-ON-699","Station_Nam":"DALHOUSIE MILLS, CAN","Latitude":"45.31670","Longitude":"-74.47120","Snowdepth":"2.000","Units":"in","Rept_Date":"2020-11-25 11"},"coordinates":[5874,3725]},{"type":"Point","properties":{"Station_ID":"CAN-ON-5","Station_Nam":"OWEN SOUND 1.5 NW - GSCA, CAN","Latitude":"44.57837","Longitude":"-80.95461","Snowdepth":"2.000","Units":"in","Rept_Date":"2020-11-25 13"},"coordinates":[4187,3002]},{"type":"Point","properties":{"Station_ID":"CAN-ON-452","Station_Nam":"CHATSWORTH 1.8 ENE - GSCA, CAN","Latitude":"44.46118","Longitude":"-80.87506","Snowdepth":"2.000","Units":"in","Rept_Date":"2020-11-25 12"},"coordinates":[4208,2887]},{"type":"Point","properties":{"Station_ID":"CAN-MB-56","Station_Nam":"WINNIPEG 7.6 ENE, CAN","Latitude":"49.93264","Longitude":"-97.04752","Snowdepth":"2.000","Units":"in","Rept_Date":"2020-11-25 14"},"coordinates":[0,8243]},{"type":"Point","properties":{"Station_ID":"BRAM5","Station_Nam":"BRAINERD","Latitude":"46.34320","Longitude":"-94.20900","Snowdepth":"2.000","Units":"in","Rept_Date":"2020-11-25 13"},"coordinates":[739,4729]},{"type":"Point","properties":{"Station_ID":"BNDM5","Station_Nam":"ELY 25E","Latitude":"47.97190","Longitude":"-91.44860","Snowdepth":"2.000","Units":"in","Rept_Date":"2020-11-25 13"},"coordinates":[1457,6324]},{"type":"Point","properties":{"Station_ID":"BFSW3","Station_Nam":"BIG FALLS-5 NW","Latitude":"44.63980","Longitude":"-89.11330","Snowdepth":"2.000","Units":"in","Rept_Date":"2020-11-25 13"},"coordinates":[2064,3062]},{"type":"Point","properties":{"Station_ID":"BEUM4","Station_Nam":"BEULAH 7SSW","Latitude":"44.53160","Longitude":"-86.13110","Snowdepth":"2.000","Units":"in","Rept_Date":"2020-11-25 13"},"coordinates":[2840,2956]},{"type":"Point","properties":{"Station_ID":"BBEM4","Station_Nam":"BIG BAY 9SW","Latitude":"46.74620","Longitude":"-87.88160","Snowdepth":"2.000","Units":"in","Rept_Date":"2020-11-25 13"},"coordinates":[2385,5124]},{"type":"Point","properties":{"Station_ID":"AMHW3","Station_Nam":"AMHERST-3 SE","Latitude":"44.41280","Longitude":"-89.26390","Snowdepth":"2.000","Units":"in","Rept_Date":"2020-11-25 13"},"coordinates":[2025,2840]},{"type":"Point","properties":{"Station_ID":"MN-FM-10","Station_Nam":"WYKOFF 3.1 NW, MN","Latitude":"43.74340","Longitude":"-92.30650","Snowdepth":"1.800","Units":"in","Rept_Date":"2020-11-25 13"},"coordinates":[1234,2185]},{"type":"Point","properties":{"Station_ID":"CAN-ON-491","Station_Nam":"MILVERTON 1.1 ESE- CANWARN, CAN","Latitude":"43.56074","Longitude":"-80.90887","Snowdepth":"1.800","Units":"in","Rept_Date":"2020-11-25 11"},"coordinates":[4199,2006]},{"type":"Point","properties":{"Station_ID":"MI-AG-6","Station_Nam":"MUNISING 11.1 SSW, MI","Latitude":"46.27805","Longitude":"-86.75747","Snowdepth":"1.750","Units":"in","Rept_Date":"2020-11-25 12"},"coordinates":[2677,4666]},{"type":"Point","properties":{"Station_ID":"MI-MD-10","Station_Nam":"MIDLAND 1.5 NNE, MI","Latitude":"43.64412","Longitude":"-84.21729","Snowdepth":"1.600","Units":"in","Rept_Date":"2020-11-25 11"},"coordinates":[3338,2087]},{"type":"Point","properties":{"Station_ID":"CAN-ON-526","Station_Nam":"HILTON BEACH 0.7 SW - MNRF, CAN","Latitude":"46.25357","Longitude":"-83.90014","Snowdepth":"1.600","Units":"in","Rept_Date":"2020-11-25 12"},"coordinates":[3421,4642]},{"type":"Point","properties":{"Station_ID":"WI-WB-2","Station_Nam":"STONE LAKE 2.0 NW, WI","Latitude":"45.85960","Longitude":"-91.57710","Snowdepth":"1.500","Units":"in","Rept_Date":"2020-11-25 13"},"coordinates":[1423,4256]},{"type":"Point","properties":{"Station_ID":"WI-VL-14","Station_Nam":"BOULDER JUNCTION 1.4 NE, WI","Latitude":"46.12840","Longitude":"-89.62470","Snowdepth":"1.500","Units":"in","Rept_Date":"2020-11-25 13"},"coordinates":[1931,4519]},{"type":"Point","properties":{"Station_ID":"WI-SR-1","Station_Nam":"HAYWARD 9.2 NNE, WI","Latitude":"46.13255","Longitude":"-91.40500","Snowdepth":"1.500","Units":"in","Rept_Date":"2020-11-25 12"},"coordinates":[1468,4523]},{"type":"Point","properties":{"Station_ID":"VT-FR-21","Station_Nam":"FAIRFAX 4.9 WNW, VT","Latitude":"44.68880","Longitude":"-73.10340","Snowdepth":"1.500","Units":"in","Rept_Date":"2020-11-25 14"},"coordinates":[6230,3110]},{"type":"Point","properties":{"Station_ID":"VT-CL-18","Station_Nam":"WHEELOCK 1.6 S, VT","Latitude":"44.56491","Longitude":"-72.08830","Snowdepth":"1.500","Units":"in","Rept_Date":"2020-11-25 12"},"coordinates":[6494,2989]},{"type":"Point","properties":{"Station_ID":"VT-CH-7","Station_Nam":"HUNTINGTON 1.1 E, VT","Latitude":"44.32488","Longitude":"-72.96570","Snowdepth":"1.500","Units":"in","Rept_Date":"2020-11-25 12"},"coordinates":[6266,2754]},{"type":"Point","properties":{"Station_ID":"MN-WN-19","Station_Nam":"STOCKTON 1.2 W, MN","Latitude":"44.02829","Longitude":"-91.79334","Snowdepth":"1.500","Units":"in","Rept_Date":"2020-11-25 13"},"coordinates":[1367,2463]},{"type":"Point","properties":{"Station_ID":"MN-SL-115","Station_Nam":"COTTON 5.7 ESE, MN","Latitude":"47.15142","Longitude":"-92.35772","Snowdepth":"1.500","Units":"in","Rept_Date":"2020-11-25 14"},"coordinates":[1220,5520]},{"type":"Point","properties":{"Station_ID":"MN-HS-6","Station_Nam":"HOKAH 4.5 WSW, MN","Latitude":"43.74196","Longitude":"-91.43685","Snowdepth":"1.500","Units":"in","Rept_Date":"2020-11-25 15"},"coordinates":[1460,2183]},{"type":"Point","properties":{"Station_ID":"CAN-QC-37","Station_Nam":"LAVAL 3.8 SSW, CAN","Latitude":"45.55358","Longitude":"-73.76976","Snowdepth":"1.500","Units":"in","Rept_Date":"2020-11-25 13"},"coordinates":[6057,3956]},{"type":"Point","properties":{"Station_ID":"CAN-ON-42","Station_Nam":"VANKLEEK HILL 3.4 S, CA","Latitude":"45.48987","Longitude":"-74.64570","Snowdepth":"1.500","Units":"in","Rept_Date":"2020-11-25 12"},"coordinates":[5829,3894]},{"type":"Point","properties":{"Station_ID":"CAN-ON-33","Station_Nam":"BURLINGTON 1.7 W, CA","Latitude":"43.37134","Longitude":"-79.83550","Snowdepth":"1.500","Units":"in","Rept_Date":"2020-11-25 12"},"coordinates":[4478,1820]},{"type":"Point","properties":{"Station_ID":"HLSN3","Station_Nam":"HERMIT LAKE SNOTEL","Latitude":"44.26130","Longitude":"-71.28320","Snowdepth":"1.220","Units":"in","Rept_Date":"2020-11-26 06"},"coordinates":[6704,2692]},{"type":"Point","properties":{"Station_ID":"VT-WS-15","Station_Nam":"EAST CALAIS 1.5 SW, VT","Latitude":"44.35523","Longitude":"-72.45540","Snowdepth":"1.200","Units":"in","Rept_Date":"2020-11-25 12"},"coordinates":[6399,2783]},{"type":"Point","properties":{"Station_ID":"IN-SJ-58","Station_Nam":"SOUTH BEND 4.5 SE, IN","Latitude":"41.62246","Longitude":"-86.21630","Snowdepth":"1.200","Units":"in","Rept_Date":"2020-11-25 12"},"coordinates":[2818,109]},{"type":"Point","properties":{"Station_ID":"CAN-ON-836","Station_Nam":"ATIKOKAN 1.8 ENE, CAN","Latitude":"48.76260","Longitude":"-91.59821","Snowdepth":"1.200","Units":"in","Rept_Date":"2020-11-25 13"},"coordinates":[1418,7097]},{"type":"Point","properties":{"Station_ID":"CAN-ON-466","Station_Nam":"PICTON 12.7 NNE, CAN","Latitude":"44.11197","Longitude":"-77.08426","Snowdepth":"1.200","Units":"in","Rept_Date":"2020-11-25 12"},"coordinates":[5194,2545]},{"type":"Point","properties":{"Station_ID":"CAN-ON-451","Station_Nam":"OWEN SOUND 1.2 N - GSCA, CAN","Latitude":"44.58092","Longitude":"-80.93025","Snowdepth":"1.200","Units":"in","Rept_Date":"2020-11-25 13"},"coordinates":[4194,3004]},{"type":"Point","properties":{"Station_ID":"WRUM5","Station_Nam":"WARROAD 4W","Latitude":"48.89600","Longitude":"-95.40700","Snowdepth":"1.000","Units":"in","Rept_Date":"2020-11-26 04"},"coordinates":[427,7228]},{"type":"Point","properties":{"Station_ID":"WRIM5","Station_Nam":"WRIGHT 3E","Latitude":"46.68040","Longitude":"-92.95420","Snowdepth":"1.000","Units":"in","Rept_Date":"2020-11-25 12"},"coordinates":[1065,5059]},{"type":"Point","properties":{"Station_ID":"WI-OG-18","Station_Nam":"NEW LONDON 4.1 N, WI","Latitude":"44.45298","Longitude":"-88.72876","Snowdepth":"1.000","Units":"in","Rept_Date":"2020-11-25 12"},"coordinates":[2164,2879]},{"type":"Point","properties":{"Station_ID":"WI-MN-4","Station_Nam":"WILTON 4.2 E, WI","Latitude":"43.81028","Longitude":"-90.44360","Snowdepth":"1.000","Units":"in","Rept_Date":"2020-11-25 13"},"coordinates":[1718,2250]},{"type":"Point","properties":{"Station_ID":"WI-IR-3","Station_Nam":"PENCE 0.1 E, WI","Latitude":"46.41555","Longitude":"-90.27013","Snowdepth":"1.000","Units":"in","Rept_Date":"2020-11-25 13"},"coordinates":[1763,4800]},{"type":"Point","properties":{"Station_ID":"WI-IR-2","Station_Nam":"MERCER 2.0 SE, WI","Latitude":"46.14749","Longitude":"-90.03097","Snowdepth":"1.000","Units":"in","Rept_Date":"2020-11-25 13"},"coordinates":[1826,4538]},{"type":"Point","properties":{"Station_ID":"WI-DG-20","Station_Nam":"SOLON SPRINGS 1.2 W, WI","Latitude":"46.35217","Longitude":"-91.84405","Snowdepth":"1.000","Units":"in","Rept_Date":"2020-11-25 13"},"coordinates":[1354,4738]},{"type":"Point","properties":{"Station_ID":"WI-BY-2","Station_Nam":"MELLEN 18.6 SW, WI","Latitude":"46.16937","Longitude":"-90.98090","Snowdepth":"1.000","Units":"in","Rept_Date":"2020-11-25 13"},"coordinates":[1579,4559]},{"type":"Point","properties":{"Station_ID":"VT-WS-23","Station_Nam":"CABOT 2.3 E, VT","Latitude":"44.39807","Longitude":"-72.26570","Snowdepth":"1.000","Units":"in","Rept_Date":"2020-11-25 12"},"coordinates":[6448,2825]},{"type":"Point","properties":{"Station_ID":"VT-GI-3","Station_Nam":"ALBURGH 4.6 SSE, VT","Latitude":"44.91280","Longitude":"-73.26890","Snowdepth":"1.000","Units":"in","Rept_Date":"2020-11-25 14"},"coordinates":[6187,3329]},{"type":"Point","properties":{"Station_ID":"VT-ES-1","Station_Nam":"GRANBY 1.4 NW, VT","Latitude":"44.58330","Longitude":"-71.77870","Snowdepth":"1.000","Units":"in","Rept_Date":"2020-11-25 13"},"coordinates":[6575,3007]},{"type":"Point","properties":{"Station_ID":"VT-CH-47","Station_Nam":"SOUTH BURLINGTON 2.6 SSW, VT","Latitude":"44.42027","Longitude":"-73.19242","Snowdepth":"1.000","Units":"in","Rept_Date":"2020-11-25 13"},"coordinates":[6207,2847]},{"type":"Point","properties":{"Station_ID":"VANM1","Station_Nam":"VAN BUREN","Latitude":"47.16600","Longitude":"-67.93900","Snowdepth":"1.000","Units":"in","Rept_Date":"2020-11-25 12"},"coordinates":[7574,5535]},{"type":"Point","properties":{"Station_ID":"UPSW3","Station_Nam":"UPSON,WI","Latitude":"46.36780","Longitude":"-90.41220","Snowdepth":"1.000","Units":"in","Rept_Date":"2020-11-26 00"},"coordinates":[1726,4753]},{"type":"Point","properties":{"Station_ID":"TOPN6","Station_Nam":"TUPPER LAKE SUNMOUNT","Latitude":"44.23070","Longitude":"-74.43820","Snowdepth":"1.000","Units":"in","Rept_Date":"2020-11-25 12"},"coordinates":[5883,2662]},{"type":"Point","properties":{"Station_ID":"STPW3","Station_Nam":"STEVENS POINT","Latitude":"44.51130","Longitude":"-89.58550","Snowdepth":"1.000","Units":"in","Rept_Date":"2020-11-25 13"},"coordinates":[1942,2936]},{"type":"Point","properties":{"Station_ID":"STIM4","Station_Nam":"ST IGNACE","Latitude":"45.86080","Longitude":"-84.71960","Snowdepth":"1.000","Units":"in","Rept_Date":"2020-11-25 12"},"coordinates":[3208,4257]},{"type":"Point","properties":{"Station_ID":"STGW3","Station_Nam":"ST GERMAIN","Latitude":"45.91550","Longitude":"-89.48940","Snowdepth":"1.000","Units":"in","Rept_Date":"2020-11-25 12"},"coordinates":[1967,4311]},{"type":"Point","properties":{"Station_ID":"SSMM4","Station_Nam":"SAULT STE MARIE","Latitude":"46.48660","Longitude":"-84.40250","Snowdepth":"1.000","Units":"in","Rept_Date":"2020-11-25 13"},"coordinates":[3290,4870]},{"type":"Point","properties":{"Station_ID":"SJBV1","Station_Nam":"SAINT JOHNSBURY","Latitude":"44.42000","Longitude":"-72.01940","Snowdepth":"1.000","Units":"in","Rept_Date":"2020-11-25 21"},"coordinates":[6512,2847]},{"type":"Point","properties":{"Station_ID":"SEBM5","Station_Nam":"SEBEKA","Latitude":"46.62540","Longitude":"-95.09670","Snowdepth":"1.000","Units":"in","Rept_Date":"2020-11-25 13"},"coordinates":[508,5006]},{"type":"Point","properties":{"Station_ID":"ROBM1","Station_Nam":"ROBBINSTON","Latitude":"45.08520","Longitude":"-67.12050","Snowdepth":"1.000","Units":"in","Rept_Date":"2020-11-26 05"},"coordinates":[7787,3498]},{"type":"Point","properties":{"Station_ID":"PTYM4","Station_Nam":"PETOSKEY NCMC","Latitude":"45.36120","Longitude":"-84.95110","Snowdepth":"1.000","Units":"in","Rept_Date":"2020-11-25 13"},"coordinates":[3147,3768]},{"type":"Point","properties":{"Station_ID":"PTNM5","Station_Nam":"PRESTON","Latitude":"43.67250","Longitude":"-92.07470","Snowdepth":"1.000","Units":"in","Rept_Date":"2020-11-25 14"},"coordinates":[1294,2115]},{"type":"Point","properties":{"Station_ID":"PRDM4","Station_Nam":"PARADISE","Latitude":"46.60380","Longitude":"-85.03960","Snowdepth":"1.000","Units":"in","Rept_Date":"2020-11-25 11"},"coordinates":[3124,4984]},{"type":"Point","properties":{"Station_ID":"POYW3","Station_Nam":"POY SIPPI - 2 SW","Latitude":"44.10810","Longitude":"-89.01610","Snowdepth":"1.000","Units":"in","Rept_Date":"2020-11-25 12"},"coordinates":[2090,2542]},{"type":"Point","properties":{"Station_ID":"PLFV1","Station_Nam":"PLAINFIELD","Latitude":"44.27610","Longitude":"-72.41500","Snowdepth":"1.000","Units":"in","Rept_Date":"2020-11-25 12"},"coordinates":[6409,2706]},{"type":"Point","properties":{"Station_ID":"NY-SL-6","Station_Nam":"HANNAWA FALLS 0.1 SW, NY","Latitude":"44.61154","Longitude":"-74.97190","Snowdepth":"1.000","Units":"in","Rept_Date":"2020-11-25 12"},"coordinates":[5744,3034]},{"type":"Point","properties":{"Station_ID":"NY-MD-22","Station_Nam":"ONEIDA 0.4 NW, NY","Latitude":"43.08012","Longitude":"-75.66860","Snowdepth":"1.000","Units":"in","Rept_Date":"2020-11-25 12"},"coordinates":[5563,1535]},{"type":"Point","properties":{"Station_ID":"NY-ES-7","Station_Nam":"KEESEVILLE 0.8 SE, NY","Latitude":"44.49504","Longitude":"-73.47109","Snowdepth":"1.000","Units":"in","Rept_Date":"2020-11-25 12"},"coordinates":[6134,2920]},{"type":"Point","properties":{"Station_ID":"NY-CL-7","Station_Nam":"PERU 4.1 ESE, NY","Latitude":"44.56461","Longitude":"-73.45390","Snowdepth":"1.000","Units":"in","Rept_Date":"2020-11-25 11"},"coordinates":[6139,2988]},{"type":"Point","properties":{"Station_ID":"NWFM4","Station_Nam":"NW MICHIGAN RESEARCH FARM","Latitude":"44.88300","Longitude":"-85.67520","Snowdepth":"1.000","Units":"in","Rept_Date":"2020-11-25 13"},"coordinates":[2959,3300]},{"type":"Point","properties":{"Station_ID":"NUMN3","Station_Nam":"NORTHUMBERLAND","Latitude":"44.52830","Longitude":"-71.50440","Snowdepth":"1.000","Units":"in","Rept_Date":"2020-11-25 13"},"coordinates":[6646,2953]},{"type":"Point","properties":{"Station_ID":"NPTM4","Station_Nam":"NORTHPORT 2W","Latitude":"45.13220","Longitude":"-85.64720","Snowdepth":"1.000","Units":"in","Rept_Date":"2020-11-25 13"},"coordinates":[2966,3544]},{"type":"Point","properties":{"Station_ID":"NH-GR-47","Station_Nam":"LITTLETON 7.3 W, NH","Latitude":"44.31847","Longitude":"-71.91086","Snowdepth":"1.000","Units":"in","Rept_Date":"2020-11-25 13"},"coordinates":[6540,2748]},{"type":"Point","properties":{"Station_ID":"NCBN6","Station_Nam":"NEWCOMB","Latitude":"43.97070","Longitude":"-74.22200","Snowdepth":"1.000","Units":"in","Rept_Date":"2020-11-25 13"},"coordinates":[5939,2407]},{"type":"Point","properties":{"Station_ID":"MRAM4","Station_Nam":"MORAN","Latitude":"45.99030","Longitude":"-84.83610","Snowdepth":"1.000","Units":"in","Rept_Date":"2020-11-25 13"},"coordinates":[3177,4384]},{"type":"Point","properties":{"Station_ID":"MNPV1","Station_Nam":"MONTPELIER 2","Latitude":"44.25530","Longitude":"-72.60060","Snowdepth":"1.000","Units":"in","Rept_Date":"2020-11-25 12"},"coordinates":[6361,2686]},{"type":"Point","properties":{"Station_ID":"MN-OL-18","Station_Nam":"ROCHESTER 2.6 NE, MN","Latitude":"44.03975","Longitude":"-92.43750","Snowdepth":"1.000","Units":"in","Rept_Date":"2020-11-25 13"},"coordinates":[1200,2475]},{"type":"Point","properties":{"Station_ID":"MN-CW-22","Station_Nam":"FORT RIPLEY 0.8 N, MN","Latitude":"46.18089","Longitude":"-94.36510","Snowdepth":"1.000","Units":"in","Rept_Date":"2020-11-25 13"},"coordinates":[698,4570]},{"type":"Point","properties":{"Station_ID":"MI-OC-3","Station_Nam":"HART 3 WSW, MI","Latitude":"43.67470","Longitude":"-86.42250","Snowdepth":"1.000","Units":"in","Rept_Date":"2020-11-25 12"},"coordinates":[2765,2117]},{"type":"Point","properties":{"Station_ID":"MI-MC-4","Station_Nam":"ST. IGNACE 0.5SE, MI","Latitude":"45.86057","Longitude":"-84.71980","Snowdepth":"1.000","Units":"in","Rept_Date":"2020-11-25 12"},"coordinates":[3208,4257]},{"type":"Point","properties":{"Station_ID":"MI-IS-7","Station_Nam":"MOUNT PLEASANT 3.8 ESE, MI","Latitude":"43.57860","Longitude":"-84.70720","Snowdepth":"1.000","Units":"in","Rept_Date":"2020-11-25 13"},"coordinates":[3211,2023]},{"type":"Point","properties":{"Station_ID":"MI-CX-4","Station_Nam":"CHARLEVOIX 4.3 SSE, MI","Latitude":"45.25720","Longitude":"-85.21650","Snowdepth":"1.000","Units":"in","Rept_Date":"2020-11-25 12"},"coordinates":[3078,3666]},{"type":"Point","properties":{"Station_ID":"MI-BN-5","Station_Nam":"BUCHANAN 1.3 WNW, MI","Latitude":"41.83634","Longitude":"-86.38900","Snowdepth":"1.000","Units":"in","Rept_Date":"2020-11-25 12"},"coordinates":[2773,318]},{"type":"Point","properties":{"Station_ID":"MABM5","Station_Nam":"MABEL","Latitude":"43.52410","Longitude":"-91.76160","Snowdepth":"1.000","Units":"in","Rept_Date":"2020-11-25 13"},"coordinates":[1375,1970]},{"type":"Point","properties":{"Station_ID":"LVDW3","Station_Nam":"LAC VIEUX DESERT","Latitude":"46.12110","Longitude":"-89.07580","Snowdepth":"1.000","Units":"in","Rept_Date":"2020-11-25 15"},"coordinates":[2074,4512]},{"type":"Point","properties":{"Station_ID":"LCFW3","Station_Nam":"LA CROSSE 4NNW","Latitude":"43.86690","Longitude":"-91.27250","Snowdepth":"1.000","Units":"in","Rept_Date":"2020-11-25 13"},"coordinates":[1503,2306]},{"type":"Point","properties":{"Station_ID":"KBTV","Station_Nam":"BURLINGTON INTERNATIONAL","Latitude":"44.46666","Longitude":"-73.15000","Snowdepth":"1.000","Units":"in","Rept_Date":"2020-11-25 12"},"coordinates":[6218,2893]},{"type":"Point","properties":{"Station_ID":"KABM5","Station_Nam":"KABETOGAMA LAKE VISITOR CTR","Latitude":"48.40880","Longitude":"-93.04840","Snowdepth":"1.000","Units":"in","Rept_Date":"2020-11-25 13"},"coordinates":[1041,6751]},{"type":"Point","properties":{"Station_ID":"IWOM4","Station_Nam":"IRONWOOD#2","Latitude":"46.46520","Longitude":"-90.13820","Snowdepth":"1.000","Units":"in","Rept_Date":"2020-11-25 13"},"coordinates":[1798,4849]},{"type":"Point","properties":{"Station_ID":"ISLV1","Station_Nam":"ISLAND POND","Latitude":"44.81280","Longitude":"-71.89020","Snowdepth":"1.000","Units":"in","Rept_Date":"2020-11-25 13"},"coordinates":[6546,3231]},{"type":"Point","properties":{"Station_ID":"IRMM4","Station_Nam":"WWTP","Latitude":"46.46670","Longitude":"-90.18330","Snowdepth":"1.000","Units":"in","Rept_Date":"2020-11-25 13"},"coordinates":[1786,4850]},{"type":"Point","properties":{"Station_ID":"INL","Station_Nam":"FALLS INTERNATIONAL ARPT","Latitude":"48.56640","Longitude":"-93.40310","Snowdepth":"1.000","Units":"in","Rept_Date":"2020-11-26 00"},"coordinates":[948,6905]},{"type":"Point","properties":{"Station_ID":"INDM5","Station_Nam":"INDUS,MN","Latitude":"48.61670","Longitude":"-93.90000","Snowdepth":"1.000","Units":"in","Rept_Date":"2020-11-25 14"},"coordinates":[819,6955]},{"type":"Point","properties":{"Station_ID":"IMNM4","Station_Nam":"IRON MOUTAIN 5N","Latitude":"45.87580","Longitude":"-88.04030","Snowdepth":"1.000","Units":"in","Rept_Date":"2020-11-25 13"},"coordinates":[2344,4272]},{"type":"Point","properties":{"Station_ID":"IFSM5","Station_Nam":"INTERNATIONAL FALLS SNOW","Latitude":"48.57780","Longitude":"-93.39640","Snowdepth":"1.000","Units":"in","Rept_Date":"2020-11-25 12"},"coordinates":[950,6917]},{"type":"Point","properties":{"Station_ID":"HURW3","Station_Nam":"HURLEY","Latitude":"46.46250","Longitude":"-90.19550","Snowdepth":"1.000","Units":"in","Rept_Date":"2020-11-25 14"},"coordinates":[1783,4846]},{"type":"Point","properties":{"Station_ID":"HUDI3","Station_Nam":"HUDSON 3SW","Latitude":"41.51150","Longitude":"-85.13190","Snowdepth":"1.000","Units":"in","Rept_Date":"2020-11-25 13"},"coordinates":[3100,0]},{"type":"Point","properties":{"Station_ID":"HUBN3","Station_Nam":"HUBBARD BROOK","Latitude":"43.93330","Longitude":"-71.71670","Snowdepth":"1.000","Units":"in","Rept_Date":"2020-11-26 06"},"coordinates":[6591,2371]},{"type":"Point","properties":{"Station_ID":"HRTM4","Station_Nam":"HART,MI","Latitude":"43.70000","Longitude":"-86.36670","Snowdepth":"1.000","Units":"in","Rept_Date":"2020-11-25 12"},"coordinates":[2779,2142]},{"type":"Point","properties":{"Station_ID":"HOKM5","Station_Nam":"HOKAH 4NW","Latitude":"43.79560","Longitude":"-91.42640","Snowdepth":"1.000","Units":"in","Rept_Date":"2020-11-25 13"},"coordinates":[1463,2236]},{"type":"Point","properties":{"Station_ID":"HANW3","Station_Nam":"HANCOCK EXP FARM","Latitude":"44.11860","Longitude":"-89.53580","Snowdepth":"1.000","Units":"in","Rept_Date":"2020-11-25 13"},"coordinates":[1955,2552]},{"type":"Point","properties":{"Station_ID":"GNLM4","Station_Nam":"GREENLAND 6N","Latitude":"46.87360","Longitude":"-89.10060","Snowdepth":"1.000","Units":"in","Rept_Date":"2020-11-25 13"},"coordinates":[2068,5249]},{"type":"Point","properties":{"Station_ID":"FREM4","Station_Nam":"FREMONT,MI","Latitude":"43.45000","Longitude":"-86.03330","Snowdepth":"1.000","Units":"in","Rept_Date":"2020-11-25 12"},"coordinates":[2866,1897]},{"type":"Point","properties":{"Station_ID":"ELYM5","Station_Nam":"ELY","Latitude":"47.90560","Longitude":"-91.82830","Snowdepth":"1.000","Units":"in","Rept_Date":"2020-11-25 14"},"coordinates":[1358,6259]},{"type":"Point","properties":{"Station_ID":"EJNM4","Station_Nam":"EAST JORDAN 2NW","Latitude":"45.18630","Longitude":"-85.14770","Snowdepth":"1.000","Units":"in","Rept_Date":"2020-11-25 13"},"coordinates":[3096,3597]},{"type":"Point","properties":{"Station_ID":"EGRW3","Station_Nam":"EAGLE RIVER-SOUTH","Latitude":"45.91360","Longitude":"-89.24360","Snowdepth":"1.000","Units":"in","Rept_Date":"2020-11-25 13"},"coordinates":[2031,4309]},{"type":"Point","properties":{"Station_ID":"CORM1","Station_Nam":"CORINNA","Latitude":"44.91980","Longitude":"-69.24180","Snowdepth":"1.000","Units":"in","Rept_Date":"2020-11-25 15"},"coordinates":[7235,3336]},{"type":"Point","properties":{"Station_ID":"CNTW3","Station_Nam":"CLINTONVILLE","Latitude":"44.62270","Longitude":"-88.74830","Snowdepth":"1.000","Units":"in","Rept_Date":"2020-11-25 13"},"coordinates":[2159,3045]},{"type":"Point","properties":{"Station_ID":"CNRM1","Station_Nam":"CONNOR TWP","Latitude":"46.95830","Longitude":"-68.03330","Snowdepth":"1.000","Units":"in","Rept_Date":"2020-11-25 12"},"coordinates":[7549,5331]},{"type":"Point","properties":{"Station_ID":"CMKW3","Station_Nam":"CLAM LAKE 4W","Latitude":"46.16940","Longitude":"-90.98080","Snowdepth":"1.000","Units":"in","Rept_Date":"2020-11-25 13"},"coordinates":[1579,4559]},{"type":"Point","properties":{"Station_ID":"CLDM5","Station_Nam":"CALEDONIA","Latitude":"43.63090","Longitude":"-91.50270","Snowdepth":"1.000","Units":"in","Rept_Date":"2020-11-25 13"},"coordinates":[1443,2075]},{"type":"Point","properties":{"Station_ID":"CAN-ON-477","Station_Nam":"CALEDONIA 0.3 NW - GRCA, CAN","Latitude":"43.07135","Longitude":"-79.95667","Snowdepth":"1.000","Units":"in","Rept_Date":"2020-11-25 12"},"coordinates":[4447,1527]},{"type":"Point","properties":{"Station_ID":"CAN-ON-103","Station_Nam":"CALEDONIA 12.4 NW, CA","Latitude":"43.14246","Longitude":"-80.06960","Snowdepth":"1.000","Units":"in","Rept_Date":"2020-11-25 12"},"coordinates":[4418,1596]},{"type":"Point","properties":{"Station_ID":"CAN-NS-74","Station_Nam":"BADDECK FORKS 2.5 E, CAN","Latitude":"46.18550","Longitude":"-60.73426","Snowdepth":"1.000","Units":"in","Rept_Date":"2020-11-25 10"},"coordinates":[9448,4575]},{"type":"Point","properties":{"Station_ID":"CAN-NS-39","Station_Nam":"ST. ANNS 2.8 NW, CA","Latitude":"46.25082","Longitude":"-60.64340","Snowdepth":"1.000","Units":"in","Rept_Date":"2020-11-25 12"},"coordinates":[9472,4639]},{"type":"Point","properties":{"Station_ID":"CAN-NL-65","Station_Nam":"KIPPENS 0.7 NE, CA","Latitude":"48.55436","Longitude":"-58.61850","Snowdepth":"1.000","Units":"in","Rept_Date":"2020-11-25 12"},"coordinates":[9999,6894]},{"type":"Point","properties":{"Station_ID":"BTV","Station_Nam":"BURLINGTON, VT","Latitude":"44.47140","Longitude":"-73.15330","Snowdepth":"1.000","Units":"in","Rept_Date":"2020-11-25 12"},"coordinates":[6217,2897]},{"type":"Point","properties":{"Station_ID":"BREW3","Station_Nam":"SURING","Latitude":"44.99580","Longitude":"-88.37860","Snowdepth":"1.000","Units":"in","Rept_Date":"2020-11-25 13"},"coordinates":[2256,3410]},{"type":"Point","properties":{"Station_ID":"BLKW3","Station_Nam":"BLACK RIVER FALLS SEWAGE","Latitude":"44.29040","Longitude":"-90.85360","Snowdepth":"1.000","Units":"in","Rept_Date":"2020-11-25 14"},"coordinates":[1612,2720]},{"type":"Point","properties":{"Station_ID":"AURW3","Station_Nam":"AURORA","Latitude":"45.77000","Longitude":"-88.11810","Snowdepth":"1.000","Units":"in","Rept_Date":"2020-11-25 14"},"coordinates":[2323,4168]},{"type":"Point","properties":{"Station_ID":"AUBM4","Station_Nam":"AUBURN 2NE","Latitude":"43.62530","Longitude":"-84.01890","Snowdepth":"1.000","Units":"in","Rept_Date":"2020-11-25 11"},"coordinates":[3390,2069]},{"type":"Point","properties":{"Station_ID":"ARLW3","Station_Nam":"UNIV FARM","Latitude":"43.30000","Longitude":"-89.35000","Snowdepth":"1.000","Units":"in","Rept_Date":"2020-11-25 14"},"coordinates":[2003,1751]},{"type":"Point","properties":{"Station_ID":"APXM4","Station_Nam":"GAYLORD 9SSW","Latitude":"44.90720","Longitude":"-84.71880","Snowdepth":"1.000","Units":"in","Rept_Date":"2020-11-26 06"},"coordinates":[3208,3324]},{"type":"Point","properties":{"Station_ID":"APN","Station_Nam":"PHELPS COLLINS FIELD","Latitude":"45.07810","Longitude":"-83.56030","Snowdepth":"1.000","Units":"in","Rept_Date":"2020-11-26 00"},"coordinates":[3509,3491]},{"type":"Point","properties":{"Station_ID":"ANJM4","Station_Nam":"SNOW PAID OBSERVER FOR KANJ","Latitude":"46.48670","Longitude":"-84.40260","Snowdepth":"1.000","Units":"in","Rept_Date":"2020-11-25 12"},"coordinates":[3290,4870]},{"type":"Point","properties":{"Station_ID":"ANJ","Station_Nam":"SAULT STE MARIE","Latitude":"46.46670","Longitude":"-84.36670","Snowdepth":"1.000","Units":"in","Rept_Date":"2020-11-26 00"},"coordinates":[3299,4850]},{"type":"Point","properties":{"Station_ID":"ALTM5","Station_Nam":"ALTURA 5W","Latitude":"44.06330","Longitude":"-92.03970","Snowdepth":"1.000","Units":"in","Rept_Date":"2020-11-25 13"},"coordinates":[1303,2498]},{"type":"Point","properties":{"Station_ID":"ALPM4","Station_Nam":"SNOW PAID OBSERVER FOR KAPN","Latitude":"45.03110","Longitude":"-83.55970","Snowdepth":"1.000","Units":"in","Rept_Date":"2020-11-25 18"},"coordinates":[3509,3445]},{"type":"Point","properties":{"Station_ID":"AGNW3","Station_Nam":"ARGONNE-1.5 NW","Latitude":"45.67360","Longitude":"-88.90380","Snowdepth":"1.000","Units":"in","Rept_Date":"2020-11-25 14"},"coordinates":[2119,4074]}]}},"arcs":[],"transform":{"scale":[0.003843286328632864,0.001021642164216422],"translate":[-97.04752,41.5115]}}