{"type":"Topology","objects":{"snowdepth_geo":{"type":"GeometryCollection","geometries":[{"type":"Point","coordinates":[-86.62,46.4258],"properties":{"Station_ID":"PRKM4","Station_Nam":"MUNISING EAST","Latitude":"46.42580","Longitude":"-86.62000","Snowdepth":"76.500","Units":"in","Rept_Date":"2025-04-26 06"}},{"type":"Point","coordinates":[-72.8154,44.5248],"properties":{"Station_ID":"MMNV1","Station_Nam":"MT. MANSFIELD","Latitude":"44.52480","Longitude":"-72.81540","Snowdepth":"68.000","Units":"in","Rept_Date":"2025-04-25 20"}},{"type":"Point","coordinates":[-91.8221,51.7269],"properties":{"Station_ID":"CATQ6","Station_Nam":"CAT LAKE","Latitude":"51.72690","Longitude":"-91.82210","Snowdepth":"51.380","Units":"in","Rept_Date":"2025-04-25 13"}},{"type":"Point","coordinates":[-67.1394,51.1114],"properties":{"Station_ID":"CQGD","Station_Nam":"CQGD","Latitude":"51.11140","Longitude":"-67.13940","Snowdepth":"35.945","Units":"in","Rept_Date":"2025-04-25 12"}},{"type":"Point","coordinates":[-69.6747,50.7925],"properties":{"Station_ID":"CQOU","Station_Nam":"CQOU","Latitude":"50.79250","Longitude":"-69.67470","Snowdepth":"33.189","Units":"in","Rept_Date":"2025-04-25 12"}},{"type":"Point","coordinates":[-68.8236,50.6617],"properties":{"Station_ID":"CMLZ","Station_Nam":"CMLZ","Latitude":"50.66170","Longitude":"-68.82360","Snowdepth":"25.433","Units":"in","Rept_Date":"2025-04-25 12"}},{"type":"Point","coordinates":[-67.6264,49.6472],"properties":{"Station_ID":"CQGT","Station_Nam":"CQGT","Latitude":"49.64720","Longitude":"-67.62640","Snowdepth":"20.354","Units":"in","Rept_Date":"2025-04-25 12"}},{"type":"Point","coordinates":[-86.6625,46.4121],"properties":{"Station_ID":"MNSM4","Station_Nam":"MUNISING","Latitude":"46.41210","Longitude":"-86.66250","Snowdepth":"20.000","Units":"in","Rept_Date":"2025-04-25 11"}},{"type":"Point","coordinates":[-70.0806,51.3283],"properties":{"Station_ID":"CQCX","Station_Nam":"CQCX","Latitude":"51.32830","Longitude":"-70.08060","Snowdepth":"19.409","Units":"in","Rept_Date":"2025-04-25 12"}},{"type":"Point","coordinates":[-69.3569,49.66],"properties":{"Station_ID":"CQTV","Station_Nam":"CQTV","Latitude":"49.66000","Longitude":"-69.35690","Snowdepth":"18.189","Units":"in","Rept_Date":"2025-04-25 12"}},{"type":"Point","coordinates":[-88.6717,47.0416],"properties":{"Station_ID":"PDLM4","Station_Nam":"PAINESDALE","Latitude":"47.04160","Longitude":"-88.67170","Snowdepth":"16.000","Units":"in","Rept_Date":"2025-04-25 12"}},{"type":"Point","coordinates":[-66.9111,51.5217],"properties":{"Station_ID":"CMFU","Station_Nam":"CMFU","Latitude":"51.52170","Longitude":"-66.91110","Snowdepth":"15.394","Units":"in","Rept_Date":"2025-04-25 12"}},{"type":"Point","coordinates":[-70.4719,50.1033],"properties":{"Station_ID":"CQMA","Station_Nam":"CQMA","Latitude":"50.10330","Longitude":"-70.47190","Snowdepth":"14.449","Units":"in","Rept_Date":"2025-04-25 12"}},{"type":"Point","coordinates":[-75.1,50.7236],"properties":{"Station_ID":"CQLB","Station_Nam":"CQLB","Latitude":"50.72360","Longitude":"-75.10000","Snowdepth":"13.543","Units":"in","Rept_Date":"2025-04-25 12"}},{"type":"Point","coordinates":[-74.2064,48.855],"properties":{"Station_ID":"CQGO","Station_Nam":"CQGO","Latitude":"48.85500","Longitude":"-74.20640","Snowdepth":"13.268","Units":"in","Rept_Date":"2025-04-25 12"}},{"type":"Point","coordinates":[-68.8406,51.2833],"properties":{"Station_ID":"CMRL","Station_Nam":"CMRL","Latitude":"51.28330","Longitude":"-68.84060","Snowdepth":"13.228","Units":"in","Rept_Date":"2025-04-25 12"}},{"type":"Point","coordinates":[-70.2528,48.9203],"properties":{"Station_ID":"CQLM","Station_Nam":"CQLM","Latitude":"48.92030","Longitude":"-70.25280","Snowdepth":"12.559","Units":"in","Rept_Date":"2025-04-25 12"}},{"type":"Point","coordinates":[-87.2292,49.2288],"properties":{"Station_ID":"TRIQ6","Station_Nam":"TRIO LAKE","Latitude":"49.22880","Longitude":"-87.22920","Snowdepth":"12.440","Units":"in","Rept_Date":"2025-04-26 06"}},{"type":"Point","coordinates":[-75.6992,38.17779],"properties":{"Station_ID":"011MD_MADIS","Station_Nam":"PRINCESS ANNE 2 S","Latitude":"38.17779","Longitude":"-75.69920","Snowdepth":"12.010","Units":"in","Rept_Date":"2025-04-26 06"}},{"type":"Point","coordinates":[-72.5719,51.0578],"properties":{"Station_ID":"CQTM","Station_Nam":"CQTM","Latitude":"51.05780","Longitude":"-72.57190","Snowdepth":"11.614","Units":"in","Rept_Date":"2025-04-25 12"}},{"type":"Point","coordinates":[-88.5795,47.1364],"properties":{"Station_ID":"QNCM4","Station_Nam":"QUINCY HILL","Latitude":"47.13640","Longitude":"-88.57950","Snowdepth":"10.000","Units":"in","Rept_Date":"2025-04-25 11"}},{"type":"Point","coordinates":[-66.13279,47.90803],"properties":{"Station_ID":"CAN-NB-50","Station_Nam":"DOYLEVILLE 2.4 WNW, CAN","Latitude":"47.90803","Longitude":"-66.13279","Snowdepth":"10.000","Units":"in","Rept_Date":"2025-04-25 12"}},{"type":"Point","coordinates":[-82.5757,48.526],"properties":{"Station_ID":"AUDQ6","Station_Nam":"AUDEN","Latitude":"48.52600","Longitude":"-82.57570","Snowdepth":"9.920","Units":"in","Rept_Date":"2025-04-26 06"}},{"type":"Point","coordinates":[-87.7644,49.1989],"properties":{"Station_ID":"DVLQ6","Station_Nam":"DEVIOUS LAKE","Latitude":"49.19890","Longitude":"-87.76440","Snowdepth":"9.020","Units":"in","Rept_Date":"2025-04-26 06"}},{"type":"Point","coordinates":[-74.4039,50.8328],"properties":{"Station_ID":"CQFT","Station_Nam":"CQFT","Latitude":"50.83280","Longitude":"-74.40390","Snowdepth":"8.346","Units":"in","Rept_Date":"2025-04-25 12"}},{"type":"Point","coordinates":[-73.7381,47.2564],"properties":{"Station_ID":"CQGA","Station_Nam":"CQGA","Latitude":"47.25640","Longitude":"-73.73810","Snowdepth":"7.165","Units":"in","Rept_Date":"2025-04-25 12"}},{"type":"Point","coordinates":[-68.5431,49.8239],"properties":{"Station_ID":"CQIQ","Station_Nam":"CQIQ","Latitude":"49.82390","Longitude":"-68.54310","Snowdepth":"6.850","Units":"in","Rept_Date":"2025-04-25 12"}},{"type":"Point","coordinates":[-87.8582,50.7668],"properties":{"Station_ID":"OGIQ6","Station_Nam":"OGOKI CAMP","Latitude":"50.76680","Longitude":"-87.85820","Snowdepth":"6.730","Units":"in","Rept_Date":"2025-04-26 06"}},{"type":"Point","coordinates":[-88.2077,46.5573],"properties":{"Station_ID":"MI-BG-3","Station_Nam":"THREE LAKES, MI","Latitude":"46.55730","Longitude":"-88.20770","Snowdepth":"6.000","Units":"in","Rept_Date":"2025-04-25 12"}},{"type":"Point","coordinates":[-72.2011,51.4528],"properties":{"Station_ID":"CQCO","Station_Nam":"CQCO","Latitude":"51.45280","Longitude":"-72.20110","Snowdepth":"5.866","Units":"in","Rept_Date":"2025-04-25 12"}},{"type":"Point","coordinates":[-86.6594,49.0695],"properties":{"Station_ID":"PTLQ6","Station_Nam":"PORTAGE LAKE","Latitude":"49.06950","Longitude":"-86.65940","Snowdepth":"5.750","Units":"in","Rept_Date":"2025-04-26 06"}},{"type":"Point","coordinates":[-76.5983,47.8275],"properties":{"Station_ID":"CQCU","Station_Nam":"CQCU","Latitude":"47.82750","Longitude":"-76.59830","Snowdepth":"4.252","Units":"in","Rept_Date":"2025-04-25 12"}},{"type":"Point","coordinates":[-76.9411,39.00999],"properties":{"Station_ID":"006MD_MADIS","Station_Nam":"COLLEGE PARK 2 N","Latitude":"39.00999","Longitude":"-76.94110","Snowdepth":"4.060","Units":"in","Rept_Date":"2025-04-26 06"}},{"type":"Point","coordinates":[-76.8431,38.59709],"properties":{"Station_ID":"010MD_MADIS","Station_Nam":"WALDORF 4 ESE","Latitude":"38.59709","Longitude":"-76.84310","Snowdepth":"3.620","Units":"in","Rept_Date":"2025-04-26 06"}},{"type":"Point","coordinates":[-77.9385,39.69766],"properties":{"Station_ID":"015MD_MADIS","Station_Nam":"CLEAR SPRING 3 N","Latitude":"39.69766","Longitude":"-77.93850","Snowdepth":"2.760","Units":"in","Rept_Date":"2025-04-26 06"}},{"type":"Point","coordinates":[-52.71336,47.56404],"properties":{"Station_ID":"CAN-NL-2","Station_Nam":"ST. JOHN'S 0.4 N, CAN","Latitude":"47.56404","Longitude":"-52.71336","Snowdepth":"2.500","Units":"in","Rept_Date":"2025-04-25 09"}},{"type":"Point","coordinates":[-86.9375,50.6386],"properties":{"Station_ID":"ANAQ6","Station_Nam":"ANACONDA","Latitude":"50.63860","Longitude":"-86.93750","Snowdepth":"1.540","Units":"in","Rept_Date":"2025-04-25 23"}},{"type":"Point","coordinates":[-52.82838,47.51955],"properties":{"Station_ID":"CAN-NL-79","Station_Nam":"MOUNT PEARL 1.3 WNW, CAN","Latitude":"47.51955","Longitude":"-52.82838","Snowdepth":"1.400","Units":"in","Rept_Date":"2025-04-25 09"}},{"type":"Point","coordinates":[-76.9258,39.26249],"properties":{"Station_ID":"001MD_MADIS","Station_Nam":"CLARKSVILLE 4 NNE","Latitude":"39.26249","Longitude":"-76.92580","Snowdepth":"1.300","Units":"in","Rept_Date":"2025-04-26 06"}},{"type":"Point","coordinates":[-83.4289,35.6108],"properties":{"Station_ID":"NFGT1","Station_Nam":"NEW FOUND GAP","Latitude":"35.61080","Longitude":"-83.42890","Snowdepth":"1.120","Units":"in","Rept_Date":"2025-04-26 06"}},{"type":"Point","coordinates":[-75.7741,38.35866],"properties":{"Station_ID":"012MD_MADIS","Station_Nam":"QUANTICO 2 WSW","Latitude":"38.35866","Longitude":"-75.77410","Snowdepth":"1.100","Units":"in","Rept_Date":"2025-04-26 06"}},{"type":"Point","coordinates":[-88.3333,46.65],"properties":{"Station_ID":"HERM4","Station_Nam":"HERMAN,MI","Latitude":"46.65000","Longitude":"-88.33330","Snowdepth":"1.000","Units":"in","Rept_Date":"2025-04-25 12"}}]}},"arcs":[],"bbox":[-91.8221,35.6108,-52.71336,51.7269]}
