{"type":"Topology","objects":{"snowdepth_geo":{"type":"GeometryCollection","name":"snowdepth","crs":{"type":"name","properties":{"name":"urn:ogc:def:crs:OGC:1.3:CRS84"}},"geometries":[{"type":"Point","properties":{"Station_ID":"PRKM4","Station_Nam":"MUNISING EAST","Latitude":"46.42580","Longitude":"-86.62000","Snowdepth":"76.500","Units":"in","Rept_Date":"2021-03-02 06"},"coordinates":[2426,6043]},{"type":"Point","properties":{"Station_ID":"MMNV1","Station_Nam":"MT. MANSFIELD","Latitude":"44.52480","Longitude":"-72.81540","Snowdepth":"55.000","Units":"in","Rept_Date":"2021-03-01 21"},"coordinates":[5580,4624]},{"type":"Point","properties":{"Station_ID":"HTLN3","Station_Nam":"HERMIT LAKE SNOWPLOT","Latitude":"44.26130","Longitude":"-71.28330","Snowdepth":"49.000","Units":"in","Rept_Date":"2021-03-01 10"},"coordinates":[5930,4428]},{"type":"Point","properties":{"Station_ID":"HLSN3","Station_Nam":"HERMIT LAKE SNOTEL","Latitude":"44.26130","Longitude":"-71.28320","Snowdepth":"47.910","Units":"in","Rept_Date":"2021-03-02 06"},"coordinates":[5930,4428]},{"type":"Point","properties":{"Station_ID":"PDLM4","Station_Nam":"PAINESDALE","Latitude":"47.04160","Longitude":"-88.67170","Snowdepth":"42.000","Units":"in","Rept_Date":"2021-03-01 13"},"coordinates":[1957,6502]},{"type":"Point","properties":{"Station_ID":"GKBN3","Station_Nam":"GRAY KNOB","Latitude":"44.33260","Longitude":"-71.30930","Snowdepth":"42.000","Units":"in","Rept_Date":"2021-03-01 10"},"coordinates":[5924,4481]},{"type":"Point","properties":{"Station_ID":"CAN-NB-11","Station_Nam":"MIRAMICHI 3.3 S, CAN","Latitude":"46.99343","Longitude":"-65.50690","Snowdepth":"36.000","Units":"in","Rept_Date":"2021-03-01 11"},"coordinates":[7249,6467]},{"type":"Point","properties":{"Station_ID":"KSGM4","Station_Nam":"KEARSARGE","Latitude":"47.27520","Longitude":"-88.41700","Snowdepth":"35.000","Units":"in","Rept_Date":"2021-03-01 13"},"coordinates":[2015,6677]},{"type":"Point","properties":{"Station_ID":"HGHN6","Station_Nam":"HIGHMARKET","Latitude":"43.60510","Longitude":"-75.55430","Snowdepth":"35.000","Units":"in","Rept_Date":"2021-03-01 11"},"coordinates":[4954,3938]},{"type":"Point","properties":{"Station_ID":"PTLQ6","Station_Nam":"PORTAGE LAKE","Latitude":"49.06950","Longitude":"-86.65940","Snowdepth":"33.580","Units":"in","Rept_Date":"2021-03-02 06"},"coordinates":[2417,8016]},{"type":"Point","properties":{"Station_ID":"NY-HM-9","Station_Nam":"HOFFMEISTER 2.0 E, NY","Latitude":"43.38695","Longitude":"-74.67723","Snowdepth":"32.000","Units":"in","Rept_Date":"2021-03-01 13"},"coordinates":[5154,3775]},{"type":"Point","properties":{"Station_ID":"LVDW3","Station_Nam":"LAC VIEUX DESERT","Latitude":"46.12110","Longitude":"-89.07580","Snowdepth":"32.000","Units":"in","Rept_Date":"2021-03-01 14"},"coordinates":[1865,5816]},{"type":"Point","properties":{"Station_ID":"HERM4","Station_Nam":"HERMAN,MI","Latitude":"46.65000","Longitude":"-88.33330","Snowdepth":"32.000","Units":"in","Rept_Date":"2021-03-01 13"},"coordinates":[2034,6210]},{"type":"Point","properties":{"Station_ID":"QGO","Station_Nam":"QGO","Latitude":"48.85500","Longitude":"-74.20640","Snowdepth":"31.811","Units":"in","Rept_Date":"2021-03-01 12"},"coordinates":[5262,7856]},{"type":"Point","properties":{"Station_ID":"MI-BG-3","Station_Nam":"THREE LAKES, MI","Latitude":"46.55730","Longitude":"-88.20770","Snowdepth":"29.900","Units":"in","Rept_Date":"2021-03-01 13"},"coordinates":[2063,6141]},{"type":"Point","properties":{"Station_ID":"QLB","Station_Nam":"QLB","Latitude":"50.72360","Longitude":"-75.10000","Snowdepth":"29.882","Units":"in","Rept_Date":"2021-03-01 12"},"coordinates":[5058,9250]},{"type":"Point","properties":{"Station_ID":"TRIQ6","Station_Nam":"TRIO LAKE","Latitude":"49.22880","Longitude":"-87.22920","Snowdepth":"29.370","Units":"in","Rept_Date":"2021-03-02 06"},"coordinates":[2287,8135]},{"type":"Point","properties":{"Station_ID":"VT-BN-12","Station_Nam":"STAMFORD 5.0 NNE, VT","Latitude":"42.82000","Longitude":"-73.02000","Snowdepth":"29.000","Units":"in","Rept_Date":"2021-03-01 21"},"coordinates":[5533,3352]},{"type":"Point","properties":{"Station_ID":"PERV1","Station_Nam":"PERU","Latitude":"43.26670","Longitude":"-72.90000","Snowdepth":"29.000","Units":"in","Rept_Date":"2021-03-01 12"},"coordinates":[5560,3685]},{"type":"Point","properties":{"Station_ID":"MI-HG-20","Station_Nam":"CALUMET 1.1 SSW, MI","Latitude":"47.23165","Longitude":"-88.45823","Snowdepth":"29.000","Units":"in","Rept_Date":"2021-03-01 11"},"coordinates":[2006,6644]},{"type":"Point","properties":{"Station_ID":"LBKV1","Station_Nam":"LYE BROOK","Latitude":"43.05000","Longitude":"-73.03330","Snowdepth":"29.000","Units":"in","Rept_Date":"2021-03-02 06"},"coordinates":[5530,3524]},{"type":"Point","properties":{"Station_ID":"HOKN6","Station_Nam":"HOOKER 12 NNW","Latitude":"43.85240","Longitude":"-75.71580","Snowdepth":"29.000","Units":"in","Rept_Date":"2021-03-01 11"},"coordinates":[4917,4122]},{"type":"Point","properties":{"Station_ID":"DVLQ6","Station_Nam":"DEVIOUS LAKE","Latitude":"49.19890","Longitude":"-87.76440","Snowdepth":"28.900","Units":"in","Rept_Date":"2021-03-02 06"},"coordinates":[2164,8112]},{"type":"Point","properties":{"Station_ID":"VT-BN-3","Station_Nam":"LANDGROVE 1.1 NNE, VT","Latitude":"43.29092","Longitude":"-72.83260","Snowdepth":"28.500","Units":"in","Rept_Date":"2021-03-01 12"},"coordinates":[5576,3703]},{"type":"Point","properties":{"Station_ID":"NY-HR-18","Station_Nam":"SALISBURY CENTER 1.8 NW, NY","Latitude":"43.16260","Longitude":"-74.80880","Snowdepth":"28.500","Units":"in","Rept_Date":"2021-03-01 11"},"coordinates":[5124,3608]},{"type":"Point","properties":{"Station_ID":"CAN-NB-112","Station_Nam":"LAC BAKER 3.1 NW - SAJESS, CAN","Latitude":"47.35162","Longitude":"-68.67100","Snowdepth":"28.300","Units":"in","Rept_Date":"2021-03-01 11"},"coordinates":[6527,6734]},{"type":"Point","properties":{"Station_ID":"CAN-NS-39","Station_Nam":"ST. ANNS 2.8 NW, CA","Latitude":"46.25082","Longitude":"-60.64340","Snowdepth":"28.000","Units":"in","Rept_Date":"2021-03-01 12"},"coordinates":[8361,5912]},{"type":"Point","properties":{"Station_ID":"AUDQ6","Station_Nam":"AUDEN","Latitude":"48.52600","Longitude":"-82.57570","Snowdepth":"27.720","Units":"in","Rept_Date":"2021-03-02 06"},"coordinates":[3350,7610]},{"type":"Point","properties":{"Station_ID":"RDFN6","Station_Nam":"REDFIELD 8N","Latitude":"43.64130","Longitude":"-75.88400","Snowdepth":"27.000","Units":"in","Rept_Date":"2021-03-01 12"},"coordinates":[4879,3965]},{"type":"Point","properties":{"Station_ID":"NH-CS-10","Station_Nam":"RANDOLPH 1.4 NE, NH","Latitude":"44.38824","Longitude":"-71.26950","Snowdepth":"27.000","Units":"in","Rept_Date":"2021-03-01 12"},"coordinates":[5933,4522]},{"type":"Point","properties":{"Station_ID":"ME-SM-45","Station_Nam":"BRIGHTON PLANTATION 2.1 N, ME","Latitude":"45.07098","Longitude":"-69.69860","Snowdepth":"27.000","Units":"in","Rept_Date":"2021-03-01 12"},"coordinates":[6292,5032]},{"type":"Point","properties":{"Station_ID":"GNLM4","Station_Nam":"GREENLAND 6N","Latitude":"46.87360","Longitude":"-89.10060","Snowdepth":"27.000","Units":"in","Rept_Date":"2021-03-01 13"},"coordinates":[1859,6377]},{"type":"Point","properties":{"Station_ID":"WTNM4","Station_Nam":"WATTON 2WSW","Latitude":"46.52660","Longitude":"-88.64240","Snowdepth":"26.000","Units":"in","Rept_Date":"2021-03-01 13"},"coordinates":[1964,6118]},{"type":"Point","properties":{"Station_ID":"GHMN3","Station_Nam":"PINKHAM NOTCH","Latitude":"44.25800","Longitude":"-71.25250","Snowdepth":"26.000","Units":"in","Rept_Date":"2021-03-01 10"},"coordinates":[5937,4425]},{"type":"Point","properties":{"Station_ID":"BOON6","Station_Nam":"BOONVILLE 4 SSW","Latitude":"43.43610","Longitude":"-75.36970","Snowdepth":"26.000","Units":"in","Rept_Date":"2021-03-01 12"},"coordinates":[4996,3812]},{"type":"Point","properties":{"Station_ID":"BERM4","Station_Nam":"BERGLAND DAM","Latitude":"46.58690","Longitude":"-89.54750","Snowdepth":"26.000","Units":"in","Rept_Date":"2021-03-01 13"},"coordinates":[1757,6163]},{"type":"Point","properties":{"Station_ID":"CAN-NL-82","Station_Nam":"GANDER 2.7 NW, CAN","Latitude":"48.97737","Longitude":"-54.63396","Snowdepth":"25.600","Units":"in","Rept_Date":"2021-03-01 10"},"coordinates":[9734,7947]},{"type":"Point","properties":{"Station_ID":"ME-FR-2","Station_Nam":"TEMPLE 1.8 W, ME","Latitude":"44.68329","Longitude":"-70.26420","Snowdepth":"25.500","Units":"in","Rept_Date":"2021-03-01 12"},"coordinates":[6163,4743]},{"type":"Point","properties":{"Station_ID":"WI-VL-9","Station_Nam":"LAND O' LAKES 11.7 W, WI","Latitude":"46.19023","Longitude":"-89.45790","Snowdepth":"25.000","Units":"in","Rept_Date":"2021-03-01 13"},"coordinates":[1778,5867]},{"type":"Point","properties":{"Station_ID":"MNSM4","Station_Nam":"MUNISING","Latitude":"46.41210","Longitude":"-86.66250","Snowdepth":"25.000","Units":"in","Rept_Date":"2021-03-01 11"},"coordinates":[2416,6033]},{"type":"Point","properties":{"Station_ID":"ME-AR-18","Station_Nam":"NEW SWEDEN 4.9 NNW, ME","Latitude":"47.01080","Longitude":"-68.14390","Snowdepth":"25.000","Units":"in","Rept_Date":"2021-03-01 12"},"coordinates":[6647,6479]},{"type":"Point","properties":{"Station_ID":"FISM1","Station_Nam":"FORT KENT COOP","Latitude":"47.23850","Longitude":"-68.61240","Snowdepth":"25.000","Units":"in","Rept_Date":"2021-03-01 12"},"coordinates":[6540,6649]},{"type":"Point","properties":{"Station_ID":"CAN-NB-13","Station_Nam":"BATHURST 3.8 NW, CAN","Latitude":"47.64212","Longitude":"-65.68756","Snowdepth":"25.000","Units":"in","Rept_Date":"2021-03-01 11"},"coordinates":[7208,6951]},{"type":"Point","properties":{"Station_ID":"CAN-QC-47","Station_Nam":"SAINTE-FOY 1.8 ENE, CAN","Latitude":"46.76934","Longitude":"-71.27124","Snowdepth":"24.800","Units":"in","Rept_Date":"2021-03-01 12"},"coordinates":[5933,6299]},{"type":"Point","properties":{"Station_ID":"CAN-NB-105","Station_Nam":"SISSON BROOK 3.8 E, CAN","Latitude":"46.98305","Longitude":"-67.32532","Snowdepth":"24.800","Units":"in","Rept_Date":"2021-03-01 12"},"coordinates":[6834,6459]},{"type":"Point","properties":{"Station_ID":"QCU","Station_Nam":"QCU","Latitude":"47.82750","Longitude":"-76.59830","Snowdepth":"24.646","Units":"in","Rept_Date":"2021-03-01 12"},"coordinates":[4715,7089]},{"type":"Point","properties":{"Station_ID":"MI-HG-1","Station_Nam":"HOUGHTON 1.6 ESE, MI","Latitude":"47.10774","Longitude":"-88.52940","Snowdepth":"24.500","Units":"in","Rept_Date":"2021-03-01 13"},"coordinates":[1990,6552]},{"type":"Point","properties":{"Station_ID":"CAN-NB-96","Station_Nam":"SAINT-IGNACE 2.6 NE, CAN","Latitude":"46.71424","Longitude":"-65.05609","Snowdepth":"24.400","Units":"in","Rept_Date":"2021-03-01 11"},"coordinates":[7352,6258]},{"type":"Point","properties":{"Station_ID":"QWE","Station_Nam":"QWE","Latitude":"47.84610","Longitude":"-73.80670","Snowdepth":"24.173","Units":"in","Rept_Date":"2021-03-01 12"},"coordinates":[5353,7103]},{"type":"Point","properties":{"Station_ID":"SUAW3","Station_Nam":"SUAMICO","Latitude":"44.60190","Longitude":"-88.09780","Snowdepth":"24.000","Units":"in","Rept_Date":"2021-03-01 12"},"coordinates":[2088,4682]},{"type":"Point","properties":{"Station_ID":"PRQM1","Station_Nam":"PRESQUE ISLE HILLTOP","Latitude":"46.68630","Longitude":"-67.99470","Snowdepth":"24.000","Units":"in","Rept_Date":"2021-03-01 12"},"coordinates":[6681,6237]},{"type":"Point","properties":{"Station_ID":"NY-HM-10","Station_Nam":"LAKE PLEASANT 2.3 WSW, NY","Latitude":"43.45490","Longitude":"-74.45287","Snowdepth":"24.000","Units":"in","Rept_Date":"2021-03-01 12"},"coordinates":[5206,3826]},{"type":"Point","properties":{"Station_ID":"IWOM4","Station_Nam":"IRONWOOD#2","Latitude":"46.46520","Longitude":"-90.13820","Snowdepth":"24.000","Units":"in","Rept_Date":"2021-03-01 13"},"coordinates":[1622,6072]},{"type":"Point","properties":{"Station_ID":"HURW3","Station_Nam":"HURLEY","Latitude":"46.46250","Longitude":"-90.19550","Snowdepth":"24.000","Units":"in","Rept_Date":"2021-03-01 14"},"coordinates":[1609,6070]},{"type":"Point","properties":{"Station_ID":"AVLV1","Station_Nam":"AVERILL","Latitude":"45.00570","Longitude":"-71.69030","Snowdepth":"24.000","Units":"in","Rept_Date":"2021-03-01 13"},"coordinates":[5837,4983]},{"type":"Point","properties":{"Station_ID":"QOU","Station_Nam":"QOU","Latitude":"50.79250","Longitude":"-69.67470","Snowdepth":"23.976","Units":"in","Rept_Date":"2021-03-01 12"},"coordinates":[6297,9302]},{"type":"Point","properties":{"Station_ID":"QTM","Station_Nam":"QTM","Latitude":"51.05780","Longitude":"-72.57190","Snowdepth":"23.661","Units":"in","Rept_Date":"2021-03-01 12"},"coordinates":[5635,9500]},{"type":"Point","properties":{"Station_ID":"WI-IR-2","Station_Nam":"MERCER 2.0 SE, WI","Latitude":"46.14749","Longitude":"-90.03097","Snowdepth":"23.500","Units":"in","Rept_Date":"2021-03-01 13"},"coordinates":[1647,5835]},{"type":"Point","properties":{"Station_ID":"CAN-NB-111","Station_Nam":"EDMUNDSTON 1.4 NE - SAJESS, CAN","Latitude":"47.37312","Longitude":"-68.32311","Snowdepth":"23.200","Units":"in","Rept_Date":"2021-03-01 10"},"coordinates":[6606,6750]},{"type":"Point","properties":{"Station_ID":"WTRM4","Station_Nam":"WATERSMEET 12WSW","Latitude":"46.22310","Longitude":"-89.40850","Snowdepth":"23.000","Units":"in","Rept_Date":"2021-03-01 12"},"coordinates":[1789,5892]},{"type":"Point","properties":{"Station_ID":"WI-PR-2","Station_Nam":"BUTTERNUT 5.9 SW, WI","Latitude":"45.96501","Longitude":"-90.59750","Snowdepth":"23.000","Units":"in","Rept_Date":"2021-03-01 12"},"coordinates":[1517,5699]},{"type":"Point","properties":{"Station_ID":"VT-OG-10","Station_Nam":"BRAINTREE 2.8 SW, VT","Latitude":"43.93570","Longitude":"-72.74830","Snowdepth":"23.000","Units":"in","Rept_Date":"2021-03-01 12"},"coordinates":[5595,4185]},{"type":"Point","properties":{"Station_ID":"RLKW3","Station_Nam":"REST LAKE","Latitude":"46.12220","Longitude":"-89.87720","Snowdepth":"23.000","Units":"in","Rept_Date":"2021-03-01 14"},"coordinates":[1682,5816]},{"type":"Point","properties":{"Station_ID":"PTBN3","Station_Nam":"PITTSBURG RESERVOIR","Latitude":"45.04690","Longitude":"-71.38300","Snowdepth":"23.000","Units":"in","Rept_Date":"2021-03-01 12"},"coordinates":[5907,5014]},{"type":"Point","properties":{"Station_ID":"PDGM4","Station_Nam":"PAULDING","Latitude":"46.39760","Longitude":"-89.17940","Snowdepth":"23.000","Units":"in","Rept_Date":"2021-03-01 12"},"coordinates":[1841,6022]},{"type":"Point","properties":{"Station_ID":"MIEM4","Station_Nam":"MICHIGAMME 3WNW","Latitude":"46.54530","Longitude":"-88.18000","Snowdepth":"23.000","Units":"in","Rept_Date":"2021-03-01 13"},"coordinates":[2069,6132]},{"type":"Point","properties":{"Station_ID":"GMSM4","Station_Nam":"GRAND MARAIS 10S","Latitude":"46.50940","Longitude":"-85.96310","Snowdepth":"23.000","Units":"in","Rept_Date":"2021-03-01 12"},"coordinates":[2576,6105]},{"type":"Point","properties":{"Station_ID":"GFDN6","Station_Nam":"CHASES LAKE","Latitude":"43.75920","Longitude":"-75.29980","Snowdepth":"23.000","Units":"in","Rept_Date":"2021-03-01 11"},"coordinates":[5012,4053]},{"type":"Point","properties":{"Station_ID":"BBEM4","Station_Nam":"BIG BAY 9SW","Latitude":"46.74620","Longitude":"-87.88160","Snowdepth":"23.000","Units":"in","Rept_Date":"2021-03-01 13"},"coordinates":[2138,6282]},{"type":"Point","properties":{"Station_ID":"ANJ","Station_Nam":"SAULT STE MARIE","Latitude":"46.46670","Longitude":"-84.36670","Snowdepth":"23.000","Units":"in","Rept_Date":"2021-03-02 00"},"coordinates":[2941,6073]},{"type":"Point","properties":{"Station_ID":"VT-WR-2","Station_Nam":"POMFRET 2.6 N, VT","Latitude":"43.74230","Longitude":"-72.52550","Snowdepth":"22.500","Units":"in","Rept_Date":"2021-03-01 12"},"coordinates":[5646,4040]},{"type":"Point","properties":{"Station_ID":"NY-LW-12","Station_Nam":"CHASES LAKE COOP, NY","Latitude":"43.75924","Longitude":"-75.29982","Snowdepth":"22.500","Units":"in","Rept_Date":"2021-03-01 11"},"coordinates":[5012,4053]},{"type":"Point","properties":{"Station_ID":"CAN-NB-97","Station_Nam":"NEW MARYLAND 0.6 NW, CAN","Latitude":"45.90112","Longitude":"-66.68739","Snowdepth":"22.200","Units":"in","Rept_Date":"2021-03-01 12"},"coordinates":[6980,5651]},{"type":"Point","properties":{"Station_ID":"SSMM4","Station_Nam":"SAULT STE MARIE","Latitude":"46.48660","Longitude":"-84.40250","Snowdepth":"22.000","Units":"in","Rept_Date":"2021-03-01 13"},"coordinates":[2932,6088]},{"type":"Point","properties":{"Station_ID":"ROWM3","Station_Nam":"ROWE 3NE","Latitude":"42.73500","Longitude":"-72.86920","Snowdepth":"22.000","Units":"in","Rept_Date":"2021-03-01 12"},"coordinates":[5567,3289]},{"type":"Point","properties":{"Station_ID":"RFDM1","Station_Nam":"RUMFORD 7SW","Latitude":"44.49470","Longitude":"-70.65640","Snowdepth":"22.000","Units":"in","Rept_Date":"2021-03-01 13"},"coordinates":[6073,4602]},{"type":"Point","properties":{"Station_ID":"NH-CR-26","Station_Nam":"CENTER SANDWICH 4.9 E, NH","Latitude":"43.80976","Longitude":"-71.34150","Snowdepth":"22.000","Units":"in","Rept_Date":"2021-03-01 12"},"coordinates":[5916,4091]},{"type":"Point","properties":{"Station_ID":"MQT","Station_Nam":"MARQUETTE, MI","Latitude":"46.53140","Longitude":"-87.54920","Snowdepth":"22.000","Units":"in","Rept_Date":"2021-03-02 06"},"coordinates":[2214,6122]},{"type":"Point","properties":{"Station_ID":"HUBN3","Station_Nam":"HUBBARD BROOK","Latitude":"43.93330","Longitude":"-71.71670","Snowdepth":"22.000","Units":"in","Rept_Date":"2021-03-02 04"},"coordinates":[5831,4183]},{"type":"Point","properties":{"Station_ID":"ESDN3","Station_Nam":"EAST SANDWICH","Latitude":"43.80990","Longitude":"-71.34250","Snowdepth":"22.000","Units":"in","Rept_Date":"2021-03-01 11"},"coordinates":[5916,4091]},{"type":"Point","properties":{"Station_ID":"CLKM4","Station_Nam":"CLARKSBURG","Latitude":"46.49910","Longitude":"-87.84500","Snowdepth":"22.000","Units":"in","Rept_Date":"2021-03-01 12"},"coordinates":[2146,6098]},{"type":"Point","properties":{"Station_ID":"CAN-NL-65","Station_Nam":"KIPPENS 0.7 NE, CA","Latitude":"48.55436","Longitude":"-58.61850","Snowdepth":"22.000","Units":"in","Rept_Date":"2021-03-01 12"},"coordinates":[8823,7631]},{"type":"Point","properties":{"Station_ID":"ANJM4","Station_Nam":"SNOW PAID OBSERVER FOR KANJ","Latitude":"46.48670","Longitude":"-84.40260","Snowdepth":"22.000","Units":"in","Rept_Date":"2021-03-02 06"},"coordinates":[2932,6088]},{"type":"Point","properties":{"Station_ID":"OGIQ6","Station_Nam":"OGOKI CAMP","Latitude":"50.76680","Longitude":"-87.85820","Snowdepth":"21.730","Units":"in","Rept_Date":"2021-03-02 06"},"coordinates":[2143,9283]},{"type":"Point","properties":{"Station_ID":"CAN-ON-791","Station_Nam":"METCALFE 4.4 NNW, CAN","Latitude":"45.27286","Longitude":"-75.48952","Snowdepth":"21.700","Units":"in","Rept_Date":"2021-03-01 11"},"coordinates":[4969,5182]},{"type":"Point","properties":{"Station_ID":"MLZ","Station_Nam":"MLZ","Latitude":"50.66170","Longitude":"-68.82360","Snowdepth":"21.535","Units":"in","Rept_Date":"2021-03-01 12"},"coordinates":[6492,9204]},{"type":"Point","properties":{"Station_ID":"ME-FR-22","Station_Nam":"FARMINGTON 4.8 NNW, ME","Latitude":"44.73396","Longitude":"-70.18007","Snowdepth":"21.500","Units":"in","Rept_Date":"2021-03-01 14"},"coordinates":[6182,4780]},{"type":"Point","properties":{"Station_ID":"CAN-ON-42","Station_Nam":"VANKLEEK HILL 3.4 S, CA","Latitude":"45.48987","Longitude":"-74.64570","Snowdepth":"21.500","Units":"in","Rept_Date":"2021-03-01 12"},"coordinates":[5162,5344]},{"type":"Point","properties":{"Station_ID":"CAN-NB-113","Station_Nam":"SAINTE-ANNE-DE-MADAWASKA 0.3 W - SAJESS, CAN","Latitude":"47.24960","Longitude":"-68.02757","Snowdepth":"21.100","Units":"in","Rept_Date":"2021-03-01 13"},"coordinates":[6674,6658]},{"type":"Point","properties":{"Station_ID":"WI-WB-2","Station_Nam":"STONE LAKE 2.0 NW, WI","Latitude":"45.85960","Longitude":"-91.57710","Snowdepth":"21.000","Units":"in","Rept_Date":"2021-03-01 13"},"coordinates":[1293,5620]},{"type":"Point","properties":{"Station_ID":"WI-IR-3","Station_Nam":"PENCE 0.1 E, WI","Latitude":"46.41555","Longitude":"-90.27013","Snowdepth":"21.000","Units":"in","Rept_Date":"2021-03-01 13"},"coordinates":[1592,6035]},{"type":"Point","properties":{"Station_ID":"WHFN6","Station_Nam":"WILMINGTON 2W","Latitude":"44.39310","Longitude":"-73.85890","Snowdepth":"21.000","Units":"in","Rept_Date":"2021-03-01 13"},"coordinates":[5341,4526]},{"type":"Point","properties":{"Station_ID":"VT-WR-17","Station_Nam":"ROCHESTER 2.3 NE, VT","Latitude":"43.89418","Longitude":"-72.76992","Snowdepth":"21.000","Units":"in","Rept_Date":"2021-03-01 12"},"coordinates":[5590,4154]},{"type":"Point","properties":{"Station_ID":"ME-AR-15","Station_Nam":"PRESQUE ISLE 1.3 WSW, ME","Latitude":"46.67960","Longitude":"-68.01270","Snowdepth":"21.000","Units":"in","Rept_Date":"2021-03-01 12"},"coordinates":[6677,6232]},{"type":"Point","properties":{"Station_ID":"LPLN6","Station_Nam":"LAKE PLACID 2 S","Latitude":"44.30420","Longitude":"-73.98390","Snowdepth":"21.000","Units":"in","Rept_Date":"2021-03-01 12"},"coordinates":[5313,4460]},{"type":"Point","properties":{"Station_ID":"JEFV1","Station_Nam":"JEFFERSONVILLE","Latitude":"44.58430","Longitude":"-72.78700","Snowdepth":"21.000","Units":"in","Rept_Date":"2021-03-01 12"},"coordinates":[5586,4669]},{"type":"Point","properties":{"Station_ID":"JCBM4","Station_Nam":"JACOBSVILLE","Latitude":"47.00830","Longitude":"-88.43180","Snowdepth":"21.000","Units":"in","Rept_Date":"2021-03-01 12"},"coordinates":[2012,6478]},{"type":"Point","properties":{"Station_ID":"CARM1","Station_Nam":"CARIBOU WFO","Latitude":"46.86810","Longitude":"-68.01250","Snowdepth":"21.000","Units":"in","Rept_Date":"2021-03-02 05"},"coordinates":[6677,6373]},{"type":"Point","properties":{"Station_ID":"CAR","Station_Nam":"CARIBOU, ME","Latitude":"46.86830","Longitude":"-68.01360","Snowdepth":"21.000","Units":"in","Rept_Date":"2021-03-01 12"},"coordinates":[6677,6373]},{"type":"Point","properties":{"Station_ID":"BAGM4","Station_Nam":"BARAGA 7NW","Latitude":"46.82100","Longitude":"-88.60590","Snowdepth":"21.000","Units":"in","Rept_Date":"2021-03-01 13"},"coordinates":[1972,6338]},{"type":"Point","properties":{"Station_ID":"CAN-NB-64","Station_Nam":"KESWICK RIDGE 4.0 SE, CAN","Latitude":"45.97014","Longitude":"-66.85538","Snowdepth":"20.700","Units":"in","Rept_Date":"2021-03-01 13"},"coordinates":[6941,5703]},{"type":"Point","properties":{"Station_ID":"QLP","Station_Nam":"QLP","Latitude":"48.13920","Longitude":"-72.63830","Snowdepth":"20.433","Units":"in","Rept_Date":"2021-03-01 12"},"coordinates":[5620,7322]},{"type":"Point","properties":{"Station_ID":"VT-WH-30","Station_Nam":"MARLBORO 2.0 NNE, VT","Latitude":"42.88484","Longitude":"-72.70935","Snowdepth":"20.000","Units":"in","Rept_Date":"2021-03-01 13"},"coordinates":[5604,3400]},{"type":"Point","properties":{"Station_ID":"VT-OL-1","Station_Nam":"WESTFIELD 0.7 WNW, VT","Latitude":"44.89160","Longitude":"-72.44350","Snowdepth":"20.000","Units":"in","Rept_Date":"2021-03-01 12"},"coordinates":[5665,4898]},{"type":"Point","properties":{"Station_ID":"PRNW3","Station_Nam":"PRENTICE,WI","Latitude":"45.54780","Longitude":"-90.30000","Snowdepth":"20.000","Units":"in","Rept_Date":"2021-03-01 14"},"coordinates":[1585,5388]},{"type":"Point","properties":{"Station_ID":"PKFW3","Station_Nam":"PARK FALLS,WI","Latitude":"45.93360","Longitude":"-90.45060","Snowdepth":"20.000","Units":"in","Rept_Date":"2021-03-01 14"},"coordinates":[1551,5676]},{"type":"Point","properties":{"Station_ID":"NY-FK-9","Station_Nam":"GABRIELS 1.3 SE, NY","Latitude":"44.41934","Longitude":"-74.16194","Snowdepth":"20.000","Units":"in","Rept_Date":"2021-03-01 12"},"coordinates":[5272,4546]},{"type":"Point","properties":{"Station_ID":"MRLV1","Station_Nam":"MARLBORO","Latitude":"42.86000","Longitude":"-72.72000","Snowdepth":"20.000","Units":"in","Rept_Date":"2021-03-01 13"},"coordinates":[5602,3382]},{"type":"Point","properties":{"Station_ID":"MI-EM-8","Station_Nam":"PETOSKEY 1.7 SSW, MI","Latitude":"45.34209","Longitude":"-84.96530","Snowdepth":"20.000","Units":"in","Rept_Date":"2021-03-01 11"},"coordinates":[2804,5234]},{"type":"Point","properties":{"Station_ID":"JKMM1","Station_Nam":"JACKMAN","Latitude":"45.62600","Longitude":"-70.24600","Snowdepth":"20.000","Units":"in","Rept_Date":"2021-03-01 12"},"coordinates":[6167,5446]},{"type":"Point","properties":{"Station_ID":"ISLV1","Station_Nam":"ISLAND POND","Latitude":"44.81280","Longitude":"-71.89020","Snowdepth":"20.000","Units":"in","Rept_Date":"2021-03-01 14"},"coordinates":[5791,4839]},{"type":"Point","properties":{"Station_ID":"IRMM4","Station_Nam":"WWTP","Latitude":"46.46670","Longitude":"-90.18330","Snowdepth":"20.000","Units":"in","Rept_Date":"2021-03-01 13"},"coordinates":[1612,6073]},{"type":"Point","properties":{"Station_ID":"HRTM1","Station_Nam":"HARTFORD","Latitude":"44.37440","Longitude":"-70.31620","Snowdepth":"20.000","Units":"in","Rept_Date":"2021-03-01 12"},"coordinates":[6151,4512]},{"type":"Point","properties":{"Station_ID":"CHRM4","Station_Nam":"CHARLEVOIX","Latitude":"45.31720","Longitude":"-85.26720","Snowdepth":"20.000","Units":"in","Rept_Date":"2021-03-01 13"},"coordinates":[2735,5216]},{"type":"Point","properties":{"Station_ID":"CAN-QC-56","Station_Nam":"SUTTON 2.6 N, CAN","Latitude":"45.13119","Longitude":"-72.61218","Snowdepth":"20.000","Units":"in","Rept_Date":"2021-03-01 12"},"coordinates":[5626,5077]},{"type":"Point","properties":{"Station_ID":"CAN-ON-245","Station_Nam":"PHELPSTON 3.1 ESE, CAN","Latitude":"44.50564","Longitude":"-79.81035","Snowdepth":"20.000","Units":"in","Rept_Date":"2021-03-01 12"},"coordinates":[3982,4610]},{"type":"Point","properties":{"Station_ID":"AMAM4","Station_Nam":"AMASA 1W","Latitude":"46.23470","Longitude":"-88.45440","Snowdepth":"20.000","Units":"in","Rept_Date":"2021-03-01 14"},"coordinates":[2007,5900]},{"type":"Point","properties":{"Station_ID":"SOCQ6","Station_Nam":"SOCKET LAKE","Latitude":"50.77870","Longitude":"-91.79300","Snowdepth":"19.880","Units":"in","Rept_Date":"2021-03-02 06"},"coordinates":[1244,9291]},{"type":"Point","properties":{"Station_ID":"WI-BY-2","Station_Nam":"MELLEN 18.6 SW, WI","Latitude":"46.16937","Longitude":"-90.98090","Snowdepth":"19.500","Units":"in","Rept_Date":"2021-03-01 13"},"coordinates":[1430,5852]},{"type":"Point","properties":{"Station_ID":"QGA","Station_Nam":"QGA","Latitude":"47.25640","Longitude":"-73.73810","Snowdepth":"19.409","Units":"in","Rept_Date":"2021-03-01 12"},"coordinates":[5369,6663]},{"type":"Point","properties":{"Station_ID":"CAN-ON-220","Station_Nam":"DEEP RIVER 1.5 SE - MNRF, CAN","Latitude":"46.09592","Longitude":"-77.47853","Snowdepth":"19.300","Units":"in","Rept_Date":"2021-03-01 12"},"coordinates":[4514,5797]},{"type":"Point","properties":{"Station_ID":"CAN-NB-98","Station_Nam":"HOYT 4.2 S, CAN","Latitude":"45.54763","Longitude":"-66.55440","Snowdepth":"19.300","Units":"in","Rept_Date":"2021-03-01 11"},"coordinates":[7010,5388]},{"type":"Point","properties":{"Station_ID":"WI-VL-14","Station_Nam":"BOULDER JUNCTION 1.4 NE, WI","Latitude":"46.12840","Longitude":"-89.62470","Snowdepth":"19.000","Units":"in","Rept_Date":"2021-03-01 13"},"coordinates":[1739,5821]},{"type":"Point","properties":{"Station_ID":"WI-PR-8","Station_Nam":"PHILLIPS 0.4 SSW, WI","Latitude":"45.69086","Longitude":"-90.40200","Snowdepth":"19.000","Units":"in","Rept_Date":"2021-03-01 13"},"coordinates":[1562,5494]},{"type":"Point","properties":{"Station_ID":"WI-PR-6","Station_Nam":"PHILLIPS 1.3 S, WI","Latitude":"45.67677","Longitude":"-90.39543","Snowdepth":"19.000","Units":"in","Rept_Date":"2021-03-01 12"},"coordinates":[1563,5484]},{"type":"Point","properties":{"Station_ID":"VT-WS-30","Station_Nam":"WOODBURY 3.4 NNW, VT","Latitude":"44.48825","Longitude":"-72.43258","Snowdepth":"19.000","Units":"in","Rept_Date":"2021-03-01 12"},"coordinates":[5667,4597]},{"type":"Point","properties":{"Station_ID":"VT-BN-7","Station_Nam":"MANCHESTER 2.8 ENE, VT","Latitude":"43.17274","Longitude":"-73.01811","Snowdepth":"19.000","Units":"in","Rept_Date":"2021-03-01 13"},"coordinates":[5533,3615]},{"type":"Point","properties":{"Station_ID":"SRAW3","Station_Nam":"SARONA","Latitude":"45.80250","Longitude":"-91.86700","Snowdepth":"19.000","Units":"in","Rept_Date":"2021-03-01 14"},"coordinates":[1227,5578]},{"type":"Point","properties":{"Station_ID":"NY-FK-7","Station_Nam":"SARANAC LAKE 6.2 N, NY","Latitude":"44.41359","Longitude":"-74.15211","Snowdepth":"19.000","Units":"in","Rept_Date":"2021-03-01 12"},"coordinates":[5274,4541]},{"type":"Point","properties":{"Station_ID":"NY-BM-21","Station_Nam":"WINDSOR 8.0 SE, NY","Latitude":"42.00992","Longitude":"-75.51420","Snowdepth":"19.000","Units":"in","Rept_Date":"2021-03-01 12"},"coordinates":[4963,2747]},{"type":"Point","properties":{"Station_ID":"NH-CS-4","Station_Nam":"PITTSBURG 6.1 NE, NH","Latitude":"45.11060","Longitude":"-71.29760","Snowdepth":"19.000","Units":"in","Rept_Date":"2021-03-01 12"},"coordinates":[5927,5061]},{"type":"Point","properties":{"Station_ID":"MI-SH-1","Station_Nam":"MANISTIQUE 2.7 NW, MI","Latitude":"45.99042","Longitude":"-86.28266","Snowdepth":"19.000","Units":"in","Rept_Date":"2021-03-01 11"},"coordinates":[2503,5718]},{"type":"Point","properties":{"Station_ID":"MI-MQ-28","Station_Nam":"CARLSHEND, MI","Latitude":"46.31638","Longitude":"-87.19944","Snowdepth":"19.000","Units":"in","Rept_Date":"2021-03-01 10"},"coordinates":[2293,5961]},{"type":"Point","properties":{"Station_ID":"MI-CP-14","Station_Nam":"SAULT STE. MARIE 2.2 E, MI","Latitude":"46.48933","Longitude":"-84.31971","Snowdepth":"19.000","Units":"in","Rept_Date":"2021-03-01 13"},"coordinates":[2951,6090]},{"type":"Point","properties":{"Station_ID":"ME-FR-4","Station_Nam":"NEW SHARON 2.0 NW, ME","Latitude":"44.66582","Longitude":"-70.02720","Snowdepth":"19.000","Units":"in","Rept_Date":"2021-03-01 12"},"coordinates":[6217,4729]},{"type":"Point","properties":{"Station_ID":"KINM1","Station_Nam":"KINGFIELD","Latitude":"44.95950","Longitude":"-70.17530","Snowdepth":"19.000","Units":"in","Rept_Date":"2021-03-01 12"},"coordinates":[6183,4949]},{"type":"Point","properties":{"Station_ID":"CLQM5","Station_Nam":"CLOQUET","Latitude":"46.70470","Longitude":"-92.52530","Snowdepth":"19.000","Units":"in","Rept_Date":"2021-03-01 14"},"coordinates":[1077,6251]},{"type":"Point","properties":{"Station_ID":"CAN-QC-37","Station_Nam":"LAVAL 3.8 SSW, CAN","Latitude":"45.55358","Longitude":"-73.76976","Snowdepth":"19.000","Units":"in","Rept_Date":"2021-03-01 13"},"coordinates":[5362,5392]},{"type":"Point","properties":{"Station_ID":"QLI","Station_Nam":"QLI","Latitude":"50.27080","Longitude":"-73.92280","Snowdepth":"18.583","Units":"in","Rept_Date":"2021-03-01 12"},"coordinates":[5327,8912]},{"type":"Point","properties":{"Station_ID":"NH-CR-41","Station_Nam":"ALBANY 2.8 SW, NH","Latitude":"43.92648","Longitude":"-71.21556","Snowdepth":"18.500","Units":"in","Rept_Date":"2021-03-01 13"},"coordinates":[5945,4178]},{"type":"Point","properties":{"Station_ID":"MA-HS-7","Station_Nam":"PLAINFIELD 2.2 SW, MA","Latitude":"42.49272","Longitude":"-72.94540","Snowdepth":"18.500","Units":"in","Rept_Date":"2021-03-01 13"},"coordinates":[5550,3108]},{"type":"Point","properties":{"Station_ID":"WORV1","Station_Nam":"WORCESTER 2 W","Latitude":"44.37470","Longitude":"-72.58220","Snowdepth":"18.000","Units":"in","Rept_Date":"2021-03-01 12"},"coordinates":[5633,4512]},{"type":"Point","properties":{"Station_ID":"WLFM5","Station_Nam":"WOLF RIDGE ENVIRON LEARNING CENTER","Latitude":"47.38240","Longitude":"-91.19730","Snowdepth":"18.000","Units":"in","Rept_Date":"2021-03-01 13"},"coordinates":[1380,6757]},{"type":"Point","properties":{"Station_ID":"WI-BY-29","Station_Nam":"BAYFIELD 5.1 NNW, WI","Latitude":"46.88063","Longitude":"-90.85854","Snowdepth":"18.000","Units":"in","Rept_Date":"2021-03-01 13"},"coordinates":[1458,6382]},{"type":"Point","properties":{"Station_ID":"WI-BY-22","Station_Nam":"MASON 11.5 WNW, WI","Latitude":"46.50198","Longitude":"-91.28339","Snowdepth":"18.000","Units":"in","Rept_Date":"2021-03-01 14"},"coordinates":[1360,6100]},{"type":"Point","properties":{"Station_ID":"WI-BY-14","Station_Nam":"ASHLAND 9.8 W, WI","Latitude":"46.59742","Longitude":"-91.07856","Snowdepth":"18.000","Units":"in","Rept_Date":"2021-03-01 12"},"coordinates":[1407,6171]},{"type":"Point","properties":{"Station_ID":"VT-WS-7","Station_Nam":"MIDDLESEX 3.1 ENE, VT","Latitude":"44.31799","Longitude":"-72.62650","Snowdepth":"18.000","Units":"in","Rept_Date":"2021-03-01 13"},"coordinates":[5623,4470]},{"type":"Point","properties":{"Station_ID":"VT-WR-10","Station_Nam":"WEST WINDSOR 1.7 S, VT","Latitude":"43.46164","Longitude":"-72.49197","Snowdepth":"18.000","Units":"in","Rept_Date":"2021-03-01 12"},"coordinates":[5654,3831]},{"type":"Point","properties":{"Station_ID":"VT-ES-3","Station_Nam":"LUNENBURG 2.3 NNW, VT","Latitude":"44.49324","Longitude":"-71.70446","Snowdepth":"18.000","Units":"in","Rept_Date":"2021-03-01 13"},"coordinates":[5834,4601]},{"type":"Point","properties":{"Station_ID":"TOPN6","Station_Nam":"TUPPER LAKE SUNMOUNT","Latitude":"44.23070","Longitude":"-74.43820","Snowdepth":"18.000","Units":"in","Rept_Date":"2021-03-01 12"},"coordinates":[5209,4405]},{"type":"Point","properties":{"Station_ID":"TOPM1","Station_Nam":"TOPSFIELD","Latitude":"45.43470","Longitude":"-67.72020","Snowdepth":"18.000","Units":"in","Rept_Date":"2021-03-01 12"},"coordinates":[6744,5303]},{"type":"Point","properties":{"Station_ID":"TMWN3","Station_Nam":"TAMWORTH 4","Latitude":"43.86390","Longitude":"-71.26610","Snowdepth":"18.000","Units":"in","Rept_Date":"2021-03-01 12"},"coordinates":[5934,4131]},{"type":"Point","properties":{"Station_ID":"SUTV1","Station_Nam":"SUTTON","Latitude":"44.61220","Longitude":"-72.04810","Snowdepth":"18.000","Units":"in","Rept_Date":"2021-03-01 12"},"coordinates":[5755,4689]},{"type":"Point","properties":{"Station_ID":"RANM1","Station_Nam":"RANGELEY","Latitude":"44.98910","Longitude":"-70.67190","Snowdepth":"18.000","Units":"in","Rept_Date":"2021-03-01 11"},"coordinates":[6069,4971]},{"type":"Point","properties":{"Station_ID":"NY-ER-166","Station_Nam":"BOSTON 2.5 NE, NY","Latitude":"42.65480","Longitude":"-78.70300","Snowdepth":"18.000","Units":"in","Rept_Date":"2021-03-01 12"},"coordinates":[4235,3229]},{"type":"Point","properties":{"Station_ID":"NWSM1","Station_Nam":"NEW SHARON","Latitude":"44.63520","Longitude":"-70.00020","Snowdepth":"18.000","Units":"in","Rept_Date":"2021-03-01 12"},"coordinates":[6223,4707]},{"type":"Point","properties":{"Station_ID":"NH-MR-41","Station_Nam":"NEWBURY 1.6 NW, NH","Latitude":"43.33667","Longitude":"-72.06060","Snowdepth":"18.000","Units":"in","Rept_Date":"2021-03-01 12"},"coordinates":[5752,3738]},{"type":"Point","properties":{"Station_ID":"NH-CR-27","Station_Nam":"TAMWORTH 0.4 NNW, NH","Latitude":"43.86449","Longitude":"-71.26610","Snowdepth":"18.000","Units":"in","Rept_Date":"2021-03-01 12"},"coordinates":[5934,4131]},{"type":"Point","properties":{"Station_ID":"NH-CR-11","Station_Nam":"NORTH CONWAY 1.4 SSW, NH","Latitude":"44.03556","Longitude":"-71.14010","Snowdepth":"18.000","Units":"in","Rept_Date":"2021-03-01 12"},"coordinates":[5962,4259]},{"type":"Point","properties":{"Station_ID":"MWTM1","Station_Nam":"MILLINOCKET WWTP","Latitude":"45.64030","Longitude":"-68.67480","Snowdepth":"18.000","Units":"in","Rept_Date":"2021-03-01 11"},"coordinates":[6526,5457]},{"type":"Point","properties":{"Station_ID":"MN-LK-5","Station_Nam":"TWO HARBORS 9.7 NNE, MN","Latitude":"47.16560","Longitude":"-91.61950","Snowdepth":"18.000","Units":"in","Rept_Date":"2021-03-01 13"},"coordinates":[1284,6595]},{"type":"Point","properties":{"Station_ID":"MI-AG-6","Station_Nam":"MUNISING 11.1 SSW, MI","Latitude":"46.27805","Longitude":"-86.75747","Snowdepth":"18.000","Units":"in","Rept_Date":"2021-03-01 12"},"coordinates":[2394,5933]},{"type":"Point","properties":{"Station_ID":"FARM1","Station_Nam":"FARMINGTON","Latitude":"44.68930","Longitude":"-70.15640","Snowdepth":"18.000","Units":"in","Rept_Date":"2021-03-01 12"},"coordinates":[6187,4747]},{"type":"Point","properties":{"Station_ID":"EVRW3","Station_Nam":"EAGLE RIVER-4 E","Latitude":"45.91890","Longitude":"-89.15280","Snowdepth":"18.000","Units":"in","Rept_Date":"2021-03-01 13"},"coordinates":[1847,5665]},{"type":"Point","properties":{"Station_ID":"ESGM1","Station_Nam":"EAST SANGERVILLE","Latitude":"45.13690","Longitude":"-69.28060","Snowdepth":"18.000","Units":"in","Rept_Date":"2021-03-01 12"},"coordinates":[6387,5081]},{"type":"Point","properties":{"Station_ID":"DTVM4","Station_Nam":"DETOUR VILLAGE","Latitude":"45.99830","Longitude":"-83.90130","Snowdepth":"18.000","Units":"in","Rept_Date":"2021-03-01 13"},"coordinates":[3047,5724]},{"type":"Point","properties":{"Station_ID":"BRVN6","Station_Nam":"TRENTON FALLS","Latitude":"43.27610","Longitude":"-75.15660","Snowdepth":"18.000","Units":"in","Rept_Date":"2021-03-01 14"},"coordinates":[5045,3692]},{"type":"Point","properties":{"Station_ID":"WI-BY-6","Station_Nam":"BARNES 2.2 S, WI","Latitude":"46.30264","Longitude":"-91.50320","Snowdepth":"17.500","Units":"in","Rept_Date":"2021-03-01 13"},"coordinates":[1310,5951]},{"type":"Point","properties":{"Station_ID":"VT-AD-20","Station_Nam":"HANCOCK 0.3 S, VT","Latitude":"43.92166","Longitude":"-72.84042","Snowdepth":"17.500","Units":"in","Rept_Date":"2021-03-01 12"},"coordinates":[5574,4174]},{"type":"Point","properties":{"Station_ID":"MA-HS-14","Station_Nam":"PLAINFIELD 2.4 ESE, MA","Latitude":"42.49792","Longitude":"-72.87769","Snowdepth":"17.500","Units":"in","Rept_Date":"2021-03-01 12"},"coordinates":[5566,3112]},{"type":"Point","properties":{"Station_ID":"CAN-ON-757","Station_Nam":"SAULT STE. MARIE 2.8 ESE - GLFC, CAN","Latitude":"46.50300","Longitude":"-84.30300","Snowdepth":"17.500","Units":"in","Rept_Date":"2021-03-01 13"},"coordinates":[2955,6101]},{"type":"Point","properties":{"Station_ID":"QCO","Station_Nam":"QCO","Latitude":"51.45280","Longitude":"-72.20110","Snowdepth":"17.402","Units":"in","Rept_Date":"2021-03-01 12"},"coordinates":[5720,9794]},{"type":"Point","properties":{"Station_ID":"CAN-PE-20","Station_Nam":"BONSHAW 6.6 NNE, CAN","Latitude":"46.25082","Longitude":"-63.33409","Snowdepth":"17.200","Units":"in","Rept_Date":"2021-03-01 12"},"coordinates":[7746,5912]},{"type":"Point","properties":{"Station_ID":"WI-SR-1","Station_Nam":"HAYWARD 9.2 NNE, WI","Latitude":"46.13255","Longitude":"-91.40500","Snowdepth":"17.000","Units":"in","Rept_Date":"2021-03-01 12"},"coordinates":[1333,5824]},{"type":"Point","properties":{"Station_ID":"WAIV1","Station_Nam":"WAITSFIELD","Latitude":"44.17560","Longitude":"-72.79610","Snowdepth":"17.000","Units":"in","Rept_Date":"2021-03-01 12"},"coordinates":[5584,4364]},{"type":"Point","properties":{"Station_ID":"VT-WS-33","Station_Nam":"WAITSFIELD 3.5 WNW, VT","Latitude":"44.20052","Longitude":"-72.89421","Snowdepth":"17.000","Units":"in","Rept_Date":"2021-03-01 13"},"coordinates":[5562,4382]},{"type":"Point","properties":{"Station_ID":"VT-WS-19","Station_Nam":"WATERBURY 3.0 NW, VT","Latitude":"44.36060","Longitude":"-72.80770","Snowdepth":"17.000","Units":"in","Rept_Date":"2021-03-01 11"},"coordinates":[5582,4502]},{"type":"Point","properties":{"Station_ID":"VT-WS-11","Station_Nam":"WAITSFIELD 1.8 SE, VT","Latitude":"44.17551","Longitude":"-72.79540","Snowdepth":"17.000","Units":"in","Rept_Date":"2021-03-01 12"},"coordinates":[5584,4364]},{"type":"Point","properties":{"Station_ID":"VT-OL-9","Station_Nam":"GREENSBORO 2.1 NNW, VT","Latitude":"44.60528","Longitude":"-72.30940","Snowdepth":"17.000","Units":"in","Rept_Date":"2021-03-01 12"},"coordinates":[5695,4684]},{"type":"Point","properties":{"Station_ID":"VT-OL-25","Station_Nam":"NEWPORT 1.5 WSW, VT","Latitude":"44.93059","Longitude":"-72.23731","Snowdepth":"17.000","Units":"in","Rept_Date":"2021-03-01 12"},"coordinates":[5712,4927]},{"type":"Point","properties":{"Station_ID":"STMM4","Station_Nam":"STAMBAUGH 2SSE","Latitude":"46.05550","Longitude":"-88.62780","Snowdepth":"17.000","Units":"in","Rept_Date":"2021-03-01 13"},"coordinates":[1967,5767]},{"type":"Point","properties":{"Station_ID":"STEM4","Station_Nam":"STEUBEN","Latitude":"46.18530","Longitude":"-86.46410","Snowdepth":"17.000","Units":"in","Rept_Date":"2021-03-01 14"},"coordinates":[2461,5863]},{"type":"Point","properties":{"Station_ID":"RKHN6","Station_Nam":"ROCK HILL 3 SW","Latitude":"41.59170","Longitude":"-74.61410","Snowdepth":"17.000","Units":"in","Rept_Date":"2021-03-01 12"},"coordinates":[5169,2435]},{"type":"Point","properties":{"Station_ID":"OTFM1","Station_Nam":"OTISFIELD","Latitude":"44.09790","Longitude":"-70.59760","Snowdepth":"17.000","Units":"in","Rept_Date":"2021-03-01 12"},"coordinates":[6086,4306]},{"type":"Point","properties":{"Station_ID":"NY-OT-29","Station_Nam":"NEW BERLIN 1.5 NE, NY","Latitude":"42.63689","Longitude":"-75.31090","Snowdepth":"17.000","Units":"in","Rept_Date":"2021-03-01 13"},"coordinates":[5010,3215]},{"type":"Point","properties":{"Station_ID":"NH-MR-60","Station_Nam":"SOUTH SUTTON 1.3 SE, NH","Latitude":"43.29531","Longitude":"-71.90238","Snowdepth":"17.000","Units":"in","Rept_Date":"2021-03-01 13"},"coordinates":[5788,3707]},{"type":"Point","properties":{"Station_ID":"NH-CS-19","Station_Nam":"CARROLL 4.6 NE, NH","Latitude":"44.33765","Longitude":"-71.46461","Snowdepth":"17.000","Units":"in","Rept_Date":"2021-03-01 12"},"coordinates":[5888,4485]},{"type":"Point","properties":{"Station_ID":"ME-OX-26","Station_Nam":"OXFORD 5.3 SW, ME","Latitude":"44.09787","Longitude":"-70.59612","Snowdepth":"17.000","Units":"in","Rept_Date":"2021-03-01 12"},"coordinates":[6087,4306]},{"type":"Point","properties":{"Station_ID":"LTMW3","Station_Nam":"LAKE TOMAHAWK 2 SE","Latitude":"45.80750","Longitude":"-89.55830","Snowdepth":"17.000","Units":"in","Rept_Date":"2021-03-01 14"},"coordinates":[1755,5581]},{"type":"Point","properties":{"Station_ID":"AVTW3","Station_Nam":"ARBOR VITAE-JOHNSON LAKE","Latitude":"45.89940","Longitude":"-89.72670","Snowdepth":"17.000","Units":"in","Rept_Date":"2021-03-01 12"},"coordinates":[1716,5650]},{"type":"Point","properties":{"Station_ID":"CAN-ON-92","Station_Nam":"DUNROBIN 1.9 W - MVCA, CAN","Latitude":"45.42318","Longitude":"-76.04525","Snowdepth":"16.700","Units":"in","Rept_Date":"2021-03-01 12"},"coordinates":[4842,5295]},{"type":"Point","properties":{"Station_ID":"KABQ6","Station_Nam":"CAB LAKE","Latitude":"49.59950","Longitude":"-89.17990","Snowdepth":"16.650","Units":"in","Rept_Date":"2021-03-02 06"},"coordinates":[1841,8411]},{"type":"Point","properties":{"Station_ID":"WI-LN-7","Station_Nam":"TOMAHAWK 1.2 SSW, WI","Latitude":"45.45760","Longitude":"-89.73248","Snowdepth":"16.500","Units":"in","Rept_Date":"2021-03-01 13"},"coordinates":[1715,5320]},{"type":"Point","properties":{"Station_ID":"VT-WS-10","Station_Nam":"NORTHFIELD 1.5 N, VT","Latitude":"44.16986","Longitude":"-72.65200","Snowdepth":"16.500","Units":"in","Rept_Date":"2021-03-01 12"},"coordinates":[5617,4359]},{"type":"Point","properties":{"Station_ID":"VT-WH-26","Station_Nam":"WESTMINSTER 5.5 NW, VT","Latitude":"43.12572","Longitude":"-72.53419","Snowdepth":"16.500","Units":"in","Rept_Date":"2021-03-01 12"},"coordinates":[5644,3580]},{"type":"Point","properties":{"Station_ID":"SVBQ6","Station_Nam":"SAVANT BASE","Latitude":"50.28730","Longitude":"-90.65670","Snowdepth":"16.500","Units":"in","Rept_Date":"2021-03-02 06"},"coordinates":[1504,8925]},{"type":"Point","properties":{"Station_ID":"NH-CR-46","Station_Nam":"NORTH CONWAY 1.8 SSE, NH","Latitude":"44.02955","Longitude":"-71.11664","Snowdepth":"16.500","Units":"in","Rept_Date":"2021-03-01 14"},"coordinates":[5968,4255]},{"type":"Point","properties":{"Station_ID":"QMA","Station_Nam":"QMA","Latitude":"50.10330","Longitude":"-70.47190","Snowdepth":"16.457","Units":"in","Rept_Date":"2021-03-01 12"},"coordinates":[6115,8787]},{"type":"Point","properties":{"Station_ID":"CAN-PE-7","Station_Nam":"MORELL 1.4 NNW, CA","Latitude":"46.42741","Longitude":"-62.70870","Snowdepth":"16.400","Units":"in","Rept_Date":"2021-03-01 12"},"coordinates":[7889,6044]},{"type":"Point","properties":{"Station_ID":"VT-CL-18","Station_Nam":"WHEELOCK 1.6 S, VT","Latitude":"44.56491","Longitude":"-72.08830","Snowdepth":"16.000","Units":"in","Rept_Date":"2021-03-01 12"},"coordinates":[5746,4654]},{"type":"Point","properties":{"Station_ID":"TURM1","Station_Nam":"TURNER","Latitude":"44.28220","Longitude":"-70.25610","Snowdepth":"16.000","Units":"in","Rept_Date":"2021-03-01 12"},"coordinates":[6164,4443]},{"type":"Point","properties":{"Station_ID":"STGW3","Station_Nam":"ST GERMAIN","Latitude":"45.91550","Longitude":"-89.48940","Snowdepth":"16.000","Units":"in","Rept_Date":"2021-03-01 12"},"coordinates":[1770,5662]},{"type":"Point","properties":{"Station_ID":"RGNM1","Station_Nam":"RANGELEY 2NW","Latitude":"44.98940","Longitude":"-70.67220","Snowdepth":"16.000","Units":"in","Rept_Date":"2021-03-01 11"},"coordinates":[6069,4971]},{"type":"Point","properties":{"Station_ID":"PRDM4","Station_Nam":"PARADISE","Latitude":"46.60380","Longitude":"-85.03960","Snowdepth":"16.000","Units":"in","Rept_Date":"2021-03-01 12"},"coordinates":[2787,6176]},{"type":"Point","properties":{"Station_ID":"PA-MN-16","Station_Nam":"MOUNT POCONO 0.7 N, PA","Latitude":"41.13190","Longitude":"-75.35804","Snowdepth":"16.000","Units":"in","Rept_Date":"2021-03-01 12"},"coordinates":[4999,2092]},{"type":"Point","properties":{"Station_ID":"NFKC3","Station_Nam":"NORFOLK","Latitude":"41.97250","Longitude":"-73.22080","Snowdepth":"16.000","Units":"in","Rept_Date":"2021-03-01 13"},"coordinates":[5487,2720]},{"type":"Point","properties":{"Station_ID":"MSRN3","Station_Nam":"MASCOMA RIVER","Latitude":"43.78330","Longitude":"-72.03330","Snowdepth":"16.000","Units":"in","Rept_Date":"2021-03-02 01"},"coordinates":[5758,4071]},{"type":"Point","properties":{"Station_ID":"MRRN6","Station_Nam":"MORRISVILLE 6 SW","Latitude":"42.84160","Longitude":"-75.72630","Snowdepth":"16.000","Units":"in","Rept_Date":"2021-03-01 12"},"coordinates":[4915,3368]},{"type":"Point","properties":{"Station_ID":"MQRW3","Station_Nam":"MINOCQUA","Latitude":"45.88630","Longitude":"-89.73220","Snowdepth":"16.000","Units":"in","Rept_Date":"2021-03-01 12"},"coordinates":[1715,5640]},{"type":"Point","properties":{"Station_ID":"MI-MQ-19","Station_Nam":"ISHPEMING 7.2 SW, MI","Latitude":"46.40550","Longitude":"-87.75670","Snowdepth":"16.000","Units":"in","Rept_Date":"2021-03-01 11"},"coordinates":[2166,6028]},{"type":"Point","properties":{"Station_ID":"MALN6","Station_Nam":"MALONE","Latitude":"44.84180","Longitude":"-74.30600","Snowdepth":"16.000","Units":"in","Rept_Date":"2021-03-01 12"},"coordinates":[5239,4861]},{"type":"Point","properties":{"Station_ID":"EAHV1","Station_Nam":"EAST HAVEN","Latitude":"44.64250","Longitude":"-71.89120","Snowdepth":"16.000","Units":"in","Rept_Date":"2021-03-01 12"},"coordinates":[5791,4712]},{"type":"Point","properties":{"Station_ID":"DFXM1","Station_Nam":"DOVER-FOXCROFT","Latitude":"45.18720","Longitude":"-69.18350","Snowdepth":"16.000","Units":"in","Rept_Date":"2021-03-01 12"},"coordinates":[6410,5119]},{"type":"Point","properties":{"Station_ID":"BRUM5","Station_Nam":"BRUNO,MN","Latitude":"46.28330","Longitude":"-92.50000","Snowdepth":"16.000","Units":"in","Rept_Date":"2021-03-01 14"},"coordinates":[1082,5937]},{"type":"Point","properties":{"Station_ID":"CATQ6","Station_Nam":"CAT LAKE","Latitude":"51.72690","Longitude":"-91.82210","Snowdepth":"15.870","Units":"in","Rept_Date":"2021-03-02 06"},"coordinates":[1237,9999]},{"type":"Point","properties":{"Station_ID":"CAN-NB-1","Station_Nam":"FREDERICTON 4.0 SSE, CA","Latitude":"45.92897","Longitude":"-66.62830","Snowdepth":"15.700","Units":"in","Rept_Date":"2021-03-01 12"},"coordinates":[6993,5672]},{"type":"Point","properties":{"Station_ID":"QTV","Station_Nam":"QTV","Latitude":"49.66000","Longitude":"-69.35690","Snowdepth":"15.669","Units":"in","Rept_Date":"2021-03-01 12"},"coordinates":[6370,8457]},{"type":"Point","properties":{"Station_ID":"WI-WB-16","Station_Nam":"SARONA 4.5 NNE, WI","Latitude":"45.77030","Longitude":"-91.76890","Snowdepth":"15.500","Units":"in","Rept_Date":"2021-03-01 13"},"coordinates":[1250,5554]},{"type":"Point","properties":{"Station_ID":"WI-ON-6","Station_Nam":"RHINELANDER 5.2 N, WI","Latitude":"45.71388","Longitude":"-89.42150","Snowdepth":"15.500","Units":"in","Rept_Date":"2021-03-01 14"},"coordinates":[1786,5512]},{"type":"Point","properties":{"Station_ID":"NY-DL-23","Station_Nam":"LONG EDDY 6.5 NNE, NY","Latitude":"41.93510","Longitude":"-75.07840","Snowdepth":"15.500","Units":"in","Rept_Date":"2021-03-01 13"},"coordinates":[5063,2692]},{"type":"Point","properties":{"Station_ID":"NH-GR-49","Station_Nam":"PLYMOUTH 3.7 N, NH","Latitude":"43.79048","Longitude":"-71.68413","Snowdepth":"15.500","Units":"in","Rept_Date":"2021-03-01 12"},"coordinates":[5838,4076]},{"type":"Point","properties":{"Station_ID":"MN-LK-4","Station_Nam":"TWO HARBORS 3.6 WNW, MN","Latitude":"47.04118","Longitude":"-91.75280","Snowdepth":"15.500","Units":"in","Rept_Date":"2021-03-01 13"},"coordinates":[1253,6502]},{"type":"Point","properties":{"Station_ID":"QMD","Station_Nam":"QMD","Latitude":"49.29060","Longitude":"-75.84500","Snowdepth":"15.472","Units":"in","Rept_Date":"2021-03-01 12"},"coordinates":[4888,8181]},{"type":"Point","properties":{"Station_ID":"VT-CL-14","Station_Nam":"LYNDONVILLE 1.1 W, VT","Latitude":"44.53582","Longitude":"-72.02867","Snowdepth":"15.000","Units":"in","Rept_Date":"2021-03-01 12"},"coordinates":[5759,4632]},{"type":"Point","properties":{"Station_ID":"VANM1","Station_Nam":"VAN BUREN","Latitude":"47.16600","Longitude":"-67.93900","Snowdepth":"15.000","Units":"in","Rept_Date":"2021-03-01 12"},"coordinates":[6694,6595]},{"type":"Point","properties":{"Station_ID":"TAKW3","Station_Nam":"RICE RESERVOIR NO. 2","Latitude":"45.53770","Longitude":"-89.73220","Snowdepth":"15.000","Units":"in","Rept_Date":"2021-03-01 13"},"coordinates":[1715,5380]},{"type":"Point","properties":{"Station_ID":"RHIW3","Station_Nam":"RHINELANDER","Latitude":"45.59860","Longitude":"-89.45080","Snowdepth":"15.000","Units":"in","Rept_Date":"2021-03-01 13"},"coordinates":[1779,5426]},{"type":"Point","properties":{"Station_ID":"NY-ER-56","Station_Nam":"COLDEN 1.4 NNW, NY","Latitude":"42.64740","Longitude":"-78.71120","Snowdepth":"15.000","Units":"in","Rept_Date":"2021-03-01 12"},"coordinates":[4233,3223]},{"type":"Point","properties":{"Station_ID":"NUNV1","Station_Nam":"NORTH UNDERHILL","Latitude":"44.58760","Longitude":"-72.92150","Snowdepth":"15.000","Units":"in","Rept_Date":"2021-03-01 12"},"coordinates":[5556,4671]},{"type":"Point","properties":{"Station_ID":"NOHV1","Station_Nam":"NORTH HARTLAND LAKE","Latitude":"43.60270","Longitude":"-72.36210","Snowdepth":"15.000","Units":"in","Rept_Date":"2021-03-01 12"},"coordinates":[5683,3936]},{"type":"Point","properties":{"Station_ID":"MN-IS-21","Station_Nam":"ISANTI 5.0 SW, MN","Latitude":"45.43360","Longitude":"-93.30200","Snowdepth":"15.000","Units":"in","Rept_Date":"2021-03-01 14"},"coordinates":[899,5302]},{"type":"Point","properties":{"Station_ID":"COUW3","Station_Nam":"COUDERAY,WI","Latitude":"45.86670","Longitude":"-91.45000","Snowdepth":"15.000","Units":"in","Rept_Date":"2021-03-01 22"},"coordinates":[1322,5626]},{"type":"Point","properties":{"Station_ID":"CORV1","Station_Nam":"CORINTH","Latitude":"44.00690","Longitude":"-72.31940","Snowdepth":"15.000","Units":"in","Rept_Date":"2021-03-01 12"},"coordinates":[5693,4238]},{"type":"Point","properties":{"Station_ID":"CODN6","Station_Nam":"COLDEN","Latitude":"42.64720","Longitude":"-78.71110","Snowdepth":"15.000","Units":"in","Rept_Date":"2021-03-01 12"},"coordinates":[4233,3223]},{"type":"Point","properties":{"Station_ID":"CCON6","Station_Nam":"CALLICOON CENTER","Latitude":"41.82750","Longitude":"-74.95060","Snowdepth":"15.000","Units":"in","Rept_Date":"2021-03-01 12"},"coordinates":[5092,2611]},{"type":"Point","properties":{"Station_ID":"CAN-QC-57","Station_Nam":"ACTON VALE 1.3 N, CAN","Latitude":"45.65868","Longitude":"-72.56645","Snowdepth":"15.000","Units":"in","Rept_Date":"2021-03-01 13"},"coordinates":[5637,5470]},{"type":"Point","properties":{"Station_ID":"BETM1","Station_Nam":"BETHEL 6 SSE","Latitude":"44.32000","Longitude":"-70.75680","Snowdepth":"15.000","Units":"in","Rept_Date":"2021-03-01 12"},"coordinates":[6050,4471]},{"type":"Point","properties":{"Station_ID":"WI-TY-3","Station_Nam":"MEDFORD 0.8 ENE, WI","Latitude":"45.14421","Longitude":"-90.33349","Snowdepth":"14.500","Units":"in","Rept_Date":"2021-03-01 14"},"coordinates":[1577,5086]},{"type":"Point","properties":{"Station_ID":"VT-CH-4","Station_Nam":"UNDERHILL 4.4 NNE, VT","Latitude":"44.58774","Longitude":"-72.92250","Snowdepth":"14.500","Units":"in","Rept_Date":"2021-03-01 12"},"coordinates":[5555,4671]},{"type":"Point","properties":{"Station_ID":"NY-HM-6","Station_Nam":"LONG LAKE 0.1 SSE, NY","Latitude":"43.97155","Longitude":"-74.42000","Snowdepth":"14.500","Units":"in","Rept_Date":"2021-03-01 12"},"coordinates":[5213,4211]},{"type":"Point","properties":{"Station_ID":"NY-ER-65","Station_Nam":"BOSTON 1.5 NE, NY","Latitude":"42.65470","Longitude":"-78.72010","Snowdepth":"14.500","Units":"in","Rept_Date":"2021-03-01 12"},"coordinates":[4231,3229]},{"type":"Point","properties":{"Station_ID":"CAN-NB-16","Station_Nam":"DORCHESTER 1.0 SSE, CAN","Latitude":"45.89160","Longitude":"-64.51269","Snowdepth":"14.300","Units":"in","Rept_Date":"2021-03-01 11"},"coordinates":[7477,5644]},{"type":"Point","properties":{"Station_ID":"CAN-ON-741","Station_Nam":"KIMBERLEY 2.7 WSW, CAN","Latitude":"44.37820","Longitude":"-80.56956","Snowdepth":"14.200","Units":"in","Rept_Date":"2021-03-01 13"},"coordinates":[3808,4515]},{"type":"Point","properties":{"Station_ID":"QCX","Station_Nam":"QCX","Latitude":"51.32830","Longitude":"-70.08060","Snowdepth":"14.055","Units":"in","Rept_Date":"2021-03-01 12"},"coordinates":[6205,9702]},{"type":"Point","properties":{"Station_ID":"WI-DG-20","Station_Nam":"SOLON SPRINGS 1.2 W, WI","Latitude":"46.35217","Longitude":"-91.84405","Snowdepth":"14.000","Units":"in","Rept_Date":"2021-03-01 13"},"coordinates":[1232,5988]},{"type":"Point","properties":{"Station_ID":"VT-WH-19","Station_Nam":"EAST DOVER 1.8 N, VT","Latitude":"42.97658","Longitude":"-72.77637","Snowdepth":"14.000","Units":"in","Rept_Date":"2021-03-01 12"},"coordinates":[5589,3469]},{"type":"Point","properties":{"Station_ID":"VT-OL-24","Station_Nam":"DERBY LINE 1.9 W, VT","Latitude":"45.00454","Longitude":"-72.14170","Snowdepth":"14.000","Units":"in","Rept_Date":"2021-03-01 12"},"coordinates":[5734,4982]},{"type":"Point","properties":{"Station_ID":"VT-FR-21","Station_Nam":"FAIRFAX 4.9 WNW, VT","Latitude":"44.68880","Longitude":"-73.10340","Snowdepth":"14.000","Units":"in","Rept_Date":"2021-03-01 14"},"coordinates":[5514,4747]},{"type":"Point","properties":{"Station_ID":"SPRP1","Station_Nam":"SPRINGTOWN 1 NNE","Latitude":"40.57110","Longitude":"-75.27810","Snowdepth":"14.000","Units":"in","Rept_Date":"2021-03-01 12"},"coordinates":[5017,1674]},{"type":"Point","properties":{"Station_ID":"SLNV1","Station_Nam":"SOUTH LINCOLN","Latitude":"44.07460","Longitude":"-72.97180","Snowdepth":"14.000","Units":"in","Rept_Date":"2021-03-01 12"},"coordinates":[5544,4288]},{"type":"Point","properties":{"Station_ID":"RHRW3","Station_Nam":"RHINELANDER WJFW TV-12","Latitude":"45.62220","Longitude":"-89.41000","Snowdepth":"14.000","Units":"in","Rept_Date":"2021-03-02 04"},"coordinates":[1788,5443]},{"type":"Point","properties":{"Station_ID":"RHLW3","Station_Nam":"RHINELANDER 4NE","Latitude":"45.65270","Longitude":"-89.30740","Snowdepth":"14.000","Units":"in","Rept_Date":"2021-03-01 12"},"coordinates":[1812,5466]},{"type":"Point","properties":{"Station_ID":"RHI","Station_Nam":"RHINELANDER-ONEIDA COUNTY AIRPORT","Latitude":"45.63080","Longitude":"-89.46530","Snowdepth":"14.000","Units":"in","Rept_Date":"2021-03-01 12"},"coordinates":[1776,5450]},{"type":"Point","properties":{"Station_ID":"NY-CR-5","Station_Nam":"MARATHON 1.0 NW, NY","Latitude":"42.45161","Longitude":"-76.04370","Snowdepth":"14.000","Units":"in","Rept_Date":"2021-03-01 12"},"coordinates":[4842,3077]},{"type":"Point","properties":{"Station_ID":"NUMN3","Station_Nam":"NORTHUMBERLAND","Latitude":"44.52830","Longitude":"-71.50440","Snowdepth":"14.000","Units":"in","Rept_Date":"2021-03-01 13"},"coordinates":[5879,4627]},{"type":"Point","properties":{"Station_ID":"NPTV1","Station_Nam":"NEWPORT","Latitude":"44.94900","Longitude":"-72.19120","Snowdepth":"14.000","Units":"in","Rept_Date":"2021-03-01 12"},"coordinates":[5722,4941]},{"type":"Point","properties":{"Station_ID":"NOWM1","Station_Nam":"NORRIDGEWOCK","Latitude":"44.68080","Longitude":"-69.80280","Snowdepth":"14.000","Units":"in","Rept_Date":"2021-03-01 12"},"coordinates":[6268,4741]},{"type":"Point","properties":{"Station_ID":"NJ-SS-54","Station_Nam":"SPARTA TWP 3.6 SSW, NJ","Latitude":"41.00503","Longitude":"-74.66358","Snowdepth":"14.000","Units":"in","Rept_Date":"2021-03-01 12"},"coordinates":[5158,1998]},{"type":"Point","properties":{"Station_ID":"NCKN6","Station_Nam":"NORTH CREEK 5 SE","Latitude":"43.66110","Longitude":"-73.89690","Snowdepth":"14.000","Units":"in","Rept_Date":"2021-03-01 12"},"coordinates":[5333,3980]},{"type":"Point","properties":{"Station_ID":"MN-IS-18","Station_Nam":"BRAHAM 0.7 SW, MN","Latitude":"45.71379","Longitude":"-93.18095","Snowdepth":"14.000","Units":"in","Rept_Date":"2021-03-01 14"},"coordinates":[927,5512]},{"type":"Point","properties":{"Station_ID":"MN-CV-27","Station_Nam":"CHANHASSEN 3.4 NW, MN","Latitude":"44.88979","Longitude":"-93.60991","Snowdepth":"14.000","Units":"in","Rept_Date":"2021-03-01 14"},"coordinates":[829,4897]},{"type":"Point","properties":{"Station_ID":"MN-AA-76","Station_Nam":"NOWTHEN 2.9 SSE, MN","Latitude":"45.30360","Longitude":"-93.42620","Snowdepth":"14.000","Units":"in","Rept_Date":"2021-03-01 13"},"coordinates":[871,5205]},{"type":"Point","properties":{"Station_ID":"MI-OG-6","Station_Nam":"WEST BRANCH 2.1 SSW, MI","Latitude":"44.24814","Longitude":"-84.25089","Snowdepth":"14.000","Units":"in","Rept_Date":"2021-03-01 12"},"coordinates":[2967,4418]},{"type":"Point","properties":{"Station_ID":"ME-SM-17","Station_Nam":"HARMONY 3.0 SSE, ME","Latitude":"44.93256","Longitude":"-69.56080","Snowdepth":"14.000","Units":"in","Rept_Date":"2021-03-01 12"},"coordinates":[6323,4929]},{"type":"Point","properties":{"Station_ID":"LUCW3","Station_Nam":"LUCK","Latitude":"45.57330","Longitude":"-92.48520","Snowdepth":"14.000","Units":"in","Rept_Date":"2021-03-01 20"},"coordinates":[1086,5407]},{"type":"Point","properties":{"Station_ID":"LNKM1","Station_Nam":"LINCOLN SANITARY DISTRICT/WTP","Latitude":"45.37520","Longitude":"-68.50820","Snowdepth":"14.000","Units":"in","Rept_Date":"2021-03-01 12"},"coordinates":[6564,5259]},{"type":"Point","properties":{"Station_ID":"LILM1","Station_Nam":"LILLE","Latitude":"47.27770","Longitude":"-68.10520","Snowdepth":"14.000","Units":"in","Rept_Date":"2021-03-01 12"},"coordinates":[6656,6679]},{"type":"Point","properties":{"Station_ID":"KMWN","Station_Nam":"MOUNT WASHINGTON","Latitude":"44.26666","Longitude":"-71.30000","Snowdepth":"14.000","Units":"in","Rept_Date":"2021-03-02 06"},"coordinates":[5926,4432]},{"type":"Point","properties":{"Station_ID":"JOHV1","Station_Nam":"JOHNSON 2 N","Latitude":"44.65790","Longitude":"-72.67850","Snowdepth":"14.000","Units":"in","Rept_Date":"2021-03-01 12"},"coordinates":[5611,4724]},{"type":"Point","properties":{"Station_ID":"HRVM4","Station_Nam":"HARVEY","Latitude":"46.49080","Longitude":"-87.35470","Snowdepth":"14.000","Units":"in","Rept_Date":"2021-03-01 12"},"coordinates":[2258,6091]},{"type":"Point","properties":{"Station_ID":"EJNM4","Station_Nam":"EAST JORDAN 2NW","Latitude":"45.18630","Longitude":"-85.14770","Snowdepth":"14.000","Units":"in","Rept_Date":"2021-03-01 13"},"coordinates":[2762,5118]},{"type":"Point","properties":{"Station_ID":"CAN-PE-3","Station_Nam":"WELLINGTON 1.6 NE, CA","Latitude":"46.46672","Longitude":"-63.98920","Snowdepth":"14.000","Units":"in","Rept_Date":"2021-03-01 11"},"coordinates":[7596,6073]},{"type":"Point","properties":{"Station_ID":"BDIP1","Station_Nam":"GERMANIA 1 SNOW","Latitude":"41.65000","Longitude":"-77.66670","Snowdepth":"14.000","Units":"in","Rept_Date":"2021-03-01 16"},"coordinates":[4471,2479]},{"type":"Point","properties":{"Station_ID":"NY-JF-30","Station_Nam":"WEST CARTHAGE 0.3 ENE, NY","Latitude":"43.97493","Longitude":"-75.61640","Snowdepth":"13.900","Units":"in","Rept_Date":"2021-03-01 12"},"coordinates":[4940,4214]},{"type":"Point","properties":{"Station_ID":"WI-RC-3","Station_Nam":"RACINE 2.3 WSW, WI","Latitude":"42.71124","Longitude":"-87.84570","Snowdepth":"13.500","Units":"in","Rept_Date":"2021-03-01 13"},"coordinates":[2146,3271]},{"type":"Point","properties":{"Station_ID":"WI-ON-8","Station_Nam":"HAZELHURST 2.1 SSE, WI","Latitude":"45.78186","Longitude":"-89.70330","Snowdepth":"13.500","Units":"in","Rept_Date":"2021-03-01 13"},"coordinates":[1721,5562]},{"type":"Point","properties":{"Station_ID":"WI-BT-14","Station_Nam":"OAKLAND 9.0 ENE, WI","Latitude":"45.95184","Longitude":"-92.21653","Snowdepth":"13.500","Units":"in","Rept_Date":"2021-03-01 13"},"coordinates":[1147,5689]},{"type":"Point","properties":{"Station_ID":"VT-WS-5","Station_Nam":"BERLIN 4.3 WNW, VT","Latitude":"44.23360","Longitude":"-72.65610","Snowdepth":"13.500","Units":"in","Rept_Date":"2021-03-01 12"},"coordinates":[5616,4407]},{"type":"Point","properties":{"Station_ID":"NH-MR-4","Station_Nam":"BOW 1.6 NW, NH","Latitude":"43.14994","Longitude":"-71.55650","Snowdepth":"13.500","Units":"in","Rept_Date":"2021-03-01 12"},"coordinates":[5867,3598]},{"type":"Point","properties":{"Station_ID":"MI-CX-7","Station_Nam":"EAST JORDAN 2.1 NNW, MI","Latitude":"45.18639","Longitude":"-85.14750","Snowdepth":"13.500","Units":"in","Rept_Date":"2021-03-01 13"},"coordinates":[2762,5118]},{"type":"Point","properties":{"Station_ID":"CAN-PE-26","Station_Nam":"GRAND TRACADIE 2.3 SE, CAN","Latitude":"46.37550","Longitude":"-63.03530","Snowdepth":"13.400","Units":"in","Rept_Date":"2021-03-01 11"},"coordinates":[7814,6005]},{"type":"Point","properties":{"Station_ID":"QLM","Station_Nam":"QLM","Latitude":"48.92030","Longitude":"-70.25280","Snowdepth":"13.228","Units":"in","Rept_Date":"2021-03-01 12"},"coordinates":[6165,7905]},{"type":"Point","properties":{"Station_ID":"VT-CL-23","Station_Nam":"RYEGATE 1.5 N, VT","Latitude":"44.23024","Longitude":"-72.10523","Snowdepth":"13.200","Units":"in","Rept_Date":"2021-03-01 12"},"coordinates":[5742,4404]},{"type":"Point","properties":{"Station_ID":"WNDP1","Station_Nam":"WINDBER COUNTY CLUB","Latitude":"40.28780","Longitude":"-78.77530","Snowdepth":"13.000","Units":"in","Rept_Date":"2021-03-01 12"},"coordinates":[4218,1462]},{"type":"Point","properties":{"Station_ID":"VT-LM-1","Station_Nam":"STOWE 0.2 SW, VT","Latitude":"44.46399","Longitude":"-72.69070","Snowdepth":"13.000","Units":"in","Rept_Date":"2021-03-01 12"},"coordinates":[5608,4579]},{"type":"Point","properties":{"Station_ID":"VT-CH-7","Station_Nam":"HUNTINGTON 1.1 E, VT","Latitude":"44.32488","Longitude":"-72.96570","Snowdepth":"13.000","Units":"in","Rept_Date":"2021-03-01 12"},"coordinates":[5545,4475]},{"type":"Point","properties":{"Station_ID":"PRGN6","Station_Nam":"PERRYSBURG","Latitude":"42.46470","Longitude":"-79.00310","Snowdepth":"13.000","Units":"in","Rept_Date":"2021-03-01 12"},"coordinates":[4166,3087]},{"type":"Point","properties":{"Station_ID":"POLM1","Station_Nam":"POLAND","Latitude":"44.00700","Longitude":"-70.36140","Snowdepth":"13.000","Units":"in","Rept_Date":"2021-03-01 12"},"coordinates":[6140,4238]},{"type":"Point","properties":{"Station_ID":"PA-PK-22","Station_Nam":"MILFORD 8.7 NW, PA","Latitude":"41.42018","Longitude":"-74.90953","Snowdepth":"13.000","Units":"in","Rept_Date":"2021-03-01 12"},"coordinates":[5101,2307]},{"type":"Point","properties":{"Station_ID":"NY-SL-6","Station_Nam":"HANNAWA FALLS 0.1 SW, NY","Latitude":"44.61154","Longitude":"-74.97190","Snowdepth":"13.000","Units":"in","Rept_Date":"2021-03-01 12"},"coordinates":[5087,4689]},{"type":"Point","properties":{"Station_ID":"NVLV1","Station_Nam":"NASHVILLE","Latitude":"44.44970","Longitude":"-72.92640","Snowdepth":"13.000","Units":"in","Rept_Date":"2021-03-01 12"},"coordinates":[5554,4568]},{"type":"Point","properties":{"Station_ID":"NVLN6","Station_Nam":"NORTHVILLE","Latitude":"43.23330","Longitude":"-74.16670","Snowdepth":"13.000","Units":"in","Rept_Date":"2021-03-01 13"},"coordinates":[5271,3660]},{"type":"Point","properties":{"Station_ID":"NJ-SS-1","Station_Nam":"ANDOVER TWP 1.7 W, NJ","Latitude":"41.01974","Longitude":"-74.76110","Snowdepth":"13.000","Units":"in","Rept_Date":"2021-03-01 12"},"coordinates":[5135,2008]},{"type":"Point","properties":{"Station_ID":"NJ-MS-4","Station_Nam":"ROCKAWAY TWP 0.7 NE, NJ","Latitude":"40.96583","Longitude":"-74.48780","Snowdepth":"13.000","Units":"in","Rept_Date":"2021-03-01 13"},"coordinates":[5198,1968]},{"type":"Point","properties":{"Station_ID":"NH-MR-45","Station_Nam":"NORTHFIELD 2.8 E, NH","Latitude":"43.43945","Longitude":"-71.53730","Snowdepth":"13.000","Units":"in","Rept_Date":"2021-03-01 12"},"coordinates":[5872,3814]},{"type":"Point","properties":{"Station_ID":"NH-GR-47","Station_Nam":"LITTLETON 7.3 W, NH","Latitude":"44.31847","Longitude":"-71.91086","Snowdepth":"13.000","Units":"in","Rept_Date":"2021-03-01 13"},"coordinates":[5786,4470]},{"type":"Point","properties":{"Station_ID":"MWN","Station_Nam":"MOUNT WASHINGTON","Latitude":"44.26670","Longitude":"-71.30000","Snowdepth":"13.000","Units":"in","Rept_Date":"2021-03-01 12"},"coordinates":[5926,4432]},{"type":"Point","properties":{"Station_ID":"MN-SR-48","Station_Nam":"SAINT AUGUSTA 2.1 S, MN","Latitude":"45.41950","Longitude":"-94.19737","Snowdepth":"13.000","Units":"in","Rept_Date":"2021-03-01 13"},"coordinates":[695,5292]},{"type":"Point","properties":{"Station_ID":"MN-CN-36","Station_Nam":"CLOQUET 3.4 ENE, MN","Latitude":"46.74146","Longitude":"-92.42698","Snowdepth":"13.000","Units":"in","Rept_Date":"2021-03-01 13"},"coordinates":[1099,6278]},{"type":"Point","properties":{"Station_ID":"MI-OT-17","Station_Nam":"GAYLORD 4.1 S, MI","Latitude":"44.96388","Longitude":"-84.68467","Snowdepth":"13.000","Units":"in","Rept_Date":"2021-03-01 12"},"coordinates":[2868,4952]},{"type":"Point","properties":{"Station_ID":"ME-YK-3","Station_Nam":"HOLLIS CENTER 5.4 NW, ME","Latitude":"43.64750","Longitude":"-70.67510","Snowdepth":"13.000","Units":"in","Rept_Date":"2021-03-01 12"},"coordinates":[6069,3970]},{"type":"Point","properties":{"Station_ID":"ME-CM-98","Station_Nam":"SEBAGO 2.4 ESE, ME","Latitude":"43.88000","Longitude":"-70.63000","Snowdepth":"13.000","Units":"in","Rept_Date":"2021-03-01 15"},"coordinates":[6079,4143]},{"type":"Point","properties":{"Station_ID":"INL","Station_Nam":"FALLS INTERNATIONAL ARPT","Latitude":"48.56640","Longitude":"-93.40310","Snowdepth":"13.000","Units":"in","Rept_Date":"2021-03-02 00"},"coordinates":[876,7640]},{"type":"Point","properties":{"Station_ID":"IFSM5","Station_Nam":"INTERNATIONAL FALLS SNOW","Latitude":"48.57780","Longitude":"-93.39640","Snowdepth":"13.000","Units":"in","Rept_Date":"2021-03-01 12"},"coordinates":[878,7649]},{"type":"Point","properties":{"Station_ID":"HOLM1","Station_Nam":"HOLLIS","Latitude":"43.64750","Longitude":"-70.67490","Snowdepth":"13.000","Units":"in","Rept_Date":"2021-03-01 12"},"coordinates":[6069,3970]},{"type":"Point","properties":{"Station_ID":"FORM5","Station_Nam":"FOREST LAKE 5NE","Latitude":"45.33170","Longitude":"-92.89820","Snowdepth":"13.000","Units":"in","Rept_Date":"2021-03-01 13"},"coordinates":[992,5226]},{"type":"Point","properties":{"Station_ID":"CNKN6","Station_Nam":"CONKLINGVILLE DAM","Latitude":"43.32030","Longitude":"-73.92560","Snowdepth":"13.000","Units":"in","Rept_Date":"2021-03-01 13"},"coordinates":[5326,3725]},{"type":"Point","properties":{"Station_ID":"CAN-ON-5","Station_Nam":"OWEN SOUND 1.5 NW - GSCA, CAN","Latitude":"44.57837","Longitude":"-80.95461","Snowdepth":"13.000","Units":"in","Rept_Date":"2021-03-01 13"},"coordinates":[3720,4664]},{"type":"Point","properties":{"Station_ID":"CAN-NS-103","Station_Nam":"TRAFALGAR 4.9 WSW, CAN","Latitude":"45.26217","Longitude":"-62.72285","Snowdepth":"13.000","Units":"in","Rept_Date":"2021-03-01 12"},"coordinates":[7886,5175]},{"type":"Point","properties":{"Station_ID":"CAN-MB-32","Station_Nam":"PINAWA 1.0 SW, CA","Latitude":"50.14747","Longitude":"-95.89020","Snowdepth":"13.000","Units":"in","Rept_Date":"2021-03-01 13"},"coordinates":[308,8820]},{"type":"Point","properties":{"Station_ID":"BRLN3","Station_Nam":"BERLIN","Latitude":"44.45350","Longitude":"-71.18540","Snowdepth":"13.000","Units":"in","Rept_Date":"2021-03-01 12"},"coordinates":[5952,4571]},{"type":"Point","properties":{"Station_ID":"BGFW3","Station_Nam":"BIG FALLS HYDRO","Latitude":"45.55560","Longitude":"-90.95920","Snowdepth":"13.000","Units":"in","Rept_Date":"2021-03-01 13"},"coordinates":[1435,5393]},{"type":"Point","properties":{"Station_ID":"QGD","Station_Nam":"QGD","Latitude":"51.11140","Longitude":"-67.13940","Snowdepth":"12.520","Units":"in","Rept_Date":"2021-03-01 12"},"coordinates":[6877,9540]},{"type":"Point","properties":{"Station_ID":"MN-SH-34","Station_Nam":"ZIMMERMAN 0.9 NNE, MN","Latitude":"45.45470","Longitude":"-93.59166","Snowdepth":"12.500","Units":"in","Rept_Date":"2021-03-01 12"},"coordinates":[833,5318]},{"type":"Point","properties":{"Station_ID":"MN-IS-22","Station_Nam":"PRINCETON 6.6 E, MN","Latitude":"45.55762","Longitude":"-93.44595","Snowdepth":"12.500","Units":"in","Rept_Date":"2021-03-01 15"},"coordinates":[866,5395]},{"type":"Point","properties":{"Station_ID":"MN-CK-18","Station_Nam":"GRAND MARAIS 4.4 WSW, MN","Latitude":"47.74462","Longitude":"-90.43796","Snowdepth":"12.500","Units":"in","Rept_Date":"2021-03-01 13"},"coordinates":[1554,7027]},{"type":"Point","properties":{"Station_ID":"QIQ","Station_Nam":"QIQ","Latitude":"49.82390","Longitude":"-68.54310","Snowdepth":"12.362","Units":"in","Rept_Date":"2021-03-01 12"},"coordinates":[6556,8579]},{"type":"Point","properties":{"Station_ID":"QWG","Station_Nam":"QWG","Latitude":"48.48890","Longitude":"-73.45940","Snowdepth":"12.244","Units":"in","Rept_Date":"2021-03-01 12"},"coordinates":[5433,7583]},{"type":"Point","properties":{"Station_ID":"WYON6","Station_Nam":"WYOMING 3W","Latitude":"42.82020","Longitude":"-78.14780","Snowdepth":"12.000","Units":"in","Rept_Date":"2021-03-01 12"},"coordinates":[4361,3352]},{"type":"Point","properties":{"Station_ID":"WV-PR-10","Station_Nam":"TERRA ALTA 4.9 NNE, WV","Latitude":"39.51024","Longitude":"-79.51024","Snowdepth":"12.000","Units":"in","Rept_Date":"2021-03-01 13"},"coordinates":[4050,882]},{"type":"Point","properties":{"Station_ID":"WRSN6","Station_Nam":"WARSAW 6SW","Latitude":"42.68550","Longitude":"-78.22020","Snowdepth":"12.000","Units":"in","Rept_Date":"2021-03-01 12"},"coordinates":[4345,3252]},{"type":"Point","properties":{"Station_ID":"WRSM5","Station_Nam":"WRENSHALL","Latitude":"46.61550","Longitude":"-92.38380","Snowdepth":"12.000","Units":"in","Rept_Date":"2021-03-01 14"},"coordinates":[1109,6184]},{"type":"Point","properties":{"Station_ID":"WILW3","Station_Nam":"RESERVOIR","Latitude":"45.70000","Longitude":"-89.83330","Snowdepth":"12.000","Units":"in","Rept_Date":"2021-03-01 12"},"coordinates":[1692,5501]},{"type":"Point","properties":{"Station_ID":"VT-OL-2","Station_Nam":"BARTON 3.0 ENE, VT","Latitude":"44.75863","Longitude":"-72.11680","Snowdepth":"12.000","Units":"in","Rept_Date":"2021-03-01 12"},"coordinates":[5739,4799]},{"type":"Point","properties":{"Station_ID":"STIM4","Station_Nam":"ST IGNACE","Latitude":"45.86080","Longitude":"-84.71960","Snowdepth":"12.000","Units":"in","Rept_Date":"2021-03-01 12"},"coordinates":[2860,5621]},{"type":"Point","properties":{"Station_ID":"SGVN6","Station_Nam":"SPRINGVILLE","Latitude":"42.54970","Longitude":"-78.57670","Snowdepth":"12.000","Units":"in","Rept_Date":"2021-03-01 22"},"coordinates":[4263,3150]},{"type":"Point","properties":{"Station_ID":"RILW3","Station_Nam":"RICE LAKE","Latitude":"45.41660","Longitude":"-91.77240","Snowdepth":"12.000","Units":"in","Rept_Date":"2021-03-01 14"},"coordinates":[1249,5290]},{"type":"Point","properties":{"Station_ID":"PLFV1","Station_Nam":"PLAINFIELD","Latitude":"44.27610","Longitude":"-72.41500","Snowdepth":"12.000","Units":"in","Rept_Date":"2021-03-01 12"},"coordinates":[5671,4439]},{"type":"Point","properties":{"Station_ID":"PA-CB-33","Station_Nam":"LAKE HARMONY 2.4 WNW, PA","Latitude":"41.07333","Longitude":"-75.63317","Snowdepth":"12.000","Units":"in","Rept_Date":"2021-03-01 12"},"coordinates":[4936,2048]},{"type":"Point","properties":{"Station_ID":"NJ-SS-60","Station_Nam":"VERNON TWP 2.7 SSE, NJ","Latitude":"41.16332","Longitude":"-74.45938","Snowdepth":"12.000","Units":"in","Rept_Date":"2021-03-01 11"},"coordinates":[5204,2116]},{"type":"Point","properties":{"Station_ID":"NJ-MS-94","Station_Nam":"JEFFERSON TWP 4.4 SW, NJ","Latitude":"40.96404","Longitude":"-74.62162","Snowdepth":"12.000","Units":"in","Rept_Date":"2021-03-01 13"},"coordinates":[5167,1967]},{"type":"Point","properties":{"Station_ID":"NH-GR-55","Station_Nam":"BRISTOL 3.7 E, NH","Latitude":"43.60517","Longitude":"-71.67158","Snowdepth":"12.000","Units":"in","Rept_Date":"2021-03-01 11"},"coordinates":[5841,3938]},{"type":"Point","properties":{"Station_ID":"NH-CS-7","Station_Nam":"LANCASTER 0.5 N, NH","Latitude":"44.49611","Longitude":"-71.57640","Snowdepth":"12.000","Units":"in","Rept_Date":"2021-03-01 12"},"coordinates":[5863,4603]},{"type":"Point","properties":{"Station_ID":"MN-HN-30","Station_Nam":"PLYMOUTH 2.4 ENE, MN","Latitude":"45.04063","Longitude":"-93.41950","Snowdepth":"12.000","Units":"in","Rept_Date":"2021-03-01 13"},"coordinates":[872,5009]},{"type":"Point","properties":{"Station_ID":"MN-DK-112","Station_Nam":"HASTINGS 5.8 W, MN","Latitude":"44.72325","Longitude":"-92.97235","Snowdepth":"12.000","Units":"in","Rept_Date":"2021-03-01 13"},"coordinates":[975,4772]},{"type":"Point","properties":{"Station_ID":"MI-OT-4","Station_Nam":"GAYLORD 1.7 WNW, MI","Latitude":"45.03280","Longitude":"-84.71090","Snowdepth":"12.000","Units":"in","Rept_Date":"2021-03-01 13"},"coordinates":[2862,5003]},{"type":"Point","properties":{"Station_ID":"MI-OT-16","Station_Nam":"GAYLORD 2.2 SSE, MI","Latitude":"44.99441","Longitude":"-84.65820","Snowdepth":"12.000","Units":"in","Rept_Date":"2021-03-01 12"},"coordinates":[2874,4975]},{"type":"Point","properties":{"Station_ID":"MI-MC-4","Station_Nam":"ST. IGNACE 0.5SE, MI","Latitude":"45.86057","Longitude":"-84.71980","Snowdepth":"12.000","Units":"in","Rept_Date":"2021-03-01 12"},"coordinates":[2860,5621]},{"type":"Point","properties":{"Station_ID":"MI-DL-1","Station_Nam":"GARDEN CORNERS 0.8 NW, MI","Latitude":"45.89815","Longitude":"-86.54850","Snowdepth":"12.000","Units":"in","Rept_Date":"2021-03-01 13"},"coordinates":[2442,5649]},{"type":"Point","properties":{"Station_ID":"MI-BZ-1","Station_Nam":"BENZONIA 5.3 S, MI","Latitude":"44.53976","Longitude":"-86.10650","Snowdepth":"12.000","Units":"in","Rept_Date":"2021-03-01 14"},"coordinates":[2543,4635]},{"type":"Point","properties":{"Station_ID":"ME-PN-55","Station_Nam":"ORONO 1.1 SSW, ME","Latitude":"44.87005","Longitude":"-68.69446","Snowdepth":"12.000","Units":"in","Rept_Date":"2021-03-01 12"},"coordinates":[6521,4882]},{"type":"Point","properties":{"Station_ID":"MA-FR-17","Station_Nam":"BUCKLAND 1.8 ESE, MA","Latitude":"42.58900","Longitude":"-72.75110","Snowdepth":"12.000","Units":"in","Rept_Date":"2021-03-01 13"},"coordinates":[5594,3180]},{"type":"Point","properties":{"Station_ID":"KGTB","Station_Nam":"FORT DRUM / WHEELER-SACK U. S. ARMY AIRFIELD","Latitude":"44.05000","Longitude":"-75.73333","Snowdepth":"12.000","Units":"in","Rept_Date":"2021-03-02 06"},"coordinates":[4913,4270]},{"type":"Point","properties":{"Station_ID":"KABM5","Station_Nam":"KABETOGAMA LAKE VISITOR CTR","Latitude":"48.40880","Longitude":"-93.04840","Snowdepth":"12.000","Units":"in","Rept_Date":"2021-03-01 13"},"coordinates":[957,7523]},{"type":"Point","properties":{"Station_ID":"HGHN4","Station_Nam":"HIGHLAND LAKES 1SW","Latitude":"41.16330","Longitude":"-74.45930","Snowdepth":"12.000","Units":"in","Rept_Date":"2021-03-01 11"},"coordinates":[5204,2116]},{"type":"Point","properties":{"Station_ID":"GNFM5","Station_Nam":"GUNFLINT LAKE","Latitude":"48.16670","Longitude":"-90.88750","Snowdepth":"12.000","Units":"in","Rept_Date":"2021-03-01 13"},"coordinates":[1451,7342]},{"type":"Point","properties":{"Station_ID":"GDCM4","Station_Nam":"GARDEN CORNERS","Latitude":"45.89830","Longitude":"-86.54850","Snowdepth":"12.000","Units":"in","Rept_Date":"2021-03-01 13"},"coordinates":[2442,5649]},{"type":"Point","properties":{"Station_ID":"FLDM5","Station_Nam":"FLOODWOOD,MN","Latitude":"47.00000","Longitude":"-92.91670","Snowdepth":"12.000","Units":"in","Rept_Date":"2021-03-01 14"},"coordinates":[987,6471]},{"type":"Point","properties":{"Station_ID":"ENFV1","Station_Nam":"ENOSBURG FALLS 2","Latitude":"44.90960","Longitude":"-72.81370","Snowdepth":"12.000","Units":"in","Rept_Date":"2021-03-01 10"},"coordinates":[5580,4911]},{"type":"Point","properties":{"Station_ID":"ELYM5","Station_Nam":"ELY","Latitude":"47.90560","Longitude":"-91.82830","Snowdepth":"12.000","Units":"in","Rept_Date":"2021-03-01 14"},"coordinates":[1236,7147]},{"type":"Point","properties":{"Station_ID":"ELKM5","Station_Nam":"ELK RIVER","Latitude":"45.30470","Longitude":"-93.58420","Snowdepth":"12.000","Units":"in","Rept_Date":"2021-03-01 13"},"coordinates":[835,5206]},{"type":"Point","properties":{"Station_ID":"DLHM5","Station_Nam":"DULUTH NWS","Latitude":"46.83680","Longitude":"-92.21080","Snowdepth":"12.000","Units":"in","Rept_Date":"2021-03-02 06"},"coordinates":[1149,6350]},{"type":"Point","properties":{"Station_ID":"DLH","Station_Nam":"DULUTH, MN","Latitude":"46.83690","Longitude":"-92.21030","Snowdepth":"12.000","Units":"in","Rept_Date":"2021-03-02 00"},"coordinates":[1149,6350]},{"type":"Point","properties":{"Station_ID":"CRVW3","Station_Nam":"CRIVITZ HIGH FALLS","Latitude":"45.35750","Longitude":"-88.19190","Snowdepth":"12.000","Units":"in","Rept_Date":"2021-03-01 13"},"coordinates":[2067,5246]},{"type":"Point","properties":{"Station_ID":"CORM1","Station_Nam":"CORINNA","Latitude":"44.91980","Longitude":"-69.24180","Snowdepth":"12.000","Units":"in","Rept_Date":"2021-03-01 16"},"coordinates":[6396,4919]},{"type":"Point","properties":{"Station_ID":"COLN3","Station_Nam":"COLEBROOK 3SW","Latitude":"44.86100","Longitude":"-71.53920","Snowdepth":"12.000","Units":"in","Rept_Date":"2021-03-01 12"},"coordinates":[5871,4875]},{"type":"Point","properties":{"Station_ID":"VT-WR-22","Station_Nam":"ROCHESTER 0.3 NE, VT","Latitude":"43.87816","Longitude":"-72.80459","Snowdepth":"11.800","Units":"in","Rept_Date":"2021-03-01 12"},"coordinates":[5582,4142]},{"type":"Point","properties":{"Station_ID":"PA-CR-1","Station_Nam":"EMPORIUM 2.6 S, PA","Latitude":"41.47342","Longitude":"-78.24330","Snowdepth":"11.800","Units":"in","Rept_Date":"2021-03-01 12"},"coordinates":[4340,2347]},{"type":"Point","properties":{"Station_ID":"NY-WY-10","Station_Nam":"WYOMING COOP, NY","Latitude":"42.82060","Longitude":"-78.14810","Snowdepth":"11.600","Units":"in","Rept_Date":"2021-03-01 12"},"coordinates":[4361,3352]},{"type":"Point","properties":{"Station_ID":"CAN-MB-368","Station_Nam":"WHITESHELL 1.3 NE, CAN","Latitude":"49.74405","Longitude":"-95.19123","Snowdepth":"11.600","Units":"in","Rept_Date":"2021-03-01 14"},"coordinates":[468,8519]},{"type":"Point","properties":{"Station_ID":"NH-MR-63","Station_Nam":"SUTTON MILLS 0.1 ENE, NH","Latitude":"43.33522","Longitude":"-71.95126","Snowdepth":"11.500","Units":"in","Rept_Date":"2021-03-01 12"},"coordinates":[5777,3736]},{"type":"Point","properties":{"Station_ID":"NH-HL-48","Station_Nam":"GREENVILLE 1.1 ENE, NH","Latitude":"42.77674","Longitude":"-71.77990","Snowdepth":"11.500","Units":"in","Rept_Date":"2021-03-01 13"},"coordinates":[5816,3320]},{"type":"Point","properties":{"Station_ID":"NH-GR-1","Station_Nam":"BRISTOL 0.4 SSE, NH","Latitude":"43.59490","Longitude":"-71.74140","Snowdepth":"11.500","Units":"in","Rept_Date":"2021-03-01 12"},"coordinates":[5825,3930]},{"type":"Point","properties":{"Station_ID":"NH-BK-9","Station_Nam":"MEREDITH 2.9 SSW, NH","Latitude":"43.62245","Longitude":"-71.53510","Snowdepth":"11.500","Units":"in","Rept_Date":"2021-03-01 12"},"coordinates":[5872,3951]},{"type":"Point","properties":{"Station_ID":"MA-HS-2","Station_Nam":"WESTHAMPTON 1.8 SW, MA","Latitude":"42.27943","Longitude":"-72.78700","Snowdepth":"11.500","Units":"in","Rept_Date":"2021-03-01 13"},"coordinates":[5586,2949]},{"type":"Point","properties":{"Station_ID":"MA-FR-31","Station_Nam":"COLRAIN 3.7 WNW, MA","Latitude":"42.68716","Longitude":"-72.75112","Snowdepth":"11.500","Units":"in","Rept_Date":"2021-03-01 12"},"coordinates":[5594,3253]},{"type":"Point","properties":{"Station_ID":"IL-SP-26","Station_Nam":"FREEPORT 2.9 WSW, IL","Latitude":"42.26779","Longitude":"-89.68323","Snowdepth":"11.500","Units":"in","Rept_Date":"2021-03-01 13"},"coordinates":[1726,2940]},{"type":"Point","properties":{"Station_ID":"WTHM1","Station_Nam":"WINTHROP","Latitude":"44.30650","Longitude":"-69.97010","Snowdepth":"11.000","Units":"in","Rept_Date":"2021-03-01 13"},"coordinates":[6230,4461]},{"type":"Point","properties":{"Station_ID":"WLDM5","Station_Nam":"WILD RIVER STATE PARK","Latitude":"45.52310","Longitude":"-92.74890","Snowdepth":"11.000","Units":"in","Rept_Date":"2021-03-01 14"},"coordinates":[1026,5369]},{"type":"Point","properties":{"Station_ID":"WI-RS-3","Station_Nam":"BRUCE 1.9 E, WI","Latitude":"45.45415","Longitude":"-91.23510","Snowdepth":"11.000","Units":"in","Rept_Date":"2021-03-01 13"},"coordinates":[1371,5318]},{"type":"Point","properties":{"Station_ID":"WI-RK-12","Station_Nam":"JANESVILLE 3.1 W, WI","Latitude":"42.67576","Longitude":"-89.07614","Snowdepth":"11.000","Units":"in","Rept_Date":"2021-03-01 13"},"coordinates":[1865,3244]},{"type":"Point","properties":{"Station_ID":"WI-MN-9","Station_Nam":"WARRENS 4.7 WSW, WI","Latitude":"44.10386","Longitude":"-90.58884","Snowdepth":"11.000","Units":"in","Rept_Date":"2021-03-01 13"},"coordinates":[1519,4310]},{"type":"Point","properties":{"Station_ID":"WI-JF-22","Station_Nam":"SULLIVAN 2.6 SW, WI","Latitude":"42.98562","Longitude":"-88.62498","Snowdepth":"11.000","Units":"in","Rept_Date":"2021-03-01 13"},"coordinates":[1968,3476]},{"type":"Point","properties":{"Station_ID":"WI-DD-16","Station_Nam":"BEAVER DAM 2.4 WNW, WI","Latitude":"43.47210","Longitude":"-88.88280","Snowdepth":"11.000","Units":"in","Rept_Date":"2021-03-01 13"},"coordinates":[1909,3839]},{"type":"Point","properties":{"Station_ID":"WEAN3","Station_Nam":"WEARE 2 NE","Latitude":"43.09900","Longitude":"-71.75710","Snowdepth":"11.000","Units":"in","Rept_Date":"2021-03-01 14"},"coordinates":[5822,3560]},{"type":"Point","properties":{"Station_ID":"VT-OG-14","Station_Nam":"BRADFORD 2.2 NNW, VT","Latitude":"44.02268","Longitude":"-72.14756","Snowdepth":"11.000","Units":"in","Rept_Date":"2021-03-01 13"},"coordinates":[5732,4250]},{"type":"Point","properties":{"Station_ID":"VT-FR-19","Station_Nam":"SWANTON 0.5 NNE, VT","Latitude":"44.92590","Longitude":"-73.12145","Snowdepth":"11.000","Units":"in","Rept_Date":"2021-03-01 12"},"coordinates":[5510,4924]},{"type":"Point","properties":{"Station_ID":"VT-CH-11","Station_Nam":"UNDERHILL 5.1 NNE, VT","Latitude":"44.59811","Longitude":"-72.91880","Snowdepth":"11.000","Units":"in","Rept_Date":"2021-03-01 13"},"coordinates":[5556,4679]},{"type":"Point","properties":{"Station_ID":"NY-WR-10","Station_Nam":"WARRENSBURG 2.1 WNW, NY","Latitude":"43.51784","Longitude":"-73.81069","Snowdepth":"11.000","Units":"in","Rept_Date":"2021-03-01 13"},"coordinates":[5352,3873]},{"type":"Point","properties":{"Station_ID":"NY-TM-45","Station_Nam":"NEWFIELD HAMLET 4.3 S, NY","Latitude":"42.29650","Longitude":"-76.60676","Snowdepth":"11.000","Units":"in","Rept_Date":"2021-03-01 14"},"coordinates":[4714,2961]},{"type":"Point","properties":{"Station_ID":"NY-TG-15","Station_Nam":"BERKSHIRE 1.9 ENE, NY","Latitude":"42.31910","Longitude":"-76.21940","Snowdepth":"11.000","Units":"in","Rept_Date":"2021-03-01 13"},"coordinates":[4802,2978]},{"type":"Point","properties":{"Station_ID":"NY-FL-7","Station_Nam":"BROADALBIN 4.7 ESE, NY","Latitude":"43.03940","Longitude":"-74.10845","Snowdepth":"11.000","Units":"in","Rept_Date":"2021-03-01 14"},"coordinates":[5284,3516]},{"type":"Point","properties":{"Station_ID":"NY-CL-12","Station_Nam":"SARANAC 0.8 SSE, NY","Latitude":"44.63980","Longitude":"-73.73848","Snowdepth":"11.000","Units":"in","Rept_Date":"2021-03-01 12"},"coordinates":[5369,4710]},{"type":"Point","properties":{"Station_ID":"NJ-MS-61","Station_Nam":"WASHINGTON TWP 3.6 W, NJ","Latitude":"40.78532","Longitude":"-74.86120","Snowdepth":"11.000","Units":"in","Rept_Date":"2021-03-01 12"},"coordinates":[5112,1834]},{"type":"Point","properties":{"Station_ID":"MRAM5","Station_Nam":"MORA","Latitude":"45.87760","Longitude":"-93.31470","Snowdepth":"11.000","Units":"in","Rept_Date":"2021-03-01 13"},"coordinates":[896,5634]},{"type":"Point","properties":{"Station_ID":"MONW3","Station_Nam":"MONROE,WI","Latitude":"42.60000","Longitude":"-89.66670","Snowdepth":"11.000","Units":"in","Rept_Date":"2021-03-01 13"},"coordinates":[1730,3188]},{"type":"Point","properties":{"Station_ID":"MN-SL-108","Station_Nam":"IRON JUNCTION 3.4 NNW, MN","Latitude":"47.46150","Longitude":"-92.63130","Snowdepth":"11.000","Units":"in","Rept_Date":"2021-03-01 11"},"coordinates":[1053,6816]},{"type":"Point","properties":{"Station_ID":"MN-SH-10","Station_Nam":"BIG LAKE 5.6 NNE, MN","Latitude":"45.41409","Longitude":"-93.69190","Snowdepth":"11.000","Units":"in","Rept_Date":"2021-03-01 13"},"coordinates":[810,5288]},{"type":"Point","properties":{"Station_ID":"MN-MC-16","Station_Nam":"HUTCHINSON 0.1 ENE, MN","Latitude":"44.88633","Longitude":"-94.37503","Snowdepth":"11.000","Units":"in","Rept_Date":"2021-03-01 13"},"coordinates":[654,4894]},{"type":"Point","properties":{"Station_ID":"MN-HN-298","Station_Nam":"EXCELSIOR 1.8 W, MN","Latitude":"44.89722","Longitude":"-93.60286","Snowdepth":"11.000","Units":"in","Rept_Date":"2021-03-01 13"},"coordinates":[831,4902]},{"type":"Point","properties":{"Station_ID":"MECN6","Station_Nam":"MECKLENBURG 4 SW","Latitude":"42.44220","Longitude":"-76.75740","Snowdepth":"11.000","Units":"in","Rept_Date":"2021-03-01 12"},"coordinates":[4679,3070]},{"type":"Point","properties":{"Station_ID":"ME-YK-67","Station_Nam":"CORNISH 5.6 ESE, ME","Latitude":"43.78308","Longitude":"-70.69539","Snowdepth":"11.000","Units":"in","Rept_Date":"2021-03-01 12"},"coordinates":[6064,4071]},{"type":"Point","properties":{"Station_ID":"ME-KB-53","Station_Nam":"READFIELD 2.0 NNE, ME","Latitude":"44.41620","Longitude":"-69.95190","Snowdepth":"11.000","Units":"in","Rept_Date":"2021-03-01 12"},"coordinates":[6234,4543]},{"type":"Point","properties":{"Station_ID":"LGEW3","Station_Nam":"LAKE GENEVA, WI","Latitude":"42.60000","Longitude":"-88.43440","Snowdepth":"11.000","Units":"in","Rept_Date":"2021-03-01 13"},"coordinates":[2011,3188]},{"type":"Point","properties":{"Station_ID":"LEIM5","Station_Nam":"ORR 3E","Latitude":"48.05810","Longitude":"-92.75220","Snowdepth":"11.000","Units":"in","Rept_Date":"2021-03-01 12"},"coordinates":[1025,7261]},{"type":"Point","properties":{"Station_ID":"IL-MCH-13","Station_Nam":"BULL VALLEY 2.5 WNW, IL","Latitude":"42.32455","Longitude":"-88.39460","Snowdepth":"11.000","Units":"in","Rept_Date":"2021-03-01 14"},"coordinates":[2020,2982]},{"type":"Point","properties":{"Station_ID":"HTLM4","Station_Nam":"SNOW PAID OBSERVER FOR KHTL","Latitude":"44.34470","Longitude":"-84.67730","Snowdepth":"11.000","Units":"in","Rept_Date":"2021-03-01 18"},"coordinates":[2870,4490]},{"type":"Point","properties":{"Station_ID":"HTL","Station_Nam":"ROSCOMMON COUNTY AIRPORT","Latitude":"44.35000","Longitude":"-84.66670","Snowdepth":"11.000","Units":"in","Rept_Date":"2021-03-02 00"},"coordinates":[2872,4494]},{"type":"Point","properties":{"Station_ID":"GOVN6","Station_Nam":"GOUVERNEUR 3 NW","Latitude":"44.35400","Longitude":"-75.51230","Snowdepth":"11.000","Units":"in","Rept_Date":"2021-03-01 12"},"coordinates":[4964,4497]},{"type":"Point","properties":{"Station_ID":"GLDM4","Station_Nam":"GLADSTONE NO. 2","Latitude":"45.84330","Longitude":"-87.03910","Snowdepth":"11.000","Units":"in","Rept_Date":"2021-03-01 12"},"coordinates":[2330,5608]},{"type":"Point","properties":{"Station_ID":"CNDP1","Station_Nam":"CANADENSIS","Latitude":"41.18980","Longitude":"-75.23830","Snowdepth":"11.000","Units":"in","Rept_Date":"2021-03-01 12"},"coordinates":[5026,2135]},{"type":"Point","properties":{"Station_ID":"CMRI4","Station_Nam":"CALMAR NE","Latitude":"43.18760","Longitude":"-91.86200","Snowdepth":"11.000","Units":"in","Rept_Date":"2021-03-01 13"},"coordinates":[1228,3626]},{"type":"Point","properties":{"Station_ID":"CAN-PE-1","Station_Nam":"STRATFORD 2.3 NNE, CAN","Latitude":"46.23576","Longitude":"-63.08208","Snowdepth":"11.000","Units":"in","Rept_Date":"2021-03-01 11"},"coordinates":[7803,5901]},{"type":"Point","properties":{"Station_ID":"CAN-NS-94","Station_Nam":"MARGAREE FORKS 2.6 SSE CBN, CAN","Latitude":"46.30937","Longitude":"-61.07603","Snowdepth":"11.000","Units":"in","Rept_Date":"2021-03-01 13"},"coordinates":[8262,5956]},{"type":"Point","properties":{"Station_ID":"BDJP1","Station_Nam":"GERMANIA 2 SNOW","Latitude":"41.65000","Longitude":"-77.66940","Snowdepth":"11.000","Units":"in","Rept_Date":"2021-03-01 16"},"coordinates":[4471,2479]},{"type":"Point","properties":{"Station_ID":"AROM4","Station_Nam":"ARNOLD,MI","Latitude":"46.06670","Longitude":"-87.48330","Snowdepth":"11.000","Units":"in","Rept_Date":"2021-03-01 13"},"coordinates":[2229,5775]},{"type":"Point","properties":{"Station_ID":"HPN19_MADIS","Station_Nam":"GREENFIELD","Latitude":"45.20343","Longitude":"-93.69130","Snowdepth":"10.800","Units":"in","Rept_Date":"2021-03-02 06"},"coordinates":[810,5131]},{"type":"Point","properties":{"Station_ID":"QGT","Station_Nam":"QGT","Latitude":"49.64720","Longitude":"-67.62640","Snowdepth":"10.512","Units":"in","Rept_Date":"2021-03-01 12"},"coordinates":[6765,8447]},{"type":"Point","properties":{"Station_ID":"WI-CB-5","Station_Nam":"PORTAGE 7.2 SW, WI","Latitude":"43.47933","Longitude":"-89.57370","Snowdepth":"10.500","Units":"in","Rept_Date":"2021-03-01 13"},"coordinates":[1751,3844]},{"type":"Point","properties":{"Station_ID":"PA-BR-21","Station_Nam":"ALBURTIS 4.7 SW, PA","Latitude":"40.46515","Longitude":"-75.66820","Snowdepth":"10.500","Units":"in","Rept_Date":"2021-03-01 12"},"coordinates":[4928,1595]},{"type":"Point","properties":{"Station_ID":"NY-SC-30","Station_Nam":"AMSTERDAM 6.4 E, NY","Latitude":"42.93462","Longitude":"-74.06502","Snowdepth":"10.500","Units":"in","Rept_Date":"2021-03-01 14"},"coordinates":[5294,3438]},{"type":"Point","properties":{"Station_ID":"NY-CR-1","Station_Nam":"FREETOWN 1.0 NE, NY","Latitude":"42.53299","Longitude":"-76.02111","Snowdepth":"10.500","Units":"in","Rept_Date":"2021-03-01 12"},"coordinates":[4847,3138]},{"type":"Point","properties":{"Station_ID":"NY-AB-1","Station_Nam":"ALTAMONT 2.7 SSW, NY","Latitude":"42.66696","Longitude":"-74.05090","Snowdepth":"10.500","Units":"in","Rept_Date":"2021-03-01 12"},"coordinates":[5297,3238]},{"type":"Point","properties":{"Station_ID":"NJ-MS-42","Station_Nam":"RANDOLPH TWP 2.0 E, NJ","Latitude":"40.83980","Longitude":"-74.54320","Snowdepth":"10.500","Units":"in","Rept_Date":"2021-03-01 13"},"coordinates":[5185,1874]},{"type":"Point","properties":{"Station_ID":"NH-BK-26","Station_Nam":"MEREDITH 3.3 NNE, NH","Latitude":"43.69844","Longitude":"-71.46930","Snowdepth":"10.500","Units":"in","Rept_Date":"2021-03-01 13"},"coordinates":[5887,4008]},{"type":"Point","properties":{"Station_ID":"MN-SL-115","Station_Nam":"COTTON 5.7 ESE, MN","Latitude":"47.15142","Longitude":"-92.35772","Snowdepth":"10.500","Units":"in","Rept_Date":"2021-03-01 14"},"coordinates":[1115,6584]},{"type":"Point","properties":{"Station_ID":"ME-SM-3","Station_Nam":"PALMYRA 3.5 NW, ME","Latitude":"44.87180","Longitude":"-69.41952","Snowdepth":"10.500","Units":"in","Rept_Date":"2021-03-01 12"},"coordinates":[6356,4883]},{"type":"Point","properties":{"Station_ID":"CT-LT-7","Station_Nam":"LITCHFIELD 2.3 NNE, CT","Latitude":"41.77445","Longitude":"-73.16900","Snowdepth":"10.500","Units":"in","Rept_Date":"2021-03-01 12"},"coordinates":[5499,2572]},{"type":"Point","properties":{"Station_ID":"CT-HR-28","Station_Nam":"NORTH CANTON 0.8 SSW, CT","Latitude":"41.88514","Longitude":"-72.89729","Snowdepth":"10.500","Units":"in","Rept_Date":"2021-03-01 12"},"coordinates":[5561,2654]},{"type":"Point","properties":{"Station_ID":"CAN-MB-133","Station_Nam":"ST PIERRE JOLYS 2.5 NW, CA","Latitude":"49.45872","Longitude":"-97.00620","Snowdepth":"10.500","Units":"in","Rept_Date":"2021-03-01 14"},"coordinates":[53,8306]},{"type":"Point","properties":{"Station_ID":"MRL","Station_Nam":"MRL","Latitude":"51.28330","Longitude":"-68.84060","Snowdepth":"10.433","Units":"in","Rept_Date":"2021-03-01 12"},"coordinates":[6488,9668]},{"type":"Point","properties":{"Station_ID":"HPN08_MADIS","Station_Nam":"ORONO","Latitude":"44.93630","Longitude":"-93.62000","Snowdepth":"10.100","Units":"in","Rept_Date":"2021-03-02 06"},"coordinates":[827,4931]},{"type":"Point","properties":{"Station_ID":"WLKW3","Station_Nam":"WHITE LAKE 1 SE","Latitude":"45.14520","Longitude":"-88.74160","Snowdepth":"10.000","Units":"in","Rept_Date":"2021-03-01 14"},"coordinates":[1941,5087]},{"type":"Point","properties":{"Station_ID":"WI-WK-34","Station_Nam":"MUKWONAGO 5.3 W, WI","Latitude":"42.85380","Longitude":"-88.43550","Snowdepth":"10.000","Units":"in","Rept_Date":"2021-03-01 13"},"coordinates":[2011,3377]},{"type":"Point","properties":{"Station_ID":"WI-DN-1","Station_Nam":"BOYCEVILLE 3.3 N, WI","Latitude":"45.08913","Longitude":"-92.02760","Snowdepth":"10.000","Units":"in","Rept_Date":"2021-03-01 13"},"coordinates":[1190,5045]},{"type":"Point","properties":{"Station_ID":"WI-DA-99","Station_Nam":"FITCHBURG 1.1 NW, WI","Latitude":"42.99740","Longitude":"-89.44046","Snowdepth":"10.000","Units":"in","Rept_Date":"2021-03-01 13"},"coordinates":[1781,3484]},{"type":"Point","properties":{"Station_ID":"WBRM4","Station_Nam":"WEST BRANCH 3SE","Latitude":"44.25410","Longitude":"-84.20110","Snowdepth":"10.000","Units":"in","Rept_Date":"2021-03-01 13"},"coordinates":[2979,4422]},{"type":"Point","properties":{"Station_ID":"SPGM5","Station_Nam":"SPRING VALLEY","Latitude":"43.69330","Longitude":"-92.39260","Snowdepth":"10.000","Units":"in","Rept_Date":"2021-03-01 13"},"coordinates":[1107,4004]},{"type":"Point","properties":{"Station_ID":"ROBM1","Station_Nam":"ROBBINSTON","Latitude":"45.08520","Longitude":"-67.12050","Snowdepth":"10.000","Units":"in","Rept_Date":"2021-03-02 05"},"coordinates":[6881,5042]},{"type":"Point","properties":{"Station_ID":"PROP1","Station_Nam":"PROMPTON DAM","Latitude":"41.58900","Longitude":"-75.33030","Snowdepth":"10.000","Units":"in","Rept_Date":"2021-03-01 12"},"coordinates":[5005,2433]},{"type":"Point","properties":{"Station_ID":"PA-NH-15","Station_Nam":"PORTLAND 2.7 WNW, PA","Latitude":"40.93750","Longitude":"-75.14450","Snowdepth":"10.000","Units":"in","Rept_Date":"2021-03-01 12"},"coordinates":[5048,1947]},{"type":"Point","properties":{"Station_ID":"NY-RL-8","Station_Nam":"STONY POINT 0.7 NW, NY","Latitude":"41.23490","Longitude":"-74.00790","Snowdepth":"10.000","Units":"in","Rept_Date":"2021-03-01 12"},"coordinates":[5307,2169]},{"type":"Point","properties":{"Station_ID":"NY-PT-2","Station_Nam":"BEACON 4.2 ESE, NY","Latitude":"41.48070","Longitude":"-73.89110","Snowdepth":"10.000","Units":"in","Rept_Date":"2021-03-01 12"},"coordinates":[5334,2352]},{"type":"Point","properties":{"Station_ID":"NY-BM-14","Station_Nam":"WHITNEY POINT 1.7 SSE, NY","Latitude":"42.30837","Longitude":"-75.95690","Snowdepth":"10.000","Units":"in","Rept_Date":"2021-03-01 15"},"coordinates":[4862,2970]},{"type":"Point","properties":{"Station_ID":"NGLW3","Station_Nam":"NEW GLARUS","Latitude":"42.83500","Longitude":"-89.62080","Snowdepth":"10.000","Units":"in","Rept_Date":"2021-03-01 13"},"coordinates":[1740,3363]},{"type":"Point","properties":{"Station_ID":"MWOW3","Station_Nam":"MUKWONAGO","Latitude":"42.85380","Longitude":"-88.43550","Snowdepth":"10.000","Units":"in","Rept_Date":"2021-03-01 13"},"coordinates":[2011,3377]},{"type":"Point","properties":{"Station_ID":"MTQM4","Station_Nam":"MANISTIQUE WWTP","Latitude":"45.95120","Longitude":"-86.25130","Snowdepth":"10.000","Units":"in","Rept_Date":"2021-03-01 12"},"coordinates":[2510,5689]},{"type":"Point","properties":{"Station_ID":"MN-SL-15","Station_Nam":"CHISHOLM 0.4 WSW, MN","Latitude":"47.48557","Longitude":"-92.88690","Snowdepth":"10.000","Units":"in","Rept_Date":"2021-03-01 13"},"coordinates":[994,6834]},{"type":"Point","properties":{"Station_ID":"MN-SE-2","Station_Nam":"OWATONNA 0.8 E, MN","Latitude":"44.09170","Longitude":"-93.21380","Snowdepth":"10.000","Units":"in","Rept_Date":"2021-03-01 13"},"coordinates":[919,4301]},{"type":"Point","properties":{"Station_ID":"MN-MS-8","Station_Nam":"NEWFOLDEN 0.2 W, MN","Latitude":"48.35613","Longitude":"-96.33460","Snowdepth":"10.000","Units":"in","Rept_Date":"2021-03-01 14"},"coordinates":[206,7483]},{"type":"Point","properties":{"Station_ID":"MN-HN-72","Station_Nam":"MAPLE GROVE 2.9 NE, MN","Latitude":"45.13953","Longitude":"-93.42070","Snowdepth":"10.000","Units":"in","Rept_Date":"2021-03-01 14"},"coordinates":[872,5083]},{"type":"Point","properties":{"Station_ID":"MN-GH-28","Station_Nam":"CANNON FALLS 0.5 SE, MN","Latitude":"44.50866","Longitude":"-92.89526","Snowdepth":"10.000","Units":"in","Rept_Date":"2021-03-01 14"},"coordinates":[992,4612]},{"type":"Point","properties":{"Station_ID":"MN-CG-16","Station_Nam":"NORTH BRANCH 1.3 NNW, MN","Latitude":"45.53121","Longitude":"-92.97110","Snowdepth":"10.000","Units":"in","Rept_Date":"2021-03-01 12"},"coordinates":[975,5375]},{"type":"Point","properties":{"Station_ID":"MN-BU-37","Station_Nam":"MANKATO 3.3 SSW, MN","Latitude":"44.12777","Longitude":"-94.00596","Snowdepth":"10.000","Units":"in","Rept_Date":"2021-03-01 14"},"coordinates":[738,4328]},{"type":"Point","properties":{"Station_ID":"MN-AA-54","Station_Nam":"ANOKA 1.3 SSE, MN","Latitude":"45.19465","Longitude":"-93.37489","Snowdepth":"10.000","Units":"in","Rept_Date":"2021-03-01 13"},"coordinates":[883,5124]},{"type":"Point","properties":{"Station_ID":"MLLW3","Station_Nam":"MERRILL 8W","Latitude":"45.17810","Longitude":"-89.84810","Snowdepth":"10.000","Units":"in","Rept_Date":"2021-03-01 12"},"coordinates":[1688,5112]},{"type":"Point","properties":{"Station_ID":"MLCM5","Station_Nam":"MILACA","Latitude":"45.75320","Longitude":"-93.66170","Snowdepth":"10.000","Units":"in","Rept_Date":"2021-03-01 13"},"coordinates":[817,5541]},{"type":"Point","properties":{"Station_ID":"MI-AT-6","Station_Nam":"MANCELONA 0.5 ESE, MI","Latitude":"44.89981","Longitude":"-85.05100","Snowdepth":"10.000","Units":"in","Rept_Date":"2021-03-01 13"},"coordinates":[2784,4904]},{"type":"Point","properties":{"Station_ID":"MA-FR-13","Station_Nam":"CONWAY 2.9 NW, MA","Latitude":"42.54419","Longitude":"-72.72743","Snowdepth":"10.000","Units":"in","Rept_Date":"2021-03-01 12"},"coordinates":[5600,3146]},{"type":"Point","properties":{"Station_ID":"MA-ES-48","Station_Nam":"ANDOVER 0.6 E, MA","Latitude":"42.65659","Longitude":"-71.13048","Snowdepth":"10.000","Units":"in","Rept_Date":"2021-03-01 10"},"coordinates":[5965,3230]},