{"type":"Topology","objects":{"snowdepth_geo":{"type":"GeometryCollection","name":"snowdepth","crs":{"type":"name","properties":{"name":"urn:ogc:def:crs:OGC:1.3:CRS84"}},"geometries":[{"type":"Point","properties":{"Station_ID":"NJ-PS-42","Station_Nam":"WAYNE TWP 2.3 ESE, NJ","Latitude":"40.93060","Longitude":"-74.20700","Snowdepth":"84.000","Units":"in","Rept_Date":"2020-12-17 13"},"coordinates":[5405,3407]},{"type":"Point","properties":{"Station_ID":"PRKM4","Station_Nam":"MUNISING EAST","Latitude":"46.42580","Longitude":"-86.62000","Snowdepth":"76.500","Units":"in","Rept_Date":"2020-12-18 06"},"coordinates":[2492,6762]},{"type":"Point","properties":{"Station_ID":"MD-WH-1","Station_Nam":"WILLIAMSPORT 2.8 ENE, MD","Latitude":"39.60894","Longitude":"-77.76940","Snowdepth":"75.000","Units":"in","Rept_Date":"2020-12-17 11"},"coordinates":[4569,2600]},{"type":"Point","properties":{"Station_ID":"BGMN6","Station_Nam":"BINGHAMTON WFO","Latitude":"42.21160","Longitude":"-75.98580","Snowdepth":"39.000","Units":"in","Rept_Date":"2020-12-18 05"},"coordinates":[4988,4189]},{"type":"Point","properties":{"Station_ID":"NY-BM-7","Station_Nam":"VESTAL 2.8 SSE, NY","Latitude":"42.04930","Longitude":"-76.02880","Snowdepth":"35.500","Units":"in","Rept_Date":"2020-12-17 17"},"coordinates":[4978,4090]},{"type":"Point","properties":{"Station_ID":"LKPN3","Station_Nam":"LAKEPORT 2","Latitude":"43.54910","Longitude":"-71.46450","Snowdepth":"34.000","Units":"in","Rept_Date":"2020-12-17 18"},"coordinates":[6049,5006]},{"type":"Point","properties":{"Station_ID":"NY-SR-35","Station_Nam":"ROUND LAKE 4.1 NE, NY","Latitude":"42.97760","Longitude":"-73.73750","Snowdepth":"31.500","Units":"in","Rept_Date":"2020-12-17 13"},"coordinates":[5516,4657]},{"type":"Point","properties":{"Station_ID":"GNEN6","Station_Nam":"GREENE","Latitude":"42.32440","Longitude":"-75.77170","Snowdepth":"31.000","Units":"in","Rept_Date":"2020-12-17 20"},"coordinates":[5038,4258]},{"type":"Point","properties":{"Station_ID":"NY-SC-20","Station_Nam":"ROTTERDAM 0.9 NW, NY","Latitude":"42.78862","Longitude":"-73.96671","Snowdepth":"30.500","Units":"in","Rept_Date":"2020-12-17 13"},"coordinates":[5462,4542]},{"type":"Point","properties":{"Station_ID":"VT-BN-3","Station_Nam":"LANDGROVE 1.1 NNE, VT","Latitude":"43.29092","Longitude":"-72.83260","Snowdepth":"30.000","Units":"in","Rept_Date":"2020-12-17 13"},"coordinates":[5728,4848]},{"type":"Point","properties":{"Station_ID":"SHHN6","Station_Nam":"SCHOHARIE VILLAGE","Latitude":"42.66500","Longitude":"-74.30360","Snowdepth":"30.000","Units":"in","Rept_Date":"2020-12-17 12"},"coordinates":[5383,4466]},{"type":"Point","properties":{"Station_ID":"NY-MG-5","Station_Nam":"AMSTERDAM 1.0 NNW, NY","Latitude":"42.95467","Longitude":"-74.20085","Snowdepth":"30.000","Units":"in","Rept_Date":"2020-12-17 17"},"coordinates":[5407,4643]},{"type":"Point","properties":{"Station_ID":"NY-DL-32","Station_Nam":"DELHI 6.6 WNW, NY","Latitude":"42.32118","Longitude":"-75.02991","Snowdepth":"30.000","Units":"in","Rept_Date":"2020-12-17 12"},"coordinates":[5212,4256]},{"type":"Point","properties":{"Station_ID":"NY-CN-9","Station_Nam":"NORWICH 5.4 W, NY","Latitude":"42.53356","Longitude":"-75.63060","Snowdepth":"30.000","Units":"in","Rept_Date":"2020-12-17 12"},"coordinates":[5071,4386]},{"type":"Point","properties":{"Station_ID":"NY-BM-4","Station_Nam":"ENDICOTT 5.2 SSE, NY","Latitude":"42.02958","Longitude":"-76.02130","Snowdepth":"30.000","Units":"in","Rept_Date":"2020-12-17 12"},"coordinates":[4980,4078]},{"type":"Point","properties":{"Station_ID":"NY-BM-1","Station_Nam":"CHENANGO FORKS 3.0 SE, NY","Latitude":"42.19300","Longitude":"-75.84800","Snowdepth":"30.000","Units":"in","Rept_Date":"2020-12-17 13"},"coordinates":[5020,4178]},{"type":"Point","properties":{"Station_ID":"PERV1","Station_Nam":"PERU","Latitude":"43.26670","Longitude":"-72.90000","Snowdepth":"29.000","Units":"in","Rept_Date":"2020-12-17 12"},"coordinates":[5712,4834]},{"type":"Point","properties":{"Station_ID":"WITN6","Station_Nam":"WHITNEY POINT DAM","Latitude":"42.34180","Longitude":"-75.96530","Snowdepth":"28.000","Units":"in","Rept_Date":"2020-12-17 15"},"coordinates":[4993,4269]},{"type":"Point","properties":{"Station_ID":"NY-SC-29","Station_Nam":"SCHENECTADY 1.6 NE, NY","Latitude":"42.81519","Longitude":"-73.90258","Snowdepth":"28.000","Units":"in","Rept_Date":"2020-12-17 17"},"coordinates":[5477,4558]},{"type":"Point","properties":{"Station_ID":"COVP1","Station_Nam":"COVINGTON 2WSW","Latitude":"41.73330","Longitude":"-77.11670","Snowdepth":"28.000","Units":"in","Rept_Date":"2020-12-17 12"},"coordinates":[4722,3897]},{"type":"Point","properties":{"Station_ID":"NY-TG-15","Station_Nam":"BERKSHIRE 1.9 ENE, NY","Latitude":"42.31910","Longitude":"-76.21940","Snowdepth":"27.500","Units":"in","Rept_Date":"2020-12-17 13"},"coordinates":[4933,4255]},{"type":"Point","properties":{"Station_ID":"NY-SC-2","Station_Nam":"SCOTIA 1.1 NW, NY","Latitude":"42.84473","Longitude":"-73.97480","Snowdepth":"27.500","Units":"in","Rept_Date":"2020-12-17 11"},"coordinates":[5460,4576]},{"type":"Point","properties":{"Station_ID":"NY-OT-31","Station_Nam":"MARYLAND 1.8 W, NY","Latitude":"42.53310","Longitude":"-74.92090","Snowdepth":"27.500","Units":"in","Rept_Date":"2020-12-17 15"},"coordinates":[5238,4386]},{"type":"Point","properties":{"Station_ID":"NY-BM-24","Station_Nam":"BINGHAMTON 1.3 ENE, NY","Latitude":"42.10981","Longitude":"-75.88580","Snowdepth":"27.500","Units":"in","Rept_Date":"2020-12-17 15"},"coordinates":[5011,4127]},{"type":"Point","properties":{"Station_ID":"NY-WR-19","Station_Nam":"GLENS FALLS 1.6 W, NY","Latitude":"43.31313","Longitude":"-73.67784","Snowdepth":"27.200","Units":"in","Rept_Date":"2020-12-17 13"},"coordinates":[5530,4862]},{"type":"Point","properties":{"Station_ID":"NY-AB-54","Station_Nam":"ALTAMONT 2.9 SW, NY","Latitude":"42.68182","Longitude":"-74.08326","Snowdepth":"27.000","Units":"in","Rept_Date":"2020-12-17 12"},"coordinates":[5434,4476]},{"type":"Point","properties":{"Station_ID":"NY-TG-26","Station_Nam":"CANDOR 0.7 NW, NY","Latitude":"42.23428","Longitude":"-76.34758","Snowdepth":"26.000","Units":"in","Rept_Date":"2020-12-17 12"},"coordinates":[4903,4203]},{"type":"Point","properties":{"Station_ID":"NY-SC-27","Station_Nam":"NISKAYUNA 2.9 SSE, NY","Latitude":"42.77911","Longitude":"-73.87242","Snowdepth":"26.000","Units":"in","Rept_Date":"2020-12-17 12"},"coordinates":[5484,4536]},{"type":"Point","properties":{"Station_ID":"NH-MR-6","Station_Nam":"DANBURY 2.2 ESE, NH","Latitude":"43.52000","Longitude":"-71.81900","Snowdepth":"26.000","Units":"in","Rept_Date":"2020-12-17 13"},"coordinates":[5966,4988]},{"type":"Point","properties":{"Station_ID":"WLLP1","Station_Nam":"WELLSBORO 4 SW","Latitude":"41.70030","Longitude":"-77.38940","Snowdepth":"25.000","Units":"in","Rept_Date":"2020-12-17 12"},"coordinates":[4658,3877]},{"type":"Point","properties":{"Station_ID":"NY-TG-5","Station_Nam":"BERKSHIRE 2.0 N, NY","Latitude":"42.33463","Longitude":"-76.18990","Snowdepth":"25.000","Units":"in","Rept_Date":"2020-12-17 12"},"coordinates":[4940,4265]},{"type":"Point","properties":{"Station_ID":"NY-OT-11","Station_Nam":"HARTWICK, NY","Latitude":"42.65990","Longitude":"-75.05000","Snowdepth":"25.000","Units":"in","Rept_Date":"2020-12-17 14"},"coordinates":[5208,4463]},{"type":"Point","properties":{"Station_ID":"NY-TG-20","Station_Nam":"CANDOR 1.8 N, NY","Latitude":"42.25308","Longitude":"-76.33780","Snowdepth":"24.500","Units":"in","Rept_Date":"2020-12-17 12"},"coordinates":[4905,4215]},{"type":"Point","properties":{"Station_ID":"NY-SR-4","Station_Nam":"SARATOGA SPRINGS 0.5 S, NY","Latitude":"43.06032","Longitude":"-73.78010","Snowdepth":"24.000","Units":"in","Rept_Date":"2020-12-17 12"},"coordinates":[5506,4708]},{"type":"Point","properties":{"Station_ID":"ESDN6","Station_Nam":"EAST SIDNEY","Latitude":"42.33290","Longitude":"-75.22960","Snowdepth":"24.000","Units":"in","Rept_Date":"2020-12-17 17"},"coordinates":[5165,4263]},{"type":"Point","properties":{"Station_ID":"COBN6","Station_Nam":"COBLESKILL 2ESE","Latitude":"42.66710","Longitude":"-74.44230","Snowdepth":"24.000","Units":"in","Rept_Date":"2020-12-17 15"},"coordinates":[5350,4467]},{"type":"Point","properties":{"Station_ID":"NY-DL-24","Station_Nam":"WALTON 6.5 W, NY","Latitude":"42.16534","Longitude":"-75.25850","Snowdepth":"23.500","Units":"in","Rept_Date":"2020-12-17 12"},"coordinates":[5159,4161]},{"type":"Point","properties":{"Station_ID":"VT-WR-10","Station_Nam":"WEST WINDSOR 1.7 S, VT","Latitude":"43.46164","Longitude":"-72.49197","Snowdepth":"23.000","Units":"in","Rept_Date":"2020-12-17 12"},"coordinates":[5808,4953]},{"type":"Point","properties":{"Station_ID":"NY-CR-5","Station_Nam":"MARATHON 1.0 NW, NY","Latitude":"42.45161","Longitude":"-76.04370","Snowdepth":"23.000","Units":"in","Rept_Date":"2020-12-17 12"},"coordinates":[4974,4336]},{"type":"Point","properties":{"Station_ID":"NY-BM-21","Station_Nam":"WINDSOR 8.0 SE, NY","Latitude":"42.00992","Longitude":"-75.51420","Snowdepth":"23.000","Units":"in","Rept_Date":"2020-12-17 12"},"coordinates":[5099,4066]},{"type":"Point","properties":{"Station_ID":"DELN6","Station_Nam":"DELHI 2 SE","Latitude":"42.25580","Longitude":"-74.91270","Snowdepth":"23.000","Units":"in","Rept_Date":"2020-12-17 13"},"coordinates":[5240,4216]},{"type":"Point","properties":{"Station_ID":"NY-CM-24","Station_Nam":"CHEMUNG 5.7 N, NY","Latitude":"42.09130","Longitude":"-76.62810","Snowdepth":"22.500","Units":"in","Rept_Date":"2020-12-17 14"},"coordinates":[4837,4116]},{"type":"Point","properties":{"Station_ID":"WALN6","Station_Nam":"WALTON 2","Latitude":"42.18470","Longitude":"-75.14550","Snowdepth":"22.000","Units":"in","Rept_Date":"2020-12-17 10"},"coordinates":[5185,4173]},{"type":"Point","properties":{"Station_ID":"VT-WR-16","Station_Nam":"HARTLAND 1.6 NW, VT","Latitude":"43.55472","Longitude":"-72.42371","Snowdepth":"22.000","Units":"in","Rept_Date":"2020-12-17 12"},"coordinates":[5824,5009]},{"type":"Point","properties":{"Station_ID":"VT-BN-12","Station_Nam":"STAMFORD 5.0 NNE, VT","Latitude":"42.82000","Longitude":"-73.02000","Snowdepth":"22.000","Units":"in","Rept_Date":"2020-12-17 21"},"coordinates":[5684,4561]},{"type":"Point","properties":{"Station_ID":"NY-GR-14","Station_Nam":"LEXINGTON 1.5 N, NY","Latitude":"42.26024","Longitude":"-74.35875","Snowdepth":"22.000","Units":"in","Rept_Date":"2020-12-17 12"},"coordinates":[5370,4219]},{"type":"Point","properties":{"Station_ID":"PA-CR-1","Station_Nam":"EMPORIUM 2.6 S, PA","Latitude":"41.47342","Longitude":"-78.24330","Snowdepth":"21.500","Units":"in","Rept_Date":"2020-12-17 13"},"coordinates":[4458,3739]},{"type":"Point","properties":{"Station_ID":"VT-RT-25","Station_Nam":"WALLINGFORD 2.7 SSW, VT","Latitude":"43.43371","Longitude":"-72.99031","Snowdepth":"21.300","Units":"in","Rept_Date":"2020-12-17 12"},"coordinates":[5691,4936]},{"type":"Point","properties":{"Station_ID":"NY-SR-40","Station_Nam":"MECHANICVILLE 3.4 WSW, NY","Latitude":"42.88875","Longitude":"-73.75465","Snowdepth":"21.000","Units":"in","Rept_Date":"2020-12-17 14"},"coordinates":[5512,4603]},{"type":"Point","properties":{"Station_ID":"NY-DL-25","Station_Nam":"HOBART 4.8 ESE, NY","Latitude":"42.35230","Longitude":"-74.57830","Snowdepth":"21.000","Units":"in","Rept_Date":"2020-12-17 12"},"coordinates":[5318,4275]},{"type":"Point","properties":{"Station_ID":"NY-CM-6","Station_Nam":"ELMIRA 3.2 E, NY","Latitude":"42.08900","Longitude":"-76.74890","Snowdepth":"21.000","Units":"in","Rept_Date":"2020-12-17 14"},"coordinates":[4809,4115]},{"type":"Point","properties":{"Station_ID":"NY-AB-1","Station_Nam":"ALTAMONT 2.7 SSW, NY","Latitude":"42.66696","Longitude":"-74.05090","Snowdepth":"21.000","Units":"in","Rept_Date":"2020-12-17 12"},"coordinates":[5442,4467]},{"type":"Point","properties":{"Station_ID":"LAPP1","Station_Nam":"LAPORTE,PA","Latitude":"41.42470","Longitude":"-76.49250","Snowdepth":"21.000","Units":"in","Rept_Date":"2020-12-17 12"},"coordinates":[4869,3709]},{"type":"Point","properties":{"Station_ID":"DSRP1","Station_Nam":"DUSHORE","Latitude":"41.52160","Longitude":"-76.40430","Snowdepth":"21.000","Units":"in","Rept_Date":"2020-12-17 12"},"coordinates":[4890,3768]},{"type":"Point","properties":{"Station_ID":"ALB","Station_Nam":"ALBANY INTL AP","Latitude":"42.74920","Longitude":"-73.80190","Snowdepth":"21.000","Units":"in","Rept_Date":"2020-12-18 00"},"coordinates":[5500,4518]},{"type":"Point","properties":{"Station_ID":"VT-BN-7","Station_Nam":"MANCHESTER 2.8 ENE, VT","Latitude":"43.17274","Longitude":"-73.01811","Snowdepth":"20.500","Units":"in","Rept_Date":"2020-12-17 12"},"coordinates":[5684,4776]},{"type":"Point","properties":{"Station_ID":"VT-BN-14","Station_Nam":"SHAFTSBURY 0.4 WNW, VT","Latitude":"43.00650","Longitude":"-73.20214","Snowdepth":"20.500","Units":"in","Rept_Date":"2020-12-17 12"},"coordinates":[5641,4675]},{"type":"Point","properties":{"Station_ID":"NH-SL-15","Station_Nam":"CORNISH 1.1 ENE, NH","Latitude":"43.46970","Longitude":"-72.34900","Snowdepth":"20.500","Units":"in","Rept_Date":"2020-12-17 12"},"coordinates":[5841,4958]},{"type":"Point","properties":{"Station_ID":"VT-WH-25","Station_Nam":"PUTNEY 0.7 NE, VT","Latitude":"42.98326","Longitude":"-72.51215","Snowdepth":"20.000","Units":"in","Rept_Date":"2020-12-17 16"},"coordinates":[5803,4661]},{"type":"Point","properties":{"Station_ID":"PA-SS-16","Station_Nam":"NEW MILFORD 1.6 SSE, PA","Latitude":"41.85540","Longitude":"-75.71110","Snowdepth":"20.000","Units":"in","Rept_Date":"2020-12-17 14"},"coordinates":[5052,3972]},{"type":"Point","properties":{"Station_ID":"NY-AB-59","Station_Nam":"ALBANY 2.4 W, NY","Latitude":"42.66840","Longitude":"-73.84706","Snowdepth":"20.000","Units":"in","Rept_Date":"2020-12-17 13"},"coordinates":[5490,4468]},{"type":"Point","properties":{"Station_ID":"KALB","Station_Nam":"ALBANY INTERNATIONAL AIRPORT","Latitude":"42.75000","Longitude":"-73.80000","Snowdepth":"20.000","Units":"in","Rept_Date":"2020-12-18 06"},"coordinates":[5501,4518]},{"type":"Point","properties":{"Station_ID":"GLTP1","Station_Nam":"GALETON,PA","Latitude":"41.73330","Longitude":"-77.63330","Snowdepth":"20.000","Units":"in","Rept_Date":"2020-12-17 13"},"coordinates":[4601,3897]},{"type":"Point","properties":{"Station_ID":"BSKN6","Station_Nam":"BUSKIRK","Latitude":"42.93610","Longitude":"-73.43250","Snowdepth":"20.000","Units":"in","Rept_Date":"2020-12-17 12"},"coordinates":[5587,4632]},{"type":"Point","properties":{"Station_ID":"QOU","Station_Nam":"QOU","Latitude":"50.79250","Longitude":"-69.67470","Snowdepth":"19.685","Units":"in","Rept_Date":"2020-12-17 12"},"coordinates":[6469,9429]},{"type":"Point","properties":{"Station_ID":"NY-RN-27","Station_Nam":"TROY 2.8 NNE, NY","Latitude":"42.77260","Longitude":"-73.66057","Snowdepth":"19.300","Units":"in","Rept_Date":"2020-12-17 14"},"coordinates":[5534,4532]},{"type":"Point","properties":{"Station_ID":"SHBN6","Station_Nam":"SHERBURNE","Latitude":"42.67730","Longitude":"-75.50660","Snowdepth":"19.000","Units":"in","Rept_Date":"2020-12-17 11"},"coordinates":[5100,4474]},{"type":"Point","properties":{"Station_ID":"PA-EL-1","Station_Nam":"ST. MARYS 1.7 SE, PA","Latitude":"41.41069","Longitude":"-78.53480","Snowdepth":"19.000","Units":"in","Rept_Date":"2020-12-17 11"},"coordinates":[4390,3700]},{"type":"Point","properties":{"Station_ID":"LOKP1","Station_Nam":"SEWAGE PLANT","Latitude":"41.11670","Longitude":"-77.45000","Snowdepth":"19.000","Units":"in","Rept_Date":"2020-12-17 12"},"coordinates":[4644,3521]},{"type":"Point","properties":{"Station_ID":"HANN3","Station_Nam":"HANOVER","Latitude":"43.70520","Longitude":"-72.28550","Snowdepth":"19.000","Units":"in","Rept_Date":"2020-12-17 20"},"coordinates":[5856,5101]},{"type":"Point","properties":{"Station_ID":"EMRN6","Station_Nam":"ELMIRA","Latitude":"42.09970","Longitude":"-76.83580","Snowdepth":"19.000","Units":"in","Rept_Date":"2020-12-17 12"},"coordinates":[4788,4121]},{"type":"Point","properties":{"Station_ID":"COPN6","Station_Nam":"COOPERSTOWN","Latitude":"42.71660","Longitude":"-74.92660","Snowdepth":"19.000","Units":"in","Rept_Date":"2020-12-18 05"},"coordinates":[5236,4498]},{"type":"Point","properties":{"Station_ID":"BDDN3","Station_Nam":"BRADFORD 2","Latitude":"43.25880","Longitude":"-72.00210","Snowdepth":"19.000","Units":"in","Rept_Date":"2020-12-17 18"},"coordinates":[5923,4829]},{"type":"Point","properties":{"Station_ID":"PA-CN-10","Station_Nam":"BELLEFONTE 4.3 E, PA","Latitude":"40.92492","Longitude":"-77.68690","Snowdepth":"18.500","Units":"in","Rept_Date":"2020-12-17 13"},"coordinates":[4589,3404]},{"type":"Point","properties":{"Station_ID":"NY-SR-29","Station_Nam":"CLIFTON PARK 2.7 S, NY","Latitude":"42.82126","Longitude":"-73.78545","Snowdepth":"18.500","Units":"in","Rept_Date":"2020-12-17 11"},"coordinates":[5504,4562]},{"type":"Point","properties":{"Station_ID":"NY-AB-23","Station_Nam":"ALBANY 0.7 SW, NY","Latitude":"42.66019","Longitude":"-73.81030","Snowdepth":"18.500","Units":"in","Rept_Date":"2020-12-17 12"},"coordinates":[5498,4463]},{"type":"Point","properties":{"Station_ID":"PA-LY-7","Station_Nam":"JERSEY SHORE 0.9 S, PA","Latitude":"41.18707","Longitude":"-77.26568","Snowdepth":"18.200","Units":"in","Rept_Date":"2020-12-17 12"},"coordinates":[4688,3564]},{"type":"Point","properties":{"Station_ID":"WDSV1","Station_Nam":"WOODSTOCK","Latitude":"43.63030","Longitude":"-72.50720","Snowdepth":"18.000","Units":"in","Rept_Date":"2020-12-17 13"},"coordinates":[5804,5056]},{"type":"Point","properties":{"Station_ID":"VT-WH-30","Station_Nam":"MARLBORO 2.0 NNE, VT","Latitude":"42.88484","Longitude":"-72.70935","Snowdepth":"18.000","Units":"in","Rept_Date":"2020-12-17 14"},"coordinates":[5757,4600]},{"type":"Point","properties":{"Station_ID":"NY-RN-1","Station_Nam":"AVERILL PARK 0.9 WNW, NY","Latitude":"42.63910","Longitude":"-73.56980","Snowdepth":"18.000","Units":"in","Rept_Date":"2020-12-17 13"},"coordinates":[5555,4450]},{"type":"Point","properties":{"Station_ID":"NOHV1","Station_Nam":"NORTH HARTLAND LAKE","Latitude":"43.60270","Longitude":"-72.36210","Snowdepth":"18.000","Units":"in","Rept_Date":"2020-12-17 12"},"coordinates":[5838,5039]},{"type":"Point","properties":{"Station_ID":"MRLV1","Station_Nam":"MARLBORO","Latitude":"42.86000","Longitude":"-72.72000","Snowdepth":"18.000","Units":"in","Rept_Date":"2020-12-17 14"},"coordinates":[5754,4585]},{"type":"Point","properties":{"Station_ID":"MA-FR-25","Station_Nam":"CONWAY 2.7 NW, MA","Latitude":"42.54264","Longitude":"-72.72171","Snowdepth":"18.000","Units":"in","Rept_Date":"2020-12-17 19"},"coordinates":[5754,4392]},{"type":"Point","properties":{"Station_ID":"CJRP1","Station_Nam":"COUDERSPORT 7SE","Latitude":"41.73920","Longitude":"-77.97110","Snowdepth":"18.000","Units":"in","Rept_Date":"2020-12-17 12"},"coordinates":[4522,3901]},{"type":"Point","properties":{"Station_ID":"NY-DL-28","Station_Nam":"FLEISCHMANNS 5.7 N, NY","Latitude":"42.23779","Longitude":"-74.52335","Snowdepth":"17.500","Units":"in","Rept_Date":"2020-12-17 12"},"coordinates":[5331,4205]},{"type":"Point","properties":{"Station_ID":"VT-WH-17","Station_Nam":"ROCKINGHAM 1.1 NNE, VT","Latitude":"43.20388","Longitude":"-72.48222","Snowdepth":"17.000","Units":"in","Rept_Date":"2020-12-17 13"},"coordinates":[5810,4795]},{"type":"Point","properties":{"Station_ID":"PHON6","Station_Nam":"PHOENICIA 2SW","Latitude":"42.06420","Longitude":"-74.34080","Snowdepth":"17.000","Units":"in","Rept_Date":"2020-12-17 12"},"coordinates":[5374,4099]},{"type":"Point","properties":{"Station_ID":"PA-IN-4","Station_Nam":"INDIANA 2.8 E, PA","Latitude":"40.62230","Longitude":"-79.10330","Snowdepth":"17.000","Units":"in","Rept_Date":"2020-12-17 12"},"coordinates":[4256,3219]},{"type":"Point","properties":{"Station_ID":"NY-RN-20","Station_Nam":"TROY 2.1 NNE, NY","Latitude":"42.75930","Longitude":"-73.65283","Snowdepth":"17.000","Units":"in","Rept_Date":"2020-12-17 13"},"coordinates":[5535,4524]},{"type":"Point","properties":{"Station_ID":"NY-GR-7","Station_Nam":"GREENVILLE 0.7 E, NY","Latitude":"42.41400","Longitude":"-74.00900","Snowdepth":"17.000","Units":"in","Rept_Date":"2020-12-17 12"},"coordinates":[5452,4313]},{"type":"Point","properties":{"Station_ID":"NY-GR-5","Station_Nam":"NEW BALTIMORE 0.2 SE, NY","Latitude":"42.44294","Longitude":"-73.78660","Snowdepth":"17.000","Units":"in","Rept_Date":"2020-12-17 13"},"coordinates":[5504,4331]},{"type":"Point","properties":{"Station_ID":"NY-CB-8","Station_Nam":"LIVINGSTON 0.7 SSW, NY","Latitude":"42.13308","Longitude":"-73.78540","Snowdepth":"17.000","Units":"in","Rept_Date":"2020-12-17 13"},"coordinates":[5504,4141]},{"type":"Point","properties":{"Station_ID":"NY-AB-21","Station_Nam":"NWS ALBANY, NY","Latitude":"42.69180","Longitude":"-73.83110","Snowdepth":"17.000","Units":"in","Rept_Date":"2020-12-17 12"},"coordinates":[5494,4483]},{"type":"Point","properties":{"Station_ID":"NH-SL-3","Station_Nam":"WEST UNITY 0.7 WSW, NH","Latitude":"43.28652","Longitude":"-72.32970","Snowdepth":"17.000","Units":"in","Rept_Date":"2020-12-17 12"},"coordinates":[5846,4846]},{"type":"Point","properties":{"Station_ID":"NEWN3","Station_Nam":"NEWPORT","Latitude":"43.37720","Longitude":"-72.18120","Snowdepth":"17.000","Units":"in","Rept_Date":"2020-12-17 12"},"coordinates":[5881,4901]},{"type":"Point","properties":{"Station_ID":"KCEF","Station_Nam":"CHICOPEE FALLS / WESTOVER AIR FORCE BASE","Latitude":"42.20000","Longitude":"-72.53333","Snowdepth":"17.000","Units":"in","Rept_Date":"2020-12-17 18"},"coordinates":[5798,4182]},{"type":"Point","properties":{"Station_ID":"MLZ","Station_Nam":"MLZ","Latitude":"50.66170","Longitude":"-68.82360","Snowdepth":"16.929","Units":"in","Rept_Date":"2020-12-17 12"},"coordinates":[6669,9349]},{"type":"Point","properties":{"Station_ID":"NY-MG-6","Station_Nam":"ST. JOHNSVILLE 0.2 WSW, NY","Latitude":"42.99932","Longitude":"-74.68132","Snowdepth":"16.800","Units":"in","Rept_Date":"2020-12-17 13"},"coordinates":[5294,4670]},{"type":"Point","properties":{"Station_ID":"NY-ST-3","Station_Nam":"SOUTH CORNING 4.7 S, NY","Latitude":"42.05672","Longitude":"-77.04850","Snowdepth":"16.500","Units":"in","Rept_Date":"2020-12-17 14"},"coordinates":[4738,4095]},{"type":"Point","properties":{"Station_ID":"NY-HR-16","Station_Nam":"ILION 0.7 WSW, NY","Latitude":"43.00880","Longitude":"-75.05390","Snowdepth":"16.500","Units":"in","Rept_Date":"2020-12-17 12"},"coordinates":[5207,4676]},{"type":"Point","properties":{"Station_ID":"NY-FL-9","Station_Nam":"NORTHVILLE 0.6 N, NY","Latitude":"43.23027","Longitude":"-74.17222","Snowdepth":"16.500","Units":"in","Rept_Date":"2020-12-17 11"},"coordinates":[5414,4811]},{"type":"Point","properties":{"Station_ID":"NY-CR-1","Station_Nam":"FREETOWN 1.0 NE, NY","Latitude":"42.53299","Longitude":"-76.02111","Snowdepth":"16.500","Units":"in","Rept_Date":"2020-12-17 12"},"coordinates":[4980,4386]},{"type":"Point","properties":{"Station_ID":"NY-CB-16","Station_Nam":"VALATIE 2.9 N, NY","Latitude":"42.45655","Longitude":"-73.66812","Snowdepth":"16.500","Units":"in","Rept_Date":"2020-12-17 12"},"coordinates":[5532,4339]},{"type":"Point","properties":{"Station_ID":"NH-MR-60","Station_Nam":"SOUTH SUTTON 1.3 SE, NH","Latitude":"43.29531","Longitude":"-71.90238","Snowdepth":"16.500","Units":"in","Rept_Date":"2020-12-17 13"},"coordinates":[5946,4851]},{"type":"Point","properties":{"Station_ID":"MA-BE-21","Station_Nam":"CHESHIRE 0.5 NNW, MA","Latitude":"42.56315","Longitude":"-73.15701","Snowdepth":"16.500","Units":"in","Rept_Date":"2020-12-17 12"},"coordinates":[5652,4404]},{"type":"Point","properties":{"Station_ID":"QGO","Station_Nam":"QGO","Latitude":"48.85500","Longitude":"-74.20640","Snowdepth":"16.063","Units":"in","Rept_Date":"2020-12-17 12"},"coordinates":[5405,8246]},{"type":"Point","properties":{"Station_ID":"PA-NM-3","Station_Nam":"MUNCY 4.7 SSE, PA","Latitude":"41.13610","Longitude":"-76.76508","Snowdepth":"16.000","Units":"in","Rept_Date":"2020-12-17 12"},"coordinates":[4805,3533]},{"type":"Point","properties":{"Station_ID":"NY-UL-31","Station_Nam":"HURLEY 2.2 S, NY","Latitude":"41.88149","Longitude":"-74.05626","Snowdepth":"16.000","Units":"in","Rept_Date":"2020-12-17 12"},"coordinates":[5441,3988]},{"type":"Point","properties":{"Station_ID":"NY-TM-45","Station_Nam":"NEWFIELD HAMLET 4.3 S, NY","Latitude":"42.29650","Longitude":"-76.60676","Snowdepth":"16.000","Units":"in","Rept_Date":"2020-12-17 14"},"coordinates":[4842,4241]},{"type":"Point","properties":{"Station_ID":"NH-MR-4","Station_Nam":"BOW 1.6 NW, NH","Latitude":"43.14994","Longitude":"-71.55650","Snowdepth":"16.000","Units":"in","Rept_Date":"2020-12-17 13"},"coordinates":[6027,4762]},{"type":"Point","properties":{"Station_ID":"NH-BK-2","Station_Nam":"BELMONT 1.7 SW, NH","Latitude":"43.43556","Longitude":"-71.50690","Snowdepth":"16.000","Units":"in","Rept_Date":"2020-12-17 12"},"coordinates":[6039,4937]},{"type":"Point","properties":{"Station_ID":"MA-HS-7","Station_Nam":"PLAINFIELD 2.2 SW, MA","Latitude":"42.49272","Longitude":"-72.94540","Snowdepth":"16.000","Units":"in","Rept_Date":"2020-12-17 13"},"coordinates":[5701,4361]},{"type":"Point","properties":{"Station_ID":"VT-WR-23","Station_Nam":"HARTFORD 1.0 NNW, VT","Latitude":"43.67809","Longitude":"-72.37554","Snowdepth":"15.800","Units":"in","Rept_Date":"2020-12-17 13"},"coordinates":[5835,5085]},{"type":"Point","properties":{"Station_ID":"PA-CN-5","Station_Nam":"STATE COLLEGE 2.6 NW, PA","Latitude":"40.81620","Longitude":"-77.89540","Snowdepth":"15.500","Units":"in","Rept_Date":"2020-12-17 12"},"coordinates":[4540,3337]},{"type":"Point","properties":{"Station_ID":"PA-CN-32","Station_Nam":"PORT MATILDA 2.0 ESE, PA","Latitude":"40.79092","Longitude":"-78.01588","Snowdepth":"15.500","Units":"in","Rept_Date":"2020-12-17 13"},"coordinates":[4511,3322]},{"type":"Point","properties":{"Station_ID":"NY-GR-6","Station_Nam":"FREEHOLD 3.4 E, NY","Latitude":"42.36045","Longitude":"-73.98350","Snowdepth":"15.500","Units":"in","Rept_Date":"2020-12-17 12"},"coordinates":[5458,4280]},{"type":"Point","properties":{"Station_ID":"NY-DT-29","Station_Nam":"POUGHKEEPSIE 5.3 S, NY","Latitude":"41.61955","Longitude":"-73.91306","Snowdepth":"15.500","Units":"in","Rept_Date":"2020-12-17 14"},"coordinates":[5474,3828]},{"type":"Point","properties":{"Station_ID":"NY-DL-23","Station_Nam":"LONG EDDY 6.5 NNE, NY","Latitude":"41.93510","Longitude":"-75.07840","Snowdepth":"15.500","Units":"in","Rept_Date":"2020-12-17 13"},"coordinates":[5201,4021]},{"type":"Point","properties":{"Station_ID":"NH-RC-48","Station_Nam":"NORTHWOOD 2.9 WSW, NH","Latitude":"43.20114","Longitude":"-71.25750","Snowdepth":"15.500","Units":"in","Rept_Date":"2020-12-17 12"},"coordinates":[6098,4794]},{"type":"Point","properties":{"Station_ID":"NY-AB-47","Station_Nam":"DELMAR 1.0 S, NY","Latitude":"42.61013","Longitude":"-73.83172","Snowdepth":"15.400","Units":"in","Rept_Date":"2020-12-17 12"},"coordinates":[5493,4433]},{"type":"Point","properties":{"Station_ID":"MA-BE-2","Station_Nam":"GREAT BARRINGTON 0.4 N, MA","Latitude":"42.19982","Longitude":"-73.35515","Snowdepth":"15.400","Units":"in","Rept_Date":"2020-12-18 05"},"coordinates":[5605,4182]},{"type":"Point","properties":{"Station_ID":"PTLQ6","Station_Nam":"PORTAGE LAKE","Latitude":"49.06950","Longitude":"-86.65940","Snowdepth":"15.350","Units":"in","Rept_Date":"2020-12-18 06"},"coordinates":[2483,8377]},{"type":"Point","properties":{"Station_ID":"HLSN3","Station_Nam":"HERMIT LAKE SNOTEL","Latitude":"44.26130","Longitude":"-71.28320","Snowdepth":"15.160","Units":"in","Rept_Date":"2020-12-18 06"},"coordinates":[6092,5441]},{"type":"Point","properties":{"Station_ID":"VT-BN-13","Station_Nam":"NORTH BENNINGTON 0.5 N, VT","Latitude":"42.93714","Longitude":"-73.24389","Snowdepth":"15.100","Units":"in","Rept_Date":"2020-12-17 12"},"coordinates":[5631,4632]},{"type":"Point","properties":{"Station_ID":"ROWM3","Station_Nam":"ROWE 3NE","Latitude":"42.73500","Longitude":"-72.86920","Snowdepth":"15.000","Units":"in","Rept_Date":"2020-12-17 14"},"coordinates":[5719,4509]},{"type":"Point","properties":{"Station_ID":"PLBP1","Station_Nam":"PHILIPSBURG,PA","Latitude":"40.87220","Longitude":"-78.21530","Snowdepth":"15.000","Units":"in","Rept_Date":"2020-12-17 12"},"coordinates":[4465,3372]},{"type":"Point","properties":{"Station_ID":"PA-CN-31","Station_Nam":"STATE COLLEGE 2.4 WNW, PA","Latitude":"40.80639","Longitude":"-77.89776","Snowdepth":"15.000","Units":"in","Rept_Date":"2020-12-17 12"},"coordinates":[4539,3331]},{"type":"Point","properties":{"Station_ID":"NY-DT-34","Station_Nam":"HOPEWELL JUNCTION 2.8 NE, NY","Latitude":"41.61016","Longitude":"-73.75855","Snowdepth":"15.000","Units":"in","Rept_Date":"2020-12-17 11"},"coordinates":[5511,3822]},{"type":"Point","properties":{"Station_ID":"NH-MR-63","Station_Nam":"SUTTON MILLS 0.1 ENE, NH","Latitude":"43.33522","Longitude":"-71.95126","Snowdepth":"15.000","Units":"in","Rept_Date":"2020-12-17 12"},"coordinates":[5935,4875]},{"type":"Point","properties":{"Station_ID":"MLLP1","Station_Nam":"MILLHEIM,PA","Latitude":"40.88330","Longitude":"-77.48330","Snowdepth":"15.000","Units":"in","Rept_Date":"2020-12-17 12"},"coordinates":[4636,3378]},{"type":"Point","properties":{"Station_ID":"LAUP1","Station_Nam":"1.5MI S OF RT 30 ON SMIT (LAUREL RIDGE)","Latitude":"40.05000","Longitude":"-79.22060","Snowdepth":"15.000","Units":"in","Rept_Date":"2020-12-17 12"},"coordinates":[4229,2870]},{"type":"Point","properties":{"Station_ID":"DLSN6","Station_Nam":"DELANSON 2NE","Latitude":"42.76720","Longitude":"-74.17110","Snowdepth":"15.000","Units":"in","Rept_Date":"2020-12-17 12"},"coordinates":[5414,4529]},{"type":"Point","properties":{"Station_ID":"PA-WN-2","Station_Nam":"MOSCOW 9.7 ESE, PA","Latitude":"41.29084","Longitude":"-75.35500","Snowdepth":"14.700","Units":"in","Rept_Date":"2020-12-17 13"},"coordinates":[5136,3627]},{"type":"Point","properties":{"Station_ID":"NY-RN-24","Station_Nam":"NASSAU 4.2 ESE, NY","Latitude":"42.49091","Longitude":"-73.53462","Snowdepth":"14.500","Units":"in","Rept_Date":"2020-12-17 13"},"coordinates":[5563,4360]},{"type":"Point","properties":{"Station_ID":"NH-MR-26","Station_Nam":"PITTSFIELD 0.2 SSW, NH","Latitude":"43.29880","Longitude":"-71.33450","Snowdepth":"14.500","Units":"in","Rept_Date":"2020-12-17 13"},"coordinates":[6080,4853]},{"type":"Point","properties":{"Station_ID":"QLB","Station_Nam":"QLB","Latitude":"50.72360","Longitude":"-75.10000","Snowdepth":"14.370","Units":"in","Rept_Date":"2020-12-17 12"},"coordinates":[5196,9386]},{"type":"Point","properties":{"Station_ID":"PA-CN-33","Station_Nam":"PLEASANT GAP 0.7 NW, PA","Latitude":"40.87265","Longitude":"-77.74660","Snowdepth":"14.300","Units":"in","Rept_Date":"2020-12-17 12"},"coordinates":[4575,3372]},{"type":"Point","properties":{"Station_ID":"NH-MR-55","Station_Nam":"CANTERBURY 2.5 SSW, NH","Latitude":"43.30277","Longitude":"-71.57893","Snowdepth":"14.200","Units":"in","Rept_Date":"2020-12-17 12"},"coordinates":[6022,4856]},{"type":"Point","properties":{"Station_ID":"WHPN3","Station_Nam":"HOPKINTON LAKE","Latitude":"43.18900","Longitude":"-71.74600","Snowdepth":"14.000","Units":"in","Rept_Date":"2020-12-17 12"},"coordinates":[5983,4786]},{"type":"Point","properties":{"Station_ID":"VT-RT-24","Station_Nam":"MIDDLETOWN SPRINGS 0.9 WNW, VT","Latitude":"43.49194","Longitude":"-73.13350","Snowdepth":"14.000","Units":"in","Rept_Date":"2020-12-17 11"},"coordinates":[5657,4971]},{"type":"Point","properties":{"Station_ID":"PA-SN-2","Station_Nam":"SELINSGROVE 2.6 WNW, PA","Latitude":"40.81731","Longitude":"-76.90970","Snowdepth":"14.000","Units":"in","Rept_Date":"2020-12-17 12"},"coordinates":[4771,3338]},{"type":"Point","properties":{"Station_ID":"PA-NM-2","Station_Nam":"MOUNT CARMEL 1.1 WNW, PA","Latitude":"40.79898","Longitude":"-76.43220","Snowdepth":"14.000","Units":"in","Rept_Date":"2020-12-17 12"},"coordinates":[4883,3327]},{"type":"Point","properties":{"Station_ID":"PA-LC-27","Station_Nam":"RICHMONDALE 0.1 NE, PA","Latitude":"41.63767","Longitude":"-75.48170","Snowdepth":"14.000","Units":"in","Rept_Date":"2020-12-17 12"},"coordinates":[5106,3839]},{"type":"Point","properties":{"Station_ID":"PA-CN-3","Station_Nam":"STATE COLLEGE 2.4 ENE, PA","Latitude":"40.80670","Longitude":"-77.81670","Snowdepth":"14.000","Units":"in","Rept_Date":"2020-12-17 14"},"coordinates":[4558,3332]},{"type":"Point","properties":{"Station_ID":"PA-CN-18","Station_Nam":"PORT MATILDA 2.2 ESE, PA","Latitude":"40.79117","Longitude":"-78.01180","Snowdepth":"14.000","Units":"in","Rept_Date":"2020-12-17 12"},"coordinates":[4512,3322]},{"type":"Point","properties":{"Station_ID":"NY-ST-41","Station_Nam":"PAINTED POST 0.7 SSE, NY","Latitude":"42.15370","Longitude":"-77.08690","Snowdepth":"14.000","Units":"in","Rept_Date":"2020-12-17 12"},"coordinates":[4729,4154]},{"type":"Point","properties":{"Station_ID":"NY-OR-18","Station_Nam":"WALDEN 1.3 S, NY","Latitude":"41.54102","Longitude":"-74.18790","Snowdepth":"14.000","Units":"in","Rept_Date":"2020-12-17 12"},"coordinates":[5410,3780]},{"type":"Point","properties":{"Station_ID":"NY-OR-17","Station_Nam":"PINE BUSH 3.4 WSW, NY","Latitude":"41.58796","Longitude":"-74.35766","Snowdepth":"14.000","Units":"in","Rept_Date":"2020-12-17 14"},"coordinates":[5370,3809]},{"type":"Point","properties":{"Station_ID":"NH-GR-55","Station_Nam":"BRISTOL 3.7 E, NH","Latitude":"43.60517","Longitude":"-71.67158","Snowdepth":"14.000","Units":"in","Rept_Date":"2020-12-17 12"},"coordinates":[6000,5040]},{"type":"Point","properties":{"Station_ID":"MSRN3","Station_Nam":"MASCOMA RIVER","Latitude":"43.78330","Longitude":"-72.03330","Snowdepth":"14.000","Units":"in","Rept_Date":"2020-12-18 06"},"coordinates":[5916,5149]},{"type":"Point","properties":{"Station_ID":"INDP1","Station_Nam":"INDIANA","Latitude":"40.59670","Longitude":"-79.11780","Snowdepth":"14.000","Units":"in","Rept_Date":"2020-12-17 12"},"coordinates":[4253,3203]},{"type":"Point","properties":{"Station_ID":"EHYM3","Station_Nam":"EAST HAWLEY","Latitude":"42.57410","Longitude":"-72.86790","Snowdepth":"14.000","Units":"in","Rept_Date":"2020-12-17 14"},"coordinates":[5720,4411]},{"type":"Point","properties":{"Station_ID":"DJBP1","Station_Nam":"DUBOIS 2S","Latitude":"41.09470","Longitude":"-78.75550","Snowdepth":"14.000","Units":"in","Rept_Date":"2020-12-17 12"},"coordinates":[4338,3507]},{"type":"Point","properties":{"Station_ID":"CORN6","Station_Nam":"CORNING","Latitude":"42.13410","Longitude":"-77.06910","Snowdepth":"14.000","Units":"in","Rept_Date":"2020-12-17 12"},"coordinates":[4734,4142]},{"type":"Point","properties":{"Station_ID":"CON","Station_Nam":"CONCORD MUNI ARPT","Latitude":"43.20280","Longitude":"-71.50220","Snowdepth":"14.000","Units":"in","Rept_Date":"2020-12-17 12"},"coordinates":[6040,4795]},{"type":"Point","properties":{"Station_ID":"ACEP1","Station_Nam":"DONEGAL 2 NW","Latitude":"40.13470","Longitude":"-79.40720","Snowdepth":"14.000","Units":"in","Rept_Date":"2020-12-17 12"},"coordinates":[4185,2921]},{"type":"Point","properties":{"Station_ID":"ABNM3","Station_Nam":"ASHBURNHAM NORTH","Latitude":"42.66170","Longitude":"-71.93590","Snowdepth":"14.000","Units":"in","Rept_Date":"2020-12-17 12"},"coordinates":[5938,4464]},{"type":"Point","properties":{"Station_ID":"NY-MG-3","Station_Nam":"HESSVILLE 1.8 WSW, NY","Latitude":"42.86430","Longitude":"-74.72140","Snowdepth":"13.800","Units":"in","Rept_Date":"2020-12-17 13"},"coordinates":[5285,4588]},{"type":"Point","properties":{"Station_ID":"NY-UL-29","Station_Nam":"HIGHLAND 0.2 SW, NY","Latitude":"41.71486","Longitude":"-73.96839","Snowdepth":"13.500","Units":"in","Rept_Date":"2020-12-17 12"},"coordinates":[5461,3886]},{"type":"Point","properties":{"Station_ID":"NY-TM-42","Station_Nam":"ITHACA 6.4 E, NY","Latitude":"42.43350","Longitude":"-76.37860","Snowdepth":"13.500","Units":"in","Rept_Date":"2020-12-17 12"},"coordinates":[4896,4325]},{"type":"Point","properties":{"Station_ID":"NY-DT-24","Station_Nam":"RED HOOK 1.2 NNE, NY","Latitude":"42.00967","Longitude":"-73.86419","Snowdepth":"13.500","Units":"in","Rept_Date":"2020-12-17 12"},"coordinates":[5486,4066]},{"type":"Point","properties":{"Station_ID":"NH-MR-47","Station_Nam":"DUNBARTON 3.8 SE, NH","Latitude":"43.08532","Longitude":"-71.54419","Snowdepth":"13.500","Units":"in","Rept_Date":"2020-12-17 14"},"coordinates":[6030,4723]},{"type":"Point","properties":{"Station_ID":"ME-AN-40","Station_Nam":"MECHANIC FALLS 2.7 S, ME","Latitude":"44.07342","Longitude":"-70.40151","Snowdepth":"13.500","Units":"in","Rept_Date":"2020-12-17 22"},"coordinates":[6298,5326]},{"type":"Point","properties":{"Station_ID":"MA-MD-55","Station_Nam":"HOLLISTON 0.7 W, MA","Latitude":"42.19946","Longitude":"-71.44789","Snowdepth":"13.500","Units":"in","Rept_Date":"2020-12-17 20"},"coordinates":[6053,4182]},{"type":"Point","properties":{"Station_ID":"MA-HS-14","Station_Nam":"PLAINFIELD 2.4 ESE, MA","Latitude":"42.49792","Longitude":"-72.87769","Snowdepth":"13.500","Units":"in","Rept_Date":"2020-12-17 12"},"coordinates":[5717,4364]},{"type":"Point","properties":{"Station_ID":"MA-FR-17","Station_Nam":"BUCKLAND 1.8 ESE, MA","Latitude":"42.58900","Longitude":"-72.75110","Snowdepth":"13.500","Units":"in","Rept_Date":"2020-12-17 13"},"coordinates":[5747,4420]},{"type":"Point","properties":{"Station_ID":"QCU","Station_Nam":"QCU","Latitude":"47.82750","Longitude":"-76.59830","Snowdepth":"13.307","Units":"in","Rept_Date":"2020-12-17 12"},"coordinates":[4844,7618]},{"type":"Point","properties":{"Station_ID":"NH-BK-1","Station_Nam":"TILTON NORTHFIELD 3.3 NE, NH","Latitude":"43.48000","Longitude":"-71.55000","Snowdepth":"13.200","Units":"in","Rept_Date":"2020-12-17 12"},"coordinates":[6029,4964]},{"type":"Point","properties":{"Station_ID":"QMD","Station_Nam":"QMD","Latitude":"49.29060","Longitude":"-75.84500","Snowdepth":"13.071","Units":"in","Rept_Date":"2020-12-17 12"},"coordinates":[5021,8512]},{"type":"Point","properties":{"Station_ID":"VT-WH-26","Station_Nam":"WESTMINSTER 5.5 NW, VT","Latitude":"43.12572","Longitude":"-72.53419","Snowdepth":"13.000","Units":"in","Rept_Date":"2020-12-17 12"},"coordinates":[5798,4748]},{"type":"Point","properties":{"Station_ID":"TYRP1","Station_Nam":"TYRONE,PA","Latitude":"40.66670","Longitude":"-78.23330","Snowdepth":"13.000","Units":"in","Rept_Date":"2020-12-17 12"},"coordinates":[4460,3246]},{"type":"Point","properties":{"Station_ID":"SUNP1","Station_Nam":"SUNBURY","Latitude":"40.85440","Longitude":"-76.79250","Snowdepth":"13.000","Units":"in","Rept_Date":"2020-12-17 13"},"coordinates":[4799,3361]},{"type":"Point","properties":{"Station_ID":"STCP1","Station_Nam":"STATE COLLEGE,PA","Latitude":"40.80000","Longitude":"-77.86670","Snowdepth":"13.000","Units":"in","Rept_Date":"2020-12-17 12"},"coordinates":[4546,3328]},{"type":"Point","properties":{"Station_ID":"SNOW2","Station_Nam":"SNOWSHOE","Latitude":"38.39900","Longitude":"-79.99490","Snowdepth":"13.000","Units":"in","Rept_Date":"2020-12-17 11"},"coordinates":[4047,1862]},{"type":"Point","properties":{"Station_ID":"SLGP1","Station_Nam":"SELINSGROVE,PA","Latitude":"40.78310","Longitude":"-76.86110","Snowdepth":"13.000","Units":"in","Rept_Date":"2020-12-17 12"},"coordinates":[4782,3317]},{"type":"Point","properties":{"Station_ID":"RKHN6","Station_Nam":"ROCK HILL 3 SW","Latitude":"41.59170","Longitude":"-74.61410","Snowdepth":"13.000","Units":"in","Rept_Date":"2020-12-17 12"},"coordinates":[5310,3811]},{"type":"Point","properties":{"Station_ID":"RDWP1","Station_Nam":"RIDGWAY,PA","Latitude":"41.41670","Longitude":"-78.75000","Snowdepth":"13.000","Units":"in","Rept_Date":"2020-12-17 12"},"coordinates":[4339,3704]},{"type":"Point","properties":{"Station_ID":"PGLP1","Station_Nam":"GLENDALE LAKE","Latitude":"40.65000","Longitude":"-78.55000","Snowdepth":"13.000","Units":"in","Rept_Date":"2020-12-17 15"},"coordinates":[4386,3236]},{"type":"Point","properties":{"Station_ID":"PA-MN-16","Station_Nam":"MOUNT POCONO 0.7 N, PA","Latitude":"41.13190","Longitude":"-75.35804","Snowdepth":"13.000","Units":"in","Rept_Date":"2020-12-17 12"},"coordinates":[5135,3530]},{"type":"Point","properties":{"Station_ID":"PA-LC-24","Station_Nam":"ARCHBALD 1.6 SW, PA","Latitude":"41.49106","Longitude":"-75.56380","Snowdepth":"13.000","Units":"in","Rept_Date":"2020-12-17 13"},"coordinates":[5087,3749]},{"type":"Point","properties":{"Station_ID":"PA-CN-29","Station_Nam":"BOALSBURG 0.7 ENE, PA","Latitude":"40.77580","Longitude":"-77.77770","Snowdepth":"13.000","Units":"in","Rept_Date":"2020-12-17 12"},"coordinates":[4567,3313]},{"type":"Point","properties":{"Station_ID":"PA-CM-9","Station_Nam":"PATTON 5.1 ENE, PA","Latitude":"40.65150","Longitude":"-78.55500","Snowdepth":"13.000","Units":"in","Rept_Date":"2020-12-17 15"},"coordinates":[4385,3237]},{"type":"Point","properties":{"Station_ID":"PA-CB-33","Station_Nam":"LAKE HARMONY 2.4 WNW, PA","Latitude":"41.07333","Longitude":"-75.63317","Snowdepth":"13.000","Units":"in","Rept_Date":"2020-12-17 12"},"coordinates":[5071,3494]},{"type":"Point","properties":{"Station_ID":"PA-BT-40","Station_Nam":"CABOT 1.6 WNW, PA","Latitude":"40.77250","Longitude":"-79.79560","Snowdepth":"13.000","Units":"in","Rept_Date":"2020-12-17 12"},"coordinates":[4094,3311]},{"type":"Point","properties":{"Station_ID":"NH-RC-18","Station_Nam":"DEERFIELD 3.2 WSW, NH","Latitude":"43.13350","Longitude":"-71.27940","Snowdepth":"13.000","Units":"in","Rept_Date":"2020-12-17 12"},"coordinates":[6092,4752]},{"type":"Point","properties":{"Station_ID":"MA-NF-50","Station_Nam":"MILLIS 1.4 ENE, MA","Latitude":"42.17966","Longitude":"-71.33300","Snowdepth":"13.000","Units":"in","Rept_Date":"2020-12-17 15"},"coordinates":[6080,4170]},{"type":"Point","properties":{"Station_ID":"MA-BE-11","Station_Nam":"GREAT BARRINGTON 3.0 N, MA","Latitude":"42.23790","Longitude":"-73.35030","Snowdepth":"13.000","Units":"in","Rept_Date":"2020-12-17 13"},"coordinates":[5606,4205]},{"type":"Point","properties":{"Station_ID":"JPBM3","Station_Nam":"JAMAICA PLAIN","Latitude":"42.30310","Longitude":"-71.12400","Snowdepth":"13.000","Units":"in","Rept_Date":"2020-12-17 13"},"coordinates":[6129,4245]},{"type":"Point","properties":{"Station_ID":"HUBN3","Station_Nam":"HUBBARD BROOK","Latitude":"43.93330","Longitude":"-71.71670","Snowdepth":"13.000","Units":"in","Rept_Date":"2020-12-17 23"},"coordinates":[5990,5241]},{"type":"Point","properties":{"Station_ID":"HTLN3","Station_Nam":"HERMIT LAKE SNOWPLOT","Latitude":"44.26130","Longitude":"-71.28330","Snowdepth":"13.000","Units":"in","Rept_Date":"2020-12-17 10"},"coordinates":[6092,5441]},{"type":"Point","properties":{"Station_ID":"CSPP1","Station_Nam":"COUDERSPORT 1 SW","Latitude":"41.77500","Longitude":"-78.04170","Snowdepth":"13.000","Units":"in","Rept_Date":"2020-12-17 12"},"coordinates":[4505,3923]},{"type":"Point","properties":{"Station_ID":"CNDP1","Station_Nam":"CANADENSIS","Latitude":"41.18980","Longitude":"-75.23830","Snowdepth":"13.000","Units":"in","Rept_Date":"2020-12-17 12"},"coordinates":[5163,3566]},{"type":"Point","properties":{"Station_ID":"NJ-SS-7","Station_Nam":"HARDYSTON TWP 3.2 SE, NJ","Latitude":"41.08903","Longitude":"-74.53990","Snowdepth":"12.800","Units":"in","Rept_Date":"2020-12-17 12"},"coordinates":[5327,3504]},{"type":"Point","properties":{"Station_ID":"DVLQ6","Station_Nam":"DEVIOUS LAKE","Latitude":"49.19890","Longitude":"-87.76440","Snowdepth":"12.720","Units":"in","Rept_Date":"2020-12-18 06"},"coordinates":[2224,8456]},{"type":"Point","properties":{"Station_ID":"USBP1","Station_Nam":"USBP1","Latitude":"40.06110","Longitude":"-77.73330","Snowdepth":"12.500","Units":"in","Rept_Date":"2020-12-17 12"},"coordinates":[4578,2876]},{"type":"Point","properties":{"Station_ID":"NY-UL-16","Station_Nam":"ROSENDALE VILLAGE 1.8 WNW, NY","Latitude":"41.86083","Longitude":"-74.10750","Snowdepth":"12.500","Units":"in","Rept_Date":"2020-12-17 13"},"coordinates":[5429,3975]},{"type":"Point","properties":{"Station_ID":"NH-MR-45","Station_Nam":"NORTHFIELD 2.8 E, NH","Latitude":"43.43945","Longitude":"-71.53730","Snowdepth":"12.500","Units":"in","Rept_Date":"2020-12-17 12"},"coordinates":[6032,4939]},{"type":"Point","properties":{"Station_ID":"NH-MR-41","Station_Nam":"NEWBURY 1.6 NW, NH","Latitude":"43.33667","Longitude":"-72.06060","Snowdepth":"12.500","Units":"in","Rept_Date":"2020-12-17 12"},"coordinates":[5909,4876]},{"type":"Point","properties":{"Station_ID":"NH-GR-1","Station_Nam":"BRISTOL 0.4 SSE, NH","Latitude":"43.59490","Longitude":"-71.74140","Snowdepth":"12.500","Units":"in","Rept_Date":"2020-12-17 12"},"coordinates":[5984,5034]},{"type":"Point","properties":{"Station_ID":"MA-MD-126","Station_Nam":"MELROSE 0.5 NE, MA","Latitude":"42.46055","Longitude":"-71.05396","Snowdepth":"12.500","Units":"in","Rept_Date":"2020-12-17 12"},"coordinates":[6145,4341]},{"type":"Point","properties":{"Station_ID":"MA-FR-31","Station_Nam":"COLRAIN 3.7 WNW, MA","Latitude":"42.68716","Longitude":"-72.75112","Snowdepth":"12.500","Units":"in","Rept_Date":"2020-12-17 12"},"coordinates":[5747,4480]},{"type":"Point","properties":{"Station_ID":"CT-HR-88","Station_Nam":"SUFFIELD DEPOT 6.0 WNW, CT","Latitude":"42.02629","Longitude":"-72.75082","Snowdepth":"12.500","Units":"in","Rept_Date":"2020-12-17 12"},"coordinates":[5747,4076]},{"type":"Point","properties":{"Station_ID":"NJ-SS-60","Station_Nam":"VERNON TWP 2.7 SSE, NJ","Latitude":"41.16332","Longitude":"-74.45938","Snowdepth":"12.300","Units":"in","Rept_Date":"2020-12-17 10"},"coordinates":[5346,3549]},{"type":"Point","properties":{"Station_ID":"MA-MD-7","Station_Nam":"WINCHESTER 0.7 SE, MA","Latitude":"42.44594","Longitude":"-71.13580","Snowdepth":"12.300","Units":"in","Rept_Date":"2020-12-17 12"},"coordinates":[6126,4332]},{"type":"Point","properties":{"Station_ID":"QCX","Station_Nam":"QCX","Latitude":"51.32830","Longitude":"-70.08060","Snowdepth":"12.205","Units":"in","Rept_Date":"2020-12-17 12"},"coordinates":[6374,9756]},{"type":"Point","properties":{"Station_ID":"PA-CL-15","Station_Nam":"STRATTANVILLE 6.6 NE, PA","Latitude":"41.25777","Longitude":"-79.22476","Snowdepth":"12.200","Units":"in","Rept_Date":"2020-12-17 12"},"coordinates":[4228,3607]},{"type":"Point","properties":{"Station_ID":"PA-CLM-7","Station_Nam":"ESPY 0.8 S, PA","Latitude":"40.99288","Longitude":"-76.41502","Snowdepth":"12.100","Units":"in","Rept_Date":"2020-12-17 12"},"coordinates":[4887,3445]},{"type":"Point","properties":{"Station_ID":"MA-MD-125","Station_Nam":"TEWKSBURY 3.6 SSE, MA","Latitude":"42.57083","Longitude":"-71.19813","Snowdepth":"12.100","Units":"in","Rept_Date":"2020-12-17 14"},"coordinates":[6112,4409]},{"type":"Point","properties":{"Station_ID":"MA-FR-22","Station_Nam":"ASHFIELD 1.4 NE, MA","Latitude":"42.54694","Longitude":"-72.76361","Snowdepth":"12.100","Units":"in","Rept_Date":"2020-12-17 12"},"coordinates":[5744,4394]},{"type":"Point","properties":{"Station_ID":"WNDP1","Station_Nam":"WINDBER COUNTY CLUB","Latitude":"40.28780","Longitude":"-78.77530","Snowdepth":"12.000","Units":"in","Rept_Date":"2020-12-17 12"},"coordinates":[4333,3015]},{"type":"Point","properties":{"Station_ID":"VT-WR-17","Station_Nam":"ROCHESTER 2.3 NE, VT","Latitude":"43.89418","Longitude":"-72.76992","Snowdepth":"12.000","Units":"in","Rept_Date":"2020-12-17 14"},"coordinates":[5743,5217]},{"type":"Point","properties":{"Station_ID":"VT-RT-7","Station_Nam":"RUTLAND 1.2 N, VT","Latitude":"43.62533","Longitude":"-72.97790","Snowdepth":"12.000","Units":"in","Rept_Date":"2020-12-17 12"},"coordinates":[5694,5053]},{"type":"Point","properties":{"Station_ID":"SPRP1","Station_Nam":"SPRINGTOWN 1 NNE","Latitude":"40.57110","Longitude":"-75.27810","Snowdepth":"12.000","Units":"in","Rept_Date":"2020-12-17 12"},"coordinates":[5154,3188]},{"type":"Point","properties":{"Station_ID":"RUTV1","Station_Nam":"RUTLAND","Latitude":"43.62530","Longitude":"-72.97810","Snowdepth":"12.000","Units":"in","Rept_Date":"2020-12-17 12"},"coordinates":[5694,5053]},{"type":"Point","properties":{"Station_ID":"PA-LZ-24","Station_Nam":"FORTY FORT 0.4 NNE, PA","Latitude":"41.29491","Longitude":"-75.86820","Snowdepth":"12.000","Units":"in","Rept_Date":"2020-12-17 12"},"coordinates":[5015,3630]},{"type":"Point","properties":{"Station_ID":"PA-BT-24","Station_Nam":"CABOT 0.3 N, PA","Latitude":"40.76870","Longitude":"-79.76690","Snowdepth":"12.000","Units":"in","Rept_Date":"2020-12-17 12"},"coordinates":[4100,3308]},{"type":"Point","properties":{"Station_ID":"PA-BT-13","Station_Nam":"SLIPPERY ROCK 1.7 SSE, PA","Latitude":"41.04711","Longitude":"-80.04764","Snowdepth":"12.000","Units":"in","Rept_Date":"2020-12-17 13"},"coordinates":[4035,3478]},{"type":"Point","properties":{"Station_ID":"PA-AR-14","Station_Nam":"TEMPLETON 2.9 SSW, PA","Latitude":"40.87790","Longitude":"-79.47900","Snowdepth":"12.000","Units":"in","Rept_Date":"2020-12-17 13"},"coordinates":[4168,3375]},{"type":"Point","properties":{"Station_ID":"NY-WR-17","Station_Nam":"LAKE GEORGE 1.0 N, NY","Latitude":"43.44030","Longitude":"-73.71260","Snowdepth":"12.000","Units":"in","Rept_Date":"2020-12-17 11"},"coordinates":[5521,4940]},{"type":"Point","properties":{"Station_ID":"NY-UL-19","Station_Nam":"WOODSTOCK 0.8 ENE, NY","Latitude":"42.04097","Longitude":"-74.09588","Snowdepth":"12.000","Units":"in","Rept_Date":"2020-12-17 12"},"coordinates":[5431,4085]},{"type":"Point","properties":{"Station_ID":"NY-OR-19","Station_Nam":"GREENWOOD LAKE 3.0 SW, NY","Latitude":"41.18900","Longitude":"-74.32650","Snowdepth":"12.000","Units":"in","Rept_Date":"2020-12-17 13"},"coordinates":[5377,3565]},{"type":"Point","properties":{"Station_ID":"NY-HR-18","Station_Nam":"SALISBURY CENTER 1.8 NW, NY","Latitude":"43.16260","Longitude":"-74.80880","Snowdepth":"12.000","Units":"in","Rept_Date":"2020-12-17 10"},"coordinates":[5264,4770]},{"type":"Point","properties":{"Station_ID":"NY-HM-1","Station_Nam":"SPECULATOR 10.0 SSW, NY","Latitude":"43.45133","Longitude":"-74.47120","Snowdepth":"12.000","Units":"in","Rept_Date":"2020-12-17 12"},"coordinates":[5343,4946]},{"type":"Point","properties":{"Station_ID":"NH-GR-52","Station_Nam":"HANOVER 4.8 NE, NH","Latitude":"43.75099","Longitude":"-72.21056","Snowdepth":"12.000","Units":"in","Rept_Date":"2020-12-17 12"},"coordinates":[5874,5129]},{"type":"Point","properties":{"Station_ID":"NH-CH-20","Station_Nam":"RINDGE 3.2 ESE, NH","Latitude":"42.73100","Longitude":"-71.95200","Snowdepth":"12.000","Units":"in","Rept_Date":"2020-12-17 13"},"coordinates":[5935,4507]},{"type":"Point","properties":{"Station_ID":"NH-BK-29","Station_Nam":"SANBORNTON 2.3 WNW, NH","Latitude":"43.49730","Longitude":"-71.62800","Snowdepth":"12.000","Units":"in","Rept_Date":"2020-12-17 12"},"coordinates":[6011,4974]},{"type":"Point","properties":{"Station_ID":"NFKC3","Station_Nam":"NORFOLK","Latitude":"41.97250","Longitude":"-73.22080","Snowdepth":"12.000","Units":"in","Rept_Date":"2020-12-17 13"},"coordinates":[5637,4043]},{"type":"Point","properties":{"Station_ID":"MAYP1","Station_Nam":"MAHANOY CITY,PA","Latitude":"40.83330","Longitude":"-76.13330","Snowdepth":"12.000","Units":"in","Rept_Date":"2020-12-17 12"},"coordinates":[4953,3348]},{"type":"Point","properties":{"Station_ID":"MA-MD-81","Station_Nam":"WAKEFIELD 0.5 NNW, MA","Latitude":"42.51171","Longitude":"-71.07007","Snowdepth":"12.000","Units":"in","Rept_Date":"2020-12-17 13"},"coordinates":[6142,4373]},{"type":"Point","properties":{"Station_ID":"MA-MD-170","Station_Nam":"SOMERVILLE 0.5 W, MA","Latitude":"42.39184","Longitude":"-71.11230","Snowdepth":"12.000","Units":"in","Rept_Date":"2020-12-17 12"},"coordinates":[6132,4299]},{"type":"Point","properties":{"Station_ID":"MA-FR-13","Station_Nam":"CONWAY 2.9 NW, MA","Latitude":"42.54419","Longitude":"-72.72743","Snowdepth":"12.000","Units":"in","Rept_Date":"2020-12-17 12"},"coordinates":[5753,4392]},{"type":"Point","properties":{"Station_ID":"MA-ES-58","Station_Nam":"MIDDLETON 1.4 SSW, MA","Latitude":"42.58133","Longitude":"-71.02707","Snowdepth":"12.000","Units":"in","Rept_Date":"2020-12-17 13"},"coordinates":[6152,4415]},{"type":"Point","properties":{"Station_ID":"MA-ES-41","Station_Nam":"DANVERS 0.8 ESE, MA","Latitude":"42.56849","Longitude":"-70.93526","Snowdepth":"12.000","Units":"in","Rept_Date":"2020-12-17 14"},"coordinates":[6173,4407]},{"type":"Point","properties":{"Station_ID":"LBKV1","Station_Nam":"LYE BROOK","Latitude":"43.05000","Longitude":"-73.03330","Snowdepth":"12.000","Units":"in","Rept_Date":"2020-12-18 06"},"coordinates":[5681,4701]},{"type":"Point","properties":{"Station_ID":"LBGP1","Station_Nam":"LEWISBURG,PA","Latitude":"40.94860","Longitude":"-76.87830","Snowdepth":"12.000","Units":"in","Rept_Date":"2020-12-17 18"},"coordinates":[4778,3418]},{"type":"Point","properties":{"Station_ID":"HGHN4","Station_Nam":"HIGHLAND LAKES 1SW","Latitude":"41.16330","Longitude":"-74.45930","Snowdepth":"12.000","Units":"in","Rept_Date":"2020-12-17 11"},"coordinates":[5346,3549]},{"type":"Point","properties":{"Station_ID":"CT-LT-9","Station_Nam":"NEW HARTFORD CENTER 3.2 SW, CT","Latitude":"41.84170","Longitude":"-73.00920","Snowdepth":"12.000","Units":"in","Rept_Date":"2020-12-17 12"},"coordinates":[5686,3964]},{"type":"Point","properties":{"Station_ID":"CT-LT-15","Station_Nam":"COLEBROOK 1.0 NE, CT","Latitude":"42.00200","Longitude":"-73.08250","Snowdepth":"12.000","Units":"in","Rept_Date":"2020-12-17 12"},"coordinates":[5669,4061]},{"type":"Point","properties":{"Station_ID":"CT-HR-80","Station_Nam":"KENSINGTON 0.7 WSW, CT","Latitude":"41.62250","Longitude":"-72.78289","Snowdepth":"12.000","Units":"in","Rept_Date":"2020-12-17 15"},"coordinates":[5740,3830]},{"type":"Point","properties":{"Station_ID":"CT-HR-19","Station_Nam":"NEWINGTON 0.8 ENE, CT","Latitude":"41.69045","Longitude":"-72.71630","Snowdepth":"12.000","Units":"in","Rept_Date":"2020-12-17 18"},"coordinates":[5755,3871]},{"type":"Point","properties":{"Station_ID":"BAKC3","Station_Nam":"BAKERSVILLE","Latitude":"41.84180","Longitude":"-73.00850","Snowdepth":"12.000","Units":"in","Rept_Date":"2020-12-17 12"},"coordinates":[5687,3964]},{"type":"Point","properties":{"Station_ID":"VT-RT-1","Station_Nam":"WEST RUTLAND 1.2 N, VT","Latitude":"43.61068","Longitude":"-73.04660","Snowdepth":"11.900","Units":"in","Rept_Date":"2020-12-17 11"},"coordinates":[5678,5044]},{"type":"Point","properties":{"Station_ID":"PA-NH-15","Station_Nam":"PORTLAND 2.7 WNW, PA","Latitude":"40.93750","Longitude":"-75.14450","Snowdepth":"11.800","Units":"in","Rept_Date":"2020-12-17 12"},"coordinates":[5185,3411]},{"type":"Point","properties":{"Station_ID":"ME-YK-75","Station_Nam":"BUXTON 2.8 W, ME","Latitude":"43.63735","Longitude":"-70.57619","Snowdepth":"11.800","Units":"in","Rept_Date":"2020-12-17 12"},"coordinates":[6257,5060]},{"type":"Point","properties":{"Station_ID":"MA-FR-12","Station_Nam":"SUNDERLAND 1.3 SE, MA","Latitude":"42.45217","Longitude":"-72.56610","Snowdepth":"11.600","Units":"in","Rept_Date":"2020-12-17 13"},"coordinates":[5790,4336]},{"type":"Point","properties":{"Station_ID":"RI-WS-62","Station_Nam":"RICHMOND 3.7 NNE, RI","Latitude":"41.54113","Longitude":"-71.63529","Snowdepth":"11.500","Units":"in","Rept_Date":"2020-12-17 19"},"coordinates":[6009,3780]},{"type":"Point","properties":{"Station_ID":"PA-WT-19","Station_Nam":"LEECHBURG 1.4 SW, PA","Latitude":"40.61529","Longitude":"-79.62137","Snowdepth":"11.500","Units":"in","Rept_Date":"2020-12-17 13"},"coordinates":[4135,3215]},{"type":"Point","properties":{"Station_ID":"PA-WT-14","Station_Nam":"LOWER BURRELL 1.2 WNW, PA","Latitude":"40.59181","Longitude":"-79.73332","Snowdepth":"11.500","Units":"in","Rept_Date":"2020-12-17 13"},"coordinates":[4108,3200]},{"type":"Point","properties":{"Station_ID":"PA-PK-22","Station_Nam":"MILFORD 8.7 NW, PA","Latitude":"41.42018","Longitude":"-74.90953","Snowdepth":"11.500","Units":"in","Rept_Date":"2020-12-17 12"},"coordinates":[5240,3706]},{"type":"Point","properties":{"Station_ID":"PA-LH-1","Station_Nam":"SLATINGTON 6.0 WSW, PA","Latitude":"40.70822","Longitude":"-75.70887","Snowdepth":"11.500","Units":"in","Rept_Date":"2020-12-17 12"},"coordinates":[5053,3271]},{"type":"Point","properties":{"Station_ID":"PA-JF-2","Station_Nam":"TIMBLIN 0.1 S, PA","Latitude":"40.96447","Longitude":"-79.19890","Snowdepth":"11.500","Units":"in","Rept_Date":"2020-12-17 12"},"coordinates":[4234,3428]},{"type":"Point","properties":{"Station_ID":"PA-HN-3","Station_Nam":"HUNTINGDON 1.3 N, PA","Latitude":"40.51519","Longitude":"-78.01505","Snowdepth":"11.500","Units":"in","Rept_Date":"2020-12-17 12"},"coordinates":[4512,3154]},{"type":"Point","properties":{"Station_ID":"PA-BT-39","Station_Nam":"SARVER 1.8 NE, PA","Latitude":"40.74881","Longitude":"-79.70536","Snowdepth":"11.500","Units":"in","Rept_Date":"2020-12-17 23"},"coordinates":[4115,3296]},{"type":"Point","properties":{"Station_ID":"NY-TM-3","Station_Nam":"ITHACA 1.1 SE, NY","Latitude":"42.43173","Longitude":"-76.48860","Snowdepth":"11.500","Units":"in","Rept_Date":"2020-12-17 12"},"coordinates":[4870,4324]},{"type":"Point","properties":{"Station_ID":"NY-SY-1","Station_Nam":"SMITH VALLEY 1.9 SE, NY","Latitude":"42.39072","Longitude":"-76.71760","Snowdepth":"11.500","Units":"in","Rept_Date":"2020-12-17 12"},"coordinates":[4816,4299]},{"type":"Point","properties":{"Station_ID":"NY-OR-21","Station_Nam":"PORT JERVIS 2.9 ESE, NY","Latitude":"41.35990","Longitude":"-74.64090","Snowdepth":"11.500","Units":"in","Rept_Date":"2020-12-17 11"},"coordinates":[5304,3669]},{"type":"Point","properties":{"Station_ID":"NJ-HN-12","Station_Nam":"HOLLAND TWP 2.6 NNE, NJ","Latitude":"40.63168","Longitude":"-75.10450","Snowdepth":"11.500","Units":"in","Rept_Date":"2020-12-17 11"},"coordinates":[5195,3225]},{"type":"Point","properties":{"Station_ID":"NH-HL-77","Station_Nam":"WEARE 4.3 S, NH","Latitude":"43.03222","Longitude":"-71.73669","Snowdepth":"11.500","Units":"in","Rept_Date":"2020-12-17 13"},"coordinates":[5985,4690]},{"type":"Point","properties":{"Station_ID":"ME-AR-18","Station_Nam":"NEW SWEDEN 4.9 NNW, ME","Latitude":"47.01080","Longitude":"-68.14390","Snowdepth":"11.500","Units":"in","Rept_Date":"2020-12-17 12"},"coordinates":[6828,7120]},{"type":"Point","properties":{"Station_ID":"MA-WR-41","Station_Nam":"AUBURN 2.6 SW, MA","Latitude":"42.17336","Longitude":"-71.86869","Snowdepth":"11.500","Units":"in","Rept_Date":"2020-12-17 14"},"coordinates":[5954,4166]},{"type":"Point","properties":{"Station_ID":"MA-WR-1","Station_Nam":"MILFORD 2.3 NNW, MA","Latitude":"42.17904","Longitude":"-71.53390","Snowdepth":"11.500","Units":"in","Rept_Date":"2020-12-17 12"},"coordinates":[6033,4170]},{"type":"Point","properties":{"Station_ID":"MA-PL-36","Station_Nam":"HINGHAM 0.8 ESE, MA","Latitude":"42.23093","Longitude":"-70.87448","Snowdepth":"11.500","Units":"in","Rept_Date":"2020-12-17 16"},"coordinates":[6187,4201]},{"type":"Point","properties":{"Station_ID":"MA-MD-106","Station_Nam":"HOLLISTON 2.4 W, MA","Latitude":"42.20069","Longitude":"-71.47981","Snowdepth":"11.500","Units":"in","Rept_Date":"2020-12-17 12"},"coordinates":[6045,4183]},{"type":"Point","properties":{"Station_ID":"CT-NH-43","Station_Nam":"WALLINGFORD CENTER 3.3 NNW, CT","Latitude":"41.49109","Longitude":"-72.85065","Snowdepth":"11.500","Units":"in","Rept_Date":"2020-12-17 12"},"coordinates":[5724,3749]},{"type":"Point","properties":{"Station_ID":"NY-SY-15","Station_Nam":"MONTOUR FALLS 0.3 SSE, NY","Latitude":"42.34628","Longitude":"-76.84628","Snowdepth":"11.300","Units":"in","Rept_Date":"2020-12-17 13"},"coordinates":[4786,4272]},{"type":"Point","properties":{"Station_ID":"PA-FR-2","Station_Nam":"MARIENVILLE 5.3 W, PA","Latitude":"41.45710","Longitude":"-79.18150","Snowdepth":"11.200","Units":"in","Rept_Date":"2020-12-17 10"},"coordinates":[4238,3729]},{"type":"Point","properties":{"Station_ID":"PA-CB-16","Station_Nam":"JIM THORPE 1.1 NNE, PA","Latitude":"40.88582","Longitude":"-75.73320","Snowdepth":"11.200","Units":"in","Rept_Date":"2020-12-17 12"},"coordinates":[5047,3380]},{"type":"Point","properties":{"Station_ID":"CT-HR-65","Station_Nam":"NEWINGTON 1.9 SSW, CT","Latitude":"41.66021","Longitude":"-72.74087","Snowdepth":"11.200","Units":"in","Rept_Date":"2020-12-17 12"},"coordinates":[5749,3853]},{"type":"Point","properties":{"Station_ID":"NY-DT-10","Station_Nam":"POUGHKEEPSIE 3.9 SSE, NY","Latitude":"41.64700","Longitude":"-73.89700","Snowdepth":"11.100","Units":"in","Rept_Date":"2020-12-17 10"},"coordinates":[5478,3845]},{"type":"Point","properties":{"Station_ID":"NH-BK-7","Station_Nam":"LACONIA 7.9 E, NH","Latitude":"43.55415","Longitude":"-71.32310","Snowdepth":"11.100","Units":"in","Rept_Date":"2020-12-17 12"},"coordinates":[6082,5009]},{"type":"Point","properties":{"Station_ID":"MA-WR-88","Station_Nam":"LEICESTER 2.5 WSW, MA","Latitude":"42.23742","Longitude":"-71.94612","Snowdepth":"11.100","Units":"in","Rept_Date":"2020-12-17 14"},"coordinates":[5936,4205]},{"type":"Point","properties":{"Station_ID":"UVDV1","Station_Nam":"NERON SITE AT UNION VILLAGE DAM","Latitude":"43.79140","Longitude":"-72.25720","Snowdepth":"11.000","Units":"in","Rept_Date":"2020-12-17 12"},"coordinates":[5863,5154]},{"type":"Point","properties":{"Station_ID":"PNYP1","Station_Nam":"MAHONING LAKE","Latitude":"40.92500","Longitude":"-79.28250","Snowdepth":"11.000","Units":"in","Rept_Date":"2020-12-17 13"},"coordinates":[4214,3404]},{"type":"Point","properties":{"Station_ID":"PEKN6","Station_Nam":"PECK LAKE","Latitude":"43.11500","Longitude":"-74.42360","Snowdepth":"11.000","Units":"in","Rept_Date":"2020-12-17 12"},"coordinates":[5355,4741]},{"type":"Point","properties":{"Station_ID":"PA-YR-20","Station_Nam":"MOUNT WOLF 1.0 SE, PA","Latitude":"40.04881","Longitude":"-76.69480","Snowdepth":"11.000","Units":"in","Rept_Date":"2020-12-17 12"},"coordinates":[4821,2869]},{"type":"Point","properties":{"Station_ID":"PA-WS-21","Station_Nam":"FINLEYVILLE 0.5 NNW, PA","Latitude":"40.26030","Longitude":"-80.00590","Snowdepth":"11.000","Units":"in","Rept_Date":"2020-12-17 12"},"coordinates":[4044,2998]},{"type":"Point","properties":{"Station_ID":"PA-PT-2","Station_Nam":"ROULETTE 1.8 NNE, PA","Latitude":"41.80759","Longitude":"-78.14140","Snowdepth":"11.000","Units":"in","Rept_Date":"2020-12-17 12"},"coordinates":[4482,3943]},{"type":"Point","properties":{"Station_ID":"PA-LZ-15","Station_Nam":"DURYEA 0.3 SE, PA","Latitude":"41.34930","Longitude":"-75.77140","Snowdepth":"11.000","Units":"in","Rept_Date":"2020-12-17 12"},"coordinates":[5038,3663]},{"type":"Point","properties":{"Station_ID":"PA-FR-1","Station_Nam":"TIONESTA 7.3 SSE, PA","Latitude":"41.39404","Longitude":"-79.41310","Snowdepth":"11.000","Units":"in","Rept_Date":"2020-12-17 11"},"coordinates":[4184,3690]},{"type":"Point","properties":{"Station_ID":"PA-CD-19","Station_Nam":"CARLISLE 7.2 SSW, PA","Latitude":"40.11250","Longitude":"-77.27740","Snowdepth":"11.000","Units":"in","Rept_Date":"2020-12-17 13"},"coordinates":[4685,2908]},{"type":"Point","properties":{"Station_ID":"PA-BD-11","Station_Nam":"EVERETT 3.9 W, PA","Latitude":"40.02210","Longitude":"-78.43810","Snowdepth":"11.000","Units":"in","Rept_Date":"2020-12-17 12"},"coordinates":[4412,2853]},{"type":"Point","properties":{"Station_ID":"PA-AR-7","Station_Nam":"KITTANNING 1.3 SSW, PA","Latitude":"40.80945","Longitude":"-79.53059","Snowdepth":"11.000","Units":"in","Rept_Date":"2020-12-17 12"},"coordinates":[4156,3333]},{"type":"Point","properties":{"Station_ID":"PA-AL-69","Station_Nam":"GIBSONIA 1.2 NE, PA","Latitude":"40.64052","Longitude":"-79.95061","Snowdepth":"11.000","Units":"in","Rept_Date":"2020-12-17 10"},"coordinates":[4057,3230]},{"type":"Point","properties":{"Station_ID":"PA-AD-3","Station_Nam":"YORK SPRINGS 0.7 SE, PA","Latitude":"40.00139","Longitude":"-77.10890","Snowdepth":"11.000","Units":"in","Rept_Date":"2020-12-17 12"},"coordinates":[4724,2840]},{"type":"Point","properties":{"Station_ID":"NY-WR-10","Station_Nam":"WARRENSBURG 2.1 WNW, NY","Latitude":"43.51784","Longitude":"-73.81069","Snowdepth":"11.000","Units":"in","Rept_Date":"2020-12-17 13"},"coordinates":[5498,4987]},{"type":"Point","properties":{"Station_ID":"NY-TM-5","Station_Nam":"FREEVILLE 1.5 NE, NY","Latitude":"42.52530","Longitude":"-76.32180","Snowdepth":"11.000","Units":"in","Rept_Date":"2020-12-17 12"},"coordinates":[4909,4381]},{"type":"Point","properties":{"Station_ID":"NY-SY-14","Station_Nam":"MECKLENBURG 1.2 SE, NY","Latitude":"42.44944","Longitude":"-76.69046","Snowdepth":"11.000","Units":"in","Rept_Date":"2020-12-17 11"},"coordinates":[4823,4335]},{"type":"Point","properties":{"Station_ID":"NY-ST-33","Station_Nam":"BATH 4.2 E, NY","Latitude":"42.33968","Longitude":"-77.23666","Snowdepth":"11.000","Units":"in","Rept_Date":"2020-12-17 12"},"coordinates":[4694,4268]},{"type":"Point","properties":{"Station_ID":"NY-HM-10","Station_Nam":"LAKE PLEASANT 2.3 WSW, NY","Latitude":"43.45490","Longitude":"-74.45287","Snowdepth":"11.000","Units":"in","Rept_Date":"2020-12-17 12"},"coordinates":[5348,4948]},{"type":"Point","properties":{"Station_ID":"NY-DT-12","Station_Nam":"LAGRANGEVILLE 3.4 NE, NY","Latitude":"41.68460","Longitude":"-73.72050","Snowdepth":"11.000","Units":"in","Rept_Date":"2020-12-17 12"},"coordinates":[5520,3868]},{"type":"Point","properties":{"Station_ID":"NH-ST-31","Station_Nam":"STRAFFORD 2.9 N, NH","Latitude":"43.31175","Longitude":"-71.13510","Snowdepth":"11.000","Units":"in","Rept_Date":"2020-12-17 12"},"coordinates":[6126,4861]},{"type":"Point","properties":{"Station_ID":"NH-HL-48","Station_Nam":"GREENVILLE 1.1 ENE, NH","Latitude":"42.77674","Longitude":"-71.77990","Snowdepth":"11.000","Units":"in","Rept_Date":"2020-12-17 13"},"coordinates":[5975,4534]},{"type":"Point","properties":{"Station_ID":"MILM3","Station_Nam":"MILFORD","Latitude":"42.16330","Longitude":"-71.51190","Snowdepth":"11.000","Units":"in","Rept_Date":"2020-12-17 13"},"coordinates":[6038,4160]},{"type":"Point","properties":{"Station_ID":"ME-YK-3","Station_Nam":"HOLLIS CENTER 5.4 NW, ME","Latitude":"43.64750","Longitude":"-70.67510","Snowdepth":"11.000","Units":"in","Rept_Date":"2020-12-17 12"},"coordinates":[6234,5066]},{"type":"Point","properties":{"Station_ID":"MA-WR-77","Station_Nam":"BERLIN 2.0 S, MA","Latitude":"42.35494","Longitude":"-71.62850","Snowdepth":"11.000","Units":"in","Rept_Date":"2020-12-17 13"},"coordinates":[6011,4277]},{"type":"Point","properties":{"Station_ID":"MA-WR-55","Station_Nam":"HARVARD 2.1 S, MA","Latitude":"42.46891","Longitude":"-71.58360","Snowdepth":"11.000","Units":"in","Rept_Date":"2020-12-17 12"},"coordinates":[6021,4346]},{"type":"Point","properties":{"Station_ID":"MA-NF-11","Station_Nam":"MILLIS 2.0 SW, MA","Latitude":"42.14602","Longitude":"-71.37940","Snowdepth":"11.000","Units":"in","Rept_Date":"2020-12-17 14"},"coordinates":[6069,4149]},{"type":"Point","properties":{"Station_ID":"MA-HD-29","Station_Nam":"WEST SPRINGFIELD 1.6 SSW, MA","Latitude":"42.10095","Longitude":"-72.66416","Snowdepth":"11.000","Units":"in","Rept_Date":"2020-12-17 12"},"coordinates":[5767,4122]},{"type":"Point","properties":{"Station_ID":"KBDL","Station_Nam":"BRADLEY INTERNATIONAL AIRPORT","Latitude":"41.93333","Longitude":"-72.68333","Snowdepth":"11.000","Units":"in","Rept_Date":"2020-12-18 00"},"coordinates":[5763,4019]},{"type":"Point","properties":{"Station_ID":"HOLM1","Station_Nam":"HOLLIS","Latitude":"43.64750","Longitude":"-70.67490","Snowdepth":"11.000","Units":"in","Rept_Date":"2020-12-17 12"},"coordinates":[6234,5066]},{"type":"Point","properties":{"Station_ID":"EWR","Station_Nam":"NEWARK INTL AIRPORT","Latitude":"40.69250","Longitude":"-74.16860","Snowdepth":"11.000","Units":"in","Rept_Date":"2020-12-17 12"},"coordinates":[5414,3262]},{"type":"Point","properties":{"Station_ID":"CT-NH-57","Station_Nam":"NEW HAVEN 2.9 NNW, CT","Latitude":"41.34896","Longitude":"-72.94280","Snowdepth":"11.000","Units":"in","Rept_Date":"2020-12-17 12"},"coordinates":[5702,3663]},{"type":"Point","properties":{"Station_ID":"CT-MD-23","Station_Nam":"HIGGANUM 0.7 N, CT","Latitude":"41.50106","Longitude":"-72.55595","Snowdepth":"11.000","Units":"in","Rept_Date":"2020-12-17 13"},"coordinates":[5793,3756]},{"type":"Point","properties":{"Station_ID":"CT-FR-55","Station_Nam":"SHELTON 2.7 SSE, CT","Latitude":"41.27102","Longitude":"-73.11106","Snowdepth":"11.000","Units":"in","Rept_Date":"2020-12-17 13"},"coordinates":[5663,3615]},{"type":"Point","properties":{"Station_ID":"CT-FR-41","Station_Nam":"BETHEL 3.5 NNE, CT","Latitude":"41.42154","Longitude":"-73.39820","Snowdepth":"11.000","Units":"in","Rept_Date":"2020-12-17 14"},"coordinates":[5595,3707]},{"type":"Point","properties":{"Station_ID":"CSBP1","Station_Nam":"COOKSBURG","Latitude":"41.35750","Longitude":"-79.21720","Snowdepth":"11.000","Units":"in","Rept_Date":"2020-12-17 13"},"coordinates":[4229,3668]},{"type":"Point","properties":{"Station_ID":"TRIQ6","Station_Nam":"TRIO LAKE","Latitude":"49.22880","Longitude":"-87.22920","Snowdepth":"10.910","Units":"in","Rept_Date":"2020-12-18 06"},"coordinates":[2349,8474]},{"type":"Point","properties":{"Station_ID":"PA-AL-101","Station_Nam":"PITTSBURGH 5.5 E, PA","Latitude":"40.43184","Longitude":"-79.89246","Snowdepth":"10.900","Units":"in","Rept_Date":"2020-12-17 12"},"coordinates":[4071,3103]},{"type":"Point","properties":{"Station_ID":"PA-LC-28","Station_Nam":"CLARKS GREEN 0.5 N, PA","Latitude":"41.50670","Longitude":"-75.69530","Snowdepth":"10.800","Units":"in","Rept_Date":"2020-12-17 14"},"coordinates":[5056,3759]},{"type":"Point","properties":{"Station_ID":"MA-MD-120","Station_Nam":"NATICK 1.9 NNE, MA","Latitude":"42.30872","Longitude":"-71.33579","Snowdepth":"10.800","Units":"in","Rept_Date":"2020-12-17 13"},"coordinates":[6079,4249]},{"type":"Point","properties":{"Station_ID":"QMA","Station_Nam":"QMA","Latitude":"50.10330","Longitude":"-70.47190","Snowdepth":"10.709","Units":"in","Rept_Date":"2020-12-17 12"},"coordinates":[6282,9008]},{"type":"Point","properties":{"Station_ID":"NJ-SS-39","Station_Nam":"WANTAGE TWP 1.6 SE, NJ","Latitude":"41.22830","Longitude":"-74.60330","Snowdepth":"10.700","Units":"in","Rept_Date":"2020-12-17 12"},"coordinates":[5312,3589]},{"type":"Point","properties":{"Station_ID":"QTV","Station_Nam":"QTV","Latitude":"49.66000","Longitude":"-69.35690","Snowdepth":"10.669","Units":"in","Rept_Date":"2020-12-17 12"},"coordinates":[6544,8737]},{"type":"Point","properties":{"Station_ID":"VT-WH-29","Station_Nam":"BRATTLEBORO 0.7 S, VT","Latitude":"42.84030","Longitude":"-72.55580","Snowdepth":"10.500","Units":"in","Rept_Date":"2020-12-17 12"},"coordinates":[5793,4573]},{"type":"Point","properties":{"Station_ID":"RI-PR-50","Station_Nam":"HARRISVILLE 1.2 SSE, RI","Latitude":"41.95128","Longitude":"-71.67171","Snowdepth":"10.500","Units":"in","Rept_Date":"2020-12-17 12"},"coordinates":[6000,4030]},{"type":"Point","properties":{"Station_ID":"PA-WT-41","Station_Nam":"NEW KENSINGTON 3.9 E, PA","Latitude":"40.55995","Longitude":"-79.67713","Snowdepth":"10.500","Units":"in","Rept_Date":"2020-12-17 13"},"coordinates":[4122,3181]},{"type":"Point","properties":{"Station_ID":"PA-LZ-27","Station_Nam":"HAZLETON 1.6 NW, PA","Latitude":"40.96814","Longitude":"-75.99070","Snowdepth":"10.500","Units":"in","Rept_Date":"2020-12-17 16"},"coordinates":[4987,3430]},{"type":"Point","properties":{"Station_ID":"PA-LH-25","Station_Nam":"COOPERSBURG 2.8 WSW, PA","Latitude":"40.49818","Longitude":"-75.44143","Snowdepth":"10.500","Units":"in","Rept_Date":"2020-12-17 13"},"coordinates":[5116,3143]},{"type":"Point","properties":{"Station_ID":"PA-CB-4","Station_Nam":"PALMERTON 5.8 ENE, PA","Latitude":"40.83902","Longitude":"-75.51850","Snowdepth":"10.500","Units":"in","Rept_Date":"2020-12-17 13"},"coordinates":[5098,3351]},{"type":"Point","properties":{"Station_ID":"PA-BL-10","Station_Nam":"ALTOONA 1.0 NNE, PA","Latitude":"40.52000","Longitude":"-78.39059","Snowdepth":"10.500","Units":"in","Rept_Date":"2020-12-17 13"},"coordinates":[4423,3157]},{"type":"Point","properties":{"Station_ID":"PA-AL-112","Station_Nam":"OAKMONT 0.7 ENE, PA","Latitude":"40.52446","Longitude":"-79.82470","Snowdepth":"10.500","Units":"in","Rept_Date":"2020-12-17 12"},"coordinates":[4087,3159]},{"type":"Point","properties":{"Station_ID":"NY-WC-11","Station_Nam":"PEEKSKILL 0.4 N, NY","Latitude":"41.29442","Longitude":"-73.92290","Snowdepth":"10.500","Units":"in","Rept_Date":"2020-12-17 13"},"coordinates":[5472,3629]},{"type":"Point","properties":{"Station_ID":"NY-OR-2","Station_Nam":"CORNWALL ON HUDSON 0.6 NNW, NY","Latitude":"41.44687","Longitude":"-74.02140","Snowdepth":"10.500","Units":"in","Rept_Date":"2020-12-17 12"},"coordinates":[5449,3722]},{"type":"Point","properties":{"Station_ID":"NY-DT-32","Station_Nam":"MILLBROOK 2.5 NE, NY","Latitude":"41.80954","Longitude":"-73.65880","Snowdepth":"10.500","Units":"in","Rept_Date":"2020-12-17 11"},"coordinates":[5534,3944]},{"type":"Point","properties":{"Station_ID":"MA-WR-56","Station_Nam":"STERLING 4.3 NW, MA","Latitude":"42.47540","Longitude":"-71.81140","Snowdepth":"10.500","Units":"in","Rept_Date":"2020-12-17 12"},"coordinates":[5968,4350]},{"type":"Point","properties":{"Station_ID":"MA-HS-2","Station_Nam":"WESTHAMPTON 1.8 SW, MA","Latitude":"42.27943","Longitude":"-72.78700","Snowdepth":"10.500","Units":"in","Rept_Date":"2020-12-17 13"},"coordinates":[5739,4231]},{"type":"Point","properties":{"Station_ID":"MA-FR-10","Station_Nam":"CONWAY 0.9 SW, MA","Latitude":"42.50879","Longitude":"-72.69730","Snowdepth":"10.500","Units":"in","Rept_Date":"2020-12-17 13"},"coordinates":[5760,4371]},{"type":"Point","properties":{"Station_ID":"MA-ES-12","Station_Nam":"BOXFORD 2.4 S, MA","Latitude":"42.63970","Longitude":"-70.97970","Snowdepth":"10.500","Units":"in","Rept_Date":"2020-12-17 12"},"coordinates":[6163,4451]},{"type":"Point","properties":{"Station_ID":"CT-LT-37","Station_Nam":"NEW MILFORD 3.1 WNW, CT","Latitude":"41.59784","Longitude":"-73.46574","Snowdepth":"10.500","Units":"in","Rept_Date":"2020-12-17 12"},"coordinates":[5579,3815]},{"type":"Point","properties":{"Station_ID":"CT-HR-104","Station_Nam":"WEST HARTFORD 1.1 S, CT","Latitude":"41.75188","Longitude":"-72.75220","Snowdepth":"10.500","Units":"in","Rept_Date":"2020-12-17 12"},"coordinates":[5747,3909]},{"type":"Point","properties":{"Station_ID":"NJ-SS-59","Station_Nam":"NEWTON 0.3 W, NJ","Latitude":"41.05350","Longitude":"-74.75808","Snowdepth":"10.400","Units":"in","Rept_Date":"2020-12-17 12"},"coordinates":[5276,3482]},{"type":"Point","properties":{"Station_ID":"QWE","Station_Nam":"QWE","Latitude":"47.84610","Longitude":"-73.80670","Snowdepth":"10.394","Units":"in","Rept_Date":"2020-12-17 12"},"coordinates":[5499,7630]},{"type":"Point","properties":{"Station_ID":"VT-RT-13","Station_Nam":"WEST RUTLAND 0.9 SSE, VT","Latitude":"43.58063","Longitude":"-73.04067","Snowdepth":"10.300","Units":"in","Rept_Date":"2020-12-17 13"},"coordinates":[5679,5025]},{"type":"Point","properties":{"Station_ID":"PA-IN-9","Station_Nam":"INDIANA 6.5 WNW, PA","Latitude":"40.66123","Longitude":"-79.26802","Snowdepth":"10.300","Units":"in","Rept_Date":"2020-12-17 13"},"coordinates":[4218,3243]},{"type":"Point","properties":{"Station_ID":"PA-CL-8","Station_Nam":"SUMMERVILLE 4.0 WNW, PA","Latitude":"41.13008","Longitude":"-79.26376","Snowdepth":"10.300","Units":"in","Rept_Date":"2020-12-17 13"},"coordinates":[4219,3529]},{"type":"Point","properties":{"Station_ID":"MA-MD-4","Station_Nam":"TOWNSEND 3.2 NW, MA","Latitude":"42.69850","Longitude":"-71.75190","Snowdepth":"10.300","Units":"in","Rept_Date":"2020-12-17 21"},"coordinates":[5982,4487]},{"type":"Point","properties":{"Station_ID":"NH-CR-16","Station_Nam":"WOLFEBORO 0.6 SW, NH","Latitude":"43.58464","Longitude":"-71.21760","Snowdepth":"10.200","Units":"in","Rept_Date":"2020-12-17 12"},"coordinates":[6107,5028]},{"type":"Point","properties":{"Station_ID":"CT-NL-10","Station_Nam":"NORWICH 2.5 NNE, CT","Latitude":"41.58485","Longitude":"-72.07674","Snowdepth":"10.200","Units":"in","Rept_Date":"2020-12-17 11"},"coordinates":[5905,3807]},{"type":"Point","properties":{"Station_ID":"CT-LT-27","Station_Nam":"NEW MILFORD 2.3 W, CT","Latitude":"41.59392","Longitude":"-73.45152","Snowdepth":"10.200","Units":"in","Rept_Date":"2020-12-17 13"},"coordinates":[5583,3812]},{"type":"Point","properties":{"Station_ID":"CT-HR-8","Station_Nam":"NORTH GRANBY 1.3 ENE, CT","Latitude":"42.02440","Longitude":"-72.82070","Snowdepth":"10.200","Units":"in","Rept_Date":"2020-12-17 12"},"coordinates":[5731,4075]},{"type":"Point","properties":{"Station_ID":"PA-JN-2","Station_Nam":"EAST WATERFORD 0.2 SW, PA","Latitude":"40.36812","Longitude":"-77.60757","Snowdepth":"10.100","Units":"in","Rept_Date":"2020-12-17 12"},"coordinates":[4607,3064]},{"type":"Point","properties":{"Station_ID":"PA-AL-92","Station_Nam":"ASPINWALL 0.0 NW, PA","Latitude":"40.49283","Longitude":"-79.90432","Snowdepth":"10.100","Units":"in","Rept_Date":"2020-12-17 12"},"coordinates":[4068,3140]},{"type":"Point","properties":{"Station_ID":"MA-MD-51","Station_Nam":"MAYNARD 0.7 ESE, MA","Latitude":"42.42027","Longitude":"-71.44484","Snowdepth":"10.100","Units":"in","Rept_Date":"2020-12-17 12"},"coordinates":[6054,4317]},{"type":"Point","properties":{"Station_ID":"MA-ES-48","Station_Nam":"ANDOVER 0.6 E, MA","Latitude":"42.65659","Longitude":"-71.13048","Snowdepth":"10.100","Units":"in","Rept_Date":"2020-12-17 10"},"coordinates":[6127,4461]},{"type":"Point","properties":{"Station_ID":"CT-WN-10","Station_Nam":"SOUTH WINDHAM 1.3 NNE, CT","Latitude":"41.70183","Longitude":"-72.17651","Snowdepth":"10.100","Units":"in","Rept_Date":"2020-12-17 14"},"coordinates":[5882,3878]},{"type":"Point","properties":{"Station_ID":"CT-TL-33","Station_Nam":"TOLLAND 3.6 NNE, CT","Latitude":"41.91859","Longitude":"-72.33910","Snowdepth":"10.100","Units":"in","Rept_Date":"2020-12-17 12"},"coordinates":[5844,4010]},{"type":"Point","properties":{"Station_ID":"WNSR1","Station_Nam":"WOONSOCKET","Latitude":"41.98440","Longitude":"-71.49070","Snowdepth":"10.000","Units":"in","Rept_Date":"2020-12-17 13"},"coordinates":[6043,4051]},{"type":"Point","properties":{"Station_ID":"WHTN6","Station_Nam":"WHITESVILLE","Latitude":"42.05980","Longitude":"-77.75530","Snowdepth":"10.000","Units":"in","Rept_Date":"2020-12-17 12"},"coordinates":[4573,4097]},{"type":"Point","properties":{"Station_ID":"WELN6","Station_Nam":"WELLSVILLE","Latitude":"42.11730","Longitude":"-77.94750","Snowdepth":"10.000","Units":"in","Rept_Date":"2020-12-17 10"},"coordinates":[4527,4132]},{"type":"Point","properties":{"Station_ID":"TIOP1","Station_Nam":"TIONESTA DAM","Latitude":"41.47530","Longitude":"-79.44190","Snowdepth":"10.000","Units":"in","Rept_Date":"2020-12-17 12"},"coordinates":[4177,3740]},{"type":"Point","properties":{"Station_ID":"SMTP1","Station_Nam":"SOUTH MOUNTAIN,PA","Latitude":"39.85000","Longitude":"-77.50000","Snowdepth":"10.000","Units":"in","Rept_Date":"2020-12-17 12"},"coordinates":[4633,2748]},{"type":"Point","properties":{"Station_ID":"SCHP1","Station_Nam":"FREEPORT DAM","Latitude":"40.68420","Longitude":"-79.66810","Snowdepth":"10.000","Units":"in","Rept_Date":"2020-12-17 12"},"coordinates":[4124,3257]},{"type":"Point","properties":{"Station_ID":"SBRM3","Station_Nam":"SOUTHBRIDGE","Latitude":"42.05830","Longitude":"-72.07210","Snowdepth":"10.000","Units":"in","Rept_Date":"2020-12-17 12"},"coordinates":[5906,4096]},{"type":"Point","properties":{"Station_ID":"RI-PR-33","Station_Nam":"GREENVILLE 0.7 NNW, RI","Latitude":"41.88890","Longitude":"-71.56030","Snowdepth":"10.000","Units":"in","Rept_Date":"2020-12-17 12"},"coordinates":[6027,3992]},{"type":"Point","properties":{"Station_ID":"RGLN4","Station_Nam":"REIGELSVILLE","Latitude":"40.59450","Longitude":"-75.18970","Snowdepth":"10.000","Units":"in","Rept_Date":"2020-12-17 12"},"coordinates":[5175,3202]},{"type":"Point","properties":{"Station_ID":"PBZP1","Station_Nam":"MOON TOWNSHIP","Latitude":"40.53190","Longitude":"-80.21720","Snowdepth":"10.000","Units":"in","Rept_Date":"2020-12-17 12"},"coordinates":[3995,3164]},{"type":"Point","properties":{"Station_ID":"PALP1","Station_Nam":"PORT ALLEGANY,PA","Latitude":"41.81670","Longitude":"-78.28330","Snowdepth":"10.000","Units":"in","Rept_Date":"2020-12-17 13"},"coordinates":[4449,3948]},{"type":"Point","properties":{"Station_ID":"PA-YR-31","Station_Nam":"MANCHESTER 0.7 NNW, PA","Latitude":"40.07128","Longitude":"-76.72305","Snowdepth":"10.000","Units":"in","Rept_Date":"2020-12-17 12"},"coordinates":[4815,2883]},{"type":"Point","properties":{"Station_ID":"PA-YR-27","Station_Nam":"HANOVER 1.3 SSE, PA","Latitude":"39.79539","Longitude":"-76.97132","Snowdepth":"10.000","Units":"in","Rept_Date":"2020-12-17 10"},"coordinates":[4757,2714]},{"type":"Point","properties":{"Station_ID":"PA-WT-46","Station_Nam":"JEANNETTE 2.5 NNW, PA","Latitude":"40.36241","Longitude":"-79.62385","Snowdepth":"10.000","Units":"in","Rept_Date":"2020-12-17 13"},"coordinates":[4134,3060]},{"type":"Point","properties":{"Station_ID":"PA-WS-5","Station_Nam":"MCMURRAY 0.2 NE, PA","Latitude":"40.28311","Longitude":"-80.08570","Snowdepth":"10.000","Units":"in","Rept_Date":"2020-12-17 12"},"coordinates":[4026,3012]},{"type":"Point","properties":{"Station_ID":"PA-WS-29","Station_Nam":"FINLEYVILLE 0.9 NNW, PA","Latitude":"40.26329","Longitude":"-80.01128","Snowdepth":"10.000","Units":"in","Rept_Date":"2020-12-17 12"},"coordinates":[4043,3000]},{"type":"Point","properties":{"Station_ID":"PA-NH-12","Station_Nam":"BETHLEHEM 1.8 NW, PA","Latitude":"40.64611","Longitude":"-75.39222","Snowdepth":"10.000","Units":"in","Rept_Date":"2020-12-17 13"},"coordinates":[5127,3234]},{"type":"Point","properties":{"Station_ID":"PA-FY-16","Station_Nam":"FARMINGTON 0.5 ENE, PA","Latitude":"39.81000","Longitude":"-79.55760","Snowdepth":"10.000","Units":"in","Rept_Date":"2020-12-17 11"},"coordinates":[4150,2723]},{"type":"Point","properties":{"Station_ID":"PA-CD-17","Station_Nam":"SHIREMANSTOWN 0.4 SE, PA","Latitude":"40.21803","Longitude":"-76.95163","Snowdepth":"10.000","Units":"in","Rept_Date":"2020-12-17 13"},"coordinates":[4761,2972]},{"type":"Point","properties":{"Station_ID":"PA-AL-70","Station_Nam":"PITTSBURGH 1.7 NNE, PA","Latitude":"40.46230","Longitude":"-79.96580","Snowdepth":"10.000","Units":"in","Rept_Date":"2020-12-17 12"},"coordinates":[4054,3121]},{"type":"Point","properties":{"Station_ID":"PA-AL-29","Station_Nam":"PITTSBURGH 5.2 S, PA","Latitude":"40.36544","Longitude":"-80.01098","Snowdepth":"10.000","Units":"in","Rept_Date":"2020-12-17 12"},"coordinates":[4043,3062]},{"type":"Point","properties":{"Station_ID":"PA-AL-1","Station_Nam":"BRIDGEVILLE 1.4 SW, PA","Latitude":"40.34174","Longitude":"-80.12290","Snowdepth":"10.000","Units":"in","Rept_Date":"2020-12-17 12"},"coordinates":[4017,3048]},{"type":"Point","properties":{"Station_ID":"OXFM3","Station_Nam":"BUFFUMVILLE LAKE","Latitude":"42.11630","Longitude":"-71.90740","Snowdepth":"10.000","Units":"in","Rept_Date":"2020-12-17 12"},"coordinates":[5945,4131]},{"type":"Point","properties":{"Station_ID":"OTTN3","Station_Nam":"OTTER BROOK LAKE","Latitude":"42.95000","Longitude":"-72.23330","Snowdepth":"10.000","Units":"in","Rept_Date":"2020-12-17 12"},"coordinates":[5869,4640]},{"type":"Point","properties":{"Station_ID":"NY-WC-6","Station_Nam":"SOUTH SALEM 2.1 NW, NY","Latitude":"41.30030","Longitude":"-73.57000","Snowdepth":"10.000","Units":"in","Rept_Date":"2020-12-17 12"},"coordinates":[5555,3633]},{"type":"Point","properties":{"Station_ID":"NY-WC-34","Station_Nam":"THORNWOOD 0.7 NW, NY","Latitude":"41.12032","Longitude":"-73.77614","Snowdepth":"10.000","Units":"in","Rept_Date":"2020-12-17 15"},"coordinates":[5506,3523]},{"type":"Point","properties":{"Station_ID":"NY-TM-4","Station_Nam":"GROTON 0.5 NW, NY","Latitude":"42.59127","Longitude":"-76.37200","Snowdepth":"10.000","Units":"in","Rept_Date":"2020-12-17 12"},"coordinates":[4897,4421]},{"type":"Point","properties":{"Station_ID":"NY-TM-36","Station_Nam":"ITHACA 2.0 ESE, NY","Latitude":"42.42932","Longitude":"-76.46871","Snowdepth":"10.000","Units":"in","Rept_Date":"2020-12-17 13"},"coordinates":[4875,4322]},{"type":"Point","properties":{"Station_ID":"NY-TM-27","Station_Nam":"GROTON 3.2 SSW, NY","Latitude":"42.54725","Longitude":"-76.39960","Snowdepth":"10.000","Units":"in","Rept_Date":"2020-12-17 13"},"coordinates":[4891,4394]},{"type":"Point","properties":{"Station_ID":"NY-PT-2","Station_Nam":"BEACON 4.2 ESE, NY","Latitude":"41.48070","Longitude":"-73.89110","Snowdepth":"10.000","Units":"in","Rept_Date":"2020-12-17 13"},"coordinates":[5479,3743]},{"type":"Point","properties":{"Station_ID":"NY-DT-8","Station_Nam":"MILLBROOK 3.2 SE, NY","Latitude":"41.75230","Longitude":"-73.64880","Snowdepth":"10.000","Units":"in","Rept_Date":"2020-12-17 12"},"coordinates":[5536,3909]},{"type":"Point","properties":{"Station_ID":"NTHM3","Station_Nam":"NORTHBRIDGE 2","Latitude":"42.11500","Longitude":"-71.67600","Snowdepth":"10.000","Units":"in","Rept_Date":"2020-12-17 12"},"coordinates":[5999,4130]},{"type":"Point","properties":{"Station_ID":"NJ-SS-54","Station_Nam":"SPARTA TWP 3.6 SSW, NJ","Latitude":"41.00503","Longitude":"-74.66358","Snowdepth":"10.000","Units":"in","Rept_Date":"2020-12-17 12"},"coordinates":[5298,3453]},{"type":"Point","properties":{"Station_ID":"NJ-MS-94","Station_Nam":"JEFFERSON TWP 4.4 SW, NJ","Latitude":"40.96404","Longitude":"-74.62162","Snowdepth":"10.000","Units":"in","Rept_Date":"2020-12-17 13"},"coordinates":[5308,3428]},{"type":"Point","properties":{"Station_ID":"NJ-BG-18","Station_Nam":"PALISADES PARK 0.2 WNW, NJ","Latitude":"40.84809","Longitude":"-74.00020","Snowdepth":"10.000","Units":"in","Rept_Date":"2020-12-17 17"},"coordinates":[5454,3357]},{"type":"Point","properties":{"Station_ID":"NATP1","Station_Nam":"NATRONA DAM","Latitude":"40.61360","Longitude":"-79.71890","Snowdepth":"10.000","Units":"in","Rept_Date":"2020-12-17 12"},"coordinates":[4112,3214]},{"type":"Point","properties":{"Station_ID":"MMNV1","Station_Nam":"MT. MANSFIELD","Latitude":"44.52480","Longitude":"-72.81540","Snowdepth":"10.000","Units":"in","Rept_Date":"2020-12-17 21"},"coordinates":[5732,5602]},{"type":"Point","properties":{"Station_ID":"MIDM3","Station_Nam":"MIDDLETON","Latitude":"42.59340","Longitude":"-71.01870","Snowdepth":"10.000","Units":"in","Rept_Date":"2020-12-17 15"},"coordinates":[6154,4422]},{"type":"Point","properties":{"Station_ID":"MECN6","Station_Nam":"MECKLENBURG 4 SW","Latitude":"42.44220","Longitude":"-76.75740","Snowdepth":"10.000","Units":"in","Rept_Date":"2020-12-17 12"},"coordinates":[4807,4330]},{"type":"Point","properties":{"Station_ID":"MACP1","Station_Nam":"MACUNGIE 1 SW","Latitude":"40.50690","Longitude":"-75.57290","Snowdepth":"10.000","Units":"in","Rept_Date":"2020-12-17 12"},"coordinates":[5085,3149]},{"type":"Point","properties":{"Station_ID":"MA-WR-89","Station_Nam":"HOLDEN 0.9 SSE, MA","Latitude":"42.33809","Longitude":"-71.85686","Snowdepth":"10.000","Units":"in","Rept_Date":"2020-12-17 11"},"coordinates":[5957,4267]},{"type":"Point","properties":{"Station_ID":"MA-WR-69","Station_Nam":"NORTHBRIDGE 1.7 WNW, MA","Latitude":"42.16305","Longitude":"-71.67888","Snowdepth":"10.000","Units":"in","Rept_Date":"2020-12-17 12"},"coordinates":[5999,4160]},{"type":"Point","properties":{"Station_ID":"MA-MD-89","Station_Nam":"SUDBURY 3.6 W, MA","Latitude":"42.36394","Longitude":"-71.47012","Snowdepth":"10.000","Units":"in","Rept_Date":"2020-12-17 12"},"coordinates":[6048,4282]},{"type":"Point","properties":{"Station_ID":"MA-MD-45","Station_Nam":"WILMINGTON 1.5 NE, MA","Latitude":"42.57302","Longitude":"-71.14417","Snowdepth":"10.000","Units":"in","Rept_Date":"2020-12-17 12"},"coordinates":[6124,4410]},{"type":"Point","properties":{"Station_ID":"MA-MD-158","Station_Nam":"SHERBORN 1.1 NW, MA","Latitude":"42.24460","Longitude":"-71.38130","Snowdepth":"10.000","Units":"in","Rept_Date":"2020-12-17 10"},"coordinates":[6069,4210]},{"type":"Point","properties":{"Station_ID":"MA-MD-115","Station_Nam":"HUDSON 1.4 NW, MA","Latitude":"42.40372","Longitude":"-71.58680","Snowdepth":"10.000","Units":"in","Rept_Date":"2020-12-17 12"},"coordinates":[6020,4307]},{"type":"Point","properties":{"Station_ID":"MA-MD-107","Station_Nam":"FRAMINGHAM 1.7 E, MA","Latitude":"42.30516","Longitude":"-71.40471","Snowdepth":"10.000","Units":"in","Rept_Date":"2020-12-17 13"},"coordinates":[6063,4247]},{"type":"Point","properties":{"Station_ID":"MA-HD-30","Station_Nam":"HAMPDEN 2.0 NW, MA","Latitude":"42.08370","Longitude":"-72.44895","Snowdepth":"10.000","Units":"in","Rept_Date":"2020-12-17 13"},"coordinates":[5818,4111]},{"type":"Point","properties":{"Station_ID":"MA-HD-28","Station_Nam":"WESTFIELD 2.8 SE, MA","Latitude":"42.10685","Longitude":"-72.72148","Snowdepth":"10.000","Units":"in","Rept_Date":"2020-12-17 11"},"coordinates":[5754,4125]},{"type":"Point","properties":{"Station_ID":"MA-HD-25","Station_Nam":"LUDLOW 2.3 SW, MA","Latitude":"42.14523","Longitude":"-72.51650","Snowdepth":"10.000","Units":"in","Rept_Date":"2020-12-17 13"},"coordinates":[5802,4149]},{"type":"Point","properties":{"Station_ID":"MA-BE-23","Station_Nam":"SHEFFIELD 1.6 NW, MA","Latitude":"42.12315","Longitude":"-73.37264","Snowdepth":"10.000","Units":"in","Rept_Date":"2020-12-17 12"},"coordinates":[5601,4135]},{"type":"Point","properties":{"Station_ID":"MA-BE-20","Station_Nam":"LEE 3.7 SE, MA","Latitude":"42.27242","Longitude":"-73.19763","Snowdepth":"10.000","Units":"in","Rept_Date":"2020-12-17 12"},"coordinates":[5642,4227]},{"type":"Point","properties":{"Station_ID":"LGHP1","Station_Nam":"LEHIGHTON 1SSW","Latitude":"40.82230","Longitude":"-75.69620","Snowdepth":"10.000","Units":"in","Rept_Date":"2020-12-17 13"},"coordinates":[5056,3341]},{"type":"Point","properties":{"Station_ID":"KMWN","Station_Nam":"MOUNT WASHINGTON","Latitude":"44.26666","Longitude":"-71.30000","Snowdepth":"10.000","Units":"in","Rept_Date":"2020-12-18 06"},"coordinates":[6088,5444]},{"type":"Point","properties":{"Station_ID":"KMHT","Station_Nam":"MANCHESTER AIRPORT","Latitude":"42.93333","Longitude":"-71.43333","Snowdepth":"10.000","Units":"in","Rept_Date":"2020-12-18 06"},"coordinates":[6056,4630]},{"type":"Point","properties":{"Station_ID":"ITHN6","Station_Nam":"ITHACA,NY","Latitude":"42.45000","Longitude":"-76.45000","Snowdepth":"10.000","Units":"in","Rept_Date":"2020-12-17 12"},"coordinates":[4879,4335]},{"type":"Point","properties":{"Station_ID":"HVCN3","Station_Nam":"HARVARD CABIN SNOWPLOT","Latitude":"44.26630","Longitude":"-71.27790","Snowdepth":"10.000","Units":"in","Rept_Date":"2020-12-17 10"},"coordinates":[6093,5444]},{"type":"Point","properties":{"Station_ID":"HRLN6","Station_Nam":"HORNELL ALMOND DAM","Latitude":"42.34880","Longitude":"-77.70440","Snowdepth":"10.000","Units":"in","Rept_Date":"2020-12-17 12"},"coordinates":[4585,4273]},{"type":"Point","properties":{"Station_ID":"GRFM3","Station_Nam":"GREENFIELD NO. 3","Latitude":"42.57190","Longitude":"-72.59750","Snowdepth":"10.000","Units":"in","Rept_Date":"2020-12-17 12"},"coordinates":[5783,4409]},{"type":"Point","properties":{"Station_ID":"FVLN6","Station_Nam":"FREEVILLE,NY","Latitude":"42.51670","Longitude":"-76.33330","Snowdepth":"10.000","Units":"in","Rept_Date":"2020-12-17 13"},"coordinates":[4906,4376]},{"type":"Point","properties":{"Station_ID":"CT-WN-20","Station_Nam":"PUTNAM 0.8 SW, CT","Latitude":"41.91460","Longitude":"-71.92142","Snowdepth":"10.000","Units":"in","Rept_Date":"2020-12-17 20"},"coordinates":[5942,4008]},{"type":"Point","properties":{"Station_ID":"CT-WN-2","Station_Nam":"NORTH GROSVENOR DALE 1.7 SSE, CT","Latitude":"41.96227","Longitude":"-71.88700","Snowdepth":"10.000","Units":"in","Rept_Date":"2020-12-17 13"},"coordinates":[5950,4037]},{"type":"Point","properties":{"Station_ID":"CT-TL-35","Station_Nam":"SOMERSVILLE 0.2 ENE, CT","Latitude":"41.98391","Longitude":"-72.48394","Snowdepth":"10.000","Units":"in","Rept_Date":"2020-12-17 12"},"coordinates":[5810,4050]},{"type":"Point","properties":{"Station_ID":"CT-TL-27","Station_Nam":"WILLINGTON 2.7 SE, CT","Latitude":"41.83890","Longitude":"-72.22430","Snowdepth":"10.000","Units":"in","Rept_Date":"2020-12-17 12"},"coordinates":[5871,3962]},{"type":"Point","properties":{"Station_ID":"CT-NH-22","Station_Nam":"PROSPECT 0.5 SW, CT","Latitude":"41.49734","Longitude":"-72.98605","Snowdepth":"10.000","Units":"in","Rept_Date":"2020-12-17 13"},"coordinates":[5692,3753]},{"type":"Point","properties":{"Station_ID":"CT-MD-30","Station_Nam":"CHESTER CENTER 2.7 WNW, CT","Latitude":"41.41927","Longitude":"-72.49858","Snowdepth":"10.000","Units":"in","Rept_Date":"2020-12-17 12"},"coordinates":[5806,3706]},{"type":"Point","properties":{"Station_ID":"CT-LT-22","Station_Nam":"NEW MILFORD 5.3 SSW, CT","Latitude":"41.51472","Longitude":"-73.43604","Snowdepth":"10.000","Units":"in","Rept_Date":"2020-12-17 13"},"coordinates":[5586,3764]},{"type":"Point","properties":{"Station_ID":"CT-HR-68","Station_Nam":"ROCKY HILL 1.3 E, CT","Latitude":"41.65916","Longitude":"-72.64144","Snowdepth":"10.000","Units":"in","Rept_Date":"2020-12-17 13"},"coordinates":[5773,3852]},{"type":"Point","properties":{"Station_ID":"CT-HR-22","Station_Nam":"EAST HARTFORD 1.3 E, CT","Latitude":"41.75716","Longitude":"-72.59160","Snowdepth":"10.000","Units":"in","Rept_Date":"2020-12-17 13"},"coordinates":[5784,3912]},{"type":"Point","properties":{"Station_ID":"CT-FR-9","Station_Nam":"BROOKFIELD 3.3 SSE, CT","Latitude":"41.44057","Longitude":"-73.39040","Snowdepth":"10.000","Units":"in","Rept_Date":"2020-12-17 12"},"coordinates":[5597,3719]},{"type":"Point","properties":{"Station_ID":"CT-FR-85","Station_Nam":"DANBURY 3.0 W, CT","Latitude":"41.39710","Longitude":"-73.52960","Snowdepth":"10.000","Units":"in","Rept_Date":"2020-12-17 13"},"coordinates":[5564,3692]},{"type":"Point","properties":{"Station_ID":"CT-FR-43","Station_Nam":"BETHEL 0.5 E, CT","Latitude":"41.37032","Longitude":"-73.40136","Snowdepth":"10.000","Units":"in","Rept_Date":"2020-12-17 11"},"coordinates":[5594,3676]},{"type":"Point","properties":{"Station_ID":"CSLP1","Station_Nam":"CARLISLE WATER PLANT","Latitude":"40.22580","Longitude":"-77.18940","Snowdepth":"10.000","Units":"in","Rept_Date":"2020-12-17 12"},"coordinates":[4705,2977]},{"type":"Point","properties":{"Station_ID":"CNRM1","Station_Nam":"CONNOR TWP","Latitude":"46.95830","Longitude":"-68.03330","Snowdepth":"10.000","Units":"in","Rept_Date":"2020-12-17 12"},"coordinates":[6854,7088]},{"type":"Point","properties":{"Station_ID":"CLMP1","Station_Nam":"CLERMONT 1 NW","Latitude":"41.69610","Longitude":"-78.48780","Snowdepth":"10.000","Units":"in","Rept_Date":"2020-12-17 12"},"coordinates":[4401,3875]},{"type":"Point","properties":{"Station_ID":"CARN6","Station_Nam":"CARMEL 4N","Latitude":"41.47250","Longitude":"-73.65500","Snowdepth":"10.000","Units":"in","Rept_Date":"2020-12-17 13"},"coordinates":[5535,3738]},{"type":"Point","properties":{"Station_ID":"BEVM3","Station_Nam":"BEVERLY","Latitude":"42.58800","Longitude":"-70.83710","Snowdepth":"10.000","Units":"in","Rept_Date":"2020-12-17 12"},"coordinates":[6196,4419]},{"type":"Point","properties":{"Station_ID":"APN","Station_Nam":"PHELPS COLLINS FIELD","Latitude":"45.07810","Longitude":"-83.56030","Snowdepth":"10.000","Units":"in","Rept_Date":"2020-12-18 00"},"coordinates":[3210,5940]},{"type":"Point","properties":{"Station_ID":"ALPM4","Station_Nam":"SNOW PAID OBSERVER FOR KAPN","Latitude":"45.03110","Longitude":"-83.55970","Snowdepth":"10.000","Units":"in","Rept_Date":"2020-12-18 06"},"coordinates":[3210,5911]},{"type":"Point","properties":{"Station_ID":"ALOP1","Station_Nam":"ALTOONA 2","Latitude":"40.52670","Longitude":"-78.36940","Snowdepth":"10.000","Units":"in","Rept_Date":"2020-12-18 05"},"coordinates":[4428,3161]},{"type":"Point","properties":{"Station_ID":"QGD","Station_Nam":"QGD","Latitude":"51.11140","Longitude":"-67.13940","Snowdepth":"9.961","Units":"in","Rept_Date":"2020-12-17 12"},"coordinates":[7064,9623]},{"type":"Point","properties":{"Station_ID":"QTM","Station_Nam":"QTM","Latitude":"51.05780","Longitude":"-72.57190","Snowdepth":"9.921","Units":"in","Rept_Date":"2020-12-17 12"},"coordinates":[5789,9590]},{"type":"Point","properties":{"Station_ID":"CT-MD-25","Station_Nam":"MIDDLEFIELD 0.6 SE, CT","Latitude":"41.51030","Longitude":"-72.70500","Snowdepth":"9.900","Units":"in","Rept_Date":"2020-12-17 14"},"coordinates":[5758,3761]},{"type":"Point","properties":{"Station_ID":"QLP","Station_Nam":"QLP","Latitude":"48.13920","Longitude":"-72.63830","Snowdepth":"9.882","Units":"in","Rept_Date":"2020-12-17 12"},"coordinates":[5774,7809]},{"type":"Point","properties":{"Station_ID":"PA-WS-8","Station_Nam":"VENETIA 0.7 WNW, PA","Latitude":"40.25222","Longitude":"-80.05390","Snowdepth":"9.800","Units":"in","Rept_Date":"2020-12-17 13"},"coordinates":[4033,2993]},{"type":"Point","properties":{"Station_ID":"NY-MD-10","Station_Nam":"CAZENOVIA 2.9 SE, NY","Latitude":"42.90003","Longitude":"-75.81140","Snowdepth":"9.800","Units":"in","Rept_Date":"2020-12-17 12"},"coordinates":[5029,4610]},{"type":"Point","properties":{"Station_ID":"CAN-NL-82","Station_Nam":"GANDER 2.7 NW, CAN","Latitude":"48.97737","Longitude":"-54.63396","Snowdepth":"9.800","Units":"in","Rept_Date":"2020-12-17 10"},"coordinates":[9999,8320]},{"type":"Point","properties":{"Station_ID":"NJ-HD-1","Station_Nam":"HARRISON 0.3 N, NJ","Latitude":"40.74804","Longitude":"-74.15180","Snowdepth":"9.700","Units":"in","Rept_Date":"2020-12-17 13"},"coordinates":[5418,3296]},{"type":"Point","properties":{"Station_ID":"NH-HL-99","Station_Nam":"PETERBOROUGH 0.2 E, NH","Latitude":"42.87633","Longitude":"-71.95887","Snowdepth":"9.700","Units":"in","Rept_Date":"2020-12-17 12"},"coordinates":[5933,4595]},{"type":"Point","properties":{"Station_ID":"MA-MD-151","Station_Nam":"CAMBRIDGE 0.9 SSE, MA","Latitude":"42.36436","Longitude":"-71.10871","Snowdepth":"9.700","Units":"in","Rept_Date":"2020-12-17 12"},"coordinates":[6133,4283]},{"type":"Point","properties":{"Station_ID":"MA-ES-68","Station_Nam":"NEWBURYPORT 1.3 WNW, MA","Latitude":"42.82380","Longitude":"-70.91140","Snowdepth":"9.700","Units":"in","Rept_Date":"2020-12-17 12"},"coordinates":[6179,4563]},{"type":"Point","properties":{"Station_ID":"RI-PR-28","Station_Nam":"NORTH SMITHFIELD 0.7 SE, RI","Latitude":"41.95910","Longitude":"-71.54201","Snowdepth":"9.600","Units":"in","Rept_Date":"2020-12-17 12"},"coordinates":[6031,4035]},{"type":"Point","properties":{"Station_ID":"PA-WT-58","Station_Nam":"NEW ALEXANDRIA 1.9 WSW, PA","Latitude":"40.38083","Longitude":"-79.45139","Snowdepth":"9.600","Units":"in","Rept_Date":"2020-12-17 12"},"coordinates":[4175,3072]},{"type":"Point","properties":{"Station_ID":"VT-WR-2","Station_Nam":"POMFRET 2.6 N, VT","Latitude":"43.74230","Longitude":"-72.52550","Snowdepth":"9.500","Units":"in","Rept_Date":"2020-12-17 12"},"coordinates":[5800,5124]},{"type":"Point","properties":{"Station_ID":"VA-FD-3","Station_Nam":"WINCHESTER 9.4 NW, VA","Latitude":"39.27410","Longitude":"-78.29630","Snowdepth":"9.500","Units":"in","Rept_Date":"2020-12-17 13"},"coordinates":[4446,2396]},{"type":"Point","properties":{"Station_ID":"RI-WS-42","Station_Nam":"RICHMOND 4.6 NNE, RI","Latitude":"41.55760","Longitude":"-71.63980","Snowdepth":"9.500","Units":"in","Rept_Date":"2020-12-17 11"},"coordinates":[6008,3790]},{"type":"Point","properties":{"Station_ID":"PA-SC-8","Station_Nam":"VALLEY VIEW 0.5 W, PA","Latitude":"40.64369","Longitude":"-76.54847","Snowdepth":"9.500","Units":"in","Rept_Date":"2020-12-17 11"},"coordinates":[4856,3232]},{"type":"Point","properties":{"Station_ID":"PA-AL-97","Station_Nam":"PITTSBURGH 3.2 NE, PA","Latitude":"40.46841","Longitude":"-79.92951","Snowdepth":"9.500","Units":"in","Rept_Date":"2020-12-17 13"},"coordinates":[4062,3125]},{"type":"Point","properties":{"Station_ID":"NY-TM-38","Station_Nam":"TRUMANSBURG 0.4 WNW, NY","Latitude":"42.54205","Longitude":"-76.66870","Snowdepth":"9.500","Units":"in","Rept_Date":"2020-12-17 12"},"coordinates":[4828,4391]},