{"type":"Topology","objects":{"snowdepth_geo":{"type":"GeometryCollection","name":"snowdepth","crs":{"type":"name","properties":{"name":"urn:ogc:def:crs:OGC:1.3:CRS84"}},"geometries":[{"type":"Point","properties":{"Station_ID":"PRKM4","Station_Nam":"MUNISING EAST","Latitude":"46.42580","Longitude":"-86.62000","Snowdepth":"76.500","Units":"in","Rept_Date":"2020-03-13 06"},"coordinates":[2492,6728]},{"type":"Point","properties":{"Station_ID":"MMNV1","Station_Nam":"MT. MANSFIELD","Latitude":"44.52480","Longitude":"-72.81540","Snowdepth":"62.000","Units":"in","Rept_Date":"2020-03-12 20"},"coordinates":[5732,5555]},{"type":"Point","properties":{"Station_ID":"OGIQ6","Station_Nam":"OGOKI CAMP","Latitude":"50.76680","Longitude":"-87.85820","Snowdepth":"61.100","Units":"in","Rept_Date":"2020-03-13 06"},"coordinates":[2202,9407]},{"type":"Point","properties":{"Station_ID":"HTLN3","Station_Nam":"HERMIT LAKE SNOWPLOT","Latitude":"44.26130","Longitude":"-71.28330","Snowdepth":"60.000","Units":"in","Rept_Date":"2020-03-12 09"},"coordinates":[6092,5392]},{"type":"Point","properties":{"Station_ID":"AUDQ6","Station_Nam":"AUDEN","Latitude":"48.52600","Longitude":"-82.57570","Snowdepth":"47.640","Units":"in","Rept_Date":"2020-03-13 06"},"coordinates":[3441,8024]},{"type":"Point","properties":{"Station_ID":"DVLQ6","Station_Nam":"DEVIOUS LAKE","Latitude":"49.19890","Longitude":"-87.76440","Snowdepth":"43.460","Units":"in","Rept_Date":"2020-03-13 06"},"coordinates":[2224,8439]},{"type":"Point","properties":{"Station_ID":"CLUM4","Station_Nam":"CALUMET-TAMARACK","Latitude":"47.24550","Longitude":"-88.46790","Snowdepth":"43.000","Units":"in","Rept_Date":"2020-03-12 13"},"coordinates":[2058,7234]},{"type":"Point","properties":{"Station_ID":"PDLM4","Station_Nam":"PAINESDALE","Latitude":"47.04160","Longitude":"-88.67170","Snowdepth":"42.000","Units":"in","Rept_Date":"2020-03-12 12"},"coordinates":[2011,7108]},{"type":"Point","properties":{"Station_ID":"CAN-NL-82","Station_Nam":"GANDER 2.7 NW, CAN","Latitude":"48.97737","Longitude":"-54.63396","Snowdepth":"40.600","Units":"in","Rept_Date":"2020-03-12 10"},"coordinates":[9999,8302]},{"type":"Point","properties":{"Station_ID":"MNSM4","Station_Nam":"MUNISING","Latitude":"46.41210","Longitude":"-86.66250","Snowdepth":"36.000","Units":"in","Rept_Date":"2020-03-12 10"},"coordinates":[2482,6719]},{"type":"Point","properties":{"Station_ID":"ME-AR-18","Station_Nam":"NEW SWEDEN 4.9 NNW, ME","Latitude":"47.01080","Longitude":"-68.14390","Snowdepth":"35.000","Units":"in","Rept_Date":"2020-03-12 12"},"coordinates":[6828,7089]},{"type":"Point","properties":{"Station_ID":"WLFM5","Station_Nam":"WOLF RIDGE ENVIRON LEARNING CENTER","Latitude":"47.38240","Longitude":"-91.19730","Snowdepth":"34.000","Units":"in","Rept_Date":"2020-03-12 12"},"coordinates":[1418,7318]},{"type":"Point","properties":{"Station_ID":"KSGM4","Station_Nam":"KEARSARGE","Latitude":"47.27520","Longitude":"-88.41700","Snowdepth":"34.000","Units":"in","Rept_Date":"2020-03-12 12"},"coordinates":[2070,7252]},{"type":"Point","properties":{"Station_ID":"MQT","Station_Nam":"MARQUETTE, MI","Latitude":"46.53140","Longitude":"-87.54920","Snowdepth":"33.000","Units":"in","Rept_Date":"2020-03-13 06"},"coordinates":[2274,6793]},{"type":"Point","properties":{"Station_ID":"CAN-NB-105","Station_Nam":"SISSON BROOK 3.8 E, CAN","Latitude":"46.98305","Longitude":"-67.32532","Snowdepth":"32.700","Units":"in","Rept_Date":"2020-03-12 12"},"coordinates":[7020,7072]},{"type":"Point","properties":{"Station_ID":"CAN-NL-65","Station_Nam":"KIPPENS 0.7 NE, CA","Latitude":"48.55436","Longitude":"-58.61850","Snowdepth":"32.000","Units":"in","Rept_Date":"2020-03-12 12"},"coordinates":[9064,8041]},{"type":"Point","properties":{"Station_ID":"CAN-QC-47","Station_Nam":"SAINTE-FOY 1.8 ENE, CAN","Latitude":"46.76934","Longitude":"-71.27124","Snowdepth":"31.700","Units":"in","Rept_Date":"2020-03-12 12"},"coordinates":[6094,6940]},{"type":"Point","properties":{"Station_ID":"CAN-NB-13","Station_Nam":"BATHURST 3.8 NW, CAN","Latitude":"47.64212","Longitude":"-65.68756","Snowdepth":"31.000","Units":"in","Rept_Date":"2020-03-12 11"},"coordinates":[7405,7478]},{"type":"Point","properties":{"Station_ID":"PTLQ6","Station_Nam":"PORTAGE LAKE","Latitude":"49.06950","Longitude":"-86.65940","Snowdepth":"30.550","Units":"in","Rept_Date":"2020-03-13 06"},"coordinates":[2483,8359]},{"type":"Point","properties":{"Station_ID":"QNCM4","Station_Nam":"QUINCY HILL","Latitude":"47.13640","Longitude":"-88.57950","Snowdepth":"30.000","Units":"in","Rept_Date":"2020-03-12 11"},"coordinates":[2032,7166]},{"type":"Point","properties":{"Station_ID":"MI-BG-3","Station_Nam":"L'ANSE 17.8 SE, MI","Latitude":"46.55730","Longitude":"-88.20770","Snowdepth":"30.000","Units":"in","Rept_Date":"2020-03-12 13"},"coordinates":[2119,6809]},{"type":"Point","properties":{"Station_ID":"VANM1","Station_Nam":"VAN BUREN","Latitude":"47.16600","Longitude":"-67.93900","Snowdepth":"29.000","Units":"in","Rept_Date":"2020-03-12 11"},"coordinates":[6876,7185]},{"type":"Point","properties":{"Station_ID":"CARM1","Station_Nam":"CARIBOU WFO","Latitude":"46.86810","Longitude":"-68.01250","Snowdepth":"29.000","Units":"in","Rept_Date":"2020-03-12 12"},"coordinates":[6859,7001]},{"type":"Point","properties":{"Station_ID":"CAR","Station_Nam":"CARIBOU, ME","Latitude":"46.86830","Longitude":"-68.01360","Snowdepth":"29.000","Units":"in","Rept_Date":"2020-03-12 12"},"coordinates":[6859,7001]},{"type":"Point","properties":{"Station_ID":"CAN-NB-11","Station_Nam":"MIRAMICHI 3.3 S, CAN","Latitude":"46.99343","Longitude":"-65.50690","Snowdepth":"28.000","Units":"in","Rept_Date":"2020-03-12 11"},"coordinates":[7447,7078]},{"type":"Point","properties":{"Station_ID":"SVBQ6","Station_Nam":"SAVANT BASE","Latitude":"50.28730","Longitude":"-90.65670","Snowdepth":"27.400","Units":"in","Rept_Date":"2020-03-13 06"},"coordinates":[1545,9111]},{"type":"Point","properties":{"Station_ID":"IBLM5","Station_Nam":"ISABELLA 14W","Latitude":"47.59360","Longitude":"-91.65140","Snowdepth":"27.000","Units":"in","Rept_Date":"2020-03-12 14"},"coordinates":[1311,7448]},{"type":"Point","properties":{"Station_ID":"FISM1","Station_Nam":"FORT KENT COOP","Latitude":"47.23850","Longitude":"-68.61240","Snowdepth":"27.000","Units":"in","Rept_Date":"2020-03-12 11"},"coordinates":[6718,7229]},{"type":"Point","properties":{"Station_ID":"TRIQ6","Station_Nam":"TRIO LAKE","Latitude":"49.22880","Longitude":"-87.22920","Snowdepth":"26.220","Units":"in","Rept_Date":"2020-03-13 06"},"coordinates":[2349,8457]},{"type":"Point","properties":{"Station_ID":"HERM4","Station_Nam":"HERMAN,MI","Latitude":"46.65000","Longitude":"-88.33330","Snowdepth":"26.000","Units":"in","Rept_Date":"2020-03-12 12"},"coordinates":[2090,6866]},{"type":"Point","properties":{"Station_ID":"CAN-NB-96","Station_Nam":"SAINT-IGNACE 2.6 NE, CAN","Latitude":"46.71424","Longitude":"-65.05609","Snowdepth":"24.400","Units":"in","Rept_Date":"2020-03-12 11"},"coordinates":[7553,6906]},{"type":"Point","properties":{"Station_ID":"CRVW3","Station_Nam":"CRIVITZ HIGH FALLS","Latitude":"45.35750","Longitude":"-88.19190","Snowdepth":"24.000","Units":"in","Rept_Date":"2020-03-12 12"},"coordinates":[2123,6069]},{"type":"Point","properties":{"Station_ID":"SOCQ6","Station_Nam":"SOCKET LAKE","Latitude":"50.77870","Longitude":"-91.79300","Snowdepth":"23.070","Units":"in","Rept_Date":"2020-03-13 06"},"coordinates":[1278,9414]},{"type":"Point","properties":{"Station_ID":"GLDM4","Station_Nam":"GLADSTONE NO. 2","Latitude":"45.84330","Longitude":"-87.03910","Snowdepth":"23.000","Units":"in","Rept_Date":"2020-03-12 11"},"coordinates":[2394,6368]},{"type":"Point","properties":{"Station_ID":"CATQ6","Station_Nam":"CAT LAKE","Latitude":"51.72690","Longitude":"-91.82210","Snowdepth":"22.760","Units":"in","Rept_Date":"2020-03-13 06"},"coordinates":[1271,9999]},{"type":"Point","properties":{"Station_ID":"WI-VL-10","Station_Nam":"LAND O LAKES 4.3 WNW, WI","Latitude":"46.17440","Longitude":"-89.30380","Snowdepth":"22.500","Units":"in","Rept_Date":"2020-03-12 13"},"coordinates":[1862,6573]},{"type":"Point","properties":{"Station_ID":"MI-HG-1","Station_Nam":"HOUGHTON 1.6 ESE, MI","Latitude":"47.10774","Longitude":"-88.52940","Snowdepth":"22.500","Units":"in","Rept_Date":"2020-03-12 13"},"coordinates":[2044,7149]},{"type":"Point","properties":{"Station_ID":"ZCLM4","Station_Nam":"CALUMET","Latitude":"47.24030","Longitude":"-88.44940","Snowdepth":"22.000","Units":"in","Rept_Date":"2020-03-12 12"},"coordinates":[2063,7230]},{"type":"Point","properties":{"Station_ID":"SSMM4","Station_Nam":"SAULT STE MARIE","Latitude":"46.48660","Longitude":"-84.40250","Snowdepth":"22.000","Units":"in","Rept_Date":"2020-03-12 12"},"coordinates":[3013,6765]},{"type":"Point","properties":{"Station_ID":"MN-CK-18","Station_Nam":"GRAND MARAIS 4.4 WSW, MN","Latitude":"47.74462","Longitude":"-90.43796","Snowdepth":"22.000","Units":"in","Rept_Date":"2020-03-12 13"},"coordinates":[1596,7542]},{"type":"Point","properties":{"Station_ID":"LNOW3","Station_Nam":"LAND O LAKES","Latitude":"46.19000","Longitude":"-89.45700","Snowdepth":"22.000","Units":"in","Rept_Date":"2020-03-12 12"},"coordinates":[1826,6582]},{"type":"Point","properties":{"Station_ID":"LILM1","Station_Nam":"LILLE","Latitude":"47.27770","Longitude":"-68.10520","Snowdepth":"22.000","Units":"in","Rept_Date":"2020-03-12 11"},"coordinates":[6837,7253]},{"type":"Point","properties":{"Station_ID":"KABQ6","Station_Nam":"CAB LAKE","Latitude":"49.59950","Longitude":"-89.17990","Snowdepth":"21.810","Units":"in","Rept_Date":"2020-03-13 06"},"coordinates":[1891,8686]},{"type":"Point","properties":{"Station_ID":"BRAM1","Station_Nam":"BRASSUA DAM","Latitude":"45.66020","Longitude":"-69.81190","Snowdepth":"21.000","Units":"in","Rept_Date":"2020-03-12 11"},"coordinates":[6437,6255]},{"type":"Point","properties":{"Station_ID":"BBEM4","Station_Nam":"BIG BAY 9SW","Latitude":"46.74620","Longitude":"-87.88160","Snowdepth":"21.000","Units":"in","Rept_Date":"2020-03-12 12"},"coordinates":[2196,6925]},{"type":"Point","properties":{"Station_ID":"ANJM4","Station_Nam":"SNOW PAID OBSERVER FOR KANJ","Latitude":"46.48670","Longitude":"-84.40260","Snowdepth":"21.000","Units":"in","Rept_Date":"2020-03-13 00"},"coordinates":[3013,6765]},{"type":"Point","properties":{"Station_ID":"ANJ","Station_Nam":"SAULT STE MARIE","Latitude":"46.46670","Longitude":"-84.36670","Snowdepth":"21.000","Units":"in","Rept_Date":"2020-03-13 00"},"coordinates":[3021,6753]},{"type":"Point","properties":{"Station_ID":"CAN-PE-19","Station_Nam":"CHARLOTTETOWN 6.5 NNW, CAN","Latitude":"46.29235","Longitude":"-63.17271","Snowdepth":"20.100","Units":"in","Rept_Date":"2020-03-12 12"},"coordinates":[7995,6645]},{"type":"Point","properties":{"Station_ID":"VT-OL-12","Station_Nam":"GREENSBORO 3.9 NNE, VT","Latitude":"44.63100","Longitude":"-72.28000","Snowdepth":"20.000","Units":"in","Rept_Date":"2020-03-12 12"},"coordinates":[5858,5620]},{"type":"Point","properties":{"Station_ID":"RKWM1","Station_Nam":"MOOSEHEAD LAKE","Latitude":"45.58330","Longitude":"-69.71670","Snowdepth":"20.000","Units":"in","Rept_Date":"2020-03-12 11"},"coordinates":[6459,6208]},{"type":"Point","properties":{"Station_ID":"PDGM4","Station_Nam":"PAULDING","Latitude":"46.39760","Longitude":"-89.17940","Snowdepth":"20.000","Units":"in","Rept_Date":"2020-03-12 12"},"coordinates":[1891,6710]},{"type":"Point","properties":{"Station_ID":"NH-CS-10","Station_Nam":"RANDOLPH 1.4 NE, NH","Latitude":"44.38824","Longitude":"-71.26950","Snowdepth":"20.000","Units":"in","Rept_Date":"2020-03-12 12"},"coordinates":[6095,5470]},{"type":"Point","properties":{"Station_ID":"MI-MQ-19","Station_Nam":"ISHPEMING 7.2 SW, MI","Latitude":"46.40550","Longitude":"-87.75670","Snowdepth":"20.000","Units":"in","Rept_Date":"2020-03-12 11"},"coordinates":[2225,6715]},{"type":"Point","properties":{"Station_ID":"MI-CP-14","Station_Nam":"SAULT STE. MARIE 2.2 E, MI","Latitude":"46.48933","Longitude":"-84.31971","Snowdepth":"20.000","Units":"in","Rept_Date":"2020-03-12 12"},"coordinates":[3032,6767]},{"type":"Point","properties":{"Station_ID":"ME-PN-45","Station_Nam":"MILLINOCKET 2.7 ESE, ME","Latitude":"45.65002","Longitude":"-68.64472","Snowdepth":"20.000","Units":"in","Rept_Date":"2020-03-12 11"},"coordinates":[6711,6249]},{"type":"Point","properties":{"Station_ID":"CEFM4","Station_Nam":"EXPERIMENT FARM #2","Latitude":"46.33330","Longitude":"-86.91670","Snowdepth":"20.000","Units":"in","Rept_Date":"2020-03-12 12"},"coordinates":[2422,6671]},{"type":"Point","properties":{"Station_ID":"CAN-NB-18","Station_Nam":"MCLEOD HILL 1.1 ENE, CA","Latitude":"46.02725","Longitude":"-66.67460","Snowdepth":"20.000","Units":"in","Rept_Date":"2020-03-12 12"},"coordinates":[7173,6482]},{"type":"Point","properties":{"Station_ID":"BRDM1","Station_Nam":"BRIDGEWATER","Latitude":"46.42870","Longitude":"-67.84370","Snowdepth":"20.000","Units":"in","Rept_Date":"2020-03-12 22"},"coordinates":[6899,6730]},{"type":"Point","properties":{"Station_ID":"ME-FR-2","Station_Nam":"TEMPLE 1.8 W, ME","Latitude":"44.68329","Longitude":"-70.26420","Snowdepth":"19.500","Units":"in","Rept_Date":"2020-03-12 11"},"coordinates":[6331,5652]},{"type":"Point","properties":{"Station_ID":"RGNM1","Station_Nam":"RANGELEY 2NW","Latitude":"44.98940","Longitude":"-70.67220","Snowdepth":"19.000","Units":"in","Rept_Date":"2020-03-12 10"},"coordinates":[6235,5841]},{"type":"Point","properties":{"Station_ID":"PRDM4","Station_Nam":"PARADISE","Latitude":"46.60380","Longitude":"-85.03960","Snowdepth":"19.000","Units":"in","Rept_Date":"2020-03-12 10"},"coordinates":[2863,6838]},{"type":"Point","properties":{"Station_ID":"NOHM5","Station_Nam":"NORTHOME","Latitude":"47.83590","Longitude":"-94.25550","Snowdepth":"19.000","Units":"in","Rept_Date":"2020-03-12 12"},"coordinates":[700,7598]},{"type":"Point","properties":{"Station_ID":"LVDW3","Station_Nam":"LAC VIEUX DESERT","Latitude":"46.12110","Longitude":"-89.07580","Snowdepth":"19.000","Units":"in","Rept_Date":"2020-03-12 14"},"coordinates":[1916,6540]},{"type":"Point","properties":{"Station_ID":"HRVM4","Station_Nam":"HARVEY","Latitude":"46.49080","Longitude":"-87.35470","Snowdepth":"19.000","Units":"in","Rept_Date":"2020-03-12 11"},"coordinates":[2320,6768]},{"type":"Point","properties":{"Station_ID":"GGRM4","Station_Nam":"GREEN GARDEN NO.2","Latitude":"46.45330","Longitude":"-87.30380","Snowdepth":"19.000","Units":"in","Rept_Date":"2020-03-12 10"},"coordinates":[2332,6745]},{"type":"Point","properties":{"Station_ID":"CRNM5","Station_Nam":"NW EXPERIMENT STN","Latitude":"47.80360","Longitude":"-96.61670","Snowdepth":"19.000","Units":"in","Rept_Date":"2020-03-12 13"},"coordinates":[146,7578]},{"type":"Point","properties":{"Station_ID":"CAN-ON-526","Station_Nam":"HILTON BEACH 0.7 SW - MNRF, CAN","Latitude":"46.25357","Longitude":"-83.90014","Snowdepth":"18.900","Units":"in","Rept_Date":"2020-03-12 12"},"coordinates":[3130,6621]},{"type":"Point","properties":{"Station_ID":"VT-CL-3","Station_Nam":"GROTON 4.4 WSW, VT","Latitude":"44.19440","Longitude":"-72.28240","Snowdepth":"18.500","Units":"in","Rept_Date":"2020-03-12 11"},"coordinates":[5857,5351]},{"type":"Point","properties":{"Station_ID":"MN-IT-17","Station_Nam":"GRAND RAPIDS 6.1 N, MN","Latitude":"47.31165","Longitude":"-93.55036","Snowdepth":"18.500","Units":"in","Rept_Date":"2020-03-12 13"},"coordinates":[866,7274]},{"type":"Point","properties":{"Station_ID":"WI-BY-2","Station_Nam":"MELLEN 18.6 SW, WI","Latitude":"46.16937","Longitude":"-90.98090","Snowdepth":"18.000","Units":"in","Rept_Date":"2020-03-12 14"},"coordinates":[1469,6570]},{"type":"Point","properties":{"Station_ID":"UPSW3","Station_Nam":"UPSON,WI","Latitude":"46.36780","Longitude":"-90.41220","Snowdepth":"18.000","Units":"in","Rept_Date":"2020-03-12 23"},"coordinates":[1602,6692]},{"type":"Point","properties":{"Station_ID":"SUAW3","Station_Nam":"SUAMICO","Latitude":"44.60190","Longitude":"-88.09780","Snowdepth":"18.000","Units":"in","Rept_Date":"2020-03-12 11"},"coordinates":[2145,5602]},{"type":"Point","properties":{"Station_ID":"RPDM4","Station_Nam":"RAPID RIVER 4SSE","Latitude":"45.87270","Longitude":"-86.94960","Snowdepth":"18.000","Units":"in","Rept_Date":"2020-03-12 13"},"coordinates":[2415,6386]},{"type":"Point","properties":{"Station_ID":"MN-IT-23","Station_Nam":"BOVEY 13.4 N, MN","Latitude":"47.48855","Longitude":"-93.43497","Snowdepth":"18.000","Units":"in","Rept_Date":"2020-03-12 13"},"coordinates":[893,7384]},{"type":"Point","properties":{"Station_ID":"MN-CK-6","Station_Nam":"GRAND MARAIS 4.4 W, MN","Latitude":"47.74865","Longitude":"-90.43760","Snowdepth":"18.000","Units":"in","Rept_Date":"2020-03-12 13"},"coordinates":[1596,7544]},{"type":"Point","properties":{"Station_ID":"MIEM4","Station_Nam":"MICHIGAMME 3WNW","Latitude":"46.54530","Longitude":"-88.18000","Snowdepth":"18.000","Units":"in","Rept_Date":"2020-03-12 12"},"coordinates":[2126,6802]},{"type":"Point","properties":{"Station_ID":"IWOM4","Station_Nam":"IRONWOOD#2","Latitude":"46.46520","Longitude":"-90.13820","Snowdepth":"18.000","Units":"in","Rept_Date":"2020-03-12 12"},"coordinates":[1666,6752]},{"type":"Point","properties":{"Station_ID":"HURW3","Station_Nam":"HURLEY","Latitude":"46.46250","Longitude":"-90.19550","Snowdepth":"18.000","Units":"in","Rept_Date":"2020-03-12 13"},"coordinates":[1653,6750]},{"type":"Point","properties":{"Station_ID":"DLHM5","Station_Nam":"DULUTH NWS","Latitude":"46.83680","Longitude":"-92.21080","Snowdepth":"18.000","Units":"in","Rept_Date":"2020-03-13 06"},"coordinates":[1180,6981]},{"type":"Point","properties":{"Station_ID":"DLH","Station_Nam":"DULUTH, MN","Latitude":"46.83690","Longitude":"-92.21030","Snowdepth":"18.000","Units":"in","Rept_Date":"2020-03-13 00"},"coordinates":[1180,6981]},{"type":"Point","properties":{"Station_ID":"DFXM1","Station_Nam":"DOVER-FOXCROFT","Latitude":"45.18720","Longitude":"-69.18350","Snowdepth":"18.000","Units":"in","Rept_Date":"2020-03-12 11"},"coordinates":[6584,5963]},{"type":"Point","properties":{"Station_ID":"CMKW3","Station_Nam":"CLAM LAKE 4W","Latitude":"46.16940","Longitude":"-90.98080","Snowdepth":"18.000","Units":"in","Rept_Date":"2020-03-12 13"},"coordinates":[1469,6570]},{"type":"Point","properties":{"Station_ID":"CAN-NS-60","Station_Nam":"SYDNEY FORKS, CAN","Latitude":"46.05645","Longitude":"-60.31510","Snowdepth":"18.000","Units":"in","Rept_Date":"2020-03-12 13"},"coordinates":[8666,6500]},{"type":"Point","properties":{"Station_ID":"BNDM5","Station_Nam":"ELY 25E","Latitude":"47.97190","Longitude":"-91.44860","Snowdepth":"18.000","Units":"in","Rept_Date":"2020-03-12 12"},"coordinates":[1359,7682]},{"type":"Point","properties":{"Station_ID":"FTHQ6","Station_Nam":"FORT HOPE","Latitude":"51.55820","Longitude":"-87.90510","Snowdepth":"17.400","Units":"in","Rept_Date":"2020-03-13 06"},"coordinates":[2191,9895]},{"type":"Point","properties":{"Station_ID":"STGW3","Station_Nam":"ST GERMAIN","Latitude":"45.91550","Longitude":"-89.48940","Snowdepth":"17.000","Units":"in","Rept_Date":"2020-03-12 11"},"coordinates":[1819,6413]},{"type":"Point","properties":{"Station_ID":"MI-DL-1","Station_Nam":"GARDEN CORNERS 0.8 NW, MI","Latitude":"45.89815","Longitude":"-86.54850","Snowdepth":"17.000","Units":"in","Rept_Date":"2020-03-12 13"},"coordinates":[2509,6402]},{"type":"Point","properties":{"Station_ID":"LPLN6","Station_Nam":"LAKE PLACID 2 S","Latitude":"44.30420","Longitude":"-73.98390","Snowdepth":"17.000","Units":"in","Rept_Date":"2020-03-12 12"},"coordinates":[5458,5419]},{"type":"Point","properties":{"Station_ID":"LEIM5","Station_Nam":"ORR 3E","Latitude":"48.05810","Longitude":"-92.75220","Snowdepth":"17.000","Units":"in","Rept_Date":"2020-03-12 11"},"coordinates":[1053,7735]},{"type":"Point","properties":{"Station_ID":"INL","Station_Nam":"FALLS INTERNATIONAL ARPT","Latitude":"48.56640","Longitude":"-93.40310","Snowdepth":"17.000","Units":"in","Rept_Date":"2020-03-13 00"},"coordinates":[900,8049]},{"type":"Point","properties":{"Station_ID":"IFSM5","Station_Nam":"INTERNATIONAL FALLS SNOW","Latitude":"48.57780","Longitude":"-93.39640","Snowdepth":"17.000","Units":"in","Rept_Date":"2020-03-13 06"},"coordinates":[902,8056]},{"type":"Point","properties":{"Station_ID":"GDCM4","Station_Nam":"GARDEN CORNERS","Latitude":"45.89830","Longitude":"-86.54850","Snowdepth":"17.000","Units":"in","Rept_Date":"2020-03-12 12"},"coordinates":[2509,6402]},{"type":"Point","properties":{"Station_ID":"ELYM5","Station_Nam":"ELY","Latitude":"47.90560","Longitude":"-91.82830","Snowdepth":"17.000","Units":"in","Rept_Date":"2020-03-12 13"},"coordinates":[1270,7641]},{"type":"Point","properties":{"Station_ID":"CSLM5","Station_Nam":"CASS LAKE,MN","Latitude":"47.38470","Longitude":"-94.61470","Snowdepth":"17.000","Units":"in","Rept_Date":"2020-03-12 13"},"coordinates":[616,7319]},{"type":"Point","properties":{"Station_ID":"CAN-ON-757","Station_Nam":"SAULT STE. MARIE 2.8 ESE - GLFC, CAN","Latitude":"46.50300","Longitude":"-84.30300","Snowdepth":"17.000","Units":"in","Rept_Date":"2020-03-12 13"},"coordinates":[3036,6775]},{"type":"Point","properties":{"Station_ID":"CAN-NS-103","Station_Nam":"TRAFALGAR 4.9 WSW, CAN","Latitude":"45.26217","Longitude":"-62.72285","Snowdepth":"16.500","Units":"in","Rept_Date":"2020-03-12 12"},"coordinates":[8101,6010]},{"type":"Point","properties":{"Station_ID":"WTNM4","Station_Nam":"WATTON 2WSW","Latitude":"46.52660","Longitude":"-88.64240","Snowdepth":"16.000","Units":"in","Rept_Date":"2020-03-12 12"},"coordinates":[2017,6790]},{"type":"Point","properties":{"Station_ID":"WI-BY-22","Station_Nam":"MASON 11.5 WNW, WI","Latitude":"46.50198","Longitude":"-91.28339","Snowdepth":"16.000","Units":"in","Rept_Date":"2020-03-12 14"},"coordinates":[1398,6775]},{"type":"Point","properties":{"Station_ID":"MNV905PW","Station_Nam":"ROOSEVELT 5.3 N","Latitude":"48.87933","Longitude":"-95.08224","Snowdepth":"16.000","Units":"in","Rept_Date":"2020-03-12 12"},"coordinates":[506,8242]},{"type":"Point","properties":{"Station_ID":"MN-BM-14","Station_Nam":"SOLWAY 2.1 S, MN","Latitude":"47.49069","Longitude":"-95.12177","Snowdepth":"16.000","Units":"in","Rept_Date":"2020-03-12 14"},"coordinates":[497,7385]},{"type":"Point","properties":{"Station_ID":"KABM5","Station_Nam":"KABETOGAMA LAKE VISITOR CTR","Latitude":"48.40880","Longitude":"-93.04840","Snowdepth":"16.000","Units":"in","Rept_Date":"2020-03-12 12"},"coordinates":[983,7951]},{"type":"Point","properties":{"Station_ID":"JKMM1","Station_Nam":"JACKMAN","Latitude":"45.62600","Longitude":"-70.24600","Snowdepth":"16.000","Units":"in","Rept_Date":"2020-03-12 11"},"coordinates":[6335,6234]},{"type":"Point","properties":{"Station_ID":"EMBM5","Station_Nam":"EMBARASS,MN","Latitude":"47.65810","Longitude":"-92.19580","Snowdepth":"16.000","Units":"in","Rept_Date":"2020-03-12 11"},"coordinates":[1184,7488]},{"type":"Point","properties":{"Station_ID":"CAN-NB-2","Station_Nam":"GRAFTON 2.7 NNE, CA","Latitude":"46.17062","Longitude":"-67.55330","Snowdepth":"16.000","Units":"in","Rept_Date":"2020-03-12 11"},"coordinates":[6967,6570]},{"type":"Point","properties":{"Station_ID":"AMAM4","Station_Nam":"AMASA 1W","Latitude":"46.23470","Longitude":"-88.45440","Snowdepth":"16.000","Units":"in","Rept_Date":"2020-03-12 13"},"coordinates":[2062,6610]},{"type":"Point","properties":{"Station_ID":"WI-BY-14","Station_Nam":"ASHLAND 9.8 W, WI","Latitude":"46.59742","Longitude":"-91.07856","Snowdepth":"15.500","Units":"in","Rept_Date":"2020-03-12 12"},"coordinates":[1446,6834]},{"type":"Point","properties":{"Station_ID":"CAN-NB-1","Station_Nam":"FREDERICTON 4.0 SSE, CA","Latitude":"45.92897","Longitude":"-66.62830","Snowdepth":"15.400","Units":"in","Rept_Date":"2020-03-12 12"},"coordinates":[7184,6421]},{"type":"Point","properties":{"Station_ID":"WRSM5","Station_Nam":"WRENSHALL","Latitude":"46.61550","Longitude":"-92.38380","Snowdepth":"15.000","Units":"in","Rept_Date":"2020-03-12 13"},"coordinates":[1139,6845]},{"type":"Point","properties":{"Station_ID":"TOGM5","Station_Nam":"CELINA 2E","Latitude":"47.86630","Longitude":"-93.02660","Snowdepth":"15.000","Units":"in","Rept_Date":"2020-03-12 13"},"coordinates":[989,7617]},{"type":"Point","properties":{"Station_ID":"NY-ES-6","Station_Nam":"OLMSTEDVILLE 4.6 NNE, NY","Latitude":"43.83350","Longitude":"-73.89780","Snowdepth":"15.000","Units":"in","Rept_Date":"2020-03-12 13"},"coordinates":[5478,5128]},{"type":"Point","properties":{"Station_ID":"MWN","Station_Nam":"MOUNT WASHINGTON","Latitude":"44.26670","Longitude":"-71.30000","Snowdepth":"15.000","Units":"in","Rept_Date":"2020-03-13 04"},"coordinates":[6088,5395]},{"type":"Point","properties":{"Station_ID":"MN-SL-15","Station_Nam":"CHISHOLM 0.4 WSW, MN","Latitude":"47.48557","Longitude":"-92.88690","Snowdepth":"15.000","Units":"in","Rept_Date":"2020-03-12 12"},"coordinates":[1021,7382]},{"type":"Point","properties":{"Station_ID":"MN-BK-6","Station_Nam":"LAKE PARK 6.0 S, MN","Latitude":"46.79850","Longitude":"-96.12180","Snowdepth":"15.000","Units":"in","Rept_Date":"2020-03-12 13"},"coordinates":[262,6958]},{"type":"Point","properties":{"Station_ID":"MI-DL-4","Station_Nam":"GLADSTONE 2.1 SW, MI","Latitude":"45.83218","Longitude":"-87.05727","Snowdepth":"15.000","Units":"in","Rept_Date":"2020-03-12 12"},"coordinates":[2389,6361]},{"type":"Point","properties":{"Station_ID":"KMWN","Station_Nam":"MOUNT WASHINGTON","Latitude":"44.26666","Longitude":"-71.30000","Snowdepth":"15.000","Units":"in","Rept_Date":"2020-03-13 06"},"coordinates":[6088,5395]},{"type":"Point","properties":{"Station_ID":"JCBM4","Station_Nam":"JACOBSVILLE","Latitude":"47.00830","Longitude":"-88.43180","Snowdepth":"15.000","Units":"in","Rept_Date":"2020-03-12 11"},"coordinates":[2067,7087]},{"type":"Point","properties":{"Station_ID":"IRMM4","Station_Nam":"WWTP","Latitude":"46.46670","Longitude":"-90.18330","Snowdepth":"15.000","Units":"in","Rept_Date":"2020-03-12 12"},"coordinates":[1656,6753]},{"type":"Point","properties":{"Station_ID":"CAN-PE-3","Station_Nam":"WELLINGTON 1.6 NE, CA","Latitude":"46.46672","Longitude":"-63.98920","Snowdepth":"15.000","Units":"in","Rept_Date":"2020-03-12 11"},"coordinates":[7803,6753]},{"type":"Point","properties":{"Station_ID":"CAN-MB-298","Station_Nam":"GARDENTON 4.2 W - SRRCD, CAN","Latitude":"49.09480","Longitude":"-96.75446","Snowdepth":"14.200","Units":"in","Rept_Date":"2020-03-12 14"},"coordinates":[114,8375]},{"type":"Point","properties":{"Station_ID":"WI-DG-20","Station_Nam":"SOLON SPRINGS 1.2 W, WI","Latitude":"46.35217","Longitude":"-91.84405","Snowdepth":"14.000","Units":"in","Rept_Date":"2020-03-12 13"},"coordinates":[1266,6682]},{"type":"Point","properties":{"Station_ID":"VT-BN-12","Station_Nam":"STAMFORD 5.0 NNE, VT","Latitude":"42.82000","Longitude":"-73.02000","Snowdepth":"14.000","Units":"in","Rept_Date":"2020-03-12 21"},"coordinates":[5684,4503]},{"type":"Point","properties":{"Station_ID":"TAKW3","Station_Nam":"RICE RESERVOIR NO. 2","Latitude":"45.53770","Longitude":"-89.73220","Snowdepth":"14.000","Units":"in","Rept_Date":"2020-03-12 12"},"coordinates":[1762,6180]},{"type":"Point","properties":{"Station_ID":"SUTV1","Station_Nam":"SUTTON","Latitude":"44.61220","Longitude":"-72.04810","Snowdepth":"14.000","Units":"in","Rept_Date":"2020-03-12 12"},"coordinates":[5912,5609]},{"type":"Point","properties":{"Station_ID":"RANM1","Station_Nam":"RANGELEY","Latitude":"44.98910","Longitude":"-70.67190","Snowdepth":"14.000","Units":"in","Rept_Date":"2020-03-12 10"},"coordinates":[6235,5841]},{"type":"Point","properties":{"Station_ID":"PRNW3","Station_Nam":"PRENTICE,WI","Latitude":"45.54780","Longitude":"-90.30000","Snowdepth":"14.000","Units":"in","Rept_Date":"2020-03-12 13"},"coordinates":[1628,6186]},{"type":"Point","properties":{"Station_ID":"NY-FK-7","Station_Nam":"SARANAC LAKE 6.2 N, NY","Latitude":"44.41359","Longitude":"-74.15211","Snowdepth":"14.000","Units":"in","Rept_Date":"2020-03-12 12"},"coordinates":[5418,5486]},{"type":"Point","properties":{"Station_ID":"MI-OT-17","Station_Nam":"GAYLORD 4.1 S, MI","Latitude":"44.96388","Longitude":"-84.68467","Snowdepth":"14.000","Units":"in","Rept_Date":"2020-03-12 12"},"coordinates":[2946,5826]},{"type":"Point","properties":{"Station_ID":"INDN6","Station_Nam":"INDIAN LAKE","Latitude":"43.75500","Longitude":"-74.27560","Snowdepth":"14.000","Units":"in","Rept_Date":"2020-03-12 13"},"coordinates":[5389,5080]},{"type":"Point","properties":{"Station_ID":"INDM5","Station_Nam":"INDUS,MN","Latitude":"48.61670","Longitude":"-93.90000","Snowdepth":"14.000","Units":"in","Rept_Date":"2020-03-12 13"},"coordinates":[784,8080]},{"type":"Point","properties":{"Station_ID":"IMNM4","Station_Nam":"IRON MOUTAIN 5N","Latitude":"45.87580","Longitude":"-88.04030","Snowdepth":"14.000","Units":"in","Rept_Date":"2020-03-13 00"},"coordinates":[2159,6388]},{"type":"Point","properties":{"Station_ID":"GHMN3","Station_Nam":"PINKHAM NOTCH","Latitude":"44.25800","Longitude":"-71.25250","Snowdepth":"14.000","Units":"in","Rept_Date":"2020-03-12 10"},"coordinates":[6099,5390]},{"type":"Point","properties":{"Station_ID":"COKM5","Station_Nam":"COOK","Latitude":"47.85060","Longitude":"-92.69250","Snowdepth":"14.000","Units":"in","Rept_Date":"2020-03-12 11"},"coordinates":[1067,7607]},{"type":"Point","properties":{"Station_ID":"AVLV1","Station_Nam":"AVERILL","Latitude":"45.00570","Longitude":"-71.69030","Snowdepth":"14.000","Units":"in","Rept_Date":"2020-03-12 12"},"coordinates":[5996,5851]},{"type":"Point","properties":{"Station_ID":"AGNW3","Station_Nam":"ARGONNE-1.5 NW","Latitude":"45.67360","Longitude":"-88.90380","Snowdepth":"14.000","Units":"in","Rept_Date":"2020-03-12 13"},"coordinates":[1956,6264]},{"type":"Point","properties":{"Station_ID":"CAN-NB-16","Station_Nam":"DORCHESTER 1.0 SSE, CAN","Latitude":"45.89160","Longitude":"-64.51269","Snowdepth":"13.900","Units":"in","Rept_Date":"2020-03-12 12"},"coordinates":[7681,6398]},{"type":"Point","properties":{"Station_ID":"CAN-NB-97","Station_Nam":"NEW MARYLAND 0.6 NW, CAN","Latitude":"45.90112","Longitude":"-66.68739","Snowdepth":"13.800","Units":"in","Rept_Date":"2020-03-12 11"},"coordinates":[7170,6404]},{"type":"Point","properties":{"Station_ID":"MN-IT-1","Station_Nam":"GRAND RAPIDS 2.0 E, MN","Latitude":"47.22266","Longitude":"-93.49600","Snowdepth":"13.500","Units":"in","Rept_Date":"2020-03-12 12"},"coordinates":[878,7220]},{"type":"Point","properties":{"Station_ID":"CAN-ON-92","Station_Nam":"DUNROBIN 1.9 W - MVCA, CAN","Latitude":"45.42318","Longitude":"-76.04525","Snowdepth":"13.300","Units":"in","Rept_Date":"2020-03-12 12"},"coordinates":[4974,6109]},{"type":"Point","properties":{"Station_ID":"ZNOM4","Station_Nam":"NORWAY","Latitude":"45.77810","Longitude":"-87.89560","Snowdepth":"13.000","Units":"in","Rept_Date":"2020-03-13 00"},"coordinates":[2193,6328]},{"type":"Point","properties":{"Station_ID":"WI-BN-6","Station_Nam":"SUAMICO 4.4 WNW, WI","Latitude":"44.66111","Longitude":"-88.11780","Snowdepth":"13.000","Units":"in","Rept_Date":"2020-03-12 13"},"coordinates":[2141,5639]},{"type":"Point","properties":{"Station_ID":"VT-OL-1","Station_Nam":"WESTFIELD 0.7 WNW, VT","Latitude":"44.89160","Longitude":"-72.44350","Snowdepth":"13.000","Units":"in","Rept_Date":"2020-03-12 12"},"coordinates":[5819,5781]},{"type":"Point","properties":{"Station_ID":"VT-ES-1","Station_Nam":"GRANBY 1.4 NW, VT","Latitude":"44.58330","Longitude":"-71.77870","Snowdepth":"13.000","Units":"in","Rept_Date":"2020-03-12 15"},"coordinates":[5975,5591]},{"type":"Point","properties":{"Station_ID":"MRAM4","Station_Nam":"MORAN","Latitude":"45.99030","Longitude":"-84.83610","Snowdepth":"13.000","Units":"in","Rept_Date":"2020-03-12 12"},"coordinates":[2911,6459]},{"type":"Point","properties":{"Station_ID":"MN-SL-108","Station_Nam":"IRON JUNCTION 3.4 NNW, MN","Latitude":"47.46150","Longitude":"-92.63130","Snowdepth":"13.000","Units":"in","Rept_Date":"2020-03-12 09"},"coordinates":[1081,7367]},{"type":"Point","properties":{"Station_ID":"MI-AT-6","Station_Nam":"MANCELONA 0.5 ESE, MI","Latitude":"44.89981","Longitude":"-85.05100","Snowdepth":"13.000","Units":"in","Rept_Date":"2020-03-12 13"},"coordinates":[2860,5786]},{"type":"Point","properties":{"Station_ID":"ME-FR-4","Station_Nam":"NEW SHARON 2.0 NW, ME","Latitude":"44.66582","Longitude":"-70.02720","Snowdepth":"13.000","Units":"in","Rept_Date":"2020-03-12 12"},"coordinates":[6386,5642]},{"type":"Point","properties":{"Station_ID":"LBKV1","Station_Nam":"LYE BROOK","Latitude":"43.05000","Longitude":"-73.03330","Snowdepth":"13.000","Units":"in","Rept_Date":"2020-03-13 06"},"coordinates":[5681,4645]},{"type":"Point","properties":{"Station_ID":"HOKN6","Station_Nam":"HOOKER 12 NNW","Latitude":"43.85240","Longitude":"-75.71580","Snowdepth":"13.000","Units":"in","Rept_Date":"2020-03-12 11"},"coordinates":[5051,5140]},{"type":"Point","properties":{"Station_ID":"FEDM5","Station_Nam":"LEECH LAKE DAM","Latitude":"47.24670","Longitude":"-94.22280","Snowdepth":"13.000","Units":"in","Rept_Date":"2020-03-12 13"},"coordinates":[708,7234]},{"type":"Point","properties":{"Station_ID":"EAHV1","Station_Nam":"EAST HAVEN","Latitude":"44.64250","Longitude":"-71.89120","Snowdepth":"13.000","Units":"in","Rept_Date":"2020-03-12 11"},"coordinates":[5949,5627]},{"type":"Point","properties":{"Station_ID":"CLKM4","Station_Nam":"CLARKSBURG","Latitude":"46.49910","Longitude":"-87.84500","Snowdepth":"13.000","Units":"in","Rept_Date":"2020-03-12 11"},"coordinates":[2205,6773]},{"type":"Point","properties":{"Station_ID":"BAUM5","Station_Nam":"BAUDETTE,MN","Latitude":"48.71670","Longitude":"-94.61670","Snowdepth":"13.000","Units":"in","Rept_Date":"2020-03-12 20"},"coordinates":[615,8141]},{"type":"Point","properties":{"Station_ID":"VT-WS-7","Station_Nam":"MIDDLESEX 3.1 ENE, VT","Latitude":"44.31799","Longitude":"-72.62650","Snowdepth":"12.500","Units":"in","Rept_Date":"2020-03-12 12"},"coordinates":[5776,5427]},{"type":"Point","properties":{"Station_ID":"WTRM4","Station_Nam":"WATERSMEET 12WSW","Latitude":"46.22310","Longitude":"-89.40850","Snowdepth":"12.000","Units":"in","Rept_Date":"2020-03-12 11"},"coordinates":[1838,6603]},{"type":"Point","properties":{"Station_ID":"SEBM5","Station_Nam":"SEBEKA","Latitude":"46.62540","Longitude":"-95.09670","Snowdepth":"12.000","Units":"in","Rept_Date":"2020-03-12 12"},"coordinates":[503,6851]},{"type":"Point","properties":{"Station_ID":"RHIW3","Station_Nam":"RHINELANDER","Latitude":"45.59860","Longitude":"-89.45080","Snowdepth":"12.000","Units":"in","Rept_Date":"2020-03-12 12"},"coordinates":[1828,6217]},{"type":"Point","properties":{"Station_ID":"PTBN3","Station_Nam":"PITTSBURG RESERVOIR","Latitude":"45.04690","Longitude":"-71.38300","Snowdepth":"12.000","Units":"in","Rept_Date":"2020-03-12 12"},"coordinates":[6068,5877]},{"type":"Point","properties":{"Station_ID":"NCBN6","Station_Nam":"NEWCOMB","Latitude":"43.97070","Longitude":"-74.22200","Snowdepth":"12.000","Units":"in","Rept_Date":"2020-03-12 12"},"coordinates":[5402,5213]},{"type":"Point","properties":{"Station_ID":"LNKM1","Station_Nam":"LINCOLN SANITARY DISTRICT/WTP","Latitude":"45.37520","Longitude":"-68.50820","Snowdepth":"12.000","Units":"in","Rept_Date":"2020-03-12 11"},"coordinates":[6743,6079]},{"type":"Point","properties":{"Station_ID":"GRBM5","Station_Nam":"GRAND RAPIDS 12N","Latitude":"47.39800","Longitude":"-93.51330","Snowdepth":"12.000","Units":"in","Rept_Date":"2020-03-12 12"},"coordinates":[874,7328]},{"type":"Point","properties":{"Station_ID":"CORV1","Station_Nam":"CORINTH","Latitude":"44.00690","Longitude":"-72.31940","Snowdepth":"12.000","Units":"in","Rept_Date":"2020-03-12 11"},"coordinates":[5848,5235]},{"type":"Point","properties":{"Station_ID":"CAN-ON-245","Station_Nam":"PHELPSTON 3.1 ESE, CAN","Latitude":"44.50564","Longitude":"-79.81035","Snowdepth":"12.000","Units":"in","Rept_Date":"2020-03-12 13"},"coordinates":[4090,5543]},{"type":"Point","properties":{"Station_ID":"BRAM5","Station_Nam":"BRAINERD","Latitude":"46.34320","Longitude":"-94.20900","Snowdepth":"12.000","Units":"in","Rept_Date":"2020-03-12 12"},"coordinates":[711,6677]},{"type":"Point","properties":{"Station_ID":"WI-ON-6","Station_Nam":"RHINELANDER 5.2 N, WI","Latitude":"45.71388","Longitude":"-89.42150","Snowdepth":"11.500","Units":"in","Rept_Date":"2020-03-12 14"},"coordinates":[1835,6288]},{"type":"Point","properties":{"Station_ID":"MI-OT-16","Station_Nam":"GAYLORD 2.2 SSE, MI","Latitude":"44.99441","Longitude":"-84.65820","Snowdepth":"11.500","Units":"in","Rept_Date":"2020-03-12 14"},"coordinates":[2953,5844]},{"type":"Point","properties":{"Station_ID":"WLKW3","Station_Nam":"WHITE LAKE 1 SE","Latitude":"45.14520","Longitude":"-88.74160","Snowdepth":"11.000","Units":"in","Rept_Date":"2020-03-12 13"},"coordinates":[1994,5938]},{"type":"Point","properties":{"Station_ID":"WI-SR-1","Station_Nam":"HAYWARD 9.2 NNE, WI","Latitude":"46.13255","Longitude":"-91.40500","Snowdepth":"11.000","Units":"in","Rept_Date":"2020-03-12 12"},"coordinates":[1369,6547]},{"type":"Point","properties":{"Station_ID":"WI-PR-6","Station_Nam":"PHILLIPS 1.3 S, WI","Latitude":"45.67677","Longitude":"-90.39543","Snowdepth":"11.000","Units":"in","Rept_Date":"2020-03-12 12"},"coordinates":[1606,6266]},{"type":"Point","properties":{"Station_ID":"WI-PR-2","Station_Nam":"BUTTERNUT 5.9 SW, WI","Latitude":"45.96501","Longitude":"-90.59750","Snowdepth":"11.000","Units":"in","Rept_Date":"2020-03-12 12"},"coordinates":[1559,6443]},{"type":"Point","properties":{"Station_ID":"VT-CL-18","Station_Nam":"WHEELOCK 1.6 S, VT","Latitude":"44.56491","Longitude":"-72.08830","Snowdepth":"11.000","Units":"in","Rept_Date":"2020-03-12 12"},"coordinates":[5903,5579]},{"type":"Point","properties":{"Station_ID":"MWTM1","Station_Nam":"MILLINOCKET WWTP","Latitude":"45.64030","Longitude":"-68.67480","Snowdepth":"11.000","Units":"in","Rept_Date":"2020-03-12 10"},"coordinates":[6704,6243]},{"type":"Point","properties":{"Station_ID":"LNGM5","Station_Nam":"LONG PRAIRIE","Latitude":"45.96460","Longitude":"-94.88920","Snowdepth":"11.000","Units":"in","Rept_Date":"2020-03-12 11"},"coordinates":[551,6443]},{"type":"Point","properties":{"Station_ID":"LBRM5","Station_Nam":"LAKE BRONSON DAM","Latitude":"48.72410","Longitude":"-96.62180","Snowdepth":"11.000","Units":"in","Rept_Date":"2020-03-12 13"},"coordinates":[145,8146]},{"type":"Point","properties":{"Station_ID":"ISLV1","Station_Nam":"ISLAND POND","Latitude":"44.81280","Longitude":"-71.89020","Snowdepth":"11.000","Units":"in","Rept_Date":"2020-03-12 13"},"coordinates":[5949,5732]},{"type":"Point","properties":{"Station_ID":"COTM5","Station_Nam":"COTTON","Latitude":"47.16870","Longitude":"-92.46290","Snowdepth":"11.000","Units":"in","Rept_Date":"2020-03-12 11"},"coordinates":[1121,7186]},{"type":"Point","properties":{"Station_ID":"BTLN3","Station_Nam":"BARTLETT","Latitude":"44.08380","Longitude":"-71.29340","Snowdepth":"11.000","Units":"in","Rept_Date":"2020-03-12 11"},"coordinates":[6089,5283]},{"type":"Point","properties":{"Station_ID":"MN-PK-15","Station_Nam":"MENTOR 2.5 SSW, MN","Latitude":"47.66625","Longitude":"-96.17328","Snowdepth":"10.500","Units":"in","Rept_Date":"2020-03-12 13"},"coordinates":[250,7493]},{"type":"Point","properties":{"Station_ID":"MN-IT-7","Station_Nam":"GRAND RAPIDS 6.2 SSW, MN","Latitude":"47.13687","Longitude":"-93.56660","Snowdepth":"10.500","Units":"in","Rept_Date":"2020-03-12 12"},"coordinates":[862,7167]},{"type":"Point","properties":{"Station_ID":"CAN-PE-7","Station_Nam":"MORELL 1.4 NNW, CA","Latitude":"46.42741","Longitude":"-62.70870","Snowdepth":"10.500","Units":"in","Rept_Date":"2020-03-12 12"},"coordinates":[8104,6729]},{"type":"Point","properties":{"Station_ID":"NY-HR-18","Station_Nam":"SALISBURY CENTER 1.8 NW, NY","Latitude":"43.16260","Longitude":"-74.80880","Snowdepth":"10.300","Units":"in","Rept_Date":"2020-03-12 11"},"coordinates":[5264,4714]},{"type":"Point","properties":{"Station_ID":"WI-WB-2","Station_Nam":"STONE LAKE 2.0 NW, WI","Latitude":"45.85960","Longitude":"-91.57710","Snowdepth":"10.000","Units":"in","Rept_Date":"2020-03-12 13"},"coordinates":[1329,6378]},{"type":"Point","properties":{"Station_ID":"WI-AS-4","Station_Nam":"ASHLAND 0.5 WNW, WI","Latitude":"46.58240","Longitude":"-90.88390","Snowdepth":"10.000","Units":"in","Rept_Date":"2020-03-12 13"},"coordinates":[1491,6824]},{"type":"Point","properties":{"Station_ID":"VT-BN-3","Station_Nam":"LANDGROVE 1.1 NNE, VT","Latitude":"43.29092","Longitude":"-72.83260","Snowdepth":"10.000","Units":"in","Rept_Date":"2020-03-12 12"},"coordinates":[5728,4793]},{"type":"Point","properties":{"Station_ID":"VANM4","Station_Nam":"VANDERBILT 11ENE","Latitude":"45.17020","Longitude":"-84.43970","Snowdepth":"10.000","Units":"in","Rept_Date":"2020-03-12 12"},"coordinates":[3004,5953]},{"type":"Point","properties":{"Station_ID":"RSTW3","Station_Nam":"ROSHOLT","Latitude":"44.62710","Longitude":"-89.30600","Snowdepth":"10.000","Units":"in","Rept_Date":"2020-03-12 14"},"coordinates":[1862,5618]},{"type":"Point","properties":{"Station_ID":"RRVM4","Station_Nam":"RAPID RIVER 9S","Latitude":"45.78750","Longitude":"-86.93920","Snowdepth":"10.000","Units":"in","Rept_Date":"2020-03-12 12"},"coordinates":[2417,6334]},{"type":"Point","properties":{"Station_ID":"MN7M8EBJ","Station_Nam":"LUTSEN 15.7 NNW","Latitude":"47.85324","Longitude":"-89.92908","Snowdepth":"10.000","Units":"in","Rept_Date":"2020-03-12 13"},"coordinates":[1715,7609]},{"type":"Point","properties":{"Station_ID":"MN-SL-80","Station_Nam":"WINTON 0.1 WSW, MN","Latitude":"47.92756","Longitude":"-91.80280","Snowdepth":"10.000","Units":"in","Rept_Date":"2020-03-12 14"},"coordinates":[1276,7654]},{"type":"Point","properties":{"Station_ID":"MN-BK-10","Station_Nam":"DETROIT LAKES 5.7 N, MN","Latitude":"46.88666","Longitude":"-95.84444","Snowdepth":"10.000","Units":"in","Rept_Date":"2020-03-12 10"},"coordinates":[327,7012]},{"type":"Point","properties":{"Station_ID":"ME-FR-22","Station_Nam":"FARMINGTON 4.8 NNW, ME","Latitude":"44.73396","Longitude":"-70.18007","Snowdepth":"10.000","Units":"in","Rept_Date":"2020-03-12 14"},"coordinates":[6350,5684]},{"type":"Point","properties":{"Station_ID":"GRFN8","Station_Nam":"UNIVERSITY","Latitude":"47.93330","Longitude":"-97.08330","Snowdepth":"10.000","Units":"in","Rept_Date":"2020-03-13 05"},"coordinates":[36,7658]},{"type":"Point","properties":{"Station_ID":"ESGM1","Station_Nam":"EAST SANGERVILLE","Latitude":"45.13690","Longitude":"-69.28060","Snowdepth":"10.000","Units":"in","Rept_Date":"2020-03-12 11"},"coordinates":[6562,5932]},{"type":"Point","properties":{"Station_ID":"ENGM4","Station_Nam":"ENGADINE MDOT","Latitude":"46.12800","Longitude":"-85.56960","Snowdepth":"10.000","Units":"in","Rept_Date":"2020-03-12 11"},"coordinates":[2739,6544]},{"type":"Point","properties":{"Station_ID":"EJNM4","Station_Nam":"EAST JORDAN 2NW","Latitude":"45.18630","Longitude":"-85.14770","Snowdepth":"10.000","Units":"in","Rept_Date":"2020-03-12 12"},"coordinates":[2838,5963]},{"type":"Point","properties":{"Station_ID":"BREW3","Station_Nam":"SURING","Latitude":"44.99580","Longitude":"-88.37860","Snowdepth":"10.000","Units":"in","Rept_Date":"2020-03-12 12"},"coordinates":[2079,5845]},{"type":"Point","properties":{"Station_ID":"BOWW3","Station_Nam":"STOCKBRIDGE-MUNSEE RESERVATION","Latitude":"44.87000","Longitude":"-88.90440","Snowdepth":"10.000","Units":"in","Rept_Date":"2020-03-12 13"},"coordinates":[1956,5768]},{"type":"Point","properties":{"Station_ID":"AWXW3","Station_Nam":"ASHLAND","Latitude":"46.58240","Longitude":"-90.88390","Snowdepth":"10.000","Units":"in","Rept_Date":"2020-03-12 12"},"coordinates":[1491,6824]},{"type":"Point","properties":{"Station_ID":"AROM4","Station_Nam":"ARNOLD,MI","Latitude":"46.06670","Longitude":"-87.48330","Snowdepth":"10.000","Units":"in","Rept_Date":"2020-03-12 12"},"coordinates":[2290,6506]},{"type":"Point","properties":{"Station_ID":"CAN-NB-98","Station_Nam":"HOYT 4.2 S, CAN","Latitude":"45.54763","Longitude":"-66.55440","Snowdepth":"9.800","Units":"in","Rept_Date":"2020-03-12 11"},"coordinates":[7201,6186]},{"type":"Point","properties":{"Station_ID":"WI-OC-8","Station_Nam":"MOUNTAIN 0.9 E, WI","Latitude":"45.18400","Longitude":"-88.45639","Snowdepth":"9.500","Units":"in","Rept_Date":"2020-03-12 13"},"coordinates":[2061,5961]},{"type":"Point","properties":{"Station_ID":"NH-CR-11","Station_Nam":"NORTH CONWAY 1.4 SSW, NH","Latitude":"44.03556","Longitude":"-71.14010","Snowdepth":"9.500","Units":"in","Rept_Date":"2020-03-12 12"},"coordinates":[6125,5253]},{"type":"Point","properties":{"Station_ID":"MI-CX-7","Station_Nam":"EAST JORDAN 2.1 NNW, MI","Latitude":"45.18639","Longitude":"-85.14750","Snowdepth":"9.500","Units":"in","Rept_Date":"2020-03-12 13"},"coordinates":[2838,5963]},{"type":"Point","properties":{"Station_ID":"WLKM5","Station_Nam":"AH-GWAH-CHING","Latitude":"47.15000","Longitude":"-94.65000","Snowdepth":"9.000","Units":"in","Rept_Date":"2020-03-12 10"},"coordinates":[608,7175]},{"type":"Point","properties":{"Station_ID":"WI-SR-5","Station_Nam":"HAYWARD 9.7 NE, WI","Latitude":"46.12030","Longitude":"-91.35370","Snowdepth":"9.000","Units":"in","Rept_Date":"2020-03-12 14"},"coordinates":[1381,6539]},{"type":"Point","properties":{"Station_ID":"WI-MT-14","Station_Nam":"MOSINEE 2.7 WSW, WI","Latitude":"44.77240","Longitude":"-89.73441","Snowdepth":"9.000","Units":"in","Rept_Date":"2020-03-12 13"},"coordinates":[1761,5707]},{"type":"Point","properties":{"Station_ID":"VT-CL-14","Station_Nam":"LYNDONVILLE 1.1 W, VT","Latitude":"44.53582","Longitude":"-72.02867","Snowdepth":"9.000","Units":"in","Rept_Date":"2020-03-12 12"},"coordinates":[5917,5561]},{"type":"Point","properties":{"Station_ID":"VALN7","Station_Nam":"VALE AG 2 SW","Latitude":"35.52330","Longitude":"-81.44410","Snowdepth":"9.000","Units":"in","Rept_Date":"2020-03-12 11"},"coordinates":[3707,0]},{"type":"Point","properties":{"Station_ID":"PBAN8","Station_Nam":"SITE 1-3MI.N","Latitude":"48.97420","Longitude":"-97.23860","Snowdepth":"9.000","Units":"in","Rept_Date":"2020-03-12 12"},"coordinates":[0,8300]},{"type":"Point","properties":{"Station_ID":"NUMN3","Station_Nam":"NORTHUMBERLAND","Latitude":"44.52830","Longitude":"-71.50440","Snowdepth":"9.000","Units":"in","Rept_Date":"2020-03-12 12"},"coordinates":[6040,5557]},{"type":"Point","properties":{"Station_ID":"NH-GR-49","Station_Nam":"PLYMOUTH 3.7 N, NH","Latitude":"43.79048","Longitude":"-71.68413","Snowdepth":"9.000","Units":"in","Rept_Date":"2020-03-12 12"},"coordinates":[5997,5102]},{"type":"Point","properties":{"Station_ID":"NH-CR-26","Station_Nam":"CENTER SANDWICH 4.9 E, NH","Latitude":"43.80976","Longitude":"-71.34150","Snowdepth":"9.000","Units":"in","Rept_Date":"2020-03-12 11"},"coordinates":[6078,5113]},{"type":"Point","properties":{"Station_ID":"NCKN6","Station_Nam":"NORTH CREEK 5 SE","Latitude":"43.66110","Longitude":"-73.89690","Snowdepth":"9.000","Units":"in","Rept_Date":"2020-03-12 11"},"coordinates":[5478,5022]},{"type":"Point","properties":{"Station_ID":"MNP0GYWA","Station_Nam":"WALKER 2.0 SSE","Latitude":"47.07505","Longitude":"-94.56757","Snowdepth":"9.000","Units":"in","Rept_Date":"2020-03-12 10"},"coordinates":[627,7128]},{"type":"Point","properties":{"Station_ID":"MN-AT-5","Station_Nam":"TAMARACK 1.4 SW, MN","Latitude":"46.63760","Longitude":"-93.14554","Snowdepth":"9.000","Units":"in","Rept_Date":"2020-03-12 13"},"coordinates":[961,6858]},{"type":"Point","properties":{"Station_ID":"MI-OT-4","Station_Nam":"GAYLORD 1.7 WNW, MI","Latitude":"45.03280","Longitude":"-84.71090","Snowdepth":"9.000","Units":"in","Rept_Date":"2020-03-12 13"},"coordinates":[2940,5868]},{"type":"Point","properties":{"Station_ID":"GLRM5","Station_Nam":"GLACIAL RIDGE","Latitude":"47.71670","Longitude":"-96.26670","Snowdepth":"9.000","Units":"in","Rept_Date":"2020-03-12 12"},"coordinates":[228,7524]},{"type":"Point","properties":{"Station_ID":"GAYM4","Station_Nam":"GAYLORD","Latitude":"45.03320","Longitude":"-84.71130","Snowdepth":"9.000","Units":"in","Rept_Date":"2020-03-12 12"},"coordinates":[2940,5868]},{"type":"Point","properties":{"Station_ID":"ESDN3","Station_Nam":"EAST SANDWICH","Latitude":"43.80990","Longitude":"-71.34250","Snowdepth":"9.000","Units":"in","Rept_Date":"2020-03-12 10"},"coordinates":[6078,5114]},{"type":"Point","properties":{"Station_ID":"EGRW3","Station_Nam":"EAGLE RIVER-SOUTH","Latitude":"45.91360","Longitude":"-89.24360","Snowdepth":"9.000","Units":"in","Rept_Date":"2020-03-12 12"},"coordinates":[1876,6412]},{"type":"Point","properties":{"Station_ID":"COUW3","Station_Nam":"COUDERAY,WI","Latitude":"45.86670","Longitude":"-91.45000","Snowdepth":"9.000","Units":"in","Rept_Date":"2020-03-12 21"},"coordinates":[1359,6383]},{"type":"Point","properties":{"Station_ID":"CAN-PE-10","Station_Nam":"NEW LONDON 1.6 ENE, CA","Latitude":"46.46985","Longitude":"-63.49200","Snowdepth":"9.000","Units":"in","Rept_Date":"2020-03-12 12"},"coordinates":[7920,6755]},{"type":"Point","properties":{"Station_ID":"ALXM5","Station_Nam":"ALEXANDRIA","Latitude":"45.87820","Longitude":"-95.38270","Snowdepth":"9.000","Units":"in","Rept_Date":"2020-03-12 11"},"coordinates":[436,6390]},{"type":"Point","properties":{"Station_ID":"VT-WS-30","Station_Nam":"WOODBURY 3.4 NNW, VT","Latitude":"44.48825","Longitude":"-72.43258","Snowdepth":"8.500","Units":"in","Rept_Date":"2020-03-12 12"},"coordinates":[5822,5532]},{"type":"Point","properties":{"Station_ID":"CAN-ON-42","Station_Nam":"VANKLEEK HILL 3.4 S, CA","Latitude":"45.48987","Longitude":"-74.64570","Snowdepth":"8.500","Units":"in","Rept_Date":"2020-03-12 12"},"coordinates":[5302,6150]},{"type":"Point","properties":{"Station_ID":"WI-RS-1","Station_Nam":"LADYSMITH 2.8 WNW, WI","Latitude":"45.48180","Longitude":"-91.14680","Snowdepth":"8.000","Units":"in","Rept_Date":"2020-03-12 13"},"coordinates":[1430,6145]},{"type":"Point","properties":{"Station_ID":"WHFN6","Station_Nam":"WILMINGTON 2W","Latitude":"44.39310","Longitude":"-73.85890","Snowdepth":"8.000","Units":"in","Rept_Date":"2020-03-12 12"},"coordinates":[5487,5473]},{"type":"Point","properties":{"Station_ID":"TOPM1","Station_Nam":"TOPSFIELD","Latitude":"45.43470","Longitude":"-67.72020","Snowdepth":"8.000","Units":"in","Rept_Date":"2020-03-12 11"},"coordinates":[6928,6116]},{"type":"Point","properties":{"Station_ID":"SULW3","Station_Nam":"SUMMIT LAKE","Latitude":"45.37880","Longitude":"-89.19410","Snowdepth":"8.000","Units":"in","Rept_Date":"2020-03-12 10"},"coordinates":[1888,6082]},{"type":"Point","properties":{"Station_ID":"STMM4","Station_Nam":"STAMBAUGH 2SSE","Latitude":"46.05550","Longitude":"-88.62780","Snowdepth":"8.000","Units":"in","Rept_Date":"2020-03-12 12"},"coordinates":[2021,6499]},{"type":"Point","properties":{"Station_ID":"SBNM5","Station_Nam":"SABIN","Latitude":"46.77690","Longitude":"-96.65610","Snowdepth":"8.000","Units":"in","Rept_Date":"2020-03-12 13"},"coordinates":[137,6944]},{"type":"Point","properties":{"Station_ID":"RHLW3","Station_Nam":"RHINELANDER 4NE","Latitude":"45.65270","Longitude":"-89.30740","Snowdepth":"8.000","Units":"in","Rept_Date":"2020-03-12 11"},"coordinates":[1861,6251]},{"type":"Point","properties":{"Station_ID":"OTTM5","Station_Nam":"OTTERTAIL,MN","Latitude":"46.41670","Longitude":"-95.56670","Snowdepth":"8.000","Units":"in","Rept_Date":"2020-03-12 12"},"coordinates":[392,6722]},{"type":"Point","properties":{"Station_ID":"ND-CS-1","Station_Nam":"WEST FARGO 3.8 SSE, ND","Latitude":"46.82750","Longitude":"-96.85280","Snowdepth":"8.000","Units":"in","Rept_Date":"2020-03-12 13"},"coordinates":[91,6976]},{"type":"Point","properties":{"Station_ID":"MTQM4","Station_Nam":"MANISTIQUE WWTP","Latitude":"45.95120","Longitude":"-86.25130","Snowdepth":"8.000","Units":"in","Rept_Date":"2020-03-12 11"},"coordinates":[2579,6435]},{"type":"Point","properties":{"Station_ID":"MQRW3","Station_Nam":"MINOCQUA","Latitude":"45.88630","Longitude":"-89.73220","Snowdepth":"8.000","Units":"in","Rept_Date":"2020-03-12 11"},"coordinates":[1762,6395]},{"type":"Point","properties":{"Station_ID":"MN-CW-29","Station_Nam":"BRAINERD 7.7 SSE, MN","Latitude":"46.24996","Longitude":"-94.14576","Snowdepth":"8.000","Units":"in","Rept_Date":"2020-03-12 13"},"coordinates":[726,6619]},{"type":"Point","properties":{"Station_ID":"MI-CP-7","Station_Nam":"DRUMMOND 2.9 NE, MI","Latitude":"46.05329","Longitude":"-83.69060","Snowdepth":"8.000","Units":"in","Rept_Date":"2020-03-12 14"},"coordinates":[3180,6498]},{"type":"Point","properties":{"Station_ID":"KSEM4","Station_Nam":"KALKASKA 11SE","Latitude":"44.58970","Longitude":"-85.04860","Snowdepth":"8.000","Units":"in","Rept_Date":"2020-03-12 12"},"coordinates":[2861,5595]},{"type":"Point","properties":{"Station_ID":"JEFV1","Station_Nam":"JEFFERSONVILLE","Latitude":"44.58430","Longitude":"-72.78700","Snowdepth":"8.000","Units":"in","Rept_Date":"2020-03-12 11"},"coordinates":[5739,5591]},{"type":"Point","properties":{"Station_ID":"FARM1","Station_Nam":"FARMINGTON","Latitude":"44.68930","Longitude":"-70.15640","Snowdepth":"8.000","Units":"in","Rept_Date":"2020-03-12 12"},"coordinates":[6356,5656]},{"type":"Point","properties":{"Station_ID":"CAN-ON-208","Station_Nam":"PAKENHAM 7.8 NNW, CAN","Latitude":"45.39166","Longitude":"-76.34111","Snowdepth":"8.000","Units":"in","Rept_Date":"2020-03-12 12"},"coordinates":[4904,6090]},{"type":"Point","properties":{"Station_ID":"BFHW3","Station_Nam":"BAYFIELD FISH HATCHERY","Latitude":"46.78670","Longitude":"-90.86420","Snowdepth":"8.000","Units":"in","Rept_Date":"2020-03-12 13"},"coordinates":[1496,6950]},{"type":"Point","properties":{"Station_ID":"ND-CS-25","Station_Nam":"FARGO 2.1 N, ND","Latitude":"46.90816","Longitude":"-96.77937","Snowdepth":"7.500","Units":"in","Rept_Date":"2020-03-12 14"},"coordinates":[108,7025]},{"type":"Point","properties":{"Station_ID":"WI-DN-1","Station_Nam":"BOYCEVILLE 3.3 N, WI","Latitude":"45.08913","Longitude":"-92.02760","Snowdepth":"7.000","Units":"in","Rept_Date":"2020-03-12 13"},"coordinates":[1223,5903]},{"type":"Point","properties":{"Station_ID":"VT-WS-10","Station_Nam":"NORTHFIELD 1.5 N, VT","Latitude":"44.16986","Longitude":"-72.65200","Snowdepth":"7.000","Units":"in","Rept_Date":"2020-03-12 12"},"coordinates":[5770,5336]},{"type":"Point","properties":{"Station_ID":"VT-ES-3","Station_Nam":"LUNENBURG 2.3 NNW, VT","Latitude":"44.49324","Longitude":"-71.70446","Snowdepth":"7.000","Units":"in","Rept_Date":"2020-03-12 12"},"coordinates":[5993,5535]},{"type":"Point","properties":{"Station_ID":"PERV1","Station_Nam":"PERU","Latitude":"43.26670","Longitude":"-72.90000","Snowdepth":"7.000","Units":"in","Rept_Date":"2020-03-12 11"},"coordinates":[5712,4778]},{"type":"Point","properties":{"Station_ID":"KGFK","Station_Nam":"GRAND FORKS INTERNATIONAL","Latitude":"47.95000","Longitude":"-97.18333","Snowdepth":"7.000","Units":"in","Rept_Date":"2020-03-13 00"},"coordinates":[13,7668]},{"type":"Point","properties":{"Station_ID":"HMYM1","Station_Nam":"HARMONY","Latitude":"44.94660","Longitude":"-69.54560","Snowdepth":"7.000","Units":"in","Rept_Date":"2020-03-12 11"},"coordinates":[6499,5815]},{"type":"Point","properties":{"Station_ID":"GFK","Station_Nam":"GRAND FORKS INTERNATIONAL AIRPORT","Latitude":"47.94920","Longitude":"-97.17610","Snowdepth":"7.000","Units":"in","Rept_Date":"2020-03-13 00"},"coordinates":[15,7668]},{"type":"Point","properties":{"Station_ID":"FLDM5","Station_Nam":"FLOODWOOD,MN","Latitude":"47.00000","Longitude":"-92.91670","Snowdepth":"7.000","Units":"in","Rept_Date":"2020-03-12 13"},"coordinates":[1014,7082]},{"type":"Point","properties":{"Station_ID":"ESAM4","Station_Nam":"ESCANABA","Latitude":"45.74380","Longitude":"-87.04060","Snowdepth":"7.000","Units":"in","Rept_Date":"2020-03-12 11"},"coordinates":[2393,6307]},{"type":"Point","properties":{"Station_ID":"CAN-ON-5","Station_Nam":"OWEN SOUND 1.5 NW - GSCA, CAN","Latitude":"44.57837","Longitude":"-80.95461","Snowdepth":"7.000","Units":"in","Rept_Date":"2020-03-12 13"},"coordinates":[3822,5588]},{"type":"Point","properties":{"Station_ID":"APXM4","Station_Nam":"GAYLORD 9SSW","Latitude":"44.90720","Longitude":"-84.71880","Snowdepth":"7.000","Units":"in","Rept_Date":"2020-03-13 06"},"coordinates":[2938,5791]},{"type":"Point","properties":{"Station_ID":"WI-PR-8","Station_Nam":"PHILLIPS 0.4 SSW, WI","Latitude":"45.69086","Longitude":"-90.40200","Snowdepth":"6.500","Units":"in","Rept_Date":"2020-03-12 13"},"coordinates":[1605,6274]},{"type":"Point","properties":{"Station_ID":"VT-WR-2","Station_Nam":"POMFRET 2.6 N, VT","Latitude":"43.74230","Longitude":"-72.52550","Snowdepth":"6.500","Units":"in","Rept_Date":"2020-03-12 12"},"coordinates":[5800,5072]},{"type":"Point","properties":{"Station_ID":"WILW3","Station_Nam":"RESERVOIR","Latitude":"45.70000","Longitude":"-89.83330","Snowdepth":"6.000","Units":"in","Rept_Date":"2020-03-12 11"},"coordinates":[1738,6280]},{"type":"Point","properties":{"Station_ID":"WI-TY-2","Station_Nam":"SHELDON 8.1 ENE, WI","Latitude":"45.35598","Longitude":"-90.80296","Snowdepth":"6.000","Units":"in","Rept_Date":"2020-03-12 13"},"coordinates":[1510,6068]},{"type":"Point","properties":{"Station_ID":"WI-BT-14","Station_Nam":"OAKLAND 9.0 ENE, WI","Latitude":"45.95184","Longitude":"-92.21653","Snowdepth":"6.000","Units":"in","Rept_Date":"2020-03-12 13"},"coordinates":[1179,6435]},{"type":"Point","properties":{"Station_ID":"VT-OL-2","Station_Nam":"BARTON 3.0 ENE, VT","Latitude":"44.75863","Longitude":"-72.11680","Snowdepth":"6.000","Units":"in","Rept_Date":"2020-03-12 12"},"coordinates":[5896,5699]},{"type":"Point","properties":{"Station_ID":"TOHM5","Station_Nam":"TWO HARBORS WWTP","Latitude":"47.01760","Longitude":"-91.66480","Snowdepth":"6.000","Units":"in","Rept_Date":"2020-03-12 12"},"coordinates":[1308,7093]},{"type":"Point","properties":{"Station_ID":"TETM5","Station_Nam":"TETTEGOUCHE STATE PARK","Latitude":"47.33900","Longitude":"-91.19590","Snowdepth":"6.000","Units":"in","Rept_Date":"2020-03-12 13"},"coordinates":[1418,7291]},{"type":"Point","properties":{"Station_ID":"RHRW3","Station_Nam":"RHINELANDER WJFW TV-12","Latitude":"45.62220","Longitude":"-89.41000","Snowdepth":"6.000","Units":"in","Rept_Date":"2020-03-13 03"},"coordinates":[1837,6232]},{"type":"Point","properties":{"Station_ID":"RARM4","Station_Nam":"RAPID RIVER 1 SW","Latitude":"45.91500","Longitude":"-86.98800","Snowdepth":"6.000","Units":"in","Rept_Date":"2020-03-12 11"},"coordinates":[2406,6413]},{"type":"Point","properties":{"Station_ID":"PEKN6","Station_Nam":"PECK LAKE","Latitude":"43.11500","Longitude":"-74.42360","Snowdepth":"6.000","Units":"in","Rept_Date":"2020-03-12 11"},"coordinates":[5355,4685]},{"type":"Point","properties":{"Station_ID":"NYMM5","Station_Nam":"NEW YORK MILLS","Latitude":"46.50920","Longitude":"-95.37990","Snowdepth":"6.000","Units":"in","Rept_Date":"2020-03-12 12"},"coordinates":[436,6779]},{"type":"Point","properties":{"Station_ID":"LNCM1","Station_Nam":"LINCOLN WATER DISTRICT","Latitude":"45.32410","Longitude":"-68.58300","Snowdepth":"6.000","Units":"in","Rept_Date":"2020-03-12 12"},"coordinates":[6725,6048]},{"type":"Point","properties":{"Station_ID":"GFDN6","Station_Nam":"CHASES LAKE","Latitude":"43.75920","Longitude":"-75.29980","Snowdepth":"6.000","Units":"in","Rept_Date":"2020-03-12 10"},"coordinates":[5149,5082]},{"type":"Point","properties":{"Station_ID":"FDRN8","Station_Nam":"FARGO 3S","Latitude":"46.82930","Longitude":"-96.79620","Snowdepth":"6.000","Units":"in","Rept_Date":"2020-03-13 05"},"coordinates":[104,6977]},{"type":"Point","properties":{"Station_ID":"FAR","Station_Nam":"HECTOR INTERNATIONAL ARPT","Latitude":"46.91560","Longitude":"-96.81440","Snowdepth":"6.000","Units":"in","Rept_Date":"2020-03-13 00"},"coordinates":[100,7030]},{"type":"Point","properties":{"Station_ID":"DTVM4","Station_Nam":"DETOUR VILLAGE","Latitude":"45.99830","Longitude":"-83.90130","Snowdepth":"6.000","Units":"in","Rept_Date":"2020-03-12 12"},"coordinates":[3130,6464]},{"type":"Point","properties":{"Station_ID":"CAN-ON-109","Station_Nam":"MILDMAY 5.9 SSE, CA","Latitude":"43.98733","Longitude":"-81.10330","Snowdepth":"6.000","Units":"in","Rept_Date":"2020-03-12 13"},"coordinates":[3787,5223]},{"type":"Point","properties":{"Station_ID":"BOON6","Station_Nam":"BOONVILLE 4 SSW","Latitude":"43.43610","Longitude":"-75.36970","Snowdepth":"6.000","Units":"in","Rept_Date":"2020-03-12 11"},"coordinates":[5132,4883]},{"type":"Point","properties":{"Station_ID":"VT-WS-19","Station_Nam":"WATERBURY 3.0 NW, VT","Latitude":"44.36060","Longitude":"-72.80770","Snowdepth":"5.500","Units":"in","Rept_Date":"2020-03-12 11"},"coordinates":[5734,5453]},{"type":"Point","properties":{"Station_ID":"MI-BZ-1","Station_Nam":"BENZONIA 5.3 S, MI","Latitude":"44.53976","Longitude":"-86.10650","Snowdepth":"5.500","Units":"in","Rept_Date":"2020-03-12 14"},"coordinates":[2613,5564]},{"type":"Point","properties":{"Station_ID":"WUNW3","Station_Nam":"WAUSAU-NORTHEAST","Latitude":"44.97310","Longitude":"-89.61690","Snowdepth":"5.000","Units":"in","Rept_Date":"2020-03-12 11"},"coordinates":[1789,5831]},{"type":"Point","properties":{"Station_ID":"WRTS2","Station_Nam":"WATERTOWN,SD","Latitude":"44.90280","Longitude":"-97.11360","Snowdepth":"5.000","Units":"in","Rept_Date":"2020-03-12 14"},"coordinates":[29,5788]},{"type":"Point","properties":{"Station_ID":"WI-LN-2","Station_Nam":"MERRILL 7.0 W, WI","Latitude":"45.17746","Longitude":"-89.84820","Snowdepth":"5.000","Units":"in","Rept_Date":"2020-03-12 12"},"coordinates":[1734,5957]},{"type":"Point","properties":{"Station_ID":"VT-OG-11","Station_Nam":"VERSHIRE 1.5 ESE, VT","Latitude":"43.96138","Longitude":"-72.29777","Snowdepth":"5.000","Units":"in","Rept_Date":"2020-03-12 13"},"coordinates":[5853,5207]},{"type":"Point","properties":{"Station_ID":"ROWM3","Station_Nam":"ROWE 3NE","Latitude":"42.73500","Longitude":"-72.86920","Snowdepth":"5.000","Units":"in","Rept_Date":"2020-03-12 11"},"coordinates":[5719,4450]},{"type":"Point","properties":{"Station_ID":"RLKW3","Station_Nam":"REST LAKE","Latitude":"46.12220","Longitude":"-89.87720","Snowdepth":"5.000","Units":"in","Rept_Date":"2020-03-12 14"},"coordinates":[1728,6540]},{"type":"Point","properties":{"Station_ID":"PLFV1","Station_Nam":"PLAINFIELD","Latitude":"44.27610","Longitude":"-72.41500","Snowdepth":"5.000","Units":"in","Rept_Date":"2020-03-12 11"},"coordinates":[5826,5401]},{"type":"Point","properties":{"Station_ID":"PARM4","Station_Nam":"PARENT BAY","Latitude":"45.79610","Longitude":"-86.40110","Snowdepth":"5.000","Units":"in","Rept_Date":"2020-03-12 13"},"coordinates":[2543,6339]},{"type":"Point","properties":{"Station_ID":"MN-MR-4","Station_Nam":"LITTLE FALLS 1.2 SW, MN","Latitude":"45.96886","Longitude":"-94.37720","Snowdepth":"5.000","Units":"in","Rept_Date":"2020-03-12 13"},"coordinates":[672,6446]},{"type":"Point","properties":{"Station_ID":"MLLW3","Station_Nam":"MERRILL 8W","Latitude":"45.17810","Longitude":"-89.84810","Snowdepth":"5.000","Units":"in","Rept_Date":"2020-03-12 11"},"coordinates":[1735,5958]},{"type":"Point","properties":{"Station_ID":"MCLN8","Station_Nam":"MC LEOD,ND","Latitude":"46.40250","Longitude":"-97.23810","Snowdepth":"5.000","Units":"in","Rept_Date":"2020-03-12 14"},"coordinates":[0,6713]},{"type":"Point","properties":{"Station_ID":"ISEM5","Station_Nam":"ISLE 12N","Latitude":"46.31970","Longitude":"-93.50140","Snowdepth":"5.000","Units":"in","Rept_Date":"2020-03-12 13"},"coordinates":[877,6662]},{"type":"Point","properties":{"Station_ID":"HRTM1","Station_Nam":"HARTFORD","Latitude":"44.37440","Longitude":"-70.31620","Snowdepth":"5.000","Units":"in","Rept_Date":"2020-03-12 11"},"coordinates":[6318,5462]},{"type":"Point","properties":{"Station_ID":"FLAM4","Station_Nam":"FIFE LAKE 2WNW","Latitude":"44.58480","Longitude":"-85.36530","Snowdepth":"5.000","Units":"in","Rept_Date":"2020-03-12 11"},"coordinates":[2787,5592]},{"type":"Point","properties":{"Station_ID":"EPTW3","Station_Nam":"EAU PLEINE TENDER","Latitude":"44.77220","Longitude":"-89.76720","Snowdepth":"5.000","Units":"in","Rept_Date":"2020-03-12 12"},"coordinates":[1753,5707]},{"type":"Point","properties":{"Station_ID":"CLGM5","Station_Nam":"COLLEGEVILLE ST JOHN","Latitude":"45.57940","Longitude":"-94.39200","Snowdepth":"5.000","Units":"in","Rept_Date":"2020-03-12 23"},"coordinates":[668,6205]},{"type":"Point","properties":{"Station_ID":"ANTW3","Station_Nam":"ANTIGO,WI","Latitude":"45.13330","Longitude":"-89.15000","Snowdepth":"5.000","Units":"in","Rept_Date":"2020-03-12 13"},"coordinates":[1898,5930]},{"type":"Point","properties":{"Station_ID":"ALPM4","Station_Nam":"SNOW PAID OBSERVER FOR KAPN","Latitude":"45.03110","Longitude":"-83.55970","Snowdepth":"5.000","Units":"in","Rept_Date":"2020-03-12 12"},"coordinates":[3210,5867]},{"type":"Point","properties":{"Station_ID":"ABGW3","Station_Nam":"AMBERG 9 E","Latitude":"45.48250","Longitude":"-87.81190","Snowdepth":"5.000","Units":"in","Rept_Date":"2020-03-12 12"},"coordinates":[2212,6146]},{"type":"Point","properties":{"Station_ID":"CAN-NS-13","Station_Nam":"TRURO 5.0 ENE, CA","Latitude":"45.38252","Longitude":"-63.22810","Snowdepth":"4.700","Units":"in","Rept_Date":"2020-03-12 11"},"coordinates":[7982,6084]},{"type":"Point","properties":{"Station_ID":"VT-WR-17","Station_Nam":"ROCHESTER 2.3 NE, VT","Latitude":"43.89418","Longitude":"-72.76992","Snowdepth":"4.500","Units":"in","Rept_Date":"2020-03-12 12"},"coordinates":[5743,5166]},{"type":"Point","properties":{"Station_ID":"MN-MR-13","Station_Nam":"LITTLE FALLS 8.0 NE, MN","Latitude":"46.06785","Longitude":"-94.24789","Snowdepth":"4.500","Units":"in","Rept_Date":"2020-03-12 13"},"coordinates":[702,6507]},{"type":"Point","properties":{"Station_ID":"WNDM1","Station_Nam":"WINDHAM 2NW","Latitude":"43.85670","Longitude":"-70.46630","Snowdepth":"4.000","Units":"in","Rept_Date":"2020-03-12 11"},"coordinates":[6283,5142]},{"type":"Point","properties":{"Station_ID":"WI-CK-3","Station_Nam":"COLBY 5.9 WSW, WI","Latitude":"44.87209","Longitude":"-90.42463","Snowdepth":"4.000","Units":"in","Rept_Date":"2020-03-13 01"},"coordinates":[1599,5769]},{"type":"Point","properties":{"Station_ID":"VT-LM-1","Station_Nam":"STOWE 0.2 SW, VT","Latitude":"44.46399","Longitude":"-72.69070","Snowdepth":"4.000","Units":"in","Rept_Date":"2020-03-12 12"},"coordinates":[5761,5517]},{"type":"Point","properties":{"Station_ID":"STRW3","Station_Nam":"STRATFORD 1NW","Latitude":"44.81750","Longitude":"-90.08990","Snowdepth":"4.000","Units":"in","Rept_Date":"2020-03-12 12"},"coordinates":[1678,5735]},{"type":"Point","properties":{"Station_ID":"STIM4","Station_Nam":"ST IGNACE","Latitude":"45.86080","Longitude":"-84.71960","Snowdepth":"4.000","Units":"in","Rept_Date":"2020-03-12 11"},"coordinates":[2938,6379]},{"type":"Point","properties":{"Station_ID":"SAUW3","Station_Nam":"WAUSAU WSAW TV","Latitude":"44.94630","Longitude":"-89.62220","Snowdepth":"4.000","Units":"in","Rept_Date":"2020-03-13 03"},"coordinates":[1788,5815]},{"type":"Point","properties":{"Station_ID":"RRLW3","Station_Nam":"MERRILL,WI","Latitude":"45.17860","Longitude":"-89.66170","Snowdepth":"4.000","Units":"in","Rept_Date":"2020-03-12 13"},"coordinates":[1778,5958]},{"type":"Point","properties":{"Station_ID":"NWSM1","Station_Nam":"NEW SHARON","Latitude":"44.63520","Longitude":"-70.00020","Snowdepth":"4.000","Units":"in","Rept_Date":"2020-03-12 11"},"coordinates":[6393,5623]},{"type":"Point","properties":{"Station_ID":"NSFN3","Station_Nam":"NORTH STRATFORD","Latitude":"44.68190","Longitude":"-71.58570","Snowdepth":"4.000","Units":"in","Rept_Date":"2020-03-12 11"},"coordinates":[6021,5652]},{"type":"Point","properties":{"Station_ID":"NH-MR-6","Station_Nam":"DANBURY 2.2 ESE, NH","Latitude":"43.52000","Longitude":"-71.81900","Snowdepth":"4.000","Units":"in","Rept_Date":"2020-03-12 13"},"coordinates":[5966,4935]},{"type":"Point","properties":{"Station_ID":"MN-SH-10","Station_Nam":"BIG LAKE 5.6 NNE, MN","Latitude":"45.41409","Longitude":"-93.69190","Snowdepth":"4.000","Units":"in","Rept_Date":"2020-03-12 13"},"coordinates":[832,6103]},{"type":"Point","properties":{"Station_ID":"MI-MC-4","Station_Nam":"ST. IGNACE 0.5SE, MI","Latitude":"45.86057","Longitude":"-84.71980","Snowdepth":"4.000","Units":"in","Rept_Date":"2020-03-12 12"},"coordinates":[2938,6379]},{"type":"Point","properties":{"Station_ID":"MI-GT-21","Station_Nam":"KINGSLEY 2.7 ENE, MI","Latitude":"44.59871","Longitude":"-85.48426","Snowdepth":"4.000","Units":"in","Rept_Date":"2020-03-12 13"},"coordinates":[2759,5600]},{"type":"Point","properties":{"Station_ID":"ME-CM-98","Station_Nam":"SEBAGO 2.4 ESE, ME","Latitude":"43.88000","Longitude":"-70.63000","Snowdepth":"4.000","Units":"in","Rept_Date":"2020-03-12 15"},"coordinates":[6245,5157]},{"type":"Point","properties":{"Station_ID":"KLKM4","Station_Nam":"KALKASKA","Latitude":"44.72800","Longitude":"-85.17270","Snowdepth":"4.000","Units":"in","Rept_Date":"2020-03-12 12"},"coordinates":[2832,5680]},{"type":"Point","properties":{"Station_ID":"JEFN3","Station_Nam":"JEFFERSON","Latitude":"44.41690","Longitude":"-71.50080","Snowdepth":"4.000","Units":"in","Rept_Date":"2020-03-12 11"},"coordinates":[6040,5488]},{"type":"Point","properties":{"Station_ID":"HGHN6","Station_Nam":"HIGHMARKET","Latitude":"43.57520","Longitude":"-75.52070","Snowdepth":"4.000","Units":"in","Rept_Date":"2020-03-12 10"},"coordinates":[5097,4969]},{"type":"Point","properties":{"Station_ID":"CVZW3","Station_Nam":"WISCONSIN PUBLIC SERVICE","Latitude":"45.23530","Longitude":"-88.01360","Snowdepth":"4.000","Units":"in","Rept_Date":"2020-03-12 11"},"coordinates":[2165,5993]},{"type":"Point","properties":{"Station_ID":"CORM1","Station_Nam":"CORINNA","Latitude":"44.91980","Longitude":"-69.24180","Snowdepth":"4.000","Units":"in","Rept_Date":"2020-03-12 15"},"coordinates":[6571,5798]},{"type":"Point","properties":{"Station_ID":"CBLW3","Station_Nam":"CUMBERLAND","Latitude":"45.53310","Longitude":"-92.02260","Snowdepth":"4.000","Units":"in","Rept_Date":"2020-03-12 12"},"coordinates":[1224,6177]},{"type":"Point","properties":{"Station_ID":"BETM1","Station_Nam":"BETHEL 6 SSE","Latitude":"44.32000","Longitude":"-70.75680","Snowdepth":"4.000","Units":"in","Rept_Date":"2020-03-12 11"},"coordinates":[6215,5428]},{"type":"Point","properties":{"Station_ID":"APN","Station_Nam":"PHELPS COLLINS FIELD","Latitude":"45.07810","Longitude":"-83.56030","Snowdepth":"4.000","Units":"in","Rept_Date":"2020-03-13 00"},"coordinates":[3210,5896]},{"type":"Point","properties":{"Station_ID":"ME-CM-54","Station_Nam":"WINDHAM 3.9 NW, ME","Latitude":"43.85787","Longitude":"-70.46200","Snowdepth":"3.800","Units":"in","Rept_Date":"2020-03-12 12"},"coordinates":[6284,5143]},{"type":"Point","properties":{"Station_ID":"CAN-NB-29","Station_Nam":"SUSSEX 1.0 WNW - KWRC, CAN","Latitude":"45.72670","Longitude":"-65.52858","Snowdepth":"3.700","Units":"in","Rept_Date":"2020-03-12 12"},"coordinates":[7442,6296]},{"type":"Point","properties":{"Station_ID":"NY-OD-2","Station_Nam":"POINT ROCK 0.6 SE, NY","Latitude":"43.37335","Longitude":"-75.53840","Snowdepth":"3.500","Units":"in","Rept_Date":"2020-03-12 13"},"coordinates":[5093,4844]},{"type":"Point","properties":{"Station_ID":"NH-MR-45","Station_Nam":"NORTHFIELD 2.8 E, NH","Latitude":"43.43945","Longitude":"-71.53730","Snowdepth":"3.500","Units":"in","Rept_Date":"2020-03-12 11"},"coordinates":[6032,4885]},{"type":"Point","properties":{"Station_ID":"NH-MR-41","Station_Nam":"NEWBURY 1.6 NW, NH","Latitude":"43.33667","Longitude":"-72.06060","Snowdepth":"3.500","Units":"in","Rept_Date":"2020-03-12 11"},"coordinates":[5909,4822]},{"type":"Point","properties":{"Station_ID":"MI-CF-9","Station_Nam":"GRAYLING 15.8 NE, MI","Latitude":"44.80464","Longitude":"-84.46313","Snowdepth":"3.500","Units":"in","Rept_Date":"2020-03-12 12"},"coordinates":[2998,5727]},{"type":"Point","properties":{"Station_ID":"WSFW3","Station_Nam":"TOWN OF WESTFORD","Latitude":"43.47190","Longitude":"-88.88250","Snowdepth":"3.000","Units":"in","Rept_Date":"2020-03-12 12"},"coordinates":[1961,4905]},{"type":"Point","properties":{"Station_ID":"WI-WN-9","Station_Nam":"NEENAH 1.1 ENE, WI","Latitude":"44.17370","Longitude":"-88.45130","Snowdepth":"3.000","Units":"in","Rept_Date":"2020-03-12 13"},"coordinates":[2062,5338]},{"type":"Point","properties":{"Station_ID":"WI-BR-2","Station_Nam":"CHETEK 2.0 SE, WI","Latitude":"45.29427","Longitude":"-91.62470","Snowdepth":"3.000","Units":"in","Rept_Date":"2020-03-12 13"},"coordinates":[1318,6030]},{"type":"Point","properties":{"Station_ID":"WENN3","Station_Nam":"P.O. BOX 197 WENTWORTH, NH","Latitude":"43.95190","Longitude":"-71.91560","Snowdepth":"3.000","Units":"in","Rept_Date":"2020-03-12 11"},"coordinates":[5943,5201]},{"type":"Point","properties":{"Station_ID":"VT-LM-7","Station_Nam":"HYDE PARK 2.9 NE, VT","Latitude":"44.62080","Longitude":"-72.57250","Snowdepth":"3.000","Units":"in","Rept_Date":"2020-03-12 14"},"coordinates":[5789,5614]},{"type":"Point","properties":{"Station_ID":"VT-CH-4","Station_Nam":"UNDERHILL 4.4 NNE, VT","Latitude":"44.58774","Longitude":"-72.92250","Snowdepth":"3.000","Units":"in","Rept_Date":"2020-03-12 12"},"coordinates":[5707,5594]},{"type":"Point","properties":{"Station_ID":"VT-AD-20","Station_Nam":"HANCOCK 0.3 S, VT","Latitude":"43.92166","Longitude":"-72.84042","Snowdepth":"3.000","Units":"in","Rept_Date":"2020-03-12 12"},"coordinates":[5726,5183]},{"type":"Point","properties":{"Station_ID":"RDFN6","Station_Nam":"REDFIELD 8N","Latitude":"43.64130","Longitude":"-75.88400","Snowdepth":"3.000","Units":"in","Rept_Date":"2020-03-12 11"},"coordinates":[5012,5010]},{"type":"Point","properties":{"Station_ID":"RCEM5","Station_Nam":"RICE","Latitude":"45.75760","Longitude":"-94.20720","Snowdepth":"3.000","Units":"in","Rept_Date":"2020-03-12 12"},"coordinates":[711,6315]},{"type":"Point","properties":{"Station_ID":"NY-WR-15","Station_Nam":"LAKE GEORGE 5.0 ESE, NY","Latitude":"43.40039","Longitude":"-73.62266","Snowdepth":"3.000","Units":"in","Rept_Date":"2020-03-12 12"},"coordinates":[5542,4861]},{"type":"Point","properties":{"Station_ID":"NUNV1","Station_Nam":"NORTH UNDERHILL","Latitude":"44.58760","Longitude":"-72.92150","Snowdepth":"3.000","Units":"in","Rept_Date":"2020-03-12 11"},"coordinates":[5707,5593]},{"type":"Point","properties":{"Station_ID":"MYOM4","Station_Nam":"MIO WWTP","Latitude":"44.64660","Longitude":"-84.11580","Snowdepth":"3.000","Units":"in","Rept_Date":"2020-03-12 12"},"coordinates":[3080,5630]},{"type":"Point","properties":{"Station_ID":"MRAM5","Station_Nam":"MORA","Latitude":"45.87760","Longitude":"-93.31470","Snowdepth":"3.000","Units":"in","Rept_Date":"2020-03-12 12"},"coordinates":[921,6389]},{"type":"Point","properties":{"Station_ID":"MN76ACVS","Station_Nam":"GRAND MARAIS 3.0 WNW","Latitude":"47.76602","Longitude":"-90.26427","Snowdepth":"3.000","Units":"in","Rept_Date":"2020-03-12 12"},"coordinates":[1637,7555]},{"type":"Point","properties":{"Station_ID":"MN0GWSNW","Station_Nam":"LAKE ELMO 2.9 SE","Latitude":"44.97220","Longitude":"-92.83065","Snowdepth":"3.000","Units":"in","Rept_Date":"2020-03-12 12"},"coordinates":[1035,5831]},{"type":"Point","properties":{"Station_ID":"ME-AN-32","Station_Nam":"WINTHROP 9.4 W, ME","Latitude":"44.30476","Longitude":"-70.15835","Snowdepth":"3.000","Units":"in","Rept_Date":"2020-03-12 11"},"coordinates":[6356,5419]},{"type":"Point","properties":{"Station_ID":"LAKM5","Station_Nam":"LAKE CITY","Latitude":"44.43630","Longitude":"-92.27930","Snowdepth":"3.000","Units":"in","Rept_Date":"2020-03-12 12"},"coordinates":[1164,5500]},{"type":"Point","properties":{"Station_ID":"LADW3","Station_Nam":"LADYSMITH WTP","Latitude":"45.44290","Longitude":"-91.08970","Snowdepth":"3.000","Units":"in","Rept_Date":"2020-03-12 12"},"coordinates":[1443,6121]},{"type":"Point","properties":{"Station_ID":"ILEW3","Station_Nam":"STILES 1S","Latitude":"44.84190","Longitude":"-88.05420","Snowdepth":"3.000","Units":"in","Rept_Date":"2020-03-12 12"},"coordinates":[2156,5750]},{"type":"Point","properties":{"Station_ID":"EJDM4","Station_Nam":"EAST JORDAN","Latitude":"45.15190","Longitude":"-85.13220","Snowdepth":"3.000","Units":"in","Rept_Date":"2020-03-12 12"},"coordinates":[2841,5942]},{"type":"Point","properties":{"Station_ID":"CAN-NB-5","Station_Nam":"OAK POINT 0.9 SSW, CA","Latitude":"45.50752","Longitude":"-66.09860","Snowdepth":"2.800","Units":"in","Rept_Date":"2020-03-12 12"},"coordinates":[7308,6161]},{"type":"Point","properties":{"Station_ID":"NY-WR-10","Station_Nam":"WARRENSBURG 2.1 WNW, NY","Latitude":"43.51784","Longitude":"-73.81069","Snowdepth":"2.500","Units":"in","Rept_Date":"2020-03-12 13"},"coordinates":[5498,4933]},{"type":"Point","properties":{"Station_ID":"WORV1","Station_Nam":"WORCESTER 2 W","Latitude":"44.37470","Longitude":"-72.58220","Snowdepth":"2.000","Units":"in","Rept_Date":"2020-03-12 11"},"coordinates":[5787,5462]},{"type":"Point","properties":{"Station_ID":"WIRW3","Station_Nam":"WIS RAPIDS GRAND AV B","Latitude":"44.39940","Longitude":"-89.83050","Snowdepth":"2.000","Units":"in","Rept_Date":"2020-03-12 12"},"coordinates":[1739,5477]},{"type":"Point","properties":{"Station_ID":"WI-WD-2","Station_Nam":"WISCONSIN RAPIDS 4.6 SSE, WI","Latitude":"44.33823","Longitude":"-89.78200","Snowdepth":"2.000","Units":"in","Rept_Date":"2020-03-12 13"},"coordinates":[1750,5440]},{"type":"Point","properties":{"Station_ID":"WI-PT-8","Station_Nam":"RUDOLPH 2.1 NNE, WI","Latitude":"44.52553","Longitude":"-89.78677","Snowdepth":"2.000","Units":"in","Rept_Date":"2020-03-12 11"},"coordinates":[1749,5555]},{"type":"Point","properties":{"Station_ID":"THLM5","Station_Nam":"THEILMAN 1SSW","Latitude":"44.28130","Longitude":"-92.19430","Snowdepth":"2.000","Units":"in","Rept_Date":"2020-03-12 12"},"coordinates":[1184,5404]},{"type":"Point","properties":{"Station_ID":"SHIW3","Station_Nam":"SHIOCTON","Latitude":"44.43890","Longitude":"-88.58390","Snowdepth":"2.000","Units":"in","Rept_Date":"2020-03-12 12"},"coordinates":[2031,5502]},{"type":"Point","properties":{"Station_ID":"ROBM1","Station_Nam":"ROBBINSTON","Latitude":"45.08520","Longitude":"-67.12050","Snowdepth":"2.000","Units":"in","Rept_Date":"2020-03-13 04"},"coordinates":[7069,5901]},{"type":"Point","properties":{"Station_ID":"PSHW3","Station_Nam":"PESHTIGO","Latitude":"45.02810","Longitude":"-87.73560","Snowdepth":"2.000","Units":"in","Rept_Date":"2020-03-12 12"},"coordinates":[2230,5865]},{"type":"Point","properties":{"Station_ID":"PLOW3","Station_Nam":"PLOVER","Latitude":"44.44280","Longitude":"-89.54530","Snowdepth":"2.000","Units":"in","Rept_Date":"2020-03-12 12"},"coordinates":[1806,5504]},{"type":"Point","properties":{"Station_ID":"ORAN3","Station_Nam":"ORANGE","Latitude":"43.66880","Longitude":"-71.94830","Snowdepth":"2.000","Units":"in","Rept_Date":"2020-03-12 11"},"coordinates":[5935,5026]},{"type":"Point","properties":{"Station_ID":"OCON6","Station_Nam":"OSCEOLA","Latitude":"43.49910","Longitude":"-75.71210","Snowdepth":"2.000","Units":"in","Rept_Date":"2020-03-12 11"},"coordinates":[5052,4922]},{"type":"Point","properties":{"Station_ID":"NOHV1","Station_Nam":"NORTH HARTLAND LAKE","Latitude":"43.60270","Longitude":"-72.36210","Snowdepth":"2.000","Units":"in","Rept_Date":"2020-03-12 11"},"coordinates":[5838,4986]},{"type":"Point","properties":{"Station_ID":"MNEY8CTB","Station_Nam":"MIDLAND JUNCTION 2.2 ENE","Latitude":"44.33041","Longitude":"-91.95891","Snowdepth":"2.000","Units":"in","Rept_Date":"2020-03-12 13"},"coordinates":[1239,5435]},{"type":"Point","properties":{"Station_ID":"MN-SR-29","Station_Nam":"ALBANY 3.8 S, MN","Latitude":"45.57441","Longitude":"-94.55543","Snowdepth":"2.000","Units":"in","Rept_Date":"2020-03-12 13"},"coordinates":[630,6202]},{"type":"Point","properties":{"Station_ID":"MN-SH-985","Station_Nam":"PRINCETON 3.3 WSW, MN","Latitude":"45.55211","Longitude":"-93.64481","Snowdepth":"2.000","Units":"in","Rept_Date":"2020-03-12 10"},"coordinates":[843,6189]},{"type":"Point","properties":{"Station_ID":"MLRM5","Station_Nam":"MELROSE","Latitude":"45.67710","Longitude":"-94.80200","Snowdepth":"2.000","Units":"in","Rept_Date":"2020-03-12 12"},"coordinates":[572,6266]},{"type":"Point","properties":{"Station_ID":"ME-YK-3","Station_Nam":"HOLLIS CENTER 5.4 NW, ME","Latitude":"43.64750","Longitude":"-70.67510","Snowdepth":"2.000","Units":"in","Rept_Date":"2020-03-12 11"},"coordinates":[6234,5013]},{"type":"Point","properties":{"Station_ID":"ME-CM-3","Station_Nam":"NEW GLOUCESTER 3.0 SE, ME","Latitude":"43.92372","Longitude":"-70.25790","Snowdepth":"2.000","Units":"in","Rept_Date":"2020-03-12 12"},"coordinates":[6332,5184]},{"type":"Point","properties":{"Station_ID":"ME-CM-125","Station_Nam":"CUMBERLAND CENTER 4.4 NW, ME","Latitude":"43.84640","Longitude":"-70.31340","Snowdepth":"2.000","Units":"in","Rept_Date":"2020-03-12 12"},"coordinates":[6319,5136]},{"type":"Point","properties":{"Station_ID":"MA-HS-7","Station_Nam":"PLAINFIELD 2.2 SW, MA","Latitude":"42.49272","Longitude":"-72.94540","Snowdepth":"2.000","Units":"in","Rept_Date":"2020-03-12 13"},"coordinates":[5701,4301]},{"type":"Point","properties":{"Station_ID":"LUCW3","Station_Nam":"LUCK","Latitude":"45.57330","Longitude":"-92.48520","Snowdepth":"2.000","Units":"in","Rept_Date":"2020-03-12 17"},"coordinates":[1116,6202]},{"type":"Point","properties":{"Station_ID":"HOLM1","Station_Nam":"HOLLIS","Latitude":"43.64750","Longitude":"-70.67490","Snowdepth":"2.000","Units":"in","Rept_Date":"2020-03-12 10"},"coordinates":[6234,5013]},{"type":"Point","properties":{"Station_ID":"FRKM4","Station_Nam":"FRANKFORT 2NE","Latitude":"44.64800","Longitude":"-86.21000","Snowdepth":"2.000","Units":"in","Rept_Date":"2020-03-12 22"},"coordinates":[2588,5631]},{"type":"Point","properties":{"Station_ID":"BKEM5","Station_Nam":"BRECKENRIDGE 4NE","Latitude":"46.30470","Longitude":"-96.52170","Snowdepth":"2.000","Units":"in","Rept_Date":"2020-03-12 12"},"coordinates":[168,6653]},{"type":"Point","properties":{"Station_ID":"BFSW3","Station_Nam":"BIG FALLS-5 NW","Latitude":"44.63980","Longitude":"-89.11330","Snowdepth":"2.000","Units":"in","Rept_Date":"2020-03-12 12"},"coordinates":[1907,5626]},{"type":"Point","properties":{"Station_ID":"CAN-NB-84","Station_Nam":"NORTON 7.1 WNW - KWRC, CAN","Latitude":"45.66195","Longitude":"-65.78279","Snowdepth":"1.600","Units":"in","Rept_Date":"2020-03-12 12"},"coordinates":[7382,6256]},{"type":"Point","properties":{"Station_ID":"WI-CT-4","Station_Nam":"MENASHA 5.4 ESE, WI","Latitude":"44.19640","Longitude":"-88.33070","Snowdepth":"1.500","Units":"in","Rept_Date":"2020-03-12 13"},"coordinates":[2091,5352]},{"type":"Point","properties":{"Station_ID":"MN-WC-8","Station_Nam":"WASECA 2.0 N, MN","Latitude":"44.11194","Longitude":"-93.49972","Snowdepth":"1.500","Units":"in","Rept_Date":"2020-03-12 12"},"coordinates":[877,5300]},{"type":"Point","properties":{"Station_ID":"CAN-QC-16","Station_Nam":"SAINT-ARMAND 3.6 W, CAN","Latitude":"45.02631","Longitude":"-73.08795","Snowdepth":"1.300","Units":"in","Rept_Date":"2020-03-12 12"},"coordinates":[5668,5864]},{"type":"Point","properties":{"Station_ID":"WWWW3","Station_Nam":"WAUPACA","Latitude":"44.35470","Longitude":"-89.05920","Snowdepth":"1.000","Units":"in","Rept_Date":"2020-03-12 13"},"coordinates":[1920,5450]},{"type":"Point","properties":{"Station_ID":"WIPW3","Station_Nam":"WISCONSIN RAPIDS-SOUTHEAST","Latitude":"44.38190","Longitude":"-89.80470","Snowdepth":"1.000","Units":"in","Rept_Date":"2020-03-12 11"},"coordinates":[1745,5467]},{"type":"Point","properties":{"Station_ID":"WHTM5","Station_Nam":"WHEATON,MN","Latitude":"45.80000","Longitude":"-96.48330","Snowdepth":"1.000","Units":"in","Rept_Date":"2020-03-12 13"},"coordinates":[177,6342]},{"type":"Point","properties":{"Station_ID":"WELM4","Station_Nam":"WELLSTON TIPPY DAM","Latitude":"44.25860","Longitude":"-85.93940","Snowdepth":"1.000","Units":"in","Rept_Date":"2020-03-12 12"},"coordinates":[2652,5390]},{"type":"Point","properties":{"Station_ID":"WASW3","Station_Nam":"WASHINGTON IS","Latitude":"45.35800","Longitude":"-86.89110","Snowdepth":"1.000","Units":"in","Rept_Date":"2020-03-12 12"},"coordinates":[2428,6069]},{"type":"Point","properties":{"Station_ID":"VT-GI-3","Station_Nam":"ALBURGH 4.6 SSE, VT","Latitude":"44.91280","Longitude":"-73.26890","Snowdepth":"1.000","Units":"in","Rept_Date":"2020-03-12 14"},"coordinates":[5626,5794]},{"type":"Point","properties":{"Station_ID":"VT-CL-23","Station_Nam":"RYEGATE 1.5 N, VT","Latitude":"44.23024","Longitude":"-72.10523","Snowdepth":"1.000","Units":"in","Rept_Date":"2020-03-12 12"},"coordinates":[5899,5373]},{"type":"Point","properties":{"Station_ID":"TCEM4","Station_Nam":"TRAVERSE CITY 5ESE","Latitude":"44.73370","Longitude":"-85.51180","Snowdepth":"1.000","Units":"in","Rept_Date":"2020-03-12 11"},"coordinates":[2752,5684]},{"type":"Point","properties":{"Station_ID":"SJBV1","Station_Nam":"SAINT JOHNSBURY","Latitude":"44.42000","Longitude":"-72.01940","Snowdepth":"1.000","Units":"in","Rept_Date":"2020-03-12 20"},"coordinates":[5919,5490]},{"type":"Point","properties":{"Station_ID":"RWGM5","Station_Nam":"RED WING","Latitude":"44.57120","Longitude":"-92.52830","Snowdepth":"1.000","Units":"in","Rept_Date":"2020-03-12 13"},"coordinates":[1105,5583]},{"type":"Point","properties":{"Station_ID":"ONAM4","Station_Nam":"ONAWAY 4N","Latitude":"45.41080","Longitude":"-84.22330","Snowdepth":"1.000","Units":"in","Rept_Date":"2020-03-12 22"},"coordinates":[3055,6101]},{"type":"Point","properties":{"Station_ID":"OCNW3","Station_Nam":"OCONTO 4 W","Latitude":"44.89190","Longitude":"-87.95500","Snowdepth":"1.000","Units":"in","Rept_Date":"2020-03-12 12"},"coordinates":[2179,5781]},{"type":"Point","properties":{"Station_ID":"NY-SR-22","Station_Nam":"GREENFIELD CENTER 1.6 W, NY","Latitude":"43.12684","Longitude":"-73.87860","Snowdepth":"1.000","Units":"in","Rept_Date":"2020-03-12 13"},"coordinates":[5482,4692]},{"type":"Point","properties":{"Station_ID":"NVLV1","Station_Nam":"NASHVILLE","Latitude":"44.44970","Longitude":"-72.92640","Snowdepth":"1.000","Units":"in","Rept_Date":"2020-03-12 11"},"coordinates":[5706,5508]},{"type":"Point","properties":{"Station_ID":"NUMM5","Station_Nam":"NEW ULM 3SE","Latitude":"44.29450","Longitude":"-94.40840","Snowdepth":"1.000","Units":"in","Rept_Date":"2020-03-12 11"},"coordinates":[664,5413]},{"type":"Point","properties":{"Station_ID":"NCON3","Station_Nam":"NORTH CONWAY","Latitude":"44.05620","Longitude":"-71.12970","Snowdepth":"1.000","Units":"in","Rept_Date":"2020-03-12 12"},"coordinates":[6128,5266]},{"type":"Point","properties":{"Station_ID":"MRRM5","Station_Nam":"MORRIS WC EXP STA","Latitude":"45.59010","Longitude":"-95.87450","Snowdepth":"1.000","Units":"in","Rept_Date":"2020-03-12 13"},"coordinates":[320,6212]},{"type":"Point","properties":{"Station_ID":"MNF74YNU","Station_Nam":"NEW ULM 3.3 ESE","Latitude":"44.29029","Longitude":"-94.40196","Snowdepth":"1.000","Units":"in","Rept_Date":"2020-03-12 10"},"coordinates":[666,5410]},{"type":"Point","properties":{"Station_ID":"MN-RM-15","Station_Nam":"ROSEVILLE 2.1 NW, MN","Latitude":"45.03502","Longitude":"-93.18620","Snowdepth":"1.000","Units":"in","Rept_Date":"2020-03-12 12"},"coordinates":[951,5870]},{"type":"Point","properties":{"Station_ID":"MN-OL-18","Station_Nam":"ROCHESTER 2.6 NE, MN","Latitude":"44.03975","Longitude":"-92.43750","Snowdepth":"1.000","Units":"in","Rept_Date":"2020-03-12 12"},"coordinates":[1127,5255]},{"type":"Point","properties":{"Station_ID":"MN-MC-16","Station_Nam":"HUTCHINSON 0.1 ENE, MN","Latitude":"44.88633","Longitude":"-94.37503","Snowdepth":"1.000","Units":"in","Rept_Date":"2020-03-12 13"},"coordinates":[672,5778]},{"type":"Point","properties":{"Station_ID":"MIAM5","Station_Nam":"MILAN 1NW","Latitude":"45.12190","Longitude":"-95.92690","Snowdepth":"1.000","Units":"in","Rept_Date":"2020-03-12 23"},"coordinates":[308,5923]},{"type":"Point","properties":{"Station_ID":"MI-GT-25","Station_Nam":"TRAVERSE CITY 4.7 ESE, MI","Latitude":"44.73370","Longitude":"-85.51189","Snowdepth":"1.000","Units":"in","Rept_Date":"2020-03-12 12"},"coordinates":[2752,5684]},{"type":"Point","properties":{"Station_ID":"MFDW3","Station_Nam":"MARSHFIELD EXP FARM","Latitude":"44.64110","Longitude":"-90.13330","Snowdepth":"1.000","Units":"in","Rept_Date":"2020-03-12 12"},"coordinates":[1668,5626]},{"type":"Point","properties":{"Station_ID":"MEDW3","Station_Nam":"MEDFORD","Latitude":"45.13080","Longitude":"-90.34390","Snowdepth":"1.000","Units":"in","Rept_Date":"2020-03-12 13"},"coordinates":[1618,5929]},{"type":"Point","properties":{"Station_ID":"MAPM4","Station_Nam":"MAPLE CITY 1E","Latitude":"44.85500","Longitude":"-85.83520","Snowdepth":"1.000","Units":"in","Rept_Date":"2020-03-12 22"},"coordinates":[2676,5758]},{"type":"Point","properties":{"Station_ID":"KIMM5","Station_Nam":"KIMBALL 3N","Latitude":"45.35330","Longitude":"-94.30560","Snowdepth":"1.000","Units":"in","Rept_Date":"2020-03-12 11"},"coordinates":[688,6066]},{"type":"Point","properties":{"Station_ID":"HYTS2","Station_Nam":"HAYTI 1W","Latitude":"44.66330","Longitude":"-97.22670","Snowdepth":"1.000","Units":"in","Rept_Date":"2020-03-12 13"},"coordinates":[3,5640]},{"type":"Point","properties":{"Station_ID":"HRSM4","Station_Nam":"HARRISVILLE 2NNE","Latitude":"44.68190","Longitude":"-83.28080","Snowdepth":"1.000","Units":"in","Rept_Date":"2020-03-12 12"},"coordinates":[3276,5652]},{"type":"Point","properties":{"Station_ID":"FORM5","Station_Nam":"FOREST LAKE 5NE","Latitude":"45.33170","Longitude":"-92.89820","Snowdepth":"1.000","Units":"in","Rept_Date":"2020-03-12 12"},"coordinates":[1019,6053]},{"type":"Point","properties":{"Station_ID":"FISW3","Station_Nam":"FISH CREEK 1 E WWTP","Latitude":"45.12420","Longitude":"-87.22920","Snowdepth":"1.000","Units":"in","Rept_Date":"2020-03-12 09"},"coordinates":[2349,5925]},{"type":"Point","properties":{"Station_ID":"EPMW3","Station_Nam":"EPHRAIM-1 NE WWTP","Latitude":"45.17080","Longitude":"-87.15360","Snowdepth":"1.000","Units":"in","Rept_Date":"2020-03-12 13"},"coordinates":[2367,5953]},{"type":"Point","properties":{"Station_ID":"CNTW3","Station_Nam":"CLINTONVILLE","Latitude":"44.62270","Longitude":"-88.74830","Snowdepth":"1.000","Units":"in","Rept_Date":"2020-03-12 12"},"coordinates":[1993,5615]},{"type":"Point","properties":{"Station_ID":"CHRM4","Station_Nam":"CHARLEVOIX","Latitude":"45.31720","Longitude":"-85.26720","Snowdepth":"1.000","Units":"in","Rept_Date":"2020-03-12 12"},"coordinates":[2810,6044]}]}},"arcs":[],"transform":{"scale":[0.004260890089008902,0.001620522052205221],"translate":[-97.2386,35.5233]}}