{"type":"Topology","objects":{"snowdepth_geo":{"type":"GeometryCollection","name":"snowdepth","crs":{"type":"name","properties":{"name":"urn:ogc:def:crs:OGC:1.3:CRS84"}},"geometries":[{"type":"Point","properties":{"Station_ID":"PRKM4","Station_Nam":"MUNISING EAST","Latitude":"46.42580","Longitude":"-86.62000","Snowdepth":"76.500","Units":"in","Rept_Date":"2020-02-06 06"},"coordinates":[2492,6737]},{"type":"Point","properties":{"Station_ID":"OGIQ6","Station_Nam":"OGOKI CAMP","Latitude":"50.76680","Longitude":"-87.85820","Snowdepth":"61.100","Units":"in","Rept_Date":"2020-02-06 06"},"coordinates":[2202,9408]},{"type":"Point","properties":{"Station_ID":"PDLM4","Station_Nam":"PAINESDALE","Latitude":"47.04160","Longitude":"-88.67170","Snowdepth":"51.000","Units":"in","Rept_Date":"2020-02-05 13"},"coordinates":[2011,7116]},{"type":"Point","properties":{"Station_ID":"AUDQ6","Station_Nam":"AUDEN","Latitude":"48.52600","Longitude":"-82.57570","Snowdepth":"47.640","Units":"in","Rept_Date":"2020-02-06 06"},"coordinates":[3441,8029]},{"type":"Point","properties":{"Station_ID":"HTLN3","Station_Nam":"HERMIT LAKE SNOWPLOT","Latitude":"44.26130","Longitude":"-71.28330","Snowdepth":"45.000","Units":"in","Rept_Date":"2020-02-05 10"},"coordinates":[6092,5405]},{"type":"Point","properties":{"Station_ID":"MMNV1","Station_Nam":"MT. MANSFIELD","Latitude":"44.52480","Longitude":"-72.81540","Snowdepth":"44.000","Units":"in","Rept_Date":"2020-02-05 21"},"coordinates":[5732,5567]},{"type":"Point","properties":{"Station_ID":"DVLQ6","Station_Nam":"DEVIOUS LAKE","Latitude":"49.19890","Longitude":"-87.76440","Snowdepth":"43.460","Units":"in","Rept_Date":"2020-02-06 06"},"coordinates":[2224,8443]},{"type":"Point","properties":{"Station_ID":"KSGM4","Station_Nam":"KEARSARGE","Latitude":"47.27520","Longitude":"-88.41700","Snowdepth":"43.000","Units":"in","Rept_Date":"2020-02-05 13"},"coordinates":[2070,7260]},{"type":"Point","properties":{"Station_ID":"WLFM5","Station_Nam":"WOLF RIDGE ENVIRON LEARNING CENTER","Latitude":"47.38240","Longitude":"-91.19730","Snowdepth":"39.000","Units":"in","Rept_Date":"2020-02-05 13"},"coordinates":[1418,7326]},{"type":"Point","properties":{"Station_ID":"QNCM4","Station_Nam":"QUINCY HILL","Latitude":"47.13640","Longitude":"-88.57950","Snowdepth":"35.000","Units":"in","Rept_Date":"2020-02-05 12"},"coordinates":[2032,7174]},{"type":"Point","properties":{"Station_ID":"MQT","Station_Nam":"MARQUETTE, MI","Latitude":"46.53140","Longitude":"-87.54920","Snowdepth":"35.000","Units":"in","Rept_Date":"2020-02-06 06"},"coordinates":[2274,6802]},{"type":"Point","properties":{"Station_ID":"IBLM5","Station_Nam":"ISABELLA 14W","Latitude":"47.59360","Longitude":"-91.65140","Snowdepth":"34.000","Units":"in","Rept_Date":"2020-02-05 15"},"coordinates":[1311,7456]},{"type":"Point","properties":{"Station_ID":"HVCN3","Station_Nam":"HARVARD CABIN SNOWPLOT","Latitude":"44.26630","Longitude":"-71.27790","Snowdepth":"34.000","Units":"in","Rept_Date":"2020-02-05 10"},"coordinates":[6093,5408]},{"type":"Point","properties":{"Station_ID":"QGO","Station_Nam":"QGO","Latitude":"48.85500","Longitude":"-74.20640","Snowdepth":"33.858","Units":"in","Rept_Date":"2020-02-05 12"},"coordinates":[5405,8232]},{"type":"Point","properties":{"Station_ID":"QOU","Station_Nam":"QOU","Latitude":"50.79250","Longitude":"-69.67470","Snowdepth":"33.661","Units":"in","Rept_Date":"2020-02-05 12"},"coordinates":[6469,9424]},{"type":"Point","properties":{"Station_ID":"CAN-NL-82","Station_Nam":"GANDER 2.7 NW, CAN","Latitude":"48.97737","Longitude":"-54.63396","Snowdepth":"32.700","Units":"in","Rept_Date":"2020-02-05 10"},"coordinates":[9999,8307]},{"type":"Point","properties":{"Station_ID":"MI-BG-3","Station_Nam":"L'ANSE 17.8 SE, MI","Latitude":"46.55730","Longitude":"-88.20770","Snowdepth":"32.500","Units":"in","Rept_Date":"2020-02-05 13"},"coordinates":[2119,6818]},{"type":"Point","properties":{"Station_ID":"MLZ","Station_Nam":"MLZ","Latitude":"50.66170","Longitude":"-68.82360","Snowdepth":"31.142","Units":"in","Rept_Date":"2020-02-05 12"},"coordinates":[6669,9344]},{"type":"Point","properties":{"Station_ID":"LVDW3","Station_Nam":"LAC VIEUX DESERT","Latitude":"46.12110","Longitude":"-89.07580","Snowdepth":"31.000","Units":"in","Rept_Date":"2020-02-05 13"},"coordinates":[1916,6549]},{"type":"Point","properties":{"Station_ID":"QCU","Station_Nam":"QCU","Latitude":"47.82750","Longitude":"-76.59830","Snowdepth":"30.984","Units":"in","Rept_Date":"2020-02-05 12"},"coordinates":[4844,7600]},{"type":"Point","properties":{"Station_ID":"STEM4","Station_Nam":"STEUBEN","Latitude":"46.18530","Longitude":"-86.46410","Snowdepth":"30.000","Units":"in","Rept_Date":"2020-02-05 14"},"coordinates":[2529,6589]},{"type":"Point","properties":{"Station_ID":"KISM4","Station_Nam":"K.I. SAWYER WWTP","Latitude":"46.33410","Longitude":"-87.37790","Snowdepth":"30.000","Units":"in","Rept_Date":"2020-02-05 13"},"coordinates":[2314,6681]},{"type":"Point","properties":{"Station_ID":"IWOM4","Station_Nam":"IRONWOOD#2","Latitude":"46.46520","Longitude":"-90.13820","Snowdepth":"30.000","Units":"in","Rept_Date":"2020-02-05 13"},"coordinates":[1666,6761]},{"type":"Point","properties":{"Station_ID":"QGD","Station_Nam":"QGD","Latitude":"51.11140","Longitude":"-67.13940","Snowdepth":"29.921","Units":"in","Rept_Date":"2020-02-05 12"},"coordinates":[7064,9620]},{"type":"Point","properties":{"Station_ID":"QWE","Station_Nam":"QWE","Latitude":"47.84610","Longitude":"-73.80670","Snowdepth":"29.685","Units":"in","Rept_Date":"2020-02-05 12"},"coordinates":[5499,7611]},{"type":"Point","properties":{"Station_ID":"ILIM5","Station_Nam":"ISLAND LAKE","Latitude":"47.02400","Longitude":"-92.07000","Snowdepth":"29.000","Units":"in","Rept_Date":"2020-02-05 15"},"coordinates":[1213,7105]},{"type":"Point","properties":{"Station_ID":"HURW3","Station_Nam":"HURLEY","Latitude":"46.46250","Longitude":"-90.19550","Snowdepth":"29.000","Units":"in","Rept_Date":"2020-02-05 14"},"coordinates":[1653,6760]},{"type":"Point","properties":{"Station_ID":"WI-VL-10","Station_Nam":"LAND O LAKES 4.3 WNW, WI","Latitude":"46.17440","Longitude":"-89.30380","Snowdepth":"28.500","Units":"in","Rept_Date":"2020-02-05 13"},"coordinates":[1862,6582]},{"type":"Point","properties":{"Station_ID":"WRPW3","Station_Nam":"WATER PURIFICATION PLANT","Latitude":"44.38800","Longitude":"-89.80550","Snowdepth":"28.000","Units":"in","Rept_Date":"2020-02-05 12"},"coordinates":[1744,5483]},{"type":"Point","properties":{"Station_ID":"PDGM4","Station_Nam":"PAULDING","Latitude":"46.39760","Longitude":"-89.17940","Snowdepth":"28.000","Units":"in","Rept_Date":"2020-02-05 13"},"coordinates":[1891,6720]},{"type":"Point","properties":{"Station_ID":"MI-HG-6","Station_Nam":"CALUMET 5.8 ENE, MI","Latitude":"47.27200","Longitude":"-88.33400","Snowdepth":"28.000","Units":"in","Rept_Date":"2020-02-05 11"},"coordinates":[2090,7258]},{"type":"Point","properties":{"Station_ID":"HERM4","Station_Nam":"HERMAN,MI","Latitude":"46.65000","Longitude":"-88.33330","Snowdepth":"28.000","Units":"in","Rept_Date":"2020-02-05 13"},"coordinates":[2090,6875]},{"type":"Point","properties":{"Station_ID":"BBEM4","Station_Nam":"BIG BAY 9SW","Latitude":"46.74620","Longitude":"-87.88160","Snowdepth":"28.000","Units":"in","Rept_Date":"2020-02-05 13"},"coordinates":[2196,6934]},{"type":"Point","properties":{"Station_ID":"QLB","Station_Nam":"QLB","Latitude":"50.72360","Longitude":"-75.10000","Snowdepth":"27.559","Units":"in","Rept_Date":"2020-02-05 12"},"coordinates":[5196,9382]},{"type":"Point","properties":{"Station_ID":"WI-VL-9","Station_Nam":"LAND O' LAKES 11.7 W, WI","Latitude":"46.19023","Longitude":"-89.45790","Snowdepth":"27.000","Units":"in","Rept_Date":"2020-02-05 13"},"coordinates":[1826,6592]},{"type":"Point","properties":{"Station_ID":"MNSM4","Station_Nam":"MUNISING","Latitude":"46.41210","Longitude":"-86.66250","Snowdepth":"27.000","Units":"in","Rept_Date":"2020-02-05 11"},"coordinates":[2482,6729]},{"type":"Point","properties":{"Station_ID":"LNOW3","Station_Nam":"LAND O LAKES","Latitude":"46.19000","Longitude":"-89.45700","Snowdepth":"27.000","Units":"in","Rept_Date":"2020-02-05 13"},"coordinates":[1826,6592]},{"type":"Point","properties":{"Station_ID":"BABM5","Station_Nam":"BABBITT","Latitude":"47.71210","Longitude":"-91.95330","Snowdepth":"27.000","Units":"in","Rept_Date":"2020-02-05 13"},"coordinates":[1240,7528]},{"type":"Point","properties":{"Station_ID":"STGW3","Station_Nam":"ST GERMAIN","Latitude":"45.91550","Longitude":"-89.48940","Snowdepth":"26.000","Units":"in","Rept_Date":"2020-02-05 12"},"coordinates":[1819,6423]},{"type":"Point","properties":{"Station_ID":"NOHM5","Station_Nam":"NORTHOME","Latitude":"47.83590","Longitude":"-94.25550","Snowdepth":"26.000","Units":"in","Rept_Date":"2020-02-05 13"},"coordinates":[700,7605]},{"type":"Point","properties":{"Station_ID":"CAN-NL-65","Station_Nam":"KIPPENS 0.7 NE, CA","Latitude":"48.55436","Longitude":"-58.61850","Snowdepth":"26.000","Units":"in","Rept_Date":"2020-02-05 12"},"coordinates":[9064,8047]},{"type":"Point","properties":{"Station_ID":"PTLQ6","Station_Nam":"PORTAGE LAKE","Latitude":"49.06950","Longitude":"-86.65940","Snowdepth":"25.630","Units":"in","Rept_Date":"2020-02-06 06"},"coordinates":[2483,8364]},{"type":"Point","properties":{"Station_ID":"QFT","Station_Nam":"QFT","Latitude":"50.83280","Longitude":"-74.40390","Snowdepth":"25.315","Units":"in","Rept_Date":"2020-02-05 12"},"coordinates":[5359,9449]},{"type":"Point","properties":{"Station_ID":"QTV","Station_Nam":"QTV","Latitude":"49.66000","Longitude":"-69.35690","Snowdepth":"25.079","Units":"in","Rept_Date":"2020-02-05 12"},"coordinates":[6544,8727]},{"type":"Point","properties":{"Station_ID":"WRSM5","Station_Nam":"WRENSHALL","Latitude":"46.61550","Longitude":"-92.38380","Snowdepth":"25.000","Units":"in","Rept_Date":"2020-02-05 14"},"coordinates":[1139,6854]},{"type":"Point","properties":{"Station_ID":"PRDM4","Station_Nam":"PARADISE","Latitude":"46.60380","Longitude":"-85.03960","Snowdepth":"25.000","Units":"in","Rept_Date":"2020-02-05 11"},"coordinates":[2863,6847]},{"type":"Point","properties":{"Station_ID":"MN-CK-6","Station_Nam":"GRAND MARAIS 4.4 W, MN","Latitude":"47.74865","Longitude":"-90.43760","Snowdepth":"25.000","Units":"in","Rept_Date":"2020-02-05 13"},"coordinates":[1596,7551]},{"type":"Point","properties":{"Station_ID":"EVRW3","Station_Nam":"EAGLE RIVER-4 E","Latitude":"45.91890","Longitude":"-89.15280","Snowdepth":"25.000","Units":"in","Rept_Date":"2020-02-05 12"},"coordinates":[1898,6425]},{"type":"Point","properties":{"Station_ID":"CLQM5","Station_Nam":"CLOQUET","Latitude":"46.70470","Longitude":"-92.52530","Snowdepth":"25.000","Units":"in","Rept_Date":"2020-02-05 14"},"coordinates":[1106,6909]},{"type":"Point","properties":{"Station_ID":"MN-SL-15","Station_Nam":"CHISHOLM 0.4 WSW, MN","Latitude":"47.48557","Longitude":"-92.88690","Snowdepth":"24.500","Units":"in","Rept_Date":"2020-02-05 13"},"coordinates":[1021,7389]},{"type":"Point","properties":{"Station_ID":"QMA","Station_Nam":"QMA","Latitude":"50.10330","Longitude":"-70.47190","Snowdepth":"24.173","Units":"in","Rept_Date":"2020-02-05 12"},"coordinates":[6282,9000]},{"type":"Point","properties":{"Station_ID":"WNBM5","Station_Nam":"DAM","Latitude":"47.43060","Longitude":"-94.05000","Snowdepth":"24.000","Units":"in","Rept_Date":"2020-02-05 14"},"coordinates":[748,7355]},{"type":"Point","properties":{"Station_ID":"WI-VL-14","Station_Nam":"BOULDER JUNCTION 1.4 NE, WI","Latitude":"46.12840","Longitude":"-89.62470","Snowdepth":"24.000","Units":"in","Rept_Date":"2020-02-05 13"},"coordinates":[1787,6554]},{"type":"Point","properties":{"Station_ID":"WI-IR-3","Station_Nam":"PENCE 0.1 E, WI","Latitude":"46.41555","Longitude":"-90.27013","Snowdepth":"24.000","Units":"in","Rept_Date":"2020-02-05 13"},"coordinates":[1635,6731]},{"type":"Point","properties":{"Station_ID":"SUAW3","Station_Nam":"SUAMICO","Latitude":"44.60190","Longitude":"-88.09780","Snowdepth":"24.000","Units":"in","Rept_Date":"2020-02-05 12"},"coordinates":[2145,5615]},{"type":"Point","properties":{"Station_ID":"MI-HG-1","Station_Nam":"HOUGHTON 1.6 ESE, MI","Latitude":"47.10774","Longitude":"-88.52940","Snowdepth":"24.000","Units":"in","Rept_Date":"2020-02-05 13"},"coordinates":[2044,7157]},{"type":"Point","properties":{"Station_ID":"HRVM4","Station_Nam":"HARVEY","Latitude":"46.49080","Longitude":"-87.35470","Snowdepth":"24.000","Units":"in","Rept_Date":"2020-02-05 12"},"coordinates":[2320,6777]},{"type":"Point","properties":{"Station_ID":"GLDM4","Station_Nam":"GLADSTONE NO. 2","Latitude":"45.84330","Longitude":"-87.03910","Snowdepth":"24.000","Units":"in","Rept_Date":"2020-02-05 12"},"coordinates":[2394,6379]},{"type":"Point","properties":{"Station_ID":"FLNW3","Station_Nam":"FLORENCE","Latitude":"45.93360","Longitude":"-88.25830","Snowdepth":"24.000","Units":"in","Rept_Date":"2020-02-05 13"},"coordinates":[2108,6434]},{"type":"Point","properties":{"Station_ID":"BNDM5","Station_Nam":"ELY 25E","Latitude":"47.97190","Longitude":"-91.44860","Snowdepth":"24.000","Units":"in","Rept_Date":"2020-02-05 13"},"coordinates":[1359,7688]},{"type":"Point","properties":{"Station_ID":"QGA","Station_Nam":"QGA","Latitude":"47.25640","Longitude":"-73.73810","Snowdepth":"23.819","Units":"in","Rept_Date":"2020-02-05 12"},"coordinates":[5515,7248]},{"type":"Point","properties":{"Station_ID":"MN-IT-23","Station_Nam":"BOVEY 13.4 N, MN","Latitude":"47.48855","Longitude":"-93.43497","Snowdepth":"23.500","Units":"in","Rept_Date":"2020-02-05 13"},"coordinates":[893,7391]},{"type":"Point","properties":{"Station_ID":"WTRW3","Station_Nam":"WINTER","Latitude":"45.79920","Longitude":"-90.99470","Snowdepth":"23.000","Units":"in","Rept_Date":"2020-02-05 16"},"coordinates":[1465,6351]},{"type":"Point","properties":{"Station_ID":"WI-WB-2","Station_Nam":"STONE LAKE 2.0 NW, WI","Latitude":"45.85960","Longitude":"-91.57710","Snowdepth":"23.000","Units":"in","Rept_Date":"2020-02-05 13"},"coordinates":[1329,6389]},{"type":"Point","properties":{"Station_ID":"WI-BY-14","Station_Nam":"ASHLAND 9.8 W, WI","Latitude":"46.59742","Longitude":"-91.07856","Snowdepth":"23.000","Units":"in","Rept_Date":"2020-02-05 12"},"coordinates":[1446,6843]},{"type":"Point","properties":{"Station_ID":"TOGM5","Station_Nam":"CELINA 2E","Latitude":"47.86630","Longitude":"-93.02660","Snowdepth":"23.000","Units":"in","Rept_Date":"2020-02-05 16"},"coordinates":[989,7623]},{"type":"Point","properties":{"Station_ID":"RHIW3","Station_Nam":"RHINELANDER","Latitude":"45.59860","Longitude":"-89.45080","Snowdepth":"23.000","Units":"in","Rept_Date":"2020-02-05 13"},"coordinates":[1828,6228]},{"type":"Point","properties":{"Station_ID":"ME-AR-18","Station_Nam":"NEW SWEDEN 4.9 NNW, ME","Latitude":"47.01080","Longitude":"-68.14390","Snowdepth":"23.000","Units":"in","Rept_Date":"2020-02-05 12"},"coordinates":[6828,7097]},{"type":"Point","properties":{"Station_ID":"IRMM4","Station_Nam":"WWTP","Latitude":"46.46670","Longitude":"-90.18330","Snowdepth":"23.000","Units":"in","Rept_Date":"2020-02-05 13"},"coordinates":[1656,6762]},{"type":"Point","properties":{"Station_ID":"HWLM4","Station_Nam":"HALFWAY LAKE","Latitude":"46.47480","Longitude":"-85.59250","Snowdepth":"23.000","Units":"in","Rept_Date":"2020-02-05 14"},"coordinates":[2733,6767]},{"type":"Point","properties":{"Station_ID":"GGRM4","Station_Nam":"GREEN GARDEN NO.2","Latitude":"46.45330","Longitude":"-87.30380","Snowdepth":"23.000","Units":"in","Rept_Date":"2020-02-05 11"},"coordinates":[2332,6754]},{"type":"Point","properties":{"Station_ID":"DLHM5","Station_Nam":"DULUTH NWS","Latitude":"46.83680","Longitude":"-92.21080","Snowdepth":"23.000","Units":"in","Rept_Date":"2020-02-06 06"},"coordinates":[1180,6990]},{"type":"Point","properties":{"Station_ID":"DLH","Station_Nam":"DULUTH, MN","Latitude":"46.83690","Longitude":"-92.21030","Snowdepth":"23.000","Units":"in","Rept_Date":"2020-02-06 00"},"coordinates":[1180,6990]},{"type":"Point","properties":{"Station_ID":"CRVW3","Station_Nam":"CRIVITZ HIGH FALLS","Latitude":"45.35750","Longitude":"-88.19190","Snowdepth":"23.000","Units":"in","Rept_Date":"2020-02-05 13"},"coordinates":[2123,6080]},{"type":"Point","properties":{"Station_ID":"COKM5","Station_Nam":"COOK","Latitude":"47.85060","Longitude":"-92.69250","Snowdepth":"23.000","Units":"in","Rept_Date":"2020-02-05 12"},"coordinates":[1067,7614]},{"type":"Point","properties":{"Station_ID":"SVBQ6","Station_Nam":"SAVANT BASE","Latitude":"50.28730","Longitude":"-90.65670","Snowdepth":"22.830","Units":"in","Rept_Date":"2020-02-06 06"},"coordinates":[1545,9113]},{"type":"Point","properties":{"Station_ID":"QCX","Station_Nam":"QCX","Latitude":"51.32830","Longitude":"-70.08060","Snowdepth":"22.795","Units":"in","Rept_Date":"2020-02-05 12"},"coordinates":[6374,9754]},{"type":"Point","properties":{"Station_ID":"QTM","Station_Nam":"QTM","Latitude":"51.05780","Longitude":"-72.57190","Snowdepth":"22.480","Units":"in","Rept_Date":"2020-02-05 12"},"coordinates":[5789,9587]},{"type":"Point","properties":{"Station_ID":"QMD","Station_Nam":"QMD","Latitude":"49.29060","Longitude":"-75.84500","Snowdepth":"22.047","Units":"in","Rept_Date":"2020-02-05 12"},"coordinates":[5021,8500]},{"type":"Point","properties":{"Station_ID":"WTRM4","Station_Nam":"WATERSMEET 12WSW","Latitude":"46.22310","Longitude":"-89.40850","Snowdepth":"22.000","Units":"in","Rept_Date":"2020-02-05 12"},"coordinates":[1838,6612]},{"type":"Point","properties":{"Station_ID":"WI-BY-2","Station_Nam":"MELLEN 18.6 SW, WI","Latitude":"46.16937","Longitude":"-90.98090","Snowdepth":"22.000","Units":"in","Rept_Date":"2020-02-05 13"},"coordinates":[1469,6579]},{"type":"Point","properties":{"Station_ID":"TOHM5","Station_Nam":"TWO HARBORS WWTP","Latitude":"47.01760","Longitude":"-91.66480","Snowdepth":"22.000","Units":"in","Rept_Date":"2020-02-05 13"},"coordinates":[1308,7101]},{"type":"Point","properties":{"Station_ID":"PKGM5","Station_Nam":"POKEGANA LK DAM","Latitude":"47.25080","Longitude":"-93.58610","Snowdepth":"22.000","Units":"in","Rept_Date":"2020-02-05 14"},"coordinates":[857,7245]},{"type":"Point","properties":{"Station_ID":"KABM5","Station_Nam":"KABETOGAMA LAKE VISITOR CTR","Latitude":"48.40880","Longitude":"-93.04840","Snowdepth":"22.000","Units":"in","Rept_Date":"2020-02-05 13"},"coordinates":[983,7957]},{"type":"Point","properties":{"Station_ID":"ISPM4","Station_Nam":"WWTP","Latitude":"46.50000","Longitude":"-87.68330","Snowdepth":"22.000","Units":"in","Rept_Date":"2020-02-05 13"},"coordinates":[2243,6783]},{"type":"Point","properties":{"Station_ID":"EGRW3","Station_Nam":"EAGLE RIVER-SOUTH","Latitude":"45.91360","Longitude":"-89.24360","Snowdepth":"22.000","Units":"in","Rept_Date":"2020-02-05 13"},"coordinates":[1876,6422]},{"type":"Point","properties":{"Station_ID":"CMKW3","Station_Nam":"CLAM LAKE 4W","Latitude":"46.16940","Longitude":"-90.98080","Snowdepth":"22.000","Units":"in","Rept_Date":"2020-02-05 13"},"coordinates":[1469,6579]},{"type":"Point","properties":{"Station_ID":"CLKM4","Station_Nam":"CLARKSBURG","Latitude":"46.49910","Longitude":"-87.84500","Snowdepth":"22.000","Units":"in","Rept_Date":"2020-02-05 12"},"coordinates":[2205,6782]},{"type":"Point","properties":{"Station_ID":"APPV1","Station_Nam":"APPALACHIAN GAP","Latitude":"44.21060","Longitude":"-72.93170","Snowdepth":"22.000","Units":"in","Rept_Date":"2020-02-05 20"},"coordinates":[5705,5374]},{"type":"Point","properties":{"Station_ID":"QYR","Station_Nam":"QYR","Latitude":"48.87220","Longitude":"-75.61470","Snowdepth":"21.693","Units":"in","Rept_Date":"2020-02-05 12"},"coordinates":[5075,8242]},{"type":"Point","properties":{"Station_ID":"QLP","Station_Nam":"QLP","Latitude":"48.13920","Longitude":"-72.63830","Snowdepth":"21.220","Units":"in","Rept_Date":"2020-02-05 12"},"coordinates":[5774,7791]},{"type":"Point","properties":{"Station_ID":"KABQ6","Station_Nam":"CAB LAKE","Latitude":"49.59950","Longitude":"-89.17990","Snowdepth":"21.180","Units":"in","Rept_Date":"2020-02-06 06"},"coordinates":[1891,8690]},{"type":"Point","properties":{"Station_ID":"SULW3","Station_Nam":"SUMMIT LAKE","Latitude":"45.37880","Longitude":"-89.19410","Snowdepth":"21.000","Units":"in","Rept_Date":"2020-02-05 11"},"coordinates":[1888,6093]},{"type":"Point","properties":{"Station_ID":"MN-SL-108","Station_Nam":"IRON JUNCTION 3.4 NNW, MN","Latitude":"47.46150","Longitude":"-92.63130","Snowdepth":"21.000","Units":"in","Rept_Date":"2020-02-05 12"},"coordinates":[1081,7374]},{"type":"Point","properties":{"Station_ID":"MN-IT-11","Station_Nam":"NASHWAUK 11.5 N, MN","Latitude":"47.54496","Longitude":"-93.19420","Snowdepth":"21.000","Units":"in","Rept_Date":"2020-02-05 13"},"coordinates":[949,7426]},{"type":"Point","properties":{"Station_ID":"ME-AR-23","Station_Nam":"MADAWASKA 2.5 E, ME","Latitude":"47.34933","Longitude":"-68.28141","Snowdepth":"21.000","Units":"in","Rept_Date":"2020-02-05 12"},"coordinates":[6796,7305]},{"type":"Point","properties":{"Station_ID":"LEIM5","Station_Nam":"ORR 3E","Latitude":"48.05810","Longitude":"-92.75220","Snowdepth":"21.000","Units":"in","Rept_Date":"2020-02-05 12"},"coordinates":[1053,7741]},{"type":"Point","properties":{"Station_ID":"JAYV1","Station_Nam":"JAY PEAK","Latitude":"44.93830","Longitude":"-72.50490","Snowdepth":"21.000","Units":"in","Rept_Date":"2020-02-05 20"},"coordinates":[5805,5822]},{"type":"Point","properties":{"Station_ID":"EDEV1","Station_Nam":"EDEN","Latitude":"44.71110","Longitude":"-72.54920","Snowdepth":"21.000","Units":"in","Rept_Date":"2020-02-05 20"},"coordinates":[5794,5682]},{"type":"Point","properties":{"Station_ID":"CSLM5","Station_Nam":"CASS LAKE,MN","Latitude":"47.38470","Longitude":"-94.61470","Snowdepth":"21.000","Units":"in","Rept_Date":"2020-02-05 14"},"coordinates":[616,7327]},{"type":"Point","properties":{"Station_ID":"CLAO2","Station_Nam":"CLAREMORE,OK","Latitude":"36.31670","Longitude":"-95.58330","Snowdepth":"21.000","Units":"in","Rept_Date":"2020-02-05 14"},"coordinates":[388,516]},{"type":"Point","properties":{"Station_ID":"AURW3","Station_Nam":"AURORA","Latitude":"45.77000","Longitude":"-88.11810","Snowdepth":"21.000","Units":"in","Rept_Date":"2020-02-05 13"},"coordinates":[2141,6333]},{"type":"Point","properties":{"Station_ID":"AMAM4","Station_Nam":"AMASA 1W","Latitude":"46.23470","Longitude":"-88.45440","Snowdepth":"21.000","Units":"in","Rept_Date":"2020-02-05 14"},"coordinates":[2062,6619]},{"type":"Point","properties":{"Station_ID":"ALBM4","Station_Nam":"ALBERTA FORD FOR CEN","Latitude":"46.64480","Longitude":"-88.48120","Snowdepth":"21.000","Units":"in","Rept_Date":"2020-02-05 14"},"coordinates":[2055,6872]},{"type":"Point","properties":{"Station_ID":"TRIQ6","Station_Nam":"TRIO LAKE","Latitude":"49.22880","Longitude":"-87.22920","Snowdepth":"20.910","Units":"in","Rept_Date":"2020-02-06 06"},"coordinates":[2349,8462]},{"type":"Point","properties":{"Station_ID":"MN-IT-17","Station_Nam":"GRAND RAPIDS 6.1 N, MN","Latitude":"47.31165","Longitude":"-93.55036","Snowdepth":"20.500","Units":"in","Rept_Date":"2020-02-05 13"},"coordinates":[866,7282]},{"type":"Point","properties":{"Station_ID":"MN-IT-1","Station_Nam":"GRAND RAPIDS 2.0 E, MN","Latitude":"47.22266","Longitude":"-93.49600","Snowdepth":"20.500","Units":"in","Rept_Date":"2020-02-05 12"},"coordinates":[878,7227]},{"type":"Point","properties":{"Station_ID":"CAN-QC-47","Station_Nam":"SAINTE-FOY 1.8 ENE, CAN","Latitude":"46.76934","Longitude":"-71.27124","Snowdepth":"20.500","Units":"in","Rept_Date":"2020-02-05 12"},"coordinates":[6094,6948]},{"type":"Point","properties":{"Station_ID":"QIQ","Station_Nam":"QIQ","Latitude":"49.82390","Longitude":"-68.54310","Snowdepth":"20.354","Units":"in","Rept_Date":"2020-02-05 12"},"coordinates":[6735,8828]},{"type":"Point","properties":{"Station_ID":"WI-ON-4","Station_Nam":"RHINELANDER 0.6 SSW, WI","Latitude":"45.63141","Longitude":"-89.41470","Snowdepth":"20.000","Units":"in","Rept_Date":"2020-02-05 13"},"coordinates":[1836,6248]},{"type":"Point","properties":{"Station_ID":"NYMM5","Station_Nam":"NEW YORK MILLS","Latitude":"46.50920","Longitude":"-95.37990","Snowdepth":"20.000","Units":"in","Rept_Date":"2020-02-05 13"},"coordinates":[436,6788]},{"type":"Point","properties":{"Station_ID":"MTQM4","Station_Nam":"MANISTIQUE WWTP","Latitude":"45.95120","Longitude":"-86.25130","Snowdepth":"20.000","Units":"in","Rept_Date":"2020-02-05 12"},"coordinates":[2579,6445]},{"type":"Point","properties":{"Station_ID":"MN-BK-6","Station_Nam":"LAKE PARK 6.0 S, MN","Latitude":"46.79850","Longitude":"-96.12180","Snowdepth":"20.000","Units":"in","Rept_Date":"2020-02-05 13"},"coordinates":[262,6966]},{"type":"Point","properties":{"Station_ID":"MIEM4","Station_Nam":"MICHIGAMME 3WNW","Latitude":"46.54530","Longitude":"-88.18000","Snowdepth":"20.000","Units":"in","Rept_Date":"2020-02-05 13"},"coordinates":[2126,6811]},{"type":"Point","properties":{"Station_ID":"MI-GG-4","Station_Nam":"WATERSMEET 5.0 SE, MI","Latitude":"46.20333","Longitude":"-89.13170","Snowdepth":"20.000","Units":"in","Rept_Date":"2020-02-05 14"},"coordinates":[1903,6600]},{"type":"Point","properties":{"Station_ID":"INL","Station_Nam":"FALLS INTERNATIONAL ARPT","Latitude":"48.56640","Longitude":"-93.40310","Snowdepth":"20.000","Units":"in","Rept_Date":"2020-02-06 00"},"coordinates":[900,8054]},{"type":"Point","properties":{"Station_ID":"IFSM5","Station_Nam":"INTERNATIONAL FALLS SNOW","Latitude":"48.57780","Longitude":"-93.39640","Snowdepth":"20.000","Units":"in","Rept_Date":"2020-02-05 12"},"coordinates":[902,8061]},{"type":"Point","properties":{"Station_ID":"EMBM5","Station_Nam":"EMBARASS,MN","Latitude":"47.65810","Longitude":"-92.19580","Snowdepth":"20.000","Units":"in","Rept_Date":"2020-02-05 12"},"coordinates":[1184,7495]},{"type":"Point","properties":{"Station_ID":"ELYM5","Station_Nam":"ELY","Latitude":"47.90560","Longitude":"-91.82830","Snowdepth":"20.000","Units":"in","Rept_Date":"2020-02-05 16"},"coordinates":[1270,7648]},{"type":"Point","properties":{"Station_ID":"CRLM5","Station_Nam":"CROSS LAKE DAM","Latitude":"46.66930","Longitude":"-94.11060","Snowdepth":"20.000","Units":"in","Rept_Date":"2020-02-05 14"},"coordinates":[734,6887]},{"type":"Point","properties":{"Station_ID":"CEFM4","Station_Nam":"EXPERIMENT FARM #2","Latitude":"46.33330","Longitude":"-86.91670","Snowdepth":"20.000","Units":"in","Rept_Date":"2020-02-05 13"},"coordinates":[2422,6680]},{"type":"Point","properties":{"Station_ID":"AVTW3","Station_Nam":"ARBOR VITAE-JOHNSON LAKE","Latitude":"45.89940","Longitude":"-89.72670","Snowdepth":"20.000","Units":"in","Rept_Date":"2020-02-05 12"},"coordinates":[1763,6413]},{"type":"Point","properties":{"Station_ID":"AGNW3","Station_Nam":"ARGONNE-1.5 NW","Latitude":"45.67360","Longitude":"-88.90380","Snowdepth":"20.000","Units":"in","Rept_Date":"2020-02-05 13"},"coordinates":[1956,6274]},{"type":"Point","properties":{"Station_ID":"QLM","Station_Nam":"QLM","Latitude":"48.92030","Longitude":"-70.25280","Snowdepth":"19.921","Units":"in","Rept_Date":"2020-02-05 12"},"coordinates":[6333,8272]},{"type":"Point","properties":{"Station_ID":"QWG","Station_Nam":"QWG","Latitude":"48.48890","Longitude":"-73.45940","Snowdepth":"19.606","Units":"in","Rept_Date":"2020-02-05 12"},"coordinates":[5581,8006]},{"type":"Point","properties":{"Station_ID":"WI-BY-22","Station_Nam":"MASON 11.5 WNW, WI","Latitude":"46.50198","Longitude":"-91.28339","Snowdepth":"19.500","Units":"in","Rept_Date":"2020-02-05 14"},"coordinates":[1398,6784]},{"type":"Point","properties":{"Station_ID":"RHLW3","Station_Nam":"RHINELANDER 4NE","Latitude":"45.65270","Longitude":"-89.30740","Snowdepth":"19.000","Units":"in","Rept_Date":"2020-02-05 12"},"coordinates":[1861,6261]},{"type":"Point","properties":{"Station_ID":"ASTW3","Station_Nam":"ATHELSTANE","Latitude":"45.42500","Longitude":"-88.05750","Snowdepth":"19.000","Units":"in","Rept_Date":"2020-02-05 12"},"coordinates":[2155,6121]},{"type":"Point","properties":{"Station_ID":"SOCQ6","Station_Nam":"SOCKET LAKE","Latitude":"50.77870","Longitude":"-91.79300","Snowdepth":"18.900","Units":"in","Rept_Date":"2020-02-06 06"},"coordinates":[1278,9416]},{"type":"Point","properties":{"Station_ID":"WI-AS-4","Station_Nam":"ASHLAND 0.5 WNW, WI","Latitude":"46.58240","Longitude":"-90.88390","Snowdepth":"18.500","Units":"in","Rept_Date":"2020-02-05 13"},"coordinates":[1491,6833]},{"type":"Point","properties":{"Station_ID":"QLI","Station_Nam":"QLI","Latitude":"50.27080","Longitude":"-73.92280","Snowdepth":"18.228","Units":"in","Rept_Date":"2020-02-05 12"},"coordinates":[5472,9103]},{"type":"Point","properties":{"Station_ID":"WTNM4","Station_Nam":"WATTON 2WSW","Latitude":"46.52660","Longitude":"-88.64240","Snowdepth":"18.000","Units":"in","Rept_Date":"2020-02-05 13"},"coordinates":[2017,6799]},{"type":"Point","properties":{"Station_ID":"WI-ON-6","Station_Nam":"RHINELANDER 5.2 N, WI","Latitude":"45.71388","Longitude":"-89.42150","Snowdepth":"18.000","Units":"in","Rept_Date":"2020-02-05 13"},"coordinates":[1835,6299]},{"type":"Point","properties":{"Station_ID":"SUTV1","Station_Nam":"SUTTON","Latitude":"44.61220","Longitude":"-72.04810","Snowdepth":"18.000","Units":"in","Rept_Date":"2020-02-05 13"},"coordinates":[5912,5621]},{"type":"Point","properties":{"Station_ID":"STMM4","Station_Nam":"STAMBAUGH 2SSE","Latitude":"46.05550","Longitude":"-88.62780","Snowdepth":"18.000","Units":"in","Rept_Date":"2020-02-05 13"},"coordinates":[2021,6509]},{"type":"Point","properties":{"Station_ID":"RPDM4","Station_Nam":"RAPID RIVER 4SSE","Latitude":"45.87270","Longitude":"-86.94960","Snowdepth":"18.000","Units":"in","Rept_Date":"2020-02-05 14"},"coordinates":[2415,6397]},{"type":"Point","properties":{"Station_ID":"MCLN8","Station_Nam":"MC LEOD,ND","Latitude":"46.40250","Longitude":"-97.23810","Snowdepth":"18.000","Units":"in","Rept_Date":"2020-02-05 15"},"coordinates":[0,6723]},{"type":"Point","properties":{"Station_ID":"COTM5","Station_Nam":"COTTON","Latitude":"47.16870","Longitude":"-92.46290","Snowdepth":"18.000","Units":"in","Rept_Date":"2020-02-05 13"},"coordinates":[1121,7194]},{"type":"Point","properties":{"Station_ID":"CLGM5","Station_Nam":"COLLEGEVILLE ST JOHN","Latitude":"45.57940","Longitude":"-94.39200","Snowdepth":"18.000","Units":"in","Rept_Date":"2020-02-06 00"},"coordinates":[668,6216]},{"type":"Point","properties":{"Station_ID":"BRAM5","Station_Nam":"BRAINERD","Latitude":"46.34320","Longitude":"-94.20900","Snowdepth":"18.000","Units":"in","Rept_Date":"2020-02-05 13"},"coordinates":[711,6686]},{"type":"Point","properties":{"Station_ID":"AWXW3","Station_Nam":"ASHLAND","Latitude":"46.58240","Longitude":"-90.88390","Snowdepth":"18.000","Units":"in","Rept_Date":"2020-02-05 13"},"coordinates":[1491,6833]},{"type":"Point","properties":{"Station_ID":"QCO","Station_Nam":"QCO","Latitude":"51.45280","Longitude":"-72.20110","Snowdepth":"17.992","Units":"in","Rept_Date":"2020-02-05 12"},"coordinates":[5876,9830]},{"type":"Point","properties":{"Station_ID":"CATQ6","Station_Nam":"CAT LAKE","Latitude":"51.72690","Longitude":"-91.82210","Snowdepth":"17.990","Units":"in","Rept_Date":"2020-02-06 06"},"coordinates":[1271,9999]},{"type":"Point","properties":{"Station_ID":"CAN-NS-163","Station_Nam":"SYDNEY MINES 2.2 WNW, CAN","Latitude":"46.24851","Longitude":"-60.25161","Snowdepth":"17.700","Units":"in","Rept_Date":"2020-02-05 12"},"coordinates":[8681,6628]},{"type":"Point","properties":{"Station_ID":"WI-BY-1","Station_Nam":"BAYFIELD 8.8 N, WI","Latitude":"46.93855","Longitude":"-90.83490","Snowdepth":"17.500","Units":"in","Rept_Date":"2020-02-05 13"},"coordinates":[1503,7052]},{"type":"Point","properties":{"Station_ID":"MN-CW-22","Station_Nam":"FORT RIPLEY 0.8 N, MN","Latitude":"46.18089","Longitude":"-94.36510","Snowdepth":"17.500","Units":"in","Rept_Date":"2020-02-05 13"},"coordinates":[674,6586]},{"type":"Point","properties":{"Station_ID":"WI-SR-1","Station_Nam":"HAYWARD 9.2 NNE, WI","Latitude":"46.13255","Longitude":"-91.40500","Snowdepth":"17.400","Units":"in","Rept_Date":"2020-02-05 12"},"coordinates":[1369,6557]},{"type":"Point","properties":{"Station_ID":"VT-OL-1","Station_Nam":"WESTFIELD 0.7 WNW, VT","Latitude":"44.89160","Longitude":"-72.44350","Snowdepth":"17.000","Units":"in","Rept_Date":"2020-02-05 12"},"coordinates":[5819,5793]},{"type":"Point","properties":{"Station_ID":"TAKW3","Station_Nam":"RICE RESERVOIR NO. 2","Latitude":"45.53770","Longitude":"-89.73220","Snowdepth":"17.000","Units":"in","Rept_Date":"2020-02-05 13"},"coordinates":[1762,6190]},{"type":"Point","properties":{"Station_ID":"RHI","Station_Nam":"RHINELANDER-ONEIDA COUNTY AIRPORT","Latitude":"45.63080","Longitude":"-89.46530","Snowdepth":"17.000","Units":"in","Rept_Date":"2020-02-06 00"},"coordinates":[1824,6248]},{"type":"Point","properties":{"Station_ID":"NH-CS-10","Station_Nam":"RANDOLPH 1.4 NE, NH","Latitude":"44.38824","Longitude":"-71.26950","Snowdepth":"17.000","Units":"in","Rept_Date":"2020-02-05 12"},"coordinates":[6095,5483]},{"type":"Point","properties":{"Station_ID":"INDM5","Station_Nam":"INDUS,MN","Latitude":"48.61670","Longitude":"-93.90000","Snowdepth":"17.000","Units":"in","Rept_Date":"2020-02-05 14"},"coordinates":[784,8085]},{"type":"Point","properties":{"Station_ID":"GLRM5","Station_Nam":"GLACIAL RIDGE","Latitude":"47.71670","Longitude":"-96.26670","Snowdepth":"17.000","Units":"in","Rept_Date":"2020-02-06 06"},"coordinates":[228,7531]},{"type":"Point","properties":{"Station_ID":"BFHW3","Station_Nam":"BAYFIELD FISH HATCHERY","Latitude":"46.78670","Longitude":"-90.86420","Snowdepth":"17.000","Units":"in","Rept_Date":"2020-02-05 14"},"coordinates":[1496,6959]},{"type":"Point","properties":{"Station_ID":"MN-IT-7","Station_Nam":"GRAND RAPIDS 6.2 SSW, MN","Latitude":"47.13687","Longitude":"-93.56660","Snowdepth":"16.900","Units":"in","Rept_Date":"2020-02-05 12"},"coordinates":[862,7175]},{"type":"Point","properties":{"Station_ID":"MFU","Station_Nam":"MFU","Latitude":"51.52170","Longitude":"-66.91110","Snowdepth":"16.850","Units":"in","Rept_Date":"2020-02-05 12"},"coordinates":[7118,9873]},{"type":"Point","properties":{"Station_ID":"ZNOM4","Station_Nam":"NORWAY","Latitude":"45.77810","Longitude":"-87.89560","Snowdepth":"16.000","Units":"in","Rept_Date":"2020-02-05 13"},"coordinates":[2193,6338]},{"type":"Point","properties":{"Station_ID":"WRTS2","Station_Nam":"WATERTOWN,SD","Latitude":"44.90280","Longitude":"-97.11360","Snowdepth":"16.000","Units":"in","Rept_Date":"2020-02-05 15"},"coordinates":[29,5800]},{"type":"Point","properties":{"Station_ID":"WLKW3","Station_Nam":"WHITE LAKE 1 SE","Latitude":"45.14520","Longitude":"-88.74160","Snowdepth":"16.000","Units":"in","Rept_Date":"2020-02-05 14"},"coordinates":[1994,5949]},{"type":"Point","properties":{"Station_ID":"WI-RS-1","Station_Nam":"LADYSMITH 2.8 WNW, WI","Latitude":"45.48180","Longitude":"-91.14680","Snowdepth":"16.000","Units":"in","Rept_Date":"2020-02-05 13"},"coordinates":[1430,6156]},{"type":"Point","properties":{"Station_ID":"WI-PR-8","Station_Nam":"PHILLIPS 0.4 SSW, WI","Latitude":"45.69086","Longitude":"-90.40200","Snowdepth":"16.000","Units":"in","Rept_Date":"2020-02-05 13"},"coordinates":[1605,6285]},{"type":"Point","properties":{"Station_ID":"WI-PR-6","Station_Nam":"PHILLIPS 1.3 S, WI","Latitude":"45.67677","Longitude":"-90.39543","Snowdepth":"16.000","Units":"in","Rept_Date":"2020-02-05 12"},"coordinates":[1606,6276]},{"type":"Point","properties":{"Station_ID":"VANM1","Station_Nam":"VAN BUREN","Latitude":"47.16600","Longitude":"-67.93900","Snowdepth":"16.000","Units":"in","Rept_Date":"2020-02-05 13"},"coordinates":[6876,7192]},{"type":"Point","properties":{"Station_ID":"SBNM5","Station_Nam":"SABIN","Latitude":"46.77690","Longitude":"-96.65610","Snowdepth":"16.000","Units":"in","Rept_Date":"2020-02-05 15"},"coordinates":[137,6953]},{"type":"Point","properties":{"Station_ID":"SAUW3","Station_Nam":"WAUSAU WSAW TV","Latitude":"44.94630","Longitude":"-89.62220","Snowdepth":"16.000","Units":"in","Rept_Date":"2020-02-06 03"},"coordinates":[1788,5827]},{"type":"Point","properties":{"Station_ID":"ROXV1","Station_Nam":"ROXBURY GAP","Latitude":"44.10950","Longitude":"-72.78750","Snowdepth":"16.000","Units":"in","Rept_Date":"2020-02-05 20"},"coordinates":[5739,5312]},{"type":"Point","properties":{"Station_ID":"RHRW3","Station_Nam":"RHINELANDER WJFW TV-12","Latitude":"45.62220","Longitude":"-89.41000","Snowdepth":"16.000","Units":"in","Rept_Date":"2020-02-06 04"},"coordinates":[1837,6242]},{"type":"Point","properties":{"Station_ID":"OTTM5","Station_Nam":"OTTERTAIL,MN","Latitude":"46.41670","Longitude":"-95.56670","Snowdepth":"16.000","Units":"in","Rept_Date":"2020-02-05 13"},"coordinates":[392,6731]},{"type":"Point","properties":{"Station_ID":"MQRW3","Station_Nam":"MINOCQUA","Latitude":"45.88630","Longitude":"-89.73220","Snowdepth":"16.000","Units":"in","Rept_Date":"2020-02-05 12"},"coordinates":[1762,6405]},{"type":"Point","properties":{"Station_ID":"MN-BK-10","Station_Nam":"DETROIT LAKES 5.7 N, MN","Latitude":"46.88666","Longitude":"-95.84444","Snowdepth":"16.000","Units":"in","Rept_Date":"2020-02-05 10"},"coordinates":[327,7021]},{"type":"Point","properties":{"Station_ID":"MI-OT-17","Station_Nam":"GAYLORD 4.1 S, MI","Latitude":"44.96388","Longitude":"-84.68467","Snowdepth":"16.000","Units":"in","Rept_Date":"2020-02-05 12"},"coordinates":[2946,5837]},{"type":"Point","properties":{"Station_ID":"JCBM4","Station_Nam":"JACOBSVILLE","Latitude":"47.00830","Longitude":"-88.43180","Snowdepth":"16.000","Units":"in","Rept_Date":"2020-02-05 12"},"coordinates":[2067,7095]},{"type":"Point","properties":{"Station_ID":"COUW3","Station_Nam":"COUDERAY,WI","Latitude":"45.86670","Longitude":"-91.45000","Snowdepth":"16.000","Units":"in","Rept_Date":"2020-02-05 22"},"coordinates":[1359,6393]},{"type":"Point","properties":{"Station_ID":"CAN-NB-11","Station_Nam":"MIRAMICHI 3.3 S, CAN","Latitude":"46.99343","Longitude":"-65.50690","Snowdepth":"16.000","Units":"in","Rept_Date":"2020-02-05 11"},"coordinates":[7447,7086]},{"type":"Point","properties":{"Station_ID":"AUW","Station_Nam":"WAUSAU MUNICIPAL AIRPORT","Latitude":"44.92580","Longitude":"-89.62560","Snowdepth":"16.000","Units":"in","Rept_Date":"2020-02-06 00"},"coordinates":[1787,5814]},{"type":"Point","properties":{"Station_ID":"WI-SR-5","Station_Nam":"HAYWARD 9.7 NE, WI","Latitude":"46.12030","Longitude":"-91.35370","Snowdepth":"15.500","Units":"in","Rept_Date":"2020-02-05 14"},"coordinates":[1381,6549]},{"type":"Point","properties":{"Station_ID":"VT-OL-12","Station_Nam":"GREENSBORO 3.9 NNE, VT","Latitude":"44.63100","Longitude":"-72.28000","Snowdepth":"15.500","Units":"in","Rept_Date":"2020-02-05 11"},"coordinates":[5858,5633]},{"type":"Point","properties":{"Station_ID":"MN-PK-15","Station_Nam":"MENTOR 2.5 SSW, MN","Latitude":"47.66625","Longitude":"-96.17328","Snowdepth":"15.500","Units":"in","Rept_Date":"2020-02-05 13"},"coordinates":[250,7500]},{"type":"Point","properties":{"Station_ID":"MI-AT-6","Station_Nam":"MANCELONA 0.5 ESE, MI","Latitude":"44.89981","Longitude":"-85.05100","Snowdepth":"15.500","Units":"in","Rept_Date":"2020-02-05 13"},"coordinates":[2860,5798]},{"type":"Point","properties":{"Station_ID":"LFRN3","Station_Nam":"LAKE FRANCIS STATE PARK","Latitude":"45.05970","Longitude":"-71.30130","Snowdepth":"15.100","Units":"in","Rept_Date":"2020-02-05 12"},"coordinates":[6087,5896]},{"type":"Point","properties":{"Station_ID":"WI-LN-2","Station_Nam":"MERRILL 7.0 W, WI","Latitude":"45.17746","Longitude":"-89.84820","Snowdepth":"15.000","Units":"in","Rept_Date":"2020-02-05 12"},"coordinates":[1734,5969]},{"type":"Point","properties":{"Station_ID":"STRW3","Station_Nam":"STRATFORD 1NW","Latitude":"44.81750","Longitude":"-90.08990","Snowdepth":"15.000","Units":"in","Rept_Date":"2020-02-05 13"},"coordinates":[1678,5747]},{"type":"Point","properties":{"Station_ID":"RSTW3","Station_Nam":"ROSHOLT","Latitude":"44.62710","Longitude":"-89.30600","Snowdepth":"15.000","Units":"in","Rept_Date":"2020-02-05 13"},"coordinates":[1862,5630]},{"type":"Point","properties":{"Station_ID":"RRVM4","Station_Nam":"RAPID RIVER 9S","Latitude":"45.78750","Longitude":"-86.93920","Snowdepth":"15.000","Units":"in","Rept_Date":"2020-02-05 16"},"coordinates":[2417,6344]},{"type":"Point","properties":{"Station_ID":"RARM4","Station_Nam":"RAPID RIVER 1 SW","Latitude":"45.91500","Longitude":"-86.98800","Snowdepth":"15.000","Units":"in","Rept_Date":"2020-02-05 12"},"coordinates":[2406,6423]},{"type":"Point","properties":{"Station_ID":"MLLW3","Station_Nam":"MERRILL 8W","Latitude":"45.17810","Longitude":"-89.84810","Snowdepth":"15.000","Units":"in","Rept_Date":"2020-02-05 12"},"coordinates":[1735,5969]},{"type":"Point","properties":{"Station_ID":"FISM1","Station_Nam":"FORT KENT COOP","Latitude":"47.23850","Longitude":"-68.61240","Snowdepth":"15.000","Units":"in","Rept_Date":"2020-02-05 12"},"coordinates":[6718,7237]},{"type":"Point","properties":{"Station_ID":"EPTW3","Station_Nam":"EAU PLEINE TENDER","Latitude":"44.77220","Longitude":"-89.76720","Snowdepth":"15.000","Units":"in","Rept_Date":"2020-02-05 13"},"coordinates":[1753,5719]},{"type":"Point","properties":{"Station_ID":"CARM1","Station_Nam":"CARIBOU WFO","Latitude":"46.86810","Longitude":"-68.01250","Snowdepth":"15.000","Units":"in","Rept_Date":"2020-02-06 04"},"coordinates":[6859,7009]},{"type":"Point","properties":{"Station_ID":"CAR","Station_Nam":"CARIBOU, ME","Latitude":"46.86830","Longitude":"-68.01360","Snowdepth":"15.000","Units":"in","Rept_Date":"2020-02-05 12"},"coordinates":[6859,7009]},{"type":"Point","properties":{"Station_ID":"BRDM1","Station_Nam":"BRIDGEWATER","Latitude":"46.42870","Longitude":"-67.84370","Snowdepth":"15.000","Units":"in","Rept_Date":"2020-02-05 23"},"coordinates":[6899,6739]},{"type":"Point","properties":{"Station_ID":"CAN-NB-13","Station_Nam":"BATHURST 3.8 NW, CAN","Latitude":"47.64212","Longitude":"-65.68756","Snowdepth":"14.500","Units":"in","Rept_Date":"2020-02-05 11"},"coordinates":[7405,7485]},{"type":"Point","properties":{"Station_ID":"VT-WS-7","Station_Nam":"MIDDLESEX 3.1 ENE, VT","Latitude":"44.31799","Longitude":"-72.62650","Snowdepth":"14.000","Units":"in","Rept_Date":"2020-02-05 13"},"coordinates":[5776,5440]},{"type":"Point","properties":{"Station_ID":"SSMM4","Station_Nam":"SAULT STE MARIE","Latitude":"46.48660","Longitude":"-84.40250","Snowdepth":"14.000","Units":"in","Rept_Date":"2020-02-05 13"},"coordinates":[3013,6774]},{"type":"Point","properties":{"Station_ID":"MRAM4","Station_Nam":"MORAN","Latitude":"45.99030","Longitude":"-84.83610","Snowdepth":"14.000","Units":"in","Rept_Date":"2020-02-05 13"},"coordinates":[2911,6469]},{"type":"Point","properties":{"Station_ID":"MN7M8EBJ","Station_Nam":"LUTSEN 15.7 NNW","Latitude":"47.85324","Longitude":"-89.92908","Snowdepth":"14.000","Units":"in","Rept_Date":"2020-02-05 14"},"coordinates":[1715,7615]},{"type":"Point","properties":{"Station_ID":"MN-CY-1","Station_Nam":"MOORHEAD 2.0 N, MN","Latitude":"46.88766","Longitude":"-96.74800","Snowdepth":"14.000","Units":"in","Rept_Date":"2020-02-05 13"},"coordinates":[115,7021]},{"type":"Point","properties":{"Station_ID":"MI-OT-4","Station_Nam":"GAYLORD 1.7 WNW, MI","Latitude":"45.03280","Longitude":"-84.71090","Snowdepth":"14.000","Units":"in","Rept_Date":"2020-02-05 13"},"coordinates":[2940,5880]},{"type":"Point","properties":{"Station_ID":"MI-OT-16","Station_Nam":"GAYLORD 2.2 SSE, MI","Latitude":"44.99441","Longitude":"-84.65820","Snowdepth":"14.000","Units":"in","Rept_Date":"2020-02-05 13"},"coordinates":[2953,5856]},{"type":"Point","properties":{"Station_ID":"MI-DL-4","Station_Nam":"GLADSTONE 2.1 SW, MI","Latitude":"45.83218","Longitude":"-87.05727","Snowdepth":"14.000","Units":"in","Rept_Date":"2020-02-05 12"},"coordinates":[2389,6372]},{"type":"Point","properties":{"Station_ID":"MI-DL-1","Station_Nam":"GARDEN CORNERS 0.8 NW, MI","Latitude":"45.89815","Longitude":"-86.54850","Snowdepth":"14.000","Units":"in","Rept_Date":"2020-02-05 13"},"coordinates":[2509,6412]},{"type":"Point","properties":{"Station_ID":"LNGM5","Station_Nam":"LONG PRAIRIE","Latitude":"45.96460","Longitude":"-94.88920","Snowdepth":"14.000","Units":"in","Rept_Date":"2020-02-05 12"},"coordinates":[551,6453]},{"type":"Point","properties":{"Station_ID":"GDCM4","Station_Nam":"GARDEN CORNERS","Latitude":"45.89830","Longitude":"-86.54850","Snowdepth":"14.000","Units":"in","Rept_Date":"2020-02-05 13"},"coordinates":[2509,6412]},{"type":"Point","properties":{"Station_ID":"GAYM4","Station_Nam":"GAYLORD","Latitude":"45.03320","Longitude":"-84.71130","Snowdepth":"14.000","Units":"in","Rept_Date":"2020-02-05 13"},"coordinates":[2940,5880]},{"type":"Point","properties":{"Station_ID":"FEDM5","Station_Nam":"LEECH LAKE DAM","Latitude":"47.24670","Longitude":"-94.22280","Snowdepth":"14.000","Units":"in","Rept_Date":"2020-02-05 14"},"coordinates":[708,7242]},{"type":"Point","properties":{"Station_ID":"AVLV1","Station_Nam":"AVERILL","Latitude":"45.00570","Longitude":"-71.69030","Snowdepth":"14.000","Units":"in","Rept_Date":"2020-02-05 13"},"coordinates":[5996,5863]},{"type":"Point","properties":{"Station_ID":"APXM4","Station_Nam":"GAYLORD 9SSW","Latitude":"44.90720","Longitude":"-84.71880","Snowdepth":"14.000","Units":"in","Rept_Date":"2020-02-06 05"},"coordinates":[2938,5802]},{"type":"Point","properties":{"Station_ID":"ANJM4","Station_Nam":"SNOW PAID OBSERVER FOR KANJ","Latitude":"46.48670","Longitude":"-84.40260","Snowdepth":"14.000","Units":"in","Rept_Date":"2020-02-05 18"},"coordinates":[3013,6774]},{"type":"Point","properties":{"Station_ID":"ANJ","Station_Nam":"SAULT STE MARIE","Latitude":"46.46670","Longitude":"-84.36670","Snowdepth":"14.000","Units":"in","Rept_Date":"2020-02-06 00"},"coordinates":[3021,6762]},{"type":"Point","properties":{"Station_ID":"ALXM5","Station_Nam":"ALEXANDRIA","Latitude":"45.87820","Longitude":"-95.38270","Snowdepth":"14.000","Units":"in","Rept_Date":"2020-02-05 12"},"coordinates":[436,6400]},{"type":"Point","properties":{"Station_ID":"CAN-NS-60","Station_Nam":"SYDNEY FORKS, CAN","Latitude":"46.05645","Longitude":"-60.31510","Snowdepth":"13.800","Units":"in","Rept_Date":"2020-02-05 14"},"coordinates":[8666,6510]},{"type":"Point","properties":{"Station_ID":"FTHQ6","Station_Nam":"FORT HOPE","Latitude":"51.55820","Longitude":"-87.90510","Snowdepth":"13.780","Units":"in","Rept_Date":"2020-02-06 06"},"coordinates":[2191,9895]},{"type":"Point","properties":{"Station_ID":"NH-CS-4","Station_Nam":"PITTSBURG 6.1 NE, NH","Latitude":"45.11060","Longitude":"-71.29760","Snowdepth":"13.500","Units":"in","Rept_Date":"2020-02-05 12"},"coordinates":[6088,5928]},{"type":"Point","properties":{"Station_ID":"MN-MR-13","Station_Nam":"LITTLE FALLS 8.0 NE, MN","Latitude":"46.06785","Longitude":"-94.24789","Snowdepth":"13.500","Units":"in","Rept_Date":"2020-02-05 13"},"coordinates":[702,6517]},{"type":"Point","properties":{"Station_ID":"ME-PN-45","Station_Nam":"MILLINOCKET 2.7 ESE, ME","Latitude":"45.65002","Longitude":"-68.64472","Snowdepth":"13.500","Units":"in","Rept_Date":"2020-02-05 12"},"coordinates":[6711,6260]},{"type":"Point","properties":{"Station_ID":"CAN-NS-103","Station_Nam":"TRAFALGAR 4.9 WSW, CAN","Latitude":"45.26217","Longitude":"-62.72285","Snowdepth":"13.500","Units":"in","Rept_Date":"2020-02-05 12"},"coordinates":[8101,6021]},{"type":"Point","properties":{"Station_ID":"WUNW3","Station_Nam":"WAUSAU-NORTHEAST","Latitude":"44.97310","Longitude":"-89.61690","Snowdepth":"13.000","Units":"in","Rept_Date":"2020-02-05 12"},"coordinates":[1789,5843]},{"type":"Point","properties":{"Station_ID":"WI-CH-7","Station_Nam":"CHIPPEWA FALLS 1.2 E, WI","Latitude":"44.92920","Longitude":"-91.36730","Snowdepth":"13.000","Units":"in","Rept_Date":"2020-02-05 13"},"coordinates":[1378,5816]},{"type":"Point","properties":{"Station_ID":"WI-BT-14","Station_Nam":"OAKLAND 9.0 ENE, WI","Latitude":"45.95184","Longitude":"-92.21653","Snowdepth":"13.000","Units":"in","Rept_Date":"2020-02-05 13"},"coordinates":[1179,6445]},{"type":"Point","properties":{"Station_ID":"VT-ES-1","Station_Nam":"GRANBY 1.4 NW, VT","Latitude":"44.58330","Longitude":"-71.77870","Snowdepth":"13.000","Units":"in","Rept_Date":"2020-02-05 12"},"coordinates":[5975,5603]},{"type":"Point","properties":{"Station_ID":"RRLW3","Station_Nam":"MERRILL,WI","Latitude":"45.17860","Longitude":"-89.66170","Snowdepth":"13.000","Units":"in","Rept_Date":"2020-02-05 14"},"coordinates":[1778,5970]},{"type":"Point","properties":{"Station_ID":"RKWM1","Station_Nam":"MOOSEHEAD LAKE","Latitude":"45.58330","Longitude":"-69.71670","Snowdepth":"13.000","Units":"in","Rept_Date":"2020-02-05 12"},"coordinates":[6459,6219]},{"type":"Point","properties":{"Station_ID":"PRNW3","Station_Nam":"PRENTICE,WI","Latitude":"45.54780","Longitude":"-90.30000","Snowdepth":"13.000","Units":"in","Rept_Date":"2020-02-05 14"},"coordinates":[1628,6197]},{"type":"Point","properties":{"Station_ID":"ND-CS-25","Station_Nam":"FARGO 2.1 N, ND","Latitude":"46.90816","Longitude":"-96.77937","Snowdepth":"13.000","Units":"in","Rept_Date":"2020-02-05 14"},"coordinates":[108,7034]},{"type":"Point","properties":{"Station_ID":"MI-CP-14","Station_Nam":"SAULT STE. MARIE 2.2 E, MI","Latitude":"46.48933","Longitude":"-84.31971","Snowdepth":"13.000","Units":"in","Rept_Date":"2020-02-05 12"},"coordinates":[3032,6776]},{"type":"Point","properties":{"Station_ID":"LPLN6","Station_Nam":"LAKE PLACID 2 S","Latitude":"44.30420","Longitude":"-73.98390","Snowdepth":"13.000","Units":"in","Rept_Date":"2020-02-05 12"},"coordinates":[5458,5431]},{"type":"Point","properties":{"Station_ID":"LGRN8","Station_Nam":"LIDGERWOOD,ND","Latitude":"46.06670","Longitude":"-97.16670","Snowdepth":"13.000","Units":"in","Rept_Date":"2020-02-05 13"},"coordinates":[17,6516]},{"type":"Point","properties":{"Station_ID":"LBRM5","Station_Nam":"LAKE BRONSON DAM","Latitude":"48.72410","Longitude":"-96.62180","Snowdepth":"13.000","Units":"in","Rept_Date":"2020-02-05 14"},"coordinates":[145,8151]},{"type":"Point","properties":{"Station_ID":"KGFK","Station_Nam":"GRAND FORKS INTERNATIONAL","Latitude":"47.95000","Longitude":"-97.18333","Snowdepth":"13.000","Units":"in","Rept_Date":"2020-02-06 06"},"coordinates":[13,7675]},{"type":"Point","properties":{"Station_ID":"GRFN8","Station_Nam":"UNIVERSITY","Latitude":"47.93330","Longitude":"-97.08330","Snowdepth":"13.000","Units":"in","Rept_Date":"2020-02-06 06"},"coordinates":[36,7665]},{"type":"Point","properties":{"Station_ID":"GLWM5","Station_Nam":"GLENWOOD 1N","Latitude":"45.66580","Longitude":"-95.38690","Snowdepth":"13.000","Units":"in","Rept_Date":"2020-02-05 13"},"coordinates":[435,6269]},{"type":"Point","properties":{"Station_ID":"GFK","Station_Nam":"GRAND FORKS INTERNATIONAL AIRPORT","Latitude":"47.94920","Longitude":"-97.17610","Snowdepth":"13.000","Units":"in","Rept_Date":"2020-02-06 00"},"coordinates":[15,7674]},{"type":"Point","properties":{"Station_ID":"ENGM4","Station_Nam":"ENGADINE MDOT","Latitude":"46.12800","Longitude":"-85.56960","Snowdepth":"13.000","Units":"in","Rept_Date":"2020-02-05 12"},"coordinates":[2739,6554]},{"type":"Point","properties":{"Station_ID":"CORV1","Station_Nam":"CORINTH","Latitude":"44.00690","Longitude":"-72.31940","Snowdepth":"13.000","Units":"in","Rept_Date":"2020-02-05 12"},"coordinates":[5848,5248]},{"type":"Point","properties":{"Station_ID":"CAN-PE-7","Station_Nam":"MORELL 1.4 NNW, CA","Latitude":"46.42741","Longitude":"-62.70870","Snowdepth":"13.000","Units":"in","Rept_Date":"2020-02-05 12"},"coordinates":[8104,6738]},{"type":"Point","properties":{"Station_ID":"CAN-PE-19","Station_Nam":"CHARLOTTETOWN 6.5 NNW, CAN","Latitude":"46.29235","Longitude":"-63.17271","Snowdepth":"13.000","Units":"in","Rept_Date":"2020-02-05 12"},"coordinates":[7995,6655]},{"type":"Point","properties":{"Station_ID":"CAN-NS-94","Station_Nam":"MARGAREE FORKS 2.6 SSE CBN, CAN","Latitude":"46.30937","Longitude":"-61.07603","Snowdepth":"13.000","Units":"in","Rept_Date":"2020-02-05 13"},"coordinates":[8487,6665]},{"type":"Point","properties":{"Station_ID":"BRAM1","Station_Nam":"BRASSUA DAM","Latitude":"45.66020","Longitude":"-69.81190","Snowdepth":"13.000","Units":"in","Rept_Date":"2020-02-05 12"},"coordinates":[6437,6266]},{"type":"Point","properties":{"Station_ID":"WI-EC-23","Station_Nam":"EAU CLAIRE 3.7 S, WI","Latitude":"44.76858","Longitude":"-91.49898","Snowdepth":"12.500","Units":"in","Rept_Date":"2020-02-05 14"},"coordinates":[1347,5717]},{"type":"Point","properties":{"Station_ID":"VT-OL-9","Station_Nam":"GREENSBORO 2.1 NNW, VT","Latitude":"44.60528","Longitude":"-72.30940","Snowdepth":"12.500","Units":"in","Rept_Date":"2020-02-05 12"},"coordinates":[5851,5617]},{"type":"Point","properties":{"Station_ID":"WVRV1","Station_Nam":"WRIGHTSVILLE DETENTION RESERVOIR","Latitude":"44.31060","Longitude":"-72.57530","Snowdepth":"12.300","Units":"in","Rept_Date":"2020-02-05 20"},"coordinates":[5788,5435]},{"type":"Point","properties":{"Station_ID":"VT-CL-18","Station_Nam":"WHEELOCK 1.6 S, VT","Latitude":"44.56491","Longitude":"-72.08830","Snowdepth":"12.000","Units":"in","Rept_Date":"2020-02-05 12"},"coordinates":[5903,5592]},{"type":"Point","properties":{"Station_ID":"VANM4","Station_Nam":"VANDERBILT 11ENE","Latitude":"45.17020","Longitude":"-84.43970","Snowdepth":"12.000","Units":"in","Rept_Date":"2020-02-05 13"},"coordinates":[3004,5964]},{"type":"Point","properties":{"Station_ID":"SWTW3","Station_Nam":"SUPERIOR WWTP","Latitude":"46.72700","Longitude":"-92.07200","Snowdepth":"12.000","Units":"in","Rept_Date":"2020-02-06 06"},"coordinates":[1213,6922]},{"type":"Point","properties":{"Station_ID":"SMTS2","Station_Nam":"WATERTOWN-28MI.N","Latitude":"45.30000","Longitude":"-97.06670","Snowdepth":"12.000","Units":"in","Rept_Date":"2020-02-05 23"},"coordinates":[40,6044]},{"type":"Point","properties":{"Station_ID":"SD-CD-30","Station_Nam":"WATERTOWN 2.3 E, SD","Latitude":"44.91604","Longitude":"-97.11925","Snowdepth":"12.000","Units":"in","Rept_Date":"2020-02-05 13"},"coordinates":[28,5808]},{"type":"Point","properties":{"Station_ID":"RCEM5","Station_Nam":"RICE","Latitude":"45.75760","Longitude":"-94.20720","Snowdepth":"12.000","Units":"in","Rept_Date":"2020-02-05 13"},"coordinates":[711,6326]},{"type":"Point","properties":{"Station_ID":"MN-MR-4","Station_Nam":"LITTLE FALLS 1.2 SW, MN","Latitude":"45.96886","Longitude":"-94.37720","Snowdepth":"12.000","Units":"in","Rept_Date":"2020-02-05 13"},"coordinates":[672,6456]},{"type":"Point","properties":{"Station_ID":"MI-CX-7","Station_Nam":"EAST JORDAN 2.1 NNW, MI","Latitude":"45.18639","Longitude":"-85.14750","Snowdepth":"12.000","Units":"in","Rept_Date":"2020-02-05 13"},"coordinates":[2838,5974]},{"type":"Point","properties":{"Station_ID":"LUCW3","Station_Nam":"LUCK","Latitude":"45.57330","Longitude":"-92.48520","Snowdepth":"12.000","Units":"in","Rept_Date":"2020-02-05 22"},"coordinates":[1116,6212]},{"type":"Point","properties":{"Station_ID":"LILM1","Station_Nam":"LILLE","Latitude":"47.27770","Longitude":"-68.10520","Snowdepth":"12.000","Units":"in","Rept_Date":"2020-02-05 12"},"coordinates":[6837,7261]},{"type":"Point","properties":{"Station_ID":"GRBM5","Station_Nam":"GRAND RAPIDS 12N","Latitude":"47.39800","Longitude":"-93.51330","Snowdepth":"12.000","Units":"in","Rept_Date":"2020-02-05 13"},"coordinates":[874,7335]},{"type":"Point","properties":{"Station_ID":"FDRN8","Station_Nam":"FARGO 3S","Latitude":"46.82930","Longitude":"-96.79620","Snowdepth":"12.000","Units":"in","Rept_Date":"2020-02-06 00"},"coordinates":[104,6985]},{"type":"Point","properties":{"Station_ID":"FAR","Station_Nam":"HECTOR INTERNATIONAL ARPT","Latitude":"46.91560","Longitude":"-96.81440","Snowdepth":"12.000","Units":"in","Rept_Date":"2020-02-05 13"},"coordinates":[100,7038]},{"type":"Point","properties":{"Station_ID":"EJNM4","Station_Nam":"EAST JORDAN 2NW","Latitude":"45.18630","Longitude":"-85.14770","Snowdepth":"12.000","Units":"in","Rept_Date":"2020-02-05 13"},"coordinates":[2838,5974]},{"type":"Point","properties":{"Station_ID":"BREW3","Station_Nam":"SURING","Latitude":"44.99580","Longitude":"-88.37860","Snowdepth":"12.000","Units":"in","Rept_Date":"2020-02-05 13"},"coordinates":[2079,5857]},{"type":"Point","properties":{"Station_ID":"BENN6","Station_Nam":"BENNETTS BRIDGE","Latitude":"43.53180","Longitude":"-75.95260","Snowdepth":"12.000","Units":"in","Rept_Date":"2020-02-05 12"},"coordinates":[4996,4956]},{"type":"Point","properties":{"Station_ID":"ARTM5","Station_Nam":"ARTICHOKE LAKE 1 E","Latitude":"45.38560","Longitude":"-96.12570","Snowdepth":"12.000","Units":"in","Rept_Date":"2020-02-05 23"},"coordinates":[261,6097]},{"type":"Point","properties":{"Station_ID":"CAN-ON-757","Station_Nam":"SAULT STE. MARIE 2.8 ESE - GLFC, CAN","Latitude":"46.50300","Longitude":"-84.30300","Snowdepth":"11.900","Units":"in","Rept_Date":"2020-02-05 13"},"coordinates":[3036,6784]},{"type":"Point","properties":{"Station_ID":"CAN-ON-245","Station_Nam":"PHELPSTON 3.1 ESE, CAN","Latitude":"44.50564","Longitude":"-79.81035","Snowdepth":"11.500","Units":"in","Rept_Date":"2020-02-05 13"},"coordinates":[4090,5555]},{"type":"Point","properties":{"Station_ID":"WRUM5","Station_Nam":"WARROAD 4W","Latitude":"48.89600","Longitude":"-95.40700","Snowdepth":"11.000","Units":"in","Rept_Date":"2020-02-06 04"},"coordinates":[430,8257]},{"type":"Point","properties":{"Station_ID":"WLKM5","Station_Nam":"AH-GWAH-CHING","Latitude":"47.15000","Longitude":"-94.65000","Snowdepth":"11.000","Units":"in","Rept_Date":"2020-02-05 11"},"coordinates":[608,7183]},{"type":"Point","properties":{"Station_ID":"WLDM5","Station_Nam":"WILD RIVER STATE PARK","Latitude":"45.52310","Longitude":"-92.74890","Snowdepth":"11.000","Units":"in","Rept_Date":"2020-02-05 14"},"coordinates":[1054,6181]},{"type":"Point","properties":{"Station_ID":"WI-BR-2","Station_Nam":"CHETEK 2.0 SE, WI","Latitude":"45.29427","Longitude":"-91.62470","Snowdepth":"11.000","Units":"in","Rept_Date":"2020-02-05 13"},"coordinates":[1318,6041]},{"type":"Point","properties":{"Station_ID":"WHFN6","Station_Nam":"WILMINGTON 2W","Latitude":"44.39310","Longitude":"-73.85890","Snowdepth":"11.000","Units":"in","Rept_Date":"2020-02-05 13"},"coordinates":[5487,5486]},{"type":"Point","properties":{"Station_ID":"VT-WS-15","Station_Nam":"EAST CALAIS 1.5 SW, VT","Latitude":"44.35523","Longitude":"-72.45540","Snowdepth":"11.000","Units":"in","Rept_Date":"2020-02-05 12"},"coordinates":[5816,5463]},{"type":"Point","properties":{"Station_ID":"SIBI4","Station_Nam":"SIBLEY","Latitude":"43.40470","Longitude":"-95.74830","Snowdepth":"11.000","Units":"in","Rept_Date":"2020-02-05 13"},"coordinates":[350,4878]},{"type":"Point","properties":{"Station_ID":"NY-FK-7","Station_Nam":"SARANAC LAKE 6.2 N, NY","Latitude":"44.41359","Longitude":"-74.15211","Snowdepth":"11.000","Units":"in","Rept_Date":"2020-02-05 11"},"coordinates":[5418,5499]},{"type":"Point","properties":{"Station_ID":"NCBN6","Station_Nam":"NEWCOMB","Latitude":"43.97070","Longitude":"-74.22200","Snowdepth":"11.000","Units":"in","Rept_Date":"2020-02-05 13"},"coordinates":[5402,5226]},{"type":"Point","properties":{"Station_ID":"MNP0GYWA","Station_Nam":"WALKER 2.0 SSE","Latitude":"47.07505","Longitude":"-94.56757","Snowdepth":"11.000","Units":"in","Rept_Date":"2020-02-05 11"},"coordinates":[627,7136]},{"type":"Point","properties":{"Station_ID":"MNEY8CTB","Station_Nam":"MIDLAND JUNCTION 2.2 ENE","Latitude":"44.33041","Longitude":"-91.95891","Snowdepth":"11.000","Units":"in","Rept_Date":"2020-02-05 14"},"coordinates":[1239,5448]},{"type":"Point","properties":{"Station_ID":"MN-SH-985","Station_Nam":"PRINCETON 3.3 WSW, MN","Latitude":"45.55211","Longitude":"-93.64481","Snowdepth":"11.000","Units":"in","Rept_Date":"2020-02-05 10"},"coordinates":[843,6199]},{"type":"Point","properties":{"Station_ID":"MN-SH-10","Station_Nam":"BIG LAKE 5.6 NNE, MN","Latitude":"45.41409","Longitude":"-93.69190","Snowdepth":"11.000","Units":"in","Rept_Date":"2020-02-05 13"},"coordinates":[832,6114]},{"type":"Point","properties":{"Station_ID":"MLCM5","Station_Nam":"MILACA","Latitude":"45.75320","Longitude":"-93.66170","Snowdepth":"11.000","Units":"in","Rept_Date":"2020-02-05 13"},"coordinates":[839,6323]},{"type":"Point","properties":{"Station_ID":"LBKV1","Station_Nam":"LYE BROOK","Latitude":"43.05000","Longitude":"-73.03330","Snowdepth":"11.000","Units":"in","Rept_Date":"2020-02-06 06"},"coordinates":[5681,4660]},{"type":"Point","properties":{"Station_ID":"ISLV1","Station_Nam":"ISLAND POND","Latitude":"44.81280","Longitude":"-71.89020","Snowdepth":"11.000","Units":"in","Rept_Date":"2020-02-05 15"},"coordinates":[5949,5744]},{"type":"Point","properties":{"Station_ID":"GHMN3","Station_Nam":"PINKHAM NOTCH","Latitude":"44.25800","Longitude":"-71.25250","Snowdepth":"11.000","Units":"in","Rept_Date":"2020-02-05 10"},"coordinates":[6099,5403]},{"type":"Point","properties":{"Station_ID":"ESAM4","Station_Nam":"ESCANABA","Latitude":"45.74380","Longitude":"-87.04060","Snowdepth":"11.000","Units":"in","Rept_Date":"2020-02-05 12"},"coordinates":[2393,6317]},{"type":"Point","properties":{"Station_ID":"CANM5","Station_Nam":"CANBY","Latitude":"44.71840","Longitude":"-96.26960","Snowdepth":"11.000","Units":"in","Rept_Date":"2020-02-05 14"},"coordinates":[227,5686]},{"type":"Point","properties":{"Station_ID":"CAN-NB-18","Station_Nam":"MCLEOD HILL 1.1 ENE, CA","Latitude":"46.02725","Longitude":"-66.67460","Snowdepth":"11.000","Units":"in","Rept_Date":"2020-02-05 12"},"coordinates":[7173,6492]},{"type":"Point","properties":{"Station_ID":"BRVM5","Station_Nam":"BROWNS VALLEY,MN","Latitude":"45.61670","Longitude":"-96.83330","Snowdepth":"11.000","Units":"in","Rept_Date":"2020-02-05 12"},"coordinates":[95,6239]},{"type":"Point","properties":{"Station_ID":"AMDW3","Station_Nam":"ALMOND-5 NE","Latitude":"44.30830","Longitude":"-89.34640","Snowdepth":"11.000","Units":"in","Rept_Date":"2020-02-05 14"},"coordinates":[1852,5434]},{"type":"Point","properties":{"Station_ID":"ABGW3","Station_Nam":"AMBERG 9 E","Latitude":"45.48250","Longitude":"-87.81190","Snowdepth":"11.000","Units":"in","Rept_Date":"2020-02-05 11"},"coordinates":[2212,6157]},{"type":"Point","properties":{"Station_ID":"MN-DK-49","Station_Nam":"LAKEVILLE 2.1 SW, MN","Latitude":"44.65694","Longitude":"-93.28390","Snowdepth":"10.800","Units":"in","Rept_Date":"2020-02-05 14"},"coordinates":[928,5649]},{"type":"Point","properties":{"Station_ID":"WI-PT-8","Station_Nam":"RUDOLPH 2.1 NNE, WI","Latitude":"44.52553","Longitude":"-89.78677","Snowdepth":"10.500","Units":"in","Rept_Date":"2020-02-05 11"},"coordinates":[1749,5568]},{"type":"Point","properties":{"Station_ID":"OWLN3","Station_Nam":"OWL BROOK","Latitude":"43.76361","Longitude":"-71.59527","Snowdepth":"10.500","Units":"in","Rept_Date":"2020-02-05 12"},"coordinates":[6018,5099]},{"type":"Point","properties":{"Station_ID":"NY-FK-9","Station_Nam":"GABRIELS 1.3 SE, NY","Latitude":"44.41934","Longitude":"-74.16194","Snowdepth":"10.500","Units":"in","Rept_Date":"2020-02-05 12"},"coordinates":[5416,5502]},{"type":"Point","properties":{"Station_ID":"NY-ES-6","Station_Nam":"OLMSTEDVILLE 4.6 NNE, NY","Latitude":"43.83350","Longitude":"-73.89780","Snowdepth":"10.500","Units":"in","Rept_Date":"2020-02-05 13"},"coordinates":[5478,5142]},{"type":"Point","properties":{"Station_ID":"CAN-NB-64","Station_Nam":"KESWICK RIDGE 4.0 SE, CAN","Latitude":"45.97014","Longitude":"-66.85538","Snowdepth":"10.200","Units":"in","Rept_Date":"2020-02-05 13"},"coordinates":[7131,6457]},{"type":"Point","properties":{"Station_ID":"WTSM5","Station_Nam":"WATSON 1 NE","Latitude":"45.02270","Longitude":"-95.78960","Snowdepth":"10.000","Units":"in","Rept_Date":"2020-02-05 14"},"coordinates":[340,5874]},{"type":"Point","properties":{"Station_ID":"WMRM5","Station_Nam":"WILLMAR 5N","Latitude":"45.19010","Longitude":"-95.05860","Snowdepth":"10.000","Units":"in","Rept_Date":"2020-02-05 12"},"coordinates":[512,5977]},{"type":"Point","properties":{"Station_ID":"WLDV1","Station_Nam":"WILDCAT ROAD","Latitude":"43.69250","Longitude":"-72.87420","Snowdepth":"10.000","Units":"in","Rept_Date":"2020-02-05 17"},"coordinates":[5718,5055]},{"type":"Point","properties":{"Station_ID":"WI-TY-2","Station_Nam":"SHELDON 8.1 ENE, WI","Latitude":"45.35598","Longitude":"-90.80296","Snowdepth":"10.000","Units":"in","Rept_Date":"2020-02-05 13"},"coordinates":[1510,6079]},{"type":"Point","properties":{"Station_ID":"VT-WS-30","Station_Nam":"WOODBURY 3.4 NNW, VT","Latitude":"44.48825","Longitude":"-72.43258","Snowdepth":"10.000","Units":"in","Rept_Date":"2020-02-05 12"},"coordinates":[5822,5545]},{"type":"Point","properties":{"Station_ID":"VT-OL-2","Station_Nam":"BARTON 3.0 ENE, VT","Latitude":"44.75863","Longitude":"-72.11680","Snowdepth":"10.000","Units":"in","Rept_Date":"2020-02-05 12"},"coordinates":[5896,5711]},{"type":"Point","properties":{"Station_ID":"VT-CL-14","Station_Nam":"LYNDONVILLE 1.1 W, VT","Latitude":"44.53582","Longitude":"-72.02867","Snowdepth":"10.000","Units":"in","Rept_Date":"2020-02-05 12"},"coordinates":[5917,5574]},{"type":"Point","properties":{"Station_ID":"RGNM1","Station_Nam":"RANGELEY 2NW","Latitude":"44.98940","Longitude":"-70.67220","Snowdepth":"10.000","Units":"in","Rept_Date":"2020-02-05 11"},"coordinates":[6235,5853]},{"type":"Point","properties":{"Station_ID":"RANM1","Station_Nam":"RANGELEY","Latitude":"44.98910","Longitude":"-70.67190","Snowdepth":"10.000","Units":"in","Rept_Date":"2020-02-05 11"},"coordinates":[6235,5853]},{"type":"Point","properties":{"Station_ID":"PTBN3","Station_Nam":"PITTSBURG RESERVOIR","Latitude":"45.04690","Longitude":"-71.38300","Snowdepth":"10.000","Units":"in","Rept_Date":"2020-02-05 12"},"coordinates":[6068,5888]},{"type":"Point","properties":{"Station_ID":"PBAN8","Station_Nam":"SITE 1-3MI.N","Latitude":"48.97420","Longitude":"-97.23860","Snowdepth":"10.000","Units":"in","Rept_Date":"2020-02-05 13"},"coordinates":[0,8305]},{"type":"Point","properties":{"Station_ID":"NY-ES-11","Station_Nam":"VERMONTVILLE 2.8 S, NY","Latitude":"44.41205","Longitude":"-74.06760","Snowdepth":"10.000","Units":"in","Rept_Date":"2020-02-05 12"},"coordinates":[5438,5498]},{"type":"Point","properties":{"Station_ID":"NUMN3","Station_Nam":"NORTHUMBERLAND","Latitude":"44.52830","Longitude":"-71.50440","Snowdepth":"10.000","Units":"in","Rept_Date":"2020-02-05 13"},"coordinates":[6040,5569]},{"type":"Point","properties":{"Station_ID":"MRAM5","Station_Nam":"MORA","Latitude":"45.87760","Longitude":"-93.31470","Snowdepth":"10.000","Units":"in","Rept_Date":"2020-02-05 13"},"coordinates":[921,6400]},{"type":"Point","properties":{"Station_ID":"MN-SR-29","Station_Nam":"ALBANY 3.8 S, MN","Latitude":"45.57441","Longitude":"-94.55543","Snowdepth":"10.000","Units":"in","Rept_Date":"2020-02-05 13"},"coordinates":[630,6213]},{"type":"Point","properties":{"Station_ID":"MEDW3","Station_Nam":"MEDFORD","Latitude":"45.13080","Longitude":"-90.34390","Snowdepth":"10.000","Units":"in","Rept_Date":"2020-02-05 14"},"coordinates":[1618,5940]},{"type":"Point","properties":{"Station_ID":"ME-OX-2","Station_Nam":"HARTFORD 1.4 N, ME","Latitude":"44.39318","Longitude":"-70.34760","Snowdepth":"10.000","Units":"in","Rept_Date":"2020-02-05 12"},"coordinates":[6311,5486]},{"type":"Point","properties":{"Station_ID":"ME-FR-4","Station_Nam":"NEW SHARON 2.0 NW, ME","Latitude":"44.66582","Longitude":"-70.02720","Snowdepth":"10.000","Units":"in","Rept_Date":"2020-02-05 12"},"coordinates":[6386,5654]},{"type":"Point","properties":{"Station_ID":"LMLI4","Station_Nam":"LAKE MILLS,IA","Latitude":"43.40000","Longitude":"-93.53330","Snowdepth":"10.000","Units":"in","Rept_Date":"2020-02-05 13"},"coordinates":[870,4875]},{"type":"Point","properties":{"Station_ID":"LADW3","Station_Nam":"LADYSMITH WTP","Latitude":"45.44290","Longitude":"-91.08970","Snowdepth":"10.000","Units":"in","Rept_Date":"2020-02-05 13"},"coordinates":[1443,6132]},{"type":"Point","properties":{"Station_ID":"KINM1","Station_Nam":"KINGFIELD","Latitude":"44.95950","Longitude":"-70.17530","Snowdepth":"10.000","Units":"in","Rept_Date":"2020-02-05 12"},"coordinates":[6352,5835]},{"type":"Point","properties":{"Station_ID":"JEFN3","Station_Nam":"JEFFERSON","Latitude":"44.41690","Longitude":"-71.50080","Snowdepth":"10.000","Units":"in","Rept_Date":"2020-02-05 12"},"coordinates":[6040,5501]},{"type":"Point","properties":{"Station_ID":"ISEM5","Station_Nam":"ISLE 12N","Latitude":"46.31970","Longitude":"-93.50140","Snowdepth":"10.000","Units":"in","Rept_Date":"2020-02-05 14"},"coordinates":[877,6672]},{"type":"Point","properties":{"Station_ID":"FORM5","Station_Nam":"FOREST LAKE 5NE","Latitude":"45.33170","Longitude":"-92.89820","Snowdepth":"10.000","Units":"in","Rept_Date":"2020-02-05 13"},"coordinates":[1019,6064]},{"type":"Point","properties":{"Station_ID":"EAU","Station_Nam":"CHIPPEWA VALLEY REGIONAL AIRPORT","Latitude":"44.86650","Longitude":"-91.48790","Snowdepth":"10.000","Units":"in","Rept_Date":"2020-02-06 00"},"coordinates":[1350,5777]},{"type":"Point","properties":{"Station_ID":"DFXM1","Station_Nam":"DOVER-FOXCROFT","Latitude":"45.18720","Longitude":"-69.18350","Snowdepth":"10.000","Units":"in","Rept_Date":"2020-02-05 12"},"coordinates":[6584,5975]},{"type":"Point","properties":{"Station_ID":"CBLW3","Station_Nam":"CUMBERLAND","Latitude":"45.53310","Longitude":"-92.02260","Snowdepth":"10.000","Units":"in","Rept_Date":"2020-02-05 13"},"coordinates":[1224,6188]},{"type":"Point","properties":{"Station_ID":"CAN-NB-2","Station_Nam":"GRAFTON 2.7 NNE, CA","Latitude":"46.17062","Longitude":"-67.55330","Snowdepth":"10.000","Units":"in","Rept_Date":"2020-02-05 10"},"coordinates":[6967,6580]},{"type":"Point","properties":{"Station_ID":"BKEM5","Station_Nam":"BRECKENRIDGE 4NE","Latitude":"46.30470","Longitude":"-96.52170","Snowdepth":"10.000","Units":"in","Rept_Date":"2020-02-05 13"},"coordinates":[168,6662]},{"type":"Point","properties":{"Station_ID":"BALW3","Station_Nam":"BALDWIN","Latitude":"44.96330","Longitude":"-92.39050","Snowdepth":"10.000","Units":"in","Rept_Date":"2020-02-05 13"},"coordinates":[1138,5837]},{"type":"Point","properties":{"Station_ID":"CAN-ON-132","Station_Nam":"ORANGEVILLE 5.1 SSW - CANWARN, CAN","Latitude":"43.87372","Longitude":"-80.13428","Snowdepth":"9.800","Units":"in","Rept_Date":"2020-02-05 14"},"coordinates":[4014,5167]},{"type":"Point","properties":{"Station_ID":"CAN-QC-51","Station_Nam":"BELOEIL 0.7 NW, CAN","Latitude":"45.58049","Longitude":"-73.21218","Snowdepth":"9.700","Units":"in","Rept_Date":"2020-02-05 12"},"coordinates":[5639,6217]},{"type":"Point","properties":{"Station_ID":"VT-OG-11","Station_Nam":"VERSHIRE 1.5 ESE, VT","Latitude":"43.96138","Longitude":"-72.29777","Snowdepth":"9.500","Units":"in","Rept_Date":"2020-02-05 12"},"coordinates":[5853,5220]},{"type":"Point","properties":{"Station_ID":"NH-CR-11","Station_Nam":"NORTH CONWAY 1.4 SSW, NH","Latitude":"44.03556","Longitude":"-71.14010","Snowdepth":"9.500","Units":"in","Rept_Date":"2020-02-05 12"},"coordinates":[6125,5266]},{"type":"Point","properties":{"Station_ID":"QGT","Station_Nam":"QGT","Latitude":"49.64720","Longitude":"-67.62640","Snowdepth":"9.331","Units":"in","Rept_Date":"2020-02-05 12"},"coordinates":[6950,8719]},{"type":"Point","properties":{"Station_ID":"WORV1","Station_Nam":"WORCESTER 2 W","Latitude":"44.37470","Longitude":"-72.58220","Snowdepth":"9.000","Units":"in","Rept_Date":"2020-02-05 12"},"coordinates":[5787,5475]},{"type":"Point","properties":{"Station_ID":"WI-DR-5","Station_Nam":"ELLISON BAY 2.2 E, WI","Latitude":"45.25750","Longitude":"-87.02670","Snowdepth":"9.000","Units":"in","Rept_Date":"2020-02-05 13"},"coordinates":[2397,6018]},{"type":"Point","properties":{"Station_ID":"WDOM5","Station_Nam":"WINDOM","Latitude":"43.87700","Longitude":"-95.11590","Snowdepth":"9.000","Units":"in","Rept_Date":"2020-02-05 14"},"coordinates":[498,5169]},{"type":"Point","properties":{"Station_ID":"VT-BN-12","Station_Nam":"STAMFORD 5.0 NNE, VT","Latitude":"42.82000","Longitude":"-73.02000","Snowdepth":"9.000","Units":"in","Rept_Date":"2020-02-05 21"},"coordinates":[5684,4518]},{"type":"Point","properties":{"Station_ID":"SPCW3","Station_Nam":"SPENCER-WWTP","Latitude":"44.75390","Longitude":"-90.28920","Snowdepth":"9.000","Units":"in","Rept_Date":"2020-02-05 13"},"coordinates":[1631,5708]},{"type":"Point","properties":{"Station_ID":"SIWS2","Station_Nam":"SISSETON 3W","Latitude":"45.65870","Longitude":"-97.12450","Snowdepth":"9.000","Units":"in","Rept_Date":"2020-02-05 13"},"coordinates":[27,6265]},{"type":"Point","properties":{"Station_ID":"SHIW3","Station_Nam":"SHIOCTON","Latitude":"44.43890","Longitude":"-88.58390","Snowdepth":"9.000","Units":"in","Rept_Date":"2020-02-05 13"},"coordinates":[2031,5514]},{"type":"Point","properties":{"Station_ID":"SD-RB-1","Station_Nam":"SISSETON 3.8 W, SD","Latitude":"45.65865","Longitude":"-97.12370","Snowdepth":"9.000","Units":"in","Rept_Date":"2020-02-05 13"},"coordinates":[27,6265]},{"type":"Point","properties":{"Station_ID":"SD-BK-2","Station_Nam":"ASTORIA 2.2 SSE, SD","Latitude":"44.53093","Longitude":"-96.52270","Snowdepth":"9.000","Units":"in","Rept_Date":"2020-02-05 13"},"coordinates":[168,5571]},{"type":"Point","properties":{"Station_ID":"PELW3","Station_Nam":"PELLA 3SE","Latitude":"44.73580","Longitude":"-88.73780","Snowdepth":"9.000","Units":"in","Rept_Date":"2020-02-05 11"},"coordinates":[1995,5697]},{"type":"Point","properties":{"Station_ID":"NWBN3","Station_Nam":"NORTH WOLFEBORO","Latitude":"43.65610","Longitude":"-71.14280","Snowdepth":"9.000","Units":"in","Rept_Date":"2020-02-05 12"},"coordinates":[6124,5033]},{"type":"Point","properties":{"Station_ID":"NH-CR-26","Station_Nam":"CENTER SANDWICH 4.9 E, NH","Latitude":"43.80976","Longitude":"-71.34150","Snowdepth":"9.000","Units":"in","Rept_Date":"2020-02-05 12"},"coordinates":[6078,5127]},{"type":"Point","properties":{"Station_ID":"MWN","Station_Nam":"MOUNT WASHINGTON","Latitude":"44.26670","Longitude":"-71.30000","Snowdepth":"9.000","Units":"in","Rept_Date":"2020-02-06 05"},"coordinates":[6088,5408]},{"type":"Point","properties":{"Station_ID":"MNG0GYSN","Station_Nam":"LONSDALE 1.1 SSW","Latitude":"44.46445","Longitude":"-93.43293","Snowdepth":"9.000","Units":"in","Rept_Date":"2020-02-05 12"},"coordinates":[893,5530]},{"type":"Point","properties":{"Station_ID":"MN228YHJ","Station_Nam":"RICE 2.8 ESE","Latitude":"45.73609","Longitude":"-94.17230","Snowdepth":"9.000","Units":"in","Rept_Date":"2020-02-05 13"},"coordinates":[720,6313]},{"type":"Point","properties":{"Station_ID":"MN-RC-1","Station_Nam":"MONTGOMERY 3.2 ENE, MN","Latitude":"44.46400","Longitude":"-93.51980","Snowdepth":"9.000","Units":"in","Rept_Date":"2020-02-05 11"},"coordinates":[873,5530]},{"type":"Point","properties":{"Station_ID":"MN-MW-8","Station_Nam":"AUSTIN 2.4 W, MN","Latitude":"43.67190","Longitude":"-93.02280","Snowdepth":"9.000","Units":"in","Rept_Date":"2020-02-05 13"},"coordinates":[989,5042]},{"type":"Point","properties":{"Station_ID":"MN-MC-16","Station_Nam":"HUTCHINSON 0.1 ENE, MN","Latitude":"44.88633","Longitude":"-94.37503","Snowdepth":"9.000","Units":"in","Rept_Date":"2020-02-05 13"},"coordinates":[672,5790]},{"type":"Point","properties":{"Station_ID":"MN-HN-181","Station_Nam":"MINNEAPOLIS 0.4 NE, MN","Latitude":"44.96708","Longitude":"-93.26222","Snowdepth":"9.000","Units":"in","Rept_Date":"2020-02-05 13"},"coordinates":[933,5839]},{"type":"Point","properties":{"Station_ID":"MIAM5","Station_Nam":"MILAN 1NW","Latitude":"45.12190","Longitude":"-95.92690","Snowdepth":"9.000","Units":"in","Rept_Date":"2020-02-06 00"},"coordinates":[308,5935]},{"type":"Point","properties":{"Station_ID":"MFDW3","Station_Nam":"MARSHFIELD EXP FARM","Latitude":"44.64110","Longitude":"-90.13330","Snowdepth":"9.000","Units":"in","Rept_Date":"2020-02-05 13"},"coordinates":[1668,5639]},{"type":"Point","properties":{"Station_ID":"ME-CM-86","Station_Nam":"POWNAL 4.1 S, ME","Latitude":"43.85370","Longitude":"-70.17210","Snowdepth":"9.000","Units":"in","Rept_Date":"2020-02-05 12"},"coordinates":[6352,5154]},{"type":"Point","properties":{"Station_ID":"MAPM4","Station_Nam":"MAPLE CITY 1E","Latitude":"44.85500","Longitude":"-85.83520","Snowdepth":"9.000","Units":"in","Rept_Date":"2020-02-05 23"},"coordinates":[2676,5770]},{"type":"Point","properties":{"Station_ID":"KSEM4","Station_Nam":"KALKASKA 11SE","Latitude":"44.58970","Longitude":"-85.04860","Snowdepth":"9.000","Units":"in","Rept_Date":"2020-02-05 13"},"coordinates":[2861,5607]},{"type":"Point","properties":{"Station_ID":"KMWN","Station_Nam":"MOUNT WASHINGTON","Latitude":"44.26666","Longitude":"-71.30000","Snowdepth":"9.000","Units":"in","Rept_Date":"2020-02-06 06"},"coordinates":[6088,5408]},{"type":"Point","properties":{"Station_ID":"JIMW3","Station_Nam":"JIM FALLS 3NW","Latitude":"45.08270","Longitude":"-91.33130","Snowdepth":"9.000","Units":"in","Rept_Date":"2020-02-05 12"},"coordinates":[1386,5910]},{"type":"Point","properties":{"Station_ID":"INDN6","Station_Nam":"INDIAN LAKE","Latitude":"43.75500","Longitude":"-74.27560","Snowdepth":"9.000","Units":"in","Rept_Date":"2020-02-05 13"},"coordinates":[5389,5093]},{"type":"Point","properties":{"Station_ID":"FLAM4","Station_Nam":"FIFE LAKE 2WNW","Latitude":"44.58480","Longitude":"-85.36530","Snowdepth":"9.000","Units":"in","Rept_Date":"2020-02-05 12"},"coordinates":[2787,5604]},{"type":"Point","properties":{"Station_ID":"ESGM1","Station_Nam":"EAST SANGERVILLE","Latitude":"45.13690","Longitude":"-69.28060","Snowdepth":"9.000","Units":"in","Rept_Date":"2020-02-05 12"},"coordinates":[6562,5944]},{"type":"Point","properties":{"Station_ID":"ESDN3","Station_Nam":"EAST SANDWICH","Latitude":"43.80990","Longitude":"-71.34250","Snowdepth":"9.000","Units":"in","Rept_Date":"2020-02-05 11"},"coordinates":[6078,5127]},{"type":"Point","properties":{"Station_ID":"EMRV1","Station_Nam":"LAKE ELMORE RAWS","Latitude":"44.54310","Longitude":"-72.52940","Snowdepth":"9.000","Units":"in","Rept_Date":"2020-02-05 20"},"coordinates":[5799,5578]},{"type":"Point","properties":{"Station_ID":"ELRW3","Station_Nam":"EAU CLAIRE 3SW","Latitude":"44.78780","Longitude":"-91.51650","Snowdepth":"9.000","Units":"in","Rept_Date":"2020-02-06 06"},"coordinates":[1343,5729]},{"type":"Point","properties":{"Station_ID":"CAN-ON-208","Station_Nam":"PAKENHAM 7.8 NNW, CAN","Latitude":"45.39166","Longitude":"-76.34111","Snowdepth":"9.000","Units":"in","Rept_Date":"2020-02-05 12"},"coordinates":[4904,6101]},{"type":"Point","properties":{"Station_ID":"BRLN3","Station_Nam":"BERLIN","Latitude":"44.45350","Longitude":"-71.18540","Snowdepth":"9.000","Units":"in","Rept_Date":"2020-02-05 12"},"coordinates":[6115,5523]},{"type":"Point","properties":{"Station_ID":"ASTM5","Station_Nam":"AUSTIN WASTE WATER TREATMENT FACILITY","Latitude":"43.65420","Longitude":"-92.97390","Snowdepth":"9.000","Units":"in","Rept_Date":"2020-02-05 13"},"coordinates":[1001,5031]},{"type":"Point","properties":{"Station_ID":"AGSW3","Station_Nam":"AUGUSTA RANGER STATION","Latitude":"44.68250","Longitude":"-91.13570","Snowdepth":"9.000","Units":"in","Rept_Date":"2020-02-05 14"},"coordinates":[1432,5664]},{"type":"Point","properties":{"Station_ID":"WI-WH-7","Station_Nam":"WILD ROSE 0.5 E, WI","Latitude":"44.17764","Longitude":"-89.23812","Snowdepth":"8.500","Units":"in","Rept_Date":"2020-02-05 13"},"coordinates":[1878,5354]},{"type":"Point","properties":{"Station_ID":"VT-OL-5","Station_Nam":"DERBY CENTER 1.8 NW, VT","Latitude":"44.97200","Longitude":"-72.14780","Snowdepth":"8.500","Units":"in","Rept_Date":"2020-02-05 12"},"coordinates":[5889,5842]},{"type":"Point","properties":{"Station_ID":"ME-FR-22","Station_Nam":"FARMINGTON 4.8 NNW, ME","Latitude":"44.73396","Longitude":"-70.18007","Snowdepth":"8.500","Units":"in","Rept_Date":"2020-02-05 14"},"coordinates":[6350,5696]},{"type":"Point","properties":{"Station_ID":"WSKW3","Station_Nam":"WAUSAUKEE","Latitude":"45.38020","Longitude":"-87.95660","Snowdepth":"8.000","Units":"in","Rept_Date":"2020-02-05 14"},"coordinates":[2178,6094]},{"type":"Point","properties":{"Station_ID":"WSFW3","Station_Nam":"TOWN OF WESTFORD","Latitude":"43.47190","Longitude":"-88.88250","Snowdepth":"8.000","Units":"in","Rept_Date":"2020-02-05 13"},"coordinates":[1961,4919]},{"type":"Point","properties":{"Station_ID":"WIPW3","Station_Nam":"WISCONSIN RAPIDS-SOUTHEAST","Latitude":"44.38190","Longitude":"-89.80470","Snowdepth":"8.000","Units":"in","Rept_Date":"2020-02-05 12"},"coordinates":[1745,5479]},{"type":"Point","properties":{"Station_ID":"WI-PK-4","Station_Nam":"DRESSER 6.1 ESE, WI","Latitude":"45.32436","Longitude":"-92.52080","Snowdepth":"8.000","Units":"in","Rept_Date":"2020-02-05 14"},"coordinates":[1107,6059]},{"type":"Point","properties":{"Station_ID":"WI-PC-5","Station_Nam":"RIVER FALLS 1.2 SSW, WI","Latitude":"44.84032","Longitude":"-92.63500","Snowdepth":"8.000","Units":"in","Rept_Date":"2020-02-05 13"},"coordinates":[1080,5761]},{"type":"Point","properties":{"Station_ID":"WI-DD-16","Station_Nam":"BEAVER DAM 2.4 WNW, WI","Latitude":"43.47210","Longitude":"-88.88280","Snowdepth":"8.000","Units":"in","Rept_Date":"2020-02-05 13"},"coordinates":[1961,4919]},{"type":"Point","properties":{"Station_ID":"WI-CH-3","Station_Nam":"CORNELL 4.1 W, WI","Latitude":"45.17024","Longitude":"-91.23610","Snowdepth":"8.000","Units":"in","Rept_Date":"2020-02-05 14"},"coordinates":[1409,5964]},{"type":"Point","properties":{"Station_ID":"WABM5","Station_Nam":"WABASHA","Latitude":"44.38500","Longitude":"-92.04860","Snowdepth":"8.000","Units":"in","Rept_Date":"2020-02-05 13"},"coordinates":[1218,5481]},{"type":"Point","properties":{"Station_ID":"VT-WR-2","Station_Nam":"POMFRET 2.6 N, VT","Latitude":"43.74230","Longitude":"-72.52550","Snowdepth":"8.000","Units":"in","Rept_Date":"2020-02-05 12"},"coordinates":[5800,5086]},{"type":"Point","properties":{"Station_ID":"VT-CH-4","Station_Nam":"UNDERHILL 4.4 NNE, VT","Latitude":"44.58774","Longitude":"-72.92250","Snowdepth":"8.000","Units":"in","Rept_Date":"2020-02-05 12"},"coordinates":[5707,5606]},{"type":"Point","properties":{"Station_ID":"UMNM5","Station_Nam":"UNIVERSITY OF MN ST. PAUL","Latitude":"44.99020","Longitude":"-93.17990","Snowdepth":"8.000","Units":"in","Rept_Date":"2020-02-05 14"},"coordinates":[953,5854]},{"type":"Point","properties":{"Station_ID":"TAHW3","Station_Nam":"TAYCHEEDAH","Latitude":"43.83390","Longitude":"-88.34690","Snowdepth":"8.000","Units":"in","Rept_Date":"2020-02-05 13"},"coordinates":[2087,5142]},{"type":"Point","properties":{"Station_ID":"STPW3","Station_Nam":"STEVENS POINT","Latitude":"44.51130","Longitude":"-89.58550","Snowdepth":"8.000","Units":"in","Rept_Date":"2020-02-05 13"},"coordinates":[1796,5559]},{"type":"Point","properties":{"Station_ID":"STC","Station_Nam":"ST. CLOUD REGIONAL AIRPORT","Latitude":"45.54330","Longitude":"-94.05140","Snowdepth":"8.000","Units":"in","Rept_Date":"2020-02-06 00"},"coordinates":[748,6194]},{"type":"Point","properties":{"Station_ID":"SCSM5","Station_Nam":"ST CLOUD STATE","Latitude":"45.55100","Longitude":"-94.14950","Snowdepth":"8.000","Units":"in","Rept_Date":"2020-02-05 12"},"coordinates":[725,6199]},{"type":"Point","properties":{"Station_ID":"SANI4","Station_Nam":"ST ANSGAR","Latitude":"43.38170","Longitude":"-92.92320","Snowdepth":"8.000","Units":"in","Rept_Date":"2020-02-05 12"},"coordinates":[1013,4864]},{"type":"Point","properties":{"Station_ID":"OWEW3","Station_Nam":"OWEN 1E","Latitude":"44.94610","Longitude":"-90.55170","Snowdepth":"8.000","Units":"in","Rept_Date":"2020-02-05 13"},"coordinates":[1569,5826]},{"type":"Point","properties":{"Station_ID":"OCON6","Station_Nam":"OSCEOLA","Latitude":"43.49910","Longitude":"-75.71210","Snowdepth":"8.000","Units":"in","Rept_Date":"2020-02-05 12"},"coordinates":[5052,4936]},{"type":"Point","properties":{"Station_ID":"NY-HR-18","Station_Nam":"SALISBURY CENTER 1.8 NW, NY","Latitude":"43.16260","Longitude":"-74.80880","Snowdepth":"8.000","Units":"in","Rept_Date":"2020-02-05 11"},"coordinates":[5264,4729]},{"type":"Point","properties":{"Station_ID":"NUNV1","Station_Nam":"NORTH UNDERHILL","Latitude":"44.58760","Longitude":"-72.92150","Snowdepth":"8.000","Units":"in","Rept_Date":"2020-02-05 12"},"coordinates":[5707,5606]},{"type":"Point","properties":{"Station_ID":"NUMM5","Station_Nam":"NEW ULM 3SE","Latitude":"44.29450","Longitude":"-94.40840","Snowdepth":"8.000","Units":"in","Rept_Date":"2020-02-05 11"},"coordinates":[664,5425]},{"type":"Point","properties":{"Station_ID":"MTNV1","Station_Nam":"MOUNTAIN TOP ROAD","Latitude":"43.73640","Longitude":"-72.93670","Snowdepth":"8.000","Units":"in","Rept_Date":"2020-02-05 17"},"coordinates":[5703,5082]},{"type":"Point","properties":{"Station_ID":"MRRM5","Station_Nam":"MORRIS WC EXP STA","Latitude":"45.59010","Longitude":"-95.87450","Snowdepth":"8.000","Units":"in","Rept_Date":"2020-02-05 14"},"coordinates":[320,6223]},{"type":"Point","properties":{"Station_ID":"MNGV43TT","Station_Nam":"SPRING LAKE 0.5 NW","Latitude":"44.71079","Longitude":"-93.47019","Snowdepth":"8.000","Units":"in","Rept_Date":"2020-02-05 13"},"coordinates":[884,5682]},{"type":"Point","properties":{"Station_ID":"MNF74YNU","Station_Nam":"NEW ULM 3.3 ESE","Latitude":"44.29029","Longitude":"-94.40196","Snowdepth":"8.000","Units":"in","Rept_Date":"2020-02-05 11"},"coordinates":[666,5423]},{"type":"Point","properties":{"Station_ID":"MN76ACVS","Station_Nam":"GRAND MARAIS 3.0 WNW","Latitude":"47.76602","Longitude":"-90.26427","Snowdepth":"8.000","Units":"in","Rept_Date":"2020-02-05 13"},"coordinates":[1637,7562]},{"type":"Point","properties":{"Station_ID":"MN-SC-2","Station_Nam":"PRIOR LAKE 2.0 W, MN","Latitude":"44.71250","Longitude":"-93.46360","Snowdepth":"8.000","Units":"in","Rept_Date":"2020-02-05 13"},"coordinates":[886,5683]},{"type":"Point","properties":{"Station_ID":"ME-YK-3","Station_Nam":"HOLLIS CENTER 5.4 NW, ME","Latitude":"43.64750","Longitude":"-70.67510","Snowdepth":"8.000","Units":"in","Rept_Date":"2020-02-05 12"},"coordinates":[6234,5027]},{"type":"Point","properties":{"Station_ID":"ME-CM-98","Station_Nam":"SEBAGO 2.4 ESE, ME","Latitude":"43.88000","Longitude":"-70.63000","Snowdepth":"8.000","Units":"in","Rept_Date":"2020-02-05 14"},"coordinates":[6245,5170]},{"type":"Point","properties":{"Station_ID":"LNKM1","Station_Nam":"LINCOLN SANITARY DISTRICT/WTP","Latitude":"45.37520","Longitude":"-68.50820","Snowdepth":"8.000","Units":"in","Rept_Date":"2020-02-05 12"},"coordinates":[6743,6090]},{"type":"Point","properties":{"Station_ID":"KLKM4","Station_Nam":"KALKASKA","Latitude":"44.72800","Longitude":"-85.17270","Snowdepth":"8.000","Units":"in","Rept_Date":"2020-02-05 13"},"coordinates":[2832,5692]},{"type":"Point","properties":{"Station_ID":"KIMM5","Station_Nam":"KIMBALL 3N","Latitude":"45.35330","Longitude":"-94.30560","Snowdepth":"8.000","Units":"in","Rept_Date":"2020-02-05 12"},"coordinates":[688,6077]},{"type":"Point","properties":{"Station_ID":"JKMM1","Station_Nam":"JACKMAN","Latitude":"45.62600","Longitude":"-70.24600","Snowdepth":"8.000","Units":"in","Rept_Date":"2020-02-05 12"},"coordinates":[6335,6245]},{"type":"Point","properties":{"Station_ID":"HYTS2","Station_Nam":"HAYTI 1W","Latitude":"44.66330","Longitude":"-97.22670","Snowdepth":"8.000","Units":"in","Rept_Date":"2020-02-05 14"},"coordinates":[3,5652]},{"type":"Point","properties":{"Station_ID":"HOLM1","Station_Nam":"HOLLIS","Latitude":"43.64750","Longitude":"-70.67490","Snowdepth":"8.000","Units":"in","Rept_Date":"2020-02-05 11"},"coordinates":[6234,5027]},{"type":"Point","properties":{"Station_ID":"GSHV1","Station_Nam":"GOSHEN DAM","Latitude":"43.91420","Longitude":"-73.00500","Snowdepth":"8.000","Units":"in","Rept_Date":"2020-02-05 17"},"coordinates":[5687,5191]},{"type":"Point","properties":{"Station_ID":"FYTI4","Station_Nam":"FAYETTE","Latitude":"42.88300","Longitude":"-91.83020","Snowdepth":"8.000","Units":"in","Rept_Date":"2020-02-05 13"},"coordinates":[1269,4557]},{"type":"Point","properties":{"Station_ID":"ELWW3","Station_Nam":"ELLSWORTH 1E","Latitude":"44.73030","Longitude":"-92.45860","Snowdepth":"8.000","Units":"in","Rept_Date":"2020-02-05 13"},"coordinates":[1122,5694]},{"type":"Point","properties":{"Station_ID":"ELKM5","Station_Nam":"ELK RIVER","Latitude":"45.30470","Longitude":"-93.58420","Snowdepth":"8.000","Units":"in","Rept_Date":"2020-02-05 13"},"coordinates":[858,6047]},{"type":"Point","properties":{"Station_ID":"DTVM4","Station_Nam":"DETOUR VILLAGE","Latitude":"45.99830","Longitude":"-83.90130","Snowdepth":"8.000","Units":"in","Rept_Date":"2020-02-05 13"},"coordinates":[3130,6474]},{"type":"Point","properties":{"Station_ID":"CVZW3","Station_Nam":"WISCONSIN PUBLIC SERVICE","Latitude":"45.23530","Longitude":"-88.01360","Snowdepth":"8.000","Units":"in","Rept_Date":"2020-02-05 12"},"coordinates":[2165,6004]},{"type":"Point","properties":{"Station_ID":"CLKV1","Station_Nam":"CLARKS CAMP","Latitude":"43.70500","Longitude":"-72.88830","Snowdepth":"8.000","Units":"in","Rept_Date":"2020-02-05 17"},"coordinates":[5715,5063]},{"type":"Point","properties":{"Station_ID":"CHRM4","Station_Nam":"CHARLEVOIX","Latitude":"45.31720","Longitude":"-85.26720","Snowdepth":"8.000","Units":"in","Rept_Date":"2020-02-05 13"},"coordinates":[2810,6055]},{"type":"Point","properties":{"Station_ID":"CHPW3","Station_Nam":"CHIPPEWA FALLS","Latitude":"44.92770","Longitude":"-91.40810","Snowdepth":"8.000","Units":"in","Rept_Date":"2020-02-05 14"},"coordinates":[1368,5815]},{"type":"Point","properties":{"Station_ID":"BULV1","Station_Nam":"BUELS GORE","Latitude":"44.21910","Longitude":"-72.95170","Snowdepth":"8.000","Units":"in","Rept_Date":"2020-02-05 20"},"coordinates":[5700,5379]},{"type":"Point","properties":{"Station_ID":"BTLN3","Station_Nam":"BARTLETT","Latitude":"44.08380","Longitude":"-71.29340","Snowdepth":"8.000","Units":"in","Rept_Date":"2020-02-05 12"},"coordinates":[6089,5296]},{"type":"Point","properties":{"Station_ID":"BROS2","Station_Nam":"BROOKINGS,SD","Latitude":"44.31670","Longitude":"-96.76670","Snowdepth":"8.000","Units":"in","Rept_Date":"2020-02-05 14"},"coordinates":[111,5439]},{"type":"Point","properties":{"Station_ID":"BMRW3","Station_Nam":"BLOOMER","Latitude":"45.09070","Longitude":"-91.48640","Snowdepth":"8.000","Units":"in","Rept_Date":"2020-02-05 14"},"coordinates":[1350,5915]},{"type":"Point","properties":{"Station_ID":"ALTM5","Station_Nam":"ALTURA 5W","Latitude":"44.06330","Longitude":"-92.03970","Snowdepth":"8.000","Units":"in","Rept_Date":"2020-02-05 13"},"coordinates":[1220,5283]},{"type":"Point","properties":{"Station_ID":"HEMN3","Station_Nam":"HEMENWAY","Latitude":"43.89610","Longitude":"-71.31000","Snowdepth":"7.700","Units":"in","Rept_Date":"2020-02-05 12"},"coordinates":[6085,5180]},{"type":"Point","properties":{"Station_ID":"WI-WN-9","Station_Nam":"NEENAH 1.1 ENE, WI","Latitude":"44.17370","Longitude":"-88.45130","Snowdepth":"7.500","Units":"in","Rept_Date":"2020-02-05 13"},"coordinates":[2062,5351]},{"type":"Point","properties":{"Station_ID":"SD-BK-7","Station_Nam":"BROOKINGS 0.2 SSW, SD","Latitude":"44.30389","Longitude":"-96.78780","Snowdepth":"7.500","Units":"in","Rept_Date":"2020-02-05 13"},"coordinates":[106,5431]},{"type":"Point","properties":{"Station_ID":"NY-ER-166","Station_Nam":"BOSTON 2.5 NE, NY","Latitude":"42.65480","Longitude":"-78.70300","Snowdepth":"7.500","Units":"in","Rept_Date":"2020-02-05 12"},"coordinates":[4350,4416]},{"type":"Point","properties":{"Station_ID":"NH-GR-49","Station_Nam":"PLYMOUTH 3.7 N, NH","Latitude":"43.79048","Longitude":"-71.68413","Snowdepth":"7.500","Units":"in","Rept_Date":"2020-02-05 12"},"coordinates":[5997,5115]},{"type":"Point","properties":{"Station_ID":"MI-CF-9","Station_Nam":"GRAYLING 15.8 NE, MI","Latitude":"44.80464","Longitude":"-84.46313","Snowdepth":"7.500","Units":"in","Rept_Date":"2020-02-05 12"},"coordinates":[2998,5739]},{"type":"Point","properties":{"Station_ID":"ME-CM-3","Station_Nam":"NEW GLOUCESTER 3.0 SE, ME","Latitude":"43.92372","Longitude":"-70.25790","Snowdepth":"7.500","Units":"in","Rept_Date":"2020-02-05 12"},"coordinates":[6332,5197]},{"type":"Point","properties":{"Station_ID":"MA-HS-7","Station_Nam":"PLAINFIELD 2.2 SW, MA","Latitude":"42.49272","Longitude":"-72.94540","Snowdepth":"7.500","Units":"in","Rept_Date":"2020-02-05 13"},"coordinates":[5701,4317]},{"type":"Point","properties":{"Station_ID":"CAN-PE-3","Station_Nam":"WELLINGTON 1.6 NE, CA","Latitude":"46.46672","Longitude":"-63.98920","Snowdepth":"7.500","Units":"in","Rept_Date":"2020-02-05 11"},"coordinates":[7803,6762]},{"type":"Point","properties":{"Station_ID":"MRDN3","Station_Nam":"MEREDITH","Latitude":"43.63060","Longitude":"-71.52060","Snowdepth":"7.400","Units":"in","Rept_Date":"2020-02-05 12"},"coordinates":[6036,5017]},{"type":"Point","properties":{"Station_ID":"CAN-PE-50","Station_Nam":"BEDFORD CORNER 3.9 WNW, CAN","Latitude":"46.34628","Longitude":"-63.06157","Snowdepth":"7.100","Units":"in","Rept_Date":"2020-02-05 11"},"coordinates":[8021,6688]},{"type":"Point","properties":{"Station_ID":"WTBW3","Station_Nam":"WEST BEND PUBLIC WORKS","Latitude":"43.41110","Longitude":"-88.19380","Snowdepth":"7.000","Units":"in","Rept_Date":"2020-02-05 15"},"coordinates":[2123,4882]},{"type":"Point","properties":{"Station_ID":"WI-WN-5","Station_Nam":"OSHKOSH 5.2 N, WI","Latitude":"44.09351","Longitude":"-88.55310","Snowdepth":"7.000","Units":"in","Rept_Date":"2020-02-05 13"},"coordinates":[2038,5302]},{"type":"Point","properties":{"Station_ID":"WHTM5","Station_Nam":"WHEATON,MN","Latitude":"45.80000","Longitude":"-96.48330","Snowdepth":"7.000","Units":"in","Rept_Date":"2020-02-05 14"},"coordinates":[177,6352]},{"type":"Point","properties":{"Station_ID":"VT-WS-33","Station_Nam":"WAITSFIELD 3.5 WNW, VT","Latitude":"44.20052","Longitude":"-72.89421","Snowdepth":"7.000","Units":"in","Rept_Date":"2020-02-05 13"},"coordinates":[5713,5368]},{"type":"Point","properties":{"Station_ID":"VT-ES-3","Station_Nam":"LUNENBURG 2.3 NNW, VT","Latitude":"44.49324","Longitude":"-71.70446","Snowdepth":"7.000","Units":"in","Rept_Date":"2020-02-05 12"},"coordinates":[5993,5548]},{"type":"Point","properties":{"Station_ID":"VT-CL-23","Station_Nam":"RYEGATE 1.5 N, VT","Latitude":"44.23024","Longitude":"-72.10523","Snowdepth":"7.000","Units":"in","Rept_Date":"2020-02-05 12"},"coordinates":[5899,5386]},{"type":"Point","properties":{"Station_ID":"VT-CH-11","Station_Nam":"UNDERHILL 5.1 NNE, VT","Latitude":"44.59811","Longitude":"-72.91880","Snowdepth":"7.000","Units":"in","Rept_Date":"2020-02-05 13"},"coordinates":[5708,5612]},{"type":"Point","properties":{"Station_ID":"VT-BN-3","Station_Nam":"LANDGROVE 1.1 NNE, VT","Latitude":"43.29092","Longitude":"-72.83260","Snowdepth":"7.000","Units":"in","Rept_Date":"2020-02-05 12"},"coordinates":[5728,4808]},{"type":"Point","properties":{"Station_ID":"UVDV1","Station_Nam":"NERON SITE AT UNION VILLAGE DAM","Latitude":"43.79140","Longitude":"-72.25720","Snowdepth":"7.000","Units":"in","Rept_Date":"2020-02-05 13"},"coordinates":[5863,5116]},{"type":"Point","properties":{"Station_ID":"TOPN6","Station_Nam":"TUPPER LAKE SUNMOUNT","Latitude":"44.23070","Longitude":"-74.43820","Snowdepth":"7.000","Units":"in","Rept_Date":"2020-02-05 12"},"coordinates":[5351,5386]},{"type":"Point","properties":{"Station_ID":"TMWN3","Station_Nam":"TAMWORTH 4","Latitude":"43.86390","Longitude":"-71.26610","Snowdepth":"7.000","Units":"in","Rept_Date":"2020-02-05 12"},"coordinates":[6096,5161]},{"type":"Point","properties":{"Station_ID":"THLM5","Station_Nam":"THEILMAN 1SSW","Latitude":"44.28130","Longitude":"-92.19430","Snowdepth":"7.000","Units":"in","Rept_Date":"2020-02-05 13"},"coordinates":[1184,5417]},{"type":"Point","properties":{"Station_ID":"TCEM4","Station_Nam":"TRAVERSE CITY 5ESE","Latitude":"44.73370","Longitude":"-85.51180","Snowdepth":"7.000","Units":"in","Rept_Date":"2020-02-05 12"},"coordinates":[2752,5696]},{"type":"Point","properties":{"Station_ID":"SHHW3","Station_Nam":"SHAWANO 2SSW","Latitude":"44.76310","Longitude":"-88.61830","Snowdepth":"7.000","Units":"in","Rept_Date":"2020-02-05 14"},"coordinates":[2023,5714]},{"type":"Point","properties":{"Station_ID":"SD-MH-8","Station_Nam":"HARTFORD 6.4 S, SD","Latitude":"43.53128","Longitude":"-96.95020","Snowdepth":"7.000","Units":"in","Rept_Date":"2020-02-05 14"},"coordinates":[68,4956]},{"type":"Point","properties":{"Station_ID":"PULW3","Station_Nam":"PULASKI WWTP","Latitude":"44.67830","Longitude":"-88.22750","Snowdepth":"7.000","Units":"in","Rept_Date":"2020-02-05 12"},"coordinates":[2115,5662]},{"type":"Point","properties":{"Station_ID":"OOHW3","Station_Nam":"OSHKOSH 5 N","Latitude":"44.09360","Longitude":"-88.55310","Snowdepth":"7.000","Units":"in","Rept_Date":"2020-02-05 13"},"coordinates":[2038,5302]},{"type":"Point","properties":{"Station_ID":"OCNW3","Station_Nam":"OCONTO 4 W","Latitude":"44.89190","Longitude":"-87.95500","Snowdepth":"7.000","Units":"in","Rept_Date":"2020-02-05 13"},"coordinates":[2179,5793]},{"type":"Point","properties":{"Station_ID":"NORV1","Station_Nam":"NORTHFIELD","Latitude":"44.16470","Longitude":"-72.65670","Snowdepth":"7.000","Units":"in","Rept_Date":"2020-02-05 20"},"coordinates":[5769,5346]},{"type":"Point","properties":{"Station_ID":"NHNW3","Station_Nam":"NEW HOLSTEIN-EAST-WWTP","Latitude":"43.95310","Longitude":"-88.07720","Snowdepth":"7.000","Units":"in","Rept_Date":"2020-02-05 14"},"coordinates":[2150,5215]},{"type":"Point","properties":{"Station_ID":"NH-CR-27","Station_Nam":"TAMWORTH 0.4 NNW, NH","Latitude":"43.86449","Longitude":"-71.26610","Snowdepth":"7.000","Units":"in","Rept_Date":"2020-02-05 12"},"coordinates":[6096,5161]},{"type":"Point","properties":{"Station_ID":"NCKN6","Station_Nam":"NORTH CREEK 5 SE","Latitude":"43.66110","Longitude":"-73.89690","Snowdepth":"7.000","Units":"in","Rept_Date":"2020-02-05 12"},"coordinates":[5478,5036]},{"type":"Point","properties":{"Station_ID":"MN-SE-2","Station_Nam":"OWATONNA 0.8 E, MN","Latitude":"44.09170","Longitude":"-93.21380","Snowdepth":"7.000","Units":"in","Rept_Date":"2020-02-05 12"},"coordinates":[945,5301]},{"type":"Point","properties":{"Station_ID":"MN-HN-78","Station_Nam":"RICHFIELD 1.9 WNW, MN","Latitude":"44.89129","Longitude":"-93.31410","Snowdepth":"7.000","Units":"in","Rept_Date":"2020-02-05 11"},"coordinates":[921,5793]},{"type":"Point","properties":{"Station_ID":"MN-GH-28","Station_Nam":"CANNON FALLS 0.5 SE, MN","Latitude":"44.50866","Longitude":"-92.89526","Snowdepth":"7.000","Units":"in","Rept_Date":"2020-02-05 14"},"coordinates":[1019,5557]},{"type":"Point","properties":{"Station_ID":"MN-FM-10","Station_Nam":"WYKOFF 3.1 NW, MN","Latitude":"43.74340","Longitude":"-92.30650","Snowdepth":"7.000","Units":"in","Rept_Date":"2020-02-05 13"},"coordinates":[1158,5086]},{"type":"Point","properties":{"Station_ID":"MN-DK-70","Station_Nam":"EAGAN 2.0 NNW, MN","Latitude":"44.84322","Longitude":"-93.17899","Snowdepth":"7.000","Units":"in","Rept_Date":"2020-02-05 15"},"coordinates":[953,5763]},{"type":"Point","properties":{"Station_ID":"MLBS2","Station_Nam":"MILBANK","Latitude":"45.22040","Longitude":"-96.62530","Snowdepth":"7.000","Units":"in","Rept_Date":"2020-02-05 13"},"coordinates":[144,5995]},{"type":"Point","properties":{"Station_ID":"MI-GT-25","Station_Nam":"TRAVERSE CITY 4.7 ESE, MI","Latitude":"44.73370","Longitude":"-85.51189","Snowdepth":"7.000","Units":"in","Rept_Date":"2020-02-05 12"},"coordinates":[2752,5696]},{"type":"Point","properties":{"Station_ID":"MI-GT-21","Station_Nam":"KINGSLEY 2.7 ENE, MI","Latitude":"44.59871","Longitude":"-85.48426","Snowdepth":"7.000","Units":"in","Rept_Date":"2020-02-05 13"},"coordinates":[2759,5613]},{"type":"Point","properties":{"Station_ID":"MI-EM-5","Station_Nam":"HARBOR SPRINGS 0.7 ENE, MI","Latitude":"45.43450","Longitude":"-84.97540","Snowdepth":"7.000","Units":"in","Rept_Date":"2020-02-05 12"},"coordinates":[2878,6127]},{"type":"Point","properties":{"Station_ID":"MALN6","Station_Nam":"MALONE","Latitude":"44.84180","Longitude":"-74.30600","Snowdepth":"7.000","Units":"in","Rept_Date":"2020-02-05 12"},"coordinates":[5382,5762]},