{"type":"Topology","objects":{"snowdepth_geo":{"type":"GeometryCollection","name":"snowdepth","crs":{"type":"name","properties":{"name":"urn:ogc:def:crs:OGC:1.3:CRS84"}},"geometries":[{"type":"Point","properties":{"Station_ID":"MMSV1","Station_Nam":"MOUNT MANSFIELD","Latitude":"44.53330","Longitude":"-72.83330","Snowdepth":"80.000","Units":"in","Rept_Date":"2019-11-22 05"},"coordinates":[7690,2422]},{"type":"Point","properties":{"Station_ID":"PRKM4","Station_Nam":"MUNISING EAST","Latitude":"46.42580","Longitude":"-86.62000","Snowdepth":"76.500","Units":"in","Rept_Date":"2019-11-22 06"},"coordinates":[3346,4415]},{"type":"Point","properties":{"Station_ID":"OGIQ6","Station_Nam":"OGOKI CAMP","Latitude":"50.76680","Longitude":"-87.85820","Snowdepth":"61.100","Units":"in","Rept_Date":"2019-11-22 06"},"coordinates":[2956,8988]},{"type":"Point","properties":{"Station_ID":"AUDQ6","Station_Nam":"AUDEN","Latitude":"48.52600","Longitude":"-82.57570","Snowdepth":"47.640","Units":"in","Rept_Date":"2019-11-22 06"},"coordinates":[4620,6627]},{"type":"Point","properties":{"Station_ID":"DVLQ6","Station_Nam":"DEVIOUS LAKE","Latitude":"49.19890","Longitude":"-87.76440","Snowdepth":"43.460","Units":"in","Rept_Date":"2019-11-22 06"},"coordinates":[2985,7336]},{"type":"Point","properties":{"Station_ID":"ME-AR-18","Station_Nam":"NEW SWEDEN 4.9 NNW, ME","Latitude":"47.01080","Longitude":"-68.14390","Snowdepth":"12.500","Units":"in","Rept_Date":"2019-11-21 12"},"coordinates":[9168,5031]},{"type":"Point","properties":{"Station_ID":"VANM1","Station_Nam":"VAN BUREN","Latitude":"47.16600","Longitude":"-67.93900","Snowdepth":"12.000","Units":"in","Rept_Date":"2019-11-21 12"},"coordinates":[9233,5195]},{"type":"Point","properties":{"Station_ID":"IBLM5","Station_Nam":"ISABELLA 14W","Latitude":"47.59360","Longitude":"-91.65140","Snowdepth":"12.000","Units":"in","Rept_Date":"2019-11-21 15"},"coordinates":[1761,5645]},{"type":"Point","properties":{"Station_ID":"CARM1","Station_Nam":"CARIBOU WFO","Latitude":"46.86810","Longitude":"-68.01250","Snowdepth":"12.000","Units":"in","Rept_Date":"2019-11-22 04"},"coordinates":[9209,4881]},{"type":"Point","properties":{"Station_ID":"CAR","Station_Nam":"CARIBOU, ME","Latitude":"46.86830","Longitude":"-68.01360","Snowdepth":"12.000","Units":"in","Rept_Date":"2019-11-21 12"},"coordinates":[9209,4881]},{"type":"Point","properties":{"Station_ID":"PTLQ6","Station_Nam":"PORTAGE LAKE","Latitude":"49.06950","Longitude":"-86.65940","Snowdepth":"11.340","Units":"in","Rept_Date":"2019-11-22 06"},"coordinates":[3334,7200]},{"type":"Point","properties":{"Station_ID":"LILM1","Station_Nam":"LILLE","Latitude":"47.27770","Longitude":"-68.10520","Snowdepth":"10.000","Units":"in","Rept_Date":"2019-11-21 12"},"coordinates":[9180,5312]},{"type":"Point","properties":{"Station_ID":"ELYM5","Station_Nam":"ELY","Latitude":"47.90560","Longitude":"-91.82830","Snowdepth":"10.000","Units":"in","Rept_Date":"2019-11-21 14"},"coordinates":[1705,5974]},{"type":"Point","properties":{"Station_ID":"BNDM5","Station_Nam":"ELY 25E","Latitude":"47.97190","Longitude":"-91.44860","Snowdepth":"10.000","Units":"in","Rept_Date":"2019-11-21 14"},"coordinates":[1824,6044]},{"type":"Point","properties":{"Station_ID":"TOGM5","Station_Nam":"CELINA 2E","Latitude":"47.86630","Longitude":"-93.02660","Snowdepth":"9.000","Units":"in","Rept_Date":"2019-11-21 17"},"coordinates":[1327,5932]},{"type":"Point","properties":{"Station_ID":"MN-SL-80","Station_Nam":"WINTON 0.1 WSW, MN","Latitude":"47.92756","Longitude":"-91.80280","Snowdepth":"9.000","Units":"in","Rept_Date":"2019-11-21 14"},"coordinates":[1713,5997]},{"type":"Point","properties":{"Station_ID":"LEIM5","Station_Nam":"ORR 3E","Latitude":"48.05810","Longitude":"-92.75220","Snowdepth":"9.000","Units":"in","Rept_Date":"2019-11-21 12"},"coordinates":[1414,6134]},{"type":"Point","properties":{"Station_ID":"GMSM4","Station_Nam":"GRAND MARAIS 10S","Latitude":"46.50940","Longitude":"-85.96310","Snowdepth":"9.000","Units":"in","Rept_Date":"2019-11-21 11"},"coordinates":[3553,4503]},{"type":"Point","properties":{"Station_ID":"AVLV1","Station_Nam":"AVERILL","Latitude":"45.00570","Longitude":"-71.69030","Snowdepth":"9.000","Units":"in","Rept_Date":"2019-11-21 13"},"coordinates":[8051,2919]},{"type":"Point","properties":{"Station_ID":"CAN-NB-13","Station_Nam":"BATHURST 3.8 NW, CAN","Latitude":"47.64212","Longitude":"-65.68756","Snowdepth":"8.500","Units":"in","Rept_Date":"2019-11-21 11"},"coordinates":[9942,5696]},{"type":"Point","properties":{"Station_ID":"WHFN6","Station_Nam":"WILMINGTON 2W","Latitude":"44.39310","Longitude":"-73.85890","Snowdepth":"8.000","Units":"in","Rept_Date":"2019-11-21 13"},"coordinates":[7367,2274]},{"type":"Point","properties":{"Station_ID":"PRDM4","Station_Nam":"PARADISE","Latitude":"46.60380","Longitude":"-85.03960","Snowdepth":"8.000","Units":"in","Rept_Date":"2019-11-21 12"},"coordinates":[3844,4603]},{"type":"Point","properties":{"Station_ID":"MWN","Station_Nam":"MOUNT WASHINGTON","Latitude":"44.26670","Longitude":"-71.30000","Snowdepth":"8.000","Units":"in","Rept_Date":"2019-11-21 12"},"coordinates":[8174,2141]},{"type":"Point","properties":{"Station_ID":"MMNV1","Station_Nam":"MT. MANSFIELD","Latitude":"44.52480","Longitude":"-72.81540","Snowdepth":"8.000","Units":"in","Rept_Date":"2019-11-21 21"},"coordinates":[7696,2413]},{"type":"Point","properties":{"Station_ID":"ME-AR-15","Station_Nam":"PRESQUE ISLE 1.3 WSW, ME","Latitude":"46.67960","Longitude":"-68.01270","Snowdepth":"8.000","Units":"in","Rept_Date":"2019-11-21 12"},"coordinates":[9209,4682]},{"type":"Point","properties":{"Station_ID":"HTLN3","Station_Nam":"HERMIT LAKE SNOWPLOT","Latitude":"44.26130","Longitude":"-71.28330","Snowdepth":"8.000","Units":"in","Rept_Date":"2019-11-21 11"},"coordinates":[8179,2135]},{"type":"Point","properties":{"Station_ID":"GNFM5","Station_Nam":"GUNFLINT LAKE","Latitude":"48.16670","Longitude":"-90.88750","Snowdepth":"8.000","Units":"in","Rept_Date":"2019-11-21 13"},"coordinates":[2001,6249]},{"type":"Point","properties":{"Station_ID":"CAN-NB-11","Station_Nam":"MIRAMICHI 3.3 S, CAN","Latitude":"46.99343","Longitude":"-65.50690","Snowdepth":"8.000","Units":"in","Rept_Date":"2019-11-21 10"},"coordinates":[9999,5013]},{"type":"Point","properties":{"Station_ID":"VT-OL-12","Station_Nam":"GREENSBORO 3.9 NNE, VT","Latitude":"44.63100","Longitude":"-72.28000","Snowdepth":"7.000","Units":"in","Rept_Date":"2019-11-21 11"},"coordinates":[7865,2525]},{"type":"Point","properties":{"Station_ID":"LPLN6","Station_Nam":"LAKE PLACID 2 S","Latitude":"44.30420","Longitude":"-73.98390","Snowdepth":"7.000","Units":"in","Rept_Date":"2019-11-21 13"},"coordinates":[7328,2180]},{"type":"Point","properties":{"Station_ID":"KMWN","Station_Nam":"MOUNT WASHINGTON","Latitude":"44.26666","Longitude":"-71.30000","Snowdepth":"7.000","Units":"in","Rept_Date":"2019-11-22 06"},"coordinates":[8174,2141]},{"type":"Point","properties":{"Station_ID":"JEFV1","Station_Nam":"JEFFERSONVILLE","Latitude":"44.58430","Longitude":"-72.78700","Snowdepth":"7.000","Units":"in","Rept_Date":"2019-11-21 12"},"coordinates":[7705,2475]},{"type":"Point","properties":{"Station_ID":"COKM5","Station_Nam":"COOK","Latitude":"47.85060","Longitude":"-92.69250","Snowdepth":"7.000","Units":"in","Rept_Date":"2019-11-21 12"},"coordinates":[1433,5916]},{"type":"Point","properties":{"Station_ID":"BABM5","Station_Nam":"BABBITT","Latitude":"47.71210","Longitude":"-91.95330","Snowdepth":"7.000","Units":"in","Rept_Date":"2019-11-21 13"},"coordinates":[1665,5770]},{"type":"Point","properties":{"Station_ID":"SVBQ6","Station_Nam":"SAVANT BASE","Latitude":"50.28730","Longitude":"-90.65670","Snowdepth":"6.500","Units":"in","Rept_Date":"2019-11-22 06"},"coordinates":[2074,8483]},{"type":"Point","properties":{"Station_ID":"NY-FK-9","Station_Nam":"GABRIELS 1.3 SE, NY","Latitude":"44.41934","Longitude":"-74.16194","Snowdepth":"6.500","Units":"in","Rept_Date":"2019-11-21 12"},"coordinates":[7272,2302]},{"type":"Point","properties":{"Station_ID":"NY-ES-7","Station_Nam":"KEESEVILLE 0.8 SE, NY","Latitude":"44.49504","Longitude":"-73.47109","Snowdepth":"6.500","Units":"in","Rept_Date":"2019-11-21 13"},"coordinates":[7489,2381]},{"type":"Point","properties":{"Station_ID":"CAN-ON-70","Station_Nam":"THUNDER BAY 3.2 WNW - LRCA, CAN","Latitude":"48.42122","Longitude":"-89.27866","Snowdepth":"6.300","Units":"in","Rept_Date":"2019-11-21 13"},"coordinates":[2508,6517]},{"type":"Point","properties":{"Station_ID":"CAN-ON-691","Station_Nam":"THUNDER BAY 3.6 N, CAN","Latitude":"48.43994","Longitude":"-89.23233","Snowdepth":"6.300","Units":"in","Rept_Date":"2019-11-21 12"},"coordinates":[2523,6537]},{"type":"Point","properties":{"Station_ID":"CAN-ON-621","Station_Nam":"THUNDER BAY 4.2 WSW - MNRF, CAN","Latitude":"48.39163","Longitude":"-89.29107","Snowdepth":"6.100","Units":"in","Rept_Date":"2019-11-21 12"},"coordinates":[2504,6486]},{"type":"Point","properties":{"Station_ID":"VT-OL-2","Station_Nam":"BARTON 3.0 ENE, VT","Latitude":"44.75863","Longitude":"-72.11680","Snowdepth":"6.000","Units":"in","Rept_Date":"2019-11-21 12"},"coordinates":[7916,2659]},{"type":"Point","properties":{"Station_ID":"SLNV1","Station_Nam":"SOUTH LINCOLN","Latitude":"44.07460","Longitude":"-72.97180","Snowdepth":"6.000","Units":"in","Rept_Date":"2019-11-21 12"},"coordinates":[7647,1938]},{"type":"Point","properties":{"Station_ID":"RLWM5","Station_Nam":"CAMP NORRIS DNR","Latitude":"48.61000","Longitude":"-95.18170","Snowdepth":"6.000","Units":"in","Rept_Date":"2019-11-21 14"},"coordinates":[648,6716]},{"type":"Point","properties":{"Station_ID":"NY-JF-30","Station_Nam":"WEST CARTHAGE 0.3 ENE, NY","Latitude":"43.97493","Longitude":"-75.61640","Snowdepth":"6.000","Units":"in","Rept_Date":"2019-11-21 12"},"coordinates":[6813,1833]},{"type":"Point","properties":{"Station_ID":"IWOM4","Station_Nam":"IRONWOOD#2","Latitude":"46.46520","Longitude":"-90.13820","Snowdepth":"6.000","Units":"in","Rept_Date":"2019-11-21 13"},"coordinates":[2237,4457]},{"type":"Point","properties":{"Station_ID":"CAN-NB-2","Station_Nam":"GRAFTON 2.7 NNE, CA","Latitude":"46.17062","Longitude":"-67.55330","Snowdepth":"6.000","Units":"in","Rept_Date":"2019-11-21 10"},"coordinates":[9354,4146]},{"type":"Point","properties":{"Station_ID":"TRIQ6","Station_Nam":"TRIO LAKE","Latitude":"49.22880","Longitude":"-87.22920","Snowdepth":"5.910","Units":"in","Rept_Date":"2019-11-22 06"},"coordinates":[3154,7368]},{"type":"Point","properties":{"Station_ID":"CAN-ON-97","Station_Nam":"THUNDER BAY 3.7 SSW - LRCA, CAN","Latitude":"48.37666","Longitude":"-89.25695","Snowdepth":"5.900","Units":"in","Rept_Date":"2019-11-21 12"},"coordinates":[2515,6470]},{"type":"Point","properties":{"Station_ID":"CAN-QC-51","Station_Nam":"BELOEIL 0.7 NW, CAN","Latitude":"45.58049","Longitude":"-73.21218","Snowdepth":"5.800","Units":"in","Rept_Date":"2019-11-21 12"},"coordinates":[7571,3525]},{"type":"Point","properties":{"Station_ID":"SOCQ6","Station_Nam":"SOCKET LAKE","Latitude":"50.77870","Longitude":"-91.79300","Snowdepth":"5.750","Units":"in","Rept_Date":"2019-11-22 06"},"coordinates":[1716,9000]},{"type":"Point","properties":{"Station_ID":"CAN-QC-47","Station_Nam":"SAINTE-FOY 1.8 ENE, CAN","Latitude":"46.76934","Longitude":"-71.27124","Snowdepth":"5.500","Units":"in","Rept_Date":"2019-11-21 12"},"coordinates":[8183,4777]},{"type":"Point","properties":{"Station_ID":"CAN-QC-16","Station_Nam":"SAINT-ARMAND 3.6 W, CAN","Latitude":"45.02631","Longitude":"-73.08795","Snowdepth":"5.300","Units":"in","Rept_Date":"2019-11-21 12"},"coordinates":[7610,2941]},{"type":"Point","properties":{"Station_ID":"WLFM5","Station_Nam":"WOLF RIDGE ENVIRON LEARNING CENTER","Latitude":"47.38240","Longitude":"-91.19730","Snowdepth":"5.000","Units":"in","Rept_Date":"2019-11-21 13"},"coordinates":[1904,5423]},{"type":"Point","properties":{"Station_ID":"VT-WS-30","Station_Nam":"WOODBURY 3.4 NNW, VT","Latitude":"44.48825","Longitude":"-72.43258","Snowdepth":"5.000","Units":"in","Rept_Date":"2019-11-21 12"},"coordinates":[7817,2374]},{"type":"Point","properties":{"Station_ID":"VT-OL-9","Station_Nam":"GREENSBORO 2.1 NNW, VT","Latitude":"44.60528","Longitude":"-72.30940","Snowdepth":"5.000","Units":"in","Rept_Date":"2019-11-21 12"},"coordinates":[7855,2497]},{"type":"Point","properties":{"Station_ID":"VT-CH-4","Station_Nam":"UNDERHILL 4.4 NNE, VT","Latitude":"44.58774","Longitude":"-72.92250","Snowdepth":"5.000","Units":"in","Rept_Date":"2019-11-21 12"},"coordinates":[7662,2479]},{"type":"Point","properties":{"Station_ID":"VT-CH-11","Station_Nam":"UNDERHILL 5.1 NNE, VT","Latitude":"44.59811","Longitude":"-72.91880","Snowdepth":"5.000","Units":"in","Rept_Date":"2019-11-21 12"},"coordinates":[7663,2490]},{"type":"Point","properties":{"Station_ID":"PTBN3","Station_Nam":"DAM WITHIN","Latitude":"45.05000","Longitude":"-71.38330","Snowdepth":"5.000","Units":"in","Rept_Date":"2019-11-21 12"},"coordinates":[8147,2966]},{"type":"Point","properties":{"Station_ID":"PBAN8","Station_Nam":"SITE 1-3MI.N","Latitude":"48.97420","Longitude":"-97.23860","Snowdepth":"5.000","Units":"in","Rept_Date":"2019-11-21 13"},"coordinates":[0,7099]},{"type":"Point","properties":{"Station_ID":"NY-SL-6","Station_Nam":"HANNAWA FALLS 0.1 SW, NY","Latitude":"44.61154","Longitude":"-74.97190","Snowdepth":"5.000","Units":"in","Rept_Date":"2019-11-21 12"},"coordinates":[7016,2504]},{"type":"Point","properties":{"Station_ID":"NUNV1","Station_Nam":"NORTH UNDERHILL","Latitude":"44.58760","Longitude":"-72.92150","Snowdepth":"5.000","Units":"in","Rept_Date":"2019-11-21 12"},"coordinates":[7663,2479]},{"type":"Point","properties":{"Station_ID":"NPTV1","Station_Nam":"NEWPORT","Latitude":"44.94900","Longitude":"-72.19120","Snowdepth":"5.000","Units":"in","Rept_Date":"2019-11-21 12"},"coordinates":[7893,2860]},{"type":"Point","properties":{"Station_ID":"NCBN6","Station_Nam":"NEWCOMB","Latitude":"43.97070","Longitude":"-74.22200","Snowdepth":"5.000","Units":"in","Rept_Date":"2019-11-21 13"},"coordinates":[7253,1829]},{"type":"Point","properties":{"Station_ID":"KABM5","Station_Nam":"KABETOGAMA LAKE VISITOR CTR","Latitude":"48.40880","Longitude":"-93.04840","Snowdepth":"5.000","Units":"in","Rept_Date":"2019-11-21 13"},"coordinates":[1320,6504]},{"type":"Point","properties":{"Station_ID":"JOHV1","Station_Nam":"JOHNSON 2 N","Latitude":"44.65790","Longitude":"-72.67850","Snowdepth":"5.000","Units":"in","Rept_Date":"2019-11-21 12"},"coordinates":[7739,2553]},{"type":"Point","properties":{"Station_ID":"IRMM4","Station_Nam":"WWTP","Latitude":"46.46670","Longitude":"-90.18330","Snowdepth":"5.000","Units":"in","Rept_Date":"2019-11-21 13"},"coordinates":[2223,4458]},{"type":"Point","properties":{"Station_ID":"BRDM1","Station_Nam":"BRIDGEWATER","Latitude":"46.42870","Longitude":"-67.84370","Snowdepth":"5.000","Units":"in","Rept_Date":"2019-11-21 23"},"coordinates":[9263,4418]},{"type":"Point","properties":{"Station_ID":"FTHQ6","Station_Nam":"FORT HOPE","Latitude":"51.55820","Longitude":"-87.90510","Snowdepth":"4.650","Units":"in","Rept_Date":"2019-11-22 06"},"coordinates":[2941,9821]},{"type":"Point","properties":{"Station_ID":"VT-OL-1","Station_Nam":"WESTFIELD 0.7 WNW, VT","Latitude":"44.89160","Longitude":"-72.44350","Snowdepth":"4.500","Units":"in","Rept_Date":"2019-11-21 12"},"coordinates":[7813,2799]},{"type":"Point","properties":{"Station_ID":"MN-CK-6","Station_Nam":"GRAND MARAIS 4.4 W, MN","Latitude":"47.74865","Longitude":"-90.43760","Snowdepth":"4.400","Units":"in","Rept_Date":"2019-11-21 13"},"coordinates":[2143,5809]},{"type":"Point","properties":{"Station_ID":"CATQ6","Station_Nam":"CAT LAKE","Latitude":"51.72690","Longitude":"-91.82210","Snowdepth":"4.290","Units":"in","Rept_Date":"2019-11-22 06"},"coordinates":[1707,9999]},{"type":"Point","properties":{"Station_ID":"KABQ6","Station_Nam":"CAB LAKE","Latitude":"49.59950","Longitude":"-89.17990","Snowdepth":"4.170","Units":"in","Rept_Date":"2019-11-22 06"},"coordinates":[2539,7758]},{"type":"Point","properties":{"Station_ID":"WRUM5","Station_Nam":"WARROAD 4W","Latitude":"48.89600","Longitude":"-95.40700","Snowdepth":"4.000","Units":"in","Rept_Date":"2019-11-22 04"},"coordinates":[577,7017]},{"type":"Point","properties":{"Station_ID":"WI-IR-3","Station_Nam":"PENCE 0.1 E, WI","Latitude":"46.41555","Longitude":"-90.27013","Snowdepth":"4.000","Units":"in","Rept_Date":"2019-11-21 13"},"coordinates":[2196,4404]},{"type":"Point","properties":{"Station_ID":"VT-WR-17","Station_Nam":"ROCHESTER 2.3 NE, VT","Latitude":"43.89418","Longitude":"-72.76992","Snowdepth":"4.000","Units":"in","Rept_Date":"2019-11-21 12"},"coordinates":[7710,1748]},{"type":"Point","properties":{"Station_ID":"VT-OL-5","Station_Nam":"DERBY CENTER 1.8 NW, VT","Latitude":"44.97200","Longitude":"-72.14780","Snowdepth":"4.000","Units":"in","Rept_Date":"2019-11-21 12"},"coordinates":[7906,2884]},{"type":"Point","properties":{"Station_ID":"VT-CH-38","Station_Nam":"WILLISTON 0.2 WSW, VT","Latitude":"44.43669","Longitude":"-73.07154","Snowdepth":"4.000","Units":"in","Rept_Date":"2019-11-21 12"},"coordinates":[7615,2320]},{"type":"Point","properties":{"Station_ID":"VRGV1","Station_Nam":"VERGENNES","Latitude":"44.17190","Longitude":"-73.24720","Snowdepth":"4.000","Units":"in","Rept_Date":"2019-11-21 11"},"coordinates":[7560,2041]},{"type":"Point","properties":{"Station_ID":"SUAW3","Station_Nam":"SUAMICO","Latitude":"44.60190","Longitude":"-88.09780","Snowdepth":"4.000","Units":"in","Rept_Date":"2019-11-21 12"},"coordinates":[2880,2494]},{"type":"Point","properties":{"Station_ID":"PDLM4","Station_Nam":"PAINESDALE","Latitude":"47.04160","Longitude":"-88.67170","Snowdepth":"4.000","Units":"in","Rept_Date":"2019-11-21 13"},"coordinates":[2700,5064]},{"type":"Point","properties":{"Station_ID":"ORAN3","Station_Nam":"ORANGE","Latitude":"43.66880","Longitude":"-71.94830","Snowdepth":"4.000","Units":"in","Rept_Date":"2019-11-21 12"},"coordinates":[7969,1511]},{"type":"Point","properties":{"Station_ID":"NH-GR-47","Station_Nam":"LITTLETON 7.3 W, NH","Latitude":"44.31847","Longitude":"-71.91086","Snowdepth":"4.000","Units":"in","Rept_Date":"2019-11-21 13"},"coordinates":[7981,2195]},{"type":"Point","properties":{"Station_ID":"NCKN6","Station_Nam":"NORTH CREEK 5 SE","Latitude":"43.66110","Longitude":"-73.89690","Snowdepth":"4.000","Units":"in","Rept_Date":"2019-11-21 12"},"coordinates":[7355,1503]},{"type":"Point","properties":{"Station_ID":"MN-SL-15","Station_Nam":"CHISHOLM 0.4 WSW, MN","Latitude":"47.48557","Longitude":"-92.88690","Snowdepth":"4.000","Units":"in","Rept_Date":"2019-11-21 13"},"coordinates":[1371,5531]},{"type":"Point","properties":{"Station_ID":"MI-BG-3","Station_Nam":"L'ANSE 17.8 SE, MI","Latitude":"46.55730","Longitude":"-88.20770","Snowdepth":"4.000","Units":"in","Rept_Date":"2019-11-21 13"},"coordinates":[2846,4554]},{"type":"Point","properties":{"Station_ID":"MALN6","Station_Nam":"MALONE","Latitude":"44.84180","Longitude":"-74.30600","Snowdepth":"4.000","Units":"in","Rept_Date":"2019-11-21 12"},"coordinates":[7226,2747]},{"type":"Point","properties":{"Station_ID":"LBRM5","Station_Nam":"LAKE BRONSON DAM","Latitude":"48.72410","Longitude":"-96.62180","Snowdepth":"4.000","Units":"in","Rept_Date":"2019-11-21 14"},"coordinates":[194,6836]},{"type":"Point","properties":{"Station_ID":"INL","Station_Nam":"FALLS INTERNATIONAL ARPT","Latitude":"48.56640","Longitude":"-93.40310","Snowdepth":"4.000","Units":"in","Rept_Date":"2019-11-22 00"},"coordinates":[1209,6670]},{"type":"Point","properties":{"Station_ID":"INDM5","Station_Nam":"INDUS,MN","Latitude":"48.61670","Longitude":"-93.90000","Snowdepth":"4.000","Units":"in","Rept_Date":"2019-11-21 14"},"coordinates":[1052,6723]},{"type":"Point","properties":{"Station_ID":"IFSM5","Station_Nam":"INTERNATIONAL FALLS SNOW","Latitude":"48.57780","Longitude":"-93.39640","Snowdepth":"4.000","Units":"in","Rept_Date":"2019-11-22 00"},"coordinates":[1211,6682]},{"type":"Point","properties":{"Station_ID":"HURW3","Station_Nam":"HURLEY","Latitude":"46.46250","Longitude":"-90.19550","Snowdepth":"4.000","Units":"in","Rept_Date":"2019-11-21 14"},"coordinates":[2219,4454]},{"type":"Point","properties":{"Station_ID":"GFDN6","Station_Nam":"CHASE LAKE","Latitude":"43.75920","Longitude":"-75.29980","Snowdepth":"4.000","Units":"in","Rept_Date":"2019-11-21 11"},"coordinates":[6913,1606]},{"type":"Point","properties":{"Station_ID":"GDPM5","Station_Nam":"PIGEON RIVER AT MIDDLE FALLS","Latitude":"48.01220","Longitude":"-89.61610","Snowdepth":"4.000","Units":"in","Rept_Date":"2019-11-21 13"},"coordinates":[2402,6086]},{"type":"Point","properties":{"Station_ID":"EMBM5","Station_Nam":"EMBARASS,MN","Latitude":"47.65810","Longitude":"-92.19580","Snowdepth":"4.000","Units":"in","Rept_Date":"2019-11-21 12"},"coordinates":[1589,5713]},{"type":"Point","properties":{"Station_ID":"CSLM5","Station_Nam":"CASS LAKE,MN","Latitude":"47.38470","Longitude":"-94.61470","Snowdepth":"4.000","Units":"in","Rept_Date":"2019-11-21 14"},"coordinates":[827,5425]},{"type":"Point","properties":{"Station_ID":"BTV","Station_Nam":"BURLINGTON, VT","Latitude":"44.47140","Longitude":"-73.15330","Snowdepth":"4.000","Units":"in","Rept_Date":"2019-11-22 01"},"coordinates":[7590,2356]},{"type":"Point","properties":{"Station_ID":"VT-WS-19","Station_Nam":"WATERBURY 3.0 NW, VT","Latitude":"44.36060","Longitude":"-72.80770","Snowdepth":"3.500","Units":"in","Rept_Date":"2019-11-21 11"},"coordinates":[7698,2240]},{"type":"Point","properties":{"Station_ID":"VT-LM-7","Station_Nam":"HYDE PARK 2.9 NE, VT","Latitude":"44.62080","Longitude":"-72.57250","Snowdepth":"3.500","Units":"in","Rept_Date":"2019-11-21 13"},"coordinates":[7773,2514]},{"type":"Point","properties":{"Station_ID":"VT-AD-24","Station_Nam":"MIDDLEBURY 0.3 N, VT","Latitude":"44.01808","Longitude":"-73.16844","Snowdepth":"3.500","Units":"in","Rept_Date":"2019-11-21 09"},"coordinates":[7585,1879]},{"type":"Point","properties":{"Station_ID":"NY-WS-8","Station_Nam":"GRANVILLE 9.5 SW, NY","Latitude":"43.31163","Longitude":"-73.39613","Snowdepth":"3.500","Units":"in","Rept_Date":"2019-11-21 12"},"coordinates":[7513,1135]},{"type":"Point","properties":{"Station_ID":"NY-SR-22","Station_Nam":"GREENFIELD CENTER 1.6 W, NY","Latitude":"43.12684","Longitude":"-73.87860","Snowdepth":"3.500","Units":"in","Rept_Date":"2019-11-21 14"},"coordinates":[7361,940]},{"type":"Point","properties":{"Station_ID":"CAN-MB-63","Station_Nam":"STEINBACH 0.8 SSE, CA","Latitude":"49.51964","Longitude":"-96.67940","Snowdepth":"3.500","Units":"in","Rept_Date":"2019-11-21 13"},"coordinates":[176,7674]},{"type":"Point","properties":{"Station_ID":"WRPW3","Station_Nam":"WATER PURIFICATION PLANT","Latitude":"44.38800","Longitude":"-89.80550","Snowdepth":"3.000","Units":"in","Rept_Date":"2019-11-21 12"},"coordinates":[2342,2269]},{"type":"Point","properties":{"Station_ID":"WAAM5","Station_Nam":"WARREN WSD","Latitude":"48.19530","Longitude":"-96.77590","Snowdepth":"3.000","Units":"in","Rept_Date":"2019-11-21 14"},"coordinates":[146,6279]},{"type":"Point","properties":{"Station_ID":"VT-RT-24","Station_Nam":"MIDDLETOWN SPRINGS 0.9 WNW, VT","Latitude":"43.49194","Longitude":"-73.13350","Snowdepth":"3.000","Units":"in","Rept_Date":"2019-11-21 12"},"coordinates":[7596,1325]},{"type":"Point","properties":{"Station_ID":"VT-GI-3","Station_Nam":"ALBURGH 4.6 SSE, VT","Latitude":"44.91280","Longitude":"-73.26890","Snowdepth":"3.000","Units":"in","Rept_Date":"2019-11-21 14"},"coordinates":[7553,2821]},{"type":"Point","properties":{"Station_ID":"VT-CL-40","Station_Nam":"LYNDONVILLE 4.2 NNW, VT","Latitude":"44.59440","Longitude":"-72.02389","Snowdepth":"3.000","Units":"in","Rept_Date":"2019-11-21 12"},"coordinates":[7945,2486]},{"type":"Point","properties":{"Station_ID":"VT-CL-18","Station_Nam":"WHEELOCK 1.6 S, VT","Latitude":"44.56491","Longitude":"-72.08830","Snowdepth":"3.000","Units":"in","Rept_Date":"2019-11-21 12"},"coordinates":[7925,2455]},{"type":"Point","properties":{"Station_ID":"VT-CL-14","Station_Nam":"LYNDONVILLE 1.1 W, VT","Latitude":"44.53582","Longitude":"-72.02867","Snowdepth":"3.000","Units":"in","Rept_Date":"2019-11-21 12"},"coordinates":[7944,2424]},{"type":"Point","properties":{"Station_ID":"VT-BN-7","Station_Nam":"MANCHESTER 2.8 ENE, VT","Latitude":"43.17274","Longitude":"-73.01811","Snowdepth":"3.000","Units":"in","Rept_Date":"2019-11-21 12"},"coordinates":[7632,989]},{"type":"Point","properties":{"Station_ID":"SUTV1","Station_Nam":"SUTTON","Latitude":"44.61220","Longitude":"-72.04810","Snowdepth":"3.000","Units":"in","Rept_Date":"2019-11-21 13"},"coordinates":[7938,2505]},{"type":"Point","properties":{"Station_ID":"SJBV1","Station_Nam":"SAINT JOHNSBURY","Latitude":"44.42000","Longitude":"-72.01940","Snowdepth":"3.000","Units":"in","Rept_Date":"2019-11-21 21"},"coordinates":[7947,2302]},{"type":"Point","properties":{"Station_ID":"RGNM1","Station_Nam":"RANGELEY 2NW","Latitude":"44.98940","Longitude":"-70.67220","Snowdepth":"3.000","Units":"in","Rept_Date":"2019-11-21 11"},"coordinates":[8371,2902]},{"type":"Point","properties":{"Station_ID":"RANM1","Station_Nam":"RANGELEY,ME","Latitude":"44.96670","Longitude":"-70.65000","Snowdepth":"3.000","Units":"in","Rept_Date":"2019-11-21 11"},"coordinates":[8378,2878]},{"type":"Point","properties":{"Station_ID":"QNCM4","Station_Nam":"QUINCY HILL","Latitude":"47.13640","Longitude":"-88.57950","Snowdepth":"3.000","Units":"in","Rept_Date":"2019-11-21 12"},"coordinates":[2729,5164]},{"type":"Point","properties":{"Station_ID":"NY-WR-10","Station_Nam":"WARRENSBURG 2.1 WNW, NY","Latitude":"43.51784","Longitude":"-73.81069","Snowdepth":"3.000","Units":"in","Rept_Date":"2019-11-21 13"},"coordinates":[7382,1352]},{"type":"Point","properties":{"Station_ID":"NY-SR-4","Station_Nam":"SARATOGA SPRINGS 0.5 S, NY","Latitude":"43.06032","Longitude":"-73.78010","Snowdepth":"3.000","Units":"in","Rept_Date":"2019-11-21 11"},"coordinates":[7392,870]},{"type":"Point","properties":{"Station_ID":"NWFM4","Station_Nam":"NW MICHIGAN RESEARCH FARM","Latitude":"44.88300","Longitude":"-85.67520","Snowdepth":"3.000","Units":"in","Rept_Date":"2019-11-21 13"},"coordinates":[3644,2790]},{"type":"Point","properties":{"Station_ID":"NUMN3","Station_Nam":"NORTHUMBERLAND","Latitude":"44.52830","Longitude":"-71.50440","Snowdepth":"3.000","Units":"in","Rept_Date":"2019-11-21 13"},"coordinates":[8109,2416]},{"type":"Point","properties":{"Station_ID":"NPTM4","Station_Nam":"NORTHPORT 2W","Latitude":"45.13220","Longitude":"-85.64720","Snowdepth":"3.000","Units":"in","Rept_Date":"2019-11-21 13"},"coordinates":[3653,3052]},{"type":"Point","properties":{"Station_ID":"MNSM4","Station_Nam":"MUNISING","Latitude":"46.41210","Longitude":"-86.66250","Snowdepth":"3.000","Units":"in","Rept_Date":"2019-11-21 11"},"coordinates":[3333,4401]},{"type":"Point","properties":{"Station_ID":"MN6J45LB","Station_Nam":"LUTSEN 4.1 WSW","Latitude":"47.62292","Longitude":"-90.75546","Snowdepth":"3.000","Units":"in","Rept_Date":"2019-11-21 13"},"coordinates":[2043,5676]},{"type":"Point","properties":{"Station_ID":"MN-SL-108","Station_Nam":"IRON JUNCTION 3.4 NNW, MN","Latitude":"47.46150","Longitude":"-92.63130","Snowdepth":"3.000","Units":"in","Rept_Date":"2019-11-21 15"},"coordinates":[1452,5506]},{"type":"Point","properties":{"Station_ID":"MN-CK-3","Station_Nam":"TOFTE 4.9 NE, MN","Latitude":"47.62394","Longitude":"-90.76100","Snowdepth":"3.000","Units":"in","Rept_Date":"2019-11-21 13"},"coordinates":[2041,5677]},{"type":"Point","properties":{"Station_ID":"MN-CK-18","Station_Nam":"GRAND MARAIS 4.4 WSW, MN","Latitude":"47.74462","Longitude":"-90.43796","Snowdepth":"3.000","Units":"in","Rept_Date":"2019-11-21 13"},"coordinates":[2143,5804]},{"type":"Point","properties":{"Station_ID":"MN-BM-15","Station_Nam":"BEMIDJI 7.8 ENE, MN","Latitude":"47.52043","Longitude":"-94.72121","Snowdepth":"3.000","Units":"in","Rept_Date":"2019-11-21 13"},"coordinates":[793,5568]},{"type":"Point","properties":{"Station_ID":"LOWN6","Station_Nam":"LOWVILLE","Latitude":"43.79280","Longitude":"-75.48290","Snowdepth":"3.000","Units":"in","Rept_Date":"2019-11-21 12"},"coordinates":[6855,1642]},{"type":"Point","properties":{"Station_ID":"LBKV1","Station_Nam":"LYE BROOK","Latitude":"43.05000","Longitude":"-73.03330","Snowdepth":"3.000","Units":"in","Rept_Date":"2019-11-22 06"},"coordinates":[7627,859]},{"type":"Point","properties":{"Station_ID":"KLKM4","Station_Nam":"KALKASKA","Latitude":"44.72800","Longitude":"-85.17270","Snowdepth":"3.000","Units":"in","Rept_Date":"2019-11-21 13"},"coordinates":[3802,2627]},{"type":"Point","properties":{"Station_ID":"KBTV","Station_Nam":"BURLINGTON INTERNATIONAL","Latitude":"44.46666","Longitude":"-73.15000","Snowdepth":"3.000","Units":"in","Rept_Date":"2019-11-22 05"},"coordinates":[7591,2351]},{"type":"Point","properties":{"Station_ID":"JKMM1","Station_Nam":"JACKMAN","Latitude":"45.62600","Longitude":"-70.24600","Snowdepth":"3.000","Units":"in","Rept_Date":"2019-11-21 12"},"coordinates":[8506,3573]},{"type":"Point","properties":{"Station_ID":"JEFN3","Station_Nam":"JEFFERSON","Latitude":"44.41690","Longitude":"-71.50080","Snowdepth":"3.000","Units":"in","Rept_Date":"2019-11-21 12"},"coordinates":[8110,2299]},{"type":"Point","properties":{"Station_ID":"ISLV1","Station_Nam":"ISLAND POND","Latitude":"44.81280","Longitude":"-71.89020","Snowdepth":"3.000","Units":"in","Rept_Date":"2019-11-21 16"},"coordinates":[7988,2716]},{"type":"Point","properties":{"Station_ID":"INDN6","Station_Nam":"INDIAN LAKE","Latitude":"43.75500","Longitude":"-74.27560","Snowdepth":"3.000","Units":"in","Rept_Date":"2019-11-21 13"},"coordinates":[7236,1602]},{"type":"Point","properties":{"Station_ID":"HGHN6","Station_Nam":"HIGHMARKET","Latitude":"43.57520","Longitude":"-75.52070","Snowdepth":"3.000","Units":"in","Rept_Date":"2019-11-21 10"},"coordinates":[6844,1412]},{"type":"Point","properties":{"Station_ID":"HERM4","Station_Nam":"HERMAN,MI","Latitude":"46.65000","Longitude":"-88.33330","Snowdepth":"3.000","Units":"in","Rept_Date":"2019-11-21 13"},"coordinates":[2806,4651]},{"type":"Point","properties":{"Station_ID":"GNLM4","Station_Nam":"GREENLAND 6N","Latitude":"46.87360","Longitude":"-89.10060","Snowdepth":"3.000","Units":"in","Rept_Date":"2019-11-21 12"},"coordinates":[2564,4887]},{"type":"Point","properties":{"Station_ID":"GHMN3","Station_Nam":"PINKHAM NOTCH","Latitude":"44.25800","Longitude":"-71.25250","Snowdepth":"3.000","Units":"in","Rept_Date":"2019-11-21 11"},"coordinates":[8189,2132]},{"type":"Point","properties":{"Station_ID":"ENFV1","Station_Nam":"ENOSBURG FALLS 2","Latitude":"44.90960","Longitude":"-72.81370","Snowdepth":"3.000","Units":"in","Rept_Date":"2019-11-21 10"},"coordinates":[7697,2818]},{"type":"Point","properties":{"Station_ID":"CORV1","Station_Nam":"CORINTH","Latitude":"44.00690","Longitude":"-72.31940","Snowdepth":"3.000","Units":"in","Rept_Date":"2019-11-21 12"},"coordinates":[7852,1867]},{"type":"Point","properties":{"Station_ID":"COLN3","Station_Nam":"COLEBROOK 3SW","Latitude":"44.86100","Longitude":"-71.53920","Snowdepth":"3.000","Units":"in","Rept_Date":"2019-11-21 12"},"coordinates":[8098,2767]},{"type":"Point","properties":{"Station_ID":"CAN-ON-42","Station_Nam":"VANKLEEK HILL 3.4 S, CA","Latitude":"45.48987","Longitude":"-74.64570","Snowdepth":"3.000","Units":"in","Rept_Date":"2019-11-21 12"},"coordinates":[7119,3429]},{"type":"Point","properties":{"Station_ID":"BRAM1","Station_Nam":"BRASSUA DAM","Latitude":"45.66020","Longitude":"-69.81190","Snowdepth":"3.000","Units":"in","Rept_Date":"2019-11-21 12"},"coordinates":[8642,3609]},{"type":"Point","properties":{"Station_ID":"WI-IR-2","Station_Nam":"MERCER 2.0 SE, WI","Latitude":"46.14749","Longitude":"-90.03097","Snowdepth":"2.800","Units":"in","Rept_Date":"2019-11-21 13"},"coordinates":[2271,4122]},{"type":"Point","properties":{"Station_ID":"CAN-ON-132","Station_Nam":"ORANGEVILLE 5.1 SSW - CANWARN, CAN","Latitude":"43.87372","Longitude":"-80.13428","Snowdepth":"2.800","Units":"in","Rept_Date":"2019-11-21 12"},"coordinates":[5390,1727]},{"type":"Point","properties":{"Station_ID":"CAN-MB-368","Station_Nam":"WHITESHELL 1.3 NE, CAN","Latitude":"49.74405","Longitude":"-95.19123","Snowdepth":"2.600","Units":"in","Rept_Date":"2019-11-21 14"},"coordinates":[645,7910]},{"type":"Point","properties":{"Station_ID":"VT-WS-10","Station_Nam":"NORTHFIELD 1.5 N, VT","Latitude":"44.16986","Longitude":"-72.65200","Snowdepth":"2.500","Units":"in","Rept_Date":"2019-11-21 12"},"coordinates":[7748,2039]},{"type":"Point","properties":{"Station_ID":"VT-WR-2","Station_Nam":"POMFRET 2.6 N, VT","Latitude":"43.74230","Longitude":"-72.52550","Snowdepth":"2.500","Units":"in","Rept_Date":"2019-11-21 12"},"coordinates":[7787,1588]},{"type":"Point","properties":{"Station_ID":"VT-CL-23","Station_Nam":"RYEGATE 1.5 N, VT","Latitude":"44.23024","Longitude":"-72.10523","Snowdepth":"2.500","Units":"in","Rept_Date":"2019-11-21 12"},"coordinates":[7920,2102]},{"type":"Point","properties":{"Station_ID":"NH-CS-4","Station_Nam":"PITTSBURG 6.1 NE, NH","Latitude":"45.11060","Longitude":"-71.29760","Snowdepth":"2.500","Units":"in","Rept_Date":"2019-11-21 12"},"coordinates":[8174,3030]},{"type":"Point","properties":{"Station_ID":"MN-IT-11","Station_Nam":"NASHWAUK 11.5 N, MN","Latitude":"47.54496","Longitude":"-93.19420","Snowdepth":"2.500","Units":"in","Rept_Date":"2019-11-21 12"},"coordinates":[1274,5594]},{"type":"Point","properties":{"Station_ID":"CAN-NB-18","Station_Nam":"MCLEOD HILL 1.1 ENE, CA","Latitude":"46.02725","Longitude":"-66.67460","Snowdepth":"2.500","Units":"in","Rept_Date":"2019-11-21 12"},"coordinates":[9631,3995]},{"type":"Point","properties":{"Station_ID":"CAN-NB-97","Station_Nam":"NEW MARYLAND 0.6 NW, CAN","Latitude":"45.90112","Longitude":"-66.68739","Snowdepth":"2.400","Units":"in","Rept_Date":"2019-11-21 11"},"coordinates":[9627,3862]},{"type":"Point","properties":{"Station_ID":"MN-BM-14","Station_Nam":"SOLWAY 2.1 S, MN","Latitude":"47.49069","Longitude":"-95.12177","Snowdepth":"2.300","Units":"in","Rept_Date":"2019-11-21 14"},"coordinates":[667,5537]},{"type":"Point","properties":{"Station_ID":"MN-BM-11","Station_Nam":"BEMIDJI 4.8 NNE, MN","Latitude":"47.54939","Longitude":"-94.85669","Snowdepth":"2.100","Units":"in","Rept_Date":"2019-11-21 13"},"coordinates":[751,5599]},{"type":"Point","properties":{"Station_ID":"WTHN6","Station_Nam":"WHITEHALL LOCK C12","Latitude":"43.55000","Longitude":"-73.40000","Snowdepth":"2.000","Units":"in","Rept_Date":"2019-11-21 13"},"coordinates":[7512,1386]},{"type":"Point","properties":{"Station_ID":"WNBM5","Station_Nam":"DAM","Latitude":"47.43060","Longitude":"-94.05000","Snowdepth":"2.000","Units":"in","Rept_Date":"2019-11-21 14"},"coordinates":[1005,5474]},{"type":"Point","properties":{"Station_ID":"WI-VL-9","Station_Nam":"LAND O' LAKES 11.7 W, WI","Latitude":"46.19023","Longitude":"-89.45790","Snowdepth":"2.000","Units":"in","Rept_Date":"2019-11-21 13"},"coordinates":[2452,4167]},{"type":"Point","properties":{"Station_ID":"WI-VL-10","Station_Nam":"LAND O LAKES 4.3 WNW, WI","Latitude":"46.17440","Longitude":"-89.30380","Snowdepth":"2.000","Units":"in","Rept_Date":"2019-11-21 13"},"coordinates":[2500,4150]},{"type":"Point","properties":{"Station_ID":"WI-DG-16","Station_Nam":"POPLAR 2.0 E, WI","Latitude":"46.58390","Longitude":"-91.74620","Snowdepth":"2.000","Units":"in","Rept_Date":"2019-11-21 13"},"coordinates":[1731,4582]},{"type":"Point","properties":{"Station_ID":"WAIV1","Station_Nam":"WAITSFIELD","Latitude":"44.17560","Longitude":"-72.79610","Snowdepth":"2.000","Units":"in","Rept_Date":"2019-11-21 12"},"coordinates":[7702,2045]},{"type":"Point","properties":{"Station_ID":"VT-WS-33","Station_Nam":"WAITSFIELD 3.5 WNW, VT","Latitude":"44.20052","Longitude":"-72.89421","Snowdepth":"2.000","Units":"in","Rept_Date":"2019-11-21 13"},"coordinates":[7671,2071]},{"type":"Point","properties":{"Station_ID":"VT-WS-11","Station_Nam":"WAITSFIELD 1.8 SE, VT","Latitude":"44.17551","Longitude":"-72.79540","Snowdepth":"2.000","Units":"in","Rept_Date":"2019-11-21 12"},"coordinates":[7702,2045]},{"type":"Point","properties":{"Station_ID":"VT-OG-11","Station_Nam":"VERSHIRE 1.5 ESE, VT","Latitude":"43.96138","Longitude":"-72.29777","Snowdepth":"2.000","Units":"in","Rept_Date":"2019-11-21 13"},"coordinates":[7859,1819]},{"type":"Point","properties":{"Station_ID":"VT-ES-3","Station_Nam":"LUNENBURG 2.3 NNW, VT","Latitude":"44.49324","Longitude":"-71.70446","Snowdepth":"2.000","Units":"in","Rept_Date":"2019-11-21 10"},"coordinates":[8046,2379]},{"type":"Point","properties":{"Station_ID":"SSMM4","Station_Nam":"SAULT STE MARIE","Latitude":"46.48660","Longitude":"-84.40250","Snowdepth":"2.000","Units":"in","Rept_Date":"2019-11-21 13"},"coordinates":[4045,4479]},{"type":"Point","properties":{"Station_ID":"RUTV1","Station_Nam":"RUTLAND","Latitude":"43.62530","Longitude":"-72.97810","Snowdepth":"2.000","Units":"in","Rept_Date":"2019-11-21 12"},"coordinates":[7645,1465]},{"type":"Point","properties":{"Station_ID":"RLKW3","Station_Nam":"REST LAKE","Latitude":"46.12220","Longitude":"-89.87720","Snowdepth":"2.000","Units":"in","Rept_Date":"2019-11-21 13"},"coordinates":[2320,4095]},{"type":"Point","properties":{"Station_ID":"PLFV1","Station_Nam":"PLAINFIELD","Latitude":"44.27610","Longitude":"-72.41500","Snowdepth":"2.000","Units":"in","Rept_Date":"2019-11-21 12"},"coordinates":[7822,2151]},{"type":"Point","properties":{"Station_ID":"PKGM5","Station_Nam":"POKEGANA LK DAM","Latitude":"47.25080","Longitude":"-93.58610","Snowdepth":"2.000","Units":"in","Rept_Date":"2019-11-21 14"},"coordinates":[1151,5284]},{"type":"Point","properties":{"Station_ID":"PEKN6","Station_Nam":"PECK LAKE","Latitude":"43.11500","Longitude":"-74.42360","Snowdepth":"2.000","Units":"in","Rept_Date":"2019-11-21 12"},"coordinates":[7189,928]},{"type":"Point","properties":{"Station_ID":"PDGM4","Station_Nam":"PAULDING","Latitude":"46.39760","Longitude":"-89.17940","Snowdepth":"2.000","Units":"in","Rept_Date":"2019-11-21 13"},"coordinates":[2540,4385]},{"type":"Point","properties":{"Station_ID":"NY-HR-18","Station_Nam":"SALISBURY CENTER 1.8 NW, NY","Latitude":"43.16260","Longitude":"-74.80880","Snowdepth":"2.000","Units":"in","Rept_Date":"2019-11-21 11"},"coordinates":[7068,978]},{"type":"Point","properties":{"Station_ID":"NY-AB-54","Station_Nam":"ALTAMONT 2.9 SW, NY","Latitude":"42.68182","Longitude":"-74.08326","Snowdepth":"2.000","Units":"in","Rept_Date":"2019-11-21 12"},"coordinates":[7297,471]},{"type":"Point","properties":{"Station_ID":"NY-AB-1","Station_Nam":"ALTAMONT 2.7 SSW, NY","Latitude":"42.66696","Longitude":"-74.05090","Snowdepth":"2.000","Units":"in","Rept_Date":"2019-11-21 12"},"coordinates":[7307,456]},{"type":"Point","properties":{"Station_ID":"NVLN6","Station_Nam":"NORTHVILLE","Latitude":"43.23330","Longitude":"-74.16670","Snowdepth":"2.000","Units":"in","Rept_Date":"2019-11-21 13"},"coordinates":[7270,1052]},{"type":"Point","properties":{"Station_ID":"NHBN6","Station_Nam":"HEBRON","Latitude":"43.29540","Longitude":"-73.39830","Snowdepth":"2.000","Units":"in","Rept_Date":"2019-11-21 12"},"coordinates":[7512,1118]},{"type":"Point","properties":{"Station_ID":"MN-IT-23","Station_Nam":"BOVEY 13.4 N, MN","Latitude":"47.48855","Longitude":"-93.43497","Snowdepth":"2.000","Units":"in","Rept_Date":"2019-11-21 13"},"coordinates":[1199,5535]},{"type":"Point","properties":{"Station_ID":"MI-OT-17","Station_Nam":"GAYLORD 4.1 S, MI","Latitude":"44.96388","Longitude":"-84.68467","Snowdepth":"2.000","Units":"in","Rept_Date":"2019-11-21 12"},"coordinates":[3956,2875]},{"type":"Point","properties":{"Station_ID":"MI-HG-6","Station_Nam":"CALUMET 5.8 ENE, MI","Latitude":"47.27200","Longitude":"-88.33400","Snowdepth":"2.000","Units":"in","Rept_Date":"2019-11-21 11"},"coordinates":[2806,5306]},{"type":"Point","properties":{"Station_ID":"MI-BZ-1","Station_Nam":"BENZONIA 5.3 S, MI","Latitude":"44.53976","Longitude":"-86.10650","Snowdepth":"2.000","Units":"in","Rept_Date":"2019-11-21 13"},"coordinates":[3508,2428]},{"type":"Point","properties":{"Station_ID":"MI-AT-6","Station_Nam":"MANCELONA 0.5 ESE, MI","Latitude":"44.89981","Longitude":"-85.05100","Snowdepth":"2.000","Units":"in","Rept_Date":"2019-11-21 13"},"coordinates":[3840,2808]},{"type":"Point","properties":{"Station_ID":"ME-FR-4","Station_Nam":"NEW SHARON 2.0 NW, ME","Latitude":"44.66582","Longitude":"-70.02720","Snowdepth":"2.000","Units":"in","Rept_Date":"2019-11-21 12"},"coordinates":[8575,2561]},{"type":"Point","properties":{"Station_ID":"MAPM4","Station_Nam":"MAPLE CITY 1E","Latitude":"44.85500","Longitude":"-85.83520","Snowdepth":"2.000","Units":"in","Rept_Date":"2019-11-21 23"},"coordinates":[3593,2761]},{"type":"Point","properties":{"Station_ID":"LNOW3","Station_Nam":"LAND O LAKES","Latitude":"46.19000","Longitude":"-89.45700","Snowdepth":"2.000","Units":"in","Rept_Date":"2019-11-21 13"},"coordinates":[2452,4167]},{"type":"Point","properties":{"Station_ID":"LNCM1","Station_Nam":"LINCOLN WATER DISTRICT","Latitude":"45.32410","Longitude":"-68.58300","Snowdepth":"2.000","Units":"in","Rept_Date":"2019-11-21 13"},"coordinates":[9030,3255]},{"type":"Point","properties":{"Station_ID":"KSGM4","Station_Nam":"KEARSARGE","Latitude":"47.27520","Longitude":"-88.41700","Snowdepth":"2.000","Units":"in","Rept_Date":"2019-11-21 13"},"coordinates":[2780,5310]},{"type":"Point","properties":{"Station_ID":"KGFK","Station_Nam":"GRAND FORKS INTERNATIONAL","Latitude":"47.95000","Longitude":"-97.18333","Snowdepth":"2.000","Units":"in","Rept_Date":"2019-11-22 06"},"coordinates":[17,6021]},{"type":"Point","properties":{"Station_ID":"ILIM5","Station_Nam":"ISLAND LAKE","Latitude":"47.02400","Longitude":"-92.07000","Snowdepth":"2.000","Units":"in","Rept_Date":"2019-11-21 15"},"coordinates":[1629,5045]},{"type":"Point","properties":{"Station_ID":"GOVN6","Station_Nam":"GOUVERNEUR 3 NW","Latitude":"44.35400","Longitude":"-75.51230","Snowdepth":"2.000","Units":"in","Rept_Date":"2019-11-21 12"},"coordinates":[6846,2233]},{"type":"Point","properties":{"Station_ID":"GFK","Station_Nam":"GRAND FORKS INTERNATIONAL AIRPORT","Latitude":"47.94920","Longitude":"-97.17610","Snowdepth":"2.000","Units":"in","Rept_Date":"2019-11-22 00"},"coordinates":[20,6020]},{"type":"Point","properties":{"Station_ID":"FLDM5","Station_Nam":"FLOODWOOD,MN","Latitude":"47.00000","Longitude":"-92.91670","Snowdepth":"2.000","Units":"in","Rept_Date":"2019-11-21 14"},"coordinates":[1362,5020]},{"type":"Point","properties":{"Station_ID":"FEDM5","Station_Nam":"LEECH LAKE DAM","Latitude":"47.24670","Longitude":"-94.22280","Snowdepth":"2.000","Units":"in","Rept_Date":"2019-11-21 14"},"coordinates":[950,5280]},{"type":"Point","properties":{"Station_ID":"DLSN6","Station_Nam":"DELANSON 2NE","Latitude":"42.76720","Longitude":"-74.17110","Snowdepth":"2.000","Units":"in","Rept_Date":"2019-11-21 12"},"coordinates":[7269,561]},{"type":"Point","properties":{"Station_ID":"DFXM1","Station_Nam":"DOVER-FOXCROFT","Latitude":"45.18720","Longitude":"-69.18350","Snowdepth":"2.000","Units":"in","Rept_Date":"2019-11-21 12"},"coordinates":[8840,3110]},{"type":"Point","properties":{"Station_ID":"COTM5","Station_Nam":"COTTON","Latitude":"47.16870","Longitude":"-92.46290","Snowdepth":"2.000","Units":"in","Rept_Date":"2019-11-21 13"},"coordinates":[1505,5198]},{"type":"Point","properties":{"Station_ID":"CNKN6","Station_Nam":"CONKLINGVILLE DAM","Latitude":"43.32030","Longitude":"-73.92560","Snowdepth":"2.000","Units":"in","Rept_Date":"2019-11-21 13"},"coordinates":[7346,1144]},{"type":"Point","properties":{"Station_ID":"BRUM5","Station_Nam":"BRUNO,MN","Latitude":"46.28330","Longitude":"-92.50000","Snowdepth":"2.000","Units":"in","Rept_Date":"2019-11-21 14"},"coordinates":[1493,4265]},{"type":"Point","properties":{"Station_ID":"BOON6","Station_Nam":"BOONVILLE 4 SSW","Latitude":"43.43610","Longitude":"-75.36970","Snowdepth":"2.000","Units":"in","Rept_Date":"2019-11-21 12"},"coordinates":[6891,1266]},{"type":"Point","properties":{"Station_ID":"ATMM4","Station_Nam":"ATLANTIC MINE 5NW","Latitude":"47.15440","Longitude":"-88.71670","Snowdepth":"2.000","Units":"in","Rept_Date":"2019-11-21 13"},"coordinates":[2685,5183]},{"type":"Point","properties":{"Station_ID":"ASXW3","Station_Nam":"ASHLAND,WI","Latitude":"46.55220","Longitude":"-90.91610","Snowdepth":"2.000","Units":"in","Rept_Date":"2019-11-21 14"},"coordinates":[1992,4548]},{"type":"Point","properties":{"Station_ID":"ANJ","Station_Nam":"SAULT STE MARIE","Latitude":"46.46670","Longitude":"-84.36670","Snowdepth":"2.000","Units":"in","Rept_Date":"2019-11-22 00"},"coordinates":[4056,4458]},{"type":"Point","properties":{"Station_ID":"MN-CK-7","Station_Nam":"HOVLAND 0.1 NE, MN","Latitude":"47.83922","Longitude":"-89.97119","Snowdepth":"1.800","Units":"in","Rept_Date":"2019-11-21 13"},"coordinates":[2290,5904]},{"type":"Point","properties":{"Station_ID":"NY-WR-13","Station_Nam":"QUEENSBURY 2.5 E, NY","Latitude":"43.35877","Longitude":"-73.62849","Snowdepth":"1.500","Units":"in","Rept_Date":"2019-11-21 12"},"coordinates":[7440,1184]},{"type":"Point","properties":{"Station_ID":"NY-SR-35","Station_Nam":"ROUND LAKE 4.1 NE, NY","Latitude":"42.97760","Longitude":"-73.73750","Snowdepth":"1.500","Units":"in","Rept_Date":"2019-11-21 12"},"coordinates":[7405,783]},{"type":"Point","properties":{"Station_ID":"NY-ER-166","Station_Nam":"BOSTON 2.5 NE, NY","Latitude":"42.65480","Longitude":"-78.70300","Snowdepth":"1.500","Units":"in","Rept_Date":"2019-11-21 12"},"coordinates":[5841,443]},{"type":"Point","properties":{"Station_ID":"NY-CL-7","Station_Nam":"PERU 4.1 ESE, NY","Latitude":"44.56461","Longitude":"-73.45390","Snowdepth":"1.500","Units":"in","Rept_Date":"2019-11-21 11"},"coordinates":[7495,2455]},{"type":"Point","properties":{"Station_ID":"NH-MR-41","Station_Nam":"NEWBURY 1.6 NW, NH","Latitude":"43.33667","Longitude":"-72.06060","Snowdepth":"1.500","Units":"in","Rept_Date":"2019-11-21 12"},"coordinates":[7934,1161]},{"type":"Point","properties":{"Station_ID":"NH-CS-10","Station_Nam":"RANDOLPH 1.4 NE, NH","Latitude":"44.38824","Longitude":"-71.26950","Snowdepth":"1.500","Units":"in","Rept_Date":"2019-11-21 12"},"coordinates":[8183,2269]},{"type":"Point","properties":{"Station_ID":"MN-SL-115","Station_Nam":"COTTON 5.7 ESE, MN","Latitude":"47.15142","Longitude":"-92.35772","Snowdepth":"1.500","Units":"in","Rept_Date":"2019-11-21 14"},"coordinates":[1538,5179]},{"type":"Point","properties":{"Station_ID":"MN-LK-5","Station_Nam":"TWO HARBORS 9.7 NNE, MN","Latitude":"47.16560","Longitude":"-91.61950","Snowdepth":"1.500","Units":"in","Rept_Date":"2019-11-21 13"},"coordinates":[1771,5194]},{"type":"Point","properties":{"Station_ID":"MI-GT-21","Station_Nam":"KINGSLEY 2.7 ENE, MI","Latitude":"44.59871","Longitude":"-85.48426","Snowdepth":"1.500","Units":"in","Rept_Date":"2019-11-21 11"},"coordinates":[3704,2491]},{"type":"Point","properties":{"Station_ID":"CAN-ON-245","Station_Nam":"PHELPSTON 3.1 ESE, CAN","Latitude":"44.50564","Longitude":"-79.81035","Snowdepth":"1.500","Units":"in","Rept_Date":"2019-11-21 12"},"coordinates":[5492,2393]},{"type":"Point","properties":{"Station_ID":"CAN-MB-382","Station_Nam":"WINNIPEG 8.7 SE, CAN","Latitude":"49.83864","Longitude":"-97.06478","Snowdepth":"1.400","Units":"in","Rept_Date":"2019-11-21 14"},"coordinates":[55,8010]},{"type":"Point","properties":{"Station_ID":"MN-IT-20","Station_Nam":"COLERAINE 1.5 S, MN","Latitude":"47.27686","Longitude":"-93.42335","Snowdepth":"1.300","Units":"in","Rept_Date":"2019-11-21 13"},"coordinates":[1202,5312]},{"type":"Point","properties":{"Station_ID":"ND-GF-14","Station_Nam":"GRAND FORKS 3.4 SSE, ND","Latitude":"47.87409","Longitude":"-97.03417","Snowdepth":"1.200","Units":"in","Rept_Date":"2019-11-21 12"},"coordinates":[64,5941]},{"type":"Point","properties":{"Station_ID":"CAN-ON-220","Station_Nam":"DEEP RIVER 1.5 SE - MNRF, CAN","Latitude":"46.09592","Longitude":"-77.47853","Snowdepth":"1.200","Units":"in","Rept_Date":"2019-11-21 12"},"coordinates":[6227,4068]},{"type":"Point","properties":{"Station_ID":"WTRM4","Station_Nam":"WATERSMEET 12WSW","Latitude":"46.22310","Longitude":"-89.40850","Snowdepth":"1.000","Units":"in","Rept_Date":"2019-11-21 12"},"coordinates":[2467,4202]},{"type":"Point","properties":{"Station_ID":"WRSM5","Station_Nam":"WRENSHALL","Latitude":"46.61550","Longitude":"-92.38380","Snowdepth":"1.000","Units":"in","Rept_Date":"2019-11-21 14"},"coordinates":[1530,4615]},{"type":"Point","properties":{"Station_ID":"WORV1","Station_Nam":"WORCESTER 2 W","Latitude":"44.37470","Longitude":"-72.58220","Snowdepth":"1.000","Units":"in","Rept_Date":"2019-11-21 12"},"coordinates":[7770,2255]},{"type":"Point","properties":{"Station_ID":"WLSN6","Station_Nam":"WALES","Latitude":"42.73920","Longitude":"-78.58780","Snowdepth":"1.000","Units":"in","Rept_Date":"2019-11-21 12"},"coordinates":[5877,532]},{"type":"Point","properties":{"Station_ID":"WITM1","Station_Nam":"WHITING","Latitude":"44.74240","Longitude":"-67.30520","Snowdepth":"1.000","Units":"in","Rept_Date":"2019-11-21 12"},"coordinates":[9432,2642]},{"type":"Point","properties":{"Station_ID":"WI-SR-5","Station_Nam":"HAYWARD 9.7 NE, WI","Latitude":"46.12030","Longitude":"-91.35370","Snowdepth":"1.000","Units":"in","Rept_Date":"2019-11-21 14"},"coordinates":[1854,4093]},{"type":"Point","properties":{"Station_ID":"WI-DG-20","Station_Nam":"SOLON SPRINGS 1.2 W, WI","Latitude":"46.35217","Longitude":"-91.84405","Snowdepth":"1.000","Units":"in","Rept_Date":"2019-11-21 13"},"coordinates":[1700,4338]},{"type":"Point","properties":{"Station_ID":"WI-BY-6","Station_Nam":"BARNES 2.2 S, WI","Latitude":"46.30264","Longitude":"-91.50320","Snowdepth":"1.000","Units":"in","Rept_Date":"2019-11-21 13"},"coordinates":[1807,4285]},{"type":"Point","properties":{"Station_ID":"TOPM1","Station_Nam":"TOPSFIELD","Latitude":"45.43470","Longitude":"-67.72020","Snowdepth":"1.000","Units":"in","Rept_Date":"2019-11-21 12"},"coordinates":[9302,3371]},{"type":"Point","properties":{"Station_ID":"TCEM4","Station_Nam":"TRAVERSE CITY 5ESE","Latitude":"44.73370","Longitude":"-85.51180","Snowdepth":"1.000","Units":"in","Rept_Date":"2019-11-21 12"},"coordinates":[3695,2633]},{"type":"Point","properties":{"Station_ID":"ROWM3","Station_Nam":"ROWE 3NE","Latitude":"42.73500","Longitude":"-72.86920","Snowdepth":"1.000","Units":"in","Rept_Date":"2019-11-21 12"},"coordinates":[7679,527]},{"type":"Point","properties":{"Station_ID":"RFDM1","Station_Nam":"RUMFORD 7SW","Latitude":"44.49470","Longitude":"-70.65640","Snowdepth":"1.000","Units":"in","Rept_Date":"2019-11-21 12"},"coordinates":[8376,2381]},{"type":"Point","properties":{"Station_ID":"PLBN6","Station_Nam":"PLATTSBURGH COOP","Latitude":"44.69180","Longitude":"-73.45560","Snowdepth":"1.000","Units":"in","Rept_Date":"2019-11-21 12"},"coordinates":[7494,2589]},{"type":"Point","properties":{"Station_ID":"NY-SC-16","Station_Nam":"NISKAYUNA 2.0 N, NY","Latitude":"42.84645","Longitude":"-73.89920","Snowdepth":"1.000","Units":"in","Rept_Date":"2019-11-21 12"},"coordinates":[7355,645]},{"type":"Point","properties":{"Station_ID":"NY-ER-158","Station_Nam":"EAST AURORA 2.7 SSE, NY","Latitude":"42.72936","Longitude":"-78.60561","Snowdepth":"1.000","Units":"in","Rept_Date":"2019-11-21 13"},"coordinates":[5871,521]},{"type":"Point","properties":{"Station_ID":"NWSM1","Station_Nam":"NEW SHARON","Latitude":"44.63520","Longitude":"-70.00020","Snowdepth":"1.000","Units":"in","Rept_Date":"2019-11-21 12"},"coordinates":[8583,2529]},{"type":"Point","properties":{"Station_ID":"NEWN3","Station_Nam":"NEWPORT,NH","Latitude":"43.38330","Longitude":"-72.18330","Snowdepth":"1.000","Units":"in","Rept_Date":"2019-11-21 12"},"coordinates":[7895,1210]},{"type":"Point","properties":{"Station_ID":"ND-GF-13","Station_Nam":"GRAND FORKS 3.7 SSE, ND","Latitude":"47.86533","Longitude":"-97.04935","Snowdepth":"1.000","Units":"in","Rept_Date":"2019-11-21 13"},"coordinates":[60,5931]},{"type":"Point","properties":{"Station_ID":"MYOM4","Station_Nam":"MIO WWTP","Latitude":"44.64660","Longitude":"-84.11580","Snowdepth":"1.000","Units":"in","Rept_Date":"2019-11-21 13"},"coordinates":[4135,2541]},{"type":"Point","properties":{"Station_ID":"MWTM1","Station_Nam":"MILLINOCKET WWTP","Latitude":"45.64030","Longitude":"-68.67480","Snowdepth":"1.000","Units":"in","Rept_Date":"2019-11-21 11"},"coordinates":[9001,3588]},{"type":"Point","properties":{"Station_ID":"MQT","Station_Nam":"MARQUETTE, MI","Latitude":"46.53140","Longitude":"-87.54920","Snowdepth":"1.000","Units":"in","Rept_Date":"2019-11-22 06"},"coordinates":[3053,4526]},{"type":"Point","properties":{"Station_ID":"MN6JKRHL","Station_Nam":"TOFTE 0.6 SSW","Latitude":"47.56557","Longitude":"-90.84117","Snowdepth":"1.000","Units":"in","Rept_Date":"2019-11-21 13"},"coordinates":[2016,5616]},{"type":"Point","properties":{"Station_ID":"MN-SL-105","Station_Nam":"DULUTH 11.8 NNE, MN","Latitude":"46.94680","Longitude":"-92.03925","Snowdepth":"1.000","Units":"in","Rept_Date":"2019-11-21 13"},"coordinates":[1638,4964]},{"type":"Point","properties":{"Station_ID":"MN-PK-2","Station_Nam":"ERSKINE 7.6 SW, MN","Latitude":"47.58559","Longitude":"-96.12790","Snowdepth":"1.000","Units":"in","Rept_Date":"2019-11-21 14"},"coordinates":[350,5637]},{"type":"Point","properties":{"Station_ID":"MN-PK-15","Station_Nam":"MENTOR 2.5 SSW, MN","Latitude":"47.66625","Longitude":"-96.17328","Snowdepth":"1.000","Units":"in","Rept_Date":"2019-11-21 13"},"coordinates":[336,5722]},{"type":"Point","properties":{"Station_ID":"MN-IT-7","Station_Nam":"GRAND RAPIDS 6.2 SSW, MN","Latitude":"47.13687","Longitude":"-93.56660","Snowdepth":"1.000","Units":"in","Rept_Date":"2019-11-21 12"},"coordinates":[1157,5164]},{"type":"Point","properties":{"Station_ID":"MIEM4","Station_Nam":"MICHIGAMME 3WNW","Latitude":"46.54530","Longitude":"-88.18000","Snowdepth":"1.000","Units":"in","Rept_Date":"2019-11-21 13"},"coordinates":[2854,4541]},{"type":"Point","properties":{"Station_ID":"MI-OT-4","Station_Nam":"GAYLORD 1.7 WNW, MI","Latitude":"45.03280","Longitude":"-84.71090","Snowdepth":"1.000","Units":"in","Rept_Date":"2019-11-21 13"},"coordinates":[3948,2948]},{"type":"Point","properties":{"Station_ID":"MI-OT-16","Station_Nam":"GAYLORD 2.2 SSE, MI","Latitude":"44.99441","Longitude":"-84.65820","Snowdepth":"1.000","Units":"in","Rept_Date":"2019-11-21 14"},"coordinates":[3964,2907]},{"type":"Point","properties":{"Station_ID":"MI-LV-15","Station_Nam":"PINCKNEY 3.4 NW, MI","Latitude":"42.48156","Longitude":"-84.00330","Snowdepth":"1.000","Units":"in","Rept_Date":"2019-11-21 13"},"coordinates":[4171,260]},{"type":"Point","properties":{"Station_ID":"MI-GT-25","Station_Nam":"TRAVERSE CITY 4.7 ESE, MI","Latitude":"44.73370","Longitude":"-85.51189","Snowdepth":"1.000","Units":"in","Rept_Date":"2019-11-21 12"},"coordinates":[3695,2633]},{"type":"Point","properties":{"Station_ID":"ME-SM-10","Station_Nam":"NORTH NEW PORTLAND 0.3 WSW, ME","Latitude":"44.92353","Longitude":"-70.02788","Snowdepth":"1.000","Units":"in","Rept_Date":"2019-11-21 12"},"coordinates":[8574,2833]},{"type":"Point","properties":{"Station_ID":"ME-PN-55","Station_Nam":"ORONO 1.1 SSW, ME","Latitude":"44.87005","Longitude":"-68.69446","Snowdepth":"1.000","Units":"in","Rept_Date":"2019-11-21 12"},"coordinates":[8995,2776]},{"type":"Point","properties":{"Station_ID":"ME-HN-2","Station_Nam":"EAST SURRY, ME","Latitude":"44.49367","Longitude":"-68.45775","Snowdepth":"1.000","Units":"in","Rept_Date":"2019-11-21 12"},"coordinates":[9069,2380]},{"type":"Point","properties":{"Station_ID":"ME-AN-32","Station_Nam":"WINTHROP 9.4 W, ME","Latitude":"44.30476","Longitude":"-70.15835","Snowdepth":"1.000","Units":"in","Rept_Date":"2019-11-21 12"},"coordinates":[8533,2181]},{"type":"Point","properties":{"Station_ID":"LVDW3","Station_Nam":"LAC VIEUX DESERT","Latitude":"46.12110","Longitude":"-89.07580","Snowdepth":"1.000","Units":"in","Rept_Date":"2019-11-21 14"},"coordinates":[2572,4094]},{"type":"Point","properties":{"Station_ID":"LUCW3","Station_Nam":"LUCK","Latitude":"45.57330","Longitude":"-92.48520","Snowdepth":"1.000","Units":"in","Rept_Date":"2019-11-21 22"},"coordinates":[1498,3517]},{"type":"Point","properties":{"Station_ID":"LNKM1","Station_Nam":"LINCOLN SANITARY DISTRICT/WTP","Latitude":"45.37520","Longitude":"-68.50820","Snowdepth":"1.000","Units":"in","Rept_Date":"2019-11-21 12"},"coordinates":[9053,3308]},{"type":"Point","properties":{"Station_ID":"KSEM4","Station_Nam":"KALKASKA 11SE","Latitude":"44.58970","Longitude":"-85.04860","Snowdepth":"1.000","Units":"in","Rept_Date":"2019-11-21 13"},"coordinates":[3841,2481]},{"type":"Point","properties":{"Station_ID":"KGTB","Station_Nam":"FORT DRUM / WHEELER-SACK U. S. ARMY AIRFIELD","Latitude":"44.05000","Longitude":"-75.73333","Snowdepth":"1.000","Units":"in","Rept_Date":"2019-11-22 06"},"coordinates":[6777,1913]},{"type":"Point","properties":{"Station_ID":"JWTN6","Station_Nam":"EAST JEWETT","Latitude":"42.23430","Longitude":"-74.14430","Snowdepth":"1.000","Units":"in","Rept_Date":"2019-11-21 11"},"coordinates":[7277,0]},{"type":"Point","properties":{"Station_ID":"ISEM5","Station_Nam":"ISLE 12N","Latitude":"46.31970","Longitude":"-93.50140","Snowdepth":"1.000","Units":"in","Rept_Date":"2019-11-21 14"},"coordinates":[1178,4303]},{"type":"Point","properties":{"Station_ID":"GRFN8","Station_Nam":"UNIVERSITY","Latitude":"47.93330","Longitude":"-97.08330","Snowdepth":"1.000","Units":"in","Rept_Date":"2019-11-22 06"},"coordinates":[49,6003]},{"type":"Point","properties":{"Station_ID":"GRBM5","Station_Nam":"GRAND RAPIDS 12N","Latitude":"47.39800","Longitude":"-93.51330","Snowdepth":"1.000","Units":"in","Rept_Date":"2019-11-21 13"},"coordinates":[1174,5439]},{"type":"Point","properties":{"Station_ID":"GAYM4","Station_Nam":"GAYLORD","Latitude":"45.03320","Longitude":"-84.71130","Snowdepth":"1.000","Units":"in","Rept_Date":"2019-11-21 13"},"coordinates":[3947,2948]},{"type":"Point","properties":{"Station_ID":"FLNM4","Station_Nam":"CASE DRAIN-BOARTMAN CRK","Latitude":"43.92670","Longitude":"-83.09360","Snowdepth":"1.000","Units":"in","Rept_Date":"2019-11-21 11"},"coordinates":[4457,1783]},{"type":"Point","properties":{"Station_ID":"FLAM4","Station_Nam":"FIFE LAKE 2WNW","Latitude":"44.58480","Longitude":"-85.36530","Snowdepth":"1.000","Units":"in","Rept_Date":"2019-11-21 12"},"coordinates":[3741,2476]},{"type":"Point","properties":{"Station_ID":"ESGM1","Station_Nam":"EAST SANGERVILLE","Latitude":"45.13690","Longitude":"-69.28060","Snowdepth":"1.000","Units":"in","Rept_Date":"2019-11-21 12"},"coordinates":[8810,3057]},{"type":"Point","properties":{"Station_ID":"DLHM5","Station_Nam":"DULUTH NWS","Latitude":"46.83680","Longitude":"-92.21080","Snowdepth":"1.000","Units":"in","Rept_Date":"2019-11-22 06"},"coordinates":[1584,4848]},{"type":"Point","properties":{"Station_ID":"DLH","Station_Nam":"DULUTH, MN","Latitude":"46.83690","Longitude":"-92.21030","Snowdepth":"1.000","Units":"in","Rept_Date":"2019-11-22 00"},"coordinates":[1584,4848]},{"type":"Point","properties":{"Station_ID":"DHMM1","Station_Nam":"DEDHAM","Latitude":"44.67880","Longitude":"-68.63560","Snowdepth":"1.000","Units":"in","Rept_Date":"2019-11-21 12"},"coordinates":[9013,2575]},{"type":"Point","properties":{"Station_ID":"CRLM5","Station_Nam":"CROSS LAKE DAM","Latitude":"46.66930","Longitude":"-94.11060","Snowdepth":"1.000","Units":"in","Rept_Date":"2019-11-21 14"},"coordinates":[986,4672]},{"type":"Point","properties":{"Station_ID":"COUW3","Station_Nam":"COUDERAY,WI","Latitude":"45.86670","Longitude":"-91.45000","Snowdepth":"1.000","Units":"in","Rept_Date":"2019-11-21 22"},"coordinates":[1824,3826]},{"type":"Point","properties":{"Station_ID":"CORM1","Station_Nam":"CORINNA","Latitude":"44.91980","Longitude":"-69.24180","Snowdepth":"1.000","Units":"in","Rept_Date":"2019-11-21 13"},"coordinates":[8822,2829]},{"type":"Point","properties":{"Station_ID":"CMKW3","Station_Nam":"CLAM LAKE 4W","Latitude":"46.16940","Longitude":"-90.98080","Snowdepth":"1.000","Units":"in","Rept_Date":"2019-11-21 13"},"coordinates":[1972,4145]},{"type":"Point","properties":{"Station_ID":"CLQM5","Station_Nam":"CLOQUET","Latitude":"46.70470","Longitude":"-92.52530","Snowdepth":"1.000","Units":"in","Rept_Date":"2019-11-21 14"},"coordinates":[1485,4709]},{"type":"Point","properties":{"Station_ID":"CHRM4","Station_Nam":"CHARLEVOIX","Latitude":"45.31720","Longitude":"-85.26720","Snowdepth":"1.000","Units":"in","Rept_Date":"2019-11-21 13"},"coordinates":[3772,3247]},{"type":"Point","properties":{"Station_ID":"CAN-ON-595","Station_Nam":"DRYDEN 12.1 E, CAN","Latitude":"49.79665","Longitude":"-92.66778","Snowdepth":"1.000","Units":"in","Rept_Date":"2019-11-21 13"},"coordinates":[1440,7966]},{"type":"Point","properties":{"Station_ID":"BSKN6","Station_Nam":"BUSKIRK","Latitude":"42.93610","Longitude":"-73.43250","Snowdepth":"1.000","Units":"in","Rept_Date":"2019-11-21 12"},"coordinates":[7502,739]},{"type":"Point","properties":{"Station_ID":"BETM1","Station_Nam":"BETHEL 6 SSE","Latitude":"44.32000","Longitude":"-70.75680","Snowdepth":"1.000","Units":"in","Rept_Date":"2019-11-21 12"},"coordinates":[8345,2197]},{"type":"Point","properties":{"Station_ID":"ATAN6","Station_Nam":"ATTICA 7 SW","Latitude":"42.81070","Longitude":"-78.39790","Snowdepth":"1.000","Units":"in","Rept_Date":"2019-11-21 11"},"coordinates":[5937,607]},{"type":"Point","properties":{"Station_ID":"APXM4","Station_Nam":"GAYLORD 9SSW","Latitude":"44.90720","Longitude":"-84.71880","Snowdepth":"1.000","Units":"in","Rept_Date":"2019-11-22 06"},"coordinates":[3945,2815]},{"type":"Point","properties":{"Station_ID":"ANJM4","Station_Nam":"SNOW PAID OBSERVER FOR KANJ","Latitude":"46.48670","Longitude":"-84.40260","Snowdepth":"1.000","Units":"in","Rept_Date":"2019-11-22 06"},"coordinates":[4045,4479]},{"type":"Point","properties":{"Station_ID":"ALB","Station_Nam":"ALBANY INTL AP","Latitude":"42.74810","Longitude":"-73.80330","Snowdepth":"1.000","Units":"in","Rept_Date":"2019-11-21 12"},"coordinates":[7385,541]}]}},"arcs":[],"transform":{"scale":[0.0031734873487348735,0.0009493549354935496],"translate":[-97.2386,42.2343]}}