{"type":"Topology","objects":{"snowdepth_geo":{"type":"GeometryCollection","name":"snowdepth","crs":{"type":"name","properties":{"name":"urn:ogc:def:crs:OGC:1.3:CRS84"}},"geometries":[{"type":"Point","properties":{"Station_ID":"PRKM4","Station_Nam":"MUNISING EAST","Latitude":"46.42580","Longitude":"-86.62000","Snowdepth":"76.500","Units":"in","Rept_Date":"2020-12-08 06"},"coordinates":[3306,7168]},{"type":"Point","properties":{"Station_ID":"HTLN3","Station_Nam":"HERMIT LAKE SNOWPLOT","Latitude":"44.26130","Longitude":"-71.28330","Snowdepth":"19.000","Units":"in","Rept_Date":"2020-12-07 12"},"coordinates":[8168,6012]},{"type":"Point","properties":{"Station_ID":"CAN-NB-50","Station_Nam":"DOYLEVILLE 2.4 WNW, CAN","Latitude":"47.90803","Longitude":"-66.13279","Snowdepth":"16.000","Units":"in","Rept_Date":"2020-12-07 13"},"coordinates":[9801,7960]},{"type":"Point","properties":{"Station_ID":"NH-CS-10","Station_Nam":"RANDOLPH 1.4 NE, NH","Latitude":"44.38824","Longitude":"-71.26950","Snowdepth":"14.500","Units":"in","Rept_Date":"2020-12-07 12"},"coordinates":[8172,6080]},{"type":"Point","properties":{"Station_ID":"QOU","Station_Nam":"QOU","Latitude":"50.79250","Longitude":"-69.67470","Snowdepth":"14.449","Units":"in","Rept_Date":"2020-12-07 12"},"coordinates":[8678,9500]},{"type":"Point","properties":{"Station_ID":"RANM1","Station_Nam":"RANGELEY","Latitude":"44.98910","Longitude":"-70.67190","Snowdepth":"13.000","Units":"in","Rept_Date":"2020-12-07 11"},"coordinates":[8362,6401]},{"type":"Point","properties":{"Station_ID":"MLZ","Station_Nam":"MLZ","Latitude":"50.66170","Longitude":"-68.82360","Snowdepth":"12.205","Units":"in","Rept_Date":"2020-12-07 12"},"coordinates":[8948,9430]},{"type":"Point","properties":{"Station_ID":"ME-SM-45","Station_Nam":"BRIGHTON PLANTATION 2.1 N, ME","Latitude":"45.07098","Longitude":"-69.69860","Snowdepth":"12.000","Units":"in","Rept_Date":"2020-12-07 12"},"coordinates":[8670,6444]},{"type":"Point","properties":{"Station_ID":"ABNM3","Station_Nam":"ASHBURNHAM NORTH","Latitude":"42.66170","Longitude":"-71.93590","Snowdepth":"12.000","Units":"in","Rept_Date":"2020-12-07 12"},"coordinates":[7961,5158]},{"type":"Point","properties":{"Station_ID":"QCO","Station_Nam":"QCO","Latitude":"51.45280","Longitude":"-72.20110","Snowdepth":"11.693","Units":"in","Rept_Date":"2020-12-07 12"},"coordinates":[7877,9853]},{"type":"Point","properties":{"Station_ID":"ME-AR-18","Station_Nam":"NEW SWEDEN 4.9 NNW, ME","Latitude":"47.01080","Longitude":"-68.14390","Snowdepth":"11.000","Units":"in","Rept_Date":"2020-12-07 11"},"coordinates":[9163,7480]},{"type":"Point","properties":{"Station_ID":"ME-AR-15","Station_Nam":"PRESQUE ISLE 1.3 WSW, ME","Latitude":"46.67960","Longitude":"-68.01270","Snowdepth":"11.000","Units":"in","Rept_Date":"2020-12-07 12"},"coordinates":[9205,7304]},{"type":"Point","properties":{"Station_ID":"CARM1","Station_Nam":"CARIBOU WFO","Latitude":"46.86810","Longitude":"-68.01250","Snowdepth":"11.000","Units":"in","Rept_Date":"2020-12-08 05"},"coordinates":[9205,7404]},{"type":"Point","properties":{"Station_ID":"RGNM1","Station_Nam":"RANGELEY 2NW","Latitude":"44.98940","Longitude":"-70.67220","Snowdepth":"10.000","Units":"in","Rept_Date":"2020-12-07 11"},"coordinates":[8362,6401]},{"type":"Point","properties":{"Station_ID":"MWN","Station_Nam":"MOUNT WASHINGTON","Latitude":"44.26670","Longitude":"-71.30000","Snowdepth":"10.000","Units":"in","Rept_Date":"2020-12-07 12"},"coordinates":[8162,6015]},{"type":"Point","properties":{"Station_ID":"KMWN","Station_Nam":"MOUNT WASHINGTON","Latitude":"44.26666","Longitude":"-71.30000","Snowdepth":"10.000","Units":"in","Rept_Date":"2020-12-08 06"},"coordinates":[8162,6015]},{"type":"Point","properties":{"Station_ID":"ESGM1","Station_Nam":"EAST SANGERVILLE","Latitude":"45.13690","Longitude":"-69.28060","Snowdepth":"10.000","Units":"in","Rept_Date":"2020-12-07 12"},"coordinates":[8803,6480]},{"type":"Point","properties":{"Station_ID":"AVLV1","Station_Nam":"AVERILL","Latitude":"45.00570","Longitude":"-71.69030","Snowdepth":"10.000","Units":"in","Rept_Date":"2020-12-07 13"},"coordinates":[8039,6410]},{"type":"Point","properties":{"Station_ID":"TRIQ6","Station_Nam":"TRIO LAKE","Latitude":"49.22880","Longitude":"-87.22920","Snowdepth":"9.610","Units":"in","Rept_Date":"2020-12-08 06"},"coordinates":[3113,8665]},{"type":"Point","properties":{"Station_ID":"QMA","Station_Nam":"QMA","Latitude":"50.10330","Longitude":"-70.47190","Snowdepth":"9.252","Units":"in","Rept_Date":"2020-12-07 12"},"coordinates":[8425,9132]},{"type":"Point","properties":{"Station_ID":"QLB","Station_Nam":"QLB","Latitude":"50.72360","Longitude":"-75.10000","Snowdepth":"9.016","Units":"in","Rept_Date":"2020-12-07 12"},"coordinates":[6958,9463]},{"type":"Point","properties":{"Station_ID":"NH-RC-48","Station_Nam":"NORTHWOOD 2.9 WSW, NH","Latitude":"43.20114","Longitude":"-71.25750","Snowdepth":"9.000","Units":"in","Rept_Date":"2020-12-07 12"},"coordinates":[8176,5446]},{"type":"Point","properties":{"Station_ID":"QCX","Station_Nam":"QCX","Latitude":"51.32830","Longitude":"-70.08060","Snowdepth":"8.976","Units":"in","Rept_Date":"2020-12-07 12"},"coordinates":[8549,9786]},{"type":"Point","properties":{"Station_ID":"NH-CS-19","Station_Nam":"CARROLL 4.6 NE, NH","Latitude":"44.33765","Longitude":"-71.46461","Snowdepth":"8.500","Units":"in","Rept_Date":"2020-12-07 12"},"coordinates":[8110,6053]},{"type":"Point","properties":{"Station_ID":"CAN-NB-105","Station_Nam":"SISSON BROOK 3.8 E, CAN","Latitude":"46.98305","Longitude":"-67.32532","Snowdepth":"8.300","Units":"in","Rept_Date":"2020-12-07 12"},"coordinates":[9423,7466]},{"type":"Point","properties":{"Station_ID":"QGO","Station_Nam":"QGO","Latitude":"48.85500","Longitude":"-74.20640","Snowdepth":"8.268","Units":"in","Rept_Date":"2020-12-07 12"},"coordinates":[7241,8465]},{"type":"Point","properties":{"Station_ID":"QTM","Station_Nam":"QTM","Latitude":"51.05780","Longitude":"-72.57190","Snowdepth":"8.110","Units":"in","Rept_Date":"2020-12-07 12"},"coordinates":[7759,9642]},{"type":"Point","properties":{"Station_ID":"NH-ST-31","Station_Nam":"STRAFFORD 2.9 N, NH","Latitude":"43.31175","Longitude":"-71.13510","Snowdepth":"8.000","Units":"in","Rept_Date":"2020-12-07 13"},"coordinates":[8215,5505]},{"type":"Point","properties":{"Station_ID":"NH-HL-48","Station_Nam":"GREENVILLE 1.1 ENE, NH","Latitude":"42.77674","Longitude":"-71.77990","Snowdepth":"8.000","Units":"in","Rept_Date":"2020-12-07 13"},"coordinates":[8010,5219]},{"type":"Point","properties":{"Station_ID":"ME-SM-4","Station_Nam":"SOLON 3.9 ESE, ME","Latitude":"44.94705","Longitude":"-69.77790","Snowdepth":"8.000","Units":"in","Rept_Date":"2020-12-07 12"},"coordinates":[8645,6378]},{"type":"Point","properties":{"Station_ID":"GHMN3","Station_Nam":"PINKHAM NOTCH","Latitude":"44.25800","Longitude":"-71.25250","Snowdepth":"8.000","Units":"in","Rept_Date":"2020-12-07 10"},"coordinates":[8178,6010]},{"type":"Point","properties":{"Station_ID":"FISM1","Station_Nam":"FORT KENT COOP","Latitude":"47.23850","Longitude":"-68.61240","Snowdepth":"8.000","Units":"in","Rept_Date":"2020-12-07 12"},"coordinates":[9015,7602]},{"type":"Point","properties":{"Station_ID":"PTLQ6","Station_Nam":"PORTAGE LAKE","Latitude":"49.06950","Longitude":"-86.65940","Snowdepth":"7.520","Units":"in","Rept_Date":"2020-12-08 06"},"coordinates":[3293,8580]},{"type":"Point","properties":{"Station_ID":"QMD","Station_Nam":"QMD","Latitude":"49.29060","Longitude":"-75.84500","Snowdepth":"7.441","Units":"in","Rept_Date":"2020-12-07 12"},"coordinates":[6722,8698]},{"type":"Point","properties":{"Station_ID":"AUDQ6","Station_Nam":"AUDEN","Latitude":"48.52600","Longitude":"-82.57570","Snowdepth":"7.400","Units":"in","Rept_Date":"2020-12-08 06"},"coordinates":[4588,8290]},{"type":"Point","properties":{"Station_ID":"DVLQ6","Station_Nam":"DEVIOUS LAKE","Latitude":"49.19890","Longitude":"-87.76440","Snowdepth":"7.360","Units":"in","Rept_Date":"2020-12-08 06"},"coordinates":[2943,8649]},{"type":"Point","properties":{"Station_ID":"QGD","Station_Nam":"QGD","Latitude":"51.11140","Longitude":"-67.13940","Snowdepth":"7.205","Units":"in","Rept_Date":"2020-12-07 12"},"coordinates":[9481,9670]},{"type":"Point","properties":{"Station_ID":"NH-GR-56","Station_Nam":"EASTON 0.6 ESE, NH","Latitude":"44.14790","Longitude":"-71.78950","Snowdepth":"7.000","Units":"in","Rept_Date":"2020-12-07 13"},"coordinates":[8007,5951]},{"type":"Point","properties":{"Station_ID":"NH-CS-4","Station_Nam":"PITTSBURG 6.1 NE, NH","Latitude":"45.11060","Longitude":"-71.29760","Snowdepth":"7.000","Units":"in","Rept_Date":"2020-12-07 12"},"coordinates":[8163,6466]},{"type":"Point","properties":{"Station_ID":"MTLT1","Station_Nam":"GATLINBURG,TN","Latitude":"35.65500","Longitude":"-83.44110","Snowdepth":"7.000","Units":"in","Rept_Date":"2020-12-07 13"},"coordinates":[4314,1416]},{"type":"Point","properties":{"Station_ID":"ME-OX-26","Station_Nam":"OXFORD 5.3 SW, ME","Latitude":"44.09787","Longitude":"-70.59612","Snowdepth":"7.000","Units":"in","Rept_Date":"2020-12-07 12"},"coordinates":[8386,5925]},{"type":"Point","properties":{"Station_ID":"ME-KB-53","Station_Nam":"READFIELD 2.0 NNE, ME","Latitude":"44.41620","Longitude":"-69.95190","Snowdepth":"7.000","Units":"in","Rept_Date":"2020-12-07 12"},"coordinates":[8590,6095]},{"type":"Point","properties":{"Station_ID":"CHRO1","Station_Nam":"CHARDON,OH","Latitude":"41.58330","Longitude":"-81.18330","Snowdepth":"7.000","Units":"in","Rept_Date":"2020-12-07 13"},"coordinates":[5029,4582]},{"type":"Point","properties":{"Station_ID":"41.5833_081.1833","Station_Nam":"1 NE CHARDON  CO-OP OBSERVER (CHRO1)","Latitude":"41.58330","Longitude":"-81.18330","Snowdepth":"7.000","Units":"in","Rept_Date":"2020-12-07 13"},"coordinates":[5029,4582]},{"type":"Point","properties":{"Station_ID":"ME-KB-6","Station_Nam":"WINSLOW 1.2 SSE, ME","Latitude":"44.53579","Longitude":"-69.60290","Snowdepth":"6.500","Units":"in","Rept_Date":"2020-12-07 12"},"coordinates":[8700,6159]},{"type":"Point","properties":{"Station_ID":"MFU","Station_Nam":"MFU","Latitude":"51.52170","Longitude":"-66.91110","Snowdepth":"6.417","Units":"in","Rept_Date":"2020-12-07 12"},"coordinates":[9554,9889]},{"type":"Point","properties":{"Station_ID":"QLM","Station_Nam":"QLM","Latitude":"48.92030","Longitude":"-70.25280","Snowdepth":"6.181","Units":"in","Rept_Date":"2020-12-07 12"},"coordinates":[8494,8500]},{"type":"Point","properties":{"Station_ID":"VANM1","Station_Nam":"VAN BUREN","Latitude":"47.16600","Longitude":"-67.93900","Snowdepth":"6.000","Units":"in","Rept_Date":"2020-12-07 12"},"coordinates":[9228,7563]},{"type":"Point","properties":{"Station_ID":"SC-BK-71","Station_Nam":"GOOSE CREEK 3.9 WNW, SC","Latitude":"33.00382","Longitude":"-80.06259","Snowdepth":"6.000","Units":"in","Rept_Date":"2020-12-07 13"},"coordinates":[5385,0]},{"type":"Point","properties":{"Station_ID":"NH-CR-34","Station_Nam":"WAKEFIELD 6.0 NNW, NH","Latitude":"43.63917","Longitude":"-71.05210","Snowdepth":"6.000","Units":"in","Rept_Date":"2020-12-07 12"},"coordinates":[8241,5680]},{"type":"Point","properties":{"Station_ID":"NH-BK-2","Station_Nam":"BELMONT 1.7 SW, NH","Latitude":"43.43556","Longitude":"-71.50690","Snowdepth":"6.000","Units":"in","Rept_Date":"2020-12-07 12"},"coordinates":[8097,5571]},{"type":"Point","properties":{"Station_ID":"MWTM1","Station_Nam":"MILLINOCKET WWTP","Latitude":"45.64030","Longitude":"-68.67480","Snowdepth":"6.000","Units":"in","Rept_Date":"2020-12-07 12"},"coordinates":[8995,6748]},{"type":"Point","properties":{"Station_ID":"ME-SM-3","Station_Nam":"PALMYRA 3.5 NW, ME","Latitude":"44.87180","Longitude":"-69.41952","Snowdepth":"6.000","Units":"in","Rept_Date":"2020-12-07 12"},"coordinates":[8759,6338]},{"type":"Point","properties":{"Station_ID":"ME-CM-125","Station_Nam":"GRAY 2.9 SSE, ME","Latitude":"43.84640","Longitude":"-70.31340","Snowdepth":"6.000","Units":"in","Rept_Date":"2020-12-07 12"},"coordinates":[8475,5790]},{"type":"Point","properties":{"Station_ID":"MA-WR-44","Station_Nam":"WESTMINSTER 0.6 WSW, MA","Latitude":"42.54505","Longitude":"-71.91032","Snowdepth":"6.000","Units":"in","Rept_Date":"2020-12-07 11"},"coordinates":[7969,5095]},{"type":"Point","properties":{"Station_ID":"LILM1","Station_Nam":"LILLE","Latitude":"47.27770","Longitude":"-68.10520","Snowdepth":"6.000","Units":"in","Rept_Date":"2020-12-07 12"},"coordinates":[9175,7623]},{"type":"Point","properties":{"Station_ID":"HRTM1","Station_Nam":"HARTFORD","Latitude":"44.37440","Longitude":"-70.31620","Snowdepth":"6.000","Units":"in","Rept_Date":"2020-12-07 12"},"coordinates":[8474,6072]},{"type":"Point","properties":{"Station_ID":"CLQM5","Station_Nam":"CLOQUET","Latitude":"46.70470","Longitude":"-92.52530","Snowdepth":"6.000","Units":"in","Rept_Date":"2020-12-07 14"},"coordinates":[1434,7317]},{"type":"Point","properties":{"Station_ID":"BRLN3","Station_Nam":"BERLIN","Latitude":"44.45350","Longitude":"-71.18540","Snowdepth":"6.000","Units":"in","Rept_Date":"2020-12-07 14"},"coordinates":[8199,6115]},{"type":"Point","properties":{"Station_ID":"FTHQ6","Station_Nam":"FORT HOPE","Latitude":"51.55820","Longitude":"-87.90510","Snowdepth":"5.630","Units":"in","Rept_Date":"2020-12-08 06"},"coordinates":[2898,9909]},{"type":"Point","properties":{"Station_ID":"OGIQ6","Station_Nam":"OGOKI CAMP","Latitude":"50.76680","Longitude":"-87.85820","Snowdepth":"5.590","Units":"in","Rept_Date":"2020-12-08 06"},"coordinates":[2913,9486]},{"type":"Point","properties":{"Station_ID":"MA-WR-88","Station_Nam":"LEICESTER 2.5 WSW, MA","Latitude":"42.23742","Longitude":"-71.94612","Snowdepth":"5.500","Units":"in","Rept_Date":"2020-12-07 11"},"coordinates":[7958,4931]},{"type":"Point","properties":{"Station_ID":"MA-WR-75","Station_Nam":"WARREN 2.4 WSW, MA","Latitude":"42.20400","Longitude":"-72.23540","Snowdepth":"5.500","Units":"in","Rept_Date":"2020-12-07 12"},"coordinates":[7866,4913]},{"type":"Point","properties":{"Station_ID":"CAN-ON-5","Station_Nam":"OWEN SOUND 1.5 NW - GSCA, CAN","Latitude":"44.57837","Longitude":"-80.95461","Snowdepth":"5.500","Units":"in","Rept_Date":"2020-12-07 13"},"coordinates":[5102,6181]},{"type":"Point","properties":{"Station_ID":"QTV","Station_Nam":"QTV","Latitude":"49.66000","Longitude":"-69.35690","Snowdepth":"5.433","Units":"in","Rept_Date":"2020-12-07 12"},"coordinates":[8778,8895]},{"type":"Point","properties":{"Station_ID":"KABQ6","Station_Nam":"CAB LAKE","Latitude":"49.59950","Longitude":"-89.17990","Snowdepth":"5.350","Units":"in","Rept_Date":"2020-12-08 06"},"coordinates":[2494,8863]},{"type":"Point","properties":{"Station_ID":"MRL","Station_Nam":"MRL","Latitude":"51.28330","Longitude":"-68.84060","Snowdepth":"5.236","Units":"in","Rept_Date":"2020-12-07 12"},"coordinates":[8942,9762]},{"type":"Point","properties":{"Station_ID":"CAN-ON-620","Station_Nam":"GOODERHAM 3.4 SSW, CAN","Latitude":"44.87690","Longitude":"-78.39265","Snowdepth":"5.200","Units":"in","Rept_Date":"2020-12-07 12"},"coordinates":[5914,6341]},{"type":"Point","properties":{"Station_ID":"TURM1","Station_Nam":"TURNER","Latitude":"44.28220","Longitude":"-70.25610","Snowdepth":"5.000","Units":"in","Rept_Date":"2020-12-07 12"},"coordinates":[8493,6023]},{"type":"Point","properties":{"Station_ID":"TOPM1","Station_Nam":"TOPSFIELD","Latitude":"45.43470","Longitude":"-67.72020","Snowdepth":"5.000","Units":"in","Rept_Date":"2020-12-07 12"},"coordinates":[9297,6639]},{"type":"Point","properties":{"Station_ID":"PTBN3","Station_Nam":"PITTSBURG RESERVOIR","Latitude":"45.04690","Longitude":"-71.38300","Snowdepth":"5.000","Units":"in","Rept_Date":"2020-12-07 12"},"coordinates":[8136,6432]},{"type":"Point","properties":{"Station_ID":"NWSM1","Station_Nam":"NEW SHARON","Latitude":"44.63520","Longitude":"-70.00020","Snowdepth":"5.000","Units":"in","Rept_Date":"2020-12-07 12"},"coordinates":[8575,6212]},{"type":"Point","properties":{"Station_ID":"NH-ST-40","Station_Nam":"BARRINGTON 3.2 E, NH","Latitude":"43.21353","Longitude":"-70.98472","Snowdepth":"5.000","Units":"in","Rept_Date":"2020-12-07 12"},"coordinates":[8262,5452]},{"type":"Point","properties":{"Station_ID":"NH-CR-16","Station_Nam":"WOLFEBORO 0.6 SW, NH","Latitude":"43.58464","Longitude":"-71.21760","Snowdepth":"5.000","Units":"in","Rept_Date":"2020-12-07 12"},"coordinates":[8189,5651]},{"type":"Point","properties":{"Station_ID":"MMNV1","Station_Nam":"MT. MANSFIELD","Latitude":"44.52480","Longitude":"-72.81540","Snowdepth":"5.000","Units":"in","Rept_Date":"2020-12-07 21"},"coordinates":[7682,6153]},{"type":"Point","properties":{"Station_ID":"ME-YK-3","Station_Nam":"HOLLIS CENTER 5.4 NW, ME","Latitude":"43.64750","Longitude":"-70.67510","Snowdepth":"5.000","Units":"in","Rept_Date":"2020-12-07 12"},"coordinates":[8361,5684]},{"type":"Point","properties":{"Station_ID":"ME-AN-32","Station_Nam":"WINTHROP 9.4 W, ME","Latitude":"44.30476","Longitude":"-70.15835","Snowdepth":"5.000","Units":"in","Rept_Date":"2020-12-07 12"},"coordinates":[8524,6035]},{"type":"Point","properties":{"Station_ID":"MA-WR-55","Station_Nam":"HARVARD 2.1 S, MA","Latitude":"42.46891","Longitude":"-71.58360","Snowdepth":"5.000","Units":"in","Rept_Date":"2020-12-07 12"},"coordinates":[8073,5055]},{"type":"Point","properties":{"Station_ID":"LVRM1","Station_Nam":"LIVERMORE FALLS 1 E","Latitude":"44.47160","Longitude":"-70.15940","Snowdepth":"5.000","Units":"in","Rept_Date":"2020-12-07 12"},"coordinates":[8524,6124]},{"type":"Point","properties":{"Station_ID":"LNKM1","Station_Nam":"LINCOLN SANITARY DISTRICT/WTP","Latitude":"45.37520","Longitude":"-68.50820","Snowdepth":"5.000","Units":"in","Rept_Date":"2020-12-07 12"},"coordinates":[9048,6607]},{"type":"Point","properties":{"Station_ID":"KINM1","Station_Nam":"KINGFIELD","Latitude":"44.95950","Longitude":"-70.17530","Snowdepth":"5.000","Units":"in","Rept_Date":"2020-12-07 12"},"coordinates":[8519,6385]},{"type":"Point","properties":{"Station_ID":"JKMM1","Station_Nam":"JACKMAN","Latitude":"45.62600","Longitude":"-70.24600","Snowdepth":"5.000","Units":"in","Rept_Date":"2020-12-07 12"},"coordinates":[8497,6741]},{"type":"Point","properties":{"Station_ID":"JEFN3","Station_Nam":"JEFFERSON","Latitude":"44.41690","Longitude":"-71.50080","Snowdepth":"5.000","Units":"in","Rept_Date":"2020-12-07 12"},"coordinates":[8099,6095]},{"type":"Point","properties":{"Station_ID":"JAPN3","Station_Nam":"JAFFREY SILVER RANCH AIRPARK","Latitude":"42.80880","Longitude":"-72.00530","Snowdepth":"5.000","Units":"in","Rept_Date":"2020-12-07 12"},"coordinates":[7939,5236]},{"type":"Point","properties":{"Station_ID":"HOLM1","Station_Nam":"HOLLIS","Latitude":"43.64750","Longitude":"-70.67490","Snowdepth":"5.000","Units":"in","Rept_Date":"2020-12-07 12"},"coordinates":[8361,5684]},{"type":"Point","properties":{"Station_ID":"DFXM1","Station_Nam":"DOVER-FOXCROFT","Latitude":"45.18720","Longitude":"-69.18350","Snowdepth":"5.000","Units":"in","Rept_Date":"2020-12-07 12"},"coordinates":[8833,6506]},{"type":"Point","properties":{"Station_ID":"CORM1","Station_Nam":"CORINNA","Latitude":"44.91980","Longitude":"-69.24180","Snowdepth":"5.000","Units":"in","Rept_Date":"2020-12-07 15"},"coordinates":[8815,6364]},{"type":"Point","properties":{"Station_ID":"CAN-ON-491","Station_Nam":"MILVERTON 1.1 ESE- CANWARN, CAN","Latitude":"43.56074","Longitude":"-80.90887","Snowdepth":"5.000","Units":"in","Rept_Date":"2020-12-07 11"},"coordinates":[5116,5638]},{"type":"Point","properties":{"Station_ID":"QWG","Station_Nam":"QWG","Latitude":"48.48890","Longitude":"-73.45940","Snowdepth":"4.882","Units":"in","Rept_Date":"2020-12-07 12"},"coordinates":[7478,8270]},{"type":"Point","properties":{"Station_ID":"CATQ6","Station_Nam":"CAT LAKE","Latitude":"51.72690","Longitude":"-91.82210","Snowdepth":"4.760","Units":"in","Rept_Date":"2020-12-08 06"},"coordinates":[1657,9999]},{"type":"Point","properties":{"Station_ID":"SOCQ6","Station_Nam":"SOCKET LAKE","Latitude":"50.77870","Longitude":"-91.79300","Snowdepth":"4.650","Units":"in","Rept_Date":"2020-12-08 06"},"coordinates":[1666,9493]},{"type":"Point","properties":{"Station_ID":"OH-CY-58","Station_Nam":"SOUTH EUCLID 0.2 ESE, OH","Latitude":"41.52358","Longitude":"-81.52191","Snowdepth":"4.600","Units":"in","Rept_Date":"2020-12-07 13"},"coordinates":[4922,4550]},{"type":"Point","properties":{"Station_ID":"41.5236_081.5219","Station_Nam":"South Euclid  Trained Spotter (CLE1186)","Latitude":"41.52356","Longitude":"-81.52192","Snowdepth":"4.600","Units":"in","Rept_Date":"2020-12-07 13"},"coordinates":[4922,4550]},{"type":"Point","properties":{"Station_ID":"NH-MR-25","Station_Nam":"CHICHESTER 2.7 SSW, NH","Latitude":"43.21150","Longitude":"-71.41430","Snowdepth":"4.500","Units":"in","Rept_Date":"2020-12-07 12"},"coordinates":[8126,5451]},{"type":"Point","properties":{"Station_ID":"NH-HL-49","Station_Nam":"MONT VERNON 1.3 SSW, NH","Latitude":"42.87616","Longitude":"-71.68280","Snowdepth":"4.500","Units":"in","Rept_Date":"2020-12-07 12"},"coordinates":[8041,5272]},{"type":"Point","properties":{"Station_ID":"MA-WR-56","Station_Nam":"STERLING 4.3 NW, MA","Latitude":"42.47540","Longitude":"-71.81140","Snowdepth":"4.500","Units":"in","Rept_Date":"2020-12-07 12"},"coordinates":[8000,5058]},{"type":"Point","properties":{"Station_ID":"MA-WR-54","Station_Nam":"BARRE 1.4 NNE, MA","Latitude":"42.44082","Longitude":"-72.09591","Snowdepth":"4.500","Units":"in","Rept_Date":"2020-12-07 12"},"coordinates":[7910,5040]},{"type":"Point","properties":{"Station_ID":"CAN-NB-13","Station_Nam":"BATHURST 3.8 NW, CAN","Latitude":"47.64212","Longitude":"-65.68756","Snowdepth":"4.500","Units":"in","Rept_Date":"2020-12-07 12"},"coordinates":[9942,7818]},{"type":"Point","properties":{"Station_ID":"QLI","Station_Nam":"QLI","Latitude":"50.27080","Longitude":"-73.92280","Snowdepth":"4.409","Units":"in","Rept_Date":"2020-12-07 12"},"coordinates":[7331,9221]},{"type":"Point","properties":{"Station_ID":"SVBQ6","Station_Nam":"SAVANT BASE","Latitude":"50.28730","Longitude":"-90.65670","Snowdepth":"4.370","Units":"in","Rept_Date":"2020-12-08 06"},"coordinates":[2026,9230]},{"type":"Point","properties":{"Station_ID":"MI-BG-3","Station_Nam":"THREE LAKES, MI","Latitude":"46.55730","Longitude":"-88.20770","Snowdepth":"4.300","Units":"in","Rept_Date":"2020-12-07 13"},"coordinates":[2802,7238]},{"type":"Point","properties":{"Station_ID":"ME-CM-54","Station_Nam":"WINDHAM 3.9 NW, ME","Latitude":"43.85787","Longitude":"-70.46200","Snowdepth":"4.200","Units":"in","Rept_Date":"2020-12-07 12"},"coordinates":[8428,5797]},{"type":"Point","properties":{"Station_ID":"WTHM1","Station_Nam":"WINTHROP","Latitude":"44.30650","Longitude":"-69.97010","Snowdepth":"4.000","Units":"in","Rept_Date":"2020-12-07 13"},"coordinates":[8584,6036]},{"type":"Point","properties":{"Station_ID":"WNDM1","Station_Nam":"WINDHAM 2NW","Latitude":"43.85670","Longitude":"-70.46630","Snowdepth":"4.000","Units":"in","Rept_Date":"2020-12-07 12"},"coordinates":[8427,5796]},{"type":"Point","properties":{"Station_ID":"WLFM5","Station_Nam":"WOLF RIDGE ENVIRON LEARNING CENTER","Latitude":"47.38240","Longitude":"-91.19730","Snowdepth":"4.000","Units":"in","Rept_Date":"2020-12-07 13"},"coordinates":[1855,7679]},{"type":"Point","properties":{"Station_ID":"VT-OL-2","Station_Nam":"BARTON 3.0 ENE, VT","Latitude":"44.75863","Longitude":"-72.11680","Snowdepth":"4.000","Units":"in","Rept_Date":"2020-12-07 12"},"coordinates":[7904,6278]},{"type":"Point","properties":{"Station_ID":"STRC3","Station_Nam":"STORRS","Latitude":"41.79510","Longitude":"-72.22850","Snowdepth":"4.000","Units":"in","Rept_Date":"2020-12-07 13"},"coordinates":[7868,4695]},{"type":"Point","properties":{"Station_ID":"SFVC3","Station_Nam":"STAFFORDVILLE","Latitude":"41.99840","Longitude":"-72.26060","Snowdepth":"4.000","Units":"in","Rept_Date":"2020-12-07 10"},"coordinates":[7858,4804]},{"type":"Point","properties":{"Station_ID":"PDLM4","Station_Nam":"PAINESDALE","Latitude":"47.04160","Longitude":"-88.67170","Snowdepth":"4.000","Units":"in","Rept_Date":"2020-12-07 13"},"coordinates":[2655,7497]},{"type":"Point","properties":{"Station_ID":"OH-CY-54","Station_Nam":"SEVEN HILLS 0.6 NNE, OH","Latitude":"41.38811","Longitude":"-81.67098","Snowdepth":"4.000","Units":"in","Rept_Date":"2020-12-07 12"},"coordinates":[4875,4478]},{"type":"Point","properties":{"Station_ID":"NUMN3","Station_Nam":"NORTHUMBERLAND","Latitude":"44.52830","Longitude":"-71.50440","Snowdepth":"4.000","Units":"in","Rept_Date":"2020-12-07 12"},"coordinates":[8098,6155]},{"type":"Point","properties":{"Station_ID":"NPTV1","Station_Nam":"NEWPORT","Latitude":"44.94900","Longitude":"-72.19120","Snowdepth":"4.000","Units":"in","Rept_Date":"2020-12-07 12"},"coordinates":[7880,6379]},{"type":"Point","properties":{"Station_ID":"NH-RC-18","Station_Nam":"DEERFIELD 3.2 WSW, NH","Latitude":"43.13350","Longitude":"-71.27940","Snowdepth":"4.000","Units":"in","Rept_Date":"2020-12-07 12"},"coordinates":[8169,5410]},{"type":"Point","properties":{"Station_ID":"NH-MR-41","Station_Nam":"NEWBURY 1.6 NW, NH","Latitude":"43.33667","Longitude":"-72.06060","Snowdepth":"4.000","Units":"in","Rept_Date":"2020-12-07 12"},"coordinates":[7921,5518]},{"type":"Point","properties":{"Station_ID":"NH-MR-4","Station_Nam":"BOW 1.6 NW, NH","Latitude":"43.14994","Longitude":"-71.55650","Snowdepth":"4.000","Units":"in","Rept_Date":"2020-12-07 12"},"coordinates":[8081,5419]},{"type":"Point","properties":{"Station_ID":"NH-MR-26","Station_Nam":"PITTSFIELD 0.2 SSW, NH","Latitude":"43.29880","Longitude":"-71.33450","Snowdepth":"4.000","Units":"in","Rept_Date":"2020-12-07 13"},"coordinates":[8152,5498]},{"type":"Point","properties":{"Station_ID":"MN-CN-36","Station_Nam":"CLOQUET 3.4 ENE, MN","Latitude":"46.74146","Longitude":"-92.42698","Snowdepth":"4.000","Units":"in","Rept_Date":"2020-12-07 13"},"coordinates":[1465,7337]},{"type":"Point","properties":{"Station_ID":"MHT","Station_Nam":"MANCHESTER AIRPORT GRENIER INDSTRL ARPK","Latitude":"42.93440","Longitude":"-71.43690","Snowdepth":"4.000","Units":"in","Rept_Date":"2020-12-07 12"},"coordinates":[8119,5303]},{"type":"Point","properties":{"Station_ID":"ME-PN-55","Station_Nam":"ORONO 1.1 SSW, ME","Latitude":"44.87005","Longitude":"-68.69446","Snowdepth":"4.000","Units":"in","Rept_Date":"2020-12-07 12"},"coordinates":[8988,6337]},{"type":"Point","properties":{"Station_ID":"ME-FR-4","Station_Nam":"NEW SHARON 2.0 NW, ME","Latitude":"44.66582","Longitude":"-70.02720","Snowdepth":"4.000","Units":"in","Rept_Date":"2020-12-07 12"},"coordinates":[8566,6228]},{"type":"Point","properties":{"Station_ID":"ME-CM-137","Station_Nam":"GRAY 1.5 NE, ME","Latitude":"43.90034","Longitude":"-70.30883","Snowdepth":"4.000","Units":"in","Rept_Date":"2020-12-07 12"},"coordinates":[8477,5819]},{"type":"Point","properties":{"Station_ID":"ME-AN-43","Station_Nam":"LISBON 0.6 S, ME","Latitude":"44.02320","Longitude":"-70.10550","Snowdepth":"4.000","Units":"in","Rept_Date":"2020-12-07 12"},"coordinates":[8541,5885]},{"type":"Point","properties":{"Station_ID":"MA-WR-8","Station_Nam":"FITCHBURG 1.6 SSW, MA","Latitude":"42.56674","Longitude":"-71.82170","Snowdepth":"4.000","Units":"in","Rept_Date":"2020-12-07 11"},"coordinates":[7997,5107]},{"type":"Point","properties":{"Station_ID":"KMHT","Station_Nam":"MANCHESTER AIRPORT","Latitude":"42.93333","Longitude":"-71.43333","Snowdepth":"4.000","Units":"in","Rept_Date":"2020-12-08 00"},"coordinates":[8120,5303]},{"type":"Point","properties":{"Station_ID":"HVJP1","Station_Nam":"HIDDEN VALLEY COOP","Latitude":"40.04200","Longitude":"-79.25660","Snowdepth":"4.000","Units":"in","Rept_Date":"2020-12-07 13"},"coordinates":[5640,3759]},{"type":"Point","properties":{"Station_ID":"HUDN3","Station_Nam":"HUDSON 1 SSE","Latitude":"42.78300","Longitude":"-71.41480","Snowdepth":"4.000","Units":"in","Rept_Date":"2020-12-07 12"},"coordinates":[8126,5223]},{"type":"Point","properties":{"Station_ID":"HGHN6","Station_Nam":"HIGHMARKET","Latitude":"43.60510","Longitude":"-75.55430","Snowdepth":"4.000","Units":"in","Rept_Date":"2020-12-07 11"},"coordinates":[6814,5662]},{"type":"Point","properties":{"Station_ID":"GYX","Station_Nam":"PORTLAND, ME","Latitude":"43.89250","Longitude":"-70.25500","Snowdepth":"4.000","Units":"in","Rept_Date":"2020-12-07 12"},"coordinates":[8494,5815]},{"type":"Point","properties":{"Station_ID":"GREN3","Station_Nam":"GREENVILLE 1 NNE","Latitude":"42.78270","Longitude":"-71.79850","Snowdepth":"4.000","Units":"in","Rept_Date":"2020-12-07 12"},"coordinates":[8004,5222]},{"type":"Point","properties":{"Station_ID":"FCHM3","Station_Nam":"FITCHBURG COOP","Latitude":"42.61680","Longitude":"-71.80170","Snowdepth":"4.000","Units":"in","Rept_Date":"2020-12-07 13"},"coordinates":[8003,5134]},{"type":"Point","properties":{"Station_ID":"FARM1","Station_Nam":"FARMINGTON","Latitude":"44.68930","Longitude":"-70.15640","Snowdepth":"4.000","Units":"in","Rept_Date":"2020-12-07 12"},"coordinates":[8525,6241]},{"type":"Point","properties":{"Station_ID":"EHYM3","Station_Nam":"EAST HAWLEY","Latitude":"42.57410","Longitude":"-72.86790","Snowdepth":"4.000","Units":"in","Rept_Date":"2020-12-07 13"},"coordinates":[7665,5111]},{"type":"Point","properties":{"Station_ID":"EBRM3","Station_Nam":"EAST BRIMFIELD LAKE","Latitude":"42.11030","Longitude":"-72.12690","Snowdepth":"4.000","Units":"in","Rept_Date":"2020-12-07 12"},"coordinates":[7900,4863]},{"type":"Point","properties":{"Station_ID":"DURM1","Station_Nam":"DURHAM","Latitude":"43.99960","Longitude":"-70.09630","Snowdepth":"4.000","Units":"in","Rept_Date":"2020-12-07 12"},"coordinates":[8544,5872]},{"type":"Point","properties":{"Station_ID":"DHMM1","Station_Nam":"DEDHAM","Latitude":"44.67880","Longitude":"-68.63560","Snowdepth":"4.000","Units":"in","Rept_Date":"2020-12-07 12"},"coordinates":[9007,6235]},{"type":"Point","properties":{"Station_ID":"CT-TL-2","Station_Nam":"STAFFORDVILLE 0.4 NNW, CT","Latitude":"41.99874","Longitude":"-72.26100","Snowdepth":"4.000","Units":"in","Rept_Date":"2020-12-07 10"},"coordinates":[7858,4804]},{"type":"Point","properties":{"Station_ID":"CAN-ON-451","Station_Nam":"OWEN SOUND 1.2 N - GSCA, CAN","Latitude":"44.58092","Longitude":"-80.93025","Snowdepth":"4.000","Units":"in","Rept_Date":"2020-12-07 13"},"coordinates":[5109,6183]},{"type":"Point","properties":{"Station_ID":"BETM1","Station_Nam":"BETHEL 6 SSE","Latitude":"44.32000","Longitude":"-70.75680","Snowdepth":"4.000","Units":"in","Rept_Date":"2020-12-07 12"},"coordinates":[8335,6043]},{"type":"Point","properties":{"Station_ID":"QWE","Station_Nam":"QWE","Latitude":"47.84610","Longitude":"-73.80670","Snowdepth":"3.504","Units":"in","Rept_Date":"2020-12-07 12"},"coordinates":[7368,7926]},{"type":"Point","properties":{"Station_ID":"VT-OL-24","Station_Nam":"DERBY LINE 1.9 W, VT","Latitude":"45.00454","Longitude":"-72.14170","Snowdepth":"3.500","Units":"in","Rept_Date":"2020-12-07 12"},"coordinates":[7896,6409]},{"type":"Point","properties":{"Station_ID":"OH-ER-5","Station_Nam":"WAKEMAN 4.6 NNE, OH","Latitude":"41.31902","Longitude":"-82.37730","Snowdepth":"3.500","Units":"in","Rept_Date":"2020-12-07 13"},"coordinates":[4651,4441]},{"type":"Point","properties":{"Station_ID":"NH-RC-79","Station_Nam":"NOTTINGHAM 1.2 S, NH","Latitude":"43.09778","Longitude":"-71.10256","Snowdepth":"3.500","Units":"in","Rept_Date":"2020-12-07 13"},"coordinates":[8225,5391]},{"type":"Point","properties":{"Station_ID":"ME-AN-41","Station_Nam":"AUBURN 2.1 NNW, ME","Latitude":"44.11275","Longitude":"-70.26452","Snowdepth":"3.500","Units":"in","Rept_Date":"2020-12-07 12"},"coordinates":[8491,5933]},{"type":"Point","properties":{"Station_ID":"MA-WR-58","Station_Nam":"LUNENBURG 0.6 NE, MA","Latitude":"42.60180","Longitude":"-71.71653","Snowdepth":"3.500","Units":"in","Rept_Date":"2020-12-07 13"},"coordinates":[8030,5126]},{"type":"Point","properties":{"Station_ID":"MA-WR-41","Station_Nam":"AUBURN 2.6 SW, MA","Latitude":"42.17336","Longitude":"-71.86869","Snowdepth":"3.500","Units":"in","Rept_Date":"2020-12-07 13"},"coordinates":[7982,4897]},{"type":"Point","properties":{"Station_ID":"MA-MD-115","Station_Nam":"HUDSON 1.4 NW, MA","Latitude":"42.40372","Longitude":"-71.58680","Snowdepth":"3.500","Units":"in","Rept_Date":"2020-12-07 12"},"coordinates":[8072,5020]},{"type":"Point","properties":{"Station_ID":"CT-TL-33","Station_Nam":"TOLLAND 3.6 NNE, CT","Latitude":"41.91859","Longitude":"-72.33910","Snowdepth":"3.500","Units":"in","Rept_Date":"2020-12-07 12"},"coordinates":[7833,4761]},{"type":"Point","properties":{"Station_ID":"CAN-MB-32","Station_Nam":"PINAWA 1.0 SW, CA","Latitude":"50.14747","Longitude":"-95.89020","Snowdepth":"3.500","Units":"in","Rept_Date":"2020-12-07 13"},"coordinates":[367,9156]},{"type":"Point","properties":{"Station_ID":"CAN-MB-368","Station_Nam":"WHITESHELL 1.3 NE, CAN","Latitude":"49.74405","Longitude":"-95.19123","Snowdepth":"3.300","Units":"in","Rept_Date":"2020-12-07 14"},"coordinates":[588,8940]},{"type":"Point","properties":{"Station_ID":"MA-MD-104","Station_Nam":"LITTLETON 2.8 NNW, MA","Latitude":"42.57170","Longitude":"-71.49910","Snowdepth":"3.200","Units":"in","Rept_Date":"2020-12-07 12"},"coordinates":[8099,5110]},{"type":"Point","properties":{"Station_ID":"ZBWN3","Station_Nam":"NASHUA CWSU","Latitude":"42.73440","Longitude":"-71.48030","Snowdepth":"3.000","Units":"in","Rept_Date":"2020-12-07 13"},"coordinates":[8105,5197]},{"type":"Point","properties":{"Station_ID":"WHPN3","Station_Nam":"HOPKINTON LAKE","Latitude":"43.18900","Longitude":"-71.74600","Snowdepth":"3.000","Units":"in","Rept_Date":"2020-12-07 12"},"coordinates":[8021,5439]},{"type":"Point","properties":{"Station_ID":"WENN3","Station_Nam":"P.O. BOX 197 WENTWORTH, NH","Latitude":"43.95190","Longitude":"-71.91560","Snowdepth":"3.000","Units":"in","Rept_Date":"2020-12-07 12"},"coordinates":[7967,5847]},{"type":"Point","properties":{"Station_ID":"VT-OL-9","Station_Nam":"GREENSBORO 2.1 NNW, VT","Latitude":"44.60528","Longitude":"-72.30940","Snowdepth":"3.000","Units":"in","Rept_Date":"2020-12-07 12"},"coordinates":[7842,6196]},{"type":"Point","properties":{"Station_ID":"VT-OL-12","Station_Nam":"GREENSBORO 3.9 NNE, VT","Latitude":"44.63100","Longitude":"-72.28000","Snowdepth":"3.000","Units":"in","Rept_Date":"2020-12-07 14"},"coordinates":[7852,6209]},{"type":"Point","properties":{"Station_ID":"VT-BN-12","Station_Nam":"STAMFORD 5.0 NNE, VT","Latitude":"42.82000","Longitude":"-73.02000","Snowdepth":"3.000","Units":"in","Rept_Date":"2020-12-07 21"},"coordinates":[7617,5242]},{"type":"Point","properties":{"Station_ID":"SNOW2","Station_Nam":"SNOWSHOE","Latitude":"38.39900","Longitude":"-79.99490","Snowdepth":"3.000","Units":"in","Rept_Date":"2020-12-07 12"},"coordinates":[5406,2881]},{"type":"Point","properties":{"Station_ID":"SBRM3","Station_Nam":"SOUTHBRIDGE","Latitude":"42.05830","Longitude":"-72.07210","Snowdepth":"3.000","Units":"in","Rept_Date":"2020-12-07 12"},"coordinates":[7918,4836]},{"type":"Point","properties":{"Station_ID":"SBOP1","Station_Nam":"SPRINGBORO","Latitude":"41.81660","Longitude":"-80.43330","Snowdepth":"3.000","Units":"in","Rept_Date":"2020-12-07 12"},"coordinates":[5267,4706]},{"type":"Point","properties":{"Station_ID":"PA-CW-8","Station_Nam":"SPRINGBORO 3.0 WNW, PA","Latitude":"41.81654","Longitude":"-80.42540","Snowdepth":"3.000","Units":"in","Rept_Date":"2020-12-07 12"},"coordinates":[5270,4706]},{"type":"Point","properties":{"Station_ID":"PA-CW-18","Station_Nam":"CONNEAUT LAKE 1.3 WNW, PA","Latitude":"41.60816","Longitude":"-80.33371","Snowdepth":"3.000","Units":"in","Rept_Date":"2020-12-07 12"},"coordinates":[5299,4595]},{"type":"Point","properties":{"Station_ID":"OH-LR-25","Station_Nam":"NORTH RIDGEVILLE 2.5 NE, OH","Latitude":"41.41550","Longitude":"-81.98440","Snowdepth":"3.000","Units":"in","Rept_Date":"2020-12-07 12"},"coordinates":[4775,4492]},{"type":"Point","properties":{"Station_ID":"OH-CY-39","Station_Nam":"WESTLAKE 0.5 SSW, OH","Latitude":"41.44795","Longitude":"-81.93260","Snowdepth":"3.000","Units":"in","Rept_Date":"2020-12-07 13"},"coordinates":[4792,4510]},{"type":"Point","properties":{"Station_ID":"NH-HL-25","Station_Nam":"AMHERST 3.7 NNE, NH","Latitude":"42.91409","Longitude":"-71.61020","Snowdepth":"3.000","Units":"in","Rept_Date":"2020-12-07 12"},"coordinates":[8064,5293]},{"type":"Point","properties":{"Station_ID":"NH-CR-15","Station_Nam":"JACKSON 3.7 NW, NH","Latitude":"44.19069","Longitude":"-71.22598","Snowdepth":"3.000","Units":"in","Rept_Date":"2020-12-07 12"},"coordinates":[8186,5974]},{"type":"Point","properties":{"Station_ID":"MRLV1","Station_Nam":"MARLBORO","Latitude":"42.86000","Longitude":"-72.72000","Snowdepth":"3.000","Units":"in","Rept_Date":"2020-12-07 12"},"coordinates":[7712,5264]},{"type":"Point","properties":{"Station_ID":"MN-LK-4","Station_Nam":"TWO HARBORS 3.6 WNW, MN","Latitude":"47.04118","Longitude":"-91.75280","Snowdepth":"3.000","Units":"in","Rept_Date":"2020-12-07 13"},"coordinates":[1679,7497]},{"type":"Point","properties":{"Station_ID":"MN-CK-18","Station_Nam":"GRAND MARAIS 4.4 WSW, MN","Latitude":"47.74462","Longitude":"-90.43796","Snowdepth":"3.000","Units":"in","Rept_Date":"2020-12-07 13"},"coordinates":[2095,7872]},{"type":"Point","properties":{"Station_ID":"MI-KW-2","Station_Nam":"DELAWARE 5.2 SW, MI","Latitude":"47.36928","Longitude":"-88.17919","Snowdepth":"3.000","Units":"in","Rept_Date":"2020-12-07 09"},"coordinates":[2811,7672]},{"type":"Point","properties":{"Station_ID":"MI-HG-20","Station_Nam":"CALUMET 1.1 SSW, MI","Latitude":"47.23165","Longitude":"-88.45823","Snowdepth":"3.000","Units":"in","Rept_Date":"2020-12-07 11"},"coordinates":[2723,7598]},{"type":"Point","properties":{"Station_ID":"ME-YK-65","Station_Nam":"NORTH BERWICK 5.3 W, ME","Latitude":"43.29801","Longitude":"-70.83956","Snowdepth":"3.000","Units":"in","Rept_Date":"2020-12-07 14"},"coordinates":[8308,5498]},{"type":"Point","properties":{"Station_ID":"ME-WL-12","Station_Nam":"SEARSMONT 3.5 WNW, ME","Latitude":"44.37680","Longitude":"-69.26160","Snowdepth":"3.000","Units":"in","Rept_Date":"2020-12-07 12"},"coordinates":[8809,6074]},{"type":"Point","properties":{"Station_ID":"ME-KX-12","Station_Nam":"UNION 3.0 W, ME","Latitude":"44.21320","Longitude":"-69.34160","Snowdepth":"3.000","Units":"in","Rept_Date":"2020-12-07 10"},"coordinates":[8783,5986]},{"type":"Point","properties":{"Station_ID":"ME-CM-86","Station_Nam":"POWNAL 4.1 S, ME","Latitude":"43.85370","Longitude":"-70.17210","Snowdepth":"3.000","Units":"in","Rept_Date":"2020-12-07 12"},"coordinates":[8520,5794]},{"type":"Point","properties":{"Station_ID":"ME-CM-3","Station_Nam":"NEW GLOUCESTER 3.0 SE, ME","Latitude":"43.92372","Longitude":"-70.25790","Snowdepth":"3.000","Units":"in","Rept_Date":"2020-12-07 12"},"coordinates":[8493,5832]},{"type":"Point","properties":{"Station_ID":"MA-MD-42","Station_Nam":"HOLLISTON 0.8 S, MA","Latitude":"42.18820","Longitude":"-71.43390","Snowdepth":"3.000","Units":"in","Rept_Date":"2020-12-07 12"},"coordinates":[8120,4905]},{"type":"Point","properties":{"Station_ID":"LAUP1","Station_Nam":"1.5MI S OF RT 30 ON SMIT (LAUREL RIDGE)","Latitude":"40.05000","Longitude":"-79.22060","Snowdepth":"3.000","Units":"in","Rept_Date":"2020-12-07 12"},"coordinates":[5651,3763]},{"type":"Point","properties":{"Station_ID":"HUBN3","Station_Nam":"HUBBARD BROOK","Latitude":"43.93330","Longitude":"-71.71670","Snowdepth":"3.000","Units":"in","Rept_Date":"2020-12-08 05"},"coordinates":[8030,5837]},{"type":"Point","properties":{"Station_ID":"HERM4","Station_Nam":"HERMAN,MI","Latitude":"46.65000","Longitude":"-88.33330","Snowdepth":"3.000","Units":"in","Rept_Date":"2020-12-07 13"},"coordinates":[2763,7288]},{"type":"Point","properties":{"Station_ID":"HCKN3","Station_Nam":"HANCOCK","Latitude":"42.96940","Longitude":"-71.95290","Snowdepth":"3.000","Units":"in","Rept_Date":"2020-12-07 12"},"coordinates":[7955,5322]},{"type":"Point","properties":{"Station_ID":"GRVW2","Station_Nam":"GREENVILLE 1 SE","Latitude":"37.53750","Longitude":"-80.66330","Snowdepth":"3.000","Units":"in","Rept_Date":"2020-12-07 12"},"coordinates":[5194,2421]},{"type":"Point","properties":{"Station_ID":"DLHM5","Station_Nam":"DULUTH NWS","Latitude":"46.83680","Longitude":"-92.21080","Snowdepth":"3.000","Units":"in","Rept_Date":"2020-12-08 06"},"coordinates":[1533,7387]},{"type":"Point","properties":{"Station_ID":"DLH","Station_Nam":"DULUTH, MN","Latitude":"46.83690","Longitude":"-92.21030","Snowdepth":"3.000","Units":"in","Rept_Date":"2020-12-08 00"},"coordinates":[1533,7388]},{"type":"Point","properties":{"Station_ID":"CT-TL-18","Station_Nam":"HEBRON 5.3 NW, CT","Latitude":"41.71960","Longitude":"-72.43120","Snowdepth":"3.000","Units":"in","Rept_Date":"2020-12-07 12"},"coordinates":[7804,4655]},{"type":"Point","properties":{"Station_ID":"CON","Station_Nam":"CONCORD MUNI ARPT","Latitude":"43.20280","Longitude":"-71.50220","Snowdepth":"3.000","Units":"in","Rept_Date":"2020-12-07 12"},"coordinates":[8098,5447]},{"type":"Point","properties":{"Station_ID":"COKM5","Station_Nam":"COOK","Latitude":"47.85060","Longitude":"-92.69250","Snowdepth":"3.000","Units":"in","Rept_Date":"2020-12-07 12"},"coordinates":[1381,7929]},{"type":"Point","properties":{"Station_ID":"BRMM5","Station_Nam":"BRIMSON 2S","Latitude":"47.24720","Longitude":"-91.86240","Snowdepth":"3.000","Units":"in","Rept_Date":"2020-12-08 01"},"coordinates":[1644,7607]},{"type":"Point","properties":{"Station_ID":"BNDM5","Station_Nam":"ELY 25E","Latitude":"47.97190","Longitude":"-91.44860","Snowdepth":"3.000","Units":"in","Rept_Date":"2020-12-07 13"},"coordinates":[1775,7994]},{"type":"Point","properties":{"Station_ID":"BKBW2","Station_Nam":"DAVIS.","Latitude":"39.09830","Longitude":"-79.43190","Snowdepth":"3.000","Units":"in","Rept_Date":"2020-12-07 12"},"coordinates":[5585,3255]},{"type":"Point","properties":{"Station_ID":"BIRM3","Station_Nam":"BIRCH HILL DAM","Latitude":"42.63240","Longitude":"-72.12270","Snowdepth":"3.000","Units":"in","Rept_Date":"2020-12-07 12"},"coordinates":[7902,5142]},{"type":"Point","properties":{"Station_ID":"BGBM4","Station_Nam":"BIG BAY 1NW","Latitude":"46.83250","Longitude":"-87.75040","Snowdepth":"3.000","Units":"in","Rept_Date":"2020-12-07 13"},"coordinates":[2947,7385]},{"type":"Point","properties":{"Station_ID":"41.8166_080.4333","Station_Nam":"3 WNW Springboro  Co-Op Observer (SBOP1)","Latitude":"41.81660","Longitude":"-80.43330","Snowdepth":"3.000","Units":"in","Rept_Date":"2020-12-07 12"},"coordinates":[5267,4706]},{"type":"Point","properties":{"Station_ID":"41.4480_081.9326","Station_Nam":"1 SSW Westlake  CoCoRaHS (OH-CY-39)","Latitude":"41.44800","Longitude":"-81.93260","Snowdepth":"3.000","Units":"in","Rept_Date":"2020-12-07 13"},"coordinates":[4792,4510]},{"type":"Point","properties":{"Station_ID":"QLP","Station_Nam":"QLP","Latitude":"48.13920","Longitude":"-72.63830","Snowdepth":"2.913","Units":"in","Rept_Date":"2020-12-07 12"},"coordinates":[7738,8083]},{"type":"Point","properties":{"Station_ID":"CAN-ON-784","Station_Nam":"KOMOKA 3.1 W, CAN","Latitude":"42.96000","Longitude":"-81.43805","Snowdepth":"2.600","Units":"in","Rept_Date":"2020-12-07 13"},"coordinates":[4949,5317]},{"type":"Point","properties":{"Station_ID":"CAN-ON-771","Station_Nam":"KENORA 8.7 NNE - CANWARN, CAN","Latitude":"49.84171","Longitude":"-94.44386","Snowdepth":"2.600","Units":"in","Rept_Date":"2020-12-07 13"},"coordinates":[825,8992]},{"type":"Point","properties":{"Station_ID":"VT-OL-25","Station_Nam":"NEWPORT 1.5 WSW, VT","Latitude":"44.93059","Longitude":"-72.23731","Snowdepth":"2.500","Units":"in","Rept_Date":"2020-12-07 12"},"coordinates":[7865,6369]},{"type":"Point","properties":{"Station_ID":"OH-LR-8","Station_Nam":"ELYRIA 0.4 SE, OH","Latitude":"41.37628","Longitude":"-82.09920","Snowdepth":"2.500","Units":"in","Rept_Date":"2020-12-07 13"},"coordinates":[4739,4471]},{"type":"Point","properties":{"Station_ID":"OH-CY-24","Station_Nam":"PARMA 1.9 NNW, OH","Latitude":"41.40881","Longitude":"-81.74480","Snowdepth":"2.500","Units":"in","Rept_Date":"2020-12-07 13"},"coordinates":[4851,4489]},{"type":"Point","properties":{"Station_ID":"NH-MR-9","Station_Nam":"CONCORD 3.8 SSE, NH","Latitude":"43.18482","Longitude":"-71.51860","Snowdepth":"2.500","Units":"in","Rept_Date":"2020-12-07 12"},"coordinates":[8093,5437]},{"type":"Point","properties":{"Station_ID":"NH-BK-1","Station_Nam":"TILTON NORTHFIELD 3.3 NE, NH","Latitude":"43.48000","Longitude":"-71.55000","Snowdepth":"2.500","Units":"in","Rept_Date":"2020-12-07 12"},"coordinates":[8083,5595]},{"type":"Point","properties":{"Station_ID":"MN-SL-143","Station_Nam":"CANYON 4.6 NNE, MN","Latitude":"47.09800","Longitude":"-92.42170","Snowdepth":"2.500","Units":"in","Rept_Date":"2020-12-07 12"},"coordinates":[1466,7527]},{"type":"Point","properties":{"Station_ID":"ME-YK-5","Station_Nam":"KENNEBUNK 1.8 WNW, ME","Latitude":"43.39320","Longitude":"-70.58060","Snowdepth":"2.500","Units":"in","Rept_Date":"2020-12-07 12"},"coordinates":[8391,5548]},{"type":"Point","properties":{"Station_ID":"ME-LN-4","Station_Nam":"DRESDEN 1.5 NW, ME","Latitude":"44.10540","Longitude":"-69.74060","Snowdepth":"2.500","Units":"in","Rept_Date":"2020-12-07 12"},"coordinates":[8657,5929]},{"type":"Point","properties":{"Station_ID":"ME-CM-143","Station_Nam":"PORTLAND 5.4 NW, ME","Latitude":"43.72010","Longitude":"-70.28710","Snowdepth":"2.500","Units":"in","Rept_Date":"2020-12-07 12"},"coordinates":[8484,5723]},{"type":"Point","properties":{"Station_ID":"MA-MD-12","Station_Nam":"ACTON 1.3 SW, MA","Latitude":"42.46746","Longitude":"-71.48200","Snowdepth":"2.500","Units":"in","Rept_Date":"2020-12-07 12"},"coordinates":[8105,5054]},{"type":"Point","properties":{"Station_ID":"MA-ES-48","Station_Nam":"ANDOVER 0.6 E, MA","Latitude":"42.65659","Longitude":"-71.13048","Snowdepth":"2.500","Units":"in","Rept_Date":"2020-12-07 10"},"coordinates":[8216,5155]},{"type":"Point","properties":{"Station_ID":"CAN-NB-18","Station_Nam":"MCLEOD HILL 1.1 ENE, CA","Latitude":"46.02725","Longitude":"-66.67460","Snowdepth":"2.500","Units":"in","Rept_Date":"2020-12-07 12"},"coordinates":[9629,6955]},{"type":"Point","properties":{"Station_ID":"41.4088_081.7448","Station_Nam":"2 NNW Parma  CoCoRaHS (OH-CY-24)","Latitude":"41.40880","Longitude":"-81.74480","Snowdepth":"2.500","Units":"in","Rept_Date":"2020-12-07 13"},"coordinates":[4851,4489]},{"type":"Point","properties":{"Station_ID":"CAN-ON-86","Station_Nam":"GUELPH 5.1 S - CANWARN, CAN","Latitude":"43.49691","Longitude":"-80.24385","Snowdepth":"2.400","Units":"in","Rept_Date":"2020-12-07 12"},"coordinates":[5327,5604]},{"type":"Point","properties":{"Station_ID":"CAN-NB-64","Station_Nam":"KESWICK RIDGE 4.0 SE, CAN","Latitude":"45.97014","Longitude":"-66.85538","Snowdepth":"2.400","Units":"in","Rept_Date":"2020-12-07 12"},"coordinates":[9572,6925]},{"type":"Point","properties":{"Station_ID":"ME-LN-13","Station_Nam":"WALDOBORO 1.5 NNE, ME","Latitude":"44.11481","Longitude":"-69.36644","Snowdepth":"2.300","Units":"in","Rept_Date":"2020-12-07 13"},"coordinates":[8775,5934]},{"type":"Point","properties":{"Station_ID":"NH-MR-55","Station_Nam":"CANTERBURY 2.5 SSW, NH","Latitude":"43.30277","Longitude":"-71.57893","Snowdepth":"2.200","Units":"in","Rept_Date":"2020-12-07 12"},"coordinates":[8074,5500]},{"type":"Point","properties":{"Station_ID":"WV-MR-2","Station_Nam":"ALDERSON 0.8 SSW, WV","Latitude":"37.71530","Longitude":"-80.64810","Snowdepth":"2.000","Units":"in","Rept_Date":"2020-12-07 12"},"coordinates":[5199,2516]},{"type":"Point","properties":{"Station_ID":"WV-KN-21","Station_Nam":"CHARLESTON 3.9 WSW, WV","Latitude":"38.33350","Longitude":"-81.69870","Snowdepth":"2.000","Units":"in","Rept_Date":"2020-12-07 12"},"coordinates":[4866,2846]},{"type":"Point","properties":{"Station_ID":"WV-GB-6","Station_Nam":"LEWISBURG 1.7 W, WV","Latitude":"37.81292","Longitude":"-80.46192","Snowdepth":"2.000","Units":"in","Rept_Date":"2020-12-07 13"},"coordinates":[5258,2568]},{"type":"Point","properties":{"Station_ID":"WSUW2","Station_Nam":"WHITE SULPHUR SPRINGS","Latitude":"37.78890","Longitude":"-80.30830","Snowdepth":"2.000","Units":"in","Rept_Date":"2020-12-07 12"},"coordinates":[5307,2555]},{"type":"Point","properties":{"Station_ID":"WRSM5","Station_Nam":"WRENSHALL","Latitude":"46.61550","Longitude":"-92.38380","Snowdepth":"2.000","Units":"in","Rept_Date":"2020-12-07 14"},"coordinates":[1478,7269]},{"type":"Point","properties":{"Station_ID":"WORV1","Station_Nam":"WORCESTER 2 W","Latitude":"44.37470","Longitude":"-72.58220","Snowdepth":"2.000","Units":"in","Rept_Date":"2020-12-07 12"},"coordinates":[7756,6073]},{"type":"Point","properties":{"Station_ID":"WI-VL-9","Station_Nam":"LAND O' LAKES 11.7 W, WI","Latitude":"46.19023","Longitude":"-89.45790","Snowdepth":"2.000","Units":"in","Rept_Date":"2020-12-07 13"},"coordinates":[2406,7042]},{"type":"Point","properties":{"Station_ID":"VT-WR-17","Station_Nam":"ROCHESTER 2.3 NE, VT","Latitude":"43.89418","Longitude":"-72.76992","Snowdepth":"2.000","Units":"in","Rept_Date":"2020-12-07 12"},"coordinates":[7696,5816]},{"type":"Point","properties":{"Station_ID":"VT-OL-1","Station_Nam":"WESTFIELD 0.7 WNW, VT","Latitude":"44.89160","Longitude":"-72.44350","Snowdepth":"2.000","Units":"in","Rept_Date":"2020-12-07 12"},"coordinates":[7800,6349]},{"type":"Point","properties":{"Station_ID":"VT-LM-1","Station_Nam":"STOWE 0.2 SW, VT","Latitude":"44.46399","Longitude":"-72.69070","Snowdepth":"2.000","Units":"in","Rept_Date":"2020-12-07 12"},"coordinates":[7722,6120]},{"type":"Point","properties":{"Station_ID":"VT-ES-3","Station_Nam":"LUNENBURG 2.3 NNW, VT","Latitude":"44.49324","Longitude":"-71.70446","Snowdepth":"2.000","Units":"in","Rept_Date":"2020-12-07 11"},"coordinates":[8034,6136]},{"type":"Point","properties":{"Station_ID":"VT-CL-14","Station_Nam":"LYNDONVILLE 1.1 W, VT","Latitude":"44.53582","Longitude":"-72.02867","Snowdepth":"2.000","Units":"in","Rept_Date":"2020-12-07 12"},"coordinates":[7931,6159]},{"type":"Point","properties":{"Station_ID":"VT-BN-3","Station_Nam":"LANDGROVE 1.1 NNE, VT","Latitude":"43.29092","Longitude":"-72.83260","Snowdepth":"2.000","Units":"in","Rept_Date":"2020-12-07 12"},"coordinates":[7677,5494]},{"type":"Point","properties":{"Station_ID":"SUTV1","Station_Nam":"SUTTON","Latitude":"44.61220","Longitude":"-72.04810","Snowdepth":"2.000","Units":"in","Rept_Date":"2020-12-07 13"},"coordinates":[7925,6199]},{"type":"Point","properties":{"Station_ID":"SUMW2","Station_Nam":"SUMMERSVILLE LAKE","Latitude":"38.22010","Longitude":"-80.89380","Snowdepth":"2.000","Units":"in","Rept_Date":"2020-12-07 12"},"coordinates":[5121,2786]},{"type":"Point","properties":{"Station_ID":"RLWM5","Station_Nam":"CAMP NORRIS DNR","Latitude":"48.61000","Longitude":"-95.18170","Snowdepth":"2.000","Units":"in","Rept_Date":"2020-12-07 13"},"coordinates":[592,8334]},{"type":"Point","properties":{"Station_ID":"QNCM4","Station_Nam":"QUINCY HILL","Latitude":"47.13640","Longitude":"-88.57950","Snowdepth":"2.000","Units":"in","Rept_Date":"2020-12-07 12"},"coordinates":[2685,7547]},{"type":"Point","properties":{"Station_ID":"PWM","Station_Nam":"RESIDUAL OFFICE TO PORTLAND WSFO (GYX)","Latitude":"43.64610","Longitude":"-70.30920","Snowdepth":"2.000","Units":"in","Rept_Date":"2020-12-07 12"},"coordinates":[8477,5683]},{"type":"Point","properties":{"Station_ID":"PRGN6","Station_Nam":"PERRYSBURG","Latitude":"42.46470","Longitude":"-79.00310","Snowdepth":"2.000","Units":"in","Rept_Date":"2020-12-07 12"},"coordinates":[5720,5053]},{"type":"Point","properties":{"Station_ID":"PDGM4","Station_Nam":"PAULDING","Latitude":"46.39760","Longitude":"-89.17940","Snowdepth":"2.000","Units":"in","Rept_Date":"2020-12-07 14"},"coordinates":[2494,7153]},{"type":"Point","properties":{"Station_ID":"OXFM3","Station_Nam":"BUFFUMVILLE LAKE","Latitude":"42.11630","Longitude":"-71.90740","Snowdepth":"2.000","Units":"in","Rept_Date":"2020-12-07 12"},"coordinates":[7970,4866]},{"type":"Point","properties":{"Station_ID":"OH-MD-2","Station_Nam":"BRUNSWICK 0.5 NE, OH","Latitude":"41.24980","Longitude":"-81.81330","Snowdepth":"2.000","Units":"in","Rept_Date":"2020-12-07 12"},"coordinates":[4830,4404]},{"type":"Point","properties":{"Station_ID":"OH-CY-14","Station_Nam":"CLEVELAND 7.0 SW, OH","Latitude":"41.45224","Longitude":"-81.81475","Snowdepth":"2.000","Units":"in","Rept_Date":"2020-12-08 03"},"coordinates":[4829,4512]},{"type":"Point","properties":{"Station_ID":"NY-TM-18","Station_Nam":"EAST ITHACA 4.7 E, NY","Latitude":"42.41910","Longitude":"-76.37330","Snowdepth":"2.000","Units":"in","Rept_Date":"2020-12-07 12"},"coordinates":[6554,5028]},{"type":"Point","properties":{"Station_ID":"NORV2","Station_Nam":"NORA 4 SSE","Latitude":"37.01560","Longitude":"-82.32140","Snowdepth":"2.000","Units":"in","Rept_Date":"2020-12-07 12"},"coordinates":[4668,2142]},{"type":"Point","properties":{"Station_ID":"NH-CS-7","Station_Nam":"LANCASTER 0.5 N, NH","Latitude":"44.49611","Longitude":"-71.57640","Snowdepth":"2.000","Units":"in","Rept_Date":"2020-12-07 12"},"coordinates":[8075,6137]},{"type":"Point","properties":{"Station_ID":"NFKC3","Station_Nam":"NORFOLK","Latitude":"41.97250","Longitude":"-73.22080","Snowdepth":"2.000","Units":"in","Rept_Date":"2020-12-07 13"},"coordinates":[7554,4790]},{"type":"Point","properties":{"Station_ID":"NEWN3","Station_Nam":"NEWPORT","Latitude":"43.37720","Longitude":"-72.18120","Snowdepth":"2.000","Units":"in","Rept_Date":"2020-12-07 12"},"coordinates":[7883,5540]},{"type":"Point","properties":{"Station_ID":"MIEM4","Station_Nam":"MICHIGAMME 3WNW","Latitude":"46.54530","Longitude":"-88.18000","Snowdepth":"2.000","Units":"in","Rept_Date":"2020-12-07 13"},"coordinates":[2811,7232]},{"type":"Point","properties":{"Station_ID":"ME-YK-52","Station_Nam":"YORK 5.2 N, ME","Latitude":"43.23585","Longitude":"-70.63400","Snowdepth":"2.000","Units":"in","Rept_Date":"2020-12-07 12"},"coordinates":[8374,5464]},{"type":"Point","properties":{"Station_ID":"ME-SM-10","Station_Nam":"NORTH NEW PORTLAND 0.3 WSW, ME","Latitude":"44.92353","Longitude":"-70.02788","Snowdepth":"2.000","Units":"in","Rept_Date":"2020-12-07 12"},"coordinates":[8566,6366]},{"type":"Point","properties":{"Station_ID":"ME-LN-1","Station_Nam":"NEWCASTLE 2.1 SW, ME","Latitude":"44.02767","Longitude":"-69.56860","Snowdepth":"2.000","Units":"in","Rept_Date":"2020-12-07 12"},"coordinates":[8711,5887]},{"type":"Point","properties":{"Station_ID":"ME-KX-6","Station_Nam":"UNION 3.0 NW, ME","Latitude":"44.24435","Longitude":"-69.31540","Snowdepth":"2.000","Units":"in","Rept_Date":"2020-12-07 12"},"coordinates":[8792,6003]},{"type":"Point","properties":{"Station_ID":"ME-CM-18","Station_Nam":"PORTLAND 5.5 WNW, ME","Latitude":"43.70288","Longitude":"-70.30550","Snowdepth":"2.000","Units":"in","Rept_Date":"2020-12-07 12"},"coordinates":[8478,5714]},{"type":"Point","properties":{"Station_ID":"ME-CM-138","Station_Nam":"FREEPORT 3.0 ENE, ME","Latitude":"43.87733","Longitude":"-70.04650","Snowdepth":"2.000","Units":"in","Rept_Date":"2020-12-07 12"},"coordinates":[8560,5807]},{"type":"Point","properties":{"Station_ID":"MA-WR-18","Station_Nam":"NORTHBOROUGH 0.6 SSE, MA","Latitude":"42.30367","Longitude":"-71.64620","Snowdepth":"2.000","Units":"in","Rept_Date":"2020-12-07 13"},"coordinates":[8053,4967]},{"type":"Point","properties":{"Station_ID":"MA-MD-158","Station_Nam":"SHERBORN 1.1 NW, MA","Latitude":"42.24460","Longitude":"-71.38130","Snowdepth":"2.000","Units":"in","Rept_Date":"2020-12-07 10"},"coordinates":[8137,4935]},{"type":"Point","properties":{"Station_ID":"MA-MD-107","Station_Nam":"FRAMINGHAM 1.7 E, MA","Latitude":"42.30516","Longitude":"-71.40471","Snowdepth":"2.000","Units":"in","Rept_Date":"2020-12-07 12"},"coordinates":[8129,4967]},{"type":"Point","properties":{"Station_ID":"LWBW2","Station_Nam":"LEWISBURG 3 N","Latitude":"37.85640","Longitude":"-80.40410","Snowdepth":"2.000","Units":"in","Rept_Date":"2020-12-07 12"},"coordinates":[5276,2592]},{"type":"Point","properties":{"Station_ID":"LNOW3","Station_Nam":"LAND O LAKES","Latitude":"46.19000","Longitude":"-89.45700","Snowdepth":"2.000","Units":"in","Rept_Date":"2020-12-07 13"},"coordinates":[2406,7042]},{"type":"Point","properties":{"Station_ID":"LLLM3","Station_Nam":"LOWELL","Latitude":"42.64090","Longitude":"-71.36370","Snowdepth":"2.000","Units":"in","Rept_Date":"2020-12-07 11"},"coordinates":[8142,5147]},{"type":"Point","properties":{"Station_ID":"LKPN3","Station_Nam":"LAKEPORT 2","Latitude":"43.54910","Longitude":"-71.46450","Snowdepth":"2.000","Units":"in","Rept_Date":"2020-12-07 12"},"coordinates":[8110,5632]},{"type":"Point","properties":{"Station_ID":"LBKV1","Station_Nam":"LYE BROOK","Latitude":"43.05000","Longitude":"-73.03330","Snowdepth":"2.000","Units":"in","Rept_Date":"2020-12-08 05"},"coordinates":[7613,5365]},{"type":"Point","properties":{"Station_ID":"ISLV1","Station_Nam":"ISLAND POND","Latitude":"44.81280","Longitude":"-71.89020","Snowdepth":"2.000","Units":"in","Rept_Date":"2020-12-07 14"},"coordinates":[7975,6307]},{"type":"Point","properties":{"Station_ID":"INL","Station_Nam":"FALLS INTERNATIONAL ARPT","Latitude":"48.56640","Longitude":"-93.40310","Snowdepth":"2.000","Units":"in","Rept_Date":"2020-12-08 00"},"coordinates":[1155,8311]},{"type":"Point","properties":{"Station_ID":"IFSM5","Station_Nam":"INTERNATIONAL FALLS SNOW","Latitude":"48.57780","Longitude":"-93.39640","Snowdepth":"2.000","Units":"in","Rept_Date":"2020-12-07 12"},"coordinates":[1157,8317]},{"type":"Point","properties":{"Station_ID":"HSPV2","Station_Nam":"HOT SPRINGS","Latitude":"37.99690","Longitude":"-79.83160","Snowdepth":"2.000","Units":"in","Rept_Date":"2020-12-07 12"},"coordinates":[5458,2667]},{"type":"Point","properties":{"Station_ID":"HRKM3","Station_Nam":"HARDWICK 2 ESE","Latitude":"42.34570","Longitude":"-72.15410","Snowdepth":"2.000","Units":"in","Rept_Date":"2020-12-07 13"},"coordinates":[7892,4989]},{"type":"Point","properties":{"Station_ID":"GDMV2","Station_Nam":"GATHRIGHT DAM","Latitude":"37.94580","Longitude":"-79.95420","Snowdepth":"2.000","Units":"in","Rept_Date":"2020-12-07 12"},"coordinates":[5419,2639]},{"type":"Point","properties":{"Station_ID":"FLDM5","Station_Nam":"FLOODWOOD,MN","Latitude":"47.00000","Longitude":"-92.91670","Snowdepth":"2.000","Units":"in","Rept_Date":"2020-12-07 14"},"coordinates":[1310,7475]},{"type":"Point","properties":{"Station_ID":"EMBM5","Station_Nam":"EMBARASS,MN","Latitude":"47.65810","Longitude":"-92.19580","Snowdepth":"2.000","Units":"in","Rept_Date":"2020-12-07 12"},"coordinates":[1538,7826]},{"type":"Point","properties":{"Station_ID":"CT-TL-27","Station_Nam":"WILLINGTON 2.7 SE, CT","Latitude":"41.83890","Longitude":"-72.22430","Snowdepth":"2.000","Units":"in","Rept_Date":"2020-12-07 12"},"coordinates":[7869,4718]},{"type":"Point","properties":{"Station_ID":"COTM5","Station_Nam":"COTTON","Latitude":"47.16870","Longitude":"-92.46290","Snowdepth":"2.000","Units":"in","Rept_Date":"2020-12-07 13"},"coordinates":[1453,7565]},{"type":"Point","properties":{"Station_ID":"CORV1","Station_Nam":"CORINTH","Latitude":"44.00690","Longitude":"-72.31940","Snowdepth":"2.000","Units":"in","Rept_Date":"2020-12-07 12"},"coordinates":[7839,5876]},{"type":"Point","properties":{"Station_ID":"CAN-ON-593","Station_Nam":"KITCHENER 4.5 E, CAN","Latitude":"43.45147","Longitude":"-80.43180","Snowdepth":"2.000","Units":"in","Rept_Date":"2020-12-07 13"},"coordinates":[5268,5580]},{"type":"Point","properties":{"Station_ID":"CAN-MB-56","Station_Nam":"WINNIPEG 7.6 ENE, CAN","Latitude":"49.93264","Longitude":"-97.04752","Snowdepth":"2.000","Units":"in","Rept_Date":"2020-12-07 14"},"coordinates":[0,9041]},{"type":"Point","properties":{"Station_ID":"BLHM3","Station_Nam":"BLUE HILL COOP","Latitude":"42.21230","Longitude":"-71.11370","Snowdepth":"2.000","Units":"in","Rept_Date":"2020-12-07 12"},"coordinates":[8222,4918]},{"type":"Point","properties":{"Station_ID":"41.6825_081.2331","Station_Nam":"1 NW Concord  Trained Spotter (CLE1259)","Latitude":"41.68248","Longitude":"-81.23310","Snowdepth":"2.000","Units":"in","Rept_Date":"2020-12-07 14"},"coordinates":[5013,4635]},{"type":"Point","properties":{"Station_ID":"QGA","Station_Nam":"QGA","Latitude":"47.25640","Longitude":"-73.73810","Snowdepth":"1.850","Units":"in","Rept_Date":"2020-12-07 12"},"coordinates":[7390,7612]},{"type":"Point","properties":{"Station_ID":"CAN-MB-298","Station_Nam":"GARDENTON 4.2 W - SRRCD, CAN","Latitude":"49.09480","Longitude":"-96.75446","Snowdepth":"1.800","Units":"in","Rept_Date":"2020-12-07 13"},"coordinates":[93,8593]},{"type":"Point","properties":{"Station_ID":"ME-PN-59","Station_Nam":"GLENBURN 1.5 ENE, ME","Latitude":"44.92420","Longitude":"-68.81758","Snowdepth":"1.700","Units":"in","Rept_Date":"2020-12-07 12"},"coordinates":[8949,6366]},{"type":"Point","properties":{"Station_ID":"CT-NL-5","Station_Nam":"OAKDALE 2.6 WNW, CT","Latitude":"41.47524","Longitude":"-72.20550","Snowdepth":"1.700","Units":"in","Rept_Date":"2020-12-07 12"},"coordinates":[7875,4524]},{"type":"Point","properties":{"Station_ID":"WI-SR-1","Station_Nam":"HAYWARD 9.2 NNE, WI","Latitude":"46.13255","Longitude":"-91.40500","Snowdepth":"1.600","Units":"in","Rept_Date":"2020-12-07 12"},"coordinates":[1789,7011]},{"type":"Point","properties":{"Station_ID":"CAN-NB-8","Station_Nam":"KESWICK RIDGE 2.3 SSE, CAN","Latitude":"45.97703","Longitude":"-66.86815","Snowdepth":"1.600","Units":"in","Rept_Date":"2020-12-07 13"},"coordinates":[9567,6928]},{"type":"Point","properties":{"Station_ID":"VT-WS-15","Station_Nam":"EAST CALAIS 1.5 SW, VT","Latitude":"44.35523","Longitude":"-72.45540","Snowdepth":"1.500","Units":"in","Rept_Date":"2020-12-07 12"},"coordinates":[7796,6062]},{"type":"Point","properties":{"Station_ID":"VT-WR-2","Station_Nam":"POMFRET 2.6 N, VT","Latitude":"43.74230","Longitude":"-72.52550","Snowdepth":"1.500","Units":"in","Rept_Date":"2020-12-07 12"},"coordinates":[7774,5735]},{"type":"Point","properties":{"Station_ID":"VT-CL-23","Station_Nam":"RYEGATE 1.5 N, VT","Latitude":"44.23024","Longitude":"-72.10523","Snowdepth":"1.500","Units":"in","Rept_Date":"2020-12-07 12"},"coordinates":[7907,5995]},{"type":"Point","properties":{"Station_ID":"VT-CL-18","Station_Nam":"WHEELOCK 1.6 S, VT","Latitude":"44.56491","Longitude":"-72.08830","Snowdepth":"1.500","Units":"in","Rept_Date":"2020-12-07 12"},"coordinates":[7913,6174]},{"type":"Point","properties":{"Station_ID":"VT-BN-7","Station_Nam":"MANCHESTER 2.8 ENE, VT","Latitude":"43.17274","Longitude":"-73.01811","Snowdepth":"1.500","Units":"in","Rept_Date":"2020-12-07 12"},"coordinates":[7618,5431]},{"type":"Point","properties":{"Station_ID":"RI-PR-51","Station_Nam":"NORTH SMITHFIELD 0.6 S, RI","Latitude":"41.95440","Longitude":"-71.54944","Snowdepth":"1.500","Units":"in","Rept_Date":"2020-12-07 11"},"coordinates":[8083,4780]},{"type":"Point","properties":{"Station_ID":"RI-PR-45","Station_Nam":"MANVILLE 0.4 WSW, RI","Latitude":"41.96757","Longitude":"-71.48103","Snowdepth":"1.500","Units":"in","Rept_Date":"2020-12-07 11"},"coordinates":[8105,4787]},{"type":"Point","properties":{"Station_ID":"PA-VN-7","Station_Nam":"COOPERSTOWN 1.3 E, PA","Latitude":"41.50067","Longitude":"-79.84970","Snowdepth":"1.500","Units":"in","Rept_Date":"2020-12-07 12"},"coordinates":[5452,4538]},{"type":"Point","properties":{"Station_ID":"NY-ER-166","Station_Nam":"BOSTON 2.5 NE, NY","Latitude":"42.65480","Longitude":"-78.70300","Snowdepth":"1.500","Units":"in","Rept_Date":"2020-12-07 12"},"coordinates":[5816,5154]},{"type":"Point","properties":{"Station_ID":"NY-CY-31","Station_Nam":"SCIPIO CENTER 3.0 S, NY","Latitude":"42.74002","Longitude":"-76.55682","Snowdepth":"1.500","Units":"in","Rept_Date":"2020-12-07 12"},"coordinates":[6496,5200]},{"type":"Point","properties":{"Station_ID":"MN-SL-15","Station_Nam":"CHISHOLM 0.4 WSW, MN","Latitude":"47.48557","Longitude":"-92.88690","Snowdepth":"1.500","Units":"in","Rept_Date":"2020-12-07 13"},"coordinates":[1319,7734]},{"type":"Point","properties":{"Station_ID":"MN-CK-6","Station_Nam":"GRAND MARAIS 4.4 W, MN","Latitude":"47.74865","Longitude":"-90.43760","Snowdepth":"1.500","Units":"in","Rept_Date":"2020-12-07 13"},"coordinates":[2095,7874]},{"type":"Point","properties":{"Station_ID":"ME-PN-47","Station_Nam":"MILFORD 0.8 SSW, ME","Latitude":"44.94108","Longitude":"-68.64154","Snowdepth":"1.500","Units":"in","Rept_Date":"2020-12-07 12"},"coordinates":[9005,6375]},{"type":"Point","properties":{"Station_ID":"MA-MD-51","Station_Nam":"MAYNARD 0.7 ESE, MA","Latitude":"42.42027","Longitude":"-71.44484","Snowdepth":"1.500","Units":"in","Rept_Date":"2020-12-07 12"},"coordinates":[8117,5029]},{"type":"Point","properties":{"Station_ID":"MA-MD-156","Station_Nam":"MARLBOROUGH 2.8 ENE, MA","Latitude":"42.37021","Longitude":"-71.50011","Snowdepth":"1.500","Units":"in","Rept_Date":"2020-12-07 10"},"coordinates":[8099,5002]},{"type":"Point","properties":{"Station_ID":"MA-ES-58","Station_Nam":"MIDDLETON 1.4 SSW, MA","Latitude":"42.58133","Longitude":"-71.02707","Snowdepth":"1.500","Units":"in","Rept_Date":"2020-12-07 13"},"coordinates":[8249,5115]},{"type":"Point","properties":{"Station_ID":"CT-TL-40","Station_Nam":"COVENTRY 0.3 NNE, CT","Latitude":"41.78805","Longitude":"-72.33738","Snowdepth":"1.500","Units":"in","Rept_Date":"2020-12-07 12"},"coordinates":[7834,4691]},{"type":"Point","properties":{"Station_ID":"CAN-NB-11","Station_Nam":"MIRAMICHI 3.3 S, CAN","Latitude":"46.99343","Longitude":"-65.50690","Snowdepth":"1.500","Units":"in","Rept_Date":"2020-12-07 11"},"coordinates":[9999,7471]},{"type":"Point","properties":{"Station_ID":"RI-PR-28","Station_Nam":"NORTH SMITHFIELD 0.7 SE, RI","Latitude":"41.95910","Longitude":"-71.54201","Snowdepth":"1.400","Units":"in","Rept_Date":"2020-12-07 12"},"coordinates":[8086,4783]},{"type":"Point","properties":{"Station_ID":"ME-KX-10","Station_Nam":"UNION 2.1 NNE, ME","Latitude":"44.23693","Longitude":"-69.27170","Snowdepth":"1.400","Units":"in","Rept_Date":"2020-12-07 12"},"coordinates":[8805,5999]},{"type":"Point","properties":{"Station_ID":"WV-NC-4","Station_Nam":"CRAIGSVILLE 0.6 NE, WV","Latitude":"38.33698","Longitude":"-80.64520","Snowdepth":"1.300","Units":"in","Rept_Date":"2020-12-07 12"},"coordinates":[5200,2848]},{"type":"Point","properties":{"Station_ID":"MBGM7","Station_Nam":"MISSOURI BOTANICAL GARDENS","Latitude":"38.61280","Longitude":"-90.26080","Snowdepth":"1.300","Units":"in","Rept_Date":"2020-12-08 03"},"coordinates":[2152,2995]},{"type":"Point","properties":{"Station_ID":"CAN-NB-97","Station_Nam":"NEW MARYLAND 0.6 NW, CAN","Latitude":"45.90112","Longitude":"-66.68739","Snowdepth":"1.300","Units":"in","Rept_Date":"2020-12-07 12"},"coordinates":[9625,6888]},{"type":"Point","properties":{"Station_ID":"MA-MD-89","Station_Nam":"SUDBURY 3.6 W, MA","Latitude":"42.36394","Longitude":"-71.47012","Snowdepth":"1.200","Units":"in","Rept_Date":"2020-12-07 12"},"coordinates":[8109,4999]},{"type":"Point","properties":{"Station_ID":"CAN-ON-187","Station_Nam":"WATERLOO 1.9 E - UOFW, CAN","Latitude":"43.47024","Longitude":"-80.50634","Snowdepth":"1.200","Units":"in","Rept_Date":"2020-12-07 13"},"coordinates":[5244,5590]},{"type":"Point","properties":{"Station_ID":"CAN-NB-98","Station_Nam":"HOYT 4.2 S, CAN","Latitude":"45.54763","Longitude":"-66.55440","Snowdepth":"1.200","Units":"in","Rept_Date":"2020-12-07 10"},"coordinates":[9667,6699]},{"type":"Point","properties":{"Station_ID":"CAN-NB-1","Station_Nam":"FREDERICTON 4.0 SSE, CA","Latitude":"45.92897","Longitude":"-66.62830","Snowdepth":"1.200","Units":"in","Rept_Date":"2020-12-07 12"},"coordinates":[9643,6903]},{"type":"Point","properties":{"Station_ID":"NFGT1","Station_Nam":"NEW FOUND GAP","Latitude":"35.61080","Longitude":"-83.42890","Snowdepth":"1.160","Units":"in","Rept_Date":"2020-12-08 06"},"coordinates":[4317,1392]},{"type":"Point","properties":{"Station_ID":"41.3881_081.6710","Station_Nam":"1 NNE Seven Hills  CoCoRaHS (OH-CY-54)","Latitude":"41.38810","Longitude":"-81.67100","Snowdepth":"1.100","Units":"in","Rept_Date":"2020-12-07 12"},"coordinates":[4875,4478]},{"type":"Point","properties":{"Station_ID":"WV-KN-1","Station_Nam":"ALUM CREEK 3.0 E, WV","Latitude":"38.28720","Longitude":"-81.78740","Snowdepth":"1.000","Units":"in","Rept_Date":"2020-12-07 12"},"coordinates":[4838,2822]},{"type":"Point","properties":{"Station_ID":"WTNM4","Station_Nam":"WATTON 2WSW","Latitude":"46.52660","Longitude":"-88.64240","Snowdepth":"1.000","Units":"in","Rept_Date":"2020-12-07 13"},"coordinates":[2665,7222]},{"type":"Point","properties":{"Station_ID":"WRUM5","Station_Nam":"WARROAD 4W","Latitude":"48.89600","Longitude":"-95.40700","Snowdepth":"1.000","Units":"in","Rept_Date":"2020-12-08 04"},"coordinates":[520,8487]},{"type":"Point","properties":{"Station_ID":"WNDP1","Station_Nam":"WINDBER COUNTY CLUB","Latitude":"40.28780","Longitude":"-78.77530","Snowdepth":"1.000","Units":"in","Rept_Date":"2020-12-07 12"},"coordinates":[5793,3890]},{"type":"Point","properties":{"Station_ID":"WLMV2","Station_Nam":"WILLIAMSVILLE 2 S","Latitude":"38.17930","Longitude":"-79.58160","Snowdepth":"1.000","Units":"in","Rept_Date":"2020-12-07 12"},"coordinates":[5537,2764]},{"type":"Point","properties":{"Station_ID":"WI-IR-3","Station_Nam":"PENCE 0.1 E, WI","Latitude":"46.41555","Longitude":"-90.27013","Snowdepth":"1.000","Units":"in","Rept_Date":"2020-12-07 13"},"coordinates":[2149,7162]},{"type":"Point","properties":{"Station_ID":"WI-BY-29","Station_Nam":"BAYFIELD 5.1 NNW, WI","Latitude":"46.88063","Longitude":"-90.85854","Snowdepth":"1.000","Units":"in","Rept_Date":"2020-12-07 13"},"coordinates":[1962,7411]},{"type":"Point","properties":{"Station_ID":"WHFN6","Station_Nam":"WILMINGTON 2W","Latitude":"44.39310","Longitude":"-73.85890","Snowdepth":"1.000","Units":"in","Rept_Date":"2020-12-07 13"},"coordinates":[7351,6082]},{"type":"Point","properties":{"Station_ID":"WALM3","Station_Nam":"WALPOLE 2","Latitude":"42.16090","Longitude":"-71.24610","Snowdepth":"1.000","Units":"in","Rept_Date":"2020-12-07 12"},"coordinates":[8180,4890]},{"type":"Point","properties":{"Station_ID":"VT-WS-30","Station_Nam":"WOODBURY 3.4 NNW, VT","Latitude":"44.48825","Longitude":"-72.43258","Snowdepth":"1.000","Units":"in","Rept_Date":"2020-12-07 12"},"coordinates":[7803,6133]},{"type":"Point","properties":{"Station_ID":"VT-WH-19","Station_Nam":"EAST DOVER 1.8 N, VT","Latitude":"42.97658","Longitude":"-72.77637","Snowdepth":"1.000","Units":"in","Rept_Date":"2020-12-07 12"},"coordinates":[7694,5326]},{"type":"Point","properties":{"Station_ID":"VA-HG-2","Station_Nam":"MONTEREY 6.5 SSW, VA","Latitude":"38.32841","Longitude":"-79.63710","Snowdepth":"1.000","Units":"in","Rept_Date":"2020-12-07 12"},"coordinates":[5519,2844]},{"type":"Point","properties":{"Station_ID":"VA-BH-1","Station_Nam":"MILLBORO 0.3 NW, VA","Latitude":"37.97758","Longitude":"-79.60670","Snowdepth":"1.000","Units":"in","Rept_Date":"2020-12-07 12"},"coordinates":[5529,2656]},{"type":"Point","properties":{"Station_ID":"TSVP1","Station_Nam":"TITUSVILLE,PA","Latitude":"41.63330","Longitude":"-79.70000","Snowdepth":"1.000","Units":"in","Rept_Date":"2020-12-07 12"},"coordinates":[5500,4609]},{"type":"Point","properties":{"Station_ID":"TOGM5","Station_Nam":"CELINA 2E","Latitude":"47.86630","Longitude":"-93.02660","Snowdepth":"1.000","Units":"in","Rept_Date":"2020-12-07 15"},"coordinates":[1275,7937]},{"type":"Point","properties":{"Station_ID":"TMWN3","Station_Nam":"TAMWORTH 4","Latitude":"43.86390","Longitude":"-71.26610","Snowdepth":"1.000","Units":"in","Rept_Date":"2020-12-07 12"},"coordinates":[8173,5800]},{"type":"Point","properties":{"Station_ID":"THEN6","Station_Nam":"THERESA 4 NW","Latitude":"44.27540","Longitude":"-75.83690","Snowdepth":"1.000","Units":"in","Rept_Date":"2020-12-07 14"},"coordinates":[6724,6020]},{"type":"Point","properties":{"Station_ID":"SUAW3","Station_Nam":"SUAMICO","Latitude":"44.60190","Longitude":"-88.09780","Snowdepth":"1.000","Units":"in","Rept_Date":"2020-12-07 12"},"coordinates":[2837,6194]},{"type":"Point","properties":{"Station_ID":"SDYM5","Station_Nam":"DAM","Latitude":"46.81670","Longitude":"-93.36670","Snowdepth":"1.000","Units":"in","Rept_Date":"2020-12-07 14"},"coordinates":[1167,7377]},{"type":"Point","properties":{"Station_ID":"ROWM3","Station_Nam":"ROWE 3NE","Latitude":"42.73500","Longitude":"-72.86920","Snowdepth":"1.000","Units":"in","Rept_Date":"2020-12-07 12"},"coordinates":[7665,5197]},{"type":"Point","properties":{"Station_ID":"RI-PR-50","Station_Nam":"HARRISVILLE 1.2 SSE, RI","Latitude":"41.95128","Longitude":"-71.67171","Snowdepth":"1.000","Units":"in","Rept_Date":"2020-12-07 12"},"coordinates":[8045,4778]},{"type":"Point","properties":{"Station_ID":"RI-PR-33","Station_Nam":"GREENVILLE 0.7 NNW, RI","Latitude":"41.88890","Longitude":"-71.56030","Snowdepth":"1.000","Units":"in","Rept_Date":"2020-12-07 12"},"coordinates":[8080,4745]},{"type":"Point","properties":{"Station_ID":"RI-KN-14","Station_Nam":"GREENE 1.4 E, RI","Latitude":"41.69155","Longitude":"-71.72380","Snowdepth":"1.000","Units":"in","Rept_Date":"2020-12-07 12"},"coordinates":[8028,4640]},{"type":"Point","properties":{"Station_ID":"PSM","Station_Nam":"PEASE INTL TRADEPORT AP","Latitude":"43.07810","Longitude":"-70.82330","Snowdepth":"1.000","Units":"in","Rept_Date":"2020-12-07 12"},"coordinates":[8314,5380]},{"type":"Point","properties":{"Station_ID":"PLFV1","Station_Nam":"PLAINFIELD","Latitude":"44.27610","Longitude":"-72.41500","Snowdepth":"1.000","Units":"in","Rept_Date":"2020-12-07 12"},"coordinates":[7809,6020]},{"type":"Point","properties":{"Station_ID":"PERV1","Station_Nam":"PERU","Latitude":"43.26670","Longitude":"-72.90000","Snowdepth":"1.000","Units":"in","Rept_Date":"2020-12-07 12"},"coordinates":[7655,5481]},{"type":"Point","properties":{"Station_ID":"PA-FR-2","Station_Nam":"MARIENVILLE 5.3 W, PA","Latitude":"41.45710","Longitude":"-79.18150","Snowdepth":"1.000","Units":"in","Rept_Date":"2020-12-07 11"},"coordinates":[5664,4514]},{"type":"Point","properties":{"Station_ID":"PA-FR-1","Station_Nam":"TIONESTA 7.3 SSE, PA","Latitude":"41.39404","Longitude":"-79.41310","Snowdepth":"1.000","Units":"in","Rept_Date":"2020-12-07 12"},"coordinates":[5590,4481]},{"type":"Point","properties":{"Station_ID":"OTTN3","Station_Nam":"OTTER BROOK LAKE","Latitude":"42.95000","Longitude":"-72.23330","Snowdepth":"1.000","Units":"in","Rept_Date":"2020-12-07 12"},"coordinates":[7867,5312]},{"type":"Point","properties":{"Station_ID":"OBEO1","Station_Nam":"OBERLIN,OH","Latitude":"41.26670","Longitude":"-82.21670","Snowdepth":"1.000","Units":"in","Rept_Date":"2020-12-07 13"},"coordinates":[4702,4413]},{"type":"Point","properties":{"Station_ID":"NY-TM-42","Station_Nam":"ITHACA 6.4 E, NY","Latitude":"42.43350","Longitude":"-76.37860","Snowdepth":"1.000","Units":"in","Rept_Date":"2020-12-07 12"},"coordinates":[6552,5036]},{"type":"Point","properties":{"Station_ID":"NY-DL-28","Station_Nam":"FLEISCHMANNS 5.7 N, NY","Latitude":"42.23779","Longitude":"-74.52335","Snowdepth":"1.000","Units":"in","Rept_Date":"2020-12-07 12"},"coordinates":[7141,4931]},{"type":"Point","properties":{"Station_ID":"NTHM3","Station_Nam":"NORTHBRIDGE 2","Latitude":"42.11500","Longitude":"-71.67600","Snowdepth":"1.000","Units":"in","Rept_Date":"2020-12-07 12"},"coordinates":[8043,4866]},{"type":"Point","properties":{"Station_ID":"NH-RC-80","Station_Nam":"NEWTON 1.8 NW, NH","Latitude":"42.88410","Longitude":"-71.06330","Snowdepth":"1.000","Units":"in","Rept_Date":"2020-12-07 13"},"coordinates":[8238,5277]},{"type":"Point","properties":{"Station_ID":"NH-MR-63","Station_Nam":"SUTTON MILLS 0.1 ENE, NH","Latitude":"43.33522","Longitude":"-71.95126","Snowdepth":"1.000","Units":"in","Rept_Date":"2020-12-07 12"},"coordinates":[7956,5517]},{"type":"Point","properties":{"Station_ID":"NH-MR-60","Station_Nam":"SOUTH SUTTON 1.3 SE, NH","Latitude":"43.29531","Longitude":"-71.90238","Snowdepth":"1.000","Units":"in","Rept_Date":"2020-12-07 13"},"coordinates":[7972,5496]},{"type":"Point","properties":{"Station_ID":"NH-MR-6","Station_Nam":"DANBURY 2.2 ESE, NH","Latitude":"43.52000","Longitude":"-71.81900","Snowdepth":"1.000","Units":"in","Rept_Date":"2020-12-07 13"},"coordinates":[7998,5616]},{"type":"Point","properties":{"Station_ID":"NH-GR-46","Station_Nam":"ASHLAND 2.4 NNW, NH","Latitude":"43.72963","Longitude":"-71.64213","Snowdepth":"1.000","Units":"in","Rept_Date":"2020-12-07 12"},"coordinates":[8054,5728]},{"type":"Point","properties":{"Station_ID":"NH-CR-27","Station_Nam":"TAMWORTH 0.4 NNW, NH","Latitude":"43.86449","Longitude":"-71.26610","Snowdepth":"1.000","Units":"in","Rept_Date":"2020-12-07 12"},"coordinates":[8173,5800]},{"type":"Point","properties":{"Station_ID":"NH-CR-26","Station_Nam":"CENTER SANDWICH 4.9 E, NH","Latitude":"43.80976","Longitude":"-71.34150","Snowdepth":"1.000","Units":"in","Rept_Date":"2020-12-07 12"},"coordinates":[8149,5771]},{"type":"Point","properties":{"Station_ID":"NH-BK-9","Station_Nam":"MEREDITH 2.9 SSW, NH","Latitude":"43.62245","Longitude":"-71.53510","Snowdepth":"1.000","Units":"in","Rept_Date":"2020-12-07 12"},"coordinates":[8088,5671]},{"type":"Point","properties":{"Station_ID":"NH-BK-29","Station_Nam":"SANBORNTON 2.3 WNW, NH","Latitude":"43.49730","Longitude":"-71.62800","Snowdepth":"1.000","Units":"in","Rept_Date":"2020-12-07 12"},"coordinates":[8058,5604]},{"type":"Point","properties":{"Station_ID":"NCBN6","Station_Nam":"NEWCOMB","Latitude":"43.97070","Longitude":"-74.22200","Snowdepth":"1.000","Units":"in","Rept_Date":"2020-12-07 14"},"coordinates":[7236,5857]},{"type":"Point","properties":{"Station_ID":"MQT","Station_Nam":"MARQUETTE, MI","Latitude":"46.53140","Longitude":"-87.54920","Snowdepth":"1.000","Units":"in","Rept_Date":"2020-12-08 06"},"coordinates":[3011,7224]},{"type":"Point","properties":{"Station_ID":"MNBW2","Station_Nam":"MT. NEBO 1S","Latitude":"38.18790","Longitude":"-80.84840","Snowdepth":"1.000","Units":"in","Rept_Date":"2020-12-07 12"},"coordinates":[5135,2769]},{"type":"Point","properties":{"Station_ID":"MN-SL-108","Station_Nam":"IRON JUNCTION 3.4 NNW, MN","Latitude":"47.46150","Longitude":"-92.63130","Snowdepth":"1.000","Units":"in","Rept_Date":"2020-12-07 13"},"coordinates":[1400,7721]},{"type":"Point","properties":{"Station_ID":"MMTN7","Station_Nam":"MOUNT MITCHELL STATE PARK","Latitude":"35.75940","Longitude":"-82.27110","Snowdepth":"1.000","Units":"in","Rept_Date":"2020-12-07 12"},"coordinates":[4684,1472]},{"type":"Point","properties":{"Station_ID":"MILV2","Station_Nam":"MILL GAP COOP","Latitude":"38.30640","Longitude":"-79.71970","Snowdepth":"1.000","Units":"in","Rept_Date":"2020-12-07 11"},"coordinates":[5493,2832]},{"type":"Point","properties":{"Station_ID":"MI-HG-1","Station_Nam":"HOUGHTON 1.6 ESE, MI","Latitude":"47.10774","Longitude":"-88.52940","Snowdepth":"1.000","Units":"in","Rept_Date":"2020-12-07 13"},"coordinates":[2700,7532]},{"type":"Point","properties":{"Station_ID":"MHCP1","Station_Nam":"MAHANTANGO CK","Latitude":"40.66670","Longitude":"-76.66670","Snowdepth":"1.000","Units":"in","Rept_Date":"2020-12-07 12"},"coordinates":[6461,4092]},{"type":"Point","properties":{"Station_ID":"MECN6","Station_Nam":"MECKLENBURG 4 SW","Latitude":"42.44220","Longitude":"-76.75740","Snowdepth":"1.000","Units":"in","Rept_Date":"2020-12-07 12"},"coordinates":[6432,5041]},{"type":"Point","properties":{"Station_ID":"ME-YK-28","Station_Nam":"BIDDEFORD 1.5 NNE, ME","Latitude":"43.48679","Longitude":"-70.43470","Snowdepth":"1.000","Units":"in","Rept_Date":"2020-12-07 12"},"coordinates":[8437,5598]},{"type":"Point","properties":{"Station_ID":"ME-WL-8","Station_Nam":"WINTERPORT 2.9 N, ME","Latitude":"44.69369","Longitude":"-68.84800","Snowdepth":"1.000","Units":"in","Rept_Date":"2020-12-07 12"},"coordinates":[8940,6243]},{"type":"Point","properties":{"Station_ID":"ME-SG-1","Station_Nam":"BATH 1.1 WSW, ME","Latitude":"43.93063","Longitude":"-69.85730","Snowdepth":"1.000","Units":"in","Rept_Date":"2020-12-07 12"},"coordinates":[8620,5835]},{"type":"Point","properties":{"Station_ID":"ME-CM-98","Station_Nam":"SEBAGO 2.4 ESE, ME","Latitude":"43.88000","Longitude":"-70.63000","Snowdepth":"1.000","Units":"in","Rept_Date":"2020-12-07 18"},"coordinates":[8375,5808]},{"type":"Point","properties":{"Station_ID":"ME-CM-128","Station_Nam":"SOUTH PORTLAND 1.6 S, ME","Latitude":"43.60900","Longitude":"-70.28600","Snowdepth":"1.000","Units":"in","Rept_Date":"2020-12-07 12"},"coordinates":[8484,5664]},{"type":"Point","properties":{"Station_ID":"MADW2","Station_Nam":"MADISON 3NNW","Latitude":"38.10250","Longitude":"-81.84640","Snowdepth":"1.000","Units":"in","Rept_Date":"2020-12-07 13"},"coordinates":[4819,2723]},{"type":"Point","properties":{"Station_ID":"MA-MD-45","Station_Nam":"WILMINGTON 1.5 NE, MA","Latitude":"42.57302","Longitude":"-71.14417","Snowdepth":"1.000","Units":"in","Rept_Date":"2020-12-07 12"},"coordinates":[8212,5110]},{"type":"Point","properties":{"Station_ID":"MA-MD-125","Station_Nam":"TEWKSBURY 3.6 SSE, MA","Latitude":"42.57083","Longitude":"-71.19813","Snowdepth":"1.000","Units":"in","Rept_Date":"2020-12-07 12"},"coordinates":[8195,5109]},{"type":"Point","properties":{"Station_ID":"MA-HS-7","Station_Nam":"PLAINFIELD 2.2 SW, MA","Latitude":"42.49272","Longitude":"-72.94540","Snowdepth":"1.000","Units":"in","Rept_Date":"2020-12-07 13"},"coordinates":[7641,5068]},{"type":"Point","properties":{"Station_ID":"MA-HD-30","Station_Nam":"HAMPDEN 2.0 NW, MA","Latitude":"42.08370","Longitude":"-72.44895","Snowdepth":"1.000","Units":"in","Rept_Date":"2020-12-07 13"},"coordinates":[7798,4849]},{"type":"Point","properties":{"Station_ID":"MA-ES-66","Station_Nam":"NORTH ANDOVER 0.3 NW, MA","Latitude":"42.70375","Longitude":"-71.12029","Snowdepth":"1.000","Units":"in","Rept_Date":"2020-12-07 13"},"coordinates":[8219,5180]},{"type":"Point","properties":{"Station_ID":"LVDW3","Station_Nam":"LAC VIEUX DESERT","Latitude":"46.12110","Longitude":"-89.07580","Snowdepth":"1.000","Units":"in","Rept_Date":"2020-12-07 14"},"coordinates":[2527,7005]},{"type":"Point","properties":{"Station_ID":"LPLN6","Station_Nam":"LAKE PLACID 2 S","Latitude":"44.30420","Longitude":"-73.98390","Snowdepth":"1.000","Units":"in","Rept_Date":"2020-12-07 13"},"coordinates":[7312,6035]},{"type":"Point","properties":{"Station_ID":"LBRM5","Station_Nam":"LAKE BRONSON DAM","Latitude":"48.72410","Longitude":"-96.62180","Snowdepth":"1.000","Units":"in","Rept_Date":"2020-12-07 14"},"coordinates":[135,8395]},{"type":"Point","properties":{"Station_ID":"KPSM","Station_Nam":"PEASE AIR FORCE BASE / PORTSMOUTH","Latitude":"43.08333","Longitude":"-70.81666","Snowdepth":"1.000","Units":"in","Rept_Date":"2020-12-08 06"},"coordinates":[8316,5383]},{"type":"Point","properties":{"Station_ID":"KCLE","Station_Nam":"CLEVELAND-HOPKINS INTERNATIONAL","Latitude":"41.40000","Longitude":"-81.85000","Snowdepth":"1.000","Units":"in","Rept_Date":"2020-12-08 00"},"coordinates":[4818,4484]},{"type":"Point","properties":{"Station_ID":"KBPM1","Station_Nam":"KENNEBUNKPORT","Latitude":"43.36050","Longitude":"-70.46970","Snowdepth":"1.000","Units":"in","Rept_Date":"2020-12-07 12"},"coordinates":[8426,5531]},{"type":"Point","properties":{"Station_ID":"KBGR","Station_Nam":"BANGOR INTL AIRPORT","Latitude":"44.80000","Longitude":"-68.81666","Snowdepth":"1.000","Units":"in","Rept_Date":"2020-12-08 00"},"coordinates":[8950,6300]},{"type":"Point","properties":{"Station_ID":"JEFV1","Station_Nam":"JEFFERSONVILLE","Latitude":"44.58430","Longitude":"-72.78700","Snowdepth":"1.000","Units":"in","Rept_Date":"2020-12-07 12"},"coordinates":[7691,6185]},{"type":"Point","properties":{"Station_ID":"IWOM4","Station_Nam":"IRONWOOD#2","Latitude":"46.46520","Longitude":"-90.13820","Snowdepth":"1.000","Units":"in","Rept_Date":"2020-12-07 13"},"coordinates":[2190,7189]},{"type":"Point","properties":{"Station_ID":"ITHN6","Station_Nam":"ITHACA,NY","Latitude":"42.45000","Longitude":"-76.45000","Snowdepth":"1.000","Units":"in","Rept_Date":"2020-12-07 12"},"coordinates":[6530,5045]},{"type":"Point","properties":{"Station_ID":"INEK2","Station_Nam":"WATER PLANT","Latitude":"37.86670","Longitude":"-82.51670","Snowdepth":"1.000","Units":"in","Rept_Date":"2020-12-07 12"},"coordinates":[4607,2597]},{"type":"Point","properties":{"Station_ID":"HRVM4","Station_Nam":"HARVEY","Latitude":"46.49080","Longitude":"-87.35470","Snowdepth":"1.000","Units":"in","Rept_Date":"2020-12-07 12"},"coordinates":[3073,7203]},{"type":"Point","properties":{"Station_ID":"HBHM4","Station_Nam":"HARBOR BEACH,MI","Latitude":"43.83330","Longitude":"-82.63330","Snowdepth":"1.000","Units":"in","Rept_Date":"2020-12-07 13"},"coordinates":[4570,5783]},{"type":"Point","properties":{"Station_ID":"FSTW2","Station_Nam":"FROST 3NE","Latitude":"38.28690","Longitude":"-79.81810","Snowdepth":"1.000","Units":"in","Rept_Date":"2020-12-07 11"},"coordinates":[5462,2821]},{"type":"Point","properties":{"Station_ID":"ESDN3","Station_Nam":"EAST SANDWICH","Latitude":"43.80990","Longitude":"-71.34250","Snowdepth":"1.000","Units":"in","Rept_Date":"2020-12-07 11"},"coordinates":[8149,5771]},{"type":"Point","properties":{"Station_ID":"EPPN3","Station_Nam":"EPPING","Latitude":"43.03020","Longitude":"-71.08380","Snowdepth":"1.000","Units":"in","Rept_Date":"2020-12-07 12"},"coordinates":[8231,5355]},{"type":"Point","properties":{"Station_ID":"ELYM5","Station_Nam":"ELY","Latitude":"47.90560","Longitude":"-91.82830","Snowdepth":"1.000","Units":"in","Rept_Date":"2020-12-07 14"},"coordinates":[1655,7958]},{"type":"Point","properties":{"Station_ID":"CVWP1","Station_Nam":"CHANDLER VALLEY 1SE","Latitude":"41.93010","Longitude":"-79.29700","Snowdepth":"1.000","Units":"in","Rept_Date":"2020-12-07 12"},"coordinates":[5627,4767]},{"type":"Point","properties":{"Station_ID":"CTYR1","Station_Nam":"COVENTRY 2","Latitude":"41.66840","Longitude":"-71.55710","Snowdepth":"1.000","Units":"in","Rept_Date":"2020-12-07 12"},"coordinates":[8081,4627]},{"type":"Point","properties":{"Station_ID":"CT-WN-4","Station_Nam":"EAST KILLINGLY 1.3 SW, CT","Latitude":"41.83813","Longitude":"-71.83910","Snowdepth":"1.000","Units":"in","Rept_Date":"2020-12-07 10"},"coordinates":[7992,4718]},{"type":"Point","properties":{"Station_ID":"CT-LT-29","Station_Nam":"GOSHEN 0.5 NW, CT","Latitude":"41.83707","Longitude":"-73.23003","Snowdepth":"1.000","Units":"in","Rept_Date":"2020-12-07 11"},"coordinates":[7551,4717]},{"type":"Point","properties":{"Station_ID":"CT-HR-15","Station_Nam":"SOUTHINGTON 3.0 E, CT","Latitude":"41.60798","Longitude":"-72.82220","Snowdepth":"1.000","Units":"in","Rept_Date":"2020-12-07 12"},"coordinates":[7680,4595]},{"type":"Point","properties":{"Station_ID":"CT-HR-100","Station_Nam":"MANCHESTER 0.4 ENE, CT","Latitude":"41.77816","Longitude":"-72.51484","Snowdepth":"1.000","Units":"in","Rept_Date":"2020-12-07 12"},"coordinates":[7777,4686]},{"type":"Point","properties":{"Station_ID":"CRLM5","Station_Nam":"CROSS LAKE DAM","Latitude":"46.66930","Longitude":"-94.11060","Snowdepth":"1.000","Units":"in","Rept_Date":"2020-12-07 14"},"coordinates":[931,7298]},{"type":"Point","properties":{"Station_ID":"COHV2","Station_Nam":"COPPER HILL","Latitude":"37.08160","Longitude":"-80.13490","Snowdepth":"1.000","Units":"in","Rept_Date":"2020-12-07 10"},"coordinates":[5362,2178]},{"type":"Point","properties":{"Station_ID":"CLE","Station_Nam":"CLEVELAND, OH","Latitude":"41.41170","Longitude":"-81.84970","Snowdepth":"1.000","Units":"in","Rept_Date":"2020-12-08 00"},"coordinates":[4818,4490]},{"type":"Point","properties":{"Station_ID":"CEFM4","Station_Nam":"EXPERIMENT FARM #2","Latitude":"46.33330","Longitude":"-86.91670","Snowdepth":"1.000","Units":"in","Rept_Date":"2020-12-07 13"},"coordinates":[3212,7119]},{"type":"Point","properties":{"Station_ID":"CAAW2","Station_Nam":"CANAAN VALLEY","Latitude":"39.05890","Longitude":"-79.44030","Snowdepth":"1.000","Units":"in","Rept_Date":"2020-12-07 14"},"coordinates":[5582,3234]},{"type":"Point","properties":{"Station_ID":"BURV2","Station_Nam":"BURKES GARDEN","Latitude":"37.09250","Longitude":"-81.33580","Snowdepth":"1.000","Units":"in","Rept_Date":"2020-12-07 12"},"coordinates":[4981,2184]},{"type":"Point","properties":{"Station_ID":"BUCW2","Station_Nam":"BUCKEYE","Latitude":"38.18730","Longitude":"-80.13360","Snowdepth":"1.000","Units":"in","Rept_Date":"2020-12-07 12"},"coordinates":[5362,2768]},{"type":"Point","properties":{"Station_ID":"BTHM1","Station_Nam":"BATH","Latitude":"43.93160","Longitude":"-69.85640","Snowdepth":"1.000","Units":"in","Rept_Date":"2020-12-07 12"},"coordinates":[8620,5836]},{"type":"Point","properties":{"Station_ID":"BSSW2","Station_Nam":"BECKLEY AIRPORT SNOW OBSERVATION","Latitude":"37.78690","Longitude":"-81.11370","Snowdepth":"1.000","Units":"in","Rept_Date":"2020-12-07 12"},"coordinates":[5051,2554]},{"type":"Point","properties":{"Station_ID":"BGRM1","Station_Nam":"BANGOR FSS","Latitude":"44.80440","Longitude":"-68.81330","Snowdepth":"1.000","Units":"in","Rept_Date":"2020-12-08 06"},"coordinates":[8951,6302]},{"type":"Point","properties":{"Station_ID":"BCKW2","Station_Nam":"BECKLEY V.A. HOSPITAL","Latitude":"37.76470","Longitude":"-81.19400","Snowdepth":"1.000","Units":"in","Rept_Date":"2020-12-07 12"},"coordinates":[5026,2543]},{"type":"Point","properties":{"Station_ID":"BCHN7","Station_Nam":"BEECH MOUNTAIN","Latitude":"36.18780","Longitude":"-81.87360","Snowdepth":"1.000","Units":"in","Rept_Date":"2020-12-07 12"},"coordinates":[4810,1700]},{"type":"Point","properties":{"Station_ID":"BARW2","Station_Nam":"BARTOW 1S","Latitude":"38.53120","Longitude":"-79.77140","Snowdepth":"1.000","Units":"in","Rept_Date":"2020-12-07 12"},"coordinates":[5477,2952]},{"type":"Point","properties":{"Station_ID":"AUBN6","Station_Nam":"AUBURN","Latitude":"42.93270","Longitude":"-76.54470","Snowdepth":"1.000","Units":"in","Rept_Date":"2020-12-07 11"},"coordinates":[6500,5302]},{"type":"Point","properties":{"Station_ID":"AMAM4","Station_Nam":"AMASA 1W","Latitude":"46.23470","Longitude":"-88.45440","Snowdepth":"1.000","Units":"in","Rept_Date":"2020-12-07 14"},"coordinates":[2724,7066]},{"type":"Point","properties":{"Station_ID":"ALDW2","Station_Nam":"ALDERSON","Latitude":"37.72720","Longitude":"-80.65920","Snowdepth":"1.000","Units":"in","Rept_Date":"2020-12-07 13"},"coordinates":[5195,2523]},{"type":"Point","properties":{"Station_ID":"41.6333_079.7000","Station_Nam":"TITUSVILLE  CO-OP OBSERVER (TSVP1)","Latitude":"41.63330","Longitude":"-79.70000","Snowdepth":"1.000","Units":"in","Rept_Date":"2020-12-07 12"},"coordinates":[5500,4609]},{"type":"Point","properties":{"Station_ID":"41.4019_081.8479","Station_Nam":"Cleveland Hopkins Airport  Trained Spotter (CLE1104)","Latitude":"41.40193","Longitude":"-81.84787","Snowdepth":"1.000","Units":"in","Rept_Date":"2020-12-07 12"},"coordinates":[4819,4485]},{"type":"Point","properties":{"Station_ID":"41.2667_082.2167","Station_Nam":"1 S OBERLIN  CO-OP OBSERVER (OBEO1)","Latitude":"41.26670","Longitude":"-82.21670","Snowdepth":"1.000","Units":"in","Rept_Date":"2020-12-07 13"},"coordinates":[4702,4413]}]}},"arcs":[],"transform":{"scale":[0.0031543774377437747,0.0018724952495249528],"translate":[-97.04752,33.00382]}}