{"type":"Topology","objects":{"snowdepth_geo":{"type":"GeometryCollection","name":"snowdepth","crs":{"type":"name","properties":{"name":"urn:ogc:def:crs:OGC:1.3:CRS84"}},"geometries":[{"type":"Point","properties":{"Station_ID":"HUBN3","Station_Nam":"HUBBARD BROOK","Latitude":"43.93330","Longitude":"-71.71670","Snowdepth":"267.999","Units":"in","Rept_Date":"2019-12-12 03"},"coordinates":[8042,5781]},{"type":"Point","properties":{"Station_ID":"MMSV1","Station_Nam":"MOUNT MANSFIELD","Latitude":"44.53330","Longitude":"-72.83330","Snowdepth":"87.000","Units":"in","Rept_Date":"2019-12-12 05"},"coordinates":[7690,6106]},{"type":"Point","properties":{"Station_ID":"PRKM4","Station_Nam":"MUNISING EAST","Latitude":"46.42580","Longitude":"-86.62000","Snowdepth":"76.500","Units":"in","Rept_Date":"2019-12-12 06"},"coordinates":[3346,7130]},{"type":"Point","properties":{"Station_ID":"OGIQ6","Station_Nam":"OGOKI CAMP","Latitude":"50.76680","Longitude":"-87.85820","Snowdepth":"61.100","Units":"in","Rept_Date":"2019-12-12 06"},"coordinates":[2956,9479]},{"type":"Point","properties":{"Station_ID":"AUDQ6","Station_Nam":"AUDEN","Latitude":"48.52600","Longitude":"-82.57570","Snowdepth":"47.640","Units":"in","Rept_Date":"2019-12-12 06"},"coordinates":[4620,8267]},{"type":"Point","properties":{"Station_ID":"DVLQ6","Station_Nam":"DEVIOUS LAKE","Latitude":"49.19890","Longitude":"-87.76440","Snowdepth":"43.460","Units":"in","Rept_Date":"2019-12-12 06"},"coordinates":[2985,8631]},{"type":"Point","properties":{"Station_ID":"PDLM4","Station_Nam":"PAINESDALE","Latitude":"47.04160","Longitude":"-88.67170","Snowdepth":"35.000","Units":"in","Rept_Date":"2019-12-11 13"},"coordinates":[2700,7463]},{"type":"Point","properties":{"Station_ID":"MI-HG-18","Station_Nam":"CALUMET 0.7 W (TAMARACK), MI","Latitude":"47.24560","Longitude":"-88.46791","Snowdepth":"34.000","Units":"in","Rept_Date":"2019-12-11 13"},"coordinates":[2764,7574]},{"type":"Point","properties":{"Station_ID":"KSGM4","Station_Nam":"KEARSARGE","Latitude":"47.27520","Longitude":"-88.41700","Snowdepth":"32.000","Units":"in","Rept_Date":"2019-12-11 13"},"coordinates":[2780,7590]},{"type":"Point","properties":{"Station_ID":"IWOM4","Station_Nam":"IRONWOOD#2","Latitude":"46.46520","Longitude":"-90.13820","Snowdepth":"32.000","Units":"in","Rept_Date":"2019-12-11 13"},"coordinates":[2237,7151]},{"type":"Point","properties":{"Station_ID":"SWTW3","Station_Nam":"SUPERIOR WWTP","Latitude":"46.72700","Longitude":"-92.07200","Snowdepth":"30.000","Units":"in","Rept_Date":"2019-12-12 06"},"coordinates":[1628,7293]},{"type":"Point","properties":{"Station_ID":"GMSM4","Station_Nam":"GRAND MARAIS 10S","Latitude":"46.50940","Longitude":"-85.96310","Snowdepth":"30.000","Units":"in","Rept_Date":"2019-12-11 12"},"coordinates":[3553,7175]},{"type":"Point","properties":{"Station_ID":"QNCM4","Station_Nam":"QUINCY HILL","Latitude":"47.13640","Longitude":"-88.57950","Snowdepth":"26.000","Units":"in","Rept_Date":"2019-12-11 12"},"coordinates":[2729,7515]},{"type":"Point","properties":{"Station_ID":"MI-HG-17","Station_Nam":"CALUMET 0.5 NE (CALUMET LAKE), MI","Latitude":"47.25300","Longitude":"-88.44652","Snowdepth":"25.000","Units":"in","Rept_Date":"2019-12-11 13"},"coordinates":[2770,7578]},{"type":"Point","properties":{"Station_ID":"QOU","Station_Nam":"QOU","Latitude":"50.79250","Longitude":"-69.67470","Snowdepth":"24.252","Units":"in","Rept_Date":"2019-12-11 12"},"coordinates":[8686,9493]},{"type":"Point","properties":{"Station_ID":"WRSM5","Station_Nam":"WRENSHALL","Latitude":"46.61550","Longitude":"-92.38380","Snowdepth":"24.000","Units":"in","Rept_Date":"2019-12-11 14"},"coordinates":[1530,7233]},{"type":"Point","properties":{"Station_ID":"WLFM5","Station_Nam":"WOLF RIDGE ENVIRON LEARNING CENTER","Latitude":"47.38240","Longitude":"-91.19730","Snowdepth":"24.000","Units":"in","Rept_Date":"2019-12-11 13"},"coordinates":[1904,7648]},{"type":"Point","properties":{"Station_ID":"MQT","Station_Nam":"MARQUETTE, MI","Latitude":"46.53140","Longitude":"-87.54920","Snowdepth":"24.000","Units":"in","Rept_Date":"2019-12-12 06"},"coordinates":[3053,7187]},{"type":"Point","properties":{"Station_ID":"MI-HG-11","Station_Nam":"HOUGHTON 3.0 SSW, MI","Latitude":"47.07704","Longitude":"-88.59680","Snowdepth":"24.000","Units":"in","Rept_Date":"2019-12-11 13"},"coordinates":[2723,7483]},{"type":"Point","properties":{"Station_ID":"MAIW3","Station_Nam":"MADELINE ISLAND","Latitude":"46.78330","Longitude":"-90.76670","Snowdepth":"24.000","Units":"in","Rept_Date":"2019-12-11 14"},"coordinates":[2039,7324]},{"type":"Point","properties":{"Station_ID":"WI-BY-1","Station_Nam":"BAYFIELD 8.8 N, WI","Latitude":"46.93855","Longitude":"-90.83490","Snowdepth":"23.000","Units":"in","Rept_Date":"2019-12-11 13"},"coordinates":[2018,7408]},{"type":"Point","properties":{"Station_ID":"MI-HG-6","Station_Nam":"CALUMET 5.8 ENE, MI","Latitude":"47.27200","Longitude":"-88.33400","Snowdepth":"23.000","Units":"in","Rept_Date":"2019-12-11 11"},"coordinates":[2806,7588]},{"type":"Point","properties":{"Station_ID":"MI-BG-3","Station_Nam":"L'ANSE 17.8 SE, MI","Latitude":"46.55730","Longitude":"-88.20770","Snowdepth":"22.500","Units":"in","Rept_Date":"2019-12-11 13"},"coordinates":[2846,7201]},{"type":"Point","properties":{"Station_ID":"WI-WB-2","Station_Nam":"STONE LAKE 2.0 NW, WI","Latitude":"45.85960","Longitude":"-91.57710","Snowdepth":"22.000","Units":"in","Rept_Date":"2019-12-11 13"},"coordinates":[1784,6824]},{"type":"Point","properties":{"Station_ID":"WI-BY-15","Station_Nam":"BAYFIELD 1.7 SW, WI","Latitude":"46.79294","Longitude":"-90.84343","Snowdepth":"22.000","Units":"in","Rept_Date":"2019-12-11 13"},"coordinates":[2015,7329]},{"type":"Point","properties":{"Station_ID":"VT-WH-9","Station_Nam":"WEST HALIFAX 0.2 SE, VT","Latitude":"42.78561","Longitude":"-72.76950","Snowdepth":"22.000","Units":"in","Rept_Date":"2019-12-11 14"},"coordinates":[7710,5160]},{"type":"Point","properties":{"Station_ID":"PDGM4","Station_Nam":"PAULDING","Latitude":"46.39760","Longitude":"-89.17940","Snowdepth":"22.000","Units":"in","Rept_Date":"2019-12-11 12"},"coordinates":[2540,7115]},{"type":"Point","properties":{"Station_ID":"HTLN3","Station_Nam":"HERMIT LAKE SNOWPLOT","Latitude":"44.26130","Longitude":"-71.28330","Snowdepth":"22.000","Units":"in","Rept_Date":"2019-12-11 10"},"coordinates":[8179,5959]},{"type":"Point","properties":{"Station_ID":"BFHW3","Station_Nam":"BAYFIELD FISH HATCHERY","Latitude":"46.78670","Longitude":"-90.86420","Snowdepth":"22.000","Units":"in","Rept_Date":"2019-12-11 14"},"coordinates":[2009,7325]},{"type":"Point","properties":{"Station_ID":"AWXW3","Station_Nam":"ASHLAND","Latitude":"46.58240","Longitude":"-90.88390","Snowdepth":"22.000","Units":"in","Rept_Date":"2019-12-11 13"},"coordinates":[2002,7215]},{"type":"Point","properties":{"Station_ID":"WRPW3","Station_Nam":"WATER PURIFICATION PLANT","Latitude":"44.38800","Longitude":"-89.80550","Snowdepth":"21.000","Units":"in","Rept_Date":"2019-12-11 12"},"coordinates":[2342,6027]},{"type":"Point","properties":{"Station_ID":"WI-BY-14","Station_Nam":"ASHLAND 9.8 W, WI","Latitude":"46.59742","Longitude":"-91.07856","Snowdepth":"21.000","Units":"in","Rept_Date":"2019-12-11 12"},"coordinates":[1941,7223]},{"type":"Point","properties":{"Station_ID":"MI-HG-14","Station_Nam":"HOUGHTON 0.6 SE, MI","Latitude":"47.10847","Longitude":"-88.55235","Snowdepth":"21.000","Units":"in","Rept_Date":"2019-12-11 13"},"coordinates":[2737,7500]},{"type":"Point","properties":{"Station_ID":"MI-HG-12","Station_Nam":"DOLLAR BAY 0.2 ENE, MI","Latitude":"47.12067","Longitude":"-88.49895","Snowdepth":"21.000","Units":"in","Rept_Date":"2019-12-11 13"},"coordinates":[2754,7506]},{"type":"Point","properties":{"Station_ID":"IRMM4","Station_Nam":"WWTP","Latitude":"46.46670","Longitude":"-90.18330","Snowdepth":"21.000","Units":"in","Rept_Date":"2019-12-11 13"},"coordinates":[2223,7152]},{"type":"Point","properties":{"Station_ID":"MN-SL-18","Station_Nam":"DULUTH 1.4 NNW, MN","Latitude":"46.80321","Longitude":"-92.11240","Snowdepth":"20.900","Units":"in","Rept_Date":"2019-12-11 13"},"coordinates":[1615,7334]},{"type":"Point","properties":{"Station_ID":"WI-VL-9","Station_Nam":"LAND O' LAKES 11.7 W, WI","Latitude":"46.19023","Longitude":"-89.45790","Snowdepth":"20.000","Units":"in","Rept_Date":"2019-12-11 13"},"coordinates":[2452,7003]},{"type":"Point","properties":{"Station_ID":"WI-FL-3","Station_Nam":"FLORENCE 0.7 ESE, WI","Latitude":"45.91760","Longitude":"-88.23900","Snowdepth":"20.000","Units":"in","Rept_Date":"2019-12-11 11"},"coordinates":[2836,6855]},{"type":"Point","properties":{"Station_ID":"PHEW3","Station_Nam":"PHELPS","Latitude":"46.06630","Longitude":"-89.07520","Snowdepth":"20.000","Units":"in","Rept_Date":"2019-12-11 13"},"coordinates":[2572,6936]},{"type":"Point","properties":{"Station_ID":"MI-HG-1","Station_Nam":"HOUGHTON 1.6 ESE, MI","Latitude":"47.10774","Longitude":"-88.52940","Snowdepth":"20.000","Units":"in","Rept_Date":"2019-12-11 13"},"coordinates":[2744,7499]},{"type":"Point","properties":{"Station_ID":"LVDW3","Station_Nam":"LAC VIEUX DESERT","Latitude":"46.12110","Longitude":"-89.07580","Snowdepth":"20.000","Units":"in","Rept_Date":"2019-12-11 15"},"coordinates":[2572,6965]},{"type":"Point","properties":{"Station_ID":"LNOW3","Station_Nam":"LAND O LAKES","Latitude":"46.19000","Longitude":"-89.45700","Snowdepth":"20.000","Units":"in","Rept_Date":"2019-12-11 13"},"coordinates":[2452,7002]},{"type":"Point","properties":{"Station_ID":"ILIM5","Station_Nam":"ISLAND LAKE","Latitude":"47.02400","Longitude":"-92.07000","Snowdepth":"20.000","Units":"in","Rept_Date":"2019-12-11 15"},"coordinates":[1629,7454]},{"type":"Point","properties":{"Station_ID":"DLHM5","Station_Nam":"DULUTH NWS","Latitude":"46.83680","Longitude":"-92.21080","Snowdepth":"20.000","Units":"in","Rept_Date":"2019-12-12 06"},"coordinates":[1584,7353]},{"type":"Point","properties":{"Station_ID":"DLH","Station_Nam":"DULUTH, MN","Latitude":"46.83690","Longitude":"-92.21030","Snowdepth":"20.000","Units":"in","Rept_Date":"2019-12-12 00"},"coordinates":[1584,7353]},{"type":"Point","properties":{"Station_ID":"CMKW3","Station_Nam":"CLAM LAKE 4W","Latitude":"46.16940","Longitude":"-90.98080","Snowdepth":"20.000","Units":"in","Rept_Date":"2019-12-11 13"},"coordinates":[1972,6991]},{"type":"Point","properties":{"Station_ID":"QGD","Station_Nam":"QGD","Latitude":"51.11140","Longitude":"-67.13940","Snowdepth":"19.291","Units":"in","Rept_Date":"2019-12-11 12"},"coordinates":[9485,9666]},{"type":"Point","properties":{"Station_ID":"WTRW3","Station_Nam":"WINTER","Latitude":"45.79920","Longitude":"-90.99470","Snowdepth":"19.000","Units":"in","Rept_Date":"2019-12-11 15"},"coordinates":[1968,6791]},{"type":"Point","properties":{"Station_ID":"WTRM4","Station_Nam":"WATERSMEET 12WSW","Latitude":"46.22310","Longitude":"-89.40850","Snowdepth":"19.000","Units":"in","Rept_Date":"2019-12-11 12"},"coordinates":[2467,7020]},{"type":"Point","properties":{"Station_ID":"WI-VL-10","Station_Nam":"LAND O LAKES 4.3 WNW, WI","Latitude":"46.17440","Longitude":"-89.30380","Snowdepth":"19.000","Units":"in","Rept_Date":"2019-12-11 13"},"coordinates":[2500,6994]},{"type":"Point","properties":{"Station_ID":"SUAW3","Station_Nam":"SUAMICO","Latitude":"44.60190","Longitude":"-88.09780","Snowdepth":"19.000","Units":"in","Rept_Date":"2019-12-11 12"},"coordinates":[2880,6143]},{"type":"Point","properties":{"Station_ID":"LTMW3","Station_Nam":"LAKE TOMAHAWK 2 SE","Latitude":"45.80750","Longitude":"-89.55830","Snowdepth":"19.000","Units":"in","Rept_Date":"2019-12-11 12"},"coordinates":[2420,6795]},{"type":"Point","properties":{"Station_ID":"WI-AS-6","Station_Nam":"ODANAH 1.6 E, WI","Latitude":"46.60462","Longitude":"-90.64920","Snowdepth":"18.500","Units":"in","Rept_Date":"2019-12-11 13"},"coordinates":[2076,7227]},{"type":"Point","properties":{"Station_ID":"WI-BY-6","Station_Nam":"BARNES 2.2 S, WI","Latitude":"46.30264","Longitude":"-91.50320","Snowdepth":"18.000","Units":"in","Rept_Date":"2019-12-11 13"},"coordinates":[1807,7063]},{"type":"Point","properties":{"Station_ID":"MI-MQ-19","Station_Nam":"ISHPEMING 7.2 SW, MI","Latitude":"46.40550","Longitude":"-87.75670","Snowdepth":"18.000","Units":"in","Rept_Date":"2019-12-11 11"},"coordinates":[2988,7119]},{"type":"Point","properties":{"Station_ID":"HERM4","Station_Nam":"HERMAN,MI","Latitude":"46.65000","Longitude":"-88.33330","Snowdepth":"18.000","Units":"in","Rept_Date":"2019-12-11 13"},"coordinates":[2806,7251]},{"type":"Point","properties":{"Station_ID":"GLDM4","Station_Nam":"GLADSTONE NO. 2","Latitude":"45.84330","Longitude":"-87.03910","Snowdepth":"18.000","Units":"in","Rept_Date":"2019-12-11 12"},"coordinates":[3214,6815]},{"type":"Point","properties":{"Station_ID":"FLNW3","Station_Nam":"FLORENCE","Latitude":"45.93360","Longitude":"-88.25830","Snowdepth":"18.000","Units":"in","Rept_Date":"2019-12-11 13"},"coordinates":[2830,6864]},{"type":"Point","properties":{"Station_ID":"COUW3","Station_Nam":"COUDERAY,WI","Latitude":"45.86670","Longitude":"-91.45000","Snowdepth":"18.000","Units":"in","Rept_Date":"2019-12-11 22"},"coordinates":[1824,6827]},{"type":"Point","properties":{"Station_ID":"BABM5","Station_Nam":"BABBITT","Latitude":"47.71210","Longitude":"-91.95330","Snowdepth":"18.000","Units":"in","Rept_Date":"2019-12-11 13"},"coordinates":[1665,7826]},{"type":"Point","properties":{"Station_ID":"QLB","Station_Nam":"QLB","Latitude":"50.72360","Longitude":"-75.10000","Snowdepth":"17.756","Units":"in","Rept_Date":"2019-12-11 12"},"coordinates":[6976,9456]},{"type":"Point","properties":{"Station_ID":"STGW3","Station_Nam":"ST GERMAIN","Latitude":"45.91550","Longitude":"-89.48940","Snowdepth":"17.000","Units":"in","Rept_Date":"2019-12-11 12"},"coordinates":[2442,6854]},{"type":"Point","properties":{"Station_ID":"RLKW3","Station_Nam":"REST LAKE","Latitude":"46.12220","Longitude":"-89.87720","Snowdepth":"17.000","Units":"in","Rept_Date":"2019-12-11 14"},"coordinates":[2320,6966]},{"type":"Point","properties":{"Station_ID":"MI-MQ-2","Station_Nam":"MARQUETTE 6.5 SSE, MI","Latitude":"46.46461","Longitude":"-87.34064","Snowdepth":"17.000","Units":"in","Rept_Date":"2019-12-11 13"},"coordinates":[3119,7151]},{"type":"Point","properties":{"Station_ID":"MI-HG-13","Station_Nam":"HOUGHTON 1.2 WNW, MI","Latitude":"47.12035","Longitude":"-88.58525","Snowdepth":"17.000","Units":"in","Rept_Date":"2019-12-11 13"},"coordinates":[2727,7506]},{"type":"Point","properties":{"Station_ID":"HRVM4","Station_Nam":"HARVEY","Latitude":"46.49080","Longitude":"-87.35470","Snowdepth":"17.000","Units":"in","Rept_Date":"2019-12-11 12"},"coordinates":[3115,7165]},{"type":"Point","properties":{"Station_ID":"CRVW3","Station_Nam":"CRIVITZ HIGH FALLS","Latitude":"45.35750","Longitude":"-88.19190","Snowdepth":"17.000","Units":"in","Rept_Date":"2019-12-11 13"},"coordinates":[2851,6552]},{"type":"Point","properties":{"Station_ID":"QGO","Station_Nam":"QGO","Latitude":"48.85500","Longitude":"-74.20640","Snowdepth":"16.850","Units":"in","Rept_Date":"2019-12-11 12"},"coordinates":[7258,8445]},{"type":"Point","properties":{"Station_ID":"MLZ","Station_Nam":"MLZ","Latitude":"50.66170","Longitude":"-68.82360","Snowdepth":"16.575","Units":"in","Rept_Date":"2019-12-11 12"},"coordinates":[8954,9423]},{"type":"Point","properties":{"Station_ID":"WI-VL-14","Station_Nam":"BOULDER JUNCTION 1.4 NE, WI","Latitude":"46.12840","Longitude":"-89.62470","Snowdepth":"16.000","Units":"in","Rept_Date":"2019-12-11 13"},"coordinates":[2399,6969]},{"type":"Point","properties":{"Station_ID":"NWCM4","Station_Nam":"NEWBERRY CITY","Latitude":"46.35720","Longitude":"-85.51780","Snowdepth":"16.000","Units":"in","Rept_Date":"2019-12-11 12"},"coordinates":[3693,7093]},{"type":"Point","properties":{"Station_ID":"MRQM4","Station_Nam":"MARQUETTE WFP","Latitude":"46.54580","Longitude":"-87.37950","Snowdepth":"16.000","Units":"in","Rept_Date":"2019-12-11 13"},"coordinates":[3107,7195]},{"type":"Point","properties":{"Station_ID":"MNSM4","Station_Nam":"MUNISING","Latitude":"46.41210","Longitude":"-86.66250","Snowdepth":"16.000","Units":"in","Rept_Date":"2019-12-11 11"},"coordinates":[3333,7123]},{"type":"Point","properties":{"Station_ID":"MI-HG-16","Station_Nam":"SOUTH RANGE 12.6 WSW, MI","Latitude":"47.02452","Longitude":"-88.90350","Snowdepth":"16.000","Units":"in","Rept_Date":"2019-12-11 13"},"coordinates":[2626,7454]},{"type":"Point","properties":{"Station_ID":"GGRM4","Station_Nam":"GREEN GARDEN NO.2","Latitude":"46.45330","Longitude":"-87.30380","Snowdepth":"16.000","Units":"in","Rept_Date":"2019-12-11 11"},"coordinates":[3131,7145]},{"type":"Point","properties":{"Station_ID":"EVRW3","Station_Nam":"EAGLE RIVER-4 E","Latitude":"45.91890","Longitude":"-89.15280","Snowdepth":"16.000","Units":"in","Rept_Date":"2019-12-11 13"},"coordinates":[2548,6856]},{"type":"Point","properties":{"Station_ID":"CLGM5","Station_Nam":"COLLEGEVILLE ST JOHN","Latitude":"45.57940","Longitude":"-94.39200","Snowdepth":"16.000","Units":"in","Rept_Date":"2019-12-12 00"},"coordinates":[897,6672]},{"type":"Point","properties":{"Station_ID":"CEFM4","Station_Nam":"EXPERIMENT FARM #2","Latitude":"46.33330","Longitude":"-86.91670","Snowdepth":"16.000","Units":"in","Rept_Date":"2019-12-11 13"},"coordinates":[3253,7080]},{"type":"Point","properties":{"Station_ID":"ASTW3","Station_Nam":"ATHELSTANE","Latitude":"45.42500","Longitude":"-88.05750","Snowdepth":"16.000","Units":"in","Rept_Date":"2019-12-11 12"},"coordinates":[2893,6588]},{"type":"Point","properties":{"Station_ID":"AROM4","Station_Nam":"ARNOLD,MI","Latitude":"46.06670","Longitude":"-87.48330","Snowdepth":"16.000","Units":"in","Rept_Date":"2019-12-11 13"},"coordinates":[3074,6936]},{"type":"Point","properties":{"Station_ID":"WI-ON-8","Station_Nam":"HAZELHURST 2.1 SSE, WI","Latitude":"45.78186","Longitude":"-89.70330","Snowdepth":"15.500","Units":"in","Rept_Date":"2019-12-11 13"},"coordinates":[2374,6782]},{"type":"Point","properties":{"Station_ID":"WI-SR-5","Station_Nam":"HAYWARD 9.7 NE, WI","Latitude":"46.12030","Longitude":"-91.35370","Snowdepth":"15.000","Units":"in","Rept_Date":"2019-12-11 14"},"coordinates":[1854,6965]},{"type":"Point","properties":{"Station_ID":"WI-PR-2","Station_Nam":"BUTTERNUT 5.9 SW, WI","Latitude":"45.96501","Longitude":"-90.59750","Snowdepth":"15.000","Units":"in","Rept_Date":"2019-12-11 12"},"coordinates":[2093,6881]},{"type":"Point","properties":{"Station_ID":"TOGM5","Station_Nam":"CELINA 2E","Latitude":"47.86630","Longitude":"-93.02660","Snowdepth":"15.000","Units":"in","Rept_Date":"2019-12-11 15"},"coordinates":[1327,7910]},{"type":"Point","properties":{"Station_ID":"PRDM4","Station_Nam":"PARADISE","Latitude":"46.60380","Longitude":"-85.03960","Snowdepth":"15.000","Units":"in","Rept_Date":"2019-12-11 11"},"coordinates":[3844,7226]},{"type":"Point","properties":{"Station_ID":"JCBM4","Station_Nam":"JACOBSVILLE","Latitude":"47.00830","Longitude":"-88.43180","Snowdepth":"15.000","Units":"in","Rept_Date":"2019-12-11 12"},"coordinates":[2775,7445]},{"type":"Point","properties":{"Station_ID":"EMBM5","Station_Nam":"EMBARASS,MN","Latitude":"47.65810","Longitude":"-92.19580","Snowdepth":"15.000","Units":"in","Rept_Date":"2019-12-11 12"},"coordinates":[1589,7797]},{"type":"Point","properties":{"Station_ID":"EGRW3","Station_Nam":"EAGLE RIVER-SOUTH","Latitude":"45.91360","Longitude":"-89.24360","Snowdepth":"15.000","Units":"in","Rept_Date":"2019-12-11 13"},"coordinates":[2519,6853]},{"type":"Point","properties":{"Station_ID":"CLKM4","Station_Nam":"CLARKSBURG","Latitude":"46.49910","Longitude":"-87.84500","Snowdepth":"15.000","Units":"in","Rept_Date":"2019-12-11 12"},"coordinates":[2960,7170]},{"type":"Point","properties":{"Station_ID":"BNDM5","Station_Nam":"ELY 25E","Latitude":"47.97190","Longitude":"-91.44860","Snowdepth":"15.000","Units":"in","Rept_Date":"2019-12-11 13"},"coordinates":[1824,7967]},{"type":"Point","properties":{"Station_ID":"AURW3","Station_Nam":"AURORA","Latitude":"45.77000","Longitude":"-88.11810","Snowdepth":"15.000","Units":"in","Rept_Date":"2019-12-11 13"},"coordinates":[2874,6775]},{"type":"Point","properties":{"Station_ID":"QFT","Station_Nam":"QFT","Latitude":"50.83280","Longitude":"-74.40390","Snowdepth":"14.803","Units":"in","Rept_Date":"2019-12-11 12"},"coordinates":[7195,9515]},{"type":"Point","properties":{"Station_ID":"QCX","Station_Nam":"QCX","Latitude":"51.32830","Longitude":"-70.08060","Snowdepth":"14.606","Units":"in","Rept_Date":"2019-12-11 12"},"coordinates":[8558,9783]},{"type":"Point","properties":{"Station_ID":"QCU","Station_Nam":"QCU","Latitude":"47.82750","Longitude":"-76.59830","Snowdepth":"14.055","Units":"in","Rept_Date":"2019-12-11 12"},"coordinates":[6504,7889]},{"type":"Point","properties":{"Station_ID":"WTNM4","Station_Nam":"WATTON 2WSW","Latitude":"46.52660","Longitude":"-88.64240","Snowdepth":"14.000","Units":"in","Rept_Date":"2019-12-11 13"},"coordinates":[2709,7185]},{"type":"Point","properties":{"Station_ID":"WI-RS-1","Station_Nam":"LADYSMITH 2.8 WNW, WI","Latitude":"45.48180","Longitude":"-91.14680","Snowdepth":"14.000","Units":"in","Rept_Date":"2019-12-11 13"},"coordinates":[1920,6619]},{"type":"Point","properties":{"Station_ID":"TOHM5","Station_Nam":"TWO HARBORS WWTP","Latitude":"47.01760","Longitude":"-91.66480","Snowdepth":"14.000","Units":"in","Rept_Date":"2019-12-11 13"},"coordinates":[1756,7450]},{"type":"Point","properties":{"Station_ID":"RPDM4","Station_Nam":"RAPID RIVER 4SSE","Latitude":"45.87270","Longitude":"-86.94960","Snowdepth":"14.000","Units":"in","Rept_Date":"2019-12-11 14"},"coordinates":[3242,6831]},{"type":"Point","properties":{"Station_ID":"MN-IT-23","Station_Nam":"BOVEY 13.4 N, MN","Latitude":"47.48855","Longitude":"-93.43497","Snowdepth":"14.000","Units":"in","Rept_Date":"2019-12-11 13"},"coordinates":[1199,7705]},{"type":"Point","properties":{"Station_ID":"ELYM5","Station_Nam":"ELY","Latitude":"47.90560","Longitude":"-91.82830","Snowdepth":"14.000","Units":"in","Rept_Date":"2019-12-11 15"},"coordinates":[1705,7931]},{"type":"Point","properties":{"Station_ID":"CNNW3","Station_Nam":"CRANDON","Latitude":"45.55110","Longitude":"-88.89830","Snowdepth":"14.000","Units":"in","Rept_Date":"2019-12-11 12"},"coordinates":[2628,6657]},{"type":"Point","properties":{"Station_ID":"AVTW3","Station_Nam":"ARBOR VITAE-JOHNSON LAKE","Latitude":"45.89940","Longitude":"-89.72670","Snowdepth":"14.000","Units":"in","Rept_Date":"2019-12-11 12"},"coordinates":[2367,6845]},{"type":"Point","properties":{"Station_ID":"ABGW3","Station_Nam":"AMBERG 9 E","Latitude":"45.48250","Longitude":"-87.81190","Snowdepth":"14.000","Units":"in","Rept_Date":"2019-12-11 12"},"coordinates":[2970,6620]},{"type":"Point","properties":{"Station_ID":"MFU","Station_Nam":"MFU","Latitude":"51.52170","Longitude":"-66.91110","Snowdepth":"13.740","Units":"in","Rept_Date":"2019-12-11 12"},"coordinates":[9557,9888]},{"type":"Point","properties":{"Station_ID":"WI-PR-6","Station_Nam":"PHILLIPS 1.3 S, WI","Latitude":"45.67677","Longitude":"-90.39543","Snowdepth":"13.500","Units":"in","Rept_Date":"2019-12-11 12"},"coordinates":[2156,6725]},{"type":"Point","properties":{"Station_ID":"VT-BN-12","Station_Nam":"STAMFORD 5.0 NNE, VT","Latitude":"42.82000","Longitude":"-73.02000","Snowdepth":"13.500","Units":"in","Rept_Date":"2019-12-11 21"},"coordinates":[7632,5179]},{"type":"Point","properties":{"Station_ID":"PTLQ6","Station_Nam":"PORTAGE LAKE","Latitude":"49.06950","Longitude":"-86.65940","Snowdepth":"13.390","Units":"in","Rept_Date":"2019-12-12 06"},"coordinates":[3334,8561]},{"type":"Point","properties":{"Station_ID":"WILW3","Station_Nam":"RESERVOIR","Latitude":"45.70000","Longitude":"-89.83330","Snowdepth":"13.000","Units":"in","Rept_Date":"2019-12-11 12"},"coordinates":[2333,6737]},{"type":"Point","properties":{"Station_ID":"WI-PR-8","Station_Nam":"PHILLIPS 0.4 SSW, WI","Latitude":"45.69086","Longitude":"-90.40200","Snowdepth":"13.000","Units":"in","Rept_Date":"2019-12-11 13"},"coordinates":[2154,6732]},{"type":"Point","properties":{"Station_ID":"RHLW3","Station_Nam":"RHINELANDER 4NE","Latitude":"45.65270","Longitude":"-89.30740","Snowdepth":"13.000","Units":"in","Rept_Date":"2019-12-11 12"},"coordinates":[2499,6712]},{"type":"Point","properties":{"Station_ID":"MMNV1","Station_Nam":"MT. MANSFIELD","Latitude":"44.52480","Longitude":"-72.81540","Snowdepth":"13.000","Units":"in","Rept_Date":"2019-12-11 21"},"coordinates":[7696,6101]},{"type":"Point","properties":{"Station_ID":"GFK","Station_Nam":"GRAND FORKS INTERNATIONAL AIRPORT","Latitude":"47.94920","Longitude":"-97.17610","Snowdepth":"13.000","Units":"in","Rept_Date":"2019-12-12 00"},"coordinates":[20,7955]},{"type":"Point","properties":{"Station_ID":"DGTM4","Station_Nam":"DAGGETT","Latitude":"45.46800","Longitude":"-87.68360","Snowdepth":"13.000","Units":"in","Rept_Date":"2019-12-11 13"},"coordinates":[3011,6612]},{"type":"Point","properties":{"Station_ID":"BRAM5","Station_Nam":"BRAINERD","Latitude":"46.34320","Longitude":"-94.20900","Snowdepth":"13.000","Units":"in","Rept_Date":"2019-12-11 13"},"coordinates":[955,7085]},{"type":"Point","properties":{"Station_ID":"ANTW3","Station_Nam":"ANTIGO,WI","Latitude":"45.13330","Longitude":"-89.15000","Snowdepth":"13.000","Units":"in","Rept_Date":"2019-12-11 14"},"coordinates":[2549,6431]},{"type":"Point","properties":{"Station_ID":"QMD","Station_Nam":"QMD","Latitude":"49.29060","Longitude":"-75.84500","Snowdepth":"12.598","Units":"in","Rept_Date":"2019-12-11 12"},"coordinates":[6741,8680]},{"type":"Point","properties":{"Station_ID":"MN-SL-115","Station_Nam":"COTTON 5.7 ESE, MN","Latitude":"47.15142","Longitude":"-92.35772","Snowdepth":"12.500","Units":"in","Rept_Date":"2019-12-11 14"},"coordinates":[1538,7523]},{"type":"Point","properties":{"Station_ID":"QYR","Station_Nam":"QYR","Latitude":"48.87220","Longitude":"-75.61470","Snowdepth":"12.126","Units":"in","Rept_Date":"2019-12-11 12"},"coordinates":[6814,8454]},{"type":"Point","properties":{"Station_ID":"WI-ON-6","Station_Nam":"RHINELANDER 5.2 N, WI","Latitude":"45.71388","Longitude":"-89.42150","Snowdepth":"12.000","Units":"in","Rept_Date":"2019-12-11 14"},"coordinates":[2463,6745]},{"type":"Point","properties":{"Station_ID":"TAKW3","Station_Nam":"RICE RESERVOIR NO. 2","Latitude":"45.53770","Longitude":"-89.73220","Snowdepth":"12.000","Units":"in","Rept_Date":"2019-12-11 13"},"coordinates":[2365,6649]},{"type":"Point","properties":{"Station_ID":"MN-SL-20","Station_Nam":"DULUTH 3.2 NE, MN","Latitude":"46.81313","Longitude":"-92.05560","Snowdepth":"12.000","Units":"in","Rept_Date":"2019-12-11 13"},"coordinates":[1633,7340]},{"type":"Point","properties":{"Station_ID":"MN-SL-139","Station_Nam":"DULUTH 1.2 SE, MN","Latitude":"46.77000","Longitude":"-92.08826","Snowdepth":"12.000","Units":"in","Rept_Date":"2019-12-11 12"},"coordinates":[1623,7316]},{"type":"Point","properties":{"Station_ID":"MI-AT-6","Station_Nam":"MANCELONA 0.5 ESE, MI","Latitude":"44.89981","Longitude":"-85.05100","Snowdepth":"12.000","Units":"in","Rept_Date":"2019-12-11 13"},"coordinates":[3840,6304]},{"type":"Point","properties":{"Station_ID":"MCLN8","Station_Nam":"MC LEOD,ND","Latitude":"46.40250","Longitude":"-97.23810","Snowdepth":"12.000","Units":"in","Rept_Date":"2019-12-11 15"},"coordinates":[0,7117]},{"type":"Point","properties":{"Station_ID":"KGFK","Station_Nam":"GRAND FORKS INTERNATIONAL","Latitude":"47.95000","Longitude":"-97.18333","Snowdepth":"12.000","Units":"in","Rept_Date":"2019-12-12 06"},"coordinates":[17,7955]},{"type":"Point","properties":{"Station_ID":"ISEM5","Station_Nam":"ISLE 12N","Latitude":"46.31970","Longitude":"-93.50140","Snowdepth":"12.000","Units":"in","Rept_Date":"2019-12-11 14"},"coordinates":[1178,7073]},{"type":"Point","properties":{"Station_ID":"CSLM5","Station_Nam":"CASS LAKE,MN","Latitude":"47.38470","Longitude":"-94.61470","Snowdepth":"12.000","Units":"in","Rept_Date":"2019-12-11 14"},"coordinates":[827,7649]},{"type":"Point","properties":{"Station_ID":"CRLM5","Station_Nam":"CROSS LAKE DAM","Latitude":"46.66930","Longitude":"-94.11060","Snowdepth":"12.000","Units":"in","Rept_Date":"2019-12-11 14"},"coordinates":[986,7262]},{"type":"Point","properties":{"Station_ID":"AGNW3","Station_Nam":"ARGONNE-1.5 NW","Latitude":"45.67360","Longitude":"-88.90380","Snowdepth":"12.000","Units":"in","Rept_Date":"2019-12-11 13"},"coordinates":[2626,6723]},{"type":"Point","properties":{"Station_ID":"QMA","Station_Nam":"QMA","Latitude":"50.10330","Longitude":"-70.47190","Snowdepth":"11.850","Units":"in","Rept_Date":"2019-12-11 12"},"coordinates":[8434,9120]},{"type":"Point","properties":{"Station_ID":"WI-LN-2","Station_Nam":"MERRILL 7.0 W, WI","Latitude":"45.17746","Longitude":"-89.84820","Snowdepth":"11.500","Units":"in","Rept_Date":"2019-12-11 12"},"coordinates":[2329,6454]},{"type":"Point","properties":{"Station_ID":"ME-AR-23","Station_Nam":"MADAWASKA 2.5 E, ME","Latitude":"47.34933","Longitude":"-68.28141","Snowdepth":"11.500","Units":"in","Rept_Date":"2019-12-11 12"},"coordinates":[9125,7630]},{"type":"Point","properties":{"Station_ID":"QTV","Station_Nam":"QTV","Latitude":"49.66000","Longitude":"-69.35690","Snowdepth":"11.496","Units":"in","Rept_Date":"2019-12-11 12"},"coordinates":[8786,8880]},{"type":"Point","properties":{"Station_ID":"QTM","Station_Nam":"QTM","Latitude":"51.05780","Longitude":"-72.57190","Snowdepth":"11.142","Units":"in","Rept_Date":"2019-12-11 12"},"coordinates":[7773,9637]},{"type":"Point","properties":{"Station_ID":"WSKW3","Station_Nam":"WAUSAUKEE","Latitude":"45.38020","Longitude":"-87.95660","Snowdepth":"11.000","Units":"in","Rept_Date":"2019-12-11 14"},"coordinates":[2925,6564]},{"type":"Point","properties":{"Station_ID":"WNBM5","Station_Nam":"DAM","Latitude":"47.43060","Longitude":"-94.05000","Snowdepth":"11.000","Units":"in","Rept_Date":"2019-12-11 14"},"coordinates":[1005,7674]},{"type":"Point","properties":{"Station_ID":"WLKW3","Station_Nam":"WHITE LAKE 1 SE","Latitude":"45.14520","Longitude":"-88.74160","Snowdepth":"11.000","Units":"in","Rept_Date":"2019-12-11 14"},"coordinates":[2678,6437]},{"type":"Point","properties":{"Station_ID":"WI-BR-2","Station_Nam":"CHETEK 2.0 SE, WI","Latitude":"45.29427","Longitude":"-91.62470","Snowdepth":"11.000","Units":"in","Rept_Date":"2019-12-11 13"},"coordinates":[1769,6518]},{"type":"Point","properties":{"Station_ID":"SULW3","Station_Nam":"SUMMIT LAKE","Latitude":"45.37880","Longitude":"-89.19410","Snowdepth":"11.000","Units":"in","Rept_Date":"2019-12-11 11"},"coordinates":[2535,6563]},{"type":"Point","properties":{"Station_ID":"STMM4","Station_Nam":"STAMBAUGH 2SSE","Latitude":"46.05550","Longitude":"-88.62780","Snowdepth":"11.000","Units":"in","Rept_Date":"2019-12-11 13"},"coordinates":[2713,6930]},{"type":"Point","properties":{"Station_ID":"PKGM5","Station_Nam":"POKEGANA LK DAM","Latitude":"47.25080","Longitude":"-93.58610","Snowdepth":"11.000","Units":"in","Rept_Date":"2019-12-11 14"},"coordinates":[1151,7577]},{"type":"Point","properties":{"Station_ID":"MRAM5","Station_Nam":"MORA","Latitude":"45.87760","Longitude":"-93.31470","Snowdepth":"11.000","Units":"in","Rept_Date":"2019-12-11 13"},"coordinates":[1236,6833]},{"type":"Point","properties":{"Station_ID":"MQRW3","Station_Nam":"MINOCQUA","Latitude":"45.88630","Longitude":"-89.73220","Snowdepth":"11.000","Units":"in","Rept_Date":"2019-12-11 12"},"coordinates":[2365,6838]},{"type":"Point","properties":{"Station_ID":"MN-IT-17","Station_Nam":"GRAND RAPIDS 6.1 N, MN","Latitude":"47.31165","Longitude":"-93.55036","Snowdepth":"11.000","Units":"in","Rept_Date":"2019-12-11 13"},"coordinates":[1162,7609]},{"type":"Point","properties":{"Station_ID":"MLLW3","Station_Nam":"MERRILL 8W","Latitude":"45.17810","Longitude":"-89.84810","Snowdepth":"11.000","Units":"in","Rept_Date":"2019-12-11 12"},"coordinates":[2329,6455]},{"type":"Point","properties":{"Station_ID":"MA-MD-47","Station_Nam":"WEST TOWNSEND 0.5 W, MA","Latitude":"42.67623","Longitude":"-71.74983","Snowdepth":"11.000","Units":"in","Rept_Date":"2019-12-11 11"},"coordinates":[8032,5101]},{"type":"Point","properties":{"Station_ID":"HOLW3","Station_Nam":"HOLCOMBE","Latitude":"45.22370","Longitude":"-91.12700","Snowdepth":"11.000","Units":"in","Rept_Date":"2019-12-11 13"},"coordinates":[1926,6480]},{"type":"Point","properties":{"Station_ID":"GRBM5","Station_Nam":"GRAND RAPIDS 12N","Latitude":"47.39800","Longitude":"-93.51330","Snowdepth":"11.000","Units":"in","Rept_Date":"2019-12-11 12"},"coordinates":[1174,7656]},{"type":"Point","properties":{"Station_ID":"FEDM5","Station_Nam":"LEECH LAKE DAM","Latitude":"47.24670","Longitude":"-94.22280","Snowdepth":"11.000","Units":"in","Rept_Date":"2019-12-11 14"},"coordinates":[950,7574]},{"type":"Point","properties":{"Station_ID":"ENGM4","Station_Nam":"ENGADINE MDOT","Latitude":"46.12800","Longitude":"-85.56960","Snowdepth":"11.000","Units":"in","Rept_Date":"2019-12-11 12"},"coordinates":[3677,6969]},{"type":"Point","properties":{"Station_ID":"COTM5","Station_Nam":"COTTON","Latitude":"47.16870","Longitude":"-92.46290","Snowdepth":"11.000","Units":"in","Rept_Date":"2019-12-11 12"},"coordinates":[1505,7532]},{"type":"Point","properties":{"Station_ID":"TRIQ6","Station_Nam":"TRIO LAKE","Latitude":"49.22880","Longitude":"-87.22920","Snowdepth":"10.910","Units":"in","Rept_Date":"2019-12-12 06"},"coordinates":[3154,8647]},{"type":"Point","properties":{"Station_ID":"MA-WR-54","Station_Nam":"BARRE 1.4 NNE, MA","Latitude":"42.44082","Longitude":"-72.09591","Snowdepth":"10.800","Units":"in","Rept_Date":"2019-12-11 12"},"coordinates":[7923,4973]},{"type":"Point","properties":{"Station_ID":"QCO","Station_Nam":"QCO","Latitude":"51.45280","Longitude":"-72.20110","Snowdepth":"10.748","Units":"in","Rept_Date":"2019-12-11 12"},"coordinates":[7890,9851]},{"type":"Point","properties":{"Station_ID":"SVBQ6","Station_Nam":"SAVANT BASE","Latitude":"50.28730","Longitude":"-90.65670","Snowdepth":"10.670","Units":"in","Rept_Date":"2019-12-12 06"},"coordinates":[2074,9220]},{"type":"Point","properties":{"Station_ID":"MN-IT-1","Station_Nam":"GRAND RAPIDS 2.0 E, MN","Latitude":"47.22266","Longitude":"-93.49600","Snowdepth":"10.500","Units":"in","Rept_Date":"2019-12-11 12"},"coordinates":[1179,7561]},{"type":"Point","properties":{"Station_ID":"QLM","Station_Nam":"QLM","Latitude":"48.92030","Longitude":"-70.25280","Snowdepth":"10.315","Units":"in","Rept_Date":"2019-12-11 12"},"coordinates":[8504,8480]},{"type":"Point","properties":{"Station_ID":"STIM4","Station_Nam":"ST IGNACE","Latitude":"45.86080","Longitude":"-84.71960","Snowdepth":"10.000","Units":"in","Rept_Date":"2019-12-11 12"},"coordinates":[3945,6824]},{"type":"Point","properties":{"Station_ID":"SCRW3","Station_Nam":"ST CROIX FALLS","Latitude":"45.41170","Longitude":"-92.64660","Snowdepth":"10.000","Units":"in","Rept_Date":"2019-12-11 13"},"coordinates":[1447,6581]},{"type":"Point","properties":{"Station_ID":"RHI","Station_Nam":"RHINELANDER-ONEIDA COUNTY AIRPORT","Latitude":"45.63080","Longitude":"-89.46530","Snowdepth":"10.000","Units":"in","Rept_Date":"2019-12-11 12"},"coordinates":[2449,6700]},{"type":"Point","properties":{"Station_ID":"RGNM1","Station_Nam":"RANGELEY 2NW","Latitude":"44.98940","Longitude":"-70.67220","Snowdepth":"10.000","Units":"in","Rept_Date":"2019-12-11 11"},"coordinates":[8371,6353]},{"type":"Point","properties":{"Station_ID":"OTTM5","Station_Nam":"OTTERTAIL,MN","Latitude":"46.41670","Longitude":"-95.56670","Snowdepth":"10.000","Units":"in","Rept_Date":"2019-12-11 13"},"coordinates":[527,7125]},{"type":"Point","properties":{"Station_ID":"NYMM5","Station_Nam":"NEW YORK MILLS","Latitude":"46.50920","Longitude":"-95.37990","Snowdepth":"10.000","Units":"in","Rept_Date":"2019-12-11 13"},"coordinates":[586,7175]},{"type":"Point","properties":{"Station_ID":"MRAM4","Station_Nam":"MORAN","Latitude":"45.99030","Longitude":"-84.83610","Snowdepth":"10.000","Units":"in","Rept_Date":"2019-12-11 13"},"coordinates":[3908,6894]},{"type":"Point","properties":{"Station_ID":"MN-SR-29","Station_Nam":"ALBANY 3.8 S, MN","Latitude":"45.57441","Longitude":"-94.55543","Snowdepth":"10.000","Units":"in","Rept_Date":"2019-12-11 13"},"coordinates":[846,6669]},{"type":"Point","properties":{"Station_ID":"MN-SH-10","Station_Nam":"BIG LAKE 5.6 NNE, MN","Latitude":"45.41409","Longitude":"-93.69190","Snowdepth":"10.000","Units":"in","Rept_Date":"2019-12-11 13"},"coordinates":[1118,6583]},{"type":"Point","properties":{"Station_ID":"MN-IT-10","Station_Nam":"DEER RIVER 3.7 W, MN","Latitude":"47.33564","Longitude":"-93.87514","Snowdepth":"10.000","Units":"in","Rept_Date":"2019-12-11 14"},"coordinates":[1060,7622]},{"type":"Point","properties":{"Station_ID":"MLCM5","Station_Nam":"MILACA","Latitude":"45.75320","Longitude":"-93.66170","Snowdepth":"10.000","Units":"in","Rept_Date":"2019-12-11 13"},"coordinates":[1127,6766]},{"type":"Point","properties":{"Station_ID":"MIEM4","Station_Nam":"MICHIGAMME 3WNW","Latitude":"46.54530","Longitude":"-88.18000","Snowdepth":"10.000","Units":"in","Rept_Date":"2019-12-11 13"},"coordinates":[2854,7195]},{"type":"Point","properties":{"Station_ID":"MI-MC-4","Station_Nam":"ST. IGNACE 0.5SE, MI","Latitude":"45.86057","Longitude":"-84.71980","Snowdepth":"10.000","Units":"in","Rept_Date":"2019-12-11 12"},"coordinates":[3945,6824]},{"type":"Point","properties":{"Station_ID":"MA-HS-7","Station_Nam":"PLAINFIELD 2.2 SW, MA","Latitude":"42.49272","Longitude":"-72.94540","Snowdepth":"10.000","Units":"in","Rept_Date":"2019-12-11 13"},"coordinates":[7655,5002]},{"type":"Point","properties":{"Station_ID":"LEIM5","Station_Nam":"ORR 3E","Latitude":"48.05810","Longitude":"-92.75220","Snowdepth":"10.000","Units":"in","Rept_Date":"2019-12-11 12"},"coordinates":[1414,8013]},{"type":"Point","properties":{"Station_ID":"GLLM5","Station_Nam":"GULL LAKE DAM","Latitude":"46.41190","Longitude":"-94.35000","Snowdepth":"10.000","Units":"in","Rept_Date":"2019-12-11 14"},"coordinates":[910,7123]},{"type":"Point","properties":{"Station_ID":"GDCM4","Station_Nam":"GARDEN CORNERS","Latitude":"45.89830","Longitude":"-86.54850","Snowdepth":"10.000","Units":"in","Rept_Date":"2019-12-11 13"},"coordinates":[3369,6845]},{"type":"Point","properties":{"Station_ID":"CBVM1","Station_Nam":"CARRABASSETT VALLEY","Latitude":"45.08040","Longitude":"-70.30310","Snowdepth":"10.000","Units":"in","Rept_Date":"2019-12-11 12"},"coordinates":[8488,6402]},{"type":"Point","properties":{"Station_ID":"42.1284_079.8945","Station_Nam":"NORTHEAST 6SW (CLE0249)","Latitude":"42.12840","Longitude":"-79.89450","Snowdepth":"10.000","Units":"in","Rept_Date":"2019-12-11 23"},"coordinates":[5465,4804]},{"type":"Point","properties":{"Station_ID":"41.7387_080.7698","Station_Nam":"ASHTABULA (CLE1400)","Latitude":"41.73870","Longitude":"-80.76980","Snowdepth":"10.000","Units":"in","Rept_Date":"2019-12-12 00"},"coordinates":[5190,4593]},{"type":"Point","properties":{"Station_ID":"NY-CQ-6","Station_Nam":"FORESTVILLE 2.1 SW, NY","Latitude":"42.44736","Longitude":"-79.20450","Snowdepth":"9.500","Units":"in","Rept_Date":"2019-12-11 22"},"coordinates":[5683,4977]},{"type":"Point","properties":{"Station_ID":"MN-IT-7","Station_Nam":"GRAND RAPIDS 6.2 SSW, MN","Latitude":"47.13687","Longitude":"-93.56660","Snowdepth":"9.500","Units":"in","Rept_Date":"2019-12-11 12"},"coordinates":[1157,7515]},{"type":"Point","properties":{"Station_ID":"MI-CX-7","Station_Nam":"EAST JORDAN 2.1 NNW, MI","Latitude":"45.18639","Longitude":"-85.14750","Snowdepth":"9.500","Units":"in","Rept_Date":"2019-12-11 13"},"coordinates":[3810,6459]},{"type":"Point","properties":{"Station_ID":"CT-LT-15","Station_Nam":"COLEBROOK 1.0 NE, CT","Latitude":"42.00200","Longitude":"-73.08250","Snowdepth":"9.400","Units":"in","Rept_Date":"2019-12-11 12"},"coordinates":[7612,4736]},{"type":"Point","properties":{"Station_ID":"ZNOM4","Station_Nam":"NORWAY","Latitude":"45.77810","Longitude":"-87.89560","Snowdepth":"9.000","Units":"in","Rept_Date":"2019-12-12 01"},"coordinates":[2944,6780]},{"type":"Point","properties":{"Station_ID":"SMTS2","Station_Nam":"WATERTOWN-28MI.N","Latitude":"45.30000","Longitude":"-97.06670","Snowdepth":"9.000","Units":"in","Rept_Date":"2019-12-11 23"},"coordinates":[54,6521]},{"type":"Point","properties":{"Station_ID":"SIBI4","Station_Nam":"SIBLEY","Latitude":"43.40470","Longitude":"-95.74830","Snowdepth":"9.000","Units":"in","Rept_Date":"2019-12-11 13"},"coordinates":[470,5495]},{"type":"Point","properties":{"Station_ID":"SBEW3","Station_Nam":"EXP. FARM","Latitude":"44.86670","Longitude":"-87.33330","Snowdepth":"9.000","Units":"in","Rept_Date":"2019-12-11 13"},"coordinates":[3121,6286]},{"type":"Point","properties":{"Station_ID":"SAUW3","Station_Nam":"WAUSAU WSAW TV","Latitude":"44.94630","Longitude":"-89.62220","Snowdepth":"9.000","Units":"in","Rept_Date":"2019-12-12 05"},"coordinates":[2400,6329]},{"type":"Point","properties":{"Station_ID":"RHRW3","Station_Nam":"RHINELANDER WJFW TV-12","Latitude":"45.62220","Longitude":"-89.41000","Snowdepth":"9.000","Units":"in","Rept_Date":"2019-12-12 04"},"coordinates":[2467,6695]},{"type":"Point","properties":{"Station_ID":"NY-AB-54","Station_Nam":"ALTAMONT 2.9 SW, NY","Latitude":"42.68182","Longitude":"-74.08326","Snowdepth":"9.000","Units":"in","Rept_Date":"2019-12-11 12"},"coordinates":[7297,5104]},{"type":"Point","properties":{"Station_ID":"NH-CS-10","Station_Nam":"RANDOLPH 1.4 NE, NH","Latitude":"44.38824","Longitude":"-71.26950","Snowdepth":"9.000","Units":"in","Rept_Date":"2019-12-11 12"},"coordinates":[8183,6027]},{"type":"Point","properties":{"Station_ID":"MN-MR-4","Station_Nam":"LITTLE FALLS 1.2 SW, MN","Latitude":"45.96886","Longitude":"-94.37720","Snowdepth":"9.000","Units":"in","Rept_Date":"2019-12-11 13"},"coordinates":[902,6883]},{"type":"Point","properties":{"Station_ID":"MN-CK-6","Station_Nam":"GRAND MARAIS 4.4 W, MN","Latitude":"47.74865","Longitude":"-90.43760","Snowdepth":"9.000","Units":"in","Rept_Date":"2019-12-11 13"},"coordinates":[2143,7846]},{"type":"Point","properties":{"Station_ID":"MN-CK-18","Station_Nam":"GRAND MARAIS 4.4 WSW, MN","Latitude":"47.74462","Longitude":"-90.43796","Snowdepth":"9.000","Units":"in","Rept_Date":"2019-12-11 13"},"coordinates":[2143,7844]},{"type":"Point","properties":{"Station_ID":"MI-DL-4","Station_Nam":"GLADSTONE 2.1 SW, MI","Latitude":"45.83218","Longitude":"-87.05727","Snowdepth":"9.000","Units":"in","Rept_Date":"2019-12-11 12"},"coordinates":[3208,6809]},{"type":"Point","properties":{"Station_ID":"MEDW3","Station_Nam":"MEDFORD","Latitude":"45.13080","Longitude":"-90.34390","Snowdepth":"9.000","Units":"in","Rept_Date":"2019-12-11 14"},"coordinates":[2173,6429]},{"type":"Point","properties":{"Station_ID":"ME-AR-18","Station_Nam":"NEW SWEDEN 4.9 NNW, ME","Latitude":"47.01080","Longitude":"-68.14390","Snowdepth":"9.000","Units":"in","Rept_Date":"2019-12-11 12"},"coordinates":[9168,7447]},{"type":"Point","properties":{"Station_ID":"MA-WR-75","Station_Nam":"WARREN 2.4 WSW, MA","Latitude":"42.20400","Longitude":"-72.23540","Snowdepth":"9.000","Units":"in","Rept_Date":"2019-12-11 12"},"coordinates":[7879,4845]},{"type":"Point","properties":{"Station_ID":"MA-WR-22","Station_Nam":"FITCHBURG 2.0 NNE, MA","Latitude":"42.61671","Longitude":"-71.80100","Snowdepth":"9.000","Units":"in","Rept_Date":"2019-12-11 13"},"coordinates":[8016,5069]},{"type":"Point","properties":{"Station_ID":"LNGM5","Station_Nam":"LONG PRAIRIE","Latitude":"45.96460","Longitude":"-94.88920","Snowdepth":"9.000","Units":"in","Rept_Date":"2019-12-11 12"},"coordinates":[740,6880]},{"type":"Point","properties":{"Station_ID":"JIMW3","Station_Nam":"JIM FALLS 3NW","Latitude":"45.08270","Longitude":"-91.33130","Snowdepth":"9.000","Units":"in","Rept_Date":"2019-12-11 12"},"coordinates":[1861,6403]},{"type":"Point","properties":{"Station_ID":"IA-DK-11","Station_Nam":"SPIRIT LAKE 1.7 SW, IA","Latitude":"43.40694","Longitude":"-95.13694","Snowdepth":"9.000","Units":"in","Rept_Date":"2019-12-11 13"},"coordinates":[662,5496]},{"type":"Point","properties":{"Station_ID":"GRFN8","Station_Nam":"UNIVERSITY","Latitude":"47.93330","Longitude":"-97.08330","Snowdepth":"9.000","Units":"in","Rept_Date":"2019-12-12 06"},"coordinates":[49,7946]},{"type":"Point","properties":{"Station_ID":"FORM5","Station_Nam":"FOREST LAKE 5NE","Latitude":"45.33170","Longitude":"-92.89820","Snowdepth":"9.000","Units":"in","Rept_Date":"2019-12-11 13"},"coordinates":[1368,6538]},{"type":"Point","properties":{"Station_ID":"FCHM3","Station_Nam":"FITCHBURG COOP","Latitude":"42.61680","Longitude":"-71.80170","Snowdepth":"9.000","Units":"in","Rept_Date":"2019-12-11 13"},"coordinates":[8015,5069]},{"type":"Point","properties":{"Station_ID":"ELKM5","Station_Nam":"ELK RIVER","Latitude":"45.30470","Longitude":"-93.58420","Snowdepth":"9.000","Units":"in","Rept_Date":"2019-12-11 13"},"coordinates":[1152,6523]},{"type":"Point","properties":{"Station_ID":"EJNM4","Station_Nam":"EAST JORDAN 2NW","Latitude":"45.18630","Longitude":"-85.14770","Snowdepth":"9.000","Units":"in","Rept_Date":"2019-12-11 13"},"coordinates":[3810,6459]},{"type":"Point","properties":{"Station_ID":"COKM5","Station_Nam":"COOK","Latitude":"47.85060","Longitude":"-92.69250","Snowdepth":"9.000","Units":"in","Rept_Date":"2019-12-11 12"},"coordinates":[1433,7901]},{"type":"Point","properties":{"Station_ID":"CMBM5","Station_Nam":"CAMBRIDGE","Latitude":"45.55640","Longitude":"-93.23480","Snowdepth":"9.000","Units":"in","Rept_Date":"2019-12-11 14"},"coordinates":[1262,6660]},{"type":"Point","properties":{"Station_ID":"AUW","Station_Nam":"WAUSAU MUNICIPAL AIRPORT","Latitude":"44.92580","Longitude":"-89.62560","Snowdepth":"9.000","Units":"in","Rept_Date":"2019-12-11 12"},"coordinates":[2399,6318]},{"type":"Point","properties":{"Station_ID":"42.0800_080.0143","Station_Nam":"ERIE 5SE  SNOW SPOTTER (X4210800)","Latitude":"42.08000","Longitude":"-80.01430","Snowdepth":"9.000","Units":"in","Rept_Date":"2019-12-12 00"},"coordinates":[5428,4778]},{"type":"Point","properties":{"Station_ID":"41.8556_080.7983","Station_Nam":"ASHTABULA 3S (X4190808)","Latitude":"41.85560","Longitude":"-80.79830","Snowdepth":"9.000","Units":"in","Rept_Date":"2019-12-11 11"},"coordinates":[5181,4657]},{"type":"Point","properties":{"Station_ID":"SOCQ6","Station_Nam":"SOCKET LAKE","Latitude":"50.77870","Longitude":"-91.79300","Snowdepth":"8.940","Units":"in","Rept_Date":"2019-12-12 06"},"coordinates":[1716,9486]},{"type":"Point","properties":{"Station_ID":"WI-EC-23","Station_Nam":"EAU CLAIRE 3.7 S, WI","Latitude":"44.76858","Longitude":"-91.49898","Snowdepth":"8.500","Units":"in","Rept_Date":"2019-12-11 14"},"coordinates":[1809,6233]},{"type":"Point","properties":{"Station_ID":"MA-WR-56","Station_Nam":"STERLING 4.3 NW, MA","Latitude":"42.47540","Longitude":"-71.81140","Snowdepth":"8.500","Units":"in","Rept_Date":"2019-12-11 12"},"coordinates":[8012,4992]},{"type":"Point","properties":{"Station_ID":"PA-ER-2","Station_Nam":"ERIE 5.6 SW, PA","Latitude":"42.06086","Longitude":"-80.15260","Snowdepth":"8.400","Units":"in","Rept_Date":"2019-12-11 11"},"coordinates":[5384,4768]},{"type":"Point","properties":{"Station_ID":"42.0609_080.1526","Station_Nam":"6 SW Erie  CoCoRaHS (PA-ER-2)","Latitude":"42.06090","Longitude":"-80.15260","Snowdepth":"8.400","Units":"in","Rept_Date":"2019-12-11 11"},"coordinates":[5384,4768]},{"type":"Point","properties":{"Station_ID":"QWE","Station_Nam":"QWE","Latitude":"47.84610","Longitude":"-73.80670","Snowdepth":"8.386","Units":"in","Rept_Date":"2019-12-11 12"},"coordinates":[7384,7899]},{"type":"Point","properties":{"Station_ID":"QLI","Station_Nam":"QLI","Latitude":"50.27080","Longitude":"-73.92280","Snowdepth":"8.268","Units":"in","Rept_Date":"2019-12-11 12"},"coordinates":[7347,9211]},{"type":"Point","properties":{"Station_ID":"KABQ6","Station_Nam":"CAB LAKE","Latitude":"49.59950","Longitude":"-89.17990","Snowdepth":"8.110","Units":"in","Rept_Date":"2019-12-12 06"},"coordinates":[2539,8848]},{"type":"Point","properties":{"Station_ID":"WI-CH-3","Station_Nam":"CORNELL 4.1 W, WI","Latitude":"45.17024","Longitude":"-91.23610","Snowdepth":"8.000","Units":"in","Rept_Date":"2019-12-11 14"},"coordinates":[1891,6451]},{"type":"Point","properties":{"Station_ID":"STC","Station_Nam":"ST. CLOUD REGIONAL AIRPORT","Latitude":"45.54330","Longitude":"-94.05140","Snowdepth":"8.000","Units":"in","Rept_Date":"2019-12-12 00"},"coordinates":[1004,6652]},{"type":"Point","properties":{"Station_ID":"SCSM5","Station_Nam":"ST CLOUD STATE","Latitude":"45.55100","Longitude":"-94.14950","Snowdepth":"8.000","Units":"in","Rept_Date":"2019-12-11 12"},"coordinates":[973,6657]},{"type":"Point","properties":{"Station_ID":"RSTW3","Station_Nam":"ROSHOLT","Latitude":"44.62710","Longitude":"-89.30600","Snowdepth":"8.000","Units":"in","Rept_Date":"2019-12-11 13"},"coordinates":[2500,6157]},{"type":"Point","properties":{"Station_ID":"RRLW3","Station_Nam":"MERRILL,WI","Latitude":"45.17860","Longitude":"-89.66170","Snowdepth":"8.000","Units":"in","Rept_Date":"2019-12-11 14"},"coordinates":[2388,6455]},{"type":"Point","properties":{"Station_ID":"PTYM4","Station_Nam":"PETOSKEY NCMC","Latitude":"45.36120","Longitude":"-84.95110","Snowdepth":"8.000","Units":"in","Rept_Date":"2019-12-11 13"},"coordinates":[3872,6554]},{"type":"Point","properties":{"Station_ID":"PRNM3","Station_Nam":"PRINCETON","Latitude":"42.47780","Longitude":"-71.86440","Snowdepth":"8.000","Units":"in","Rept_Date":"2019-12-11 15"},"coordinates":[7996,4993]},{"type":"Point","properties":{"Station_ID":"MTQM4","Station_Nam":"MANISTIQUE WWTP","Latitude":"45.95120","Longitude":"-86.25130","Snowdepth":"8.000","Units":"in","Rept_Date":"2019-12-11 12"},"coordinates":[3462,6873]},{"type":"Point","properties":{"Station_ID":"MN-CG-16","Station_Nam":"NORTH BRANCH 1.3 NNW, MN","Latitude":"45.53121","Longitude":"-92.97110","Snowdepth":"8.000","Units":"in","Rept_Date":"2019-12-11 12"},"coordinates":[1345,6646]},{"type":"Point","properties":{"Station_ID":"MEMW3","Station_Nam":"MENOMONIE","Latitude":"44.87430","Longitude":"-91.93640","Snowdepth":"8.000","Units":"in","Rept_Date":"2019-12-11 13"},"coordinates":[1671,6290]},{"type":"Point","properties":{"Station_ID":"LGRN8","Station_Nam":"LIDGERWOOD,ND","Latitude":"46.06670","Longitude":"-97.16670","Snowdepth":"8.000","Units":"in","Rept_Date":"2019-12-11 13"},"coordinates":[23,6936]},{"type":"Point","properties":{"Station_ID":"LBKV1","Station_Nam":"LYE BROOK","Latitude":"43.05000","Longitude":"-73.03330","Snowdepth":"8.000","Units":"in","Rept_Date":"2019-12-12 06"},"coordinates":[7627,5303]},{"type":"Point","properties":{"Station_ID":"FDRN8","Station_Nam":"FARGO 3S","Latitude":"46.82930","Longitude":"-96.79620","Snowdepth":"8.000","Units":"in","Rept_Date":"2019-12-12 06"},"coordinates":[139,7348]},{"type":"Point","properties":{"Station_ID":"FAR","Station_Nam":"HECTOR INTERNATIONAL ARPT","Latitude":"46.91560","Longitude":"-96.81440","Snowdepth":"8.000","Units":"in","Rept_Date":"2019-12-12 00"},"coordinates":[134,7395]},{"type":"Point","properties":{"Station_ID":"ELRW3","Station_Nam":"EAU CLAIRE 3SW","Latitude":"44.78780","Longitude":"-91.51650","Snowdepth":"8.000","Units":"in","Rept_Date":"2019-12-12 06"},"coordinates":[1803,6244]},{"type":"Point","properties":{"Station_ID":"DTVM4","Station_Nam":"DETOUR VILLAGE","Latitude":"45.99830","Longitude":"-83.90130","Snowdepth":"8.000","Units":"in","Rept_Date":"2019-12-11 13"},"coordinates":[4203,6899]},{"type":"Point","properties":{"Station_ID":"CAN-NB-13","Station_Nam":"BATHURST 3.8 NW, CAN","Latitude":"47.64212","Longitude":"-65.68756","Snowdepth":"8.000","Units":"in","Rept_Date":"2019-12-11 11"},"coordinates":[9942,7788]},{"type":"Point","properties":{"Station_ID":"BREW3","Station_Nam":"SURING","Latitude":"44.99580","Longitude":"-88.37860","Snowdepth":"8.000","Units":"in","Rept_Date":"2019-12-11 13"},"coordinates":[2792,6356]},{"type":"Point","properties":{"Station_ID":"42.2002_079.8021","Station_Nam":"2 ESE North East  Trained Spotter (CLE0183)","Latitude":"42.20018","Longitude":"-79.80210","Snowdepth":"8.000","Units":"in","Rept_Date":"2019-12-12 00"},"coordinates":[5494,4843]},{"type":"Point","properties":{"Station_ID":"41.8723_080.7363","Station_Nam":"Edgewood  Trained Spotter (X4190807)","Latitude":"41.87235","Longitude":"-80.73632","Snowdepth":"8.000","Units":"in","Rept_Date":"2019-12-12 00"},"coordinates":[5200,4666]},{"type":"Point","properties":{"Station_ID":"41.8605_080.7684","Station_Nam":"ASHTABULA  SNOW SPOTTER (CLE1449)","Latitude":"41.86050","Longitude":"-80.76840","Snowdepth":"8.000","Units":"in","Rept_Date":"2019-12-11 10"},"coordinates":[5190,4659]},{"type":"Point","properties":{"Station_ID":"41.8478_080.6111","Station_Nam":"4 SSW CONNEAUT I-90  TRAINED SPOTTER (CLE1457)","Latitude":"41.84780","Longitude":"-80.61110","Snowdepth":"8.000","Units":"in","Rept_Date":"2019-12-11 12"},"coordinates":[5240,4652]},{"type":"Point","properties":{"Station_ID":"QIQ","Station_Nam":"QIQ","Latitude":"49.82390","Longitude":"-68.54310","Snowdepth":"7.716","Units":"in","Rept_Date":"2019-12-11 12"},"coordinates":[9042,8969]},{"type":"Point","properties":{"Station_ID":"WI-DN-15","Station_Nam":"MENOMONIE 0.9 NW, WI","Latitude":"44.89832","Longitude":"-91.92398","Snowdepth":"7.500","Units":"in","Rept_Date":"2019-12-11 13"},"coordinates":[1675,6303]},{"type":"Point","properties":{"Station_ID":"NH-HL-48","Station_Nam":"GREENVILLE 1.1 ENE, NH","Latitude":"42.77674","Longitude":"-71.77990","Snowdepth":"7.500","Units":"in","Rept_Date":"2019-12-11 13"},"coordinates":[8022,5155]},{"type":"Point","properties":{"Station_ID":"MI-OT-17","Station_Nam":"GAYLORD 4.1 S, MI","Latitude":"44.96388","Longitude":"-84.68467","Snowdepth":"7.500","Units":"in","Rept_Date":"2019-12-11 12"},"coordinates":[3956,6339]},{"type":"Point","properties":{"Station_ID":"ME-YK-52","Station_Nam":"YORK 5.2 N, ME","Latitude":"43.23585","Longitude":"-70.63400","Snowdepth":"7.500","Units":"in","Rept_Date":"2019-12-11 12"},"coordinates":[8383,5404]},{"type":"Point","properties":{"Station_ID":"CAN-NB-105","Station_Nam":"SISSON BROOK 3.8 E, CAN","Latitude":"46.98305","Longitude":"-67.32532","Snowdepth":"7.500","Units":"in","Rept_Date":"2019-12-11 12"},"coordinates":[9426,7432]},{"type":"Point","properties":{"Station_ID":"NY-HR-18","Station_Nam":"SALISBURY CENTER 1.8 NW, NY","Latitude":"43.16260","Longitude":"-74.80880","Snowdepth":"7.300","Units":"in","Rept_Date":"2019-12-11 11"},"coordinates":[7068,5364]},{"type":"Point","properties":{"Station_ID":"CATQ6","Station_Nam":"CAT LAKE","Latitude":"51.72690","Longitude":"-91.82210","Snowdepth":"7.280","Units":"in","Rept_Date":"2019-12-12 06"},"coordinates":[1707,9999]},{"type":"Point","properties":{"Station_ID":"FTHQ6","Station_Nam":"FORT HOPE","Latitude":"51.55820","Longitude":"-87.90510","Snowdepth":"7.090","Units":"in","Rept_Date":"2019-12-12 06"},"coordinates":[2941,9908]},{"type":"Point","properties":{"Station_ID":"MRL","Station_Nam":"MRL","Latitude":"51.28330","Longitude":"-68.84060","Snowdepth":"7.087","Units":"in","Rept_Date":"2019-12-11 12"},"coordinates":[8949,9759]},{"type":"Point","properties":{"Station_ID":"WUNW3","Station_Nam":"WAUSAU-NORTHEAST","Latitude":"44.97310","Longitude":"-89.61690","Snowdepth":"7.000","Units":"in","Rept_Date":"2019-12-11 12"},"coordinates":[2402,6344]},{"type":"Point","properties":{"Station_ID":"WMRM5","Station_Nam":"WILLMAR 5N","Latitude":"45.19010","Longitude":"-95.05860","Snowdepth":"7.000","Units":"in","Rept_Date":"2019-12-11 12"},"coordinates":[687,6461]},{"type":"Point","properties":{"Station_ID":"WLKM5","Station_Nam":"AH-GWAH-CHING","Latitude":"47.15000","Longitude":"-94.65000","Snowdepth":"7.000","Units":"in","Rept_Date":"2019-12-11 11"},"coordinates":[816,7522]},{"type":"Point","properties":{"Station_ID":"WI-PT-8","Station_Nam":"RUDOLPH 2.1 NNE, WI","Latitude":"44.52553","Longitude":"-89.78677","Snowdepth":"7.000","Units":"in","Rept_Date":"2019-12-11 11"},"coordinates":[2348,6102]},{"type":"Point","properties":{"Station_ID":"WI-PC-5","Station_Nam":"RIVER FALLS 1.2 SSW, WI","Latitude":"44.84032","Longitude":"-92.63500","Snowdepth":"7.000","Units":"in","Rept_Date":"2019-12-11 13"},"coordinates":[1451,6272]},{"type":"Point","properties":{"Station_ID":"WASW3","Station_Nam":"WASHINGTON IS","Latitude":"45.35800","Longitude":"-86.89110","Snowdepth":"7.000","Units":"in","Rept_Date":"2019-12-11 13"},"coordinates":[3261,6552]},{"type":"Point","properties":{"Station_ID":"STRW3","Station_Nam":"STRATFORD 1NW","Latitude":"44.81750","Longitude":"-90.08990","Snowdepth":"7.000","Units":"in","Rept_Date":"2019-12-11 13"},"coordinates":[2253,6260]},{"type":"Point","properties":{"Station_ID":"SSMM4","Station_Nam":"SAULT STE MARIE","Latitude":"46.48660","Longitude":"-84.40250","Snowdepth":"7.000","Units":"in","Rept_Date":"2019-12-11 13"},"coordinates":[4045,7163]},{"type":"Point","properties":{"Station_ID":"SPRI4","Station_Nam":"SPIRIT LAKE","Latitude":"43.42310","Longitude":"-95.10000","Snowdepth":"7.000","Units":"in","Rept_Date":"2019-12-11 13"},"coordinates":[674,5505]},{"type":"Point","properties":{"Station_ID":"SPCW3","Station_Nam":"SPENCER-WWTP","Latitude":"44.75390","Longitude":"-90.28920","Snowdepth":"7.000","Units":"in","Rept_Date":"2019-12-11 13"},"coordinates":[2190,6225]},{"type":"Point","properties":{"Station_ID":"SHHW3","Station_Nam":"SHAWANO 2SSW","Latitude":"44.76310","Longitude":"-88.61830","Snowdepth":"7.000","Units":"in","Rept_Date":"2019-12-11 14"},"coordinates":[2716,6230]},{"type":"Point","properties":{"Station_ID":"SHHN6","Station_Nam":"SCHOHARIE VILLAGE","Latitude":"42.66500","Longitude":"-74.30360","Snowdepth":"7.000","Units":"in","Rept_Date":"2019-12-11 12"},"coordinates":[7227,5095]},{"type":"Point","properties":{"Station_ID":"RUTM3","Station_Nam":"RUTLAND","Latitude":"42.38410","Longitude":"-71.90460","Snowdepth":"7.000","Units":"in","Rept_Date":"2019-12-11 16"},"coordinates":[7983,4943]},{"type":"Point","properties":{"Station_ID":"ROWM3","Station_Nam":"ROWE 3NE","Latitude":"42.73500","Longitude":"-72.86920","Snowdepth":"7.000","Units":"in","Rept_Date":"2019-12-11 12"},"coordinates":[7679,5133]},{"type":"Point","properties":{"Station_ID":"PSHW3","Station_Nam":"PESHTIGO","Latitude":"45.02810","Longitude":"-87.73560","Snowdepth":"7.000","Units":"in","Rept_Date":"2019-12-11 13"},"coordinates":[2995,6374]},{"type":"Point","properties":{"Station_ID":"PHMM3","Station_Nam":"PETERSHAM 3SW","Latitude":"42.44080","Longitude":"-72.20940","Snowdepth":"7.000","Units":"in","Rept_Date":"2019-12-11 16"},"coordinates":[7887,4973]},{"type":"Point","properties":{"Station_ID":"PELW3","Station_Nam":"PELLA 3SE","Latitude":"44.73580","Longitude":"-88.73780","Snowdepth":"7.000","Units":"in","Rept_Date":"2019-12-11 11"},"coordinates":[2679,6215]},{"type":"Point","properties":{"Station_ID":"OWEW3","Station_Nam":"OWEN 2N","Latitude":"44.98010","Longitude":"-90.55440","Snowdepth":"7.000","Units":"in","Rept_Date":"2019-12-11 13"},"coordinates":[2106,6348]},{"type":"Point","properties":{"Station_ID":"NY-SR-22","Station_Nam":"GREENFIELD CENTER 1.6 W, NY","Latitude":"43.12684","Longitude":"-73.87860","Snowdepth":"7.000","Units":"in","Rept_Date":"2019-12-11 13"},"coordinates":[7361,5345]},{"type":"Point","properties":{"Station_ID":"NEDM1","Station_Nam":"CAPE NEDDICK","Latitude":"43.22410","Longitude":"-70.63880","Snowdepth":"7.000","Units":"in","Rept_Date":"2019-12-11 12"},"coordinates":[8382,5397]},{"type":"Point","properties":{"Station_ID":"MSP","Station_Nam":"MINNEAPOLIS-ST PAUL INTL AP","Latitude":"44.88310","Longitude":"-93.22890","Snowdepth":"7.000","Units":"in","Rept_Date":"2019-12-12 00"},"coordinates":[1264,6295]},{"type":"Point","properties":{"Station_ID":"MRIW3","Station_Nam":"MARINETTE","Latitude":"45.09830","Longitude":"-87.62360","Snowdepth":"7.000","Units":"in","Rept_Date":"2019-12-11 13"},"coordinates":[3030,6412]},{"type":"Point","properties":{"Station_ID":"MNJ9SHHK","Station_Nam":"MONTICELLO 4.4 WSW","Latitude":"45.28278","Longitude":"-93.88737","Snowdepth":"7.000","Units":"in","Rept_Date":"2019-12-11 13"},"coordinates":[1056,6511]},{"type":"Point","properties":{"Station_ID":"MN228YHJ","Station_Nam":"RICE 2.8 ESE","Latitude":"45.73609","Longitude":"-94.17230","Snowdepth":"7.000","Units":"in","Rept_Date":"2019-12-11 13"},"coordinates":[966,6757]},{"type":"Point","properties":{"Station_ID":"MN-DK-53","Station_Nam":"LAKEVILLE 3.8 ENE, MN","Latitude":"44.70423","Longitude":"-93.18460","Snowdepth":"7.000","Units":"in","Rept_Date":"2019-12-11 13"},"coordinates":[1277,6198]},{"type":"Point","properties":{"Station_ID":"MFDW3","Station_Nam":"MARSHFIELD EXP FARM","Latitude":"44.64110","Longitude":"-90.13330","Snowdepth":"7.000","Units":"in","Rept_Date":"2019-12-11 13"},"coordinates":[2239,6164]},{"type":"Point","properties":{"Station_ID":"ME-SM-10","Station_Nam":"NORTH NEW PORTLAND 0.3 WSW, ME","Latitude":"44.92353","Longitude":"-70.02788","Snowdepth":"7.000","Units":"in","Rept_Date":"2019-12-11 12"},"coordinates":[8574,6317]},{"type":"Point","properties":{"Station_ID":"ME-AR-15","Station_Nam":"PRESQUE ISLE 1.3 WSW, ME","Latitude":"46.67960","Longitude":"-68.01270","Snowdepth":"7.000","Units":"in","Rept_Date":"2019-12-11 12"},"coordinates":[9209,7267]},{"type":"Point","properties":{"Station_ID":"LKFM5","Station_Nam":"LAKEFIELD,MN","Latitude":"43.68330","Longitude":"-95.18330","Snowdepth":"7.000","Units":"in","Rept_Date":"2019-12-11 13"},"coordinates":[648,5646]},{"type":"Point","properties":{"Station_ID":"KMSP","Station_Nam":"MINNEAPOLIS-ST PAUL INTERNATIONAL","Latitude":"44.86666","Longitude":"-93.21666","Snowdepth":"7.000","Units":"in","Rept_Date":"2019-12-12 06"},"coordinates":[1267,6286]},{"type":"Point","properties":{"Station_ID":"KIMM5","Station_Nam":"KIMBALL 3N","Latitude":"45.35330","Longitude":"-94.30560","Snowdepth":"7.000","Units":"in","Rept_Date":"2019-12-11 12"},"coordinates":[924,6550]},{"type":"Point","properties":{"Station_ID":"JUDW3","Station_Nam":"FISH CREEK 3S - JUDDVILLE","Latitude":"45.08920","Longitude":"-87.25890","Snowdepth":"7.000","Units":"in","Rept_Date":"2019-12-11 14"},"coordinates":[3145,6407]},{"type":"Point","properties":{"Station_ID":"GHMN3","Station_Nam":"PINKHAM NOTCH","Latitude":"44.25800","Longitude":"-71.25250","Snowdepth":"7.000","Units":"in","Rept_Date":"2019-12-11 11"},"coordinates":[8189,5957]},{"type":"Point","properties":{"Station_ID":"EPMW3","Station_Nam":"EPHRAIM-1 NE WWTP","Latitude":"45.17080","Longitude":"-87.15360","Snowdepth":"7.000","Units":"in","Rept_Date":"2019-12-11 14"},"coordinates":[3178,6451]},{"type":"Point","properties":{"Station_ID":"DFXM1","Station_Nam":"DOVER-FOXCROFT","Latitude":"45.18720","Longitude":"-69.18350","Snowdepth":"7.000","Units":"in","Rept_Date":"2019-12-11 12"},"coordinates":[8840,6460]},{"type":"Point","properties":{"Station_ID":"CVZW3","Station_Nam":"WISCONSIN PUBLIC SERVICE","Latitude":"45.23530","Longitude":"-88.01360","Snowdepth":"7.000","Units":"in","Rept_Date":"2019-12-11 12"},"coordinates":[2907,6486]},{"type":"Point","properties":{"Station_ID":"CT-LT-9","Station_Nam":"NEW HARTFORD CENTER 3.2 SW, CT","Latitude":"41.84170","Longitude":"-73.00920","Snowdepth":"7.000","Units":"in","Rept_Date":"2019-12-11 12"},"coordinates":[7635,4649]},{"type":"Point","properties":{"Station_ID":"CARM1","Station_Nam":"CARIBOU WFO","Latitude":"46.86810","Longitude":"-68.01250","Snowdepth":"7.000","Units":"in","Rept_Date":"2019-12-12 05"},"coordinates":[9209,7369]},{"type":"Point","properties":{"Station_ID":"CAR","Station_Nam":"CARIBOU, ME","Latitude":"46.86830","Longitude":"-68.01360","Snowdepth":"7.000","Units":"in","Rept_Date":"2019-12-11 12"},"coordinates":[9209,7370]},{"type":"Point","properties":{"Station_ID":"BRDM1","Station_Nam":"BRIDGEWATER","Latitude":"46.42870","Longitude":"-67.84370","Snowdepth":"7.000","Units":"in","Rept_Date":"2019-12-11 23"},"coordinates":[9263,7132]},{"type":"Point","properties":{"Station_ID":"BAKC3","Station_Nam":"BAKERSVILLE","Latitude":"41.84180","Longitude":"-73.00850","Snowdepth":"7.000","Units":"in","Rept_Date":"2019-12-11 12"},"coordinates":[7635,4649]},{"type":"Point","properties":{"Station_ID":"ANJM4","Station_Nam":"SNOW PAID OBSERVER FOR KANJ","Latitude":"46.48670","Longitude":"-84.40260","Snowdepth":"7.000","Units":"in","Rept_Date":"2019-12-12 00"},"coordinates":[4045,7163]},{"type":"Point","properties":{"Station_ID":"ANJ","Station_Nam":"SAULT STE MARIE","Latitude":"46.46670","Longitude":"-84.36670","Snowdepth":"7.000","Units":"in","Rept_Date":"2019-12-12 00"},"coordinates":[4056,7152]},{"type":"Point","properties":{"Station_ID":"AGSW3","Station_Nam":"AUGUSTA RANGER STATION","Latitude":"44.68250","Longitude":"-91.13570","Snowdepth":"7.000","Units":"in","Rept_Date":"2019-12-11 14"},"coordinates":[1923,6187]},{"type":"Point","properties":{"Station_ID":"42.0299_080.0884","Station_Nam":"SUMMIT TWP  SNOW SPOTTER (X4200801)","Latitude":"42.02990","Longitude":"-80.08840","Snowdepth":"7.000","Units":"in","Rept_Date":"2019-12-11 12"},"coordinates":[5404,4751]},{"type":"Point","properties":{"Station_ID":"41.9208_080.5841","Station_Nam":"CONNEAUT  SNOW SPOTTER (CLE1454)","Latitude":"41.92080","Longitude":"-80.58410","Snowdepth":"7.000","Units":"in","Rept_Date":"2019-12-11 14"},"coordinates":[5248,4692]},{"type":"Point","properties":{"Station_ID":"41.8791_080.8570","Station_Nam":"2 WSW Harbor  Trained Spotter (CLE1475)","Latitude":"41.87906","Longitude":"-80.85702","Snowdepth":"7.000","Units":"in","Rept_Date":"2019-12-11 12"},"coordinates":[5162,4669]},{"type":"Point","properties":{"Station_ID":"41.8520_080.7999","Station_Nam":"ASHTABULA 3S (CLE1402)","Latitude":"41.85200","Longitude":"-80.79990","Snowdepth":"7.000","Units":"in","Rept_Date":"2019-12-11 13"},"coordinates":[5180,4655]},{"type":"Point","properties":{"Station_ID":"QGA","Station_Nam":"QGA","Latitude":"47.25640","Longitude":"-73.73810","Snowdepth":"6.693","Units":"in","Rept_Date":"2019-12-11 12"},"coordinates":[7405,7580]},{"type":"Point","properties":{"Station_ID":"MN-BK-10","Station_Nam":"DETROIT LAKES 5.7 N, MN","Latitude":"46.88666","Longitude":"-95.84444","Snowdepth":"6.500","Units":"in","Rept_Date":"2019-12-11 10"},"coordinates":[439,7379]},{"type":"Point","properties":{"Station_ID":"WRNM5","Station_Nam":"WORTHINGTON,MN","Latitude":"43.65440","Longitude":"-95.57920","Snowdepth":"6.000","Units":"in","Rept_Date":"2019-12-11 13"},"coordinates":[523,5630]},{"type":"Point","properties":{"Station_ID":"WI-PK-4","Station_Nam":"DRESSER 6.1 ESE, WI","Latitude":"45.32436","Longitude":"-92.52080","Snowdepth":"6.000","Units":"in","Rept_Date":"2019-12-11 14"},"coordinates":[1487,6534]},{"type":"Point","properties":{"Station_ID":"WI-DN-5","Station_Nam":"ELK MOUND 1.3 NE, WI","Latitude":"44.88627","Longitude":"-91.66680","Snowdepth":"6.000","Units":"in","Rept_Date":"2019-12-11 13"},"coordinates":[1756,6297]},{"type":"Point","properties":{"Station_ID":"WI-BN-6","Station_Nam":"SUAMICO 4.4 WNW, WI","Latitude":"44.66111","Longitude":"-88.11780","Snowdepth":"6.000","Units":"in","Rept_Date":"2019-12-11 13"},"coordinates":[2874,6175]},{"type":"Point","properties":{"Station_ID":"WDOM5","Station_Nam":"WINDOM","Latitude":"43.87700","Longitude":"-95.11590","Snowdepth":"6.000","Units":"in","Rept_Date":"2019-12-11 14"},"coordinates":[669,5751]},{"type":"Point","properties":{"Station_ID":"WABM5","Station_Nam":"WABASHA","Latitude":"44.38500","Longitude":"-92.04860","Snowdepth":"6.000","Units":"in","Rept_Date":"2019-12-11 13"},"coordinates":[1635,6026]},{"type":"Point","properties":{"Station_ID":"VANM1","Station_Nam":"VAN BUREN","Latitude":"47.16600","Longitude":"-67.93900","Snowdepth":"6.000","Units":"in","Rept_Date":"2019-12-11 12"},"coordinates":[9233,7531]},{"type":"Point","properties":{"Station_ID":"UMNM5","Station_Nam":"UNIVERSITY OF MN ST. PAUL","Latitude":"44.99020","Longitude":"-93.17990","Snowdepth":"6.000","Units":"in","Rept_Date":"2019-12-11 14"},"coordinates":[1279,6353]},{"type":"Point","properties":{"Station_ID":"SBNM5","Station_Nam":"SABIN","Latitude":"46.77690","Longitude":"-96.65610","Snowdepth":"6.000","Units":"in","Rept_Date":"2019-12-11 14"},"coordinates":[184,7320]},{"type":"Point","properties":{"Station_ID":"RCEM5","Station_Nam":"RICE","Latitude":"45.75760","Longitude":"-94.20720","Snowdepth":"6.000","Units":"in","Rept_Date":"2019-12-11 13"},"coordinates":[955,6768]},{"type":"Point","properties":{"Station_ID":"PRGN6","Station_Nam":"PERRYSBURG","Latitude":"42.46470","Longitude":"-79.00310","Snowdepth":"6.000","Units":"in","Rept_Date":"2019-12-11 12"},"coordinates":[5746,4986]},{"type":"Point","properties":{"Station_ID":"PHON6","Station_Nam":"PHOENICIA 2SW","Latitude":"42.06420","Longitude":"-74.34080","Snowdepth":"6.000","Units":"in","Rept_Date":"2019-12-11 11"},"coordinates":[7215,4770]},{"type":"Point","properties":{"Station_ID":"PEKN6","Station_Nam":"PECK LAKE","Latitude":"43.11500","Longitude":"-74.42360","Snowdepth":"6.000","Units":"in","Rept_Date":"2019-12-11 12"},"coordinates":[7189,5338]},{"type":"Point","properties":{"Station_ID":"NY-SC-20","Station_Nam":"ROTTERDAM 0.9 NW, NY","Latitude":"42.78862","Longitude":"-73.96671","Snowdepth":"6.000","Units":"in","Rept_Date":"2019-12-11 13"},"coordinates":[7333,5162]},{"type":"Point","properties":{"Station_ID":"MRLV1","Station_Nam":"MARLBORO","Latitude":"42.86000","Longitude":"-72.72000","Snowdepth":"6.000","Units":"in","Rept_Date":"2019-12-11 13"},"coordinates":[7726,5200]},{"type":"Point","properties":{"Station_ID":"MN-WR-25","Station_Nam":"SAINT MICHAEL 2.0 ENE, MN","Latitude":"45.20820","Longitude":"-93.65280","Snowdepth":"6.000","Units":"in","Rept_Date":"2019-12-11 12"},"coordinates":[1130,6471]},{"type":"Point","properties":{"Station_ID":"MN-SR-24","Station_Nam":"PAYNESVILLE 1.9 SSW, MN","Latitude":"45.35170","Longitude":"-94.73120","Snowdepth":"6.000","Units":"in","Rept_Date":"2019-12-11 13"},"coordinates":[790,6549]},{"type":"Point","properties":{"Station_ID":"MN-SC-2","Station_Nam":"PRIOR LAKE 2.0 W, MN","Latitude":"44.71250","Longitude":"-93.46360","Snowdepth":"6.000","Units":"in","Rept_Date":"2019-12-11 13"},"coordinates":[1190,6203]},{"type":"Point","properties":{"Station_ID":"MN-MK-12","Station_Nam":"WATKINS 3.2 WSW, MN","Latitude":"45.30107","Longitude":"-94.47460","Snowdepth":"6.000","Units":"in","Rept_Date":"2019-12-11 15"},"coordinates":[871,6521]},{"type":"Point","properties":{"Station_ID":"MN-HN-6","Station_Nam":"LONG LAKE 0.2 WSW, MN","Latitude":"44.98290","Longitude":"-93.57360","Snowdepth":"6.000","Units":"in","Rept_Date":"2019-12-11 14"},"coordinates":[1155,6349]},{"type":"Point","properties":{"Station_ID":"MN-DK-70","Station_Nam":"EAGAN 2.0 NNW, MN","Latitude":"44.84322","Longitude":"-93.17899","Snowdepth":"6.000","Units":"in","Rept_Date":"2019-12-11 15"},"coordinates":[1279,6274]},{"type":"Point","properties":{"Station_ID":"MLBS2","Station_Nam":"MILBANK","Latitude":"45.22040","Longitude":"-96.62530","Snowdepth":"6.000","Units":"in","Rept_Date":"2019-12-11 13"},"coordinates":[193,6478]},{"type":"Point","properties":{"Station_ID":"MI-CP-7","Station_Nam":"DRUMMOND 2.9 NE, MI","Latitude":"46.05329","Longitude":"-83.69060","Snowdepth":"6.000","Units":"in","Rept_Date":"2019-12-11 14"},"coordinates":[4269,6928]},{"type":"Point","properties":{"Station_ID":"ME-YK-2","Station_Nam":"KITTERY POINT 0.8 WSW, ME","Latitude":"43.08101","Longitude":"-70.71380","Snowdepth":"6.000","Units":"in","Rept_Date":"2019-12-11 12"},"coordinates":[8358,5320]},{"type":"Point","properties":{"Station_ID":"ME-PN-45","Station_Nam":"MILLINOCKET 2.7 ESE, ME","Latitude":"45.65002","Longitude":"-68.64472","Snowdepth":"6.000","Units":"in","Rept_Date":"2019-12-11 12"},"coordinates":[9010,6710]},{"type":"Point","properties":{"Station_ID":"KABM5","Station_Nam":"KABETOGAMA LAKE VISITOR CTR","Latitude":"48.40880","Longitude":"-93.04840","Snowdepth":"6.000","Units":"in","Rept_Date":"2019-12-11 13"},"coordinates":[1320,8203]},{"type":"Point","properties":{"Station_ID":"INL","Station_Nam":"FALLS INTERNATIONAL ARPT","Latitude":"48.56640","Longitude":"-93.40310","Snowdepth":"6.000","Units":"in","Rept_Date":"2019-12-12 00"},"coordinates":[1209,8289]},{"type":"Point","properties":{"Station_ID":"IFSM5","Station_Nam":"INTERNATIONAL FALLS SNOW","Latitude":"48.57780","Longitude":"-93.39640","Snowdepth":"6.000","Units":"in","Rept_Date":"2019-12-11 12"},"coordinates":[1211,8295]},{"type":"Point","properties":{"Station_ID":"HRKM3","Station_Nam":"HARDWICK 2 ESE","Latitude":"42.34570","Longitude":"-72.15410","Snowdepth":"6.000","Units":"in","Rept_Date":"2019-12-11 13"},"coordinates":[7904,4922]},{"type":"Point","properties":{"Station_ID":"HLDM3","Station_Nam":"HOLDEN","Latitude":"42.38080","Longitude":"-71.84170","Snowdepth":"6.000","Units":"in","Rept_Date":"2019-12-11 16"},"coordinates":[8003,4941]},{"type":"Point","properties":{"Station_ID":"HDKM3","Station_Nam":"HARDWICK","Latitude":"42.37390","Longitude":"-72.23530","Snowdepth":"6.000","Units":"in","Rept_Date":"2019-12-11 16"},"coordinates":[7879,4937]},{"type":"Point","properties":{"Station_ID":"ETTW3","Station_Nam":"ETTRICK 4WNW","Latitude":"44.19000","Longitude":"-91.34240","Snowdepth":"6.000","Units":"in","Rept_Date":"2019-12-11 13"},"coordinates":[1858,5920]},{"type":"Point","properties":{"Station_ID":"EPTW3","Station_Nam":"EAU PLEINE TENDER","Latitude":"44.77220","Longitude":"-89.76720","Snowdepth":"6.000","Units":"in","Rept_Date":"2019-12-11 13"},"coordinates":[2354,6235]},{"type":"Point","properties":{"Station_ID":"ELWW3","Station_Nam":"ELLSWORTH 1E","Latitude":"44.73030","Longitude":"-92.45860","Snowdepth":"6.000","Units":"in","Rept_Date":"2019-12-11 13"},"coordinates":[1506,6212]},{"type":"Point","properties":{"Station_ID":"EHYM3","Station_Nam":"EAST HAWLEY","Latitude":"42.57410","Longitude":"-72.86790","Snowdepth":"6.000","Units":"in","Rept_Date":"2019-12-11 13"},"coordinates":[7679,5046]},{"type":"Point","properties":{"Station_ID":"EGNM5","Station_Nam":"ELGIN 2SSW","Latitude":"44.09700","Longitude":"-92.27010","Snowdepth":"6.000","Units":"in","Rept_Date":"2019-12-11 13"},"coordinates":[1566,5870]},{"type":"Point","properties":{"Station_ID":"EAU","Station_Nam":"CHIPPEWA VALLEY REGIONAL AIRPORT","Latitude":"44.86650","Longitude":"-91.48790","Snowdepth":"6.000","Units":"in","Rept_Date":"2019-12-12 00"},"coordinates":[1812,6286]},{"type":"Point","properties":{"Station_ID":"DLSN6","Station_Nam":"DELANSON 2NE","Latitude":"42.76720","Longitude":"-74.17110","Snowdepth":"6.000","Units":"in","Rept_Date":"2019-12-11 12"},"coordinates":[7269,5150]},{"type":"Point","properties":{"Station_ID":"CT-HR-28","Station_Nam":"NORTH CANTON 0.8 SSW, CT","Latitude":"41.88514","Longitude":"-72.89729","Snowdepth":"6.000","Units":"in","Rept_Date":"2019-12-11 12"},"coordinates":[7670,4673]},{"type":"Point","properties":{"Station_ID":"CAN-ON-245","Station_Nam":"PHELPSTON 3.1 ESE, CAN","Latitude":"44.50564","Longitude":"-79.81035","Snowdepth":"6.000","Units":"in","Rept_Date":"2019-12-11 12"},"coordinates":[5492,6091]},{"type":"Point","properties":{"Station_ID":"BRAM1","Station_Nam":"BRASSUA DAM","Latitude":"45.66020","Longitude":"-69.81190","Snowdepth":"6.000","Units":"in","Rept_Date":"2019-12-11 12"},"coordinates":[8642,6716]},{"type":"Point","properties":{"Station_ID":"AVLV1","Station_Nam":"AVERILL","Latitude":"45.00570","Longitude":"-71.69030","Snowdepth":"6.000","Units":"in","Rept_Date":"2019-12-11 13"},"coordinates":[8051,6362]},{"type":"Point","properties":{"Station_ID":"ASBM3","Station_Nam":"ASHBURNHAM","Latitude":"42.61780","Longitude":"-71.91590","Snowdepth":"6.000","Units":"in","Rept_Date":"2019-12-11 12"},"coordinates":[7979,5069]},{"type":"Point","properties":{"Station_ID":"ARTM5","Station_Nam":"ARTICHOKE LAKE 1 E","Latitude":"45.38560","Longitude":"-96.12570","Snowdepth":"6.000","Units":"in","Rept_Date":"2019-12-12 00"},"coordinates":[351,6567]},{"type":"Point","properties":{"Station_ID":"APXM4","Station_Nam":"GAYLORD 9SSW","Latitude":"44.90720","Longitude":"-84.71880","Snowdepth":"6.000","Units":"in","Rept_Date":"2019-12-12 06"},"coordinates":[3945,6308]},{"type":"Point","properties":{"Station_ID":"42.1154_080.1310","Station_Nam":"ERIE  SNOW SPOTTER (CLE0161)","Latitude":"42.11540","Longitude":"-80.13100","Snowdepth":"6.000","Units":"in","Rept_Date":"2019-12-12 00"},"coordinates":[5391,4797]},{"type":"Point","properties":{"Station_ID":"42.0452_080.3039","Station_Nam":"LAKE CITY  SNOW SPOTTER (CLE0157)","Latitude":"42.04520","Longitude":"-80.30390","Snowdepth":"6.000","Units":"in","Rept_Date":"2019-12-11 23"},"coordinates":[5336,4759]},{"type":"Point","properties":{"Station_ID":"QWG","Station_Nam":"QWG","Latitude":"48.48890","Longitude":"-73.45940","Snowdepth":"5.748","Units":"in","Rept_Date":"2019-12-11 12"},"coordinates":[7493,8247]},{"type":"Point","properties":{"Station_ID":"NY-SR-4","Station_Nam":"SARATOGA SPRINGS 0.5 S, NY","Latitude":"43.06032","Longitude":"-73.78010","Snowdepth":"5.500","Units":"in","Rept_Date":"2019-12-11 11"},"coordinates":[7392,5309]},{"type":"Point","properties":{"Station_ID":"NY-ER-158","Station_Nam":"EAST AURORA 2.7 SSE, NY","Latitude":"42.72936","Longitude":"-78.60561","Snowdepth":"5.500","Units":"in","Rept_Date":"2019-12-11 13"},"coordinates":[5871,5130]},{"type":"Point","properties":{"Station_ID":"MN-SV-4","Station_Nam":"DONNELLY 2.9 NW, MN","Latitude":"45.71649","Longitude":"-96.06043","Snowdepth":"5.500","Units":"in","Rept_Date":"2019-12-11 13"},"coordinates":[371,6746]},{"type":"Point","properties":{"Station_ID":"MN-PK-15","Station_Nam":"MENTOR 2.5 SSW, MN","Latitude":"47.66625","Longitude":"-96.17328","Snowdepth":"5.500","Units":"in","Rept_Date":"2019-12-11 13"},"coordinates":[336,7801]},{"type":"Point","properties":{"Station_ID":"MI-OT-16","Station_Nam":"GAYLORD 2.2 SSE, MI","Latitude":"44.99441","Longitude":"-84.65820","Snowdepth":"5.500","Units":"in","Rept_Date":"2019-12-11 14"},"coordinates":[3964,6355]},{"type":"Point","properties":{"Station_ID":"MI-AN-11","Station_Nam":"HOPKINS 0.6 NNE, MI","Latitude":"42.63430","Longitude":"-85.76120","Snowdepth":"5.500","Units":"in","Rept_Date":"2019-12-11 12"},"coordinates":[3617,5078]},{"type":"Point","properties":{"Station_ID":"MA-FR-22","Station_Nam":"ASHFIELD 1.4 NE, MA","Latitude":"42.54694","Longitude":"-72.76361","Snowdepth":"5.500","Units":"in","Rept_Date":"2019-12-11 12"},"coordinates":[7712,5031]},{"type":"Point","properties":{"Station_ID":"MA-FR-17","Station_Nam":"BUCKLAND 1.8 ESE, MA","Latitude":"42.58900","Longitude":"-72.75110","Snowdepth":"5.500","Units":"in","Rept_Date":"2019-12-11 13"},"coordinates":[7716,5054]},{"type":"Point","properties":{"Station_ID":"MA-FR-13","Station_Nam":"CONWAY 2.9 NW, MA","Latitude":"42.54419","Longitude":"-72.72743","Snowdepth":"5.500","Units":"in","Rept_Date":"2019-12-11 12"},"coordinates":[7724,5029]},{"type":"Point","properties":{"Station_ID":"CAN-ON-5","Station_Nam":"OWEN SOUND 1.5 NW - GSCA, CAN","Latitude":"44.57837","Longitude":"-80.95461","Snowdepth":"5.500","Units":"in","Rept_Date":"2019-12-11 13"},"coordinates":[5131,6130]},{"type":"Point","properties":{"Station_ID":"QLP","Station_Nam":"QLP","Latitude":"48.13920","Longitude":"-72.63830","Snowdepth":"5.354","Units":"in","Rept_Date":"2019-12-11 12"},"coordinates":[7752,8057]},{"type":"Point","properties":{"Station_ID":"ZBWN3","Station_Nam":"NASHUA CWSU","Latitude":"42.73440","Longitude":"-71.48030","Snowdepth":"5.000","Units":"in","Rept_Date":"2019-12-11 12"},"coordinates":[8117,5132]},{"type":"Point","properties":{"Station_ID":"WNNM5","Station_Nam":"WINNEBAGO","Latitude":"43.76920","Longitude":"-94.18730","Snowdepth":"5.000","Units":"in","Rept_Date":"2019-12-11 14"},"coordinates":[962,5692]},{"type":"Point","properties":{"Station_ID":"WLSN6","Station_Nam":"WALES","Latitude":"42.73920","Longitude":"-78.58780","Snowdepth":"5.000","Units":"in","Rept_Date":"2019-12-11 12"},"coordinates":[5877,5135]},{"type":"Point","properties":{"Station_ID":"VT-WH-29","Station_Nam":"BRATTLEBORO 0.7 S, VT","Latitude":"42.84030","Longitude":"-72.55580","Snowdepth":"5.000","Units":"in","Rept_Date":"2019-12-11 12"},"coordinates":[7778,5190]},{"type":"Point","properties":{"Station_ID":"VANM4","Station_Nam":"VANDERBILT 11ENE","Latitude":"45.17020","Longitude":"-84.43970","Snowdepth":"5.000","Units":"in","Rept_Date":"2019-12-11 13"},"coordinates":[4033,6451]},{"type":"Point","properties":{"Station_ID":"SGVN6","Station_Nam":"SPRINGVILLE","Latitude":"42.54970","Longitude":"-78.57670","Snowdepth":"5.000","Units":"in","Rept_Date":"2019-12-12 00"},"coordinates":[5881,5032]},{"type":"Point","properties":{"Station_ID":"RSMM5","Station_Nam":"ROSEMOUNT RESEARCH AND OUTREACH CENTER","Latitude":"44.71660","Longitude":"-93.09800","Snowdepth":"5.000","Units":"in","Rept_Date":"2019-12-11 14"},"coordinates":[1305,6205]},{"type":"Point","properties":{"Station_ID":"ROBW3","Station_Nam":"ROBERTS WWTP","Latitude":"44.97070","Longitude":"-92.56200","Snowdepth":"5.000","Units":"in","Rept_Date":"2019-12-11 14"},"coordinates":[1474,6343]},{"type":"Point","properties":{"Station_ID":"RKWM1","Station_Nam":"MOOSEHEAD LAKE","Latitude":"45.58330","Longitude":"-69.71670","Snowdepth":"5.000","Units":"in","Rept_Date":"2019-12-11 12"},"coordinates":[8672,6674]},{"type":"Point","properties":{"Station_ID":"PRTM3","Station_Nam":"PETERSHAM 3NW","Latitude":"42.50500","Longitude":"-72.22750","Snowdepth":"5.000","Units":"in","Rept_Date":"2019-12-11 15"},"coordinates":[7881,5008]},{"type":"Point","properties":{"Station_ID":"PIPM5","Station_Nam":"PIPESTONE,MN","Latitude":"44.01390","Longitude":"-96.32580","Snowdepth":"5.000","Units":"in","Rept_Date":"2019-12-11 14"},"coordinates":[288,5825]},{"type":"Point","properties":{"Station_ID":"PA-ER-5","Station_Nam":"NORTH EAST 1.2 WNW, PA","Latitude":"42.22058","Longitude":"-79.85510","Snowdepth":"5.000","Units":"in","Rept_Date":"2019-12-11 13"},"coordinates":[5478,4854]},{"type":"Point","properties":{"Station_ID":"ONAM4","Station_Nam":"ONAWAY 4N","Latitude":"45.41080","Longitude":"-84.22330","Snowdepth":"5.000","Units":"in","Rept_Date":"2019-12-11 23"},"coordinates":[4101,6581]},{"type":"Point","properties":{"Station_ID":"NY-SR-16","Station_Nam":"BALLSTON SPA 2.9 ESE, NY","Latitude":"42.99000","Longitude":"-73.80000","Snowdepth":"5.000","Units":"in","Rept_Date":"2019-12-11 13"},"coordinates":[7386,5271]},{"type":"Point","properties":{"Station_ID":"NY-OD-2","Station_Nam":"POINT ROCK 0.6 SE, NY","Latitude":"43.37335","Longitude":"-75.53840","Snowdepth":"5.000","Units":"in","Rept_Date":"2019-12-11 13"},"coordinates":[6838,5478]},{"type":"Point","properties":{"Station_ID":"NY-MR-57","Station_Nam":"CHURCHVILLE 3.5 N, NY","Latitude":"43.15209","Longitude":"-77.87846","Snowdepth":"5.000","Units":"in","Rept_Date":"2019-12-11 13"},"coordinates":[6101,5358]},{"type":"Point","properties":{"Station_ID":"NY-ER-60","Station_Nam":"BLASDELL 1.5 SSW, NY","Latitude":"42.77657","Longitude":"-78.84440","Snowdepth":"5.000","Units":"in","Rept_Date":"2019-12-11 12"},"coordinates":[5796,5155]},{"type":"Point","properties":{"Station_ID":"NY-ER-178","Station_Nam":"WEST SENECA 2.5 SE, NY","Latitude":"42.81374","Longitude":"-78.71399","Snowdepth":"5.000","Units":"in","Rept_Date":"2019-12-11 12"},"coordinates":[5837,5175]},{"type":"Point","properties":{"Station_ID":"NY-CQ-22","Station_Nam":"FREDONIA 0.8 WNW, NY","Latitude":"42.44414","Longitude":"-79.34610","Snowdepth":"5.000","Units":"in","Rept_Date":"2019-12-11 10"},"coordinates":[5638,4975]},{"type":"Point","properties":{"Station_ID":"NY-CB-9","Station_Nam":"HILLSDALE 5.8 S, NY","Latitude":"42.26165","Longitude":"-73.54160","Snowdepth":"5.000","Units":"in","Rept_Date":"2019-12-11 13"},"coordinates":[7467,4876]},{"type":"Point","properties":{"Station_ID":"MRFS2","Station_Nam":"MADISON,SD","Latitude":"44.00000","Longitude":"-97.23330","Snowdepth":"5.000","Units":"in","Rept_Date":"2019-12-11 15"},"coordinates":[2,5817]},{"type":"Point","properties":{"Station_ID":"MPXM5","Station_Nam":"CHANHASSEN WSFO","Latitude":"44.84960","Longitude":"-93.56440","Snowdepth":"5.000","Units":"in","Rept_Date":"2019-12-12 06"},"coordinates":[1158,6277]},{"type":"Point","properties":{"Station_ID":"MNHMOECS","Station_Nam":"HAZELTINE 1.9 NE","Latitude":"44.85545","Longitude":"-93.57125","Snowdepth":"5.000","Units":"in","Rept_Date":"2019-12-11 12"},"coordinates":[1156,6280]},{"type":"Point","properties":{"Station_ID":"MNG0GYSN","Station_Nam":"LONSDALE 1.1 SSW","Latitude":"44.46445","Longitude":"-93.43293","Snowdepth":"5.000","Units":"in","Rept_Date":"2019-12-11 12"},"coordinates":[1199,6069]},{"type":"Point","properties":{"Station_ID":"MNE9SLWI","Station_Nam":"LEAVENWORTH 5.4 S","Latitude":"44.14481","Longitude":"-94.78882","Snowdepth":"5.000","Units":"in","Rept_Date":"2019-12-11 13"},"coordinates":[772,5896]},{"type":"Point","properties":{"Station_ID":"MN-SE-2","Station_Nam":"OWATONNA 0.8 E, MN","Latitude":"44.09170","Longitude":"-93.21380","Snowdepth":"5.000","Units":"in","Rept_Date":"2019-12-11 12"},"coordinates":[1268,5867]},{"type":"Point","properties":{"Station_ID":"MN-RC-1","Station_Nam":"MONTGOMERY 3.2 ENE, MN","Latitude":"44.46400","Longitude":"-93.51980","Snowdepth":"5.000","Units":"in","Rept_Date":"2019-12-11 11"},"coordinates":[1172,6068]},{"type":"Point","properties":{"Station_ID":"MN-HN-78","Station_Nam":"RICHFIELD 1.9 WNW, MN","Latitude":"44.89129","Longitude":"-93.31410","Snowdepth":"5.000","Units":"in","Rept_Date":"2019-12-11 11"},"coordinates":[1237,6300]},{"type":"Point","properties":{"Station_ID":"MN-HN-31","Station_Nam":"MAPLE GROVE 1.0 NNE, MN","Latitude":"45.12261","Longitude":"-93.45790","Snowdepth":"5.000","Units":"in","Rept_Date":"2019-12-11 16"},"coordinates":[1191,6425]},{"type":"Point","properties":{"Station_ID":"MN-GH-4","Station_Nam":"NERSTRAND 4.2 E, MN","Latitude":"44.34247","Longitude":"-92.97920","Snowdepth":"5.000","Units":"in","Rept_Date":"2019-12-11 13"},"coordinates":[1342,6003]},{"type":"Point","properties":{"Station_ID":"MN-GH-28","Station_Nam":"CANNON FALLS 0.5 SE, MN","Latitude":"44.50866","Longitude":"-92.89526","Snowdepth":"5.000","Units":"in","Rept_Date":"2019-12-11 14"},"coordinates":[1369,6093]},{"type":"Point","properties":{"Station_ID":"MN-FM-10","Station_Nam":"WYKOFF 3.1 NW, MN","Latitude":"43.74340","Longitude":"-92.30650","Snowdepth":"5.000","Units":"in","Rept_Date":"2019-12-11 13"},"coordinates":[1554,5678]},{"type":"Point","properties":{"Station_ID":"MN-BW-8","Station_Nam":"COMFREY 6.5 ENE, MN","Latitude":"44.15109","Longitude":"-94.78516","Snowdepth":"5.000","Units":"in","Rept_Date":"2019-12-11 13"},"coordinates":[773,5899]},{"type":"Point","properties":{"Station_ID":"MI-EM-8","Station_Nam":"PETOSKEY 1.7 SSW, MI","Latitude":"45.34209","Longitude":"-84.96530","Snowdepth":"5.000","Units":"in","Rept_Date":"2019-12-11 10"},"coordinates":[3867,6544]},{"type":"Point","properties":{"Station_ID":"MI-EM-5","Station_Nam":"HARBOR SPRINGS 0.7 ENE, MI","Latitude":"45.43450","Longitude":"-84.97540","Snowdepth":"5.000","Units":"in","Rept_Date":"2019-12-11 12"},"coordinates":[3864,6594]},{"type":"Point","properties":{"Station_ID":"MADM5","Station_Nam":"MADISON WWTP","Latitude":"45.00230","Longitude":"-96.16610","Snowdepth":"5.000","Units":"in","Rept_Date":"2019-12-11 14"},"coordinates":[338,6360]},{"type":"Point","properties":{"Station_ID":"LAMM5","Station_Nam":"LAMBERTON SW RESEARCH AND OUTREACH CENTER","Latitude":"44.23950","Longitude":"-95.31520","Snowdepth":"5.000","Units":"in","Rept_Date":"2019-12-11 14"},"coordinates":[606,5947]},{"type":"Point","properties":{"Station_ID":"KTEB","Station_Nam":"TETERBORO AIRPORT","Latitude":"40.86666","Longitude":"-74.05000","Snowdepth":"5.000","Units":"in","Rept_Date":"2019-12-11 13"},"coordinates":[7307,4122]},{"type":"Point","properties":{"Station_ID":"HUDN3","Station_Nam":"HUDSON 1 SSE","Latitude":"42.78300","Longitude":"-71.41480","Snowdepth":"5.000","Units":"in","Rept_Date":"2019-12-11 12"},"coordinates":[8137,5159]},{"type":"Point","properties":{"Station_ID":"HPKM4","Station_Nam":"HOPKINS 1 N","Latitude":"42.63520","Longitude":"-85.76100","Snowdepth":"5.000","Units":"in","Rept_Date":"2019-12-11 12"},"coordinates":[3617,5079]},{"type":"Point","properties":{"Station_ID":"GMRM5","Station_Nam":"GRAND MARIAS WATER TREATMENT PLANT","Latitude":"47.75180","Longitude":"-90.32820","Snowdepth":"5.000","Units":"in","Rept_Date":"2019-12-11 14"},"coordinates":[2178,7848]},{"type":"Point","properties":{"Station_ID":"FORW3","Station_Nam":"FORESTVILLE-4E","Latitude":"44.69780","Longitude":"-87.39690","Snowdepth":"5.000","Units":"in","Rept_Date":"2019-12-11 12"},"coordinates":[3101,6195]},{"type":"Point","properties":{"Station_ID":"FISW3","Station_Nam":"FISH CREEK 1 E WWTP","Latitude":"45.12420","Longitude":"-87.22920","Snowdepth":"5.000","Units":"in","Rept_Date":"2019-12-11 11"},"coordinates":[3154,6426]},{"type":"Point","properties":{"Station_ID":"ESGM1","Station_Nam":"EAST SANGERVILLE","Latitude":"45.13690","Longitude":"-69.28060","Snowdepth":"5.000","Units":"in","Rept_Date":"2019-12-11 12"},"coordinates":[8810,6433]},{"type":"Point","properties":{"Station_ID":"EBRM3","Station_Nam":"EAST BRIMFIELD LAKE","Latitude":"42.11030","Longitude":"-72.12690","Snowdepth":"5.000","Units":"in","Rept_Date":"2019-12-11 12"},"coordinates":[7913,4795]},{"type":"Point","properties":{"Station_ID":"DWSM5","Station_Nam":"DAWSON","Latitude":"44.93180","Longitude":"-96.04500","Snowdepth":"5.000","Units":"in","Rept_Date":"2019-12-11 13"},"coordinates":[376,6322]},{"type":"Point","properties":{"Station_ID":"DRDW3","Station_Nam":"DURAND","Latitude":"44.61970","Longitude":"-91.97950","Snowdepth":"5.000","Units":"in","Rept_Date":"2019-12-11 14"},"coordinates":[1657,6153]},{"type":"Point","properties":{"Station_ID":"CT-LT-7","Station_Nam":"LITCHFIELD 2.3 NNE, CT","Latitude":"41.77445","Longitude":"-73.16900","Snowdepth":"5.000","Units":"in","Rept_Date":"2019-12-11 13"},"coordinates":[7585,4613]},{"type":"Point","properties":{"Station_ID":"BMRW3","Station_Nam":"BLOOMER","Latitude":"45.09070","Longitude":"-91.48640","Snowdepth":"5.000","Units":"in","Rept_Date":"2019-12-11 14"},"coordinates":[1813,6408]},{"type":"Point","properties":{"Station_ID":"BKEM5","Station_Nam":"BRECKENRIDGE 4NE","Latitude":"46.30470","Longitude":"-96.52170","Snowdepth":"5.000","Units":"in","Rept_Date":"2019-12-11 13"},"coordinates":[226,7065]},{"type":"Point","properties":{"Station_ID":"BCHM3","Station_Nam":"BELCHERTOWN","Latitude":"42.28110","Longitude":"-72.35720","Snowdepth":"5.000","Units":"in","Rept_Date":"2019-12-11 13"},"coordinates":[7840,4887]},{"type":"Point","properties":{"Station_ID":"ARX","Station_Nam":"LA CROSSE, WI","Latitude":"43.82280","Longitude":"-91.19190","Snowdepth":"5.000","Units":"in","Rept_Date":"2019-12-12 06"},"coordinates":[1905,5721]},{"type":"Point","properties":{"Station_ID":"ALTM5","Station_Nam":"ALTURA 5W","Latitude":"44.06330","Longitude":"-92.03970","Snowdepth":"5.000","Units":"in","Rept_Date":"2019-12-11 13"},"coordinates":[1638,5852]},{"type":"Point","properties":{"Station_ID":"42.2168_079.8473","Station_Nam":"NORTH EAST  SNOW SPOTTER (X4220798)","Latitude":"42.21680","Longitude":"-79.84730","Snowdepth":"5.000","Units":"in","Rept_Date":"2019-12-12 00"},"coordinates":[5480,4852]},{"type":"Point","properties":{"Station_ID":"42.1792_079.9756","Station_Nam":"HARBORCREEK TWP  SNOW SPOTTER (X4220800)","Latitude":"42.17920","Longitude":"-79.97560","Snowdepth":"5.000","Units":"in","Rept_Date":"2019-12-11 23"},"coordinates":[5440,4832]},{"type":"Point","properties":{"Station_ID":"42.0037_079.8102","Station_Nam":"WATTSBURG  SNOW SPOTTER (X4200798)","Latitude":"42.00370","Longitude":"-79.81020","Snowdepth":"5.000","Units":"in","Rept_Date":"2019-12-12 00"},"coordinates":[5492,4737]},{"type":"Point","properties":{"Station_ID":"41.8344_081.0520","Station_Nam":"MADISON-ON-THE-LAKE (CLE1242)","Latitude":"41.83440","Longitude":"-81.05200","Snowdepth":"5.000","Units":"in","Rept_Date":"2019-12-11 11"},"coordinates":[5101,4645]},{"type":"Point","properties":{"Station_ID":"41.8275_080.5321","Station_Nam":"MONROE TWP  SNOW SPOTTER (X4180805)","Latitude":"41.82750","Longitude":"-80.53210","Snowdepth":"5.000","Units":"in","Rept_Date":"2019-12-12 01"},"coordinates":[5264,4642]},{"type":"Point","properties":{"Station_ID":"CAN-ON-757","Station_Nam":"SAULT STE. MARIE 2.8 ESE - GLFC, CAN","Latitude":"46.50300","Longitude":"-84.30300","Snowdepth":"4.900","Units":"in","Rept_Date":"2019-12-11 13"},"coordinates":[4076,7172]},{"type":"Point","properties":{"Station_ID":"MA-BR-62","Station_Nam":"WESTPORT 6.6 SSE, MA","Latitude":"41.57600","Longitude":"-71.06200","Snowdepth":"4.700","Units":"in","Rept_Date":"2019-12-11 17"},"coordinates":[8249,4505]},{"type":"Point","properties":{"Station_ID":"CT-TL-15","Station_Nam":"CENTRAL SOMERS 0.3 N, CT","Latitude":"41.99553","Longitude":"-72.44127","Snowdepth":"4.600","Units":"in","Rept_Date":"2019-12-11 13"},"coordinates":[7814,4732]},{"type":"Point","properties":{"Station_ID":"WI-OG-12","Station_Nam":"KAUKAUNA 1.5 SW, WI","Latitude":"44.26062","Longitude":"-88.28590","Snowdepth":"4.500","Units":"in","Rept_Date":"2019-12-11 12"},"coordinates":[2821,5958]},{"type":"Point","properties":{"Station_ID":"RI-NW-17","Station_Nam":"TIVERTON 4.4 SSE, RI","Latitude":"41.59657","Longitude":"-71.16560","Snowdepth":"4.500","Units":"in","Rept_Date":"2019-12-11 19"},"coordinates":[8216,4517]},{"type":"Point","properties":{"Station_ID":"NY-WR-10","Station_Nam":"WARRENSBURG 2.1 WNW, NY","Latitude":"43.51784","Longitude":"-73.81069","Snowdepth":"4.500","Units":"in","Rept_Date":"2019-12-11 13"},"coordinates":[7382,5556]},{"type":"Point","properties":{"Station_ID":"NY-SC-11","Station_Nam":"SCHENECTADY 3.3 E, NY","Latitude":"42.79382","Longitude":"-73.86390","Snowdepth":"4.500","Units":"in","Rept_Date":"2019-12-11 14"},"coordinates":[7366,5164]},{"type":"Point","properties":{"Station_ID":"NY-ER-166","Station_Nam":"BOSTON 2.5 NE, NY","Latitude":"42.65480","Longitude":"-78.70300","Snowdepth":"4.500","Units":"in","Rept_Date":"2019-12-11 12"},"coordinates":[5841,5089]},{"type":"Point","properties":{"Station_ID":"NY-DT-34","Station_Nam":"HOPEWELL JUNCTION 2.8 NE, NY","Latitude":"41.61016","Longitude":"-73.75855","Snowdepth":"4.500","Units":"in","Rept_Date":"2019-12-11 11"},"coordinates":[7399,4524]},{"type":"Point","properties":{"Station_ID":"NY-DT-29","Station_Nam":"POUGHKEEPSIE 5.3 S, NY","Latitude":"41.61955","Longitude":"-73.91306","Snowdepth":"4.500","Units":"in","Rept_Date":"2019-12-11 14"},"coordinates":[7350,4529]},{"type":"Point","properties":{"Station_ID":"NH-ST-19","Station_Nam":"DOVER 0.8 E, NH","Latitude":"43.18762","Longitude":"-70.86850","Snowdepth":"4.500","Units":"in","Rept_Date":"2019-12-11 13"},"coordinates":[8310,5378]},{"type":"Point","properties":{"Station_ID":"MA-WR-8","Station_Nam":"FITCHBURG 1.6 SSW, MA","Latitude":"42.56674","Longitude":"-71.82170","Snowdepth":"4.500","Units":"in","Rept_Date":"2019-12-11 11"},"coordinates":[8009,5042]},{"type":"Point","properties":{"Station_ID":"MA-WR-44","Station_Nam":"WESTMINSTER 0.6 WSW, MA","Latitude":"42.54505","Longitude":"-71.91032","Snowdepth":"4.500","Units":"in","Rept_Date":"2019-12-11 11"},"coordinates":[7981,5030]},{"type":"Point","properties":{"Station_ID":"MA-HS-26","Station_Nam":"EASTHAMPTON 0.5 SW, MA","Latitude":"42.26110","Longitude":"-72.68920","Snowdepth":"4.500","Units":"in","Rept_Date":"2019-12-11 12"},"coordinates":[7736,4876]},{"type":"Point","properties":{"Station_ID":"MA-HS-2","Station_Nam":"WESTHAMPTON 1.8 SW, MA","Latitude":"42.27943","Longitude":"-72.78700","Snowdepth":"4.500","Units":"in","Rept_Date":"2019-12-11 13"},"coordinates":[7705,4886]},{"type":"Point","properties":{"Station_ID":"MA-HD-28","Station_Nam":"WESTFIELD 2.8 SE, MA","Latitude":"42.10685","Longitude":"-72.72148","Snowdepth":"4.500","Units":"in","Rept_Date":"2019-12-11 11"},"coordinates":[7726,4793]},{"type":"Point","properties":{"Station_ID":"MA-FR-10","Station_Nam":"CONWAY 0.9 SW, MA","Latitude":"42.50879","Longitude":"-72.69730","Snowdepth":"4.500","Units":"in","Rept_Date":"2019-12-11 13"},"coordinates":[7733,5010]},{"type":"Point","properties":{"Station_ID":"MA-BE-11","Station_Nam":"GREAT BARRINGTON 3.0 N, MA","Latitude":"42.23790","Longitude":"-73.35030","Snowdepth":"4.500","Units":"in","Rept_Date":"2019-12-11 12"},"coordinates":[7527,4864]},{"type":"Point","properties":{"Station_ID":"CT-LT-22","Station_Nam":"NEW MILFORD 5.3 SSW, CT","Latitude":"41.51472","Longitude":"-73.43604","Snowdepth":"4.500","Units":"in","Rept_Date":"2019-12-11 13"},"coordinates":[7500,4472]},{"type":"Point","properties":{"Station_ID":"NY-ER-65","Station_Nam":"BOSTON 1.5 NE, NY","Latitude":"42.65470","Longitude":"-78.72010","Snowdepth":"4.300","Units":"in","Rept_Date":"2019-12-11 12"},"coordinates":[5835,5089]},{"type":"Point","properties":{"Station_ID":"ME-FR-22","Station_Nam":"FARMINGTON 4.8 NNW, ME","Latitude":"44.73396","Longitude":"-70.18007","Snowdepth":"4.300","Units":"in","Rept_Date":"2019-12-11 14"},"coordinates":[8526,6214]},{"type":"Point","properties":{"Station_ID":"CT-LT-33","Station_Nam":"TORRINGTON 1.1 SSE, CT","Latitude":"41.82100","Longitude":"-73.12012","Snowdepth":"4.300","Units":"in","Rept_Date":"2019-12-11 12"},"coordinates":[7600,4638]},{"type":"Point","properties":{"Station_ID":"NY-OR-20","Station_Nam":"WALLKILL 2.0 E, NY","Latitude":"41.60904","Longitude":"-74.12690","Snowdepth":"4.200","Units":"in","Rept_Date":"2019-12-11 12"},"coordinates":[7283,4523]},{"type":"Point","properties":{"Station_ID":"CT-WN-12","Station_Nam":"EASTFORD 2.0 W, CT","Latitude":"41.89906","Longitude":"-72.12071","Snowdepth":"4.200","Units":"in","Rept_Date":"2019-12-11 13"},"coordinates":[7915,4680]},{"type":"Point","properties":{"Station_ID":"WWWW3","Station_Nam":"WAUPACA","Latitude":"44.35470","Longitude":"-89.05920","Snowdepth":"4.000","Units":"in","Rept_Date":"2019-12-11 14"},"coordinates":[2577,6009]},{"type":"Point","properties":{"Station_ID":"WRTS2","Station_Nam":"WATERTOWN,SD","Latitude":"44.90280","Longitude":"-97.11360","Snowdepth":"4.000","Units":"in","Rept_Date":"2019-12-11 15"},"coordinates":[39,6306]},{"type":"Point","properties":{"Station_ID":"WIPW3","Station_Nam":"WISCONSIN RAPIDS-SOUTHEAST","Latitude":"44.38190","Longitude":"-89.80470","Snowdepth":"4.000","Units":"in","Rept_Date":"2019-12-11 12"},"coordinates":[2343,6024]},{"type":"Point","properties":{"Station_ID":"WHTM5","Station_Nam":"WHEATON,MN","Latitude":"45.80000","Longitude":"-96.48330","Snowdepth":"4.000","Units":"in","Rept_Date":"2019-12-11 14"},"coordinates":[238,6791]},{"type":"Point","properties":{"Station_ID":"WALM3","Station_Nam":"WALPOLE 2","Latitude":"42.16090","Longitude":"-71.24610","Snowdepth":"4.000","Units":"in","Rept_Date":"2019-12-11 12"},"coordinates":[8191,4822]},{"type":"Point","properties":{"Station_ID":"WAAM5","Station_Nam":"WARREN WSD","Latitude":"48.19530","Longitude":"-96.77590","Snowdepth":"4.000","Units":"in","Rept_Date":"2019-12-11 14"},"coordinates":[146,8088]},{"type":"Point","properties":{"Station_ID":"VT-WS-10","Station_Nam":"NORTHFIELD 1.5 N, VT","Latitude":"44.16986","Longitude":"-72.65200","Snowdepth":"4.000","Units":"in","Rept_Date":"2019-12-11 12"},"coordinates":[7748,5909]},{"type":"Point","properties":{"Station_ID":"THLM5","Station_Nam":"THEILMAN 1SSW","Latitude":"44.28130","Longitude":"-92.19430","Snowdepth":"4.000","Units":"in","Rept_Date":"2019-12-11 13"},"coordinates":[1590,5969]},{"type":"Point","properties":{"Station_ID":"TCEM4","Station_Nam":"TRAVERSE CITY 5ESE","Latitude":"44.73370","Longitude":"-85.51180","Snowdepth":"4.000","Units":"in","Rept_Date":"2019-12-11 12"},"coordinates":[3695,6214]},{"type":"Point","properties":{"Station_ID":"STPW3","Station_Nam":"STEVENS POINT","Latitude":"44.51130","Longitude":"-89.58550","Snowdepth":"4.000","Units":"in","Rept_Date":"2019-12-11 13"},"coordinates":[2412,6094]},{"type":"Point","properties":{"Station_ID":"SIWS2","Station_Nam":"SISSETON 3W","Latitude":"45.65870","Longitude":"-97.12450","Snowdepth":"4.000","Units":"in","Rept_Date":"2019-12-11 13"},"coordinates":[36,6715]},