{"type":"Topology","objects":{"snowdepth_geo":{"type":"GeometryCollection","name":"snowdepth","crs":{"type":"name","properties":{"name":"urn:ogc:def:crs:OGC:1.3:CRS84"}},"geometries":[{"type":"Point","properties":{"Station_ID":"PRKM4","Station_Nam":"MUNISING EAST","Latitude":"46.42580","Longitude":"-86.62000","Snowdepth":"76.500","Units":"in","Rept_Date":"2020-12-28 06"},"coordinates":[3117,6851]},{"type":"Point","properties":{"Station_ID":"WI-IR-2","Station_Nam":"MERCER 2.0 SE, WI","Latitude":"46.14749","Longitude":"-90.03097","Snowdepth":"55.000","Units":"in","Rept_Date":"2020-12-27 13"},"coordinates":[2116,6685]},{"type":"Point","properties":{"Station_ID":"TRIQ6","Station_Nam":"TRIO LAKE","Latitude":"49.22880","Longitude":"-87.22920","Snowdepth":"25.240","Units":"in","Rept_Date":"2020-12-28 06"},"coordinates":[2938,8515]},{"type":"Point","properties":{"Station_ID":"AUDQ6","Station_Nam":"AUDEN","Latitude":"48.52600","Longitude":"-82.57570","Snowdepth":"24.570","Units":"in","Rept_Date":"2020-12-28 06"},"coordinates":[4304,8098]},{"type":"Point","properties":{"Station_ID":"PTLQ6","Station_Nam":"PORTAGE LAKE","Latitude":"49.06950","Longitude":"-86.65940","Snowdepth":"22.720","Units":"in","Rept_Date":"2020-12-28 06"},"coordinates":[3105,8421]},{"type":"Point","properties":{"Station_ID":"NY-ER-96","Station_Nam":"ELMA 2.7 WSW, NY","Latitude":"42.81004","Longitude":"-78.68130","Snowdepth":"20.500","Units":"in","Rept_Date":"2020-12-27 12"},"coordinates":[5447,4703]},{"type":"Point","properties":{"Station_ID":"QLB","Station_Nam":"QLB","Latitude":"50.72360","Longitude":"-75.10000","Snowdepth":"20.000","Units":"in","Rept_Date":"2020-12-27 12"},"coordinates":[6498,9403]},{"type":"Point","properties":{"Station_ID":"OH-LK-11","Station_Nam":"MADISON 0.9 WSW, OH","Latitude":"41.76833","Longitude":"-81.06972","Snowdepth":"20.000","Units":"in","Rept_Date":"2020-12-27 12"},"coordinates":[4746,4085]},{"type":"Point","properties":{"Station_ID":"NY-ER-178","Station_Nam":"WEST SENECA 2.5 SE, NY","Latitude":"42.81374","Longitude":"-78.71399","Snowdepth":"20.000","Units":"in","Rept_Date":"2020-12-27 12"},"coordinates":[5437,4706]},{"type":"Point","properties":{"Station_ID":"CAN-ON-245","Station_Nam":"PHELPSTON 3.1 ESE, CAN","Latitude":"44.50564","Longitude":"-79.81035","Snowdepth":"20.000","Units":"in","Rept_Date":"2020-12-27 12"},"coordinates":[5116,5710]},{"type":"Point","properties":{"Station_ID":"41.7683_081.0697","Station_Nam":"1 WSW Madison  CoCoRaHS (OH-LK-11)","Latitude":"41.76830","Longitude":"-81.06970","Snowdepth":"20.000","Units":"in","Rept_Date":"2020-12-27 11"},"coordinates":[4746,4085]},{"type":"Point","properties":{"Station_ID":"DVLQ6","Station_Nam":"DEVIOUS LAKE","Latitude":"49.19890","Longitude":"-87.76440","Snowdepth":"19.880","Units":"in","Rept_Date":"2020-12-28 06"},"coordinates":[2781,8498]},{"type":"Point","properties":{"Station_ID":"NY-ER-189","Station_Nam":"HAMBURG 2.0 N, NY","Latitude":"42.75337","Longitude":"-78.83452","Snowdepth":"19.600","Units":"in","Rept_Date":"2020-12-27 12"},"coordinates":[5402,4670]},{"type":"Point","properties":{"Station_ID":"NY-ER-85","Station_Nam":"AKRON 2.4 S, NY","Latitude":"42.98523","Longitude":"-78.48630","Snowdepth":"19.500","Units":"in","Rept_Date":"2020-12-27 13"},"coordinates":[5504,4807]},{"type":"Point","properties":{"Station_ID":"SNOW2","Station_Nam":"SNOWSHOE","Latitude":"38.39900","Longitude":"-79.99490","Snowdepth":"17.000","Units":"in","Rept_Date":"2020-12-27 11"},"coordinates":[5061,2084]},{"type":"Point","properties":{"Station_ID":"42.2168_079.8473","Station_Nam":"NORTH EAST  SNOW SPOTTER (X4220798)","Latitude":"42.21680","Longitude":"-79.84730","Snowdepth":"17.000","Units":"in","Rept_Date":"2020-12-27 14"},"coordinates":[5105,4351]},{"type":"Point","properties":{"Station_ID":"QCO","Station_Nam":"QCO","Latitude":"51.45280","Longitude":"-72.20110","Snowdepth":"16.024","Units":"in","Rept_Date":"2020-12-27 12"},"coordinates":[7349,9836]},{"type":"Point","properties":{"Station_ID":"NY-ER-102","Station_Nam":"CHEEKTOWAGA 2.7 NE, NY","Latitude":"42.94119","Longitude":"-78.71933","Snowdepth":"16.000","Units":"in","Rept_Date":"2020-12-27 12"},"coordinates":[5436,4781]},{"type":"Point","properties":{"Station_ID":"LKVN6","Station_Nam":"LAKE VIEW","Latitude":"42.73180","Longitude":"-78.92400","Snowdepth":"16.000","Units":"in","Rept_Date":"2020-12-27 13"},"coordinates":[5376,4657]},{"type":"Point","properties":{"Station_ID":"42.0452_080.3039","Station_Nam":"LAKE CITY  SNOW SPOTTER (CLE0157)","Latitude":"42.04520","Longitude":"-80.30390","Snowdepth":"16.000","Units":"in","Rept_Date":"2020-12-27 14"},"coordinates":[4971,4249]},{"type":"Point","properties":{"Station_ID":"QGO","Station_Nam":"QGO","Latitude":"48.85500","Longitude":"-74.20640","Snowdepth":"15.905","Units":"in","Rept_Date":"2020-12-27 12"},"coordinates":[6760,8293]},{"type":"Point","properties":{"Station_ID":"CAN-ON-451","Station_Nam":"OWEN SOUND 1.2 N - GSCA, CAN","Latitude":"44.58092","Longitude":"-80.93025","Snowdepth":"15.700","Units":"in","Rept_Date":"2020-12-27 13"},"coordinates":[4787,5755]},{"type":"Point","properties":{"Station_ID":"OGIQ6","Station_Nam":"OGOKI CAMP","Latitude":"50.76680","Longitude":"-87.85820","Snowdepth":"15.310","Units":"in","Rept_Date":"2020-12-28 06"},"coordinates":[2753,9429]},{"type":"Point","properties":{"Station_ID":"RDFN6","Station_Nam":"REDFIELD 8N","Latitude":"43.64130","Longitude":"-75.88400","Snowdepth":"15.000","Units":"in","Rept_Date":"2020-12-27 12"},"coordinates":[6268,5197]},{"type":"Point","properties":{"Station_ID":"NY-ER-39","Station_Nam":"HAMBURG 0.4 WSW, NY","Latitude":"42.72253","Longitude":"-78.84330","Snowdepth":"15.000","Units":"in","Rept_Date":"2020-12-27 12"},"coordinates":[5399,4651]},{"type":"Point","properties":{"Station_ID":"IWOM4","Station_Nam":"IRONWOOD#2","Latitude":"46.46520","Longitude":"-90.13820","Snowdepth":"15.000","Units":"in","Rept_Date":"2020-12-27 13"},"coordinates":[2084,6874]},{"type":"Point","properties":{"Station_ID":"HURW3","Station_Nam":"HURLEY","Latitude":"46.46250","Longitude":"-90.19550","Snowdepth":"15.000","Units":"in","Rept_Date":"2020-12-27 14"},"coordinates":[2067,6873]},{"type":"Point","properties":{"Station_ID":"PA-ER-2","Station_Nam":"ERIE 5.6 SW, PA","Latitude":"42.06086","Longitude":"-80.15260","Snowdepth":"14.600","Units":"in","Rept_Date":"2020-12-27 12"},"coordinates":[5015,4258]},{"type":"Point","properties":{"Station_ID":"NY-JF-30","Station_Nam":"WEST CARTHAGE 0.3 ENE, NY","Latitude":"43.97493","Longitude":"-75.61640","Snowdepth":"14.400","Units":"in","Rept_Date":"2020-12-27 12"},"coordinates":[6347,5395]},{"type":"Point","properties":{"Station_ID":"SILN6","Station_Nam":"SILVER CREEK","Latitude":"42.53800","Longitude":"-79.16990","Snowdepth":"14.000","Units":"in","Rept_Date":"2020-12-27 12"},"coordinates":[5304,4542]},{"type":"Point","properties":{"Station_ID":"PDLM4","Station_Nam":"PAINESDALE","Latitude":"47.04160","Longitude":"-88.67170","Snowdepth":"14.000","Units":"in","Rept_Date":"2020-12-27 13"},"coordinates":[2515,7216]},{"type":"Point","properties":{"Station_ID":"OH-LK-9","Station_Nam":"WILLOUGHBY 2.9 SW, OH","Latitude":"41.61506","Longitude":"-81.44592","Snowdepth":"14.000","Units":"in","Rept_Date":"2020-12-27 12"},"coordinates":[4635,3994]},{"type":"Point","properties":{"Station_ID":"NY-ER-65","Station_Nam":"BOSTON 1.5 NE, NY","Latitude":"42.65470","Longitude":"-78.72010","Snowdepth":"14.000","Units":"in","Rept_Date":"2020-12-27 12"},"coordinates":[5436,4611]},{"type":"Point","properties":{"Station_ID":"NY-ER-56","Station_Nam":"COLDEN 1.4 NNW, NY","Latitude":"42.64740","Longitude":"-78.71120","Snowdepth":"14.000","Units":"in","Rept_Date":"2020-12-27 12"},"coordinates":[5438,4607]},{"type":"Point","properties":{"Station_ID":"NY-ER-177","Station_Nam":"CLARENCE 3.8 SSW, NY","Latitude":"42.96084","Longitude":"-78.66569","Snowdepth":"14.000","Units":"in","Rept_Date":"2020-12-27 13"},"coordinates":[5452,4793]},{"type":"Point","properties":{"Station_ID":"NY-ER-166","Station_Nam":"BOSTON 2.5 NE, NY","Latitude":"42.65480","Longitude":"-78.70300","Snowdepth":"14.000","Units":"in","Rept_Date":"2020-12-27 12"},"coordinates":[5441,4611]},{"type":"Point","properties":{"Station_ID":"CODN6","Station_Nam":"COLDEN","Latitude":"42.64720","Longitude":"-78.71110","Snowdepth":"14.000","Units":"in","Rept_Date":"2020-12-27 12"},"coordinates":[5438,4607]},{"type":"Point","properties":{"Station_ID":"CLQM5","Station_Nam":"CLOQUET","Latitude":"46.70470","Longitude":"-92.52530","Snowdepth":"14.000","Units":"in","Rept_Date":"2020-12-27 14"},"coordinates":[1383,7016]},{"type":"Point","properties":{"Station_ID":"CAN-ON-5","Station_Nam":"OWEN SOUND 1.5 NW - GSCA, CAN","Latitude":"44.57837","Longitude":"-80.95461","Snowdepth":"14.000","Units":"in","Rept_Date":"2020-12-27 13"},"coordinates":[4780,5754]},{"type":"Point","properties":{"Station_ID":"CAN-ON-118","Station_Nam":"DURHAM 1.4 S, CAN","Latitude":"44.16525","Longitude":"-80.82064","Snowdepth":"14.000","Units":"in","Rept_Date":"2020-12-27 12"},"coordinates":[4819,5508]},{"type":"Point","properties":{"Station_ID":"42.1792_079.9756","Station_Nam":"HARBORCREEK TWP  SNOW SPOTTER (X4220800)","Latitude":"42.17920","Longitude":"-79.97560","Snowdepth":"14.000","Units":"in","Rept_Date":"2020-12-27 13"},"coordinates":[5067,4329]},{"type":"Point","properties":{"Station_ID":"41.6151_081.4459","Station_Nam":"3 SW Willoughby  CoCoRaHS (OH-LK-9)","Latitude":"41.61510","Longitude":"-81.44590","Snowdepth":"14.000","Units":"in","Rept_Date":"2020-12-27 12"},"coordinates":[4635,3994]},{"type":"Point","properties":{"Station_ID":"NY-OS-21","Station_Nam":"PULASKI 0.5 NE, NY","Latitude":"43.56997","Longitude":"-76.11950","Snowdepth":"13.500","Units":"in","Rept_Date":"2020-12-27 14"},"coordinates":[6199,5155]},{"type":"Point","properties":{"Station_ID":"QTM","Station_Nam":"QTM","Latitude":"51.05780","Longitude":"-72.57190","Snowdepth":"13.228","Units":"in","Rept_Date":"2020-12-27 12"},"coordinates":[7240,9602]},{"type":"Point","properties":{"Station_ID":"NY-ER-75","Station_Nam":"ELMA CENTER 0.7 SE, NY","Latitude":"42.81936","Longitude":"-78.62140","Snowdepth":"13.000","Units":"in","Rept_Date":"2020-12-27 14"},"coordinates":[5465,4709]},{"type":"Point","properties":{"Station_ID":"NY-ER-50","Station_Nam":"EAST AURORA 0.1 ENE, NY","Latitude":"42.76750","Longitude":"-78.61580","Snowdepth":"13.000","Units":"in","Rept_Date":"2020-12-27 12"},"coordinates":[5466,4678]},{"type":"Point","properties":{"Station_ID":"CAN-ON-452","Station_Nam":"CHATSWORTH 1.8 ENE - GSCA, CAN","Latitude":"44.46118","Longitude":"-80.87506","Snowdepth":"13.000","Units":"in","Rept_Date":"2020-12-27 12"},"coordinates":[4803,5684]},{"type":"Point","properties":{"Station_ID":"BERM4","Station_Nam":"BERGLAND DAM","Latitude":"46.58690","Longitude":"-89.54750","Snowdepth":"13.000","Units":"in","Rept_Date":"2020-12-27 13"},"coordinates":[2257,6946]},{"type":"Point","properties":{"Station_ID":"SOCQ6","Station_Nam":"SOCKET LAKE","Latitude":"50.77870","Longitude":"-91.79300","Snowdepth":"12.910","Units":"in","Rept_Date":"2020-12-28 06"},"coordinates":[1598,9436]},{"type":"Point","properties":{"Station_ID":"CAN-ON-491","Station_Nam":"MILVERTON 1.1 ESE- CANWARN, CAN","Latitude":"43.56074","Longitude":"-80.90887","Snowdepth":"12.600","Units":"in","Rept_Date":"2020-12-27 12"},"coordinates":[4793,5149]},{"type":"Point","properties":{"Station_ID":"PA-ER-5","Station_Nam":"NORTH EAST 1.2 WNW, PA","Latitude":"42.22058","Longitude":"-79.85510","Snowdepth":"12.500","Units":"in","Rept_Date":"2020-12-27 13"},"coordinates":[5102,4353]},{"type":"Point","properties":{"Station_ID":"NY-ER-158","Station_Nam":"EAST AURORA 2.7 SSE, NY","Latitude":"42.72936","Longitude":"-78.60561","Snowdepth":"12.500","Units":"in","Rept_Date":"2020-12-27 14"},"coordinates":[5469,4655]},{"type":"Point","properties":{"Station_ID":"NY-ER-151","Station_Nam":"CLARENCE CENTER 0.2 ESE, NY","Latitude":"43.00742","Longitude":"-78.62917","Snowdepth":"12.300","Units":"in","Rept_Date":"2020-12-27 13"},"coordinates":[5462,4821]},{"type":"Point","properties":{"Station_ID":"NY-CQ-9","Station_Nam":"DUNKIRK 0.7 SW, NY","Latitude":"42.47167","Longitude":"-79.33360","Snowdepth":"12.300","Units":"in","Rept_Date":"2020-12-27 14"},"coordinates":[5255,4502]},{"type":"Point","properties":{"Station_ID":"QMD","Station_Nam":"QMD","Latitude":"49.29060","Longitude":"-75.84500","Snowdepth":"12.244","Units":"in","Rept_Date":"2020-12-27 12"},"coordinates":[6279,8552]},{"type":"Point","properties":{"Station_ID":"CAN-ON-741","Station_Nam":"KIMBERLEY 2.7 WSW, CAN","Latitude":"44.37820","Longitude":"-80.56956","Snowdepth":"12.200","Units":"in","Rept_Date":"2020-12-27 13"},"coordinates":[4893,5635]},{"type":"Point","properties":{"Station_ID":"QLI","Station_Nam":"QLI","Latitude":"50.27080","Longitude":"-73.92280","Snowdepth":"12.047","Units":"in","Rept_Date":"2020-12-27 12"},"coordinates":[6844,9134]},{"type":"Point","properties":{"Station_ID":"WLFM5","Station_Nam":"WOLF RIDGE ENVIRON LEARNING CENTER","Latitude":"47.38240","Longitude":"-91.19730","Snowdepth":"12.000","Units":"in","Rept_Date":"2020-12-27 13"},"coordinates":[1773,7419]},{"type":"Point","properties":{"Station_ID":"SBOP1","Station_Nam":"SPRINGBORO","Latitude":"41.81660","Longitude":"-80.43330","Snowdepth":"12.000","Units":"in","Rept_Date":"2020-12-27 12"},"coordinates":[4933,4113]},{"type":"Point","properties":{"Station_ID":"PRGN6","Station_Nam":"PERRYSBURG","Latitude":"42.46470","Longitude":"-79.00310","Snowdepth":"12.000","Units":"in","Rept_Date":"2020-12-27 12"},"coordinates":[5352,4498]},{"type":"Point","properties":{"Station_ID":"PA-CW-8","Station_Nam":"SPRINGBORO 3.0 WNW, PA","Latitude":"41.81654","Longitude":"-80.42540","Snowdepth":"12.000","Units":"in","Rept_Date":"2020-12-27 12"},"coordinates":[4935,4113]},{"type":"Point","properties":{"Station_ID":"OH-TR-4","Station_Nam":"NEWTON FALLS 0.6 N, OH","Latitude":"41.19773","Longitude":"-80.97210","Snowdepth":"12.000","Units":"in","Rept_Date":"2020-12-27 12"},"coordinates":[4775,3746]},{"type":"Point","properties":{"Station_ID":"NY-ER-51","Station_Nam":"CLARENCE CENTER 0.9 N, NY","Latitude":"43.02117","Longitude":"-78.63099","Snowdepth":"12.000","Units":"in","Rept_Date":"2020-12-27 12"},"coordinates":[5462,4829]},{"type":"Point","properties":{"Station_ID":"NY-ER-122","Station_Nam":"CHEEKTOWAGA 2.4 NW, NY","Latitude":"42.93457","Longitude":"-78.78295","Snowdepth":"12.000","Units":"in","Rept_Date":"2020-12-27 12"},"coordinates":[5417,4777]},{"type":"Point","properties":{"Station_ID":"NY-CQ-41","Station_Nam":"MAYVILLE 0.2 ESE, NY","Latitude":"42.25194","Longitude":"-79.49809","Snowdepth":"12.000","Units":"in","Rept_Date":"2020-12-27 12"},"coordinates":[5207,4372]},{"type":"Point","properties":{"Station_ID":"NY-CQ-22","Station_Nam":"FREDONIA 0.8 WNW, NY","Latitude":"42.44414","Longitude":"-79.34610","Snowdepth":"12.000","Units":"in","Rept_Date":"2020-12-27 10"},"coordinates":[5252,4486]},{"type":"Point","properties":{"Station_ID":"MI-BN-5","Station_Nam":"BUCHANAN 1.3 WNW, MI","Latitude":"41.83634","Longitude":"-86.38900","Snowdepth":"12.000","Units":"in","Rept_Date":"2020-12-27 12"},"coordinates":[3185,4125]},{"type":"Point","properties":{"Station_ID":"KSGM4","Station_Nam":"KEARSARGE","Latitude":"47.27520","Longitude":"-88.41700","Snowdepth":"12.000","Units":"in","Rept_Date":"2020-12-27 13"},"coordinates":[2589,7355]},{"type":"Point","properties":{"Station_ID":"KBUF","Station_Nam":"GREATER BUFFALO INTERNATIONAL  AIRPORT","Latitude":"42.93333","Longitude":"-78.73333","Snowdepth":"12.000","Units":"in","Rept_Date":"2020-12-28 00"},"coordinates":[5432,4777]},{"type":"Point","properties":{"Station_ID":"HGHN6","Station_Nam":"HIGHMARKET","Latitude":"43.60510","Longitude":"-75.55430","Snowdepth":"12.000","Units":"in","Rept_Date":"2020-12-27 12"},"coordinates":[6365,5176]},{"type":"Point","properties":{"Station_ID":"DKKN6","Station_Nam":"DUNKIRK 1S","Latitude":"42.47180","Longitude":"-79.33370","Snowdepth":"12.000","Units":"in","Rept_Date":"2020-12-27 14"},"coordinates":[5255,4503]},{"type":"Point","properties":{"Station_ID":"BUF","Station_Nam":"BUFFALO, NY","Latitude":"42.94140","Longitude":"-78.71920","Snowdepth":"12.000","Units":"in","Rept_Date":"2020-12-28 06"},"coordinates":[5436,4781]},{"type":"Point","properties":{"Station_ID":"41.8166_080.4333","Station_Nam":"3 WNW Springboro  Co-Op Observer (SBOP1)","Latitude":"41.81660","Longitude":"-80.43330","Snowdepth":"12.000","Units":"in","Rept_Date":"2020-12-27 12"},"coordinates":[4933,4113]},{"type":"Point","properties":{"Station_ID":"41.8165_080.4254","Station_Nam":"3 WNW Springboro  CoCoRaHS (PA-CW-8)","Latitude":"41.81650","Longitude":"-80.42540","Snowdepth":"12.000","Units":"in","Rept_Date":"2020-12-27 12"},"coordinates":[4935,4113]},{"type":"Point","properties":{"Station_ID":"41.1977_080.9721","Station_Nam":"1 N Newton Falls  CoCoRaHS (OH-TR-4)","Latitude":"41.19770","Longitude":"-80.97210","Snowdepth":"12.000","Units":"in","Rept_Date":"2020-12-27 12"},"coordinates":[4775,3746]},{"type":"Point","properties":{"Station_ID":"SVBQ6","Station_Nam":"SAVANT BASE","Latitude":"50.28730","Longitude":"-90.65670","Snowdepth":"11.770","Units":"in","Rept_Date":"2020-12-28 06"},"coordinates":[1932,9144]},{"type":"Point","properties":{"Station_ID":"MN-SL-15","Station_Nam":"CHISHOLM 0.4 WSW, MN","Latitude":"47.48557","Longitude":"-92.88690","Snowdepth":"11.500","Units":"in","Rept_Date":"2020-12-27 13"},"coordinates":[1277,7480]},{"type":"Point","properties":{"Station_ID":"CAN-ON-804","Station_Nam":"KEMBLE 1.6 S - GSCA, CAN","Latitude":"44.71013","Longitude":"-80.92735","Snowdepth":"11.400","Units":"in","Rept_Date":"2020-12-27 13"},"coordinates":[4788,5832]},{"type":"Point","properties":{"Station_ID":"WNDP1","Station_Nam":"WINDBER COUNTY CLUB","Latitude":"40.28780","Longitude":"-78.77530","Snowdepth":"11.000","Units":"in","Rept_Date":"2020-12-27 12"},"coordinates":[5419,3205]},{"type":"Point","properties":{"Station_ID":"SWTW3","Station_Nam":"SUPERIOR WWTP","Latitude":"46.72700","Longitude":"-92.07200","Snowdepth":"11.000","Units":"in","Rept_Date":"2020-12-28 06"},"coordinates":[1517,7030]},{"type":"Point","properties":{"Station_ID":"QNCM4","Station_Nam":"QUINCY HILL","Latitude":"47.13640","Longitude":"-88.57950","Snowdepth":"11.000","Units":"in","Rept_Date":"2020-12-27 12"},"coordinates":[2542,7273]},{"type":"Point","properties":{"Station_ID":"KABM5","Station_Nam":"KABETOGAMA LAKE VISITOR CTR","Latitude":"48.40880","Longitude":"-93.04840","Snowdepth":"11.000","Units":"in","Rept_Date":"2020-12-27 13"},"coordinates":[1230,8028]},{"type":"Point","properties":{"Station_ID":"GNLM4","Station_Nam":"GREENLAND 6N","Latitude":"46.87360","Longitude":"-89.10060","Snowdepth":"11.000","Units":"in","Rept_Date":"2020-12-27 13"},"coordinates":[2389,7117]},{"type":"Point","properties":{"Station_ID":"41.8495_080.3016","Station_Nam":"4 WNW Crossingville  Trained Spotter (X4180803)","Latitude":"41.84946","Longitude":"-80.30159","Snowdepth":"11.000","Units":"in","Rept_Date":"2020-12-27 14"},"coordinates":[4971,4133]},{"type":"Point","properties":{"Station_ID":"KABQ6","Station_Nam":"CAB LAKE","Latitude":"49.59950","Longitude":"-89.17990","Snowdepth":"10.910","Units":"in","Rept_Date":"2020-12-28 06"},"coordinates":[2365,8736]},{"type":"Point","properties":{"Station_ID":"QOU","Station_Nam":"QOU","Latitude":"50.79250","Longitude":"-69.67470","Snowdepth":"10.787","Units":"in","Rept_Date":"2020-12-27 12"},"coordinates":[8091,9444]},{"type":"Point","properties":{"Station_ID":"CAN-ON-784","Station_Nam":"KOMOKA 3.1 W, CAN","Latitude":"42.96000","Longitude":"-81.43805","Snowdepth":"10.200","Units":"in","Rept_Date":"2020-12-27 13"},"coordinates":[4638,4792]},{"type":"Point","properties":{"Station_ID":"NY-ER-138","Station_Nam":"EAST AURORA 3.4 NNE, NY","Latitude":"42.81400","Longitude":"-78.59670","Snowdepth":"10.000","Units":"in","Rept_Date":"2020-12-27 12"},"coordinates":[5472,4706]},{"type":"Point","properties":{"Station_ID":"MN-CK-6","Station_Nam":"GRAND MARAIS 4.4 W, MN","Latitude":"47.74865","Longitude":"-90.43760","Snowdepth":"10.000","Units":"in","Rept_Date":"2020-12-27 13"},"coordinates":[1996,7636]},{"type":"Point","properties":{"Station_ID":"HERM4","Station_Nam":"HERMAN,MI","Latitude":"46.65000","Longitude":"-88.33330","Snowdepth":"10.000","Units":"in","Rept_Date":"2020-12-27 13"},"coordinates":[2614,6984]},{"type":"Point","properties":{"Station_ID":"ELYM5","Station_Nam":"ELY","Latitude":"47.90560","Longitude":"-91.82830","Snowdepth":"10.000","Units":"in","Rept_Date":"2020-12-27 14"},"coordinates":[1588,7730]},{"type":"Point","properties":{"Station_ID":"COKM5","Station_Nam":"COOK","Latitude":"47.85060","Longitude":"-92.69250","Snowdepth":"10.000","Units":"in","Rept_Date":"2020-12-27 12"},"coordinates":[1334,7697]},{"type":"Point","properties":{"Station_ID":"CAN-MB-56","Station_Nam":"WINNIPEG 7.6 ENE, CAN","Latitude":"49.93264","Longitude":"-97.04752","Snowdepth":"10.000","Units":"in","Rept_Date":"2020-12-27 14"},"coordinates":[56,8933]},{"type":"Point","properties":{"Station_ID":"CAN-MB-32","Station_Nam":"PINAWA 1.0 SW, CA","Latitude":"50.14747","Longitude":"-95.89020","Snowdepth":"10.000","Units":"in","Rept_Date":"2020-12-27 13"},"coordinates":[396,9061]},{"type":"Point","properties":{"Station_ID":"BNDM5","Station_Nam":"ELY 25E","Latitude":"47.97190","Longitude":"-91.44860","Snowdepth":"10.000","Units":"in","Rept_Date":"2020-12-27 13"},"coordinates":[1699,7769]},{"type":"Point","properties":{"Station_ID":"ATAN6","Station_Nam":"ATTICA 7 SW","Latitude":"42.81070","Longitude":"-78.39790","Snowdepth":"10.000","Units":"in","Rept_Date":"2020-12-27 11"},"coordinates":[5530,4704]},{"type":"Point","properties":{"Station_ID":"41.9034_079.6523","Station_Nam":"CORRY (CLE0230)","Latitude":"41.90340","Longitude":"-79.65230","Snowdepth":"10.000","Units":"in","Rept_Date":"2020-12-27 14"},"coordinates":[5162,4165]},{"type":"Point","properties":{"Station_ID":"OH-CY-58","Station_Nam":"SOUTH EUCLID 0.2 ESE, OH","Latitude":"41.52358","Longitude":"-81.52191","Snowdepth":"9.600","Units":"in","Rept_Date":"2020-12-27 13"},"coordinates":[4613,3939]},{"type":"Point","properties":{"Station_ID":"MI-BG-3","Station_Nam":"THREE LAKES, MI","Latitude":"46.55730","Longitude":"-88.20770","Snowdepth":"9.500","Units":"in","Rept_Date":"2020-12-27 13"},"coordinates":[2651,6929]},{"type":"Point","properties":{"Station_ID":"CAN-ON-86","Station_Nam":"GUELPH 5.1 S - CANWARN, CAN","Latitude":"43.49691","Longitude":"-80.24385","Snowdepth":"9.400","Units":"in","Rept_Date":"2020-12-27 12"},"coordinates":[4988,5111]},{"type":"Point","properties":{"Station_ID":"SGVN6","Station_Nam":"SPRINGVILLE","Latitude":"42.54970","Longitude":"-78.57670","Snowdepth":"9.000","Units":"in","Rept_Date":"2020-12-27 22"},"coordinates":[5478,4549]},{"type":"Point","properties":{"Station_ID":"MTLT1","Station_Nam":"GATLINBURG,TN","Latitude":"35.65500","Longitude":"-83.44110","Snowdepth":"9.000","Units":"in","Rept_Date":"2020-12-27 13"},"coordinates":[4050,454]},{"type":"Point","properties":{"Station_ID":"MN-SL-108","Station_Nam":"IRON JUNCTION 3.4 NNW, MN","Latitude":"47.46150","Longitude":"-92.63130","Snowdepth":"9.000","Units":"in","Rept_Date":"2020-12-27 12"},"coordinates":[1352,7466]},{"type":"Point","properties":{"Station_ID":"MN-CK-18","Station_Nam":"GRAND MARAIS 4.4 WSW, MN","Latitude":"47.74462","Longitude":"-90.43796","Snowdepth":"9.000","Units":"in","Rept_Date":"2020-12-27 13"},"coordinates":[1996,7634]},{"type":"Point","properties":{"Station_ID":"MMNV1","Station_Nam":"MT. MANSFIELD","Latitude":"44.52480","Longitude":"-72.81540","Snowdepth":"9.000","Units":"in","Rept_Date":"2020-12-27 21"},"coordinates":[7169,5722]},{"type":"Point","properties":{"Station_ID":"MI-HG-20","Station_Nam":"CALUMET 1.1 SSW, MI","Latitude":"47.23165","Longitude":"-88.45823","Snowdepth":"9.000","Units":"in","Rept_Date":"2020-12-27 11"},"coordinates":[2577,7329]},{"type":"Point","properties":{"Station_ID":"MI-BN-4","Station_Nam":"NILES 2.7 W, MI","Latitude":"41.83705","Longitude":"-86.30050","Snowdepth":"9.000","Units":"in","Rept_Date":"2020-12-27 13"},"coordinates":[3211,4126]},{"type":"Point","properties":{"Station_ID":"LEIM5","Station_Nam":"ORR 3E","Latitude":"48.05810","Longitude":"-92.75220","Snowdepth":"9.000","Units":"in","Rept_Date":"2020-12-27 12"},"coordinates":[1317,7820]},{"type":"Point","properties":{"Station_ID":"KGTB","Station_Nam":"FORT DRUM / WHEELER-SACK U. S. ARMY AIRFIELD","Latitude":"44.05000","Longitude":"-75.73333","Snowdepth":"9.000","Units":"in","Rept_Date":"2020-12-28 06"},"coordinates":[6312,5440]},{"type":"Point","properties":{"Station_ID":"IRMM4","Station_Nam":"WWTP","Latitude":"46.46670","Longitude":"-90.18330","Snowdepth":"9.000","Units":"in","Rept_Date":"2020-12-27 13"},"coordinates":[2071,6875]},{"type":"Point","properties":{"Station_ID":"HVJP1","Station_Nam":"HIDDEN VALLEY COOP","Latitude":"40.04200","Longitude":"-79.25660","Snowdepth":"9.000","Units":"in","Rept_Date":"2020-12-27 13"},"coordinates":[5278,3060]},{"type":"Point","properties":{"Station_ID":"FLDM5","Station_Nam":"FLOODWOOD,MN","Latitude":"47.00000","Longitude":"-92.91670","Snowdepth":"9.000","Units":"in","Rept_Date":"2020-12-27 14"},"coordinates":[1269,7192]},{"type":"Point","properties":{"Station_ID":"BBEM4","Station_Nam":"BIG BAY 9SW","Latitude":"46.74620","Longitude":"-87.88160","Snowdepth":"9.000","Units":"in","Rept_Date":"2020-12-27 13"},"coordinates":[2746,7041]},{"type":"Point","properties":{"Station_ID":"CATQ6","Station_Nam":"CAT LAKE","Latitude":"51.72690","Longitude":"-91.82210","Snowdepth":"8.700","Units":"in","Rept_Date":"2020-12-28 06"},"coordinates":[1590,9999]},{"type":"Point","properties":{"Station_ID":"WI-BY-29","Station_Nam":"BAYFIELD 5.1 NNW, WI","Latitude":"46.88063","Longitude":"-90.85854","Snowdepth":"8.500","Units":"in","Rept_Date":"2020-12-27 14"},"coordinates":[1873,7121]},{"type":"Point","properties":{"Station_ID":"NY-ER-196","Station_Nam":"BUFFALO 1.2 WNW, NY","Latitude":"42.89815","Longitude":"-78.88065","Snowdepth":"8.500","Units":"in","Rept_Date":"2020-12-27 12"},"coordinates":[5388,4756]},{"type":"Point","properties":{"Station_ID":"NY-CQ-39","Station_Nam":"GERRY 0.8 N, NY","Latitude":"42.20500","Longitude":"-79.24700","Snowdepth":"8.500","Units":"in","Rept_Date":"2020-12-27 13"},"coordinates":[5281,4344]},{"type":"Point","properties":{"Station_ID":"OH-SM-39","Station_Nam":"TALLMADGE 0.8 NNE, OH","Latitude":"41.11402","Longitude":"-81.41970","Snowdepth":"8.150","Units":"in","Rept_Date":"2020-12-27 13"},"coordinates":[4643,3696]},{"type":"Point","properties":{"Station_ID":"FTHQ6","Station_Nam":"FORT HOPE","Latitude":"51.55820","Longitude":"-87.90510","Snowdepth":"8.150","Units":"in","Rept_Date":"2020-12-28 06"},"coordinates":[2740,9899]},{"type":"Point","properties":{"Station_ID":"WRSM5","Station_Nam":"WRENSHALL","Latitude":"46.61550","Longitude":"-92.38380","Snowdepth":"8.000","Units":"in","Rept_Date":"2020-12-27 14"},"coordinates":[1425,6963]},{"type":"Point","properties":{"Station_ID":"UPSW3","Station_Nam":"UPSON,WI","Latitude":"46.36780","Longitude":"-90.41220","Snowdepth":"8.000","Units":"in","Rept_Date":"2020-12-28 00"},"coordinates":[2004,6816]},{"type":"Point","properties":{"Station_ID":"TOGM5","Station_Nam":"CELINA 2E","Latitude":"47.86630","Longitude":"-93.02660","Snowdepth":"8.000","Units":"in","Rept_Date":"2020-12-27 15"},"coordinates":[1236,7706]},{"type":"Point","properties":{"Station_ID":"OWAM5","Station_Nam":"OWATONNA","Latitude":"44.09760","Longitude":"-93.23180","Snowdepth":"8.000","Units":"in","Rept_Date":"2020-12-27 14"},"coordinates":[1176,5468]},{"type":"Point","properties":{"Station_ID":"OH-PT-9","Station_Nam":"HIRAM 0.4 N, OH","Latitude":"41.31595","Longitude":"-81.14340","Snowdepth":"8.000","Units":"in","Rept_Date":"2020-12-27 13"},"coordinates":[4724,3816]},{"type":"Point","properties":{"Station_ID":"OH-LR-3","Station_Nam":"SHEFFIELD LAKE 0.5 E, OH","Latitude":"41.49000","Longitude":"-82.08740","Snowdepth":"8.000","Units":"in","Rept_Date":"2020-12-27 15"},"coordinates":[4447,3919]},{"type":"Point","properties":{"Station_ID":"OH-GG-4","Station_Nam":"MONTVILLE 1.2 SSE, OH","Latitude":"41.59030","Longitude":"-81.04800","Snowdepth":"8.000","Units":"in","Rept_Date":"2020-12-27 12"},"coordinates":[4752,3979]},{"type":"Point","properties":{"Station_ID":"NY-JF-42","Station_Nam":"EVANS MILLS 0.5 W, NY","Latitude":"44.08778","Longitude":"-75.81738","Snowdepth":"8.000","Units":"in","Rept_Date":"2020-12-27 13"},"coordinates":[6288,5462]},{"type":"Point","properties":{"Station_ID":"NY-ER-63","Station_Nam":"GLENWOOD 1.5 SE, NY","Latitude":"42.60195","Longitude":"-78.63910","Snowdepth":"8.000","Units":"in","Rept_Date":"2020-12-27 13"},"coordinates":[5459,4580]},{"type":"Point","properties":{"Station_ID":"NY-ER-104","Station_Nam":"WILLIAMSVILLE 2.2 NNW, NY","Latitude":"42.99422","Longitude":"-78.75260","Snowdepth":"8.000","Units":"in","Rept_Date":"2020-12-27 14"},"coordinates":[5426,4813]},{"type":"Point","properties":{"Station_ID":"MSP","Station_Nam":"MINNEAPOLIS-ST PAUL INTL AP","Latitude":"44.88310","Longitude":"-93.22890","Snowdepth":"8.000","Units":"in","Rept_Date":"2020-12-28 00"},"coordinates":[1177,5935]},{"type":"Point","properties":{"Station_ID":"LUCW3","Station_Nam":"LUCK","Latitude":"45.57330","Longitude":"-92.48520","Snowdepth":"8.000","Units":"in","Rept_Date":"2020-12-27 19"},"coordinates":[1395,6344]},{"type":"Point","properties":{"Station_ID":"KMSP","Station_Nam":"MINNEAPOLIS-ST PAUL INTERNATIONAL","Latitude":"44.86666","Longitude":"-93.21666","Snowdepth":"8.000","Units":"in","Rept_Date":"2020-12-28 00"},"coordinates":[1181,5925]},{"type":"Point","properties":{"Station_ID":"INL","Station_Nam":"FALLS INTERNATIONAL ARPT","Latitude":"48.56640","Longitude":"-93.40310","Snowdepth":"8.000","Units":"in","Rept_Date":"2020-12-28 00"},"coordinates":[1126,8122]},{"type":"Point","properties":{"Station_ID":"IFSM5","Station_Nam":"INTERNATIONAL FALLS SNOW","Latitude":"48.57780","Longitude":"-93.39640","Snowdepth":"8.000","Units":"in","Rept_Date":"2020-12-28 00"},"coordinates":[1128,8129]},{"type":"Point","properties":{"Station_ID":"CVWP1","Station_Nam":"CHANDLER VALLEY 1SE","Latitude":"41.93010","Longitude":"-79.29700","Snowdepth":"8.000","Units":"in","Rept_Date":"2020-12-27 12"},"coordinates":[5266,4181]},{"type":"Point","properties":{"Station_ID":"COTM5","Station_Nam":"COTTON","Latitude":"47.16870","Longitude":"-92.46290","Snowdepth":"8.000","Units":"in","Rept_Date":"2020-12-27 13"},"coordinates":[1402,7292]},{"type":"Point","properties":{"Station_ID":"BRMM5","Station_Nam":"BRIMSON 2S","Latitude":"47.24720","Longitude":"-91.86240","Snowdepth":"8.000","Units":"in","Rept_Date":"2020-12-28 01"},"coordinates":[1578,7339]},{"type":"Point","properties":{"Station_ID":"41.5903_081.0480","Station_Nam":"1 SSE Montville  CoCoRaHS (OH-GG-4)","Latitude":"41.59030","Longitude":"-81.04800","Snowdepth":"8.000","Units":"in","Rept_Date":"2020-12-27 11"},"coordinates":[4752,3979]},{"type":"Point","properties":{"Station_ID":"41.4900_082.0874","Station_Nam":"1 E Sheffield Lake  CoCoRaHS (OH-LR-3)","Latitude":"41.49000","Longitude":"-82.08740","Snowdepth":"8.000","Units":"in","Rept_Date":"2020-12-27 15"},"coordinates":[4447,3919]},{"type":"Point","properties":{"Station_ID":"CAN-ON-593","Station_Nam":"KITCHENER 4.5 E, CAN","Latitude":"43.45147","Longitude":"-80.43180","Snowdepth":"7.900","Units":"in","Rept_Date":"2020-12-27 14"},"coordinates":[4933,5084]},{"type":"Point","properties":{"Station_ID":"CAN-MB-368","Station_Nam":"WHITESHELL 1.3 NE, CAN","Latitude":"49.74405","Longitude":"-95.19123","Snowdepth":"7.600","Units":"in","Rept_Date":"2020-12-27 14"},"coordinates":[601,8821]},{"type":"Point","properties":{"Station_ID":"WI-SR-1","Station_Nam":"HAYWARD 9.2 NNE, WI","Latitude":"46.13255","Longitude":"-91.40500","Snowdepth":"7.500","Units":"in","Rept_Date":"2020-12-27 12"},"coordinates":[1712,6677]},{"type":"Point","properties":{"Station_ID":"OH-CY-39","Station_Nam":"WESTLAKE 0.5 SSW, OH","Latitude":"41.44795","Longitude":"-81.93260","Snowdepth":"7.500","Units":"in","Rept_Date":"2020-12-27 13"},"coordinates":[4493,3894]},{"type":"Point","properties":{"Station_ID":"MN-CN-36","Station_Nam":"CLOQUET 3.4 ENE, MN","Latitude":"46.74146","Longitude":"-92.42698","Snowdepth":"7.500","Units":"in","Rept_Date":"2020-12-27 13"},"coordinates":[1412,7038]},{"type":"Point","properties":{"Station_ID":"41.4480_081.9326","Station_Nam":"1 SSW Westlake  CoCoRaHS (OH-CY-39)","Latitude":"41.44800","Longitude":"-81.93260","Snowdepth":"7.500","Units":"in","Rept_Date":"2020-12-27 13"},"coordinates":[4493,3895]},{"type":"Point","properties":{"Station_ID":"HPN04_MADIS","Station_Nam":"HANOVER","Latitude":"45.16770","Longitude":"-93.63430","Snowdepth":"7.040","Units":"in","Rept_Date":"2020-12-28 06"},"coordinates":[1058,6104]},{"type":"Point","properties":{"Station_ID":"WV-PR-19","Station_Nam":"TERRA ALTA 3.3 ENE, WV","Latitude":"39.45929","Longitude":"-79.48470","Snowdepth":"7.000","Units":"in","Rept_Date":"2020-12-27 12"},"coordinates":[5211,2713]},{"type":"Point","properties":{"Station_ID":"WRIM5","Station_Nam":"WRIGHT 3E","Latitude":"46.68040","Longitude":"-92.95420","Snowdepth":"7.000","Units":"in","Rept_Date":"2020-12-27 12"},"coordinates":[1258,7002]},{"type":"Point","properties":{"Station_ID":"WI-WB-2","Station_Nam":"STONE LAKE 2.0 NW, WI","Latitude":"45.85960","Longitude":"-91.57710","Snowdepth":"7.000","Units":"in","Rept_Date":"2020-12-27 13"},"coordinates":[1662,6515]},{"type":"Point","properties":{"Station_ID":"WI-DG-20","Station_Nam":"SOLON SPRINGS 1.2 W, WI","Latitude":"46.35217","Longitude":"-91.84405","Snowdepth":"7.000","Units":"in","Rept_Date":"2020-12-27 13"},"coordinates":[1583,6807]},{"type":"Point","properties":{"Station_ID":"WI-BY-22","Station_Nam":"MASON 11.5 WNW, WI","Latitude":"46.50198","Longitude":"-91.28339","Snowdepth":"7.000","Units":"in","Rept_Date":"2020-12-27 14"},"coordinates":[1748,6896]},{"type":"Point","properties":{"Station_ID":"WI-BY-2","Station_Nam":"MELLEN 18.6 SW, WI","Latitude":"46.16937","Longitude":"-90.98090","Snowdepth":"7.000","Units":"in","Rept_Date":"2020-12-27 13"},"coordinates":[1837,6698]},{"type":"Point","properties":{"Station_ID":"STWO1","Station_Nam":"MONROE FALLS","Latitude":"41.13110","Longitude":"-81.40000","Snowdepth":"7.000","Units":"in","Rept_Date":"2020-12-27 12"},"coordinates":[4649,3706]},{"type":"Point","properties":{"Station_ID":"PA-CW-18","Station_Nam":"CONNEAUT LAKE 1.3 WNW, PA","Latitude":"41.60816","Longitude":"-80.33371","Snowdepth":"7.000","Units":"in","Rept_Date":"2020-12-27 12"},"coordinates":[4962,3990]},{"type":"Point","properties":{"Station_ID":"OLVK2","Station_Nam":"OLIVE HILL 5NE","Latitude":"38.34230","Longitude":"-83.10380","Snowdepth":"7.000","Units":"in","Rept_Date":"2020-12-27 12"},"coordinates":[4149,2050]},{"type":"Point","properties":{"Station_ID":"OH-PT-2","Station_Nam":"RAVENNA 0.5 E, OH","Latitude":"41.15985","Longitude":"-81.23210","Snowdepth":"7.000","Units":"in","Rept_Date":"2020-12-27 13"},"coordinates":[4698,3723]},{"type":"Point","properties":{"Station_ID":"OH-PT-10","Station_Nam":"KENT 3.6 NE, OH","Latitude":"41.20083","Longitude":"-81.33890","Snowdepth":"7.000","Units":"in","Rept_Date":"2020-12-27 13"},"coordinates":[4667,3748]},{"type":"Point","properties":{"Station_ID":"OH-MD-1","Station_Nam":"WADSWORTH 4.7 WNW, OH","Latitude":"41.04276","Longitude":"-81.81930","Snowdepth":"7.000","Units":"in","Rept_Date":"2020-12-27 12"},"coordinates":[4526,3654]},{"type":"Point","properties":{"Station_ID":"OH-GG-7","Station_Nam":"MIDDLEFIELD 0.6 NE, OH","Latitude":"41.46438","Longitude":"-81.06520","Snowdepth":"7.000","Units":"in","Rept_Date":"2020-12-27 13"},"coordinates":[4747,3904]},{"type":"Point","properties":{"Station_ID":"OH-CY-54","Station_Nam":"SEVEN HILLS 0.6 NNE, OH","Latitude":"41.38811","Longitude":"-81.67098","Snowdepth":"7.000","Units":"in","Rept_Date":"2020-12-27 13"},"coordinates":[4569,3859]},{"type":"Point","properties":{"Station_ID":"OH-CY-24","Station_Nam":"PARMA 1.9 NNW, OH","Latitude":"41.40881","Longitude":"-81.74480","Snowdepth":"7.000","Units":"in","Rept_Date":"2020-12-27 13"},"coordinates":[4548,3871]},{"type":"Point","properties":{"Station_ID":"OCON6","Station_Nam":"OSCEOLA","Latitude":"43.50370","Longitude":"-75.72170","Snowdepth":"7.000","Units":"in","Rept_Date":"2020-12-27 13"},"coordinates":[6316,5115]},{"type":"Point","properties":{"Station_ID":"NY-ER-72","Station_Nam":"TONAWANDA 3.1 NE, NY","Latitude":"43.01368","Longitude":"-78.82960","Snowdepth":"7.000","Units":"in","Rept_Date":"2020-12-27 12"},"coordinates":[5403,4824]},{"type":"Point","properties":{"Station_ID":"NY-ER-59","Station_Nam":"KENMORE 0.3 ESE, NY","Latitude":"42.96316","Longitude":"-78.86690","Snowdepth":"7.000","Units":"in","Rept_Date":"2020-12-27 11"},"coordinates":[5392,4794]},{"type":"Point","properties":{"Station_ID":"NY-ER-123","Station_Nam":"CLARENCE CENTER 5.2 WNW, NY","Latitude":"43.04554","Longitude":"-78.72150","Snowdepth":"7.000","Units":"in","Rept_Date":"2020-12-27 12"},"coordinates":[5435,4843]},{"type":"Point","properties":{"Station_ID":"NY-CT-33","Station_Nam":"GREAT VALLEY 2.2 WNW, NY","Latitude":"42.22790","Longitude":"-78.67580","Snowdepth":"7.000","Units":"in","Rept_Date":"2020-12-27 12"},"coordinates":[5449,4358]},{"type":"Point","properties":{"Station_ID":"NY-CR-5","Station_Nam":"MARATHON 1.0 NW, NY","Latitude":"42.45161","Longitude":"-76.04370","Snowdepth":"7.000","Units":"in","Rept_Date":"2020-12-27 12"},"coordinates":[6221,4491]},{"type":"Point","properties":{"Station_ID":"NH-MR-60","Station_Nam":"SOUTH SUTTON 1.3 SE, NH","Latitude":"43.29531","Longitude":"-71.90238","Snowdepth":"7.000","Units":"in","Rept_Date":"2020-12-27 13"},"coordinates":[7437,4992]},{"type":"Point","properties":{"Station_ID":"MQT","Station_Nam":"MARQUETTE, MI","Latitude":"46.53140","Longitude":"-87.54920","Snowdepth":"7.000","Units":"in","Rept_Date":"2020-12-28 06"},"coordinates":[2844,6913]},{"type":"Point","properties":{"Station_ID":"MNSM4","Station_Nam":"MUNISING","Latitude":"46.41210","Longitude":"-86.66250","Snowdepth":"7.000","Units":"in","Rept_Date":"2020-12-27 11"},"coordinates":[3104,6843]},{"type":"Point","properties":{"Station_ID":"MN-SL-115","Station_Nam":"COTTON 5.7 ESE, MN","Latitude":"47.15142","Longitude":"-92.35772","Snowdepth":"7.000","Units":"in","Rept_Date":"2020-12-27 14"},"coordinates":[1433,7282]},{"type":"Point","properties":{"Station_ID":"MN-IS-18","Station_Nam":"BRAHAM 0.7 SW, MN","Latitude":"45.71379","Longitude":"-93.18095","Snowdepth":"7.000","Units":"in","Rept_Date":"2020-12-27 14"},"coordinates":[1191,6428]},{"type":"Point","properties":{"Station_ID":"MN-HN-298","Station_Nam":"EXCELSIOR 1.8 W, MN","Latitude":"44.89722","Longitude":"-93.60286","Snowdepth":"7.000","Units":"in","Rept_Date":"2020-12-27 13"},"coordinates":[1067,5943]},{"type":"Point","properties":{"Station_ID":"MN-GH-28","Station_Nam":"CANNON FALLS 0.5 SE, MN","Latitude":"44.50866","Longitude":"-92.89526","Snowdepth":"7.000","Units":"in","Rept_Date":"2020-12-27 14"},"coordinates":[1275,5712]},{"type":"Point","properties":{"Station_ID":"MN-CG-16","Station_Nam":"NORTH BRANCH 1.3 NNW, MN","Latitude":"45.53121","Longitude":"-92.97110","Snowdepth":"7.000","Units":"in","Rept_Date":"2020-12-27 12"},"coordinates":[1253,6319]},{"type":"Point","properties":{"Station_ID":"MI-OT-17","Station_Nam":"GAYLORD 4.1 S, MI","Latitude":"44.96388","Longitude":"-84.68467","Snowdepth":"7.000","Units":"in","Rept_Date":"2020-12-27 12"},"coordinates":[3685,5983]},{"type":"Point","properties":{"Station_ID":"GWDP1","Station_Nam":"DASHIELDS DAM","Latitude":"40.54940","Longitude":"-80.20610","Snowdepth":"7.000","Units":"in","Rept_Date":"2020-12-27 11"},"coordinates":[4999,3361]},{"type":"Point","properties":{"Station_ID":"CMKW3","Station_Nam":"CLAM LAKE 4W","Latitude":"46.16940","Longitude":"-90.98080","Snowdepth":"7.000","Units":"in","Rept_Date":"2020-12-27 13"},"coordinates":[1837,6698]},{"type":"Point","properties":{"Station_ID":"CFLK2","Station_Nam":"CARR FORK LAKE","Latitude":"37.23330","Longitude":"-83.03330","Snowdepth":"7.000","Units":"in","Rept_Date":"2020-12-27 12"},"coordinates":[4170,1391]},{"type":"Point","properties":{"Station_ID":"CAAW2","Station_Nam":"CANAAN VALLEY","Latitude":"39.05890","Longitude":"-79.44030","Snowdepth":"7.000","Units":"in","Rept_Date":"2020-12-27 14"},"coordinates":[5224,2476]},{"type":"Point","properties":{"Station_ID":"41.6082_080.3337","Station_Nam":"1 WNW Conneaut Lake  CoCoRaHS (PA-CW-18)","Latitude":"41.60820","Longitude":"-80.33370","Snowdepth":"7.000","Units":"in","Rept_Date":"2020-12-27 12"},"coordinates":[4962,3990]},{"type":"Point","properties":{"Station_ID":"41.4644_081.0652","Station_Nam":"1 NE Middlefield  CoCoRaHS (OH-GG-7)","Latitude":"41.46440","Longitude":"-81.06520","Snowdepth":"7.000","Units":"in","Rept_Date":"2020-12-27 13"},"coordinates":[4747,3904]},{"type":"Point","properties":{"Station_ID":"41.4088_081.7448","Station_Nam":"2 NNW Parma  CoCoRaHS (OH-CY-24)","Latitude":"41.40880","Longitude":"-81.74480","Snowdepth":"7.000","Units":"in","Rept_Date":"2020-12-27 13"},"coordinates":[4548,3871]},{"type":"Point","properties":{"Station_ID":"41.1599_081.2321","Station_Nam":"1 E Ravenna  CoCoRaHS (OH-PT-2)","Latitude":"41.15990","Longitude":"-81.23210","Snowdepth":"7.000","Units":"in","Rept_Date":"2020-12-27 13"},"coordinates":[4698,3723]},{"type":"Point","properties":{"Station_ID":"41.1311_081.4000","Station_Nam":"MONROE FALLS  CO-OP OBSERVER (STWO1)","Latitude":"41.13110","Longitude":"-81.40000","Snowdepth":"7.000","Units":"in","Rept_Date":"2020-12-27 12"},"coordinates":[4649,3706]},{"type":"Point","properties":{"Station_ID":"41.0428_081.8193","Station_Nam":"5 WNW Wadsworth  CoCoRaHS (OH-MD-1)","Latitude":"41.04280","Longitude":"-81.81930","Snowdepth":"7.000","Units":"in","Rept_Date":"2020-12-27 10"},"coordinates":[4526,3654]},{"type":"Point","properties":{"Station_ID":"NY-HR-18","Station_Nam":"SALISBURY CENTER 1.8 NW, NY","Latitude":"43.16260","Longitude":"-74.80880","Snowdepth":"6.800","Units":"in","Rept_Date":"2020-12-27 11"},"coordinates":[6584,4913]},{"type":"Point","properties":{"Station_ID":"HPN02_MADIS","Station_Nam":"MAPLE GROVE","Latitude":"45.11820","Longitude":"-93.42830","Snowdepth":"6.800","Units":"in","Rept_Date":"2020-12-28 06"},"coordinates":[1118,6074]},{"type":"Point","properties":{"Station_ID":"WI-BY-6","Station_Nam":"BARNES 2.2 S, WI","Latitude":"46.30264","Longitude":"-91.50320","Snowdepth":"6.500","Units":"in","Rept_Date":"2020-12-27 13"},"coordinates":[1683,6778]},{"type":"Point","properties":{"Station_ID":"WI-BY-14","Station_Nam":"ASHLAND 9.8 W, WI","Latitude":"46.59742","Longitude":"-91.07856","Snowdepth":"6.500","Units":"in","Rept_Date":"2020-12-27 12"},"coordinates":[1808,6953]},{"type":"Point","properties":{"Station_ID":"PA-FR-1","Station_Nam":"TIONESTA 7.3 SSE, PA","Latitude":"41.39404","Longitude":"-79.41310","Snowdepth":"6.500","Units":"in","Rept_Date":"2020-12-27 12"},"coordinates":[5232,3862]},{"type":"Point","properties":{"Station_ID":"OH-PT-8","Station_Nam":"STREETSBORO 2.1 SSW, OH","Latitude":"41.20976","Longitude":"-81.35480","Snowdepth":"6.500","Units":"in","Rept_Date":"2020-12-27 12"},"coordinates":[4662,3753]},{"type":"Point","properties":{"Station_ID":"OH-LC-29","Station_Nam":"PATASKALA 0.2 E, OH","Latitude":"40.00081","Longitude":"-82.66960","Snowdepth":"6.500","Units":"in","Rept_Date":"2020-12-27 13"},"coordinates":[4276,3035]},{"type":"Point","properties":{"Station_ID":"OH-LC-10","Station_Nam":"GRANVILLE 4.0 N, OH","Latitude":"40.12820","Longitude":"-82.51580","Snowdepth":"6.500","Units":"in","Rept_Date":"2020-12-27 12"},"coordinates":[4321,3111]},{"type":"Point","properties":{"Station_ID":"OH-CY-42","Station_Nam":"STRONGSVILLE 1.3 SE, OH","Latitude":"41.29815","Longitude":"-81.81507","Snowdepth":"6.500","Units":"in","Rept_Date":"2020-12-27 13"},"coordinates":[4527,3806]},{"type":"Point","properties":{"Station_ID":"OH-CC-1","Station_Nam":"COSHOCTON 5.5 WSW, OH","Latitude":"40.22007","Longitude":"-81.93650","Snowdepth":"6.500","Units":"in","Rept_Date":"2020-12-27 12"},"coordinates":[4491,3165]},{"type":"Point","properties":{"Station_ID":"OH-AS-5","Station_Nam":"SULLIVAN 1.1 NNE, OH","Latitude":"41.04200","Longitude":"-82.21260","Snowdepth":"6.500","Units":"in","Rept_Date":"2020-12-27 12"},"coordinates":[4410,3653]},{"type":"Point","properties":{"Station_ID":"NY-JF-26","Station_Nam":"MANNSVILLE 0.3 SE, NY","Latitude":"43.71225","Longitude":"-76.06210","Snowdepth":"6.500","Units":"in","Rept_Date":"2020-12-27 12"},"coordinates":[6216,5239]},{"type":"Point","properties":{"Station_ID":"MN-HN-31","Station_Nam":"MAPLE GROVE 1.0 NNE, MN","Latitude":"45.12261","Longitude":"-93.45790","Snowdepth":"6.500","Units":"in","Rept_Date":"2020-12-27 16"},"coordinates":[1110,6077]},{"type":"Point","properties":{"Station_ID":"MN-AA-76","Station_Nam":"NOWTHEN 2.9 SSE, MN","Latitude":"45.30360","Longitude":"-93.42620","Snowdepth":"6.500","Units":"in","Rept_Date":"2020-12-27 13"},"coordinates":[1119,6184]},{"type":"Point","properties":{"Station_ID":"KY-EL-1","Station_Nam":"OLIVE HILL 9.0 SSE, KY","Latitude":"38.19330","Longitude":"-83.08170","Snowdepth":"6.500","Units":"in","Rept_Date":"2020-12-27 14"},"coordinates":[4155,1962]},{"type":"Point","properties":{"Station_ID":"MFU","Station_Nam":"MFU","Latitude":"51.52170","Longitude":"-66.91110","Snowdepth":"6.378","Units":"in","Rept_Date":"2020-12-27 12"},"coordinates":[8902,9877]},{"type":"Point","properties":{"Station_ID":"PA-BT-34","Station_Nam":"BUTLER 1.9 WSW, PA","Latitude":"40.85573","Longitude":"-79.93139","Snowdepth":"6.200","Units":"in","Rept_Date":"2020-12-27 12"},"coordinates":[5080,3543]},{"type":"Point","properties":{"Station_ID":"YNG","Station_Nam":"YOUNGSTOWN-WARREN REG AIRPRT","Latitude":"41.25890","Longitude":"-80.67610","Snowdepth":"6.000","Units":"in","Rept_Date":"2020-12-28 00"},"coordinates":[4861,3782]},{"type":"Point","properties":{"Station_ID":"WSWN6","Station_Nam":"WARSAW","Latitude":"42.74220","Longitude":"-78.20850","Snowdepth":"6.000","Units":"in","Rept_Date":"2020-12-27 12"},"coordinates":[5586,4663]},{"type":"Point","properties":{"Station_ID":"WRNK2","Station_Nam":"WARNOCK 2","Latitude":"38.49460","Longitude":"-83.01830","Snowdepth":"6.000","Units":"in","Rept_Date":"2020-12-27 11"},"coordinates":[4174,2141]},{"type":"Point","properties":{"Station_ID":"WI-PC-5","Station_Nam":"RIVER FALLS 1.2 SSW, WI","Latitude":"44.84032","Longitude":"-92.63500","Snowdepth":"6.000","Units":"in","Rept_Date":"2020-12-27 13"},"coordinates":[1351,5909]},{"type":"Point","properties":{"Station_ID":"WI-PC-10","Station_Nam":"RIVER FALLS 1.4 S, WI","Latitude":"44.83580","Longitude":"-92.62100","Snowdepth":"6.000","Units":"in","Rept_Date":"2020-12-27 13"},"coordinates":[1355,5906]},{"type":"Point","properties":{"Station_ID":"VADM5","Station_Nam":"VADNAIS LAKE","Latitude":"45.04820","Longitude":"-93.09590","Snowdepth":"6.000","Units":"in","Rept_Date":"2020-12-27 20"},"coordinates":[1216,6033]},{"type":"Point","properties":{"Station_ID":"SSMM4","Station_Nam":"SAULT STE MARIE","Latitude":"46.48660","Longitude":"-84.40250","Snowdepth":"6.000","Units":"in","Rept_Date":"2020-12-27 13"},"coordinates":[3768,6887]},{"type":"Point","properties":{"Station_ID":"SRAW3","Station_Nam":"SARONA","Latitude":"45.80250","Longitude":"-91.86700","Snowdepth":"6.000","Units":"in","Rept_Date":"2020-12-27 14"},"coordinates":[1577,6481]},{"type":"Point","properties":{"Station_ID":"SBNN6","Station_Nam":"SANBORN","Latitude":"43.17050","Longitude":"-78.81810","Snowdepth":"6.000","Units":"in","Rept_Date":"2020-12-27 12"},"coordinates":[5407,4917]},{"type":"Point","properties":{"Station_ID":"ROBW3","Station_Nam":"ROBERTS WWTP","Latitude":"44.97070","Longitude":"-92.56200","Snowdepth":"6.000","Units":"in","Rept_Date":"2020-12-27 14"},"coordinates":[1373,5987]},{"type":"Point","properties":{"Station_ID":"PHEW3","Station_Nam":"PHELPS","Latitude":"46.06630","Longitude":"-89.07520","Snowdepth":"6.000","Units":"in","Rept_Date":"2020-12-27 13"},"coordinates":[2396,6637]},{"type":"Point","properties":{"Station_ID":"PA-BF-20","Station_Nam":"SAYRE 0.7 S, PA","Latitude":"41.97510","Longitude":"-76.52100","Snowdepth":"6.000","Units":"in","Rept_Date":"2020-12-27 13"},"coordinates":[6081,4208]},{"type":"Point","properties":{"Station_ID":"PA-AL-1","Station_Nam":"BRIDGEVILLE 1.4 SW, PA","Latitude":"40.34174","Longitude":"-80.12290","Snowdepth":"6.000","Units":"in","Rept_Date":"2020-12-27 12"},"coordinates":[5024,3238]},{"type":"Point","properties":{"Station_ID":"OH-ER-5","Station_Nam":"WAKEMAN 4.6 NNE, OH","Latitude":"41.31902","Longitude":"-82.37730","Snowdepth":"6.000","Units":"in","Rept_Date":"2020-12-27 12"},"coordinates":[4362,3818]},{"type":"Point","properties":{"Station_ID":"OBEO1","Station_Nam":"OBERLIN,OH","Latitude":"41.26670","Longitude":"-82.21670","Snowdepth":"6.000","Units":"in","Rept_Date":"2020-12-27 13"},"coordinates":[4409,3787]},{"type":"Point","properties":{"Station_ID":"NY-TG-26","Station_Nam":"CANDOR 0.7 NW, NY","Latitude":"42.23428","Longitude":"-76.34758","Snowdepth":"6.000","Units":"in","Rept_Date":"2020-12-27 12"},"coordinates":[6132,4361]},{"type":"Point","properties":{"Station_ID":"NY-ES-11","Station_Nam":"VERMONTVILLE 2.8 S, NY","Latitude":"44.41205","Longitude":"-74.06760","Snowdepth":"6.000","Units":"in","Rept_Date":"2020-12-27 11"},"coordinates":[6801,5655]},{"type":"Point","properties":{"Station_ID":"NY-ER-98","Station_Nam":"AMHERST 5.4 NNE, NY","Latitude":"43.05207","Longitude":"-78.76430","Snowdepth":"6.000","Units":"in","Rept_Date":"2020-12-27 13"},"coordinates":[5423,4847]},{"type":"Point","properties":{"Station_ID":"NY-CT-2","Station_Nam":"RANDOLPH 1.1 ENE, NY","Latitude":"42.17056","Longitude":"-78.96120","Snowdepth":"6.000","Units":"in","Rept_Date":"2020-12-27 12"},"coordinates":[5365,4324]},{"type":"Point","properties":{"Station_ID":"NY-CQ-34","Station_Nam":"KENNEDY 2.6 SE, NY","Latitude":"42.12567","Longitude":"-79.07235","Snowdepth":"6.000","Units":"in","Rept_Date":"2020-12-27 13"},"coordinates":[5332,4297]},{"type":"Point","properties":{"Station_ID":"NC-MS-7","Station_Nam":"HOT SPRINGS 8.4 SSW, NC","Latitude":"35.78343","Longitude":"-82.89470","Snowdepth":"6.000","Units":"in","Rept_Date":"2020-12-27 14"},"coordinates":[4210,530]},{"type":"Point","properties":{"Station_ID":"NC-MS-5","Station_Nam":"MARSHALL 13.6 NNW, NC","Latitude":"35.98208","Longitude":"-82.76720","Snowdepth":"6.000","Units":"in","Rept_Date":"2020-12-27 13"},"coordinates":[4248,648]},{"type":"Point","properties":{"Station_ID":"MPXM5","Station_Nam":"CHANHASSEN WSFO","Latitude":"44.84960","Longitude":"-93.56440","Snowdepth":"6.000","Units":"in","Rept_Date":"2020-12-28 06"},"coordinates":[1078,5915]},{"type":"Point","properties":{"Station_ID":"MN-RM-120","Station_Nam":"MAPLEWOOD 5.6 SSE, MN","Latitude":"44.90588","Longitude":"-92.99712","Snowdepth":"6.000","Units":"in","Rept_Date":"2020-12-27 15"},"coordinates":[1245,5948]},{"type":"Point","properties":{"Station_ID":"MN-IT-7","Station_Nam":"GRAND RAPIDS 6.2 SSW, MN","Latitude":"47.13687","Longitude":"-93.56660","Snowdepth":"6.000","Units":"in","Rept_Date":"2020-12-27 12"},"coordinates":[1078,7273]},{"type":"Point","properties":{"Station_ID":"MN-IS-21","Station_Nam":"ISANTI 5.0 SW, MN","Latitude":"45.43360","Longitude":"-93.30200","Snowdepth":"6.000","Units":"in","Rept_Date":"2020-12-27 14"},"coordinates":[1155,6262]},{"type":"Point","properties":{"Station_ID":"MN-CW-22","Station_Nam":"FORT RIPLEY 0.8 N, MN","Latitude":"46.18089","Longitude":"-94.36510","Snowdepth":"6.000","Units":"in","Rept_Date":"2020-12-27 13"},"coordinates":[843,6705]},{"type":"Point","properties":{"Station_ID":"MN-CK-3","Station_Nam":"TOFTE 4.9 NE, MN","Latitude":"47.62394","Longitude":"-90.76100","Snowdepth":"6.000","Units":"in","Rept_Date":"2020-12-27 13"},"coordinates":[1901,7562]},{"type":"Point","properties":{"Station_ID":"LPLN6","Station_Nam":"LAKE PLACID 2 S","Latitude":"44.30420","Longitude":"-73.98390","Snowdepth":"6.000","Units":"in","Rept_Date":"2020-12-27 13"},"coordinates":[6826,5591]},{"type":"Point","properties":{"Station_ID":"LOWN6","Station_Nam":"LOWVILLE","Latitude":"43.79280","Longitude":"-75.48290","Snowdepth":"6.000","Units":"in","Rept_Date":"2020-12-27 12"},"coordinates":[6386,5287]},{"type":"Point","properties":{"Station_ID":"KCLE","Station_Nam":"CLEVELAND-HOPKINS INTERNATIONAL","Latitude":"41.40000","Longitude":"-81.85000","Snowdepth":"6.000","Units":"in","Rept_Date":"2020-12-27 12"},"coordinates":[4517,3866]},{"type":"Point","properties":{"Station_ID":"JSTN6","Station_Nam":"JAMESTOWN 4 ENE","Latitude":"42.11000","Longitude":"-79.15910","Snowdepth":"6.000","Units":"in","Rept_Date":"2020-12-27 12"},"coordinates":[5307,4288]},{"type":"Point","properties":{"Station_ID":"HPN11_MADIS","Station_Nam":"SAINT BONIFACIUS","Latitude":"44.89792","Longitude":"-93.73460","Snowdepth":"6.000","Units":"in","Rept_Date":"2020-12-28 06"},"coordinates":[1028,5943]},{"type":"Point","properties":{"Station_ID":"HPN08_MADIS","Station_Nam":"ORONO","Latitude":"44.93630","Longitude":"-93.62000","Snowdepth":"6.000","Units":"in","Rept_Date":"2020-12-28 06"},"coordinates":[1062,5966]},{"type":"Point","properties":{"Station_ID":"FORM5","Station_Nam":"FOREST LAKE 5NE","Latitude":"45.33170","Longitude":"-92.89820","Snowdepth":"6.000","Units":"in","Rept_Date":"2020-12-27 13"},"coordinates":[1274,6201]},{"type":"Point","properties":{"Station_ID":"EMBM5","Station_Nam":"EMBARASS,MN","Latitude":"47.65810","Longitude":"-92.19580","Snowdepth":"6.000","Units":"in","Rept_Date":"2020-12-27 12"},"coordinates":[1480,7583]},{"type":"Point","properties":{"Station_ID":"COVP1","Station_Nam":"COVINGTON 2WSW","Latitude":"41.73330","Longitude":"-77.11670","Snowdepth":"6.000","Units":"in","Rept_Date":"2020-12-27 12"},"coordinates":[5906,4064]},{"type":"Point","properties":{"Station_ID":"COUW3","Station_Nam":"COUDERAY,WI","Latitude":"45.86670","Longitude":"-91.45000","Snowdepth":"6.000","Units":"in","Rept_Date":"2020-12-27 22"},"coordinates":[1699,6519]},{"type":"Point","properties":{"Station_ID":"CLKM4","Station_Nam":"CLARKSBURG","Latitude":"46.49910","Longitude":"-87.84500","Snowdepth":"6.000","Units":"in","Rept_Date":"2020-12-27 12"},"coordinates":[2757,6894]},{"type":"Point","properties":{"Station_ID":"BUTW3","Station_Nam":"BUTTERNUT 3SW","Latitude":"45.98080","Longitude":"-90.54170","Snowdepth":"6.000","Units":"in","Rept_Date":"2020-12-27 12"},"coordinates":[1966,6586]},{"type":"Point","properties":{"Station_ID":"BKBW2","Station_Nam":"DAVIS.","Latitude":"39.09830","Longitude":"-79.43190","Snowdepth":"6.000","Units":"in","Rept_Date":"2020-12-27 12"},"coordinates":[5227,2499]},{"type":"Point","properties":{"Station_ID":"BCHN7","Station_Nam":"BEECH MOUNTAIN","Latitude":"36.18780","Longitude":"-81.87360","Snowdepth":"6.000","Units":"in","Rept_Date":"2020-12-27 12"},"coordinates":[4510,771]},{"type":"Point","properties":{"Station_ID":"AWXW3","Station_Nam":"ASHLAND","Latitude":"46.58240","Longitude":"-90.88390","Snowdepth":"6.000","Units":"in","Rept_Date":"2020-12-27 13"},"coordinates":[1865,6944]},{"type":"Point","properties":{"Station_ID":"ANJM4","Station_Nam":"SNOW PAID OBSERVER FOR KANJ","Latitude":"46.48670","Longitude":"-84.40260","Snowdepth":"6.000","Units":"in","Rept_Date":"2020-12-28 06"},"coordinates":[3768,6887]},{"type":"Point","properties":{"Station_ID":"CAN-ON-477","Station_Nam":"CALEDONIA 0.3 NW - GRCA, CAN","Latitude":"43.07135","Longitude":"-79.95667","Snowdepth":"5.900","Units":"in","Rept_Date":"2020-12-27 12"},"coordinates":[5073,4859]},{"type":"Point","properties":{"Station_ID":"CAN-ON-771","Station_Nam":"KENORA 8.7 NNE - CANWARN, CAN","Latitude":"49.84171","Longitude":"-94.44386","Snowdepth":"5.700","Units":"in","Rept_Date":"2020-12-27 13"},"coordinates":[820,8879]},{"type":"Point","properties":{"Station_ID":"WI-BY-1","Station_Nam":"BAYFIELD 8.8 N, WI","Latitude":"46.93855","Longitude":"-90.83490","Snowdepth":"5.500","Units":"in","Rept_Date":"2020-12-27 13"},"coordinates":[1880,7155]},{"type":"Point","properties":{"Station_ID":"WI-AS-4","Station_Nam":"ASHLAND 0.5 WNW, WI","Latitude":"46.58240","Longitude":"-90.88390","Snowdepth":"5.500","Units":"in","Rept_Date":"2020-12-27 13"},"coordinates":[1865,6944]},{"type":"Point","properties":{"Station_ID":"VT-WS-30","Station_Nam":"WOODBURY 3.4 NNW, VT","Latitude":"44.48825","Longitude":"-72.43258","Snowdepth":"5.500","Units":"in","Rept_Date":"2020-12-27 12"},"coordinates":[7281,5700]},{"type":"Point","properties":{"Station_ID":"PA-VN-7","Station_Nam":"COOPERSTOWN 1.3 E, PA","Latitude":"41.50067","Longitude":"-79.84970","Snowdepth":"5.500","Units":"in","Rept_Date":"2020-12-27 12"},"coordinates":[5104,3926]},{"type":"Point","properties":{"Station_ID":"PA-VN-22","Station_Nam":"FRANKLIN 1.4 SSW, PA","Latitude":"41.37283","Longitude":"-79.85013","Snowdepth":"5.500","Units":"in","Rept_Date":"2020-12-27 11"},"coordinates":[5104,3850]},{"type":"Point","properties":{"Station_ID":"PA-MR-12","Station_Nam":"HERMITAGE 2.2 SSW, PA","Latitude":"41.19941","Longitude":"-80.45645","Snowdepth":"5.500","Units":"in","Rept_Date":"2020-12-27 14"},"coordinates":[4926,3747]},{"type":"Point","properties":{"Station_ID":"PA-BT-15","Station_Nam":"FOX RUN 1.6 NNE, PA","Latitude":"40.72384","Longitude":"-80.07056","Snowdepth":"5.500","Units":"in","Rept_Date":"2020-12-27 11"},"coordinates":[5039,3464]},{"type":"Point","properties":{"Station_ID":"OH-MK-12","Station_Nam":"NORWICH 1.1 SE, OH","Latitude":"39.97526","Longitude":"-81.77666","Snowdepth":"5.500","Units":"in","Rept_Date":"2020-12-27 12"},"coordinates":[4538,3020]},{"type":"Point","properties":{"Station_ID":"OH-MD-2","Station_Nam":"BRUNSWICK 0.5 NE, OH","Latitude":"41.24980","Longitude":"-81.81330","Snowdepth":"5.500","Units":"in","Rept_Date":"2020-12-27 12"},"coordinates":[4528,3777]},{"type":"Point","properties":{"Station_ID":"OH-LR-25","Station_Nam":"NORTH RIDGEVILLE 2.5 NE, OH","Latitude":"41.41550","Longitude":"-81.98440","Snowdepth":"5.500","Units":"in","Rept_Date":"2020-12-27 12"},"coordinates":[4477,3875]},{"type":"Point","properties":{"Station_ID":"OH-CB-8","Station_Nam":"HANOVERTON 0.4 ENE, OH","Latitude":"40.75696","Longitude":"-80.92919","Snowdepth":"5.500","Units":"in","Rept_Date":"2020-12-27 09"},"coordinates":[4787,3484]},{"type":"Point","properties":{"Station_ID":"NY-FK-9","Station_Nam":"GABRIELS 1.3 SE, NY","Latitude":"44.41934","Longitude":"-74.16194","Snowdepth":"5.500","Units":"in","Rept_Date":"2020-12-27 12"},"coordinates":[6773,5659]},{"type":"Point","properties":{"Station_ID":"NY-ER-86","Station_Nam":"TONAWANDA 1.5 NNE, NY","Latitude":"43.00507","Longitude":"-78.86600","Snowdepth":"5.500","Units":"in","Rept_Date":"2020-12-27 14"},"coordinates":[5393,4819]},{"type":"Point","properties":{"Station_ID":"NY-ER-54","Station_Nam":"EAST AMHERST 1.2 WNW, NY","Latitude":"43.02250","Longitude":"-78.71900","Snowdepth":"5.500","Units":"in","Rept_Date":"2020-12-27 13"},"coordinates":[5436,4830]},{"type":"Point","properties":{"Station_ID":"MN-IT-23","Station_Nam":"BOVEY 13.4 N, MN","Latitude":"47.48855","Longitude":"-93.43497","Snowdepth":"5.500","Units":"in","Rept_Date":"2020-12-27 13"},"coordinates":[1116,7482]},{"type":"Point","properties":{"Station_ID":"MN-IT-19","Station_Nam":"COHASSET 7.6 NNW, MN","Latitude":"47.34204","Longitude":"-93.69765","Snowdepth":"5.500","Units":"in","Rept_Date":"2020-12-27 13"},"coordinates":[1039,7395]},{"type":"Point","properties":{"Station_ID":"MI-AG-6","Station_Nam":"MUNISING 11.1 SSW, MI","Latitude":"46.27805","Longitude":"-86.75747","Snowdepth":"5.500","Units":"in","Rept_Date":"2020-12-27 12"},"coordinates":[3076,6763]},{"type":"Point","properties":{"Station_ID":"IN-SJ-28","Station_Nam":"SOUTH BEND 4.6 SE, IN","Latitude":"41.62090","Longitude":"-86.21520","Snowdepth":"5.500","Units":"in","Rept_Date":"2020-12-27 12"},"coordinates":[3236,3997]},{"type":"Point","properties":{"Station_ID":"41.4155_081.9844","Station_Nam":"3 NE North Ridgeville  CoCoRaHS (OH-LR-25)","Latitude":"41.41550","Longitude":"-81.98440","Snowdepth":"5.500","Units":"in","Rept_Date":"2020-12-27 12"},"coordinates":[4477,3875]},{"type":"Point","properties":{"Station_ID":"HPN20_MADIS","Station_Nam":"HOPKINS","Latitude":"44.95556","Longitude":"-93.41140","Snowdepth":"5.300","Units":"in","Rept_Date":"2020-12-28 06"},"coordinates":[1123,5978]},{"type":"Point","properties":{"Station_ID":"CAN-ON-646","Station_Nam":"MISSISSAUGA 6.4 SSE - CANWARN, CAN","Latitude":"43.53417","Longitude":"-79.62089","Snowdepth":"5.300","Units":"in","Rept_Date":"2020-12-27 14"},"coordinates":[5171,5133]},{"type":"Point","properties":{"Station_ID":"WV-OH-6","Station_Nam":"VALLEY GROVE 3.5 NNE, WV","Latitude":"40.13800","Longitude":"-80.54350","Snowdepth":"5.200","Units":"in","Rept_Date":"2020-12-27 12"},"coordinates":[4900,3117]},{"type":"Point","properties":{"Station_ID":"NY-NG-30","Station_Nam":"LOCKPORT 2.5 ESE, NY","Latitude":"43.15207","Longitude":"-78.65338","Snowdepth":"5.200","Units":"in","Rept_Date":"2020-12-27 12"},"coordinates":[5455,4907]},{"type":"Point","properties":{"Station_ID":"HPN09_MADIS","Station_Nam":"PLYMOUTH","Latitude":"44.98992","Longitude":"-93.47910","Snowdepth":"5.200","Units":"in","Rept_Date":"2020-12-28 06"},"coordinates":[1103,5998]},{"type":"Point","properties":{"Station_ID":"QWE","Station_Nam":"QWE","Latitude":"47.84610","Longitude":"-73.80670","Snowdepth":"5.157","Units":"in","Rept_Date":"2020-12-27 12"},"coordinates":[6878,7694]},{"type":"Point","properties":{"Station_ID":"CAN-ON-187","Station_Nam":"WATERLOO 1.9 E - UOFW, CAN","Latitude":"43.47024","Longitude":"-80.50634","Snowdepth":"5.100","Units":"in","Rept_Date":"2020-12-27 13"},"coordinates":[4911,5095]},{"type":"Point","properties":{"Station_ID":"WYON6","Station_Nam":"WYOMING 3W","Latitude":"42.82020","Longitude":"-78.14780","Snowdepth":"5.000","Units":"in","Rept_Date":"2020-12-27 12"},"coordinates":[5604,4709]},{"type":"Point","properties":{"Station_ID":"WVYN6","Station_Nam":"WAVERLY","Latitude":"41.98470","Longitude":"-76.50140","Snowdepth":"5.000","Units":"in","Rept_Date":"2020-12-27 12"},"coordinates":[6087,4213]},{"type":"Point","properties":{"Station_ID":"WV-MG-16","Station_Nam":"MORGANTOWN 5.9 SW, WV","Latitude":"39.56615","Longitude":"-80.01490","Snowdepth":"5.000","Units":"in","Rept_Date":"2020-12-27 12"},"coordinates":[5055,2777]},{"type":"Point","properties":{"Station_ID":"WTNM4","Station_Nam":"WATTON 2WSW","Latitude":"46.52660","Longitude":"-88.64240","Snowdepth":"5.000","Units":"in","Rept_Date":"2020-12-27 13"},"coordinates":[2523,6911]},{"type":"Point","properties":{"Station_ID":"WRUM5","Station_Nam":"WARROAD 4W","Latitude":"48.89600","Longitude":"-95.40700","Snowdepth":"5.000","Units":"in","Rept_Date":"2020-12-28 04"},"coordinates":[538,8318]},{"type":"Point","properties":{"Station_ID":"WRSN6","Station_Nam":"WARSAW 6SW","Latitude":"42.68550","Longitude":"-78.22020","Snowdepth":"5.000","Units":"in","Rept_Date":"2020-12-27 12"},"coordinates":[5582,4629]},{"type":"Point","properties":{"Station_ID":"WLXP1","Station_Nam":"GLEN HAZEL,PA","Latitude":"41.56670","Longitude":"-78.60000","Snowdepth":"5.000","Units":"in","Rept_Date":"2020-12-27 12"},"coordinates":[5471,3965]},{"type":"Point","properties":{"Station_ID":"WI-PR-2","Station_Nam":"BUTTERNUT 5.9 SW, WI","Latitude":"45.96501","Longitude":"-90.59750","Snowdepth":"5.000","Units":"in","Rept_Date":"2020-12-27 12"},"coordinates":[1949,6577]},{"type":"Point","properties":{"Station_ID":"WI-PK-4","Station_Nam":"DRESSER 6.1 ESE, WI","Latitude":"45.32436","Longitude":"-92.52080","Snowdepth":"5.000","Units":"in","Rept_Date":"2020-12-27 14"},"coordinates":[1385,6197]},{"type":"Point","properties":{"Station_ID":"WI-BT-14","Station_Nam":"OAKLAND 9.0 ENE, WI","Latitude":"45.95184","Longitude":"-92.21653","Snowdepth":"5.000","Units":"in","Rept_Date":"2020-12-27 13"},"coordinates":[1474,6569]},{"type":"Point","properties":{"Station_ID":"WHBK2","Station_Nam":"WHITESBURG,KY","Latitude":"37.10280","Longitude":"-82.80470","Snowdepth":"5.000","Units":"in","Rept_Date":"2020-12-27 12"},"coordinates":[4237,1314]},{"type":"Point","properties":{"Station_ID":"VT-CL-27","Station_Nam":"DANVILLE 0.4 N, VT","Latitude":"44.41769","Longitude":"-72.13936","Snowdepth":"5.000","Units":"in","Rept_Date":"2020-12-27 13"},"coordinates":[7367,5658]},{"type":"Point","properties":{"Station_ID":"TSVP1","Station_Nam":"TITUSVILLE,PA","Latitude":"41.63330","Longitude":"-79.70000","Snowdepth":"5.000","Units":"in","Rept_Date":"2020-12-27 12"},"coordinates":[5148,4005]},{"type":"Point","properties":{"Station_ID":"TOPN6","Station_Nam":"TUPPER LAKE SUNMOUNT","Latitude":"44.23070","Longitude":"-74.43820","Snowdepth":"5.000","Units":"in","Rept_Date":"2020-12-27 12"},"coordinates":[6692,5547]},{"type":"Point","properties":{"Station_ID":"TIOP1","Station_Nam":"TIONESTA DAM","Latitude":"41.47530","Longitude":"-79.44190","Snowdepth":"5.000","Units":"in","Rept_Date":"2020-12-27 12"},"coordinates":[5224,3911]},{"type":"Point","properties":{"Station_ID":"SWEI4","Station_Nam":"SWEA CITY,IA","Latitude":"43.38530","Longitude":"-94.25000","Snowdepth":"5.000","Units":"in","Rept_Date":"2020-12-27 12"},"coordinates":[877,5045]},{"type":"Point","properties":{"Station_ID":"SUAW3","Station_Nam":"SUAMICO","Latitude":"44.60190","Longitude":"-88.09780","Snowdepth":"5.000","Units":"in","Rept_Date":"2020-12-27 12"},"coordinates":[2683,5768]},{"type":"Point","properties":{"Station_ID":"RCVW2","Station_Nam":"ROCK CAVE 2NE","Latitude":"38.85610","Longitude":"-80.30740","Snowdepth":"5.000","Units":"in","Rept_Date":"2020-12-27 13"},"coordinates":[4970,2355]},{"type":"Point","properties":{"Station_ID":"PENN6","Station_Nam":"PENDLETON 1 NE","Latitude":"43.10100","Longitude":"-78.71380","Snowdepth":"5.000","Units":"in","Rept_Date":"2020-12-27 13"},"coordinates":[5437,4876]},{"type":"Point","properties":{"Station_ID":"PDGM4","Station_Nam":"PAULDING","Latitude":"46.39760","Longitude":"-89.17940","Snowdepth":"5.000","Units":"in","Rept_Date":"2020-12-27 14"},"coordinates":[2366,6834]},{"type":"Point","properties":{"Station_ID":"PA-MR-5","Station_Nam":"WEST MIDDLESEX 2.1 S, PA","Latitude":"41.14334","Longitude":"-80.45519","Snowdepth":"5.000","Units":"in","Rept_Date":"2020-12-27 14"},"coordinates":[4926,3714]},{"type":"Point","properties":{"Station_ID":"OH-TS-1","Station_Nam":"DOVER 4.6 WNW, OH","Latitude":"40.55070","Longitude":"-81.56400","Snowdepth":"5.000","Units":"in","Rept_Date":"2020-12-27 12"},"coordinates":[4601,3362]},{"type":"Point","properties":{"Station_ID":"OH-MH-11","Station_Nam":"CANFIELD 0.5 N, OH","Latitude":"41.03644","Longitude":"-80.76585","Snowdepth":"5.000","Units":"in","Rept_Date":"2020-12-27 14"},"coordinates":[4835,3650]},{"type":"Point","properties":{"Station_ID":"OH-JF-11","Station_Nam":"WINTERSVILLE 0.7 WNW, OH","Latitude":"40.38430","Longitude":"-80.71760","Snowdepth":"5.000","Units":"in","Rept_Date":"2020-12-27 13"},"coordinates":[4849,3263]},{"type":"Point","properties":{"Station_ID":"OH-CY-14","Station_Nam":"CLEVELAND 7.0 SW, OH","Latitude":"41.45224","Longitude":"-81.81475","Snowdepth":"5.000","Units":"in","Rept_Date":"2020-12-28 03"},"coordinates":[4527,3897]},{"type":"Point","properties":{"Station_ID":"OH-CB-18","Station_Nam":"WELLSVILLE 4.3 N, OH","Latitude":"40.66436","Longitude":"-80.64236","Snowdepth":"5.000","Units":"in","Rept_Date":"2020-12-27 14"},"coordinates":[4871,3429]},{"type":"Point","properties":{"Station_ID":"NY-NG-12","Station_Nam":"LOCKPORT 0.8 NE, NY","Latitude":"43.17645","Longitude":"-78.68340","Snowdepth":"5.000","Units":"in","Rept_Date":"2020-12-27 12"},"coordinates":[5446,4921]},{"type":"Point","properties":{"Station_ID":"NY-FK-7","Station_Nam":"SARANAC LAKE 6.2 N, NY","Latitude":"44.41359","Longitude":"-74.15211","Snowdepth":"5.000","Units":"in","Rept_Date":"2020-12-27 11"},"coordinates":[6776,5656]},{"type":"Point","properties":{"Station_ID":"NY-BM-14","Station_Nam":"WHITNEY POINT 1.7 SSE, NY","Latitude":"42.30837","Longitude":"-75.95690","Snowdepth":"5.000","Units":"in","Rept_Date":"2020-12-27 12"},"coordinates":[6247,4405]},{"type":"Point","properties":{"Station_ID":"NWLO1","Station_Nam":"NEW LEXINGTON 2 NW","Latitude":"39.73320","Longitude":"-82.21560","Snowdepth":"5.000","Units":"in","Rept_Date":"2020-12-27 12"},"coordinates":[4410,2876]},{"type":"Point","properties":{"Station_ID":"NUMM5","Station_Nam":"NEW ULM 3SE","Latitude":"44.29450","Longitude":"-94.40840","Snowdepth":"5.000","Units":"in","Rept_Date":"2020-12-27 12"},"coordinates":[831,5585]},{"type":"Point","properties":{"Station_ID":"NTON6","Station_Nam":"NORTH TONAWANDA","Latitude":"43.05730","Longitude":"-78.86170","Snowdepth":"5.000","Units":"in","Rept_Date":"2020-12-27 12"},"coordinates":[5394,4850]},{"type":"Point","properties":{"Station_ID":"MRIT1","Station_Nam":"MORRISTOWN,TN","Latitude":"36.20500","Longitude":"-83.28500","Snowdepth":"5.000","Units":"in","Rept_Date":"2020-12-27 12"},"coordinates":[4096,781]},{"type":"Point","properties":{"Station_ID":"MOSO1","Station_Nam":"MOSQUITO CREEK DAM","Latitude":"41.28830","Longitude":"-80.76470","Snowdepth":"5.000","Units":"in","Rept_Date":"2020-12-27 12"},"coordinates":[4835,3800]},{"type":"Point","properties":{"Station_ID":"MN-WC-5","Station_Nam":"WASECA 0.9 NNE, MN","Latitude":"44.09451","Longitude":"-93.49289","Snowdepth":"5.000","Units":"in","Rept_Date":"2020-12-27 13"},"coordinates":[1099,5466]},{"type":"Point","properties":{"Station_ID":"MN-SE-2","Station_Nam":"OWATONNA 0.8 E, MN","Latitude":"44.09170","Longitude":"-93.21380","Snowdepth":"5.000","Units":"in","Rept_Date":"2020-12-27 13"},"coordinates":[1181,5465]},{"type":"Point","properties":{"Station_ID":"MN-SC-2","Station_Nam":"PRIOR LAKE 2.0 W, MN","Latitude":"44.71250","Longitude":"-93.46360","Snowdepth":"5.000","Units":"in","Rept_Date":"2020-12-27 13"},"coordinates":[1108,5833]},{"type":"Point","properties":{"Station_ID":"MN-RC-38","Station_Nam":"FARIBAULT 1.6 S, MN","Latitude":"44.27639","Longitude":"-93.27306","Snowdepth":"5.000","Units":"in","Rept_Date":"2020-12-27 13"},"coordinates":[1164,5574]},{"type":"Point","properties":{"Station_ID":"MN-IT-17","Station_Nam":"GRAND RAPIDS 6.1 N, MN","Latitude":"47.31165","Longitude":"-93.55036","Snowdepth":"5.000","Units":"in","Rept_Date":"2020-12-27 13"},"coordinates":[1083,7377]},{"type":"Point","properties":{"Station_ID":"MN-HN-267","Station_Nam":"MINNEAPOLIS 2.5 SE, MN","Latitude":"44.93331","Longitude":"-93.23680","Snowdepth":"5.000","Units":"in","Rept_Date":"2020-12-27 13"},"coordinates":[1175,5964]},{"type":"Point","properties":{"Station_ID":"MN-HN-19","Station_Nam":"EDINA 1.3 SW, MN","Latitude":"44.87830","Longitude":"-93.37890","Snowdepth":"5.000","Units":"in","Rept_Date":"2020-12-27 13"},"coordinates":[1133,5932]},{"type":"Point","properties":{"Station_ID":"MN-DK-73","Station_Nam":"LAKEVILLE 2.6 NNE, MN","Latitude":"44.71250","Longitude":"-93.23043","Snowdepth":"5.000","Units":"in","Rept_Date":"2020-12-27 13"},"coordinates":[1176,5833]},{"type":"Point","properties":{"Station_ID":"MN-DK-53","Station_Nam":"LAKEVILLE 3.8 ENE, MN","Latitude":"44.70423","Longitude":"-93.18460","Snowdepth":"5.000","Units":"in","Rept_Date":"2020-12-27 14"},"coordinates":[1190,5828]},{"type":"Point","properties":{"Station_ID":"MN-DK-104","Station_Nam":"HASTINGS 1.6 NW, MN","Latitude":"44.74458","Longitude":"-92.88035","Snowdepth":"5.000","Units":"in","Rept_Date":"2020-12-27 13"},"coordinates":[1279,5852]},{"type":"Point","properties":{"Station_ID":"MN-CW-44","Station_Nam":"CROSBY 1.1 SW, MN","Latitude":"46.47772","Longitude":"-93.97293","Snowdepth":"5.000","Units":"in","Rept_Date":"2020-12-27 13"},"coordinates":[959,6882]},{"type":"Point","properties":{"Station_ID":"MIEM4","Station_Nam":"MICHIGAMME 3WNW","Latitude":"46.54530","Longitude":"-88.18000","Snowdepth":"5.000","Units":"in","Rept_Date":"2020-12-27 13"},"coordinates":[2659,6922]},{"type":"Point","properties":{"Station_ID":"MI-OT-4","Station_Nam":"GAYLORD 1.7 WNW, MI","Latitude":"45.03280","Longitude":"-84.71090","Snowdepth":"5.000","Units":"in","Rept_Date":"2020-12-27 13"},"coordinates":[3677,6023]},{"type":"Point","properties":{"Station_ID":"MI-EM-8","Station_Nam":"PETOSKEY 1.7 SSW, MI","Latitude":"45.34209","Longitude":"-84.96530","Snowdepth":"5.000","Units":"in","Rept_Date":"2020-12-27 11"},"coordinates":[3602,6207]},{"type":"Point","properties":{"Station_ID":"MFD","Station_Nam":"LAHM MUNICIPAL AIRPORT","Latitude":"40.82140","Longitude":"-82.51640","Snowdepth":"5.000","Units":"in","Rept_Date":"2020-12-28 00"},"coordinates":[4321,3522]},{"type":"Point","properties":{"Station_ID":"MD-GR-4","Station_Nam":"MC HENRY 4.8 SSE, MD","Latitude":"39.48539","Longitude":"-79.31830","Snowdepth":"5.000","Units":"in","Rept_Date":"2020-12-27 13"},"coordinates":[5260,2729]},{"type":"Point","properties":{"Station_ID":"MCRW2","Station_Nam":"RUPERT 4N","Latitude":"38.01800","Longitude":"-80.68250","Snowdepth":"5.000","Units":"in","Rept_Date":"2020-12-27 12"},"coordinates":[4860,1857]},{"type":"Point","properties":{"Station_ID":"LTVN6","Station_Nam":"LITTLE VALLEY","Latitude":"42.24730","Longitude":"-78.81250","Snowdepth":"5.000","Units":"in","Rept_Date":"2020-12-27 12"},"coordinates":[5408,4369]},{"type":"Point","properties":{"Station_ID":"LNOW3","Station_Nam":"LAND O LAKES","Latitude":"46.19000","Longitude":"-89.45700","Snowdepth":"5.000","Units":"in","Rept_Date":"2020-12-27 13"},"coordinates":[2284,6711]},{"type":"Point","properties":{"Station_ID":"KYNG","Station_Nam":"YOUNGSTOWN-WARREN REG AIRPRT","Latitude":"41.25000","Longitude":"-80.66666","Snowdepth":"5.000","Units":"in","Rept_Date":"2020-12-28 06"},"coordinates":[4864,3777]},{"type":"Point","properties":{"Station_ID":"KANP1","Station_Nam":"KANE,PA","Latitude":"41.68330","Longitude":"-78.80000","Snowdepth":"5.000","Units":"in","Rept_Date":"2020-12-27 12"},"coordinates":[5412,4034]},{"type":"Point","properties":{"Station_ID":"JCBM4","Station_Nam":"JACOBSVILLE","Latitude":"47.00830","Longitude":"-88.43180","Snowdepth":"5.000","Units":"in","Rept_Date":"2020-12-27 12"},"coordinates":[2585,7197]},{"type":"Point","properties":{"Station_ID":"ISEM5","Station_Nam":"ISLE 12N","Latitude":"46.31970","Longitude":"-93.50140","Snowdepth":"5.000","Units":"in","Rept_Date":"2020-12-27 14"},"coordinates":[1097,6788]},{"type":"Point","properties":{"Station_ID":"ICYK2","Station_Nam":"BOONEVILLE 12SW","Latitude":"37.35780","Longitude":"-83.77060","Snowdepth":"5.000","Units":"in","Rept_Date":"2020-12-27 13"},"coordinates":[3953,1465]},{"type":"Point","properties":{"Station_ID":"HTLM4","Station_Nam":"SNOW PAID OBSERVER FOR KHTL","Latitude":"44.34470","Longitude":"-84.67730","Snowdepth":"5.000","Units":"in","Rept_Date":"2020-12-27 18"},"coordinates":[3687,5615]},{"type":"Point","properties":{"Station_ID":"HTL","Station_Nam":"ROSCOMMON COUNTY AIRPORT","Latitude":"44.35000","Longitude":"-84.66670","Snowdepth":"5.000","Units":"in","Rept_Date":"2020-12-28 00"},"coordinates":[3690,5618]},{"type":"Point","properties":{"Station_ID":"GLTP1","Station_Nam":"GALETON,PA","Latitude":"41.73330","Longitude":"-77.63330","Snowdepth":"5.000","Units":"in","Rept_Date":"2020-12-27 13"},"coordinates":[5755,4064]},{"type":"Point","properties":{"Station_ID":"GAYM4","Station_Nam":"GAYLORD","Latitude":"45.03320","Longitude":"-84.71130","Snowdepth":"5.000","Units":"in","Rept_Date":"2020-12-27 13"},"coordinates":[3677,6024]},{"type":"Point","properties":{"Station_ID":"DLHM5","Station_Nam":"DULUTH NWS","Latitude":"46.83680","Longitude":"-92.21080","Snowdepth":"5.000","Units":"in","Rept_Date":"2020-12-28 06"},"coordinates":[1476,7095]},{"type":"Point","properties":{"Station_ID":"DLH","Station_Nam":"DULUTH, MN","Latitude":"46.83690","Longitude":"-92.21030","Snowdepth":"5.000","Units":"in","Rept_Date":"2020-12-28 00"},"coordinates":[1476,7095]},{"type":"Point","properties":{"Station_ID":"CSLM5","Station_Nam":"CASS LAKE,MN","Latitude":"47.38470","Longitude":"-94.61470","Snowdepth":"5.000","Units":"in","Rept_Date":"2020-12-27 14"},"coordinates":[770,7420]},{"type":"Point","properties":{"Station_ID":"CORN6","Station_Nam":"CORNING","Latitude":"42.13410","Longitude":"-77.06910","Snowdepth":"5.000","Units":"in","Rept_Date":"2020-12-27 12"},"coordinates":[5920,4302]},{"type":"Point","properties":{"Station_ID":"CNTP1","Station_Nam":"CANTON","Latitude":"41.65160","Longitude":"-76.84630","Snowdepth":"5.000","Units":"in","Rept_Date":"2020-12-27 13"},"coordinates":[5986,4015]},{"type":"Point","properties":{"Station_ID":"CLWV2","Station_Nam":"CLINTWOOD,VA","Latitude":"37.15000","Longitude":"-82.46670","Snowdepth":"5.000","Units":"in","Rept_Date":"2020-12-27 12"},"coordinates":[4336,1342]},{"type":"Point","properties":{"Station_ID":"BRAM5","Station_Nam":"BRAINERD","Latitude":"46.34320","Longitude":"-94.20900","Snowdepth":"5.000","Units":"in","Rept_Date":"2020-12-27 13"},"coordinates":[889,6802]},{"type":"Point","properties":{"Station_ID":"BKLO1","Station_Nam":"BUCKEYE LAKE 1 N","Latitude":"39.95210","Longitude":"-82.48240","Snowdepth":"5.000","Units":"in","Rept_Date":"2020-12-27 12"},"coordinates":[4331,3006]},{"type":"Point","properties":{"Station_ID":"BERO1","Station_Nam":"BERLIN LAKE DAM","Latitude":"41.11690","Longitude":"-81.00940","Snowdepth":"5.000","Units":"in","Rept_Date":"2020-12-27 12"},"coordinates":[4764,3698]},{"type":"Point","properties":{"Station_ID":"ANJ","Station_Nam":"SAULT STE MARIE","Latitude":"46.46670","Longitude":"-84.36670","Snowdepth":"5.000","Units":"in","Rept_Date":"2020-12-28 00"},"coordinates":[3778,6875]},{"type":"Point","properties":{"Station_ID":"41.6333_079.7000","Station_Nam":"TITUSVILLE  CO-OP OBSERVER (TSVP1)","Latitude":"41.63330","Longitude":"-79.70000","Snowdepth":"5.000","Units":"in","Rept_Date":"2020-12-27 12"},"coordinates":[5148,4005]},{"type":"Point","properties":{"Station_ID":"41.1169_081.0094","Station_Nam":"Berlin Lake Dam  Co-Op Observer (BERO1)","Latitude":"41.11690","Longitude":"-81.00940","Snowdepth":"5.000","Units":"in","Rept_Date":"2020-12-27 12"},"coordinates":[4764,3698]},{"type":"Point","properties":{"Station_ID":"41.0364_080.7659","Station_Nam":"1 N Canfield  CoCoRaHS (OH-MH-11)","Latitude":"41.03640","Longitude":"-80.76590","Snowdepth":"5.000","Units":"in","Rept_Date":"2020-12-27 14"},"coordinates":[4835,3650]},{"type":"Point","properties":{"Station_ID":"40.9055_081.0990","Station_Nam":"1 ESE Alliance  Trained Spotter (CLE3238)","Latitude":"40.90545","Longitude":"-81.09899","Snowdepth":"5.000","Units":"in","Rept_Date":"2020-12-27 13"},"coordinates":[4737,3572]},{"type":"Point","properties":{"Station_ID":"PA-CR-1","Station_Nam":"EMPORIUM 2.6 S, PA","Latitude":"41.47342","Longitude":"-78.24330","Snowdepth":"4.700","Units":"in","Rept_Date":"2020-12-27 13"},"coordinates":[5575,3910]},{"type":"Point","properties":{"Station_ID":"HPN19_MADIS","Station_Nam":"GREENFIELD","Latitude":"45.20343","Longitude":"-93.69130","Snowdepth":"4.700","Units":"in","Rept_Date":"2020-12-28 06"},"coordinates":[1041,6125]},{"type":"Point","properties":{"Station_ID":"CAN-ON-232","Station_Nam":"MILFORD 0.1 NNE - QUINTE CONSERVATION, CAN","Latitude":"43.93499","Longitude":"-77.09098","Snowdepth":"4.700","Units":"in","Rept_Date":"2020-12-27 12"},"coordinates":[5914,5372]},{"type":"Point","properties":{"Station_ID":"WI-VL-9","Station_Nam":"LAND O' LAKES 11.7 W, WI","Latitude":"46.19023","Longitude":"-89.45790","Snowdepth":"4.500","Units":"in","Rept_Date":"2020-12-27 13"},"coordinates":[2284,6711]},{"type":"Point","properties":{"Station_ID":"VT-WS-19","Station_Nam":"WATERBURY 3.0 NW, VT","Latitude":"44.36060","Longitude":"-72.80770","Snowdepth":"4.500","Units":"in","Rept_Date":"2020-12-27 11"},"coordinates":[7171,5624]},{"type":"Point","properties":{"Station_ID":"VA-SC-1","Station_Nam":"GATE CITY 6.2 NNE, VA","Latitude":"36.72167","Longitude":"-82.53670","Snowdepth":"4.500","Units":"in","Rept_Date":"2020-12-27 13"},"coordinates":[4315,1088]},{"type":"Point","properties":{"Station_ID":"VA-CR-3","Station_Nam":"GALAX 6.1 N, VA","Latitude":"36.75351","Longitude":"-80.92060","Snowdepth":"4.500","Units":"in","Rept_Date":"2020-12-27 12"},"coordinates":[4790,1107]},{"type":"Point","properties":{"Station_ID":"PA-BV-11","Station_Nam":"NEW BRIGHTON 3.0 NE, PA","Latitude":"40.76937","Longitude":"-80.27285","Snowdepth":"4.500","Units":"in","Rept_Date":"2020-12-27 13"},"coordinates":[4980,3491]},{"type":"Point","properties":{"Station_ID":"OH-MW-4","Station_Nam":"MOUNT GILEAD 4.9 ESE, OH","Latitude":"40.51426","Longitude":"-82.75561","Snowdepth":"4.500","Units":"in","Rept_Date":"2020-12-27 12"},"coordinates":[4251,3340]},{"type":"Point","properties":{"Station_ID":"OH-LR-8","Station_Nam":"ELYRIA 0.4 SE, OH","Latitude":"41.37628","Longitude":"-82.09920","Snowdepth":"4.500","Units":"in","Rept_Date":"2020-12-27 13"},"coordinates":[4444,3852]},{"type":"Point","properties":{"Station_ID":"OH-LC-26","Station_Nam":"KIRKERSVILLE 3.3 N, OH","Latitude":"39.99803","Longitude":"-82.59864","Snowdepth":"4.500","Units":"in","Rept_Date":"2020-12-27 13"},"coordinates":[4297,3033]},{"type":"Point","properties":{"Station_ID":"OH-LC-1","Station_Nam":"ALEXANDRIA 2.1 NNW, OH","Latitude":"40.11817","Longitude":"-82.62647","Snowdepth":"4.500","Units":"in","Rept_Date":"2020-12-27 12"},"coordinates":[4289,3105]},{"type":"Point","properties":{"Station_ID":"OH-FR-8","Station_Nam":"NEW ALBANY 2.8 SSE, OH","Latitude":"40.04029","Longitude":"-82.79800","Snowdepth":"4.500","Units":"in","Rept_Date":"2020-12-27 12"},"coordinates":[4239,3058]},{"type":"Point","properties":{"Station_ID":"NY-WY-10","Station_Nam":"WYOMING COOP, NY","Latitude":"42.82060","Longitude":"-78.14810","Snowdepth":"4.500","Units":"in","Rept_Date":"2020-12-27 12"},"coordinates":[5603,4710]},{"type":"Point","properties":{"Station_ID":"NY-NG-2","Station_Nam":"NORTH TONAWANDA 1.0 NNE, NY","Latitude":"43.05725","Longitude":"-78.86170","Snowdepth":"4.500","Units":"in","Rept_Date":"2020-12-27 12"},"coordinates":[5394,4850]},{"type":"Point","properties":{"Station_ID":"ND-CS-25","Station_Nam":"FARGO 2.1 N, ND","Latitude":"46.90816","Longitude":"-96.77937","Snowdepth":"4.500","Units":"in","Rept_Date":"2020-12-27 14"},"coordinates":[135,7137]},{"type":"Point","properties":{"Station_ID":"NC-WT-48","Station_Nam":"SEVEN DEVILS 0.1 E, NC","Latitude":"36.14965","Longitude":"-81.81214","Snowdepth":"4.500","Units":"in","Rept_Date":"2020-12-27 13"},"coordinates":[4528,748]},{"type":"Point","properties":{"Station_ID":"NC-MS-19","Station_Nam":"MARSHALL 15.1 NNE, NC","Latitude":"36.00835","Longitude":"-82.61821","Snowdepth":"4.500","Units":"in","Rept_Date":"2020-12-27 12"},"coordinates":[4291,664]},{"type":"Point","properties":{"Station_ID":"MN-RM-121","Station_Nam":"ROSEVILLE 0.4 ENE, MN","Latitude":"45.01701","Longitude":"-93.14711","Snowdepth":"4.500","Units":"in","Rept_Date":"2020-12-27 17"},"coordinates":[1201,6014]},{"type":"Point","properties":{"Station_ID":"MN-HN-272","Station_Nam":"RICHFIELD 1.1 WSW, MN","Latitude":"44.87052","Longitude":"-93.30394","Snowdepth":"4.500","Units":"in","Rept_Date":"2020-12-27 13"},"coordinates":[1155,5927]},{"type":"Point","properties":{"Station_ID":"MN-DK-63","Station_Nam":"NORTHFIELD 2.4 NE, MN","Latitude":"44.48347","Longitude":"-93.12837","Snowdepth":"4.500","Units":"in","Rept_Date":"2020-12-27 13"},"coordinates":[1206,5697]},{"type":"Point","properties":{"Station_ID":"MN-CW-54","Station_Nam":"AITKIN 9.6 W, MN","Latitude":"46.53711","Longitude":"-93.90688","Snowdepth":"4.500","Units":"in","Rept_Date":"2020-12-27 14"},"coordinates":[978,6917]},{"type":"Point","properties":{"Station_ID":"MN-BK-6","Station_Nam":"LAKE PARK 6.0 S, MN","Latitude":"46.79850","Longitude":"-96.12180","Snowdepth":"4.500","Units":"in","Rept_Date":"2020-12-27 13"},"coordinates":[328,7072]},{"type":"Point","properties":{"Station_ID":"MN-AT-5","Station_Nam":"TAMARACK 1.4 SW, MN","Latitude":"46.63760","Longitude":"-93.14554","Snowdepth":"4.500","Units":"in","Rept_Date":"2020-12-27 13"},"coordinates":[1201,6977]},{"type":"Point","properties":{"Station_ID":"MI-BN-2","Station_Nam":"STEVENSVILLE 1.7 SSE, MI","Latitude":"41.99114","Longitude":"-86.50860","Snowdepth":"4.500","Units":"in","Rept_Date":"2020-12-27 12"},"coordinates":[3149,4217]},{"type":"Point","properties":{"Station_ID":"MI-AT-6","Station_Nam":"MANCELONA 0.5 ESE, MI","Latitude":"44.89981","Longitude":"-85.05100","Snowdepth":"4.500","Units":"in","Rept_Date":"2020-12-27 13"},"coordinates":[3577,5944]},{"type":"Point","properties":{"Station_ID":"41.3763_082.0992","Station_Nam":"Elyria  Trained Spotter (CLE1010)","Latitude":"41.37628","Longitude":"-82.09918","Snowdepth":"4.500","Units":"in","Rept_Date":"2020-12-27 13"},"coordinates":[4444,3852]},{"type":"Point","properties":{"Station_ID":"40.5143_082.7556","Station_Nam":"5 ESE Mount Gilead  CoCoRaHS (OH-MW-4)","Latitude":"40.51430","Longitude":"-82.75560","Snowdepth":"4.500","Units":"in","Rept_Date":"2020-12-27 11"},"coordinates":[4251,3340]},{"type":"Point","properties":{"Station_ID":"PA-AL-3","Station_Nam":"SOUTH FAYETTE 2 SE, PA","Latitude":"40.33810","Longitude":"-80.11590","Snowdepth":"4.100","Units":"in","Rept_Date":"2020-12-27 12"},"coordinates":[5026,3235]},{"type":"Point","properties":{"Station_ID":"YALM4","Station_Nam":"YALE,MI","Latitude":"43.15000","Longitude":"-82.80000","Snowdepth":"4.000","Units":"in","Rept_Date":"2020-12-27 12"},"coordinates":[4238,4905]},{"type":"Point","properties":{"Station_ID":"WV-WD-18","Station_Nam":"WALKER 2.1 SW, WV","Latitude":"39.15838","Longitude":"-81.41237","Snowdepth":"4.000","Units":"in","Rept_Date":"2020-12-27 12"},"coordinates":[4645,2535]},{"type":"Point","properties":{"Station_ID":"WV-PR-11","Station_Nam":"THOMAS 7.4 N, WV","Latitude":"39.25361","Longitude":"-79.51055","Snowdepth":"4.000","Units":"in","Rept_Date":"2020-12-27 12"},"coordinates":[5204,2591]},{"type":"Point","properties":{"Station_ID":"WV-NC-4","Station_Nam":"CRAIGSVILLE 0.6 NE, WV","Latitude":"38.33698","Longitude":"-80.64520","Snowdepth":"4.000","Units":"in","Rept_Date":"2020-12-27 12"},"coordinates":[4870,2047]},{"type":"Point","properties":{"Station_ID":"WV-DD-1","Station_Nam":"CENTER POINT 2.2 NNW, WV","Latitude":"39.41954","Longitude":"-80.65610","Snowdepth":"4.000","Units":"in","Rept_Date":"2020-12-27 12"},"coordinates":[4867,2690]},{"type":"Point","properties":{"Station_ID":"WTRM4","Station_Nam":"WATERSMEET 12WSW","Latitude":"46.22310","Longitude":"-89.40850","Snowdepth":"4.000","Units":"in","Rept_Date":"2020-12-27 13"},"coordinates":[2298,6730]},{"type":"Point","properties":{"Station_ID":"WRTS2","Station_Nam":"WATERTOWN,SD","Latitude":"44.90280","Longitude":"-97.11360","Snowdepth":"4.000","Units":"in","Rept_Date":"2020-12-27 15"},"coordinates":[37,5946]},{"type":"Point","properties":{"Station_ID":"WORV1","Station_Nam":"WORCESTER 2 W","Latitude":"44.37470","Longitude":"-72.58220","Snowdepth":"4.000","Units":"in","Rept_Date":"2020-12-27 12"},"coordinates":[7237,5633]},{"type":"Point","properties":{"Station_ID":"WI-PR-6","Station_Nam":"PHILLIPS 1.3 S, WI","Latitude":"45.67677","Longitude":"-90.39543","Snowdepth":"4.000","Units":"in","Rept_Date":"2020-12-27 12"},"coordinates":[2009,6406]},{"type":"Point","properties":{"Station_ID":"WI-PK-33","Station_Nam":"FREDERIC 4.8 NE, WI","Latitude":"45.70970","Longitude":"-92.39950","Snowdepth":"4.000","Units":"in","Rept_Date":"2020-12-27 13"},"coordinates":[1420,6425]},{"type":"Point","properties":{"Station_ID":"WI-BR-17","Station_Nam":"CLAYTON 2.9 ENE, WI","Latitude":"45.34073","Longitude":"-92.11158","Snowdepth":"4.000","Units":"in","Rept_Date":"2020-12-27 13"},"coordinates":[1505,6206]},{"type":"Point","properties":{"Station_ID":"WDOM5","Station_Nam":"WINDOM","Latitude":"43.87700","Longitude":"-95.11590","Snowdepth":"4.000","Units":"in","Rept_Date":"2020-12-27 14"},"coordinates":[623,5337]},{"type":"Point","properties":{"Station_ID":"VT-WS-7","Station_Nam":"MIDDLESEX 3.1 ENE, VT","Latitude":"44.31799","Longitude":"-72.62650","Snowdepth":"4.000","Units":"in","Rept_Date":"2020-12-27 14"},"coordinates":[7224,5599]},{"type":"Point","properties":{"Station_ID":"VA-LE-2","Station_Nam":"JONESVILLE 2E, VA","Latitude":"36.69960","Longitude":"-83.05690","Snowdepth":"4.000","Units":"in","Rept_Date":"2020-12-27 12"},"coordinates":[4163,1075]},{"type":"Point","properties":{"Station_ID":"VA-CR-8","Station_Nam":"HILLSVILLE 3.7 W, VA","Latitude":"36.77356","Longitude":"-80.80220","Snowdepth":"4.000","Units":"in","Rept_Date":"2020-12-27 11"},"coordinates":[4824,1118]},{"type":"Point","properties":{"Station_ID":"TZET1","Station_Nam":"SEWAGE PLANT","Latitude":"36.46500","Longitude":"-83.56030","Snowdepth":"4.000","Units":"in","Rept_Date":"2020-12-27 13"},"coordinates":[4015,935]},{"type":"Point","properties":{"Station_ID":"TNST1","Station_Nam":"TOWNSEND 5S","Latitude":"35.60310","Longitude":"-83.77810","Snowdepth":"4.000","Units":"in","Rept_Date":"2020-12-27 13"},"coordinates":[3951,423]},{"type":"Point","properties":{"Station_ID":"STVP1","Station_Nam":"GEO B STEVENSON LAKE","Latitude":"41.40000","Longitude":"-78.01670","Snowdepth":"4.000","Units":"in","Rept_Date":"2020-12-27 12"},"coordinates":[5642,3866]},{"type":"Point","properties":{"Station_ID":"SPRI4","Station_Nam":"SPIRIT LAKE","Latitude":"43.42310","Longitude":"-95.10000","Snowdepth":"4.000","Units":"in","Rept_Date":"2020-12-27 13"},"coordinates":[628,5067]},{"type":"Point","properties":{"Station_ID":"SCOM4","Station_Nam":"SCOTTVILLE 2 SE","Latitude":"43.93310","Longitude":"-86.24530","Snowdepth":"4.000","Units":"in","Rept_Date":"2020-12-27 12"},"coordinates":[3227,5370]},{"type":"Point","properties":{"Station_ID":"SBN","Station_Nam":"SOUTH BEND REGIONAL AIRPORT","Latitude":"41.70890","Longitude":"-86.31830","Snowdepth":"4.000","Units":"in","Rept_Date":"2020-12-28 00"},"coordinates":[3205,4049]},{"type":"Point","properties":{"Station_ID":"SACO1","Station_Nam":"SALEM CENTER 2 E","Latitude":"39.07010","Longitude":"-82.29090","Snowdepth":"4.000","Units":"in","Rept_Date":"2020-12-27 12"},"coordinates":[4387,2482]},{"type":"Point","properties":{"Station_ID":"RNBW3","Station_Nam":"WFO GREEN BAY","Latitude":"44.49780","Longitude":"-88.11080","Snowdepth":"4.000","Units":"in","Rept_Date":"2020-12-28 06"},"coordinates":[2679,5706]},{"type":"Point","properties":{"Station_ID":"PNYP1","Station_Nam":"MAHONING LAKE","Latitude":"40.92500","Longitude":"-79.28250","Snowdepth":"4.000","Units":"in","Rept_Date":"2020-12-27 13"},"coordinates":[5270,3584]},{"type":"Point","properties":{"Station_ID":"PLBP1","Station_Nam":"PHILIPSBURG,PA","Latitude":"40.87220","Longitude":"-78.21530","Snowdepth":"4.000","Units":"in","Rept_Date":"2020-12-27 12"},"coordinates":[5584,3553]},{"type":"Point","properties":{"Station_ID":"PERV1","Station_Nam":"PERU","Latitude":"43.26670","Longitude":"-72.90000","Snowdepth":"4.000","Units":"in","Rept_Date":"2020-12-27 12"},"coordinates":[7144,4975]},{"type":"Point","properties":{"Station_ID":"PBZP1","Station_Nam":"MOON TOWNSHIP","Latitude":"40.53190","Longitude":"-80.21720","Snowdepth":"4.000","Units":"in","Rept_Date":"2020-12-27 12"},"coordinates":[4996,3350]},{"type":"Point","properties":{"Station_ID":"PBAN8","Station_Nam":"SITE 1-3MI.N","Latitude":"48.97420","Longitude":"-97.23860","Snowdepth":"4.000","Units":"in","Rept_Date":"2020-12-27 14"},"coordinates":[0,8364]},{"type":"Point","properties":{"Station_ID":"PA-PT-2","Station_Nam":"ROULETTE 1.8 NNE, PA","Latitude":"41.80759","Longitude":"-78.14140","Snowdepth":"4.000","Units":"in","Rept_Date":"2020-12-27 12"},"coordinates":[5605,4108]},{"type":"Point","properties":{"Station_ID":"PA-FR-2","Station_Nam":"MARIENVILLE 5.3 W, PA","Latitude":"41.45710","Longitude":"-79.18150","Snowdepth":"4.000","Units":"in","Rept_Date":"2020-12-27 11"},"coordinates":[5300,3900]},{"type":"Point","properties":{"Station_ID":"PA-EL-1","Station_Nam":"ST. MARYS 1.7 SE, PA","Latitude":"41.41069","Longitude":"-78.53480","Snowdepth":"4.000","Units":"in","Rept_Date":"2020-12-27 11"},"coordinates":[5490,3872]},{"type":"Point","properties":{"Station_ID":"PA-BV-18","Station_Nam":"BEAVER 5.5 W, PA","Latitude":"40.70502","Longitude":"-80.41213","Snowdepth":"4.000","Units":"in","Rept_Date":"2020-12-27 12"},"coordinates":[4939,3453]},{"type":"Point","properties":{"Station_ID":"PA-BT-24","Station_Nam":"CABOT 0.3 N, PA","Latitude":"40.76870","Longitude":"-79.76690","Snowdepth":"4.000","Units":"in","Rept_Date":"2020-12-27 12"},"coordinates":[5128,3491]},{"type":"Point","properties":{"Station_ID":"OH-VN-3","Station_Nam":"ALBANY 4.5 WNW, OH","Latitude":"39.25121","Longitude":"-82.27471","Snowdepth":"4.000","Units":"in","Rept_Date":"2020-12-27 12"},"coordinates":[4392,2590]},{"type":"Point","properties":{"Station_ID":"OH-SM-5","Station_Nam":"CUYAHOGA FALLS 1.1 ESE, OH","Latitude":"41.16228","Longitude":"-81.50370","Snowdepth":"4.000","Units":"in","Rept_Date":"2020-12-27 12"},"coordinates":[4619,3725]},{"type":"Point","properties":{"Station_ID":"OH-LS-23","Station_Nam":"SWANTON 6.7 NNE, OH","Latitude":"41.67098","Longitude":"-83.83534","Snowdepth":"4.000","Units":"in","Rept_Date":"2020-12-27 12"},"coordinates":[3934,4027]},{"type":"Point","properties":{"Station_ID":"OH-JF-9","Station_Nam":"MOUNT PLEASANT 1.4 WSW, OH","Latitude":"40.16496","Longitude":"-80.82290","Snowdepth":"4.000","Units":"in","Rept_Date":"2020-12-27 13"},"coordinates":[4818,3133]},{"type":"Point","properties":{"Station_ID":"NY-TG-5","Station_Nam":"BERKSHIRE 2.0 N, NY","Latitude":"42.33463","Longitude":"-76.18990","Snowdepth":"4.000","Units":"in","Rept_Date":"2020-12-27 13"},"coordinates":[6178,4421]},{"type":"Point","properties":{"Station_ID":"NY-TG-15","Station_Nam":"BERKSHIRE 1.9 ENE, NY","Latitude":"42.31910","Longitude":"-76.21940","Snowdepth":"4.000","Units":"in","Rept_Date":"2020-12-27 13"},"coordinates":[6170,4412]},{"type":"Point","properties":{"Station_ID":"NY-OD-2","Station_Nam":"POINT ROCK 0.6 SE, NY","Latitude":"43.37335","Longitude":"-75.53840","Snowdepth":"4.000","Units":"in","Rept_Date":"2020-12-27 13"},"coordinates":[6369,5038]},{"type":"Point","properties":{"Station_ID":"NY-NG-22","Station_Nam":"NIAGARA FALLS 5.7 E, NY","Latitude":"43.08297","Longitude":"-78.90460","Snowdepth":"4.000","Units":"in","Rept_Date":"2020-12-27 14"},"coordinates":[5381,4866]},{"type":"Point","properties":{"Station_ID":"NY-MR-57","Station_Nam":"CHURCHVILLE 3.5 N, NY","Latitude":"43.15209","Longitude":"-77.87846","Snowdepth":"4.000","Units":"in","Rept_Date":"2020-12-27 12"},"coordinates":[5683,4907]},{"type":"Point","properties":{"Station_ID":"NY-CQ-35","Station_Nam":"FALCONER 0.3 WSW, NY","Latitude":"42.11766","Longitude":"-79.20278","Snowdepth":"4.000","Units":"in","Rept_Date":"2020-12-27 12"},"coordinates":[5294,4292]},{"type":"Point","properties":{"Station_ID":"NORV2","Station_Nam":"NORA 4 SSE","Latitude":"37.01560","Longitude":"-82.32140","Snowdepth":"4.000","Units":"in","Rept_Date":"2020-12-27 12"},"coordinates":[4378,1262]},{"type":"Point","properties":{"Station_ID":"NH-MR-4","Station_Nam":"BOW 1.6 NW, NH","Latitude":"43.14994","Longitude":"-71.55650","Snowdepth":"4.000","Units":"in","Rept_Date":"2020-12-27 12"},"coordinates":[7538,4905]},{"type":"Point","properties":{"Station_ID":"NEWO1","Station_Nam":"NEWPORT","Latitude":"39.39330","Longitude":"-81.21930","Snowdepth":"4.000","Units":"in","Rept_Date":"2020-12-27 13"},"coordinates":[4702,2674]},{"type":"Point","properties":{"Station_ID":"NC-ML-15","Station_Nam":"BULADEAN 1.3 ESE, NC","Latitude":"36.10222","Longitude":"-82.17261","Snowdepth":"4.000","Units":"in","Rept_Date":"2020-12-27 14"},"coordinates":[4422,720]},{"type":"Point","properties":{"Station_ID":"NC-ML-1","Station_Nam":"BAKERSVILLE 5.4 N, NC","Latitude":"36.09200","Longitude":"-82.17500","Snowdepth":"4.000","Units":"in","Rept_Date":"2020-12-27 12"},"coordinates":[4421,714]},{"type":"Point","properties":{"Station_ID":"NC-BC-66","Station_Nam":"WEAVERVILLE 5.6 E, NC","Latitude":"35.70770","Longitude":"-82.45920","Snowdepth":"4.000","Units":"in","Rept_Date":"2020-12-27 12"},"coordinates":[4338,485]},{"type":"Point","properties":{"Station_ID":"NC-AV-1","Station_Nam":"FLAT SPRINGS 1.2 E, NC","Latitude":"36.25250","Longitude":"-81.91330","Snowdepth":"4.000","Units":"in","Rept_Date":"2020-12-27 12"},"coordinates":[4498,809]},{"type":"Point","properties":{"Station_ID":"NALN6","Station_Nam":"CATTARAUGUS","Latitude":"42.32450","Longitude":"-78.86700","Snowdepth":"4.000","Units":"in","Rept_Date":"2020-12-27 13"},"coordinates":[5392,4415]},{"type":"Point","properties":{"Station_ID":"MNBW2","Station_Nam":"MT. NEBO 1S","Latitude":"38.18790","Longitude":"-80.84840","Snowdepth":"4.000","Units":"in","Rept_Date":"2020-12-27 12"},"coordinates":[4811,1958]},{"type":"Point","properties":{"Station_ID":"MN-WG-74","Station_Nam":"OAKDALE 0.4 S, MN","Latitude":"44.98208","Longitude":"-92.96510","Snowdepth":"4.000","Units":"in","Rept_Date":"2020-12-27 13"},"coordinates":[1254,5993]},{"type":"Point","properties":{"Station_ID":"MN-WC-8","Station_Nam":"WASECA 2.0 N, MN","Latitude":"44.11194","Longitude":"-93.49972","Snowdepth":"4.000","Units":"in","Rept_Date":"2020-12-27 13"},"coordinates":[1097,5477]},{"type":"Point","properties":{"Station_ID":"MN-SH-10","Station_Nam":"BIG LAKE 5.6 NNE, MN","Latitude":"45.41409","Longitude":"-93.69190","Snowdepth":"4.000","Units":"in","Rept_Date":"2020-12-27 13"},"coordinates":[1041,6250]},{"type":"Point","properties":{"Station_ID":"MN-RM-56","Station_Nam":"ROSEVILLE 1.6 NW, MN","Latitude":"45.03303","Longitude":"-93.17523","Snowdepth":"4.000","Units":"in","Rept_Date":"2020-12-27 13"},"coordinates":[1193,6024]},{"type":"Point","properties":{"Station_ID":"MN-RM-2","Station_Nam":"NORTH SAINT PAUL 1.0 NNW, MN","Latitude":"45.02629","Longitude":"-93.00790","Snowdepth":"4.000","Units":"in","Rept_Date":"2020-12-27 12"},"coordinates":[1242,6020]},{"type":"Point","properties":{"Station_ID":"MN-RM-15","Station_Nam":"ROSEVILLE 2.1 NW, MN","Latitude":"45.03502","Longitude":"-93.18620","Snowdepth":"4.000","Units":"in","Rept_Date":"2020-12-27 12"},"coordinates":[1189,6025]},{"type":"Point","properties":{"Station_ID":"MN-MR-13","Station_Nam":"LITTLE FALLS 8.0 NE, MN","Latitude":"46.06785","Longitude":"-94.24789","Snowdepth":"4.000","Units":"in","Rept_Date":"2020-12-27 13"},"coordinates":[878,6638]},{"type":"Point","properties":{"Station_ID":"MN-HN-78","Station_Nam":"RICHFIELD 1.9 WNW, MN","Latitude":"44.89129","Longitude":"-93.31410","Snowdepth":"4.000","Units":"in","Rept_Date":"2020-12-27 11"},"coordinates":[1152,5939]},{"type":"Point","properties":{"Station_ID":"MN-HN-110","Station_Nam":"EDINA 1.9 SSE, MN","Latitude":"44.86875","Longitude":"-93.33940","Snowdepth":"4.000","Units":"in","Rept_Date":"2020-12-27 13"},"coordinates":[1144,5926]},{"type":"Point","properties":{"Station_ID":"MN-DK-70","Station_Nam":"EAGAN 2.0 NNW, MN","Latitude":"44.84322","Longitude":"-93.17899","Snowdepth":"4.000","Units":"in","Rept_Date":"2020-12-27 13"},"coordinates":[1192,5911]},{"type":"Point","properties":{"Station_ID":"MN-CV-8","Station_Nam":"WATERTOWN 0.5 NNW, MN","Latitude":"44.96631","Longitude":"-93.84890","Snowdepth":"4.000","Units":"in","Rept_Date":"2020-12-27 11"},"coordinates":[995,5984]},{"type":"Point","properties":{"Station_ID":"MN-BW-8","Station_Nam":"COMFREY 6.5 ENE, MN","Latitude":"44.15109","Longitude":"-94.78516","Snowdepth":"4.000","Units":"in","Rept_Date":"2020-12-27 13"},"coordinates":[720,5500]},{"type":"Point","properties":{"Station_ID":"MN-BM-14","Station_Nam":"SOLWAY 2.1 S, MN","Latitude":"47.49069","Longitude":"-95.12177","Snowdepth":"4.000","Units":"in","Rept_Date":"2020-12-27 13"},"coordinates":[621,7483]},{"type":"Point","properties":{"Station_ID":"MI-OT-16","Station_Nam":"GAYLORD 2.2 SSE, MI","Latitude":"44.99441","Longitude":"-84.65820","Snowdepth":"4.000","Units":"in","Rept_Date":"2020-12-27 14"},"coordinates":[3693,6001]},