{"type":"Topology","objects":{"snowdepth_geo":{"type":"GeometryCollection","geometries":[{"type":"Point","coordinates":[-72.8154,44.5248],"properties":{"Station_ID":"MMNV1","Station_Nam":"MT. MANSFIELD","Latitude":"44.52480","Longitude":"-72.81540","Snowdepth":"91.000","Units":"in","Rept_Date":"2025-04-13 20"}},{"type":"Point","coordinates":[-86.62,46.4258],"properties":{"Station_ID":"PRKM4","Station_Nam":"MUNISING EAST","Latitude":"46.42580","Longitude":"-86.62000","Snowdepth":"76.500","Units":"in","Rept_Date":"2025-04-14 06"}},{"type":"Point","coordinates":[-69.6747,50.7925],"properties":{"Station_ID":"CQOU","Station_Nam":"CQOU","Latitude":"50.79250","Longitude":"-69.67470","Snowdepth":"40.748","Units":"in","Rept_Date":"2025-04-13 12"}},{"type":"Point","coordinates":[-67.1394,51.1114],"properties":{"Station_ID":"CQGD","Station_Nam":"CQGD","Latitude":"51.11140","Longitude":"-67.13940","Snowdepth":"38.268","Units":"in","Rept_Date":"2025-04-13 12"}},{"type":"Point","coordinates":[-86.6625,46.4121],"properties":{"Station_ID":"MNSM4","Station_Nam":"MUNISING","Latitude":"46.41210","Longitude":"-86.66250","Snowdepth":"37.000","Units":"in","Rept_Date":"2025-04-13 11"}},{"type":"Point","coordinates":[-68.8236,50.6617],"properties":{"Station_ID":"CMLZ","Station_Nam":"CMLZ","Latitude":"50.66170","Longitude":"-68.82360","Snowdepth":"36.299","Units":"in","Rept_Date":"2025-04-13 12"}},{"type":"Point","coordinates":[-88.6717,47.0416],"properties":{"Station_ID":"PDLM4","Station_Nam":"PAINESDALE","Latitude":"47.04160","Longitude":"-88.67170","Snowdepth":"31.000","Units":"in","Rept_Date":"2025-04-13 12"}},{"type":"Point","coordinates":[-75.1,50.7236],"properties":{"Station_ID":"CQLB","Station_Nam":"CQLB","Latitude":"50.72360","Longitude":"-75.10000","Snowdepth":"28.425","Units":"in","Rept_Date":"2025-04-13 12"}},{"type":"Point","coordinates":[-69.3569,49.66],"properties":{"Station_ID":"CQTV","Station_Nam":"CQTV","Latitude":"49.66000","Longitude":"-69.35690","Snowdepth":"27.953","Units":"in","Rept_Date":"2025-04-13 12"}},{"type":"Point","coordinates":[-74.2064,48.855],"properties":{"Station_ID":"CQGO","Station_Nam":"CQGO","Latitude":"48.85500","Longitude":"-74.20640","Snowdepth":"27.362","Units":"in","Rept_Date":"2025-04-13 12"}},{"type":"Point","coordinates":[-74.4039,50.8328],"properties":{"Station_ID":"CQFT","Station_Nam":"CQFT","Latitude":"50.83280","Longitude":"-74.40390","Snowdepth":"25.630","Units":"in","Rept_Date":"2025-04-13 12"}},{"type":"Point","coordinates":[-70.0806,51.3283],"properties":{"Station_ID":"CQCX","Station_Nam":"CQCX","Latitude":"51.32830","Longitude":"-70.08060","Snowdepth":"25.551","Units":"in","Rept_Date":"2025-04-13 12"}},{"type":"Point","coordinates":[-67.6264,49.6472],"properties":{"Station_ID":"CQGT","Station_Nam":"CQGT","Latitude":"49.64720","Longitude":"-67.62640","Snowdepth":"24.370","Units":"in","Rept_Date":"2025-04-13 12"}},{"type":"Point","coordinates":[-88.2077,46.5573],"properties":{"Station_ID":"MI-BG-3","Station_Nam":"THREE LAKES, MI","Latitude":"46.55730","Longitude":"-88.20770","Snowdepth":"23.000","Units":"in","Rept_Date":"2025-04-13 12"}},{"type":"Point","coordinates":[-88.5795,47.1364],"properties":{"Station_ID":"QNCM4","Station_Nam":"QUINCY HILL","Latitude":"47.13640","Longitude":"-88.57950","Snowdepth":"21.000","Units":"in","Rept_Date":"2025-04-13 11"}},{"type":"Point","coordinates":[-72.5719,51.0578],"properties":{"Station_ID":"CQTM","Station_Nam":"CQTM","Latitude":"51.05780","Longitude":"-72.57190","Snowdepth":"20.472","Units":"in","Rept_Date":"2025-04-13 12"}},{"type":"Point","coordinates":[-82.5757,48.526],"properties":{"Station_ID":"AUDQ6","Station_Nam":"AUDEN","Latitude":"48.52600","Longitude":"-82.57570","Snowdepth":"20.160","Units":"in","Rept_Date":"2025-04-14 06"}},{"type":"Point","coordinates":[-76.5983,47.8275],"properties":{"Station_ID":"CQCU","Station_Nam":"CQCU","Latitude":"47.82750","Longitude":"-76.59830","Snowdepth":"19.370","Units":"in","Rept_Date":"2025-04-13 12"}},{"type":"Point","coordinates":[-70.4719,50.1033],"properties":{"Station_ID":"CQMA","Station_Nam":"CQMA","Latitude":"50.10330","Longitude":"-70.47190","Snowdepth":"19.291","Units":"in","Rept_Date":"2025-04-13 12"}},{"type":"Point","coordinates":[-70.2528,48.9203],"properties":{"Station_ID":"CQLM","Station_Nam":"CQLM","Latitude":"48.92030","Longitude":"-70.25280","Snowdepth":"19.252","Units":"in","Rept_Date":"2025-04-13 12"}},{"type":"Point","coordinates":[-86.6594,49.0695],"properties":{"Station_ID":"PTLQ6","Station_Nam":"PORTAGE LAKE","Latitude":"49.06950","Longitude":"-86.65940","Snowdepth":"19.060","Units":"in","Rept_Date":"2025-04-14 06"}},{"type":"Point","coordinates":[-87.2292,49.2288],"properties":{"Station_ID":"TRIQ6","Station_Nam":"TRIO LAKE","Latitude":"49.22880","Longitude":"-87.22920","Snowdepth":"18.860","Units":"in","Rept_Date":"2025-04-14 06"}},{"type":"Point","coordinates":[-66.9111,51.5217],"properties":{"Station_ID":"CMFU","Station_Nam":"CMFU","Latitude":"51.52170","Longitude":"-66.91110","Snowdepth":"18.819","Units":"in","Rept_Date":"2025-04-13 12"}},{"type":"Point","coordinates":[-68.8406,51.2833],"properties":{"Station_ID":"CMRL","Station_Nam":"CMRL","Latitude":"51.28330","Longitude":"-68.84060","Snowdepth":"18.622","Units":"in","Rept_Date":"2025-04-13 12"}},{"type":"Point","coordinates":[-88.417,47.2752],"properties":{"Station_ID":"KSGM4","Station_Nam":"KEARSARGE","Latitude":"47.27520","Longitude":"-88.41700","Snowdepth":"18.000","Units":"in","Rept_Date":"2025-04-13 12"}},{"type":"Point","coordinates":[-66.13279,47.90803],"properties":{"Station_ID":"CAN-NB-50","Station_Nam":"DOYLEVILLE 2.4 WNW, CAN","Latitude":"47.90803","Longitude":"-66.13279","Snowdepth":"18.000","Units":"in","Rept_Date":"2025-04-13 12"}},{"type":"Point","coordinates":[-87.7644,49.1989],"properties":{"Station_ID":"DVLQ6","Station_Nam":"DEVIOUS LAKE","Latitude":"49.19890","Longitude":"-87.76440","Snowdepth":"17.560","Units":"in","Rept_Date":"2025-04-14 06"}},{"type":"Point","coordinates":[-73.8067,47.8461],"properties":{"Station_ID":"CQWE","Station_Nam":"CQWE","Latitude":"47.84610","Longitude":"-73.80670","Snowdepth":"16.102","Units":"in","Rept_Date":"2025-04-13 12"}},{"type":"Point","coordinates":[-88.5294,47.10774],"properties":{"Station_ID":"MI-HG-1","Station_Nam":"HOUGHTON 1.6 ESE, MI","Latitude":"47.10774","Longitude":"-88.52940","Snowdepth":"15.500","Units":"in","Rept_Date":"2025-04-13 12"}},{"type":"Point","coordinates":[-86.95857,46.5029],"properties":{"Station_ID":"MI-AG-8","Station_Nam":"AU TRAIN 7.8 NW, MI","Latitude":"46.50290","Longitude":"-86.95857","Snowdepth":"15.000","Units":"in","Rept_Date":"2025-04-13 13"}},{"type":"Point","coordinates":[-72.2011,51.4528],"properties":{"Station_ID":"CQCO","Station_Nam":"CQCO","Latitude":"51.45280","Longitude":"-72.20110","Snowdepth":"14.961","Units":"in","Rept_Date":"2025-04-13 12"}},{"type":"Point","coordinates":[-87.45705,46.47288],"properties":{"Station_ID":"MI-MQ-30","Station_Nam":"MARQUETTE 6.1 SSW, MI","Latitude":"46.47288","Longitude":"-87.45705","Snowdepth":"14.500","Units":"in","Rept_Date":"2025-04-13 11"}},{"type":"Point","coordinates":[-88.6926,47.13156],"properties":{"Station_ID":"MI-HG-21","Station_Nam":"ATLANTIC MINE 3.9 NW, MI","Latitude":"47.13156","Longitude":"-88.69260","Snowdepth":"14.500","Units":"in","Rept_Date":"2025-04-13 11"}},{"type":"Point","coordinates":[-71.3093,44.3326],"properties":{"Station_ID":"GKBN3","Station_Nam":"GRAY KNOB","Latitude":"44.33260","Longitude":"-71.30930","Snowdepth":"14.000","Units":"in","Rept_Date":"2025-04-13 13"}},{"type":"Point","coordinates":[-68.5431,49.8239],"properties":{"Station_ID":"CQIQ","Station_Nam":"CQIQ","Latitude":"49.82390","Longitude":"-68.54310","Snowdepth":"13.386","Units":"in","Rept_Date":"2025-04-13 12"}},{"type":"Point","coordinates":[-73.9228,50.2708],"properties":{"Station_ID":"CQLI","Station_Nam":"CQLI","Latitude":"50.27080","Longitude":"-73.92280","Snowdepth":"12.992","Units":"in","Rept_Date":"2025-04-13 12"}},{"type":"Point","coordinates":[-90.30508,47.8062],"properties":{"Station_ID":"MN-CK-29","Station_Nam":"GRAND MARAIS 3.8 NNE, MN","Latitude":"47.80620","Longitude":"-90.30508","Snowdepth":"12.500","Units":"in","Rept_Date":"2025-04-13 12"}},{"type":"Point","coordinates":[-87.8582,50.7668],"properties":{"Station_ID":"OGIQ6","Station_Nam":"OGOKI CAMP","Latitude":"50.76680","Longitude":"-87.85820","Snowdepth":"12.360","Units":"in","Rept_Date":"2025-04-14 06"}},{"type":"Point","coordinates":[-91.793,50.7787],"properties":{"Station_ID":"SOCQ6","Station_Nam":"SOCKET LAKE","Latitude":"50.77870","Longitude":"-91.79300","Snowdepth":"12.010","Units":"in","Rept_Date":"2025-04-14 06"}},{"type":"Point","coordinates":[-75.845,49.2906],"properties":{"Station_ID":"CQMD","Station_Nam":"CQMD","Latitude":"49.29060","Longitude":"-75.84500","Snowdepth":"11.811","Units":"in","Rept_Date":"2025-04-13 12"}},{"type":"Point","coordinates":[-90.6567,50.2873],"properties":{"Station_ID":"SVBQ6","Station_Nam":"SAVANT BASE","Latitude":"50.28730","Longitude":"-90.65670","Snowdepth":"11.180","Units":"in","Rept_Date":"2025-04-14 06"}},{"type":"Point","coordinates":[-87.5492,46.5314],"properties":{"Station_ID":"MQT","Station_Nam":"MARQUETTE, MI","Latitude":"46.53140","Longitude":"-87.54920","Snowdepth":"11.000","Units":"in","Rept_Date":"2025-04-14 06"}},{"type":"Point","coordinates":[-87.4503,46.28397],"properties":{"Station_ID":"61591_MADIS","Station_Nam":"GWINN 0.7 SW, MI","Latitude":"46.28397","Longitude":"-87.45030","Snowdepth":"11.000","Units":"in","Rept_Date":"2025-04-13 13"}},{"type":"Point","coordinates":[-69.8119,45.6602],"properties":{"Station_ID":"BRAM1","Station_Nam":"BRASSUA DAM","Latitude":"45.66020","Longitude":"-69.81190","Snowdepth":"9.000","Units":"in","Rept_Date":"2025-04-13 11"}},{"type":"Point","coordinates":[-90.87444,48.14388],"properties":{"Station_ID":"MN-CK-56","Station_Nam":"GRAND MARAIS 36.2 NW, MN","Latitude":"48.14388","Longitude":"-90.87444","Snowdepth":"8.500","Units":"in","Rept_Date":"2025-04-13 12"}},{"type":"Point","coordinates":[-71.4127,44.2196],"properties":{"Station_ID":"CAWN3","Station_Nam":"CRAWFORD NOTCH","Latitude":"44.21960","Longitude":"-71.41270","Snowdepth":"8.000","Units":"in","Rept_Date":"2025-04-13 11"}},{"type":"Point","coordinates":[-88.7038,49.19],"properties":{"Station_ID":"NONQ6","Station_Nam":"NONWATIN","Latitude":"49.19000","Longitude":"-88.70380","Snowdepth":"7.680","Units":"in","Rept_Date":"2025-04-14 06"}},{"type":"Point","coordinates":[-89.1799,49.5995],"properties":{"Station_ID":"KABQ6","Station_Nam":"CAB LAKE","Latitude":"49.59950","Longitude":"-89.17990","Snowdepth":"7.560","Units":"in","Rept_Date":"2025-04-14 06"}},{"type":"Point","coordinates":[-73.7381,47.2564],"properties":{"Station_ID":"CQGA","Station_Nam":"CQGA","Latitude":"47.25640","Longitude":"-73.73810","Snowdepth":"7.402","Units":"in","Rept_Date":"2025-04-13 12"}},{"type":"Point","coordinates":[-84.4025,46.4866],"properties":{"Station_ID":"SSMM4","Station_Nam":"SAULT STE MARIE","Latitude":"46.48660","Longitude":"-84.40250","Snowdepth":"7.000","Units":"in","Rept_Date":"2025-04-13 11"}},{"type":"Point","coordinates":[-69.7167,45.5833],"properties":{"Station_ID":"RKWM1","Station_Nam":"MOOSEHEAD LAKE","Latitude":"45.58330","Longitude":"-69.71670","Snowdepth":"7.000","Units":"in","Rept_Date":"2025-04-13 11"}},{"type":"Point","coordinates":[-84.31971,46.48933],"properties":{"Station_ID":"MI-CP-14","Station_Nam":"SAULT STE. MARIE 2.2 E, MI","Latitude":"46.48933","Longitude":"-84.31971","Snowdepth":"7.000","Units":"in","Rept_Date":"2025-04-13 11"}},{"type":"Point","coordinates":[-84.4026,46.4867],"properties":{"Station_ID":"ANJM4","Station_Nam":"SNOW PAID OBSERVER FOR KANJ","Latitude":"46.48670","Longitude":"-84.40260","Snowdepth":"7.000","Units":"in","Rept_Date":"2025-04-13 18"}},{"type":"Point","coordinates":[-86.9375,50.6386],"properties":{"Station_ID":"ANAQ6","Station_Nam":"ANACONDA","Latitude":"50.63860","Longitude":"-86.93750","Snowdepth":"6.770","Units":"in","Rept_Date":"2025-04-14 00"}},{"type":"Point","coordinates":[-76.1453,38.91833],"properties":{"Station_ID":"007MD_MADIS","Station_Nam":"WYE MILLS 4 WSW","Latitude":"38.91833","Longitude":"-76.14530","Snowdepth":"6.570","Units":"in","Rept_Date":"2025-04-14 06"}},{"type":"Point","coordinates":[-73.4594,48.4889],"properties":{"Station_ID":"CQWG","Station_Nam":"CQWG","Latitude":"48.48890","Longitude":"-73.45940","Snowdepth":"6.181","Units":"in","Rept_Date":"2025-04-13 12"}},{"type":"Point","coordinates":[-71.3,44.2667],"properties":{"Station_ID":"MWN","Station_Nam":"MOUNT WASHINGTON","Latitude":"44.26670","Longitude":"-71.30000","Snowdepth":"6.000","Units":"in","Rept_Date":"2025-04-13 12"}},{"type":"Point","coordinates":[-71.3,44.26666],"properties":{"Station_ID":"KMWN","Station_Nam":"MOUNT WASHINGTON","Latitude":"44.26666","Longitude":"-71.30000","Snowdepth":"6.000","Units":"in","Rept_Date":"2025-04-14 06"}},{"type":"Point","coordinates":[-91.4716,48.7067],"properties":{"Station_ID":"ATIQ6","Station_Nam":"ATIKOKAN","Latitude":"48.70670","Longitude":"-91.47160","Snowdepth":"5.870","Units":"in","Rept_Date":"2025-04-14 06"}},{"type":"Point","coordinates":[-91.8221,51.7269],"properties":{"Station_ID":"CATQ6","Station_Nam":"CAT LAKE","Latitude":"51.72690","Longitude":"-91.82210","Snowdepth":"5.710","Units":"in","Rept_Date":"2025-04-14 06"}},{"type":"Point","coordinates":[-72.8326,43.29092],"properties":{"Station_ID":"VT-BN-3","Station_Nam":"LANDGROVE 1.1 NNE, VT","Latitude":"43.29092","Longitude":"-72.83260","Snowdepth":"5.500","Units":"in","Rept_Date":"2025-04-13 11"}},{"type":"Point","coordinates":[-91.86862,47.88254],"properties":{"Station_ID":"MN-SL-328","Station_Nam":"ELY 1.8 SSW, MN","Latitude":"47.88254","Longitude":"-91.86862","Snowdepth":"5.000","Units":"in","Rept_Date":"2025-04-13 13"}},{"type":"Point","coordinates":[-75.5543,43.6051],"properties":{"Station_ID":"HGHN6","Station_Nam":"HIGHMARKET","Latitude":"43.60510","Longitude":"-75.55430","Snowdepth":"5.000","Units":"in","Rept_Date":"2025-04-13 10"}},{"type":"Point","coordinates":[-72.8679,42.5741],"properties":{"Station_ID":"EHYM3","Station_Nam":"EAST HAWLEY","Latitude":"42.57410","Longitude":"-72.86790","Snowdepth":"5.000","Units":"in","Rept_Date":"2025-04-13 12"}},{"type":"Point","coordinates":[-75.6992,38.17779],"properties":{"Station_ID":"011MD_MADIS","Station_Nam":"PRINCESS ANNE 2 S","Latitude":"38.17779","Longitude":"-75.69920","Snowdepth":"4.920","Units":"in","Rept_Date":"2025-04-14 06"}},{"type":"Point","coordinates":[-71.7799,42.77674],"properties":{"Station_ID":"NH-HL-48","Station_Nam":"GREENVILLE 1.1 ENE, NH","Latitude":"42.77674","Longitude":"-71.77990","Snowdepth":"4.500","Units":"in","Rept_Date":"2025-04-13 12"}},{"type":"Point","coordinates":[-71.94612,42.23742],"properties":{"Station_ID":"MA-WR-88","Station_Nam":"LEICESTER 2.5 WSW, MA","Latitude":"42.23742","Longitude":"-71.94612","Snowdepth":"4.500","Units":"in","Rept_Date":"2025-04-13 11"}},{"type":"Point","coordinates":[-90.27013,46.41555],"properties":{"Station_ID":"WI-IR-3","Station_Nam":"PENCE 0.1 E, WI","Latitude":"46.41555","Longitude":"-90.27013","Snowdepth":"4.000","Units":"in","Rept_Date":"2025-04-13 12"}},{"type":"Point","coordinates":[-73.02,42.82],"properties":{"Station_ID":"VT-BN-12","Station_Nam":"STAMFORD 5.0 NNE, VT","Latitude":"42.82000","Longitude":"-73.02000","Snowdepth":"4.000","Units":"in","Rept_Date":"2025-04-13 20"}},{"type":"Point","coordinates":[-74.30115,41.83214],"properties":{"Station_ID":"NY-UL-28","Station_Nam":"KERHONKSON 3.7 N, NY","Latitude":"41.83214","Longitude":"-74.30115","Snowdepth":"4.000","Units":"in","Rept_Date":"2025-04-13 11"}},{"type":"Point","coordinates":[-71.8217,42.56674],"properties":{"Station_ID":"MA-WR-8","Station_Nam":"FITCHBURG 1.6 SSW, MA","Latitude":"42.56674","Longitude":"-71.82170","Snowdepth":"4.000","Units":"in","Rept_Date":"2025-04-13 10"}},{"type":"Point","coordinates":[-87.845,46.4991],"properties":{"Station_ID":"CLKM4","Station_Nam":"CLARKSBURG","Latitude":"46.49910","Longitude":"-87.84500","Snowdepth":"4.000","Units":"in","Rept_Date":"2025-04-13 11"}},{"type":"Point","coordinates":[-71.9159,42.6178],"properties":{"Station_ID":"ASBM3","Station_Nam":"ASHBURNHAM","Latitude":"42.61780","Longitude":"-71.91590","Snowdepth":"4.000","Units":"in","Rept_Date":"2025-04-13 11"}},{"type":"Point","coordinates":[-87.9051,51.5582],"properties":{"Station_ID":"FTHQ6","Station_Nam":"FORT HOPE","Latitude":"51.55820","Longitude":"-87.90510","Snowdepth":"3.310","Units":"in","Rept_Date":"2025-04-14 06"}},{"type":"Point","coordinates":[-75.6147,48.8722],"properties":{"Station_ID":"CQYR","Station_Nam":"CQYR","Latitude":"48.87220","Longitude":"-75.61470","Snowdepth":"3.150","Units":"in","Rept_Date":"2025-04-13 12"}},{"type":"Point","coordinates":[-84.28515,46.50299],"properties":{"Station_ID":"CAN-ON-915","Station_Nam":"SAULT STE. MARIE 3.9 ESE, CAN","Latitude":"46.50299","Longitude":"-84.28515","Snowdepth":"3.100","Units":"in","Rept_Date":"2025-04-13 12"}},{"type":"Point","coordinates":[-88.6424,46.5266],"properties":{"Station_ID":"WTNM4","Station_Nam":"WATTON 2WSW","Latitude":"46.52660","Longitude":"-88.64240","Snowdepth":"3.000","Units":"in","Rept_Date":"2025-04-13 12"}},{"type":"Point","coordinates":[-71.51431,43.22922],"properties":{"Station_ID":"NH-MR-71","Station_Nam":"CONCORD 2.3 E, NH","Latitude":"43.22922","Longitude":"-71.51431","Snowdepth":"3.000","Units":"in","Rept_Date":"2025-04-13 11"}},{"type":"Point","coordinates":[-72.8333,44.5333],"properties":{"Station_ID":"MMSV1","Station_Nam":"MOUNT MANSFIELD","Latitude":"44.53330","Longitude":"-72.83330","Snowdepth":"3.000","Units":"in","Rept_Date":"2025-04-14 06"}},{"type":"Point","coordinates":[-71.91032,42.54505],"properties":{"Station_ID":"MA-WR-44","Station_Nam":"WESTMINSTER 0.6 WSW, MA","Latitude":"42.54505","Longitude":"-71.91032","Snowdepth":"3.000","Units":"in","Rept_Date":"2025-04-13 11"}},{"type":"Point","coordinates":[-74.90953,41.42018],"properties":{"Station_ID":"PA-PK-22","Station_Nam":"MILFORD 8.7 NW, PA","Latitude":"41.42018","Longitude":"-74.90953","Snowdepth":"2.500","Units":"in","Rept_Date":"2025-04-13 11"}},{"type":"Point","coordinates":[-72.00019,43.07635],"properties":{"Station_ID":"NH-HL-108","Station_Nam":"ANTRIM 4.1 NW, NH","Latitude":"43.07635","Longitude":"-72.00019","Snowdepth":"2.500","Units":"in","Rept_Date":"2025-04-13 11"}},{"type":"Point","coordinates":[-84.303,46.503],"properties":{"Station_ID":"CAN-ON-757","Station_Nam":"SAULT STE. MARIE 2.8 ESE - GLFC, CAN","Latitude":"46.50300","Longitude":"-84.30300","Snowdepth":"2.400","Units":"in","Rept_Date":"2025-04-13 12"}},{"type":"Point","coordinates":[-72.6383,48.1392],"properties":{"Station_ID":"CQLP","Station_Nam":"CQLP","Latitude":"48.13920","Longitude":"-72.63830","Snowdepth":"2.205","Units":"in","Rept_Date":"2025-04-13 12"}},{"type":"Point","coordinates":[-72.66291,43.75217],"properties":{"Station_ID":"VT-WR-36","Station_Nam":"BARNARD 2.7 NW, VT","Latitude":"43.75217","Longitude":"-72.66291","Snowdepth":"2.000","Units":"in","Rept_Date":"2025-04-13 11"}},{"type":"Point","coordinates":[-72.70935,42.88484],"properties":{"Station_ID":"VT-WH-30","Station_Nam":"MARLBORO 2.0 NNE, VT","Latitude":"42.88484","Longitude":"-72.70935","Snowdepth":"2.000","Units":"in","Rept_Date":"2025-04-13 13"}},{"type":"Point","coordinates":[-72.9,43.2667],"properties":{"Station_ID":"PERV1","Station_Nam":"PERU","Latitude":"43.26670","Longitude":"-72.90000","Snowdepth":"2.000","Units":"in","Rept_Date":"2025-04-13 11"}},{"type":"Point","coordinates":[-75.5384,43.37335],"properties":{"Station_ID":"NY-OD-2","Station_Nam":"POINT ROCK 0.6 SE, NY","Latitude":"43.37335","Longitude":"-75.53840","Snowdepth":"2.000","Units":"in","Rept_Date":"2025-04-13 12"}},{"type":"Point","coordinates":[-71.9767,43.4189],"properties":{"Station_ID":"NLNN3","Station_Nam":"NEW LONDON","Latitude":"43.41890","Longitude":"-71.97670","Snowdepth":"2.000","Units":"in","Rept_Date":"2025-04-13 11"}},{"type":"Point","coordinates":[-74.45938,41.16332],"properties":{"Station_ID":"NJ-SS-60","Station_Nam":"VERNON TWP 2.7 SSE, NJ","Latitude":"41.16332","Longitude":"-74.45938","Snowdepth":"2.000","Units":"in","Rept_Date":"2025-04-13 12"}},{"type":"Point","coordinates":[-74.66358,41.00503],"properties":{"Station_ID":"NJ-SS-54","Station_Nam":"SPARTA TWP 3.6 SSW, NJ","Latitude":"41.00503","Longitude":"-74.66358","Snowdepth":"2.000","Units":"in","Rept_Date":"2025-04-13 11"}},{"type":"Point","coordinates":[-71.98814,43.40239],"properties":{"Station_ID":"NH-MR-70","Station_Nam":"NEW LONDON 0.8 S, NH","Latitude":"43.40239","Longitude":"-71.98814","Snowdepth":"2.000","Units":"in","Rept_Date":"2025-04-13 11"}},{"type":"Point","coordinates":[-71.819,43.52],"properties":{"Station_ID":"NH-MR-6","Station_Nam":"DANBURY 2.2 ESE, NH","Latitude":"43.52000","Longitude":"-71.81900","Snowdepth":"2.000","Units":"in","Rept_Date":"2025-04-13 12"}},{"type":"Point","coordinates":[-71.5565,43.14994],"properties":{"Station_ID":"NH-MR-4","Station_Nam":"BOW 1.6 NW, NH","Latitude":"43.14994","Longitude":"-71.55650","Snowdepth":"2.000","Units":"in","Rept_Date":"2025-04-13 12"}},{"type":"Point","coordinates":[-73.2208,41.9725],"properties":{"Station_ID":"NFKC3","Station_Nam":"NORFOLK","Latitude":"41.97250","Longitude":"-73.22080","Snowdepth":"2.000","Units":"in","Rept_Date":"2025-04-13 12"}},{"type":"Point","coordinates":[-72.7093,42.8846],"properties":{"Station_ID":"MRLV1","Station_Nam":"MARLBORO","Latitude":"42.88460","Longitude":"-72.70930","Snowdepth":"2.000","Units":"in","Rept_Date":"2025-04-13 13"}},{"type":"Point","coordinates":[-87.433,46.56288],"properties":{"Station_ID":"MI-MQ-33","Station_Nam":"MARQUETTE 2.0 WNW, MI","Latitude":"46.56288","Longitude":"-87.43300","Snowdepth":"2.000","Units":"in","Rept_Date":"2025-04-13 12"}},{"type":"Point","coordinates":[-68.1439,47.0108],"properties":{"Station_ID":"ME-AR-18","Station_Nam":"NEW SWEDEN 4.9 NNW, ME","Latitude":"47.01080","Longitude":"-68.14390","Snowdepth":"2.000","Units":"in","Rept_Date":"2025-04-13 12"}},{"type":"Point","coordinates":[-71.85686,42.33809],"properties":{"Station_ID":"MA-WR-89","Station_Nam":"HOLDEN 0.9 SSE, MA","Latitude":"42.33809","Longitude":"-71.85686","Snowdepth":"2.000","Units":"in","Rept_Date":"2025-04-13 11"}},{"type":"Point","coordinates":[-71.86869,42.17336],"properties":{"Station_ID":"MA-WR-41","Station_Nam":"AUBURN 2.6 SW, MA","Latitude":"42.17336","Longitude":"-71.86869","Snowdepth":"2.000","Units":"in","Rept_Date":"2025-04-13 13"}},{"type":"Point","coordinates":[-72.9454,42.49272],"properties":{"Station_ID":"MA-HS-7","Station_Nam":"PLAINFIELD 2.2 SW, MA","Latitude":"42.49272","Longitude":"-72.94540","Snowdepth":"2.000","Units":"in","Rept_Date":"2025-04-13 13"}},{"type":"Point","coordinates":[-72.74829,42.50424],"properties":{"Station_ID":"MA-FR-41","Station_Nam":"CONWAY 3.4 WSW, MA","Latitude":"42.50424","Longitude":"-72.74829","Snowdepth":"2.000","Units":"in","Rept_Date":"2025-04-13 11"}},{"type":"Point","coordinates":[-72.0053,42.8088],"properties":{"Station_ID":"JAPN3","Station_Nam":"JAFFREY SILVER RANCH AIRPARK","Latitude":"42.80880","Longitude":"-72.00530","Snowdepth":"2.000","Units":"in","Rept_Date":"2025-04-13 11"}},{"type":"Point","coordinates":[-74.4593,41.1633],"properties":{"Station_ID":"HGHN4","Station_Nam":"HIGHLAND LAKES 1SW","Latitude":"41.16330","Longitude":"-74.45930","Snowdepth":"2.000","Units":"in","Rept_Date":"2025-04-13 12"}},{"type":"Point","coordinates":[-90.8875,48.1667],"properties":{"Station_ID":"GNFM5","Station_Nam":"GUNFLINT LAKE","Latitude":"48.16670","Longitude":"-90.88750","Snowdepth":"2.000","Units":"in","Rept_Date":"2025-04-13 12"}},{"type":"Point","coordinates":[-87.3038,46.4533],"properties":{"Station_ID":"GGRM4","Station_Nam":"GREEN GARDEN NO.2","Latitude":"46.45330","Longitude":"-87.30380","Snowdepth":"2.000","Units":"in","Rept_Date":"2025-04-13 13"}},{"type":"Point","coordinates":[-73.0575,42.1606],"properties":{"Station_ID":"EOTM3","Station_Nam":"EAST OTIS","Latitude":"42.16060","Longitude":"-73.05750","Snowdepth":"2.000","Units":"in","Rept_Date":"2025-04-13 12"}},{"type":"Point","coordinates":[-72.88891,41.93865],"properties":{"Station_ID":"CT-HR-132","Station_Nam":"SALMON BROOK 4.9 WSW, CT","Latitude":"41.93865","Longitude":"-72.88891","Snowdepth":"2.000","Units":"in","Rept_Date":"2025-04-13 11"}},{"type":"Point","coordinates":[-76.7767,38.86236],"properties":{"Station_ID":"009MD_MADIS","Station_Nam":"UPPER MARLBORO 3 NNW","Latitude":"38.86236","Longitude":"-76.77670","Snowdepth":"1.650","Units":"in","Rept_Date":"2025-04-14 06"}},{"type":"Point","coordinates":[-76.6234,39.39474],"properties":{"Station_ID":"013MD_MADIS","Station_Nam":"TOWSON 1 WSW","Latitude":"39.39474","Longitude":"-76.62340","Snowdepth":"1.610","Units":"in","Rept_Date":"2025-04-14 06"}},{"type":"Point","coordinates":[-73.8911,41.4807],"properties":{"Station_ID":"NY-PT-2","Station_Nam":"BEACON 4.2 ESE, NY","Latitude":"41.48070","Longitude":"-73.89110","Snowdepth":"1.500","Units":"in","Rept_Date":"2025-04-13 11"}},{"type":"Point","coordinates":[-71.1351,43.31175],"properties":{"Station_ID":"NH-ST-31","Station_Nam":"STRAFFORD 2.9 N, NH","Latitude":"43.31175","Longitude":"-71.13510","Snowdepth":"1.500","Units":"in","Rept_Date":"2025-04-13 12"}},{"type":"Point","coordinates":[-71.7853,42.25354],"properties":{"Station_ID":"MA-WR-81","Station_Nam":"WORCESTER 1.6 SE, MA","Latitude":"42.25354","Longitude":"-71.78530","Snowdepth":"1.500","Units":"in","Rept_Date":"2025-04-13 11"}},{"type":"Point","coordinates":[-76.8431,38.59709],"properties":{"Station_ID":"010MD_MADIS","Station_Nam":"WALDORF 4 ESE","Latitude":"38.59709","Longitude":"-76.84310","Snowdepth":"1.500","Units":"in","Rept_Date":"2025-04-14 06"}},{"type":"Point","coordinates":[-76.9258,39.26249],"properties":{"Station_ID":"001MD_MADIS","Station_Nam":"CLARKSVILLE 4 NNE","Latitude":"39.26249","Longitude":"-76.92580","Snowdepth":"1.500","Units":"in","Rept_Date":"2025-04-14 06"}},{"type":"Point","coordinates":[-72.53419,43.12572],"properties":{"Station_ID":"VT-WH-26","Station_Nam":"WESTMINSTER 5.5 NW, VT","Latitude":"43.12572","Longitude":"-72.53419","Snowdepth":"1.000","Units":"in","Rept_Date":"2025-04-13 11"}},{"type":"Point","coordinates":[-74.4236,43.115],"properties":{"Station_ID":"PEKN6","Station_Nam":"PECK LAKE","Latitude":"43.11500","Longitude":"-74.42360","Snowdepth":"1.000","Units":"in","Rept_Date":"2025-04-13 11"}},{"type":"Point","coordinates":[-75.35804,41.1319],"properties":{"Station_ID":"PA-MN-16","Station_Nam":"MOUNT POCONO 0.7 N, PA","Latitude":"41.13190","Longitude":"-75.35804","Snowdepth":"1.000","Units":"in","Rept_Date":"2025-04-13 11"}},{"type":"Point","coordinates":[-73.6488,41.7523],"properties":{"Station_ID":"NY-DT-8","Station_Nam":"MILLBROOK 3.2 SE, NY","Latitude":"41.75230","Longitude":"-73.64880","Snowdepth":"1.000","Units":"in","Rept_Date":"2025-04-13 11"}},{"type":"Point","coordinates":[-74.5783,42.3523],"properties":{"Station_ID":"NY-DL-25","Station_Nam":"HOBART 4.8 ESE, NY","Latitude":"42.35230","Longitude":"-74.57830","Snowdepth":"1.000","Units":"in","Rept_Date":"2025-04-13 11"}},{"type":"Point","coordinates":[-74.5399,41.08903],"properties":{"Station_ID":"NJ-SS-7","Station_Nam":"HARDYSTON TWP 3.2 SE, NJ","Latitude":"41.08903","Longitude":"-74.53990","Snowdepth":"1.000","Units":"in","Rept_Date":"2025-04-13 11"}},{"type":"Point","coordinates":[-71.90238,43.29531],"properties":{"Station_ID":"NH-MR-60","Station_Nam":"SOUTH SUTTON 1.3 SE, NH","Latitude":"43.29531","Longitude":"-71.90238","Snowdepth":"1.000","Units":"in","Rept_Date":"2025-04-13 12"}},{"type":"Point","coordinates":[-71.6828,42.87616],"properties":{"Station_ID":"NH-HL-49","Station_Nam":"MONT VERNON 1.3 SSW, NH","Latitude":"42.87616","Longitude":"-71.68280","Snowdepth":"1.000","Units":"in","Rept_Date":"2025-04-13 12"}},{"type":"Point","coordinates":[-71.3415,43.80976],"properties":{"Station_ID":"NH-CR-26","Station_Nam":"CENTER SANDWICH 4.9 E, NH","Latitude":"43.80976","Longitude":"-71.34150","Snowdepth":"1.000","Units":"in","Rept_Date":"2025-04-13 11"}},{"type":"Point","coordinates":[-83.4411,35.655],"properties":{"Station_ID":"MTLT1","Station_Nam":"GATLINBURG,TN","Latitude":"35.65500","Longitude":"-83.44110","Snowdepth":"1.000","Units":"in","Rept_Date":"2025-04-13 11"}},{"type":"Point","coordinates":[-90.4376,47.74865],"properties":{"Station_ID":"MN-CK-6","Station_Nam":"GRAND MARAIS 4.4 W, MN","Latitude":"47.74865","Longitude":"-90.43760","Snowdepth":"1.000","Units":"in","Rept_Date":"2025-04-13 12"}},{"type":"Point","coordinates":[-70.6751,43.6475],"properties":{"Station_ID":"ME-YK-3","Station_Nam":"HOLLIS CENTER 5.4 NW, ME","Latitude":"43.64750","Longitude":"-70.67510","Snowdepth":"1.000","Units":"in","Rept_Date":"2025-04-13 11"}},{"type":"Point","coordinates":[-71.71653,42.6018],"properties":{"Station_ID":"MA-WR-58","Station_Nam":"LUNENBURG 0.6 NE, MA","Latitude":"42.60180","Longitude":"-71.71653","Snowdepth":"1.000","Units":"in","Rept_Date":"2025-04-13 15"}},{"type":"Point","coordinates":[-71.64609,42.6327],"properties":{"Station_ID":"MA-MD-228","Station_Nam":"GROTON 4.2 WNW, MA","Latitude":"42.63270","Longitude":"-71.64609","Snowdepth":"1.000","Units":"in","Rept_Date":"2025-04-13 12"}},{"type":"Point","coordinates":[-72.7511,42.589],"properties":{"Station_ID":"MA-FR-17","Station_Nam":"BUCKLAND 1.8 ESE, MA","Latitude":"42.58900","Longitude":"-72.75110","Snowdepth":"1.000","Units":"in","Rept_Date":"2025-04-13 12"}},{"type":"Point","coordinates":[-72.72743,42.54419],"properties":{"Station_ID":"MA-FR-13","Station_Nam":"CONWAY 2.9 NW, MA","Latitude":"42.54419","Longitude":"-72.72743","Snowdepth":"1.000","Units":"in","Rept_Date":"2025-04-13 12"}},{"type":"Point","coordinates":[-73.1506,42.5939],"properties":{"Station_ID":"MA-BE-36","Station_Nam":"CHESHIRE 2.6 N, MA","Latitude":"42.59390","Longitude":"-73.15060","Snowdepth":"1.000","Units":"in","Rept_Date":"2025-04-13 11"}},{"type":"Point","coordinates":[-89.0758,46.1211],"properties":{"Station_ID":"LVDW3","Station_Nam":"LAC VIEUX DESERT","Latitude":"46.12110","Longitude":"-89.07580","Snowdepth":"1.000","Units":"in","Rept_Date":"2025-04-13 14"}},{"type":"Point","coordinates":[-73.0333,43.05],"properties":{"Station_ID":"LBKV1","Station_Nam":"LYE BROOK","Latitude":"43.05000","Longitude":"-73.03330","Snowdepth":"1.000","Units":"in","Rept_Date":"2025-04-14 06"}},{"type":"Point","coordinates":[-90.1955,46.4625],"properties":{"Station_ID":"HURW3","Station_Nam":"HURLEY","Latitude":"46.46250","Longitude":"-90.19550","Snowdepth":"1.000","Units":"in","Rept_Date":"2025-04-13 13"}},{"type":"Point","coordinates":[-70.6749,43.6475],"properties":{"Station_ID":"HOLM1","Station_Nam":"HOLLIS","Latitude":"43.64750","Longitude":"-70.67490","Snowdepth":"1.000","Units":"in","Rept_Date":"2025-04-13 11"}},{"type":"Point","coordinates":[-71.3425,43.8099],"properties":{"Station_ID":"ESDN3","Station_Nam":"EAST SANDWICH","Latitude":"43.80990","Longitude":"-71.34250","Snowdepth":"1.000","Units":"in","Rept_Date":"2025-04-13 10"}},{"type":"Point","coordinates":[-72.8207,42.0244],"properties":{"Station_ID":"CT-HR-8","Station_Nam":"NORTH GRANBY 1.3 ENE, CT","Latitude":"42.02440","Longitude":"-72.82070","Snowdepth":"1.000","Units":"in","Rept_Date":"2025-04-13 11"}},{"type":"Point","coordinates":[-92.6925,47.8506],"properties":{"Station_ID":"COKM5","Station_Nam":"COOK","Latitude":"47.85060","Longitude":"-92.69250","Snowdepth":"1.000","Units":"in","Rept_Date":"2025-04-13 11"}},{"type":"Point","coordinates":[-91.4486,47.9719],"properties":{"Station_ID":"BNDM5","Station_Nam":"ELY 25E","Latitude":"47.97190","Longitude":"-91.44860","Snowdepth":"1.000","Units":"in","Rept_Date":"2025-04-13 16"}},{"type":"Point","coordinates":[-72.5814,42.8448],"properties":{"Station_ID":"61661_MADIS","Station_Nam":"BRATTLEBORO 1.3 WSW, VT","Latitude":"42.84480","Longitude":"-72.58140","Snowdepth":"1.000","Units":"in","Rept_Date":"2025-04-13 11"}}]}},"arcs":[],"bbox":[-92.6925,35.655,-66.13279,51.7269]}
