{"type":"Topology","objects":{"snowdepth_geo":{"type":"GeometryCollection","name":"snowdepth","crs":{"type":"name","properties":{"name":"urn:ogc:def:crs:OGC:1.3:CRS84"}},"geometries":[{"type":"Point","properties":{"Station_ID":"MMSV1","Station_Nam":"MOUNT MANSFIELD","Latitude":"44.53330","Longitude":"-72.83330","Snowdepth":"89.000","Units":"in","Rept_Date":"2019-12-09 05"},"coordinates":[5491,5524]},{"type":"Point","properties":{"Station_ID":"PRKM4","Station_Nam":"MUNISING EAST","Latitude":"46.42580","Longitude":"-86.62000","Snowdepth":"76.500","Units":"in","Rept_Date":"2019-12-09 06"},"coordinates":[2389,6701]},{"type":"Point","properties":{"Station_ID":"OGIQ6","Station_Nam":"OGOKI CAMP","Latitude":"50.76680","Longitude":"-87.85820","Snowdepth":"61.100","Units":"in","Rept_Date":"2019-12-09 06"},"coordinates":[2111,9402]},{"type":"Point","properties":{"Station_ID":"AUDQ6","Station_Nam":"AUDEN","Latitude":"48.52600","Longitude":"-82.57570","Snowdepth":"47.640","Units":"in","Rept_Date":"2019-12-09 06"},"coordinates":[3299,8008]},{"type":"Point","properties":{"Station_ID":"HTLN3","Station_Nam":"HERMIT LAKE SNOWPLOT","Latitude":"44.26130","Longitude":"-71.28330","Snowdepth":"29.000","Units":"in","Rept_Date":"2019-12-08 11"},"coordinates":[5840,5354]},{"type":"Point","properties":{"Station_ID":"HURW3","Station_Nam":"HURLEY","Latitude":"46.46250","Longitude":"-90.19550","Snowdepth":"28.000","Units":"in","Rept_Date":"2019-12-08 14"},"coordinates":[1585,6724]},{"type":"Point","properties":{"Station_ID":"SWTW3","Station_Nam":"SUPERIOR WWTP","Latitude":"46.72700","Longitude":"-92.07200","Snowdepth":"26.000","Units":"in","Rept_Date":"2019-12-09 06"},"coordinates":[1162,6888]},{"type":"Point","properties":{"Station_ID":"GMSM4","Station_Nam":"GRAND MARAIS 10S","Latitude":"46.50940","Longitude":"-85.96310","Snowdepth":"26.000","Units":"in","Rept_Date":"2019-12-08 12"},"coordinates":[2537,6753]},{"type":"Point","properties":{"Station_ID":"PDLM4","Station_Nam":"PAINESDALE","Latitude":"47.04160","Longitude":"-88.67170","Snowdepth":"24.000","Units":"in","Rept_Date":"2019-12-08 13"},"coordinates":[1928,7084]},{"type":"Point","properties":{"Station_ID":"MMNV1","Station_Nam":"MT. MANSFIELD","Latitude":"44.52480","Longitude":"-72.81540","Snowdepth":"23.000","Units":"in","Rept_Date":"2019-12-08 21"},"coordinates":[5495,5518]},{"type":"Point","properties":{"Station_ID":"IWOM4","Station_Nam":"IRONWOOD#2","Latitude":"46.46520","Longitude":"-90.13820","Snowdepth":"23.000","Units":"in","Rept_Date":"2019-12-08 13"},"coordinates":[1598,6725]},{"type":"Point","properties":{"Station_ID":"HVCN3","Station_Nam":"HARVARD CABIN SNOWPLOT","Latitude":"44.26630","Longitude":"-71.27790","Snowdepth":"23.000","Units":"in","Rept_Date":"2019-12-08 10"},"coordinates":[5841,5357]},{"type":"Point","properties":{"Station_ID":"NY-SC-2","Station_Nam":"SCOTIA 1.1 NW, NY","Latitude":"42.84473","Longitude":"-73.97480","Snowdepth":"22.500","Units":"in","Rept_Date":"2019-12-08 11"},"coordinates":[5234,4473]},{"type":"Point","properties":{"Station_ID":"MQT","Station_Nam":"MARQUETTE, MI","Latitude":"46.53140","Longitude":"-87.54920","Snowdepth":"22.000","Units":"in","Rept_Date":"2019-12-09 06"},"coordinates":[2180,6767]},{"type":"Point","properties":{"Station_ID":"MAIW3","Station_Nam":"MADELINE ISLAND","Latitude":"46.78330","Longitude":"-90.76670","Snowdepth":"22.000","Units":"in","Rept_Date":"2019-12-08 13"},"coordinates":[1456,6923]},{"type":"Point","properties":{"Station_ID":"MA-WR-56","Station_Nam":"STERLING 4.3 NW, MA","Latitude":"42.47540","Longitude":"-71.81140","Snowdepth":"22.000","Units":"in","Rept_Date":"2019-12-08 12"},"coordinates":[5721,4243]},{"type":"Point","properties":{"Station_ID":"VT-BN-12","Station_Nam":"STAMFORD 5.0 NNE, VT","Latitude":"42.82000","Longitude":"-73.02000","Snowdepth":"21.000","Units":"in","Rept_Date":"2019-12-08 18"},"coordinates":[5449,4458]},{"type":"Point","properties":{"Station_ID":"CAN-NB-50","Station_Nam":"DOYLEVILLE 2.4 WNW, CAN","Latitude":"47.90803","Longitude":"-66.13279","Snowdepth":"20.100","Units":"in","Rept_Date":"2019-12-08 13"},"coordinates":[6999,7623]},{"type":"Point","properties":{"Station_ID":"WRSM5","Station_Nam":"WRENSHALL","Latitude":"46.61550","Longitude":"-92.38380","Snowdepth":"20.000","Units":"in","Rept_Date":"2019-12-08 14"},"coordinates":[1092,6819]},{"type":"Point","properties":{"Station_ID":"NWCM4","Station_Nam":"NEWBERRY CITY","Latitude":"46.35720","Longitude":"-85.51780","Snowdepth":"20.000","Units":"in","Rept_Date":"2019-12-08 12"},"coordinates":[2637,6658]},{"type":"Point","properties":{"Station_ID":"LVDW3","Station_Nam":"LAC VIEUX DESERT","Latitude":"46.12110","Longitude":"-89.07580","Snowdepth":"20.000","Units":"in","Rept_Date":"2019-12-08 15"},"coordinates":[1837,6511]},{"type":"Point","properties":{"Station_ID":"WI-FL-3","Station_Nam":"FLORENCE 0.7 ESE, WI","Latitude":"45.91760","Longitude":"-88.23900","Snowdepth":"19.000","Units":"in","Rept_Date":"2019-12-08 11"},"coordinates":[2025,6385]},{"type":"Point","properties":{"Station_ID":"PHEW3","Station_Nam":"PHELPS","Latitude":"46.06630","Longitude":"-89.07520","Snowdepth":"19.000","Units":"in","Rept_Date":"2019-12-08 13"},"coordinates":[1837,6477]},{"type":"Point","properties":{"Station_ID":"NH-CS-10","Station_Nam":"RANDOLPH 1.4 NE, NH","Latitude":"44.38824","Longitude":"-71.26950","Snowdepth":"19.000","Units":"in","Rept_Date":"2019-12-08 12"},"coordinates":[5843,5433]},{"type":"Point","properties":{"Station_ID":"MI-BG-3","Station_Nam":"L'ANSE 17.8 SE, MI","Latitude":"46.55730","Longitude":"-88.20770","Snowdepth":"19.000","Units":"in","Rept_Date":"2019-12-08 13"},"coordinates":[2032,6783]},{"type":"Point","properties":{"Station_ID":"JWTN6","Station_Nam":"EAST JEWETT","Latitude":"42.23430","Longitude":"-74.14430","Snowdepth":"19.000","Units":"in","Rept_Date":"2019-12-08 13"},"coordinates":[5196,4093]},{"type":"Point","properties":{"Station_ID":"GREN3","Station_Nam":"GREENVILLE 1 NNE","Latitude":"42.78270","Longitude":"-71.79850","Snowdepth":"19.000","Units":"in","Rept_Date":"2019-12-08 12"},"coordinates":[5724,4434]},{"type":"Point","properties":{"Station_ID":"QGD","Station_Nam":"QGD","Latitude":"51.11140","Longitude":"-67.13940","Snowdepth":"18.898","Units":"in","Rept_Date":"2019-12-08 12"},"coordinates":[6772,9616]},{"type":"Point","properties":{"Station_ID":"WLFM5","Station_Nam":"WOLF RIDGE ENVIRON LEARNING CENTER","Latitude":"47.38240","Longitude":"-91.19730","Snowdepth":"18.000","Units":"in","Rept_Date":"2019-12-08 13"},"coordinates":[1359,7296]},{"type":"Point","properties":{"Station_ID":"MA-WR-22","Station_Nam":"FITCHBURG 2.0 NNE, MA","Latitude":"42.61671","Longitude":"-71.80100","Snowdepth":"18.000","Units":"in","Rept_Date":"2019-12-08 13"},"coordinates":[5723,4331]},{"type":"Point","properties":{"Station_ID":"ILIM5","Station_Nam":"ISLAND LAKE","Latitude":"47.02400","Longitude":"-92.07000","Snowdepth":"18.000","Units":"in","Rept_Date":"2019-12-08 15"},"coordinates":[1163,7073]},{"type":"Point","properties":{"Station_ID":"GNLM4","Station_Nam":"GREENLAND 6N","Latitude":"46.87360","Longitude":"-89.10060","Snowdepth":"18.000","Units":"in","Rept_Date":"2019-12-08 13"},"coordinates":[1831,6980]},{"type":"Point","properties":{"Station_ID":"GLDM4","Station_Nam":"GLADSTONE NO. 2","Latitude":"45.84330","Longitude":"-87.03910","Snowdepth":"18.000","Units":"in","Rept_Date":"2019-12-08 12"},"coordinates":[2295,6339]},{"type":"Point","properties":{"Station_ID":"FCHM3","Station_Nam":"FITCHBURG COOP","Latitude":"42.61680","Longitude":"-71.80170","Snowdepth":"18.000","Units":"in","Rept_Date":"2019-12-08 13"},"coordinates":[5723,4331]},{"type":"Point","properties":{"Station_ID":"ESGM1","Station_Nam":"EAST SANGERVILLE","Latitude":"45.13690","Longitude":"-69.28060","Snowdepth":"18.000","Units":"in","Rept_Date":"2019-12-08 12"},"coordinates":[6290,5899]},{"type":"Point","properties":{"Station_ID":"ESAM4","Station_Nam":"ESCANABA","Latitude":"45.74380","Longitude":"-87.04060","Snowdepth":"18.000","Units":"in","Rept_Date":"2019-12-08 12"},"coordinates":[2294,6277]},{"type":"Point","properties":{"Station_ID":"WI-BY-14","Station_Nam":"ASHLAND 9.8 W, WI","Latitude":"46.59742","Longitude":"-91.07856","Snowdepth":"17.500","Units":"in","Rept_Date":"2019-12-08 13"},"coordinates":[1386,6808]},{"type":"Point","properties":{"Station_ID":"MN-SL-18","Station_Nam":"DULUTH 1.4 NNW, MN","Latitude":"46.80321","Longitude":"-92.11240","Snowdepth":"17.200","Units":"in","Rept_Date":"2019-12-08 14"},"coordinates":[1153,6936]},{"type":"Point","properties":{"Station_ID":"WI-WB-2","Station_Nam":"STONE LAKE 2.0 NW, WI","Latitude":"45.85960","Longitude":"-91.57710","Snowdepth":"17.000","Units":"in","Rept_Date":"2019-12-08 13"},"coordinates":[1274,6349]},{"type":"Point","properties":{"Station_ID":"QNCM4","Station_Nam":"QUINCY HILL","Latitude":"47.13640","Longitude":"-88.57950","Snowdepth":"17.000","Units":"in","Rept_Date":"2019-12-08 12"},"coordinates":[1948,7143]},{"type":"Point","properties":{"Station_ID":"ME-AR-18","Station_Nam":"NEW SWEDEN 4.9 NNW, ME","Latitude":"47.01080","Longitude":"-68.14390","Snowdepth":"17.000","Units":"in","Rept_Date":"2019-12-08 12"},"coordinates":[6546,7065]},{"type":"Point","properties":{"Station_ID":"KSGM4","Station_Nam":"KEARSARGE","Latitude":"47.27520","Longitude":"-88.41700","Snowdepth":"17.000","Units":"in","Rept_Date":"2019-12-08 13"},"coordinates":[1985,7229]},{"type":"Point","properties":{"Station_ID":"DLSN6","Station_Nam":"DELANSON 2NE","Latitude":"42.76720","Longitude":"-74.17110","Snowdepth":"17.000","Units":"in","Rept_Date":"2019-12-08 12"},"coordinates":[5190,4425]},{"type":"Point","properties":{"Station_ID":"DLHM5","Station_Nam":"DULUTH NWS","Latitude":"46.83680","Longitude":"-92.21080","Snowdepth":"17.000","Units":"in","Rept_Date":"2019-12-09 06"},"coordinates":[1131,6957]},{"type":"Point","properties":{"Station_ID":"DLH","Station_Nam":"DULUTH, MN","Latitude":"46.83690","Longitude":"-92.21030","Snowdepth":"17.000","Units":"in","Rept_Date":"2019-12-09 00"},"coordinates":[1131,6957]},{"type":"Point","properties":{"Station_ID":"BFHW3","Station_Nam":"BAYFIELD FISH HATCHERY","Latitude":"46.78670","Longitude":"-90.86420","Snowdepth":"17.000","Units":"in","Rept_Date":"2019-12-08 14"},"coordinates":[1434,6926]},{"type":"Point","properties":{"Station_ID":"MA-WR-54","Station_Nam":"BARRE 1.4 NNE, MA","Latitude":"42.44082","Longitude":"-72.09591","Snowdepth":"16.500","Units":"in","Rept_Date":"2019-12-08 12"},"coordinates":[5657,4222]},{"type":"Point","properties":{"Station_ID":"QGO","Station_Nam":"QGO","Latitude":"48.85500","Longitude":"-74.20640","Snowdepth":"16.417","Units":"in","Rept_Date":"2019-12-08 12"},"coordinates":[5182,8212]},{"type":"Point","properties":{"Station_ID":"WRPW3","Station_Nam":"WATER PURIFICATION PLANT","Latitude":"44.38800","Longitude":"-89.80550","Snowdepth":"16.000","Units":"in","Rept_Date":"2019-12-08 12"},"coordinates":[1672,5433]},{"type":"Point","properties":{"Station_ID":"RRVM4","Station_Nam":"RAPID RIVER 9S","Latitude":"45.78750","Longitude":"-86.93920","Snowdepth":"16.000","Units":"in","Rept_Date":"2019-12-08 16"},"coordinates":[2317,6304]},{"type":"Point","properties":{"Station_ID":"PDGM4","Station_Nam":"PAULDING","Latitude":"46.39760","Longitude":"-89.17940","Snowdepth":"16.000","Units":"in","Rept_Date":"2019-12-08 13"},"coordinates":[1813,6683]},{"type":"Point","properties":{"Station_ID":"MNSM4","Station_Nam":"MUNISING","Latitude":"46.41210","Longitude":"-86.66250","Snowdepth":"16.000","Units":"in","Rept_Date":"2019-12-08 11"},"coordinates":[2380,6692]},{"type":"Point","properties":{"Station_ID":"MA-MD-47","Station_Nam":"WEST TOWNSEND 0.5 W, MA","Latitude":"42.67623","Longitude":"-71.74983","Snowdepth":"16.000","Units":"in","Rept_Date":"2019-12-08 11"},"coordinates":[5735,4368]},{"type":"Point","properties":{"Station_ID":"MA-HS-7","Station_Nam":"PLAINFIELD 2.2 SW, MA","Latitude":"42.49272","Longitude":"-72.94540","Snowdepth":"16.000","Units":"in","Rept_Date":"2019-12-08 13"},"coordinates":[5466,4254]},{"type":"Point","properties":{"Station_ID":"JAPN3","Station_Nam":"JAFFREY SILVER RANCH AIRPARK","Latitude":"42.80880","Longitude":"-72.00530","Snowdepth":"16.000","Units":"in","Rept_Date":"2019-12-08 12"},"coordinates":[5677,4451]},{"type":"Point","properties":{"Station_ID":"IBLM5","Station_Nam":"ISABELLA 14W","Latitude":"47.59360","Longitude":"-91.65140","Snowdepth":"16.000","Units":"in","Rept_Date":"2019-12-08 15"},"coordinates":[1257,7428]},{"type":"Point","properties":{"Station_ID":"CRVW3","Station_Nam":"CRIVITZ HIGH FALLS","Latitude":"45.35750","Longitude":"-88.19190","Snowdepth":"16.000","Units":"in","Rept_Date":"2019-12-08 13"},"coordinates":[2035,6036]},{"type":"Point","properties":{"Station_ID":"BRDM1","Station_Nam":"BRIDGEWATER","Latitude":"46.42870","Longitude":"-67.84370","Snowdepth":"16.000","Units":"in","Rept_Date":"2019-12-08 23"},"coordinates":[6614,6703]},{"type":"Point","properties":{"Station_ID":"ASBM3","Station_Nam":"ASHBURNHAM","Latitude":"42.61780","Longitude":"-71.91590","Snowdepth":"16.000","Units":"in","Rept_Date":"2019-12-08 12"},"coordinates":[5697,4332]},{"type":"Point","properties":{"Station_ID":"QOU","Station_Nam":"QOU","Latitude":"50.79250","Longitude":"-69.67470","Snowdepth":"15.905","Units":"in","Rept_Date":"2019-12-08 12"},"coordinates":[6202,9418]},{"type":"Point","properties":{"Station_ID":"ME-PN-45","Station_Nam":"MILLINOCKET 2.7 ESE, ME","Latitude":"45.65002","Longitude":"-68.64472","Snowdepth":"15.500","Units":"in","Rept_Date":"2019-12-08 12"},"coordinates":[6433,6218]},{"type":"Point","properties":{"Station_ID":"NY-OD-43","Station_Nam":"HOLLAND PATENT 1.1 WNW, NY","Latitude":"43.24707","Longitude":"-75.27750","Snowdepth":"15.400","Units":"in","Rept_Date":"2019-12-08 12"},"coordinates":[4941,4723]},{"type":"Point","properties":{"Station_ID":"QCU","Station_Nam":"QCU","Latitude":"47.82750","Longitude":"-76.59830","Snowdepth":"15.276","Units":"in","Rept_Date":"2019-12-08 12"},"coordinates":[4644,7573]},{"type":"Point","properties":{"Station_ID":"WTRM4","Station_Nam":"WATERSMEET 12WSW","Latitude":"46.22310","Longitude":"-89.40850","Snowdepth":"15.000","Units":"in","Rept_Date":"2019-12-08 13"},"coordinates":[1762,6575]},{"type":"Point","properties":{"Station_ID":"WI-BY-1","Station_Nam":"BAYFIELD 8.8 N, WI","Latitude":"46.93855","Longitude":"-90.83490","Snowdepth":"15.000","Units":"in","Rept_Date":"2019-12-08 13"},"coordinates":[1441,7020]},{"type":"Point","properties":{"Station_ID":"SHHN6","Station_Nam":"SCHOHARIE VILLAGE","Latitude":"42.66500","Longitude":"-74.30360","Snowdepth":"15.000","Units":"in","Rept_Date":"2019-12-08 12"},"coordinates":[5160,4361]},{"type":"Point","properties":{"Station_ID":"RPDM4","Station_Nam":"RAPID RIVER 4SSE","Latitude":"45.87270","Longitude":"-86.94960","Snowdepth":"15.000","Units":"in","Rept_Date":"2019-12-08 14"},"coordinates":[2315,6357]},{"type":"Point","properties":{"Station_ID":"ROWM3","Station_Nam":"ROWE 3NE","Latitude":"42.73500","Longitude":"-72.86920","Snowdepth":"15.000","Units":"in","Rept_Date":"2019-12-08 15"},"coordinates":[5483,4405]},{"type":"Point","properties":{"Station_ID":"PHON6","Station_Nam":"PHOENICIA 2SW","Latitude":"42.06420","Longitude":"-74.34080","Snowdepth":"15.000","Units":"in","Rept_Date":"2019-12-08 12"},"coordinates":[5152,3987]},{"type":"Point","properties":{"Station_ID":"NY-RN-20","Station_Nam":"TROY 2.1 NNE, NY","Latitude":"42.75930","Longitude":"-73.65283","Snowdepth":"15.000","Units":"in","Rept_Date":"2019-12-08 11"},"coordinates":[5307,4420]},{"type":"Point","properties":{"Station_ID":"NY-JF-30","Station_Nam":"WEST CARTHAGE 0.3 ENE, NY","Latitude":"43.97493","Longitude":"-75.61640","Snowdepth":"15.000","Units":"in","Rept_Date":"2019-12-08 12"},"coordinates":[4865,5176]},{"type":"Point","properties":{"Station_ID":"NY-GR-14","Station_Nam":"LEXINGTON 1.5 N, NY","Latitude":"42.26024","Longitude":"-74.35875","Snowdepth":"15.000","Units":"in","Rept_Date":"2019-12-08 12"},"coordinates":[5148,4109]},{"type":"Point","properties":{"Station_ID":"NY-AB-54","Station_Nam":"ALTAMONT 2.9 SW, NY","Latitude":"42.68182","Longitude":"-74.08326","Snowdepth":"15.000","Units":"in","Rept_Date":"2019-12-08 12"},"coordinates":[5210,4372]},{"type":"Point","properties":{"Station_ID":"MN-SL-105","Station_Nam":"DULUTH 11.8 NNE, MN","Latitude":"46.94680","Longitude":"-92.03925","Snowdepth":"15.000","Units":"in","Rept_Date":"2019-12-08 14"},"coordinates":[1170,7025]},{"type":"Point","properties":{"Station_ID":"MI-KW-2","Station_Nam":"DELAWARE 5.2 SW, MI","Latitude":"47.36928","Longitude":"-88.17919","Snowdepth":"15.000","Units":"in","Rept_Date":"2019-12-08 09"},"coordinates":[2038,7288]},{"type":"Point","properties":{"Station_ID":"MA-WR-44","Station_Nam":"WESTMINSTER 0.6 WSW, MA","Latitude":"42.54505","Longitude":"-71.91032","Snowdepth":"15.000","Units":"in","Rept_Date":"2019-12-08 12"},"coordinates":[5699,4287]},{"type":"Point","properties":{"Station_ID":"MA-BE-20","Station_Nam":"LEE 3.7 SE, MA","Latitude":"42.27242","Longitude":"-73.19763","Snowdepth":"15.000","Units":"in","Rept_Date":"2019-12-08 12"},"coordinates":[5409,4117]},{"type":"Point","properties":{"Station_ID":"LNOW3","Station_Nam":"LAND O LAKES","Latitude":"46.19000","Longitude":"-89.45700","Snowdepth":"15.000","Units":"in","Rept_Date":"2019-12-08 13"},"coordinates":[1751,6554]},{"type":"Point","properties":{"Station_ID":"LBKV1","Station_Nam":"LYE BROOK","Latitude":"43.05000","Longitude":"-73.03330","Snowdepth":"15.000","Units":"in","Rept_Date":"2019-12-09 06"},"coordinates":[5446,4601]},{"type":"Point","properties":{"Station_ID":"IRMM4","Station_Nam":"WWTP","Latitude":"46.46670","Longitude":"-90.18330","Snowdepth":"15.000","Units":"in","Rept_Date":"2019-12-08 13"},"coordinates":[1587,6726]},{"type":"Point","properties":{"Station_ID":"GGRM4","Station_Nam":"GREEN GARDEN NO.2","Latitude":"46.45330","Longitude":"-87.30380","Snowdepth":"15.000","Units":"in","Rept_Date":"2019-12-08 14"},"coordinates":[2235,6718]},{"type":"Point","properties":{"Station_ID":"EHYM3","Station_Nam":"EAST HAWLEY","Latitude":"42.57410","Longitude":"-72.86790","Snowdepth":"15.000","Units":"in","Rept_Date":"2019-12-08 15"},"coordinates":[5483,4305]},{"type":"Point","properties":{"Station_ID":"COBN6","Station_Nam":"COBLESKILL 2ESE","Latitude":"42.66710","Longitude":"-74.44230","Snowdepth":"15.000","Units":"in","Rept_Date":"2019-12-08 13"},"coordinates":[5129,4363]},{"type":"Point","properties":{"Station_ID":"ASXW3","Station_Nam":"ASHLAND,WI","Latitude":"46.55220","Longitude":"-90.91610","Snowdepth":"15.000","Units":"in","Rept_Date":"2019-12-08 14"},"coordinates":[1423,6780]},{"type":"Point","properties":{"Station_ID":"ASTW3","Station_Nam":"ATHELSTANE","Latitude":"45.42500","Longitude":"-88.05750","Snowdepth":"15.000","Units":"in","Rept_Date":"2019-12-08 12"},"coordinates":[2066,6078]},{"type":"Point","properties":{"Station_ID":"ACVN6","Station_Nam":"ALCOVE DAM","Latitude":"42.46970","Longitude":"-73.92670","Snowdepth":"15.000","Units":"in","Rept_Date":"2019-12-08 13"},"coordinates":[5245,4240]},{"type":"Point","properties":{"Station_ID":"CAN-NB-105","Station_Nam":"SISSON BROOK 3.8 E, CAN","Latitude":"46.98305","Longitude":"-67.32532","Snowdepth":"14.600","Units":"in","Rept_Date":"2019-12-08 12"},"coordinates":[6730,7048]},{"type":"Point","properties":{"Station_ID":"WI-VL-9","Station_Nam":"LAND O' LAKES 11.7 W, WI","Latitude":"46.19023","Longitude":"-89.45790","Snowdepth":"14.500","Units":"in","Rept_Date":"2019-12-08 13"},"coordinates":[1751,6554]},{"type":"Point","properties":{"Station_ID":"WI-VL-10","Station_Nam":"LAND O LAKES 4.3 WNW, WI","Latitude":"46.17440","Longitude":"-89.30380","Snowdepth":"14.500","Units":"in","Rept_Date":"2019-12-08 13"},"coordinates":[1785,6545]},{"type":"Point","properties":{"Station_ID":"NY-OD-2","Station_Nam":"POINT ROCK 0.6 SE, NY","Latitude":"43.37335","Longitude":"-75.53840","Snowdepth":"14.500","Units":"in","Rept_Date":"2019-12-08 13"},"coordinates":[4882,4802]},{"type":"Point","properties":{"Station_ID":"MA-WR-8","Station_Nam":"FITCHBURG 1.6 SSW, MA","Latitude":"42.56674","Longitude":"-71.82170","Snowdepth":"14.500","Units":"in","Rept_Date":"2019-12-08 11"},"coordinates":[5719,4300]},{"type":"Point","properties":{"Station_ID":"NY-HR-18","Station_Nam":"SALISBURY CENTER 1.8 NW, NY","Latitude":"43.16260","Longitude":"-74.80880","Snowdepth":"14.300","Units":"in","Rept_Date":"2019-12-08 10"},"coordinates":[5047,4671]},{"type":"Point","properties":{"Station_ID":"WORM3","Station_Nam":"WORTHINGTON","Latitude":"42.38690","Longitude":"-72.92100","Snowdepth":"14.000","Units":"in","Rept_Date":"2019-12-08 12"},"coordinates":[5471,4188]},{"type":"Point","properties":{"Station_ID":"WI-PR-2","Station_Nam":"BUTTERNUT 5.9 SW, WI","Latitude":"45.96501","Longitude":"-90.59750","Snowdepth":"14.000","Units":"in","Rept_Date":"2019-12-08 12"},"coordinates":[1494,6414]},{"type":"Point","properties":{"Station_ID":"SUAW3","Station_Nam":"SUAMICO","Latitude":"44.60190","Longitude":"-88.09780","Snowdepth":"14.000","Units":"in","Rept_Date":"2019-12-08 12"},"coordinates":[2057,5566]},{"type":"Point","properties":{"Station_ID":"SDLM3","Station_Nam":"SUNDERLAND","Latitude":"42.44480","Longitude":"-72.55290","Snowdepth":"14.000","Units":"in","Rept_Date":"2019-12-08 12"},"coordinates":[5554,4224]},{"type":"Point","properties":{"Station_ID":"RGNM1","Station_Nam":"RANGELEY 2NW","Latitude":"44.98940","Longitude":"-70.67220","Snowdepth":"14.000","Units":"in","Rept_Date":"2019-12-08 15"},"coordinates":[5977,5807]},{"type":"Point","properties":{"Station_ID":"NY-SC-16","Station_Nam":"NISKAYUNA 2.0 N, NY","Latitude":"42.84645","Longitude":"-73.89920","Snowdepth":"14.000","Units":"in","Rept_Date":"2019-12-08 12"},"coordinates":[5251,4474]},{"type":"Point","properties":{"Station_ID":"MRLV1","Station_Nam":"MARLBORO","Latitude":"42.86000","Longitude":"-72.72000","Snowdepth":"14.000","Units":"in","Rept_Date":"2019-12-08 12"},"coordinates":[5517,4483]},{"type":"Point","properties":{"Station_ID":"MA-WR-75","Station_Nam":"WARREN 2.4 WSW, MA","Latitude":"42.20400","Longitude":"-72.23540","Snowdepth":"14.000","Units":"in","Rept_Date":"2019-12-08 12"},"coordinates":[5626,4074]},{"type":"Point","properties":{"Station_ID":"HRKM3","Station_Nam":"HARDWICK 2 ESE","Latitude":"42.34570","Longitude":"-72.15410","Snowdepth":"14.000","Units":"in","Rept_Date":"2019-12-08 13"},"coordinates":[5644,4163]},{"type":"Point","properties":{"Station_ID":"GHMN3","Station_Nam":"PINKHAM NOTCH","Latitude":"44.25800","Longitude":"-71.25250","Snowdepth":"14.000","Units":"in","Rept_Date":"2019-12-08 11"},"coordinates":[5847,5352]},{"type":"Point","properties":{"Station_ID":"EMLN3","Station_Nam":"EAST MILFORD","Latitude":"42.82660","Longitude":"-71.62600","Snowdepth":"14.000","Units":"in","Rept_Date":"2019-12-08 12"},"coordinates":[5763,4462]},{"type":"Point","properties":{"Station_ID":"CARM1","Station_Nam":"CARIBOU WFO","Latitude":"46.86810","Longitude":"-68.01250","Snowdepth":"14.000","Units":"in","Rept_Date":"2019-12-09 05"},"coordinates":[6576,6976]},{"type":"Point","properties":{"Station_ID":"CAR","Station_Nam":"CARIBOU, ME","Latitude":"46.86830","Longitude":"-68.01360","Snowdepth":"14.000","Units":"in","Rept_Date":"2019-12-08 12"},"coordinates":[6575,6976]},{"type":"Point","properties":{"Station_ID":"CAN-NB-2","Station_Nam":"GRAFTON 2.7 NNE, CA","Latitude":"46.17062","Longitude":"-67.55330","Snowdepth":"14.000","Units":"in","Rept_Date":"2019-12-08 11"},"coordinates":[6679,6542]},{"type":"Point","properties":{"Station_ID":"BRAM1","Station_Nam":"BRASSUA DAM","Latitude":"45.66020","Longitude":"-69.81190","Snowdepth":"14.000","Units":"in","Rept_Date":"2019-12-08 12"},"coordinates":[6171,6225]},{"type":"Point","properties":{"Station_ID":"BABM5","Station_Nam":"BABBITT","Latitude":"47.71210","Longitude":"-91.95330","Snowdepth":"14.000","Units":"in","Rept_Date":"2019-12-08 13"},"coordinates":[1189,7501]},{"type":"Point","properties":{"Station_ID":"AVLV1","Station_Nam":"AVERILL","Latitude":"45.00570","Longitude":"-71.69030","Snowdepth":"14.000","Units":"in","Rept_Date":"2019-12-08 13"},"coordinates":[5748,5817]},{"type":"Point","properties":{"Station_ID":"ABGW3","Station_Nam":"AMBERG 9 E","Latitude":"45.48250","Longitude":"-87.81190","Snowdepth":"14.000","Units":"in","Rept_Date":"2019-12-08 12"},"coordinates":[2121,6114]},{"type":"Point","properties":{"Station_ID":"MLZ","Station_Nam":"MLZ","Latitude":"50.66170","Longitude":"-68.82360","Snowdepth":"13.504","Units":"in","Rept_Date":"2019-12-08 12"},"coordinates":[6393,9336]},{"type":"Point","properties":{"Station_ID":"NY-CB-9","Station_Nam":"HILLSDALE 5.8 S, NY","Latitude":"42.26165","Longitude":"-73.54160","Snowdepth":"13.500","Units":"in","Rept_Date":"2019-12-08 13"},"coordinates":[5332,4110]},{"type":"Point","properties":{"Station_ID":"NY-AB-23","Station_Nam":"ALBANY 0.7 SW, NY","Latitude":"42.66019","Longitude":"-73.81030","Snowdepth":"13.500","Units":"in","Rept_Date":"2019-12-08 12"},"coordinates":[5271,4358]},{"type":"Point","properties":{"Station_ID":"ME-YK-52","Station_Nam":"YORK 5.2 N, ME","Latitude":"43.23585","Longitude":"-70.63400","Snowdepth":"13.500","Units":"in","Rept_Date":"2019-12-08 12"},"coordinates":[5986,4716]},{"type":"Point","properties":{"Station_ID":"WI-BY-2","Station_Nam":"MELLEN 18.6 SW, WI","Latitude":"46.16937","Longitude":"-90.98090","Snowdepth":"13.000","Units":"in","Rept_Date":"2019-12-08 13"},"coordinates":[1408,6541]},{"type":"Point","properties":{"Station_ID":"VANM1","Station_Nam":"VAN BUREN","Latitude":"47.16600","Longitude":"-67.93900","Snowdepth":"13.000","Units":"in","Rept_Date":"2019-12-08 13"},"coordinates":[6592,7161]},{"type":"Point","properties":{"Station_ID":"RKWM1","Station_Nam":"MOOSEHEAD LAKE","Latitude":"45.58330","Longitude":"-69.71670","Snowdepth":"13.000","Units":"in","Rept_Date":"2019-12-08 12"},"coordinates":[6192,6177]},{"type":"Point","properties":{"Station_ID":"PEKN6","Station_Nam":"PECK LAKE","Latitude":"43.11500","Longitude":"-74.42360","Snowdepth":"13.000","Units":"in","Rept_Date":"2019-12-08 12"},"coordinates":[5133,4641]},{"type":"Point","properties":{"Station_ID":"NH-HL-49","Station_Nam":"MONT VERNON 1.3 SSW, NH","Latitude":"42.87616","Longitude":"-71.68280","Snowdepth":"13.000","Units":"in","Rept_Date":"2019-12-08 12"},"coordinates":[5750,4493]},{"type":"Point","properties":{"Station_ID":"NH-CS-4","Station_Nam":"PITTSBURG 6.1 NE, NH","Latitude":"45.11060","Longitude":"-71.29760","Snowdepth":"13.000","Units":"in","Rept_Date":"2019-12-08 12"},"coordinates":[5837,5883]},{"type":"Point","properties":{"Station_ID":"NEDM1","Station_Nam":"CAPE NEDDICK","Latitude":"43.22410","Longitude":"-70.63880","Snowdepth":"13.000","Units":"in","Rept_Date":"2019-12-08 12"},"coordinates":[5985,4709]},{"type":"Point","properties":{"Station_ID":"MRQM4","Station_Nam":"MARQUETTE WFP","Latitude":"46.54580","Longitude":"-87.37950","Snowdepth":"13.000","Units":"in","Rept_Date":"2019-12-08 13"},"coordinates":[2218,6776]},{"type":"Point","properties":{"Station_ID":"MI-MQ-2","Station_Nam":"MARQUETTE 6.5 SSE, MI","Latitude":"46.46461","Longitude":"-87.34064","Snowdepth":"13.000","Units":"in","Rept_Date":"2019-12-08 12"},"coordinates":[2227,6725]},{"type":"Point","properties":{"Station_ID":"HMPN3","Station_Nam":"WEST HAMPSTEAD","Latitude":"42.91080","Longitude":"-71.20200","Snowdepth":"13.000","Units":"in","Rept_Date":"2019-12-08 12"},"coordinates":[5858,4514]},{"type":"Point","properties":{"Station_ID":"HERM4","Station_Nam":"HERMAN,MI","Latitude":"46.65000","Longitude":"-88.33330","Snowdepth":"13.000","Units":"in","Rept_Date":"2019-12-08 13"},"coordinates":[2004,6840]},{"type":"Point","properties":{"Station_ID":"EGRW3","Station_Nam":"EAGLE RIVER-SOUTH","Latitude":"45.91360","Longitude":"-89.24360","Snowdepth":"13.000","Units":"in","Rept_Date":"2019-12-08 13"},"coordinates":[1799,6382]},{"type":"Point","properties":{"Station_ID":"COUW3","Station_Nam":"COUDERAY,WI","Latitude":"45.86670","Longitude":"-91.45000","Snowdepth":"13.000","Units":"in","Rept_Date":"2019-12-08 22"},"coordinates":[1302,6353]},{"type":"Point","properties":{"Station_ID":"CMKW3","Station_Nam":"CLAM LAKE 4W","Latitude":"46.16940","Longitude":"-90.98080","Snowdepth":"13.000","Units":"in","Rept_Date":"2019-12-08 13"},"coordinates":[1408,6541]},{"type":"Point","properties":{"Station_ID":"MFU","Station_Nam":"MFU","Latitude":"51.52170","Longitude":"-66.91110","Snowdepth":"12.559","Units":"in","Rept_Date":"2019-12-08 12"},"coordinates":[6823,9871]},{"type":"Point","properties":{"Station_ID":"VT-WH-29","Station_Nam":"BRATTLEBORO 0.7 S, VT","Latitude":"42.84030","Longitude":"-72.55580","Snowdepth":"12.500","Units":"in","Rept_Date":"2019-12-08 12"},"coordinates":[5553,4470]},{"type":"Point","properties":{"Station_ID":"NY-GR-7","Station_Nam":"GREENVILLE 0.7 E, NY","Latitude":"42.41400","Longitude":"-74.00900","Snowdepth":"12.500","Units":"in","Rept_Date":"2019-12-08 11"},"coordinates":[5227,4205]},{"type":"Point","properties":{"Station_ID":"MN-AT-5","Station_Nam":"TAMARACK 1.4 SW, MN","Latitude":"46.63760","Longitude":"-93.14554","Snowdepth":"12.500","Units":"in","Rept_Date":"2019-12-08 13"},"coordinates":[921,6833]},{"type":"Point","properties":{"Station_ID":"MI-HG-1","Station_Nam":"HOUGHTON 1.6 ESE, MI","Latitude":"47.10774","Longitude":"-88.52940","Snowdepth":"12.500","Units":"in","Rept_Date":"2019-12-08 13"},"coordinates":[1960,7125]},{"type":"Point","properties":{"Station_ID":"MA-MD-125","Station_Nam":"TEWKSBURY 3.6 SSE, MA","Latitude":"42.57083","Longitude":"-71.19813","Snowdepth":"12.500","Units":"in","Rept_Date":"2019-12-08 13"},"coordinates":[5859,4303]},{"type":"Point","properties":{"Station_ID":"MA-FR-13","Station_Nam":"CONWAY 2.9 NW, MA","Latitude":"42.54419","Longitude":"-72.72743","Snowdepth":"12.500","Units":"in","Rept_Date":"2019-12-08 13"},"coordinates":[5515,4286]},{"type":"Point","properties":{"Station_ID":"CAN-NB-13","Station_Nam":"BATHURST 3.8 NW, CAN","Latitude":"47.64212","Longitude":"-65.68756","Snowdepth":"12.500","Units":"in","Rept_Date":"2019-12-08 11"},"coordinates":[7099,7458]},{"type":"Point","properties":{"Station_ID":"CAN-NB-11","Station_Nam":"MIRAMICHI 3.3 S, CAN","Latitude":"46.99343","Longitude":"-65.50690","Snowdepth":"12.500","Units":"in","Rept_Date":"2019-12-08 13"},"coordinates":[7139,7054]},{"type":"Point","properties":{"Station_ID":"QLB","Station_Nam":"QLB","Latitude":"50.72360","Longitude":"-75.10000","Snowdepth":"12.362","Units":"in","Rept_Date":"2019-12-08 12"},"coordinates":[4981,9375]},{"type":"Point","properties":{"Station_ID":"ZBWN3","Station_Nam":"NASHUA CWSU","Latitude":"42.73440","Longitude":"-71.48030","Snowdepth":"12.000","Units":"in","Rept_Date":"2019-12-08 13"},"coordinates":[5795,4404]},{"type":"Point","properties":{"Station_ID":"WI-VL-14","Station_Nam":"BOULDER JUNCTION 1.4 NE, WI","Latitude":"46.12840","Longitude":"-89.62470","Snowdepth":"12.000","Units":"in","Rept_Date":"2019-12-08 13"},"coordinates":[1713,6516]},{"type":"Point","properties":{"Station_ID":"WI-RS-1","Station_Nam":"LADYSMITH 2.8 WNW, WI","Latitude":"45.48180","Longitude":"-91.14680","Snowdepth":"12.000","Units":"in","Rept_Date":"2019-12-08 13"},"coordinates":[1371,6114]},{"type":"Point","properties":{"Station_ID":"WI-PR-6","Station_Nam":"PHILLIPS 1.3 S, WI","Latitude":"45.67677","Longitude":"-90.39543","Snowdepth":"12.000","Units":"in","Rept_Date":"2019-12-08 12"},"coordinates":[1540,6235]},{"type":"Point","properties":{"Station_ID":"WI-BY-6","Station_Nam":"BARNES 2.2 S, WI","Latitude":"46.30264","Longitude":"-91.50320","Snowdepth":"12.000","Units":"in","Rept_Date":"2019-12-08 13"},"coordinates":[1290,6624]},{"type":"Point","properties":{"Station_ID":"VT-WH-26","Station_Nam":"WESTMINSTER 5.5 NW, VT","Latitude":"43.12572","Longitude":"-72.53419","Snowdepth":"12.000","Units":"in","Rept_Date":"2019-12-08 12"},"coordinates":[5558,4648]},{"type":"Point","properties":{"Station_ID":"TRYN6","Station_Nam":"TROY","Latitude":"42.75080","Longitude":"-73.68550","Snowdepth":"12.000","Units":"in","Rept_Date":"2019-12-08 12"},"coordinates":[5299,4415]},{"type":"Point","properties":{"Station_ID":"PRDM4","Station_Nam":"PARADISE","Latitude":"46.60380","Longitude":"-85.03960","Snowdepth":"12.000","Units":"in","Rept_Date":"2019-12-08 11"},"coordinates":[2745,6812]},{"type":"Point","properties":{"Station_ID":"NY-CB-16","Station_Nam":"VALATIE 2.9 N, NY","Latitude":"42.45655","Longitude":"-73.66812","Snowdepth":"12.000","Units":"in","Rept_Date":"2019-12-08 12"},"coordinates":[5303,4232]},{"type":"Point","properties":{"Station_ID":"MWTM1","Station_Nam":"MILLINOCKET WWTP","Latitude":"45.64030","Longitude":"-68.67480","Snowdepth":"12.000","Units":"in","Rept_Date":"2019-12-08 11"},"coordinates":[6427,6212]},{"type":"Point","properties":{"Station_ID":"MTQM4","Station_Nam":"MANISTIQUE WWTP","Latitude":"45.95120","Longitude":"-86.25130","Snowdepth":"12.000","Units":"in","Rept_Date":"2019-12-08 12"},"coordinates":[2472,6406]},{"type":"Point","properties":{"Station_ID":"MHT","Station_Nam":"MANCHESTER AIRPORT GRENIER INDSTRL ARPK","Latitude":"42.93440","Longitude":"-71.43690","Snowdepth":"12.000","Units":"in","Rept_Date":"2019-12-08 12"},"coordinates":[5805,4529]},{"type":"Point","properties":{"Station_ID":"MA-HD-28","Station_Nam":"WESTFIELD 2.8 SE, MA","Latitude":"42.10685","Longitude":"-72.72148","Snowdepth":"12.000","Units":"in","Rept_Date":"2019-12-08 11"},"coordinates":[5516,4014]},{"type":"Point","properties":{"Station_ID":"MA-FR-12","Station_Nam":"SUNDERLAND 1.3 SE, MA","Latitude":"42.45217","Longitude":"-72.56610","Snowdepth":"12.000","Units":"in","Rept_Date":"2019-12-08 12"},"coordinates":[5551,4229]},{"type":"Point","properties":{"Station_ID":"LILM1","Station_Nam":"LILLE","Latitude":"47.27770","Longitude":"-68.10520","Snowdepth":"12.000","Units":"in","Rept_Date":"2019-12-08 12"},"coordinates":[6555,7231]},{"type":"Point","properties":{"Station_ID":"KMHT","Station_Nam":"MANCHESTER AIRPORT","Latitude":"42.93333","Longitude":"-71.43333","Snowdepth":"12.000","Units":"in","Rept_Date":"2019-12-09 06"},"coordinates":[5806,4528]},{"type":"Point","properties":{"Station_ID":"KGFK","Station_Nam":"GRAND FORKS INTERNATIONAL","Latitude":"47.95000","Longitude":"-97.18333","Snowdepth":"12.000","Units":"in","Rept_Date":"2019-12-09 06"},"coordinates":[12,7649]},{"type":"Point","properties":{"Station_ID":"HUDN3","Station_Nam":"HUDSON 1 SSE","Latitude":"42.78300","Longitude":"-71.41480","Snowdepth":"12.000","Units":"in","Rept_Date":"2019-12-08 12"},"coordinates":[5810,4435]},{"type":"Point","properties":{"Station_ID":"HMYM1","Station_Nam":"HARMONY","Latitude":"44.94660","Longitude":"-69.54560","Snowdepth":"12.000","Units":"in","Rept_Date":"2019-12-08 12"},"coordinates":[6231,5781]},{"type":"Point","properties":{"Station_ID":"CLKM4","Station_Nam":"CLARKSBURG","Latitude":"46.49910","Longitude":"-87.84500","Snowdepth":"12.000","Units":"in","Rept_Date":"2019-12-08 12"},"coordinates":[2114,6747]},{"type":"Point","properties":{"Station_ID":"BSKN6","Station_Nam":"BUSKIRK","Latitude":"42.93610","Longitude":"-73.43250","Snowdepth":"12.000","Units":"in","Rept_Date":"2019-12-08 14"},"coordinates":[5356,4530]},{"type":"Point","properties":{"Station_ID":"BNDM5","Station_Nam":"ELY 25E","Latitude":"47.97190","Longitude":"-91.44860","Snowdepth":"12.000","Units":"in","Rept_Date":"2019-12-08 13"},"coordinates":[1303,7663]},{"type":"Point","properties":{"Station_ID":"DVLQ6","Station_Nam":"DEVIOUS LAKE","Latitude":"49.19890","Longitude":"-87.76440","Snowdepth":"11.930","Units":"in","Rept_Date":"2019-12-09 06"},"coordinates":[2132,8426]},{"type":"Point","properties":{"Station_ID":"QCX","Station_Nam":"QCX","Latitude":"51.32830","Longitude":"-70.08060","Snowdepth":"11.850","Units":"in","Rept_Date":"2019-12-08 12"},"coordinates":[6110,9751]},{"type":"Point","properties":{"Station_ID":"QFT","Station_Nam":"QFT","Latitude":"50.83280","Longitude":"-74.40390","Snowdepth":"11.772","Units":"in","Rept_Date":"2019-12-08 12"},"coordinates":[5138,9443]},{"type":"Point","properties":{"Station_ID":"PTLQ6","Station_Nam":"PORTAGE LAKE","Latitude":"49.06950","Longitude":"-86.65940","Snowdepth":"11.610","Units":"in","Rept_Date":"2019-12-09 06"},"coordinates":[2380,8346]},{"type":"Point","properties":{"Station_ID":"WI-PR-8","Station_Nam":"PHILLIPS 0.4 SSW, WI","Latitude":"45.69086","Longitude":"-90.40200","Snowdepth":"11.500","Units":"in","Rept_Date":"2019-12-08 13"},"coordinates":[1538,6244]},{"type":"Point","properties":{"Station_ID":"NY-SR-4","Station_Nam":"SARATOGA SPRINGS 0.5 S, NY","Latitude":"43.06032","Longitude":"-73.78010","Snowdepth":"11.500","Units":"in","Rept_Date":"2019-12-08 11"},"coordinates":[5278,4607]},{"type":"Point","properties":{"Station_ID":"NY-DL-28","Station_Nam":"FLEISCHMANNS 5.7 N, NY","Latitude":"42.23779","Longitude":"-74.52335","Snowdepth":"11.500","Units":"in","Rept_Date":"2019-12-08 12"},"coordinates":[5111,4095]},{"type":"Point","properties":{"Station_ID":"MN-SL-139","Station_Nam":"DULUTH 1.2 SE, MN","Latitude":"46.77000","Longitude":"-92.08826","Snowdepth":"11.500","Units":"in","Rept_Date":"2019-12-08 12"},"coordinates":[1159,6915]},{"type":"Point","properties":{"Station_ID":"MA-MD-104","Station_Nam":"LITTLETON 2.8 NNW, MA","Latitude":"42.57170","Longitude":"-71.49910","Snowdepth":"11.500","Units":"in","Rept_Date":"2019-12-08 12"},"coordinates":[5791,4303]},{"type":"Point","properties":{"Station_ID":"MA-FR-17","Station_Nam":"BUCKLAND 1.8 ESE, MA","Latitude":"42.58900","Longitude":"-72.75110","Snowdepth":"11.500","Units":"in","Rept_Date":"2019-12-08 13"},"coordinates":[5510,4314]},{"type":"Point","properties":{"Station_ID":"MA-BE-21","Station_Nam":"CHESHIRE 0.5 NNW, MA","Latitude":"42.56315","Longitude":"-73.15701","Snowdepth":"11.500","Units":"in","Rept_Date":"2019-12-08 12"},"coordinates":[5418,4298]},{"type":"Point","properties":{"Station_ID":"CAN-NB-97","Station_Nam":"NEW MARYLAND 0.6 NW, CAN","Latitude":"45.90112","Longitude":"-66.68739","Snowdepth":"11.200","Units":"in","Rept_Date":"2019-12-08 13"},"coordinates":[6874,6375]},{"type":"Point","properties":{"Station_ID":"QMD","Station_Nam":"QMD","Latitude":"49.29060","Longitude":"-75.84500","Snowdepth":"11.181","Units":"in","Rept_Date":"2019-12-08 12"},"coordinates":[4813,8483]},{"type":"Point","properties":{"Station_ID":"QTM","Station_Nam":"QTM","Latitude":"51.05780","Longitude":"-72.57190","Snowdepth":"11.024","Units":"in","Rept_Date":"2019-12-08 12"},"coordinates":[5550,9583]},{"type":"Point","properties":{"Station_ID":"QCO","Station_Nam":"QCO","Latitude":"51.45280","Longitude":"-72.20110","Snowdepth":"11.024","Units":"in","Rept_Date":"2019-12-08 12"},"coordinates":[5633,9828]},{"type":"Point","properties":{"Station_ID":"SVBQ6","Station_Nam":"SAVANT BASE","Latitude":"50.28730","Longitude":"-90.65670","Snowdepth":"11.020","Units":"in","Rept_Date":"2019-12-09 06"},"coordinates":[1481,9103]},{"type":"Point","properties":{"Station_ID":"WILW3","Station_Nam":"RESERVOIR","Latitude":"45.70000","Longitude":"-89.83330","Snowdepth":"11.000","Units":"in","Rept_Date":"2019-12-08 12"},"coordinates":[1666,6249]},{"type":"Point","properties":{"Station_ID":"RHLW3","Station_Nam":"RHINELANDER 4NE","Latitude":"45.65270","Longitude":"-89.30740","Snowdepth":"11.000","Units":"in","Rept_Date":"2019-12-08 12"},"coordinates":[1784,6220]},{"type":"Point","properties":{"Station_ID":"RDFN6","Station_Nam":"REDFIELD 8N","Latitude":"43.64130","Longitude":"-75.88400","Snowdepth":"11.000","Units":"in","Rept_Date":"2019-12-08 12"},"coordinates":[4805,4969]},{"type":"Point","properties":{"Station_ID":"OCON6","Station_Nam":"OSCEOLA","Latitude":"43.49910","Longitude":"-75.71210","Snowdepth":"11.000","Units":"in","Rept_Date":"2019-12-08 12"},"coordinates":[4843,4880]},{"type":"Point","properties":{"Station_ID":"NY-SR-22","Station_Nam":"GREENFIELD CENTER 1.6 W, NY","Latitude":"43.12684","Longitude":"-73.87860","Snowdepth":"11.000","Units":"in","Rept_Date":"2019-12-08 13"},"coordinates":[5256,4649]},{"type":"Point","properties":{"Station_ID":"NY-DL-32","Station_Nam":"DELHI 6.6 WNW, NY","Latitude":"42.32118","Longitude":"-75.02991","Snowdepth":"11.000","Units":"in","Rept_Date":"2019-12-08 12"},"coordinates":[4997,4147]},{"type":"Point","properties":{"Station_ID":"NH-RC-18","Station_Nam":"DEERFIELD 3.2 WSW, NH","Latitude":"43.13350","Longitude":"-71.27940","Snowdepth":"11.000","Units":"in","Rept_Date":"2019-12-08 12"},"coordinates":[5841,4653]},{"type":"Point","properties":{"Station_ID":"NBLN6","Station_Nam":"LANSING MANOR","Latitude":"42.44860","Longitude":"-74.46530","Snowdepth":"11.000","Units":"in","Rept_Date":"2019-12-08 14"},"coordinates":[5124,4227]},{"type":"Point","properties":{"Station_ID":"MRAM4","Station_Nam":"MORAN","Latitude":"45.99030","Longitude":"-84.83610","Snowdepth":"11.000","Units":"in","Rept_Date":"2019-12-08 13"},"coordinates":[2790,6430]},{"type":"Point","properties":{"Station_ID":"MN-SL-15","Station_Nam":"CHISHOLM 0.4 WSW, MN","Latitude":"47.48557","Longitude":"-92.88690","Snowdepth":"11.000","Units":"in","Rept_Date":"2019-12-08 13"},"coordinates":[979,7360]},{"type":"Point","properties":{"Station_ID":"MLLW3","Station_Nam":"MERRILL 8W","Latitude":"45.17810","Longitude":"-89.84810","Snowdepth":"11.000","Units":"in","Rept_Date":"2019-12-08 12"},"coordinates":[1663,5925]},{"type":"Point","properties":{"Station_ID":"MA-HD-25","Station_Nam":"LUDLOW 2.3 SW, MA","Latitude":"42.14523","Longitude":"-72.51650","Snowdepth":"11.000","Units":"in","Rept_Date":"2019-12-08 12"},"coordinates":[5562,4038]},{"type":"Point","properties":{"Station_ID":"LEVM3","Station_Nam":"LEVERETT NO.2","Latitude":"42.44680","Longitude":"-72.53000","Snowdepth":"11.000","Units":"in","Rept_Date":"2019-12-08 12"},"coordinates":[5559,4225]},{"type":"Point","properties":{"Station_ID":"JCBM4","Station_Nam":"JACOBSVILLE","Latitude":"47.00830","Longitude":"-88.43180","Snowdepth":"11.000","Units":"in","Rept_Date":"2019-12-08 12"},"coordinates":[1981,7063]},{"type":"Point","properties":{"Station_ID":"EPPN3","Station_Nam":"EPPING","Latitude":"43.03020","Longitude":"-71.08380","Snowdepth":"11.000","Units":"in","Rept_Date":"2019-12-08 12"},"coordinates":[5885,4588]},{"type":"Point","properties":{"Station_ID":"CORM1","Station_Nam":"CORINNA","Latitude":"44.91980","Longitude":"-69.24180","Snowdepth":"11.000","Units":"in","Rept_Date":"2019-12-08 13"},"coordinates":[6299,5764]},{"type":"Point","properties":{"Station_ID":"COPN6","Station_Nam":"COOPERSTOWN","Latitude":"42.71660","Longitude":"-74.92660","Snowdepth":"11.000","Units":"in","Rept_Date":"2019-12-09 04"},"coordinates":[5020,4393]},{"type":"Point","properties":{"Station_ID":"CLGM5","Station_Nam":"COLLEGEVILLE ST JOHN","Latitude":"45.57940","Longitude":"-94.39200","Snowdepth":"11.000","Units":"in","Rept_Date":"2019-12-09 00"},"coordinates":[640,6174]},{"type":"Point","properties":{"Station_ID":"AUBN6","Station_Nam":"AUBURN","Latitude":"42.93270","Longitude":"-76.54470","Snowdepth":"11.000","Units":"in","Rept_Date":"2019-12-08 12"},"coordinates":[4656,4528]},{"type":"Point","properties":{"Station_ID":"ALB","Station_Nam":"ALBANY INTL AP","Latitude":"42.74810","Longitude":"-73.80330","Snowdepth":"11.000","Units":"in","Rept_Date":"2019-12-08 12"},"coordinates":[5273,4413]},{"type":"Point","properties":{"Station_ID":"TRIQ6","Station_Nam":"TRIO LAKE","Latitude":"49.22880","Longitude":"-87.22920","Snowdepth":"10.550","Units":"in","Rept_Date":"2019-12-09 06"},"coordinates":[2252,8445]},{"type":"Point","properties":{"Station_ID":"WI-SR-5","Station_Nam":"HAYWARD 9.7 NE, WI","Latitude":"46.12030","Longitude":"-91.35370","Snowdepth":"10.500","Units":"in","Rept_Date":"2019-12-08 14"},"coordinates":[1324,6511]},{"type":"Point","properties":{"Station_ID":"WI-ON-6","Station_Nam":"RHINELANDER 5.2 N, WI","Latitude":"45.71388","Longitude":"-89.42150","Snowdepth":"10.500","Units":"in","Rept_Date":"2019-12-08 14"},"coordinates":[1759,6258]},{"type":"Point","properties":{"Station_ID":"WI-LN-2","Station_Nam":"MERRILL 7.0 W, WI","Latitude":"45.17746","Longitude":"-89.84820","Snowdepth":"10.500","Units":"in","Rept_Date":"2019-12-08 12"},"coordinates":[1663,5924]},{"type":"Point","properties":{"Station_ID":"NY-CR-1","Station_Nam":"FREETOWN 1.0 NE, NY","Latitude":"42.53299","Longitude":"-76.02111","Snowdepth":"10.500","Units":"in","Rept_Date":"2019-12-08 12"},"coordinates":[4774,4279]},{"type":"Point","properties":{"Station_ID":"NH-MR-41","Station_Nam":"NEWBURY 1.6 NW, NH","Latitude":"43.33667","Longitude":"-72.06060","Snowdepth":"10.500","Units":"in","Rept_Date":"2019-12-08 12"},"coordinates":[5665,4779]},{"type":"Point","properties":{"Station_ID":"MA-WR-76","Station_Nam":"WORCESTER 1.7 N, MA","Latitude":"42.29380","Longitude":"-71.80516","Snowdepth":"10.500","Units":"in","Rept_Date":"2019-12-08 11"},"coordinates":[5722,4130]},{"type":"Point","properties":{"Station_ID":"MA-HS-26","Station_Nam":"EASTHAMPTON 0.5 SW, MA","Latitude":"42.26110","Longitude":"-72.68920","Snowdepth":"10.300","Units":"in","Rept_Date":"2019-12-08 12"},"coordinates":[5523,4110]},{"type":"Point","properties":{"Station_ID":"QWE","Station_Nam":"QWE","Latitude":"47.84610","Longitude":"-73.80670","Snowdepth":"10.157","Units":"in","Rept_Date":"2019-12-08 12"},"coordinates":[5272,7585]},{"type":"Point","properties":{"Station_ID":"WLKW3","Station_Nam":"WHITE LAKE 1 SE","Latitude":"45.14520","Longitude":"-88.74160","Snowdepth":"10.000","Units":"in","Rept_Date":"2019-12-08 14"},"coordinates":[1912,5904]},{"type":"Point","properties":{"Station_ID":"WLKM5","Station_Nam":"AH-GWAH-CHING","Latitude":"47.15000","Longitude":"-94.65000","Snowdepth":"10.000","Units":"in","Rept_Date":"2019-12-08 16"},"coordinates":[582,7152]},{"type":"Point","properties":{"Station_ID":"WI-BT-14","Station_Nam":"OAKLAND 9.0 ENE, WI","Latitude":"45.95184","Longitude":"-92.21653","Snowdepth":"10.000","Units":"in","Rept_Date":"2019-12-08 12"},"coordinates":[1130,6406]},{"type":"Point","properties":{"Station_ID":"TOHM5","Station_Nam":"TWO HARBORS WWTP","Latitude":"47.01760","Longitude":"-91.66480","Snowdepth":"10.000","Units":"in","Rept_Date":"2019-12-08 13"},"coordinates":[1254,7069]},{"type":"Point","properties":{"Station_ID":"TOGM5","Station_Nam":"CELINA 2E","Latitude":"47.86630","Longitude":"-93.02660","Snowdepth":"10.000","Units":"in","Rept_Date":"2019-12-08 15"},"coordinates":[948,7597]},{"type":"Point","properties":{"Station_ID":"SULW3","Station_Nam":"SUMMIT LAKE","Latitude":"45.37880","Longitude":"-89.19410","Snowdepth":"10.000","Units":"in","Rept_Date":"2019-12-08 11"},"coordinates":[1810,6050]},{"type":"Point","properties":{"Station_ID":"STMM4","Station_Nam":"STAMBAUGH 2SSE","Latitude":"46.05550","Longitude":"-88.62780","Snowdepth":"10.000","Units":"in","Rept_Date":"2019-12-08 13"},"coordinates":[1937,6471]},{"type":"Point","properties":{"Station_ID":"PSM","Station_Nam":"PEASE INTL TRADEPORT AP","Latitude":"43.07810","Longitude":"-70.82330","Snowdepth":"10.000","Units":"in","Rept_Date":"2019-12-08 12"},"coordinates":[5943,4618]},{"type":"Point","properties":{"Station_ID":"PERV1","Station_Nam":"PERU","Latitude":"43.26670","Longitude":"-72.90000","Snowdepth":"10.000","Units":"in","Rept_Date":"2019-12-08 12"},"coordinates":[5476,4736]},{"type":"Point","properties":{"Station_ID":"NY-OT-11","Station_Nam":"HARTWICK, NY","Latitude":"42.65990","Longitude":"-75.05000","Snowdepth":"10.000","Units":"in","Rept_Date":"2019-12-08 16"},"coordinates":[4992,4358]},{"type":"Point","properties":{"Station_ID":"NY-OG-61","Station_Nam":"SKANEATELES 0.8 NNW, NY","Latitude":"42.95538","Longitude":"-76.43362","Snowdepth":"10.000","Units":"in","Rept_Date":"2019-12-08 15"},"coordinates":[4681,4542]},{"type":"Point","properties":{"Station_ID":"NY-OG-10","Station_Nam":"CAMILLUS 1.0 W, NY","Latitude":"43.03962","Longitude":"-76.32830","Snowdepth":"10.000","Units":"in","Rept_Date":"2019-12-08 12"},"coordinates":[4705,4594]},{"type":"Point","properties":{"Station_ID":"NY-OD-19","Station_Nam":"NEW HARTFORD 0.8 S, NY","Latitude":"43.06182","Longitude":"-75.28990","Snowdepth":"10.000","Units":"in","Rept_Date":"2019-12-08 12"},"coordinates":[4938,4608]},{"type":"Point","properties":{"Station_ID":"NY-HR-16","Station_Nam":"ILION 0.7 WSW, NY","Latitude":"43.00880","Longitude":"-75.05390","Snowdepth":"10.000","Units":"in","Rept_Date":"2019-12-08 12"},"coordinates":[4991,4575]},{"type":"Point","properties":{"Station_ID":"NRWN6","Station_Nam":"NORWICH","Latitude":"42.51170","Longitude":"-75.51970","Snowdepth":"10.000","Units":"in","Rept_Date":"2019-12-08 10"},"coordinates":[4887,4266]},{"type":"Point","properties":{"Station_ID":"NH-RC-48","Station_Nam":"NORTHWOOD 2.9 WSW, NH","Latitude":"43.20114","Longitude":"-71.25750","Snowdepth":"10.000","Units":"in","Rept_Date":"2019-12-08 12"},"coordinates":[5846,4695]},{"type":"Point","properties":{"Station_ID":"NH-RC-33","Station_Nam":"HAMPSTEAD 1.6 NNE, NH","Latitude":"42.89614","Longitude":"-71.16850","Snowdepth":"10.000","Units":"in","Rept_Date":"2019-12-08 12"},"coordinates":[5866,4505]},{"type":"Point","properties":{"Station_ID":"NCBN6","Station_Nam":"NEWCOMB","Latitude":"43.97070","Longitude":"-74.22200","Snowdepth":"10.000","Units":"in","Rept_Date":"2019-12-08 13"},"coordinates":[5179,5174]},{"type":"Point","properties":{"Station_ID":"MQRW3","Station_Nam":"MINOCQUA","Latitude":"45.88630","Longitude":"-89.73220","Snowdepth":"10.000","Units":"in","Rept_Date":"2019-12-08 12"},"coordinates":[1689,6365]},{"type":"Point","properties":{"Station_ID":"MCLN8","Station_Nam":"MC LEOD,ND","Latitude":"46.40250","Longitude":"-97.23810","Snowdepth":"10.000","Units":"in","Rept_Date":"2019-12-08 13"},"coordinates":[0,6686]},{"type":"Point","properties":{"Station_ID":"MA-MD-156","Station_Nam":"MARLBOROUGH 2.8 ENE, MA","Latitude":"42.37021","Longitude":"-71.50011","Snowdepth":"10.000","Units":"in","Rept_Date":"2019-12-08 11"},"coordinates":[5791,4178]},{"type":"Point","properties":{"Station_ID":"MA-FR-10","Station_Nam":"CONWAY 0.9 SW, MA","Latitude":"42.50879","Longitude":"-72.69730","Snowdepth":"10.000","Units":"in","Rept_Date":"2019-12-08 13"},"coordinates":[5522,4264]},{"type":"Point","properties":{"Station_ID":"MA-BE-3","Station_Nam":"STOCKBRIDGE .2 NNE, MA","Latitude":"42.28983","Longitude":"-73.31950","Snowdepth":"10.000","Units":"in","Rept_Date":"2019-12-08 11"},"coordinates":[5382,4128]},{"type":"Point","properties":{"Station_ID":"LPLN6","Station_Nam":"LAKE PLACID 2 S","Latitude":"44.30420","Longitude":"-73.98390","Snowdepth":"10.000","Units":"in","Rept_Date":"2019-12-08 11"},"coordinates":[5232,5381]},{"type":"Point","properties":{"Station_ID":"LNCM1","Station_Nam":"LINCOLN WATER DISTRICT","Latitude":"45.32410","Longitude":"-68.58300","Snowdepth":"10.000","Units":"in","Rept_Date":"2019-12-08 13"},"coordinates":[6447,6016]},{"type":"Point","properties":{"Station_ID":"KCEF","Station_Nam":"CHICOPEE FALLS / WESTOVER AIR FORCE BASE","Latitude":"42.20000","Longitude":"-72.53333","Snowdepth":"10.000","Units":"in","Rept_Date":"2019-12-08 18"},"coordinates":[5559,4072]},{"type":"Point","properties":{"Station_ID":"KALB","Station_Nam":"ALBANY INTERNATIONAL AIRPORT","Latitude":"42.75000","Longitude":"-73.80000","Snowdepth":"10.000","Units":"in","Rept_Date":"2019-12-09 06"},"coordinates":[5274,4414]},{"type":"Point","properties":{"Station_ID":"JMPW3","Station_Nam":"JUMP RIVER 1 NW","Latitude":"45.35610","Longitude":"-90.80250","Snowdepth":"10.000","Units":"in","Rept_Date":"2019-12-08 13"},"coordinates":[1448,6035]},{"type":"Point","properties":{"Station_ID":"IMNM4","Station_Nam":"IRON MOUTAIN 5N","Latitude":"45.87580","Longitude":"-88.04030","Snowdepth":"10.000","Units":"in","Rept_Date":"2019-12-09 01"},"coordinates":[2070,6359]},{"type":"Point","properties":{"Station_ID":"GRFN8","Station_Nam":"UNIVERSITY","Latitude":"47.93330","Longitude":"-97.08330","Snowdepth":"10.000","Units":"in","Rept_Date":"2019-12-09 06"},"coordinates":[35,7639]},{"type":"Point","properties":{"Station_ID":"GRFM3","Station_Nam":"GREENFIELD NO. 3","Latitude":"42.57190","Longitude":"-72.59750","Snowdepth":"10.000","Units":"in","Rept_Date":"2019-12-08 10"},"coordinates":[5544,4303]},{"type":"Point","properties":{"Station_ID":"BRAM5","Station_Nam":"BRAINERD","Latitude":"46.34320","Longitude":"-94.20900","Snowdepth":"10.000","Units":"in","Rept_Date":"2019-12-08 13"},"coordinates":[682,6650]},{"type":"Point","properties":{"Station_ID":"AVTW3","Station_Nam":"ARBOR VITAE-JOHNSON LAKE","Latitude":"45.89940","Longitude":"-89.72670","Snowdepth":"10.000","Units":"in","Rept_Date":"2019-12-08 12"},"coordinates":[1690,6373]},{"type":"Point","properties":{"Station_ID":"AGNW3","Station_Nam":"ARGONNE-1.5 NW","Latitude":"45.67360","Longitude":"-88.90380","Snowdepth":"10.000","Units":"in","Rept_Date":"2019-12-08 13"},"coordinates":[1875,6233]},{"type":"Point","properties":{"Station_ID":"QLP","Station_Nam":"QLP","Latitude":"48.13920","Longitude":"-72.63830","Snowdepth":"9.961","Units":"in","Rept_Date":"2019-12-08 12"},"coordinates":[5535,7767]},{"type":"Point","properties":{"Station_ID":"NY-DT-24","Station_Nam":"RED HOOK 1.2 NNE, NY","Latitude":"42.00967","Longitude":"-73.86419","Snowdepth":"9.800","Units":"in","Rept_Date":"2019-12-08 12"},"coordinates":[5259,3954]},{"type":"Point","properties":{"Station_ID":"MA-ES-48","Station_Nam":"ANDOVER 0.6 E, MA","Latitude":"42.65659","Longitude":"-71.13048","Snowdepth":"9.600","Units":"in","Rept_Date":"2019-12-08 10"},"coordinates":[5874,4356]},{"type":"Point","properties":{"Station_ID":"QLM","Station_Nam":"QLM","Latitude":"48.92030","Longitude":"-70.25280","Snowdepth":"9.528","Units":"in","Rept_Date":"2019-12-08 12"},"coordinates":[6072,8253]},{"type":"Point","properties":{"Station_ID":"WI-SR-1","Station_Nam":"HAYWARD 9.2 NNE, WI","Latitude":"46.13255","Longitude":"-91.40500","Snowdepth":"9.500","Units":"in","Rept_Date":"2019-12-08 12"},"coordinates":[1313,6519]},{"type":"Point","properties":{"Station_ID":"VT-WR-17","Station_Nam":"ROCHESTER 2.3 NE, VT","Latitude":"43.89418","Longitude":"-72.76992","Snowdepth":"9.500","Units":"in","Rept_Date":"2019-12-08 12"},"coordinates":[5505,5126]},{"type":"Point","properties":{"Station_ID":"VT-WH-25","Station_Nam":"PUTNEY 0.7 NE, VT","Latitude":"42.98326","Longitude":"-72.51215","Snowdepth":"9.500","Units":"in","Rept_Date":"2019-12-08 14"},"coordinates":[5563,4559]},{"type":"Point","properties":{"Station_ID":"NY-OT-29","Station_Nam":"NEW BERLIN 1.5 NE, NY","Latitude":"42.63689","Longitude":"-75.31090","Snowdepth":"9.500","Units":"in","Rept_Date":"2019-12-08 13"},"coordinates":[4934,4344]},{"type":"Point","properties":{"Station_ID":"NY-MD-9","Station_Nam":"EARLVILLE 0.4 W, NY","Latitude":"42.73982","Longitude":"-75.55200","Snowdepth":"9.500","Units":"in","Rept_Date":"2019-12-08 12"},"coordinates":[4879,4408]},{"type":"Point","properties":{"Station_ID":"NY-CN-9","Station_Nam":"NORWICH 5.4 W, NY","Latitude":"42.53356","Longitude":"-75.63060","Snowdepth":"9.500","Units":"in","Rept_Date":"2019-12-08 12"},"coordinates":[4862,4279]},{"type":"Point","properties":{"Station_ID":"MA-MD-107","Station_Nam":"FRAMINGHAM 1.7 E, MA","Latitude":"42.30516","Longitude":"-71.40471","Snowdepth":"9.500","Units":"in","Rept_Date":"2019-12-08 12"},"coordinates":[5812,4137]},{"type":"Point","properties":{"Station_ID":"CT-TL-15","Station_Nam":"CENTRAL SOMERS 0.3 N, CT","Latitude":"41.99553","Longitude":"-72.44127","Snowdepth":"9.500","Units":"in","Rept_Date":"2019-12-08 11"},"coordinates":[5579,3945]},{"type":"Point","properties":{"Station_ID":"CT-HR-8","Station_Nam":"NORTH GRANBY 1.3 ENE, CT","Latitude":"42.02440","Longitude":"-72.82070","Snowdepth":"9.500","Units":"in","Rept_Date":"2019-12-08 12"},"coordinates":[5494,3963]},{"type":"Point","properties":{"Station_ID":"SOCQ6","Station_Nam":"SOCKET LAKE","Latitude":"50.77870","Longitude":"-91.79300","Snowdepth":"9.450","Units":"in","Rept_Date":"2019-12-09 06"},"coordinates":[1225,9409]},{"type":"Point","properties":{"Station_ID":"NY-MG-3","Station_Nam":"HESSVILLE 1.8 WSW, NY","Latitude":"42.86430","Longitude":"-74.72140","Snowdepth":"9.300","Units":"in","Rept_Date":"2019-12-08 13"},"coordinates":[5066,4485]},{"type":"Point","properties":{"Station_ID":"QYR","Station_Nam":"QYR","Latitude":"48.87220","Longitude":"-75.61470","Snowdepth":"9.173","Units":"in","Rept_Date":"2019-12-08 12"},"coordinates":[4865,8223]},{"type":"Point","properties":{"Station_ID":"QTV","Station_Nam":"QTV","Latitude":"49.66000","Longitude":"-69.35690","Snowdepth":"9.055","Units":"in","Rept_Date":"2019-12-08 12"},"coordinates":[6273,8713]},{"type":"Point","properties":{"Station_ID":"ZNOM4","Station_Nam":"NORWAY","Latitude":"45.77810","Longitude":"-87.89560","Snowdepth":"9.000","Units":"in","Rept_Date":"2019-12-08 13"},"coordinates":[2102,6298]},{"type":"Point","properties":{"Station_ID":"WTNM4","Station_Nam":"WATTON 2WSW","Latitude":"46.52660","Longitude":"-88.64240","Snowdepth":"9.000","Units":"in","Rept_Date":"2019-12-08 13"},"coordinates":[1934,6764]},{"type":"Point","properties":{"Station_ID":"WSTN6","Station_Nam":"WESTMORELAND 4 N","Latitude":"43.15950","Longitude":"-75.46110","Snowdepth":"9.000","Units":"in","Rept_Date":"2019-12-08 12"},"coordinates":[4900,4669]},{"type":"Point","properties":{"Station_ID":"VT-OL-12","Station_Nam":"GREENSBORO 3.9 NNE, VT","Latitude":"44.63100","Longitude":"-72.28000","Snowdepth":"9.000","Units":"in","Rept_Date":"2019-12-08 13"},"coordinates":[5616,5584]},{"type":"Point","properties":{"Station_ID":"VT-CH-4","Station_Nam":"UNDERHILL 4.4 NNE, VT","Latitude":"44.58774","Longitude":"-72.92250","Snowdepth":"9.000","Units":"in","Rept_Date":"2019-12-08 12"},"coordinates":[5471,5557]},{"type":"Point","properties":{"Station_ID":"VT-AD-20","Station_Nam":"HANCOCK 0.3 S, VT","Latitude":"43.92166","Longitude":"-72.84042","Snowdepth":"9.000","Units":"in","Rept_Date":"2019-12-08 12"},"coordinates":[5489,5143]},{"type":"Point","properties":{"Station_ID":"STIM4","Station_Nam":"ST IGNACE","Latitude":"45.86080","Longitude":"-84.71960","Snowdepth":"9.000","Units":"in","Rept_Date":"2019-12-08 12"},"coordinates":[2817,6349]},{"type":"Point","properties":{"Station_ID":"SRAW3","Station_Nam":"SARONA","Latitude":"45.80250","Longitude":"-91.86700","Snowdepth":"9.000","Units":"in","Rept_Date":"2019-12-08 14"},"coordinates":[1209,6313]},{"type":"Point","properties":{"Station_ID":"RANM1","Station_Nam":"RANGELEY,ME","Latitude":"44.96670","Longitude":"-70.65000","Snowdepth":"9.000","Units":"in","Rept_Date":"2019-12-08 14"},"coordinates":[5982,5793]},{"type":"Point","properties":{"Station_ID":"NY-OG-2","Station_Nam":"DE WITT 1.4 WSW, NY","Latitude":"43.03333","Longitude":"-76.10000","Snowdepth":"9.000","Units":"in","Rept_Date":"2019-12-08 12"},"coordinates":[4756,4590]},{"type":"Point","properties":{"Station_ID":"NY-OD-21","Station_Nam":"ROME 4.8 SSE, NY","Latitude":"43.16000","Longitude":"-75.46000","Snowdepth":"9.000","Units":"in","Rept_Date":"2019-12-08 12"},"coordinates":[4900,4669]},{"type":"Point","properties":{"Station_ID":"NY-MD-10","Station_Nam":"CAZENOVIA 2.9 SE, NY","Latitude":"42.90003","Longitude":"-75.81140","Snowdepth":"9.000","Units":"in","Rept_Date":"2019-12-08 12"},"coordinates":[4821,4507]},{"type":"Point","properties":{"Station_ID":"NY-DL-25","Station_Nam":"HOBART 4.8 ESE, NY","Latitude":"42.35230","Longitude":"-74.57830","Snowdepth":"9.000","Units":"in","Rept_Date":"2019-12-08 12"},"coordinates":[5098,4167]},{"type":"Point","properties":{"Station_ID":"NUNV1","Station_Nam":"NORTH UNDERHILL","Latitude":"44.58760","Longitude":"-72.92150","Snowdepth":"9.000","Units":"in","Rept_Date":"2019-12-08 12"},"coordinates":[5471,5557]},{"type":"Point","properties":{"Station_ID":"NHBN6","Station_Nam":"HEBRON","Latitude":"43.29540","Longitude":"-73.39830","Snowdepth":"9.000","Units":"in","Rept_Date":"2019-12-08 12"},"coordinates":[5364,4753]},{"type":"Point","properties":{"Station_ID":"NFKC3","Station_Nam":"NORFOLK","Latitude":"41.97250","Longitude":"-73.22080","Snowdepth":"9.000","Units":"in","Rept_Date":"2019-12-08 13"},"coordinates":[5404,3930]},{"type":"Point","properties":{"Station_ID":"MXON6","Station_Nam":"MEXICO","Latitude":"43.43830","Longitude":"-76.26560","Snowdepth":"9.000","Units":"in","Rept_Date":"2019-12-08 12"},"coordinates":[4719,4842]},{"type":"Point","properties":{"Station_ID":"MN-SL-115","Station_Nam":"COTTON 5.7 ESE, MN","Latitude":"47.15142","Longitude":"-92.35772","Snowdepth":"9.000","Units":"in","Rept_Date":"2019-12-08 14"},"coordinates":[1098,7152]},{"type":"Point","properties":{"Station_ID":"MIEM4","Station_Nam":"MICHIGAMME 3WNW","Latitude":"46.54530","Longitude":"-88.18000","Snowdepth":"9.000","Units":"in","Rept_Date":"2019-12-08 13"},"coordinates":[2038,6775]},{"type":"Point","properties":{"Station_ID":"MI-OT-17","Station_Nam":"GAYLORD 4.1 S, MI","Latitude":"44.96388","Longitude":"-84.68467","Snowdepth":"9.000","Units":"in","Rept_Date":"2019-12-08 12"},"coordinates":[2825,5791]},{"type":"Point","properties":{"Station_ID":"MECN6","Station_Nam":"MECKLENBURG 4 SW","Latitude":"42.44220","Longitude":"-76.75740","Snowdepth":"9.000","Units":"in","Rept_Date":"2019-12-08 12"},"coordinates":[4608,4223]},{"type":"Point","properties":{"Station_ID":"ME-SM-10","Station_Nam":"NORTH NEW PORTLAND 0.3 WSW, ME","Latitude":"44.92353","Longitude":"-70.02788","Snowdepth":"9.000","Units":"in","Rept_Date":"2019-12-08 12"},"coordinates":[6122,5766]},{"type":"Point","properties":{"Station_ID":"MA-MD-51","Station_Nam":"MAYNARD 0.7 ESE, MA","Latitude":"42.42027","Longitude":"-71.44484","Snowdepth":"9.000","Units":"in","Rept_Date":"2019-12-08 12"},"coordinates":[5803,4209]},{"type":"Point","properties":{"Station_ID":"LOWN6","Station_Nam":"LOWVILLE","Latitude":"43.79280","Longitude":"-75.48290","Snowdepth":"9.000","Units":"in","Rept_Date":"2019-12-08 12"},"coordinates":[4895,5063]},{"type":"Point","properties":{"Station_ID":"LLLM3","Station_Nam":"LOWELL","Latitude":"42.64090","Longitude":"-71.36370","Snowdepth":"9.000","Units":"in","Rept_Date":"2019-12-08 11"},"coordinates":[5822,4346]},{"type":"Point","properties":{"Station_ID":"KPSM","Station_Nam":"PEASE AIR FORCE BASE / PORTSMOUTH","Latitude":"43.08333","Longitude":"-70.81666","Snowdepth":"9.000","Units":"in","Rept_Date":"2019-12-09 00"},"coordinates":[5945,4621]},{"type":"Point","properties":{"Station_ID":"KEEN3","Station_Nam":"KEENE","Latitude":"42.93900","Longitude":"-72.32470","Snowdepth":"9.000","Units":"in","Rept_Date":"2019-12-08 11"},"coordinates":[5605,4532]},{"type":"Point","properties":{"Station_ID":"JKMM1","Station_Nam":"JACKMAN","Latitude":"45.62600","Longitude":"-70.24600","Snowdepth":"9.000","Units":"in","Rept_Date":"2019-12-08 14"},"coordinates":[6073,6203]},{"type":"Point","properties":{"Station_ID":"ISEM5","Station_Nam":"ISLE 12N","Latitude":"46.31970","Longitude":"-93.50140","Snowdepth":"9.000","Units":"in","Rept_Date":"2019-12-08 14"},"coordinates":[841,6635]},{"type":"Point","properties":{"Station_ID":"HGHN6","Station_Nam":"HIGHMARKET","Latitude":"43.57520","Longitude":"-75.52070","Snowdepth":"9.000","Units":"in","Rept_Date":"2019-12-08 11"},"coordinates":[4886,4927]},{"type":"Point","properties":{"Station_ID":"GFK","Station_Nam":"GRAND FORKS INTERNATIONAL AIRPORT","Latitude":"47.94920","Longitude":"-97.17610","Snowdepth":"9.000","Units":"in","Rept_Date":"2019-12-09 00"},"coordinates":[14,7649]},{"type":"Point","properties":{"Station_ID":"GFDN6","Station_Nam":"CHASES LAKE","Latitude":"43.75920","Longitude":"-75.29980","Snowdepth":"9.000","Units":"in","Rept_Date":"2019-12-08 11"},"coordinates":[4936,5042]},{"type":"Point","properties":{"Station_ID":"FISM1","Station_Nam":"FORT KENT COOP","Latitude":"47.23850","Longitude":"-68.61240","Snowdepth":"9.000","Units":"in","Rept_Date":"2019-12-08 12"},"coordinates":[6441,7207]},{"type":"Point","properties":{"Station_ID":"EMBM5","Station_Nam":"EMBARASS,MN","Latitude":"47.65810","Longitude":"-92.19580","Snowdepth":"9.000","Units":"in","Rept_Date":"2019-12-08 14"},"coordinates":[1135,7468]},{"type":"Point","properties":{"Station_ID":"ELYM5","Station_Nam":"ELY","Latitude":"47.90560","Longitude":"-91.82830","Snowdepth":"9.000","Units":"in","Rept_Date":"2019-12-08 14"},"coordinates":[1217,7622]},{"type":"Point","properties":{"Station_ID":"DTVM4","Station_Nam":"DETOUR VILLAGE","Latitude":"45.99830","Longitude":"-83.90130","Snowdepth":"9.000","Units":"in","Rept_Date":"2019-12-08 13"},"coordinates":[3001,6435]},{"type":"Point","properties":{"Station_ID":"APXM4","Station_Nam":"GAYLORD 9SSW","Latitude":"44.90720","Longitude":"-84.71880","Snowdepth":"9.000","Units":"in","Rept_Date":"2019-12-09 05"},"coordinates":[2817,5756]},{"type":"Point","properties":{"Station_ID":"QGA","Station_Nam":"QGA","Latitude":"47.25640","Longitude":"-73.73810","Snowdepth":"8.543","Units":"in","Rept_Date":"2019-12-08 12"},"coordinates":[5287,7218]},{"type":"Point","properties":{"Station_ID":"VT-WS-19","Station_Nam":"WATERBURY 3.0 NW, VT","Latitude":"44.36060","Longitude":"-72.80770","Snowdepth":"8.500","Units":"in","Rept_Date":"2019-12-08 11"},"coordinates":[5497,5416]},{"type":"Point","properties":{"Station_ID":"NY-TG-15","Station_Nam":"BERKSHIRE 1.9 ENE, NY","Latitude":"42.31910","Longitude":"-76.21940","Snowdepth":"8.500","Units":"in","Rept_Date":"2019-12-08 12"},"coordinates":[4729,4146]},{"type":"Point","properties":{"Station_ID":"NY-OT-4","Station_Nam":"BRIDGEWATER 4.3 SSE, NY","Latitude":"42.81667","Longitude":"-75.23330","Snowdepth":"8.500","Units":"in","Rept_Date":"2019-12-08 12"},"coordinates":[4951,4456]},{"type":"Point","properties":{"Station_ID":"NY-OG-46","Station_Nam":"BALDWINSVILLE 3.5 NE, NY","Latitude":"43.19506","Longitude":"-76.28830","Snowdepth":"8.500","Units":"in","Rept_Date":"2019-12-08 13"},"coordinates":[4714,4691]},{"type":"Point","properties":{"Station_ID":"NY-CR-5","Station_Nam":"MARATHON 1.0 NW, NY","Latitude":"42.45161","Longitude":"-76.04370","Snowdepth":"8.500","Units":"in","Rept_Date":"2019-12-08 12"},"coordinates":[4769,4228]},{"type":"Point","properties":{"Station_ID":"MI-MC-4","Station_Nam":"ST. IGNACE 0.5SE, MI","Latitude":"45.86057","Longitude":"-84.71980","Snowdepth":"8.500","Units":"in","Rept_Date":"2019-12-08 12"},"coordinates":[2817,6349]},{"type":"Point","properties":{"Station_ID":"MI-AT-6","Station_Nam":"MANCELONA 0.5 ESE, MI","Latitude":"44.89981","Longitude":"-85.05100","Snowdepth":"8.500","Units":"in","Rept_Date":"2019-12-08 13"},"coordinates":[2742,5752]},{"type":"Point","properties":{"Station_ID":"ME-YK-28","Station_Nam":"BIDDEFORD 1.5 NNE, ME","Latitude":"43.48679","Longitude":"-70.43470","Snowdepth":"8.500","Units":"in","Rept_Date":"2019-12-08 12"},"coordinates":[6031,4872]},{"type":"Point","properties":{"Station_ID":"MA-MD-158","Station_Nam":"SHERBORN 1.1 NW, MA","Latitude":"42.24460","Longitude":"-71.38130","Snowdepth":"8.500","Units":"in","Rept_Date":"2019-12-08 11"},"coordinates":[5818,4100]},{"type":"Point","properties":{"Station_ID":"MA-MD-12","Station_Nam":"ACTON 1.3 SW, MA","Latitude":"42.46746","Longitude":"-71.48200","Snowdepth":"8.500","Units":"in","Rept_Date":"2019-12-08 12"},"coordinates":[5795,4238]},{"type":"Point","properties":{"Station_ID":"CAN-ON-118","Station_Nam":"DURHAM 1.4 S, CAN","Latitude":"44.16525","Longitude":"-80.82064","Snowdepth":"8.500","Units":"in","Rept_Date":"2019-12-08 12"},"coordinates":[3694,5295]},{"type":"Point","properties":{"Station_ID":"QIQ","Station_Nam":"QIQ","Latitude":"49.82390","Longitude":"-68.54310","Snowdepth":"8.031","Units":"in","Rept_Date":"2019-12-08 12"},"coordinates":[6456,8815]},{"type":"Point","properties":{"Station_ID":"WI-DR-5","Station_Nam":"ELLISON BAY 2.2 E, WI","Latitude":"45.25750","Longitude":"-87.02670","Snowdepth":"8.000","Units":"in","Rept_Date":"2019-12-08 13"},"coordinates":[2298,5974]},{"type":"Point","properties":{"Station_ID":"WI-BR-2","Station_Nam":"CHETEK 2.0 SE, WI","Latitude":"45.29427","Longitude":"-91.62470","Snowdepth":"8.000","Units":"in","Rept_Date":"2019-12-08 13"},"coordinates":[1263,5997]},{"type":"Point","properties":{"Station_ID":"WALN6","Station_Nam":"WALTON 2","Latitude":"42.18470","Longitude":"-75.14550","Snowdepth":"8.000","Units":"in","Rept_Date":"2019-12-08 10"},"coordinates":[4971,4062]},{"type":"Point","properties":{"Station_ID":"VT-WS-10","Station_Nam":"NORTHFIELD 1.5 N, VT","Latitude":"44.16986","Longitude":"-72.65200","Snowdepth":"8.000","Units":"in","Rept_Date":"2019-12-08 12"},"coordinates":[5532,5297]},{"type":"Point","properties":{"Station_ID":"VT-WH-17","Station_Nam":"ROCKINGHAM 1.1 NNE, VT","Latitude":"43.20388","Longitude":"-72.48222","Snowdepth":"8.000","Units":"in","Rept_Date":"2019-12-08 12"},"coordinates":[5570,4696]},{"type":"Point","properties":{"Station_ID":"TOPM1","Station_Nam":"TOPSFIELD","Latitude":"45.43470","Longitude":"-67.72020","Snowdepth":"8.000","Units":"in","Rept_Date":"2019-12-08 12"},"coordinates":[6641,6084]},{"type":"Point","properties":{"Station_ID":"SHBN6","Station_Nam":"SHERBURNE","Latitude":"42.67730","Longitude":"-75.50660","Snowdepth":"8.000","Units":"in","Rept_Date":"2019-12-08 16"},"coordinates":[4890,4369]},{"type":"Point","properties":{"Station_ID":"SBRM3","Station_Nam":"SOUTHBRIDGE","Latitude":"42.05830","Longitude":"-72.07210","Snowdepth":"8.000","Units":"in","Rept_Date":"2019-12-08 12"},"coordinates":[5662,3984]},{"type":"Point","properties":{"Station_ID":"SAUW3","Station_Nam":"WAUSAU WSAW TV","Latitude":"44.94630","Longitude":"-89.62220","Snowdepth":"8.000","Units":"in","Rept_Date":"2019-12-09 04"},"coordinates":[1714,5781]},{"type":"Point","properties":{"Station_ID":"RHI","Station_Nam":"RHINELANDER-ONEIDA COUNTY AIRPORT","Latitude":"45.63080","Longitude":"-89.46530","Snowdepth":"8.000","Units":"in","Rept_Date":"2019-12-08 12"},"coordinates":[1749,6206]},{"type":"Point","properties":{"Station_ID":"PTBN3","Station_Nam":"DAM WITHIN","Latitude":"45.05000","Longitude":"-71.38330","Snowdepth":"8.000","Units":"in","Rept_Date":"2019-12-08 12"},"coordinates":[5817,5845]},{"type":"Point","properties":{"Station_ID":"ORAN3","Station_Nam":"ORANGE","Latitude":"43.66880","Longitude":"-71.94830","Snowdepth":"8.000","Units":"in","Rept_Date":"2019-12-08 12"},"coordinates":[5690,4986]},{"type":"Point","properties":{"Station_ID":"NY-WS-8","Station_Nam":"GRANVILLE 9.5 SW, NY","Latitude":"43.31163","Longitude":"-73.39613","Snowdepth":"8.000","Units":"in","Rept_Date":"2019-12-08 13"},"coordinates":[5364,4764]},{"type":"Point","properties":{"Station_ID":"NY-OG-72","Station_Nam":"LIVERPOOL 4.5 N, NY","Latitude":"43.17016","Longitude":"-76.22385","Snowdepth":"8.000","Units":"in","Rept_Date":"2019-12-08 13"},"coordinates":[4728,4675]},{"type":"Point","properties":{"Station_ID":"NY-DT-37","Station_Nam":"RHINEBECK 3.4 N, NY","Latitude":"41.97735","Longitude":"-73.90559","Snowdepth":"8.000","Units":"in","Rept_Date":"2019-12-08 12"},"coordinates":[5250,3933]},{"type":"Point","properties":{"Station_ID":"NH-MR-60","Station_Nam":"SOUTH SUTTON 1.3 SE, NH","Latitude":"43.29531","Longitude":"-71.90238","Snowdepth":"8.000","Units":"in","Rept_Date":"2019-12-08 13"},"coordinates":[5700,4753]},{"type":"Point","properties":{"Station_ID":"NH-MR-6","Station_Nam":"DANBURY 2.2 ESE, NH","Latitude":"43.52000","Longitude":"-71.81900","Snowdepth":"8.000","Units":"in","Rept_Date":"2019-12-08 13"},"coordinates":[5719,4893]},{"type":"Point","properties":{"Station_ID":"NH-MR-4","Station_Nam":"BOW 1.6 NW, NH","Latitude":"43.14994","Longitude":"-71.55650","Snowdepth":"8.000","Units":"in","Rept_Date":"2019-12-08 12"},"coordinates":[5778,4663]},{"type":"Point","properties":{"Station_ID":"NH-MR-25","Station_Nam":"CHICHESTER 2.7 SSW, NH","Latitude":"43.21150","Longitude":"-71.41430","Snowdepth":"8.000","Units":"in","Rept_Date":"2019-12-08 12"},"coordinates":[5810,4701]},{"type":"Point","properties":{"Station_ID":"MN-CY-20","Station_Nam":"HAWLEY 5.2 WNW, MN","Latitude":"46.91652","Longitude":"-96.41147","Snowdepth":"8.000","Units":"in","Rept_Date":"2019-12-08 13"},"coordinates":[186,7006]},{"type":"Point","properties":{"Station_ID":"MN-CW-22","Station_Nam":"FORT RIPLEY 0.8 N, MN","Latitude":"46.18089","Longitude":"-94.36510","Snowdepth":"8.000","Units":"in","Rept_Date":"2019-12-08 13"},"coordinates":[647,6549]},{"type":"Point","properties":{"Station_ID":"MA-WR-42","Station_Nam":"NORTHBOROUGH 2.3 N, MA","Latitude":"42.34535","Longitude":"-71.64390","Snowdepth":"8.000","Units":"in","Rept_Date":"2019-12-08 12"},"coordinates":[5759,4162]},{"type":"Point","properties":{"Station_ID":"MA-WR-18","Station_Nam":"NORTHBOROUGH 0.6 SSE, MA","Latitude":"42.30367","Longitude":"-71.64620","Snowdepth":"8.000","Units":"in","Rept_Date":"2019-12-08 13"},"coordinates":[5758,4136]},{"type":"Point","properties":{"Station_ID":"MA-MD-89","Station_Nam":"SUDBURY 3.6 W, MA","Latitude":"42.36394","Longitude":"-71.47012","Snowdepth":"8.000","Units":"in","Rept_Date":"2019-12-08 12"},"coordinates":[5798,4174]},{"type":"Point","properties":{"Station_ID":"MA-MD-52","Station_Nam":"LEXINGTON 0.6 SW, MA","Latitude":"42.43983","Longitude":"-71.24047","Snowdepth":"8.000","Units":"in","Rept_Date":"2019-12-08 12"},"coordinates":[5849,4221]},{"type":"Point","properties":{"Station_ID":"LEIM5","Station_Nam":"ORR 3E","Latitude":"48.05810","Longitude":"-92.75220","Snowdepth":"8.000","Units":"in","Rept_Date":"2019-12-08 12"},"coordinates":[1009,7716]},{"type":"Point","properties":{"Station_ID":"KBDL","Station_Nam":"BRADLEY INTERNATIONAL AIRPORT","Latitude":"41.93333","Longitude":"-72.68333","Snowdepth":"8.000","Units":"in","Rept_Date":"2019-12-09 06"},"coordinates":[5525,3906]},{"type":"Point","properties":{"Station_ID":"JOHV1","Station_Nam":"JOHNSON 2 N","Latitude":"44.65790","Longitude":"-72.67850","Snowdepth":"8.000","Units":"in","Rept_Date":"2019-12-08 12"},"coordinates":[5526,5601]},{"type":"Point","properties":{"Station_ID":"JEFN3","Station_Nam":"JEFFERSON","Latitude":"44.41690","Longitude":"-71.50080","Snowdepth":"8.000","Units":"in","Rept_Date":"2019-12-08 12"},"coordinates":[5791,5451]},{"type":"Point","properties":{"Station_ID":"INDN6","Station_Nam":"INDIAN LAKE","Latitude":"43.75500","Longitude":"-74.27560","Snowdepth":"8.000","Units":"in","Rept_Date":"2019-12-08 15"},"coordinates":[5167,5039]},{"type":"Point","properties":{"Station_ID":"ESDN6","Station_Nam":"EAST SIDNEY","Latitude":"42.33290","Longitude":"-75.22960","Snowdepth":"8.000","Units":"in","Rept_Date":"2019-12-08 14"},"coordinates":[4952,4155]},{"type":"Point","properties":{"Station_ID":"CT-HR-28","Station_Nam":"NORTH CANTON 0.8 SSW, CT","Latitude":"41.88514","Longitude":"-72.89729","Snowdepth":"8.000","Units":"in","Rept_Date":"2019-12-08 12"},"coordinates":[5477,3876]},{"type":"Point","properties":{"Station_ID":"CORV1","Station_Nam":"CORINTH","Latitude":"44.00690","Longitude":"-72.31940","Snowdepth":"8.000","Units":"in","Rept_Date":"2019-12-08 12"},"coordinates":[5607,5196]},{"type":"Point","properties":{"Station_ID":"BALW3","Station_Nam":"BALDWIN","Latitude":"44.96330","Longitude":"-92.39050","Snowdepth":"8.000","Units":"in","Rept_Date":"2019-12-08 13"},"coordinates":[1091,5791]},{"type":"Point","properties":{"Station_ID":"AUW","Station_Nam":"WAUSAU MUNICIPAL AIRPORT","Latitude":"44.92580","Longitude":"-89.62560","Snowdepth":"8.000","Units":"in","Rept_Date":"2019-12-08 12"},"coordinates":[1713,5768]},{"type":"Point","properties":{"Station_ID":"AHRM3","Station_Nam":"AMHERST","Latitude":"42.38610","Longitude":"-72.53750","Snowdepth":"8.000","Units":"in","Rept_Date":"2019-12-08 12"},"coordinates":[5558,4188]},{"type":"Point","properties":{"Station_ID":"CAN-NB-98","Station_Nam":"HOYT 4.2 S, CAN","Latitude":"45.54763","Longitude":"-66.55440","Snowdepth":"7.900","Units":"in","Rept_Date":"2019-12-08 11"},"coordinates":[6904,6155]},{"type":"Point","properties":{"Station_ID":"FTHQ6","Station_Nam":"FORT HOPE","Latitude":"51.55820","Longitude":"-87.90510","Snowdepth":"7.870","Units":"in","Rept_Date":"2019-12-09 06"},"coordinates":[2100,9894]},{"type":"Point","properties":{"Station_ID":"VT-CH-11","Station_Nam":"UNDERHILL 5.1 NNE, VT","Latitude":"44.59811","Longitude":"-72.91880","Snowdepth":"7.500","Units":"in","Rept_Date":"2019-12-08 13"},"coordinates":[5472,5564]},{"type":"Point","properties":{"Station_ID":"NY-UL-16","Station_Nam":"ROSENDALE VILLAGE 1.8 WNW, NY","Latitude":"41.86083","Longitude":"-74.10750","Snowdepth":"7.500","Units":"in","Rept_Date":"2019-12-08 12"},"coordinates":[5204,3861]},{"type":"Point","properties":{"Station_ID":"NY-FK-9","Station_Nam":"GABRIELS 1.3 SE, NY","Latitude":"44.41934","Longitude":"-74.16194","Snowdepth":"7.500","Units":"in","Rept_Date":"2019-12-08 12"},"coordinates":[5192,5453]},{"type":"Point","properties":{"Station_ID":"NY-CY-8","Station_Nam":"AUBURN 8.3 SSE, NY","Latitude":"42.82869","Longitude":"-76.48670","Snowdepth":"7.500","Units":"in","Rept_Date":"2019-12-08 11"},"coordinates":[4669,4463]},{"type":"Point","properties":{"Station_ID":"NY-BM-14","Station_Nam":"WHITNEY POINT 1.7 SSE, NY","Latitude":"42.30837","Longitude":"-75.95690","Snowdepth":"7.500","Units":"in","Rept_Date":"2019-12-08 12"},"coordinates":[4788,4139]},{"type":"Point","properties":{"Station_ID":"MN-SL-108","Station_Nam":"IRON JUNCTION 3.4 NNW, MN","Latitude":"47.46150","Longitude":"-92.63130","Snowdepth":"7.500","Units":"in","Rept_Date":"2019-12-08 13"},"coordinates":[1037,7345]},{"type":"Point","properties":{"Station_ID":"NY-WN-18","Station_Nam":"MACEDON 2.6 ESE, NY","Latitude":"43.05200","Longitude":"-77.25700","Snowdepth":"7.400","Units":"in","Rept_Date":"2019-12-08 11"},"coordinates":[4496,4602]},{"type":"Point","properties":{"Station_ID":"NY-OD-42","Station_Nam":"WHITESBORO 2.3 SW, NY","Latitude":"43.10017","Longitude":"-75.32940","Snowdepth":"7.200","Units":"in","Rept_Date":"2019-12-08 12"},"coordinates":[4929,4632]},{"type":"Point","properties":{"Station_ID":"KABQ6","Station_Nam":"CAB LAKE","Latitude":"49.59950","Longitude":"-89.17990","Snowdepth":"7.170","Units":"in","Rept_Date":"2019-12-09 06"},"coordinates":[1813,8675]},{"type":"Point","properties":{"Station_ID":"CATQ6","Station_Nam":"CAT LAKE","Latitude":"51.72690","Longitude":"-91.82210","Snowdepth":"7.090","Units":"in","Rept_Date":"2019-12-09 06"},"coordinates":[1219,9999]},{"type":"Point","properties":{"Station_ID":"WRSN6","Station_Nam":"WARSAW 6SW","Latitude":"42.68550","Longitude":"-78.22020","Snowdepth":"7.000","Units":"in","Rept_Date":"2019-12-08 12"},"coordinates":[4279,4374]},{"type":"Point","properties":{"Station_ID":"WI-DN-15","Station_Nam":"MENOMONIE 0.9 NW, WI","Latitude":"44.89832","Longitude":"-91.92398","Snowdepth":"7.000","Units":"in","Rept_Date":"2019-12-08 13"},"coordinates":[1196,5751]},{"type":"Point","properties":{"Station_ID":"WI-CH-7","Station_Nam":"CHIPPEWA FALLS 1.2 E, WI","Latitude":"44.92920","Longitude":"-91.36730","Snowdepth":"7.000","Units":"in","Rept_Date":"2019-12-08 13"},"coordinates":[1321,5770]},{"type":"Point","properties":{"Station_ID":"WBSN6","Station_Nam":"WEBSTER 2 NE","Latitude":"43.24190","Longitude":"-77.38820","Snowdepth":"7.000","Units":"in","Rept_Date":"2019-12-09 01"},"coordinates":[4466,4720]},{"type":"Point","properties":{"Station_ID":"WASW3","Station_Nam":"WASHINGTON IS","Latitude":"45.35800","Longitude":"-86.89110","Snowdepth":"7.000","Units":"in","Rept_Date":"2019-12-08 13"},"coordinates":[2328,6037]},{"type":"Point","properties":{"Station_ID":"VT-WR-2","Station_Nam":"POMFRET 2.6 N, VT","Latitude":"43.74230","Longitude":"-72.52550","Snowdepth":"7.000","Units":"in","Rept_Date":"2019-12-08 12"},"coordinates":[5560,5031]},{"type":"Point","properties":{"Station_ID":"VT-OL-1","Station_Nam":"WESTFIELD 0.7 WNW, VT","Latitude":"44.89160","Longitude":"-72.44350","Snowdepth":"7.000","Units":"in","Rept_Date":"2019-12-08 12"},"coordinates":[5579,5746]},{"type":"Point","properties":{"Station_ID":"VT-CH-13","Station_Nam":"RICHMOND 3.4 SSE, VT","Latitude":"44.36084","Longitude":"-72.96400","Snowdepth":"7.000","Units":"in","Rept_Date":"2019-12-08 12"},"coordinates":[5462,5416]},{"type":"Point","properties":{"Station_ID":"VT-AD-24","Station_Nam":"MIDDLEBURY 0.3 N, VT","Latitude":"44.01808","Longitude":"-73.16844","Snowdepth":"7.000","Units":"in","Rept_Date":"2019-12-08 09"},"coordinates":[5416,5203]},{"type":"Point","properties":{"Station_ID":"THEN6","Station_Nam":"THERESA 4 NW","Latitude":"44.27540","Longitude":"-75.83690","Snowdepth":"7.000","Units":"in","Rept_Date":"2019-12-08 14"},"coordinates":[4815,5363]},{"type":"Point","properties":{"Station_ID":"SHHW3","Station_Nam":"SHAWANO 2SSW","Latitude":"44.76310","Longitude":"-88.61830","Snowdepth":"7.000","Units":"in","Rept_Date":"2019-12-08 14"},"coordinates":[1940,5667]},{"type":"Point","properties":{"Station_ID":"RRLW3","Station_Nam":"MERRILL,WI","Latitude":"45.17860","Longitude":"-89.66170","Snowdepth":"7.000","Units":"in","Rept_Date":"2019-12-08 14"},"coordinates":[1705,5925]},{"type":"Point","properties":{"Station_ID":"RHRW3","Station_Nam":"RHINELANDER WJFW TV-12","Latitude":"45.62220","Longitude":"-89.41000","Snowdepth":"7.000","Units":"in","Rept_Date":"2019-12-09 04"},"coordinates":[1761,6201]},{"type":"Point","properties":{"Station_ID":"PLEP1","Station_Nam":"PLEASANT MOUNT 1 W","Latitude":"41.73940","Longitude":"-75.44650","Snowdepth":"7.000","Units":"in","Rept_Date":"2019-12-08 13"},"coordinates":[4903,3785]},{"type":"Point","properties":{"Station_ID":"OXFM3","Station_Nam":"BUFFUMVILLE LAKE","Latitude":"42.11630","Longitude":"-71.90740","Snowdepth":"7.000","Units":"in","Rept_Date":"2019-12-08 12"},"coordinates":[5699,4020]},{"type":"Point","properties":{"Station_ID":"NY-OS-15","Station_Nam":"MINETTO 0.1 SE, NY","Latitude":"43.39771","Longitude":"-76.47960","Snowdepth":"7.000","Units":"in","Rept_Date":"2019-12-08 12"},"coordinates":[4671,4817]},{"type":"Point","properties":{"Station_ID":"NY-FK-7","Station_Nam":"SARANAC LAKE 6.2 N, NY","Latitude":"44.41359","Longitude":"-74.15211","Snowdepth":"7.000","Units":"in","Rept_Date":"2019-12-08 12"},"coordinates":[5194,5449]},{"type":"Point","properties":{"Station_ID":"NY-DL-24","Station_Nam":"WALTON 6.5 W, NY","Latitude":"42.16534","Longitude":"-75.25850","Snowdepth":"7.000","Units":"in","Rept_Date":"2019-12-08 12"},"coordinates":[4945,4050]},{"type":"Point","properties":{"Station_ID":"NVLV1","Station_Nam":"NASHVILLE","Latitude":"44.44970","Longitude":"-72.92640","Snowdepth":"7.000","Units":"in","Rept_Date":"2019-12-08 12"},"coordinates":[5470,5472]},{"type":"Point","properties":{"Station_ID":"ND-GF-13","Station_Nam":"GRAND FORKS 3.7 SSE, ND","Latitude":"47.86533","Longitude":"-97.04935","Snowdepth":"7.000","Units":"in","Rept_Date":"2019-12-08 13"},"coordinates":[43,7597]},{"type":"Point","properties":{"Station_ID":"NCKN6","Station_Nam":"NORTH CREEK 5 SE","Latitude":"43.66110","Longitude":"-73.89690","Snowdepth":"7.000","Units":"in","Rept_Date":"2019-12-08 12"},"coordinates":[5252,4981]},{"type":"Point","properties":{"Station_ID":"MRAM5","Station_Nam":"MORA","Latitude":"45.87760","Longitude":"-93.31470","Snowdepth":"7.000","Units":"in","Rept_Date":"2019-12-08 13"},"coordinates":[883,6360]},{"type":"Point","properties":{"Station_ID":"MI-CX-7","Station_Nam":"EAST JORDAN 2.1 NNW, MI","Latitude":"45.18639","Longitude":"-85.14750","Snowdepth":"7.000","Units":"in","Rept_Date":"2019-12-08 13"},"coordinates":[2720,5930]},{"type":"Point","properties":{"Station_ID":"MEDW3","Station_Nam":"MEDFORD","Latitude":"45.13080","Longitude":"-90.34390","Snowdepth":"7.000","Units":"in","Rept_Date":"2019-12-08 14"},"coordinates":[1551,5895]},{"type":"Point","properties":{"Station_ID":"ME-YK-5","Station_Nam":"KENNEBUNK 1.8 WNW, ME","Latitude":"43.39320","Longitude":"-70.58060","Snowdepth":"7.000","Units":"in","Rept_Date":"2019-12-08 12"},"coordinates":[5998,4814]},{"type":"Point","properties":{"Station_ID":"ME-SG-1","Station_Nam":"BATH 1.1 WSW, ME","Latitude":"43.93063","Longitude":"-69.85730","Snowdepth":"7.000","Units":"in","Rept_Date":"2019-12-08 12"},"coordinates":[6161,5149]},{"type":"Point","properties":{"Station_ID":"ME-LN-21","Station_Nam":"WESTPORT ISLAND 2.2 SSW, ME","Latitude":"43.88806","Longitude":"-69.70890","Snowdepth":"7.000","Units":"in","Rept_Date":"2019-12-08 13"},"coordinates":[6194,5122]},{"type":"Point","properties":{"Station_ID":"ME-CM-125","Station_Nam":"CUMBERLAND CENTER 4.4 NW, ME","Latitude":"43.84640","Longitude":"-70.31340","Snowdepth":"7.000","Units":"in","Rept_Date":"2019-12-08 12"},"coordinates":[6058,5096]},{"type":"Point","properties":{"Station_ID":"LWMM3","Station_Nam":"LAWRENCE","Latitude":"42.69930","Longitude":"-71.16590","Snowdepth":"7.000","Units":"in","Rept_Date":"2019-12-08 12"},"coordinates":[5866,4383]},{"type":"Point","properties":{"Station_ID":"LUCW3","Station_Nam":"LUCK","Latitude":"45.57330","Longitude":"-92.48520","Snowdepth":"7.000","Units":"in","Rept_Date":"2019-12-08 15"},"coordinates":[1069,6171]},{"type":"Point","properties":{"Station_ID":"LNGM5","Station_Nam":"LONG PRAIRIE","Latitude":"45.96460","Longitude":"-94.88920","Snowdepth":"7.000","Units":"in","Rept_Date":"2019-12-08 12"},"coordinates":[529,6414]},{"type":"Point","properties":{"Station_ID":"LEWM4","Station_Nam":"LEWISTON 3W","Latitude":"44.88210","Longitude":"-84.36540","Snowdepth":"7.000","Units":"in","Rept_Date":"2019-12-08 13"},"coordinates":[2896,5741]},{"type":"Point","properties":{"Station_ID":"LDSW3","Station_Nam":"LADYSMITH 3W","Latitude":"45.46510","Longitude":"-91.12360","Snowdepth":"7.000","Units":"in","Rept_Date":"2019-12-08 11"},"coordinates":[1376,6103]},{"type":"Point","properties":{"Station_ID":"KSYR","Station_Nam":"SYRACUSE HANCOCK INTERNATIONAL  AIRPORT","Latitude":"43.11666","Longitude":"-76.10000","Snowdepth":"7.000","Units":"in","Rept_Date":"2019-12-09 06"},"coordinates":[4756,4642]},{"type":"Point","properties":{"Station_ID":"JEFV1","Station_Nam":"JEFFERSONVILLE","Latitude":"44.58430","Longitude":"-72.78700","Snowdepth":"7.000","Units":"in","Rept_Date":"2019-12-08 12"},"coordinates":[5501,5555]},{"type":"Point","properties":{"Station_ID":"HGHN4","Station_Nam":"HIGHLAND LAKES 1SW","Latitude":"41.16330","Longitude":"-74.45930","Snowdepth":"7.000","Units":"in","Rept_Date":"2019-12-08 10"},"coordinates":[5125,3427]},{"type":"Point","properties":{"Station_ID":"GNEN6","Station_Nam":"GREENE","Latitude":"42.32440","Longitude":"-75.77170","Snowdepth":"7.000","Units":"in","Rept_Date":"2019-12-08 12"},"coordinates":[4830,4149]},{"type":"Point","properties":{"Station_ID":"EPMW3","Station_Nam":"EPHRAIM-1 NE WWTP","Latitude":"45.17080","Longitude":"-87.15360","Snowdepth":"7.000","Units":"in","Rept_Date":"2019-12-08 13"},"coordinates":[2269,5920]},{"type":"Point","properties":{"Station_ID":"EJNM4","Station_Nam":"EAST JORDAN 2NW","Latitude":"45.18630","Longitude":"-85.14770","Snowdepth":"7.000","Units":"in","Rept_Date":"2019-12-08 13"},"coordinates":[2720,5930]},{"type":"Point","properties":{"Station_ID":"COKM5","Station_Nam":"COOK","Latitude":"47.85060","Longitude":"-92.69250","Snowdepth":"7.000","Units":"in","Rept_Date":"2019-12-08 12"},"coordinates":[1023,7587]},{"type":"Point","properties":{"Station_ID":"CHPW3","Station_Nam":"CHIPPEWA FALLS","Latitude":"44.92770","Longitude":"-91.40810","Snowdepth":"7.000","Units":"in","Rept_Date":"2019-12-08 14"},"coordinates":[1312,5769]},{"type":"Point","properties":{"Station_ID":"BTHM1","Station_Nam":"BATH","Latitude":"43.93160","Longitude":"-69.85640","Snowdepth":"7.000","Units":"in","Rept_Date":"2019-12-08 12"},"coordinates":[6161,5149]},{"type":"Point","properties":{"Station_ID":"BREW3","Station_Nam":"SURING","Latitude":"44.99580","Longitude":"-88.37860","Snowdepth":"7.000","Units":"in","Rept_Date":"2019-12-08 14"},"coordinates":[1993,5811]},{"type":"Point","properties":{"Station_ID":"BGMN6","Station_Nam":"BINGHAMTON WFO","Latitude":"42.21160","Longitude":"-75.98580","Snowdepth":"7.000","Units":"in","Rept_Date":"2019-12-09 05"},"coordinates":[4782,4079]},{"type":"Point","properties":{"Station_ID":"ADDN6","Station_Nam":"ADDISON","Latitude":"42.10130","Longitude":"-77.23440","Snowdepth":"7.000","Units":"in","Rept_Date":"2019-12-08 12"},"coordinates":[4501,4011]},{"type":"Point","properties":{"Station_ID":"QMA","Station_Nam":"QMA","Latitude":"50.10330","Longitude":"-70.47190","Snowdepth":"6.968","Units":"in","Rept_Date":"2019-12-08 12"},"coordinates":[6022,8989]},{"type":"Point","properties":{"Station_ID":"CAN-NS-94","Station_Nam":"MARGAREE FORKS 2.6 SSE CBN, CAN","Latitude":"46.30937","Longitude":"-61.07603","Snowdepth":"6.900","Units":"in","Rept_Date":"2019-12-08 13"},"coordinates":[8136,6629]},{"type":"Point","properties":{"Station_ID":"CAN-NL-81","Station_Nam":"GRAND FALLS-WINDSOR 1.2 S, CAN","Latitude":"48.93123","Longitude":"-55.65333","Snowdepth":"6.700","Units":"in","Rept_Date":"2019-12-08 10"},"coordinates":[9356,8260]},{"type":"Point","properties":{"Station_ID":"WI-EC-23","Station_Nam":"EAU CLAIRE 3.7 S, WI","Latitude":"44.76858","Longitude":"-91.49898","Snowdepth":"6.500","Units":"in","Rept_Date":"2019-12-08 21"},"coordinates":[1291,5670]},{"type":"Point","properties":{"Station_ID":"WI-DR-6","Station_Nam":"SISTER BAY 1.3 NNE, WI","Latitude":"45.20296","Longitude":"-87.11326","Snowdepth":"6.500","Units":"in","Rept_Date":"2019-12-08 12"},"coordinates":[2278,5940]},{"type":"Point","properties":{"Station_ID":"VT-RT-7","Station_Nam":"RUTLAND 1.2 N, VT","Latitude":"43.62533","Longitude":"-72.97790","Snowdepth":"6.500","Units":"in","Rept_Date":"2019-12-08 12"},"coordinates":[5459,4959]},{"type":"Point","properties":{"Station_ID":"VT-OL-9","Station_Nam":"GREENSBORO 2.1 NNW, VT","Latitude":"44.60528","Longitude":"-72.30940","Snowdepth":"6.500","Units":"in","Rept_Date":"2019-12-08 12"},"coordinates":[5609,5568]},{"type":"Point","properties":{"Station_ID":"NY-SY-1","Station_Nam":"SMITH VALLEY 1.9 SE, NY","Latitude":"42.39072","Longitude":"-76.71760","Snowdepth":"6.500","Units":"in","Rept_Date":"2019-12-08 12"},"coordinates":[4617,4191]},{"type":"Point","properties":{"Station_ID":"NY-DL-23","Station_Nam":"LONG EDDY 6.5 NNE, NY","Latitude":"41.93510","Longitude":"-75.07840","Snowdepth":"6.500","Units":"in","Rept_Date":"2019-12-08 13"},"coordinates":[4986,3907]},{"type":"Point","properties":{"Station_ID":"NJ-SS-54","Station_Nam":"SPARTA TWP 3.6 SSW, NJ","Latitude":"41.00503","Longitude":"-74.66358","Snowdepth":"6.500","Units":"in","Rept_Date":"2019-12-08 11"},"coordinates":[5079,3328]},{"type":"Point","properties":{"Station_ID":"NH-MR-63","Station_Nam":"SUTTON MILLS 0.1 ENE, NH","Latitude":"43.33522","Longitude":"-71.95126","Snowdepth":"6.500","Units":"in","Rept_Date":"2019-12-08 12"},"coordinates":[5689,4778]},{"type":"Point","properties":{"Station_ID":"MN-WK-5","Station_Nam":"WOLVERTON 1.1 ENE, MN","Latitude":"46.56920","Longitude":"-96.71540","Snowdepth":"6.500","Units":"in","Rept_Date":"2019-12-08 13"},"coordinates":[118,6790]},{"type":"Point","properties":{"Station_ID":"MN-HN-181","Station_Nam":"MINNEAPOLIS 0.4 NE, MN","Latitude":"44.96708","Longitude":"-93.26222","Snowdepth":"6.500","Units":"in","Rept_Date":"2019-12-08 13"},"coordinates":[895,5793]},{"type":"Point","properties":{"Station_ID":"MI-OT-16","Station_Nam":"GAYLORD 2.2 SSE, MI","Latitude":"44.99441","Longitude":"-84.65820","Snowdepth":"6.500","Units":"in","Rept_Date":"2019-12-08 12"},"coordinates":[2831,5810]},{"type":"Point","properties":{"Station_ID":"ME-YK-65","Station_Nam":"NORTH BERWICK 5.3 W, ME","Latitude":"43.29801","Longitude":"-70.83956","Snowdepth":"6.500","Units":"in","Rept_Date":"2019-12-08 13"},"coordinates":[5940,4755]},{"type":"Point","properties":{"Station_ID":"ME-LN-1","Station_Nam":"NEWCASTLE 2.1 SW, ME","Latitude":"44.02767","Longitude":"-69.56860","Snowdepth":"6.500","Units":"in","Rept_Date":"2019-12-08 12"},"coordinates":[6226,5209]},{"type":"Point","properties":{"Station_ID":"ME-CM-86","Station_Nam":"POWNAL 4.1 S, ME","Latitude":"43.85370","Longitude":"-70.17210","Snowdepth":"6.500","Units":"in","Rept_Date":"2019-12-08 12"},"coordinates":[6090,5101]},{"type":"Point","properties":{"Station_ID":"ME-CM-128","Station_Nam":"SOUTH PORTLAND 1.6 S, ME","Latitude":"43.60900","Longitude":"-70.28600","Snowdepth":"6.500","Units":"in","Rept_Date":"2019-12-08 12"},"coordinates":[6064,4949]},{"type":"Point","properties":{"Station_ID":"MA-MD-7","Station_Nam":"WINCHESTER 0.7 SE, MA","Latitude":"42.44594","Longitude":"-71.13580","Snowdepth":"6.500","Units":"in","Rept_Date":"2019-12-08 12"},"coordinates":[5873,4225]},{"type":"Point","properties":{"Station_ID":"MA-ES-12","Station_Nam":"BOXFORD 2.4 S, MA","Latitude":"42.63970","Longitude":"-70.97970","Snowdepth":"6.500","Units":"in","Rept_Date":"2019-12-08 12"},"coordinates":[5908,4345]},{"type":"Point","properties":{"Station_ID":"CT-HR-63","Station_Nam":"WEST HARTFORD 1.1 NNE, CT","Latitude":"41.78213","Longitude":"-72.74506","Snowdepth":"6.500","Units":"in","Rept_Date":"2019-12-08 12"},"coordinates":[5511,3812]},{"type":"Point","properties":{"Station_ID":"NY-OG-71","Station_Nam":"LIVERPOOL 6.1 NNW, NY","Latitude":"43.18876","Longitude":"-76.25193","Snowdepth":"6.300","Units":"in","Rept_Date":"2019-12-08 11"},"coordinates":[4722,4687]},{"type":"Point","properties":{"Station_ID":"NJ-SS-39","Station_Nam":"WANTAGE TWP 1.6 SE, NJ","Latitude":"41.22830","Longitude":"-74.60330","Snowdepth":"6.300","Units":"in","Rept_Date":"2019-12-08 13"},"coordinates":[5093,3467]},{"type":"Point","properties":{"Station_ID":"VT-OL-5","Station_Nam":"DERBY CENTER 1.8 NW, VT","Latitude":"44.97200","Longitude":"-72.14780","Snowdepth":"6.100","Units":"in","Rept_Date":"2019-12-08 12"},"coordinates":[5645,5796]},{"type":"Point","properties":{"Station_ID":"WUNW3","Station_Nam":"WAUSAU-NORTHEAST","Latitude":"44.97310","Longitude":"-89.61690","Snowdepth":"6.000","Units":"in","Rept_Date":"2019-12-08 13"},"coordinates":[1715,5797]},{"type":"Point","properties":{"Station_ID":"WLNM4","Station_Nam":"WELLSTON 1N","Latitude":"44.22940","Longitude":"-85.95690","Snowdepth":"6.000","Units":"in","Rept_Date":"2019-12-08 12"},"coordinates":[2538,5334]},{"type":"Point","properties":{"Station_ID":"WLDM5","Station_Nam":"WILD RIVER STATE PARK","Latitude":"45.52310","Longitude":"-92.74890","Snowdepth":"6.000","Units":"in","Rept_Date":"2019-12-08 14"},"coordinates":[1010,6139]},{"type":"Point","properties":{"Station_ID":"WITN6","Station_Nam":"WHITNEY POINT DAM","Latitude":"42.34180","Longitude":"-75.96530","Snowdepth":"6.000","Units":"in","Rept_Date":"2019-12-08 12"},"coordinates":[4786,4160]},{"type":"Point","properties":{"Station_ID":"WI-CH-3","Station_Nam":"CORNELL 4.1 W, WI","Latitude":"45.17024","Longitude":"-91.23610","Snowdepth":"6.000","Units":"in","Rept_Date":"2019-12-08 14"},"coordinates":[1351,5920]},{"type":"Point","properties":{"Station_ID":"WAIV1","Station_Nam":"WAITSFIELD","Latitude":"44.17560","Longitude":"-72.79610","Snowdepth":"6.000","Units":"in","Rept_Date":"2019-12-08 12"},"coordinates":[5499,5301]},{"type":"Point","properties":{"Station_ID":"VT-WS-15","Station_Nam":"EAST CALAIS 1.5 SW, VT","Latitude":"44.35523","Longitude":"-72.45540","Snowdepth":"6.000","Units":"in","Rept_Date":"2019-12-08 12"},"coordinates":[5576,5413]},{"type":"Point","properties":{"Station_ID":"VT-WS-11","Station_Nam":"WAITSFIELD 1.8 SE, VT","Latitude":"44.17551","Longitude":"-72.79540","Snowdepth":"6.000","Units":"in","Rept_Date":"2019-12-08 12"},"coordinates":[5500,5301]},{"type":"Point","properties":{"Station_ID":"VT-RT-24","Station_Nam":"MIDDLETOWN SPRINGS 0.9 WNW, VT","Latitude":"43.49194","Longitude":"-73.13350","Snowdepth":"6.000","Units":"in","Rept_Date":"2019-12-08 12"},"coordinates":[5423,4876]},{"type":"Point","properties":{"Station_ID":"VT-OG-11","Station_Nam":"VERSHIRE 1.5 ESE, VT","Latitude":"43.96138","Longitude":"-72.29777","Snowdepth":"6.000","Units":"in","Rept_Date":"2019-12-08 13"},"coordinates":[5612,5168]},{"type":"Point","properties":{"Station_ID":"VT-ES-3","Station_Nam":"LUNENBURG 2.3 NNW, VT","Latitude":"44.49324","Longitude":"-71.70446","Snowdepth":"6.000","Units":"in","Rept_Date":"2019-12-08 10"},"coordinates":[5745,5499]},{"type":"Point","properties":{"Station_ID":"TOPN6","Station_Nam":"TUPPER LAKE SUNMOUNT","Latitude":"44.23070","Longitude":"-74.43820","Snowdepth":"6.000","Units":"in","Rept_Date":"2019-12-08 12"},"coordinates":[5130,5335]},{"type":"Point","properties":{"Station_ID":"SUXN4","Station_Nam":"SUSSEX 3 WNW","Latitude":"41.20000","Longitude":"-74.60000","Snowdepth":"6.000","Units":"in","Rept_Date":"2019-12-08 12"},"coordinates":[5094,3450]},{"type":"Point","properties":{"Station_ID":"SSMM4","Station_Nam":"SAULT STE MARIE","Latitude":"46.48660","Longitude":"-84.40250","Snowdepth":"6.000","Units":"in","Rept_Date":"2019-12-08 13"},"coordinates":[2888,6739]},{"type":"Point","properties":{"Station_ID":"SIBI4","Station_Nam":"SIBLEY","Latitude":"43.40470","Longitude":"-95.74830","Snowdepth":"6.000","Units":"in","Rept_Date":"2019-12-08 13"},"coordinates":[335,4821]},{"type":"Point","properties":{"Station_ID":"SFVC3","Station_Nam":"STAFFORDVILLE","Latitude":"41.99840","Longitude":"-72.26060","Snowdepth":"6.000","Units":"in","Rept_Date":"2019-12-08 10"},"coordinates":[5620,3946]},{"type":"Point","properties":{"Station_ID":"RUTV1","Station_Nam":"RUTLAND","Latitude":"43.62530","Longitude":"-72.97810","Snowdepth":"6.000","Units":"in","Rept_Date":"2019-12-08 12"},"coordinates":[5458,4959]},{"type":"Point","properties":{"Station_ID":"RSTW3","Station_Nam":"ROSHOLT","Latitude":"44.62710","Longitude":"-89.30600","Snowdepth":"6.000","Units":"in","Rept_Date":"2019-12-08 14"},"coordinates":[1785,5582]},{"type":"Point","properties":{"Station_ID":"PSHW3","Station_Nam":"PESHTIGO","Latitude":"45.02810","Longitude":"-87.73560","Snowdepth":"6.000","Units":"in","Rept_Date":"2019-12-08 13"},"coordinates":[2138,5831]},{"type":"Point","properties":{"Station_ID":"PA-PK-22","Station_Nam":"MILFORD 8.7 NW, PA","Latitude":"41.42018","Longitude":"-74.90953","Snowdepth":"6.000","Units":"in","Rept_Date":"2019-12-08 12"},"coordinates":[5024,3587]},{"type":"Point","properties":{"Station_ID":"OTTM5","Station_Nam":"OTTERTAIL,MN","Latitude":"46.41670","Longitude":"-95.56670","Snowdepth":"6.000","Units":"in","Rept_Date":"2019-12-08 14"},"coordinates":[376,6695]},{"type":"Point","properties":{"Station_ID":"NY-WR-13","Station_Nam":"QUEENSBURY 2.5 E, NY","Latitude":"43.35877","Longitude":"-73.62849","Snowdepth":"6.000","Units":"in","Rept_Date":"2019-12-08 12"},"coordinates":[5312,4793]},{"type":"Point","properties":{"Station_ID":"NY-UL-23","Station_Nam":"WEST HURLEY 0.1 S, NY","Latitude":"42.00455","Longitude":"-74.11094","Snowdepth":"6.000","Units":"in","Rept_Date":"2019-12-08 12"},"coordinates":[5204,3950]},{"type":"Point","properties":{"Station_ID":"NY-TG-5","Station_Nam":"BERKSHIRE 2.0 N, NY","Latitude":"42.33463","Longitude":"-76.18990","Snowdepth":"6.000","Units":"in","Rept_Date":"2019-12-08 13"},"coordinates":[4736,4156]},{"type":"Point","properties":{"Station_ID":"NY-PT-2","Station_Nam":"BEACON 4.2 ESE, NY","Latitude":"41.48070","Longitude":"-73.89110","Snowdepth":"6.000","Units":"in","Rept_Date":"2019-12-08 12"},"coordinates":[5253,3624]},{"type":"Point","properties":{"Station_ID":"NY-ON-15","Station_Nam":"GENEVA COOP, NY","Latitude":"42.87660","Longitude":"-77.03080","Snowdepth":"6.000","Units":"in","Rept_Date":"2019-12-08 13"},"coordinates":[4547,4493]},{"type":"Point","properties":{"Station_ID":"NY-MR-57","Station_Nam":"CHURCHVILLE 3.5 N, NY","Latitude":"43.15209","Longitude":"-77.87846","Snowdepth":"6.000","Units":"in","Rept_Date":"2019-12-08 13"},"coordinates":[4356,4664]},{"type":"Point","properties":{"Station_ID":"NY-ER-77","Station_Nam":"COLDEN 2.4 ENE, NY","Latitude":"42.65088","Longitude":"-78.61060","Snowdepth":"6.000","Units":"in","Rept_Date":"2019-12-08 13"},"coordinates":[4191,4352]},{"type":"Point","properties":{"Station_ID":"NTHM3","Station_Nam":"NORTHBRIDGE 2","Latitude":"42.11500","Longitude":"-71.67600","Snowdepth":"6.000","Units":"in","Rept_Date":"2019-12-08 12"},"coordinates":[5751,4019]},{"type":"Point","properties":{"Station_ID":"ND-CS-1","Station_Nam":"WEST FARGO 3.8 SSE, ND","Latitude":"46.82750","Longitude":"-96.85280","Snowdepth":"6.000","Units":"in","Rept_Date":"2019-12-08 13"},"coordinates":[87,6951]},