{"type":"Topology","objects":{"snowdepth_geo":{"type":"GeometryCollection","name":"snowdepth","crs":{"type":"name","properties":{"name":"urn:ogc:def:crs:OGC:1.3:CRS84"}},"geometries":[{"type":"Point","properties":{"Station_ID":"PRKM4","Station_Nam":"MUNISING EAST","Latitude":"46.42580","Longitude":"-86.62000","Snowdepth":"76.500","Units":"in","Rept_Date":"2021-02-07 06"},"coordinates":[2492,6764]},{"type":"Point","properties":{"Station_ID":"MMNV1","Station_Nam":"MT. MANSFIELD","Latitude":"44.52480","Longitude":"-72.81540","Snowdepth":"45.000","Units":"in","Rept_Date":"2021-02-06 21"},"coordinates":[5732,5604]},{"type":"Point","properties":{"Station_ID":"HTLN3","Station_Nam":"HERMIT LAKE SNOWPLOT","Latitude":"44.26130","Longitude":"-71.28330","Snowdepth":"45.000","Units":"in","Rept_Date":"2021-02-06 10"},"coordinates":[6092,5443]},{"type":"Point","properties":{"Station_ID":"RDFN6","Station_Nam":"REDFIELD 8N","Latitude":"43.64130","Longitude":"-75.88400","Snowdepth":"42.000","Units":"in","Rept_Date":"2021-02-06 12"},"coordinates":[5012,5065]},{"type":"Point","properties":{"Station_ID":"HLSN3","Station_Nam":"HERMIT LAKE SNOTEL","Latitude":"44.26130","Longitude":"-71.28320","Snowdepth":"41.570","Units":"in","Rept_Date":"2021-02-07 06"},"coordinates":[6092,5443]},{"type":"Point","properties":{"Station_ID":"PDLM4","Station_Nam":"PAINESDALE","Latitude":"47.04160","Longitude":"-88.67170","Snowdepth":"40.000","Units":"in","Rept_Date":"2021-02-06 13"},"coordinates":[2011,7140]},{"type":"Point","properties":{"Station_ID":"HGHN6","Station_Nam":"HIGHMARKET","Latitude":"43.60510","Longitude":"-75.55430","Snowdepth":"37.000","Units":"in","Rept_Date":"2021-02-06 11"},"coordinates":[5089,5043]},{"type":"Point","properties":{"Station_ID":"CLUM4","Station_Nam":"CALUMET-TAMARACK","Latitude":"47.24550","Longitude":"-88.46790","Snowdepth":"37.000","Units":"in","Rept_Date":"2021-02-06 14"},"coordinates":[2058,7264]},{"type":"Point","properties":{"Station_ID":"PTLQ6","Station_Nam":"PORTAGE LAKE","Latitude":"49.06950","Longitude":"-86.65940","Snowdepth":"33.190","Units":"in","Rept_Date":"2021-02-07 06"},"coordinates":[2483,8377]},{"type":"Point","properties":{"Station_ID":"NH-CS-10","Station_Nam":"RANDOLPH 1.4 NE, NH","Latitude":"44.38824","Longitude":"-71.26950","Snowdepth":"33.000","Units":"in","Rept_Date":"2021-02-06 12"},"coordinates":[6095,5520]},{"type":"Point","properties":{"Station_ID":"QNCM4","Station_Nam":"QUINCY HILL","Latitude":"47.13640","Longitude":"-88.57950","Snowdepth":"31.000","Units":"in","Rept_Date":"2021-02-06 12"},"coordinates":[2032,7198]},{"type":"Point","properties":{"Station_ID":"KSGM4","Station_Nam":"KEARSARGE","Latitude":"47.27520","Longitude":"-88.41700","Snowdepth":"30.000","Units":"in","Rept_Date":"2021-02-06 13"},"coordinates":[2070,7282]},{"type":"Point","properties":{"Station_ID":"GNLM4","Station_Nam":"GREENLAND 6N","Latitude":"46.87360","Longitude":"-89.10060","Snowdepth":"29.000","Units":"in","Rept_Date":"2021-02-06 13"},"coordinates":[1910,7037]},{"type":"Point","properties":{"Station_ID":"DVLQ6","Station_Nam":"DEVIOUS LAKE","Latitude":"49.19890","Longitude":"-87.76440","Snowdepth":"28.820","Units":"in","Rept_Date":"2021-02-07 06"},"coordinates":[2224,8456]},{"type":"Point","properties":{"Station_ID":"VT-BN-12","Station_Nam":"STAMFORD 5.0 NNE, VT","Latitude":"42.82000","Longitude":"-73.02000","Snowdepth":"28.000","Units":"in","Rept_Date":"2021-02-06 21"},"coordinates":[5684,4563]},{"type":"Point","properties":{"Station_ID":"MI-HG-20","Station_Nam":"CALUMET 1.1 SSW, MI","Latitude":"47.23165","Longitude":"-88.45823","Snowdepth":"28.000","Units":"in","Rept_Date":"2021-02-06 13"},"coordinates":[2061,7256]},{"type":"Point","properties":{"Station_ID":"MAYP1","Station_Nam":"MAHANOY CITY,PA","Latitude":"40.83330","Longitude":"-76.13330","Snowdepth":"28.000","Units":"in","Rept_Date":"2021-02-06 12"},"coordinates":[4953,3351]},{"type":"Point","properties":{"Station_ID":"TRIQ6","Station_Nam":"TRIO LAKE","Latitude":"49.22880","Longitude":"-87.22920","Snowdepth":"27.870","Units":"in","Rept_Date":"2021-02-07 06"},"coordinates":[2349,8475]},{"type":"Point","properties":{"Station_ID":"NY-GR-14","Station_Nam":"LEXINGTON 1.5 N, NY","Latitude":"42.26024","Longitude":"-74.35875","Snowdepth":"27.000","Units":"in","Rept_Date":"2021-02-06 12"},"coordinates":[5370,4222]},{"type":"Point","properties":{"Station_ID":"MALN6","Station_Nam":"MALONE","Latitude":"44.84180","Longitude":"-74.30600","Snowdepth":"27.000","Units":"in","Rept_Date":"2021-02-06 12"},"coordinates":[5382,5797]},{"type":"Point","properties":{"Station_ID":"NY-HR-18","Station_Nam":"SALISBURY CENTER 1.8 NW, NY","Latitude":"43.16260","Longitude":"-74.80880","Snowdepth":"26.300","Units":"in","Rept_Date":"2021-02-06 11"},"coordinates":[5264,4773]},{"type":"Point","properties":{"Station_ID":"NY-JF-30","Station_Nam":"WEST CARTHAGE 0.3 ENE, NY","Latitude":"43.97493","Longitude":"-75.61640","Snowdepth":"26.200","Units":"in","Rept_Date":"2021-02-06 12"},"coordinates":[5075,5268]},{"type":"Point","properties":{"Station_ID":"JEFV1","Station_Nam":"JEFFERSONVILLE","Latitude":"44.58430","Longitude":"-72.78700","Snowdepth":"26.000","Units":"in","Rept_Date":"2021-02-06 12"},"coordinates":[5739,5640]},{"type":"Point","properties":{"Station_ID":"HERM4","Station_Nam":"HERMAN,MI","Latitude":"46.65000","Longitude":"-88.33330","Snowdepth":"26.000","Units":"in","Rept_Date":"2021-02-06 13"},"coordinates":[2090,6901]},{"type":"Point","properties":{"Station_ID":"CAN-QC-56","Station_Nam":"SUTTON 2.6 N, CAN","Latitude":"45.13119","Longitude":"-72.61218","Snowdepth":"26.000","Units":"in","Rept_Date":"2021-02-06 12"},"coordinates":[5780,5974]},{"type":"Point","properties":{"Station_ID":"AUDQ6","Station_Nam":"AUDEN","Latitude":"48.52600","Longitude":"-82.57570","Snowdepth":"25.510","Units":"in","Rept_Date":"2021-02-07 06"},"coordinates":[3441,8046]},{"type":"Point","properties":{"Station_ID":"VT-WR-17","Station_Nam":"ROCHESTER 2.3 NE, VT","Latitude":"43.89418","Longitude":"-72.76992","Snowdepth":"25.500","Units":"in","Rept_Date":"2021-02-06 12"},"coordinates":[5743,5219]},{"type":"Point","properties":{"Station_ID":"VT-BN-3","Station_Nam":"LANDGROVE 1.1 NNE, VT","Latitude":"43.29092","Longitude":"-72.83260","Snowdepth":"25.000","Units":"in","Rept_Date":"2021-02-06 12"},"coordinates":[5728,4851]},{"type":"Point","properties":{"Station_ID":"LBKV1","Station_Nam":"LYE BROOK","Latitude":"43.05000","Longitude":"-73.03330","Snowdepth":"25.000","Units":"in","Rept_Date":"2021-02-07 06"},"coordinates":[5681,4704]},{"type":"Point","properties":{"Station_ID":"GFDN6","Station_Nam":"CHASES LAKE","Latitude":"43.75920","Longitude":"-75.29980","Snowdepth":"25.000","Units":"in","Rept_Date":"2021-02-06 11"},"coordinates":[5149,5137]},{"type":"Point","properties":{"Station_ID":"EHYM3","Station_Nam":"EAST HAWLEY","Latitude":"42.57410","Longitude":"-72.86790","Snowdepth":"25.000","Units":"in","Rept_Date":"2021-02-06 13"},"coordinates":[5720,4413]},{"type":"Point","properties":{"Station_ID":"NY-LW-12","Station_Nam":"CHASES LAKE COOP, NY","Latitude":"43.75924","Longitude":"-75.29982","Snowdepth":"24.500","Units":"in","Rept_Date":"2021-02-06 11"},"coordinates":[5149,5137]},{"type":"Point","properties":{"Station_ID":"WI-MW-14","Station_Nam":"MILWAUKEE 3.6 NNW, WI","Latitude":"43.11300","Longitude":"-87.98730","Snowdepth":"24.000","Units":"in","Rept_Date":"2021-02-06 11"},"coordinates":[2171,4742]},{"type":"Point","properties":{"Station_ID":"VT-OL-12","Station_Nam":"GREENSBORO 3.9 NNE, VT","Latitude":"44.63100","Longitude":"-72.28000","Snowdepth":"24.000","Units":"in","Rept_Date":"2021-02-06 14"},"coordinates":[5858,5669]},{"type":"Point","properties":{"Station_ID":"SSMM4","Station_Nam":"SAULT STE MARIE","Latitude":"46.48660","Longitude":"-84.40250","Snowdepth":"24.000","Units":"in","Rept_Date":"2021-02-06 13"},"coordinates":[3013,6801]},{"type":"Point","properties":{"Station_ID":"ROWM3","Station_Nam":"ROWE 3NE","Latitude":"42.73500","Longitude":"-72.86920","Snowdepth":"24.000","Units":"in","Rept_Date":"2021-02-06 12"},"coordinates":[5719,4512]},{"type":"Point","properties":{"Station_ID":"NY-HM-10","Station_Nam":"LAKE PLEASANT 2.3 WSW, NY","Latitude":"43.45490","Longitude":"-74.45287","Snowdepth":"24.000","Units":"in","Rept_Date":"2021-02-06 12"},"coordinates":[5348,4951]},{"type":"Point","properties":{"Station_ID":"MI-KW-2","Station_Nam":"DELAWARE 5.2 SW, MI","Latitude":"47.36928","Longitude":"-88.17919","Snowdepth":"24.000","Units":"in","Rept_Date":"2021-02-06 09"},"coordinates":[2126,7340]},{"type":"Point","properties":{"Station_ID":"ME-FR-2","Station_Nam":"TEMPLE 1.8 W, ME","Latitude":"44.68329","Longitude":"-70.26420","Snowdepth":"24.000","Units":"in","Rept_Date":"2021-02-06 12"},"coordinates":[6331,5701]},{"type":"Point","properties":{"Station_ID":"LPLN6","Station_Nam":"LAKE PLACID 2 S","Latitude":"44.30420","Longitude":"-73.98390","Snowdepth":"24.000","Units":"in","Rept_Date":"2021-02-06 13"},"coordinates":[5458,5469]},{"type":"Point","properties":{"Station_ID":"COVM4","Station_Nam":"COVINGTON","Latitude":"46.55880","Longitude":"-88.54190","Snowdepth":"24.000","Units":"in","Rept_Date":"2021-02-06 13"},"coordinates":[2041,6845]},{"type":"Point","properties":{"Station_ID":"VT-WS-33","Station_Nam":"WAITSFIELD 3.5 WNW, VT","Latitude":"44.20052","Longitude":"-72.89421","Snowdepth":"23.500","Units":"in","Rept_Date":"2021-02-06 13"},"coordinates":[5713,5406]},{"type":"Point","properties":{"Station_ID":"VT-WS-19","Station_Nam":"WATERBURY 3.0 NW, VT","Latitude":"44.36060","Longitude":"-72.80770","Snowdepth":"23.500","Units":"in","Rept_Date":"2021-02-06 11"},"coordinates":[5734,5504]},{"type":"Point","properties":{"Station_ID":"IL-CK-288","Station_Nam":"ROSELLE 0.8 N, IL","Latitude":"41.99255","Longitude":"-88.08422","Snowdepth":"23.100","Units":"in","Rept_Date":"2021-02-06 13"},"coordinates":[2148,4058]},{"type":"Point","properties":{"Station_ID":"VT-WH-19","Station_Nam":"EAST DOVER 1.8 N, VT","Latitude":"42.97658","Longitude":"-72.77637","Snowdepth":"23.000","Units":"in","Rept_Date":"2021-02-06 13"},"coordinates":[5741,4659]},{"type":"Point","properties":{"Station_ID":"RFDM1","Station_Nam":"RUMFORD 7SW","Latitude":"44.49470","Longitude":"-70.65640","Snowdepth":"23.000","Units":"in","Rept_Date":"2021-02-06 13"},"coordinates":[6239,5585]},{"type":"Point","properties":{"Station_ID":"LVDW3","Station_Nam":"LAC VIEUX DESERT","Latitude":"46.12110","Longitude":"-89.07580","Snowdepth":"23.000","Units":"in","Rept_Date":"2021-02-06 14"},"coordinates":[1916,6578]},{"type":"Point","properties":{"Station_ID":"FISM1","Station_Nam":"FORT KENT COOP","Latitude":"47.23850","Longitude":"-68.61240","Snowdepth":"23.000","Units":"in","Rept_Date":"2021-02-06 12"},"coordinates":[6718,7260]},{"type":"Point","properties":{"Station_ID":"QCU","Station_Nam":"QCU","Latitude":"47.82750","Longitude":"-76.59830","Snowdepth":"22.756","Units":"in","Rept_Date":"2021-02-06 12"},"coordinates":[4844,7619]},{"type":"Point","properties":{"Station_ID":"QLB","Station_Nam":"QLB","Latitude":"50.72360","Longitude":"-75.10000","Snowdepth":"22.638","Units":"in","Rept_Date":"2021-02-06 12"},"coordinates":[5196,9387]},{"type":"Point","properties":{"Station_ID":"VT-OL-1","Station_Nam":"WESTFIELD 0.7 WNW, VT","Latitude":"44.89160","Longitude":"-72.44350","Snowdepth":"22.500","Units":"in","Rept_Date":"2021-02-06 12"},"coordinates":[5819,5828]},{"type":"Point","properties":{"Station_ID":"NY-FK-9","Station_Nam":"GABRIELS 1.3 SE, NY","Latitude":"44.41934","Longitude":"-74.16194","Snowdepth":"22.500","Units":"in","Rept_Date":"2021-02-06 12"},"coordinates":[5416,5539]},{"type":"Point","properties":{"Station_ID":"NY-ES-11","Station_Nam":"VERMONTVILLE 2.8 S, NY","Latitude":"44.41205","Longitude":"-74.06760","Snowdepth":"22.500","Units":"in","Rept_Date":"2021-02-06 12"},"coordinates":[5438,5535]},{"type":"Point","properties":{"Station_ID":"MI-BG-3","Station_Nam":"THREE LAKES, MI","Latitude":"46.55730","Longitude":"-88.20770","Snowdepth":"22.500","Units":"in","Rept_Date":"2021-02-06 13"},"coordinates":[2119,6844]},{"type":"Point","properties":{"Station_ID":"QGO","Station_Nam":"QGO","Latitude":"48.85500","Longitude":"-74.20640","Snowdepth":"22.441","Units":"in","Rept_Date":"2021-02-06 12"},"coordinates":[5405,8246]},{"type":"Point","properties":{"Station_ID":"WNDP1","Station_Nam":"WINDBER COUNTY CLUB","Latitude":"40.28780","Longitude":"-78.77530","Snowdepth":"22.000","Units":"in","Rept_Date":"2021-02-06 12"},"coordinates":[4333,3018]},{"type":"Point","properties":{"Station_ID":"WLFM5","Station_Nam":"WOLF RIDGE ENVIRON LEARNING CENTER","Latitude":"47.38240","Longitude":"-91.19730","Snowdepth":"22.000","Units":"in","Rept_Date":"2021-02-06 13"},"coordinates":[1418,7348]},{"type":"Point","properties":{"Station_ID":"VT-CH-4","Station_Nam":"UNDERHILL 4.4 NNE, VT","Latitude":"44.58774","Longitude":"-72.92250","Snowdepth":"22.000","Units":"in","Rept_Date":"2021-02-06 12"},"coordinates":[5707,5642]},{"type":"Point","properties":{"Station_ID":"PHEW3","Station_Nam":"PHELPS","Latitude":"46.06630","Longitude":"-89.07520","Snowdepth":"22.000","Units":"in","Rept_Date":"2021-02-06 13"},"coordinates":[1916,6545]},{"type":"Point","properties":{"Station_ID":"NUNV1","Station_Nam":"NORTH UNDERHILL","Latitude":"44.58760","Longitude":"-72.92150","Snowdepth":"22.000","Units":"in","Rept_Date":"2021-02-06 12"},"coordinates":[5707,5642]},{"type":"Point","properties":{"Station_ID":"MNSM4","Station_Nam":"MUNISING","Latitude":"46.41210","Longitude":"-86.66250","Snowdepth":"22.000","Units":"in","Rept_Date":"2021-02-06 11"},"coordinates":[2482,6756]},{"type":"Point","properties":{"Station_ID":"MI-HG-1","Station_Nam":"HOUGHTON 1.6 ESE, MI","Latitude":"47.10774","Longitude":"-88.52940","Snowdepth":"22.000","Units":"in","Rept_Date":"2021-02-06 13"},"coordinates":[2044,7180]},{"type":"Point","properties":{"Station_ID":"GHMN3","Station_Nam":"PINKHAM NOTCH","Latitude":"44.25800","Longitude":"-71.25250","Snowdepth":"22.000","Units":"in","Rept_Date":"2021-02-06 10"},"coordinates":[6099,5441]},{"type":"Point","properties":{"Station_ID":"CAN-NB-11","Station_Nam":"MIRAMICHI 3.3 S, CAN","Latitude":"46.99343","Longitude":"-65.50690","Snowdepth":"22.000","Units":"in","Rept_Date":"2021-02-06 12"},"coordinates":[7447,7110]},{"type":"Point","properties":{"Station_ID":"BRAM1","Station_Nam":"BRASSUA DAM","Latitude":"45.66020","Longitude":"-69.81190","Snowdepth":"22.000","Units":"in","Rept_Date":"2021-02-06 12"},"coordinates":[6437,6297]},{"type":"Point","properties":{"Station_ID":"ANJM4","Station_Nam":"SNOW PAID OBSERVER FOR KANJ","Latitude":"46.48670","Longitude":"-84.40260","Snowdepth":"22.000","Units":"in","Rept_Date":"2021-02-06 18"},"coordinates":[3013,6801]},{"type":"Point","properties":{"Station_ID":"ANJ","Station_Nam":"SAULT STE MARIE","Latitude":"46.46670","Longitude":"-84.36670","Snowdepth":"22.000","Units":"in","Rept_Date":"2021-02-07 00"},"coordinates":[3021,6789]},{"type":"Point","properties":{"Station_ID":"VT-WS-30","Station_Nam":"WOODBURY 3.4 NNW, VT","Latitude":"44.48825","Longitude":"-72.43258","Snowdepth":"21.500","Units":"in","Rept_Date":"2021-02-06 12"},"coordinates":[5822,5582]},{"type":"Point","properties":{"Station_ID":"VT-WR-2","Station_Nam":"POMFRET 2.6 N, VT","Latitude":"43.74230","Longitude":"-72.52550","Snowdepth":"21.500","Units":"in","Rept_Date":"2021-02-06 12"},"coordinates":[5800,5126]},{"type":"Point","properties":{"Station_ID":"NY-SL-6","Station_Nam":"HANNAWA FALLS 0.1 SW, NY","Latitude":"44.61154","Longitude":"-74.97190","Snowdepth":"21.500","Units":"in","Rept_Date":"2021-02-06 12"},"coordinates":[5226,5657]},{"type":"Point","properties":{"Station_ID":"NJ-SS-54","Station_Nam":"SPARTA TWP 3.6 SSW, NJ","Latitude":"41.00503","Longitude":"-74.66358","Snowdepth":"21.500","Units":"in","Rept_Date":"2021-02-06 12"},"coordinates":[5298,3456]},{"type":"Point","properties":{"Station_ID":"ME-SM-45","Station_Nam":"BRIGHTON PLANTATION 2.1 N, ME","Latitude":"45.07098","Longitude":"-69.69860","Snowdepth":"21.500","Units":"in","Rept_Date":"2021-02-06 12"},"coordinates":[6463,5937]},{"type":"Point","properties":{"Station_ID":"WI-VL-9","Station_Nam":"LAND O' LAKES 11.7 W, WI","Latitude":"46.19023","Longitude":"-89.45790","Snowdepth":"21.000","Units":"in","Rept_Date":"2021-02-06 13"},"coordinates":[1826,6620]},{"type":"Point","properties":{"Station_ID":"VT-WS-7","Station_Nam":"MIDDLESEX 3.1 ENE, VT","Latitude":"44.31799","Longitude":"-72.62650","Snowdepth":"21.000","Units":"in","Rept_Date":"2021-02-06 13"},"coordinates":[5776,5478]},{"type":"Point","properties":{"Station_ID":"VT-WH-30","Station_Nam":"MARLBORO 2.0 NNE, VT","Latitude":"42.88484","Longitude":"-72.70935","Snowdepth":"21.000","Units":"in","Rept_Date":"2021-02-06 14"},"coordinates":[5757,4603]},{"type":"Point","properties":{"Station_ID":"PHON6","Station_Nam":"PHOENICIA 2SW","Latitude":"42.06420","Longitude":"-74.34080","Snowdepth":"21.000","Units":"in","Rept_Date":"2021-02-06 12"},"coordinates":[5374,4102]},{"type":"Point","properties":{"Station_ID":"OCON6","Station_Nam":"OSCEOLA","Latitude":"43.50370","Longitude":"-75.72170","Snowdepth":"21.000","Units":"in","Rept_Date":"2021-02-06 13"},"coordinates":[5050,4981]},{"type":"Point","properties":{"Station_ID":"NY-MD-10","Station_Nam":"CAZENOVIA 2.9 SE, NY","Latitude":"42.90003","Longitude":"-75.81140","Snowdepth":"21.000","Units":"in","Rept_Date":"2021-02-06 12"},"coordinates":[5029,4612]},{"type":"Point","properties":{"Station_ID":"NY-FK-7","Station_Nam":"SARANAC LAKE 6.2 N, NY","Latitude":"44.41359","Longitude":"-74.15211","Snowdepth":"21.000","Units":"in","Rept_Date":"2021-02-06 12"},"coordinates":[5418,5536]},{"type":"Point","properties":{"Station_ID":"NH-CS-19","Station_Nam":"CARROLL 4.6 NE, NH","Latitude":"44.33765","Longitude":"-71.46461","Snowdepth":"21.000","Units":"in","Rept_Date":"2021-02-06 12"},"coordinates":[6049,5490]},{"type":"Point","properties":{"Station_ID":"MRLV1","Station_Nam":"MARLBORO","Latitude":"42.86000","Longitude":"-72.72000","Snowdepth":"21.000","Units":"in","Rept_Date":"2021-02-06 14"},"coordinates":[5754,4588]},{"type":"Point","properties":{"Station_ID":"MI-CP-14","Station_Nam":"SAULT STE. MARIE 2.2 E, MI","Latitude":"46.48933","Longitude":"-84.31971","Snowdepth":"21.000","Units":"in","Rept_Date":"2021-02-06 13"},"coordinates":[3032,6803]},{"type":"Point","properties":{"Station_ID":"MA-HS-7","Station_Nam":"PLAINFIELD 2.2 SW, MA","Latitude":"42.49272","Longitude":"-72.94540","Snowdepth":"21.000","Units":"in","Rept_Date":"2021-02-06 13"},"coordinates":[5701,4364]},{"type":"Point","properties":{"Station_ID":"LNOW3","Station_Nam":"LAND O LAKES","Latitude":"46.19000","Longitude":"-89.45700","Snowdepth":"21.000","Units":"in","Rept_Date":"2021-02-06 13"},"coordinates":[1826,6620]},{"type":"Point","properties":{"Station_ID":"HURW3","Station_Nam":"HURLEY","Latitude":"46.46250","Longitude":"-90.19550","Snowdepth":"21.000","Units":"in","Rept_Date":"2021-02-06 14"},"coordinates":[1653,6786]},{"type":"Point","properties":{"Station_ID":"HRTM1","Station_Nam":"HARTFORD","Latitude":"44.37440","Longitude":"-70.31620","Snowdepth":"21.000","Units":"in","Rept_Date":"2021-02-06 12"},"coordinates":[6318,5512]},{"type":"Point","properties":{"Station_ID":"NY-TM-45","Station_Nam":"NEWFIELD HAMLET 4.3 S, NY","Latitude":"42.29650","Longitude":"-76.60676","Snowdepth":"20.500","Units":"in","Rept_Date":"2021-02-06 14"},"coordinates":[4842,4244]},{"type":"Point","properties":{"Station_ID":"NY-ES-6","Station_Nam":"OLMSTEDVILLE 4.6 NNE, NY","Latitude":"43.83350","Longitude":"-73.89780","Snowdepth":"20.500","Units":"in","Rept_Date":"2021-02-06 13"},"coordinates":[5478,5182]},{"type":"Point","properties":{"Station_ID":"NH-MR-41","Station_Nam":"NEWBURY 1.6 NW, NH","Latitude":"43.33667","Longitude":"-72.06060","Snowdepth":"20.500","Units":"in","Rept_Date":"2021-02-06 12"},"coordinates":[5909,4879]},{"type":"Point","properties":{"Station_ID":"WTNM4","Station_Nam":"WATTON 2WSW","Latitude":"46.52660","Longitude":"-88.64240","Snowdepth":"20.000","Units":"in","Rept_Date":"2021-02-06 13"},"coordinates":[2017,6825]},{"type":"Point","properties":{"Station_ID":"WAIV1","Station_Nam":"WAITSFIELD","Latitude":"44.17560","Longitude":"-72.79610","Snowdepth":"20.000","Units":"in","Rept_Date":"2021-02-06 12"},"coordinates":[5736,5391]},{"type":"Point","properties":{"Station_ID":"VT-WS-11","Station_Nam":"WAITSFIELD 1.8 SE, VT","Latitude":"44.17551","Longitude":"-72.79540","Snowdepth":"20.000","Units":"in","Rept_Date":"2021-02-06 12"},"coordinates":[5737,5391]},{"type":"Point","properties":{"Station_ID":"RKWM1","Station_Nam":"MOOSEHEAD LAKE","Latitude":"45.58330","Longitude":"-69.71670","Snowdepth":"20.000","Units":"in","Rept_Date":"2021-02-06 12"},"coordinates":[6459,6250]},{"type":"Point","properties":{"Station_ID":"PEKN6","Station_Nam":"PECK LAKE","Latitude":"43.11500","Longitude":"-74.42360","Snowdepth":"20.000","Units":"in","Rept_Date":"2021-02-06 12"},"coordinates":[5355,4743]},{"type":"Point","properties":{"Station_ID":"PA-MN-11","Station_Nam":"SAYLORSBURG 2.7 WNW, PA","Latitude":"40.90335","Longitude":"-75.37367","Snowdepth":"20.000","Units":"in","Rept_Date":"2021-02-06 14"},"coordinates":[5132,3394]},{"type":"Point","properties":{"Station_ID":"NY-OD-2","Station_Nam":"POINT ROCK 0.6 SE, NY","Latitude":"43.37335","Longitude":"-75.53840","Snowdepth":"20.000","Units":"in","Rept_Date":"2021-02-06 13"},"coordinates":[5093,4901]},{"type":"Point","properties":{"Station_ID":"NY-JF-32","Station_Nam":"WATERTOWN 1.0 ESE, NY","Latitude":"43.96693","Longitude":"-75.89204","Snowdepth":"20.000","Units":"in","Rept_Date":"2021-02-06 14"},"coordinates":[5010,5263]},{"type":"Point","properties":{"Station_ID":"NH-CR-26","Station_Nam":"CENTER SANDWICH 4.9 E, NH","Latitude":"43.80976","Longitude":"-71.34150","Snowdepth":"20.000","Units":"in","Rept_Date":"2021-02-06 12"},"coordinates":[6078,5167]},{"type":"Point","properties":{"Station_ID":"MONW3","Station_Nam":"MONROE,WI","Latitude":"42.60000","Longitude":"-89.66670","Snowdepth":"20.000","Units":"in","Rept_Date":"2021-02-06 13"},"coordinates":[1777,4429]},{"type":"Point","properties":{"Station_ID":"MI-CX-7","Station_Nam":"EAST JORDAN 2.1 NNW, MI","Latitude":"45.18639","Longitude":"-85.14750","Snowdepth":"20.000","Units":"in","Rept_Date":"2021-02-06 13"},"coordinates":[2838,6008]},{"type":"Point","properties":{"Station_ID":"LVRM1","Station_Nam":"LIVERMORE FALLS 1 E","Latitude":"44.47160","Longitude":"-70.15940","Snowdepth":"20.000","Units":"in","Rept_Date":"2021-02-06 12"},"coordinates":[6355,5571]},{"type":"Point","properties":{"Station_ID":"JOHV1","Station_Nam":"JOHNSON 2 N","Latitude":"44.65790","Longitude":"-72.67850","Snowdepth":"20.000","Units":"in","Rept_Date":"2021-02-06 12"},"coordinates":[5764,5685]},{"type":"Point","properties":{"Station_ID":"JCBM4","Station_Nam":"JACOBSVILLE","Latitude":"47.00830","Longitude":"-88.43180","Snowdepth":"20.000","Units":"in","Rept_Date":"2021-02-06 12"},"coordinates":[2067,7119]},{"type":"Point","properties":{"Station_ID":"IWOM4","Station_Nam":"IRONWOOD#2","Latitude":"46.46520","Longitude":"-90.13820","Snowdepth":"20.000","Units":"in","Rept_Date":"2021-02-06 13"},"coordinates":[1666,6788]},{"type":"Point","properties":{"Station_ID":"IL-SP-7","Station_Nam":"DAVIS 0.5 N, IL","Latitude":"42.42919","Longitude":"-89.41730","Snowdepth":"20.000","Units":"in","Rept_Date":"2021-02-06 13"},"coordinates":[1836,4325]},{"type":"Point","properties":{"Station_ID":"IL-SP-27","Station_Nam":"DAVIS 2.7 N, IL","Latitude":"42.46110","Longitude":"-89.40890","Snowdepth":"20.000","Units":"in","Rept_Date":"2021-02-06 13"},"coordinates":[1838,4344]},{"type":"Point","properties":{"Station_ID":"ESDN3","Station_Nam":"EAST SANDWICH","Latitude":"43.80990","Longitude":"-71.34250","Snowdepth":"20.000","Units":"in","Rept_Date":"2021-02-06 11"},"coordinates":[6078,5168]},{"type":"Point","properties":{"Station_ID":"EJNM4","Station_Nam":"EAST JORDAN 2NW","Latitude":"45.18630","Longitude":"-85.14770","Snowdepth":"20.000","Units":"in","Rept_Date":"2021-02-06 13"},"coordinates":[2838,6008]},{"type":"Point","properties":{"Station_ID":"BGBM4","Station_Nam":"BIG BAY 1NW","Latitude":"46.83250","Longitude":"-87.75040","Snowdepth":"20.000","Units":"in","Rept_Date":"2021-02-06 13"},"coordinates":[2227,7012]},{"type":"Point","properties":{"Station_ID":"CAN-ON-699","Station_Nam":"DALHOUSIE MILLS, CAN","Latitude":"45.31670","Longitude":"-74.47120","Snowdepth":"19.500","Units":"in","Rept_Date":"2021-02-06 11"},"coordinates":[5343,6087]},{"type":"Point","properties":{"Station_ID":"OGIQ6","Station_Nam":"OGOKI CAMP","Latitude":"50.76680","Longitude":"-87.85820","Snowdepth":"19.210","Units":"in","Rept_Date":"2021-02-07 06"},"coordinates":[2202,9413]},{"type":"Point","properties":{"Station_ID":"VT-WS-10","Station_Nam":"NORTHFIELD 1.5 N, VT","Latitude":"44.16986","Longitude":"-72.65200","Snowdepth":"19.000","Units":"in","Rept_Date":"2021-02-06 12"},"coordinates":[5770,5387]},{"type":"Point","properties":{"Station_ID":"VT-OL-25","Station_Nam":"NEWPORT 1.5 WSW, VT","Latitude":"44.93059","Longitude":"-72.23731","Snowdepth":"19.000","Units":"in","Rept_Date":"2021-02-06 12"},"coordinates":[5868,5851]},{"type":"Point","properties":{"Station_ID":"VT-CH-7","Station_Nam":"HUNTINGTON 1.1 E, VT","Latitude":"44.32488","Longitude":"-72.96570","Snowdepth":"19.000","Units":"in","Rept_Date":"2021-02-06 12"},"coordinates":[5697,5482]},{"type":"Point","properties":{"Station_ID":"VT-CH-13","Station_Nam":"RICHMOND 3.4 SSE, VT","Latitude":"44.36084","Longitude":"-72.96400","Snowdepth":"19.000","Units":"in","Rept_Date":"2021-02-06 12"},"coordinates":[5697,5504]},{"type":"Point","properties":{"Station_ID":"TOPN6","Station_Nam":"TUPPER LAKE SUNMOUNT","Latitude":"44.23070","Longitude":"-74.43820","Snowdepth":"19.000","Units":"in","Rept_Date":"2021-02-06 12"},"coordinates":[5351,5424]},{"type":"Point","properties":{"Station_ID":"SPTI4","Station_Nam":"STRAWBERRY POINT","Latitude":"42.68530","Longitude":"-91.53300","Snowdepth":"19.000","Units":"in","Rept_Date":"2021-02-06 13"},"coordinates":[1339,4481]},{"type":"Point","properties":{"Station_ID":"PRDM4","Station_Nam":"PARADISE","Latitude":"46.60380","Longitude":"-85.03960","Snowdepth":"19.000","Units":"in","Rept_Date":"2021-02-06 11"},"coordinates":[2863,6873]},{"type":"Point","properties":{"Station_ID":"PA-MN-16","Station_Nam":"MOUNT POCONO 0.7 N, PA","Latitude":"41.13190","Longitude":"-75.35804","Snowdepth":"19.000","Units":"in","Rept_Date":"2021-02-06 12"},"coordinates":[5135,3533]},{"type":"Point","properties":{"Station_ID":"NY-DL-28","Station_Nam":"FLEISCHMANNS 5.7 N, NY","Latitude":"42.23779","Longitude":"-74.52335","Snowdepth":"19.000","Units":"in","Rept_Date":"2021-02-06 12"},"coordinates":[5331,4208]},{"type":"Point","properties":{"Station_ID":"NVLV1","Station_Nam":"NASHVILLE","Latitude":"44.44970","Longitude":"-72.92640","Snowdepth":"19.000","Units":"in","Rept_Date":"2021-02-06 12"},"coordinates":[5706,5558]},{"type":"Point","properties":{"Station_ID":"MQT","Station_Nam":"MARQUETTE, MI","Latitude":"46.53140","Longitude":"-87.54920","Snowdepth":"19.000","Units":"in","Rept_Date":"2021-02-07 06"},"coordinates":[2274,6828]},{"type":"Point","properties":{"Station_ID":"MIEM4","Station_Nam":"MICHIGAMME 3WNW","Latitude":"46.54530","Longitude":"-88.18000","Snowdepth":"19.000","Units":"in","Rept_Date":"2021-02-06 13"},"coordinates":[2126,6837]},{"type":"Point","properties":{"Station_ID":"LAUP1","Station_Nam":"1.5MI S OF RT 30 ON SMIT (LAUREL RIDGE)","Latitude":"40.05000","Longitude":"-79.22060","Snowdepth":"19.000","Units":"in","Rept_Date":"2021-02-06 12"},"coordinates":[4229,2873]},{"type":"Point","properties":{"Station_ID":"KGTB","Station_Nam":"FORT DRUM / WHEELER-SACK U. S. ARMY AIRFIELD","Latitude":"44.05000","Longitude":"-75.73333","Snowdepth":"19.000","Units":"in","Rept_Date":"2021-02-07 06"},"coordinates":[5047,5314]},{"type":"Point","properties":{"Station_ID":"INDN6","Station_Nam":"INDIAN LAKE","Latitude":"43.75500","Longitude":"-74.27560","Snowdepth":"19.000","Units":"in","Rept_Date":"2021-02-06 13"},"coordinates":[5389,5134]},{"type":"Point","properties":{"Station_ID":"IL-DP-155","Station_Nam":"MEDINAH 1.0 SSW, IL","Latitude":"41.96360","Longitude":"-88.06590","Snowdepth":"19.000","Units":"in","Rept_Date":"2021-02-06 13"},"coordinates":[2153,4041]},{"type":"Point","properties":{"Station_ID":"CLKM4","Station_Nam":"CLARKSBURG","Latitude":"46.49910","Longitude":"-87.84500","Snowdepth":"19.000","Units":"in","Rept_Date":"2021-02-06 12"},"coordinates":[2205,6809]},{"type":"Point","properties":{"Station_ID":"CAN-NB-13","Station_Nam":"BATHURST 3.8 NW, CAN","Latitude":"47.64212","Longitude":"-65.68756","Snowdepth":"19.000","Units":"in","Rept_Date":"2021-02-06 11"},"coordinates":[7405,7506]},{"type":"Point","properties":{"Station_ID":"CAN-ON-757","Station_Nam":"SAULT STE. MARIE 2.8 ESE - GLFC, CAN","Latitude":"46.50300","Longitude":"-84.30300","Snowdepth":"18.900","Units":"in","Rept_Date":"2021-02-06 13"},"coordinates":[3036,6811]},{"type":"Point","properties":{"Station_ID":"SOCQ6","Station_Nam":"SOCKET LAKE","Latitude":"50.77870","Longitude":"-91.79300","Snowdepth":"18.740","Units":"in","Rept_Date":"2021-02-07 06"},"coordinates":[1278,9420]},{"type":"Point","properties":{"Station_ID":"VT-WS-23","Station_Nam":"CABOT 2.3 E, VT","Latitude":"44.39807","Longitude":"-72.26570","Snowdepth":"18.500","Units":"in","Rept_Date":"2021-02-06 13"},"coordinates":[5861,5526]},{"type":"Point","properties":{"Station_ID":"VT-CH-11","Station_Nam":"UNDERHILL 5.1 NNE, VT","Latitude":"44.59811","Longitude":"-72.91880","Snowdepth":"18.500","Units":"in","Rept_Date":"2021-02-06 12"},"coordinates":[5708,5649]},{"type":"Point","properties":{"Station_ID":"VT-BN-7","Station_Nam":"MANCHESTER 2.8 ENE, VT","Latitude":"43.17274","Longitude":"-73.01811","Snowdepth":"18.500","Units":"in","Rept_Date":"2021-02-06 12"},"coordinates":[5684,4779]},{"type":"Point","properties":{"Station_ID":"PA-BR-7","Station_Nam":"FLEETWOOD 2.0 ESE, PA","Latitude":"40.44292","Longitude":"-75.78720","Snowdepth":"18.500","Units":"in","Rept_Date":"2021-02-06 13"},"coordinates":[5034,3113]},{"type":"Point","properties":{"Station_ID":"NY-ES-7","Station_Nam":"KEESEVILLE 0.8 SE, NY","Latitude":"44.49504","Longitude":"-73.47109","Snowdepth":"18.500","Units":"in","Rept_Date":"2021-02-06 12"},"coordinates":[5578,5586]},{"type":"Point","properties":{"Station_ID":"ME-AR-18","Station_Nam":"NEW SWEDEN 4.9 NNW, ME","Latitude":"47.01080","Longitude":"-68.14390","Snowdepth":"18.500","Units":"in","Rept_Date":"2021-02-06 12"},"coordinates":[6828,7121]},{"type":"Point","properties":{"Station_ID":"CAN-ON-245","Station_Nam":"PHELPSTON 3.1 ESE, CAN","Latitude":"44.50564","Longitude":"-79.81035","Snowdepth":"18.500","Units":"in","Rept_Date":"2021-02-06 13"},"coordinates":[4090,5592]},{"type":"Point","properties":{"Station_ID":"QCO","Station_Nam":"QCO","Latitude":"51.45280","Longitude":"-72.20110","Snowdepth":"18.386","Units":"in","Rept_Date":"2021-02-06 12"},"coordinates":[5876,9832]},{"type":"Point","properties":{"Station_ID":"CAN-QC-51","Station_Nam":"BELOEIL 0.7 NW, CAN","Latitude":"45.58049","Longitude":"-73.21218","Snowdepth":"18.300","Units":"in","Rept_Date":"2021-02-06 12"},"coordinates":[5639,6248]},{"type":"Point","properties":{"Station_ID":"CAN-QC-47","Station_Nam":"SAINTE-FOY 1.8 ENE, CAN","Latitude":"46.76934","Longitude":"-71.27124","Snowdepth":"18.300","Units":"in","Rept_Date":"2021-02-06 12"},"coordinates":[6094,6974]},{"type":"Point","properties":{"Station_ID":"KABQ6","Station_Nam":"CAB LAKE","Latitude":"49.59950","Longitude":"-89.17990","Snowdepth":"18.110","Units":"in","Rept_Date":"2021-02-07 06"},"coordinates":[1891,8701]},{"type":"Point","properties":{"Station_ID":"WTRM4","Station_Nam":"WATERSMEET 12WSW","Latitude":"46.22310","Longitude":"-89.40850","Snowdepth":"18.000","Units":"in","Rept_Date":"2021-02-06 12"},"coordinates":[1838,6640]},{"type":"Point","properties":{"Station_ID":"WI-WB-2","Station_Nam":"STONE LAKE 2.0 NW, WI","Latitude":"45.85960","Longitude":"-91.57710","Snowdepth":"18.000","Units":"in","Rept_Date":"2021-02-06 13"},"coordinates":[1329,6418]},{"type":"Point","properties":{"Station_ID":"WI-PR-6","Station_Nam":"PHILLIPS 1.3 S, WI","Latitude":"45.67677","Longitude":"-90.39543","Snowdepth":"18.000","Units":"in","Rept_Date":"2021-02-06 12"},"coordinates":[1606,6307]},{"type":"Point","properties":{"Station_ID":"WI-IW-3","Station_Nam":"MINERAL POINT 7.3 ENE, WI","Latitude":"42.91400","Longitude":"-90.05700","Snowdepth":"18.000","Units":"in","Rept_Date":"2021-02-06 13"},"coordinates":[1685,4621]},{"type":"Point","properties":{"Station_ID":"WI-IR-3","Station_Nam":"PENCE 0.1 E, WI","Latitude":"46.41555","Longitude":"-90.27013","Snowdepth":"18.000","Units":"in","Rept_Date":"2021-02-06 13"},"coordinates":[1635,6758]},{"type":"Point","properties":{"Station_ID":"WI-IR-2","Station_Nam":"MERCER 2.0 SE, WI","Latitude":"46.14749","Longitude":"-90.03097","Snowdepth":"18.000","Units":"in","Rept_Date":"2021-02-06 13"},"coordinates":[1692,6594]},{"type":"Point","properties":{"Station_ID":"WI-BY-14","Station_Nam":"ASHLAND 9.8 W, WI","Latitude":"46.59742","Longitude":"-91.07856","Snowdepth":"18.000","Units":"in","Rept_Date":"2021-02-06 12"},"coordinates":[1446,6869]},{"type":"Point","properties":{"Station_ID":"UPSW3","Station_Nam":"UPSON,WI","Latitude":"46.36780","Longitude":"-90.41220","Snowdepth":"18.000","Units":"in","Rept_Date":"2021-02-07 00"},"coordinates":[1602,6729]},{"type":"Point","properties":{"Station_ID":"SUXN4","Station_Nam":"SUSSEX 1 NW","Latitude":"41.21840","Longitude":"-74.62070","Snowdepth":"18.000","Units":"in","Rept_Date":"2021-02-06 12"},"coordinates":[5308,3586]},{"type":"Point","properties":{"Station_ID":"SUAW3","Station_Nam":"SUAMICO","Latitude":"44.60190","Longitude":"-88.09780","Snowdepth":"18.000","Units":"in","Rept_Date":"2021-02-06 12"},"coordinates":[2145,5651]},{"type":"Point","properties":{"Station_ID":"SPRP1","Station_Nam":"SPRINGTOWN 1 NNE","Latitude":"40.57110","Longitude":"-75.27810","Snowdepth":"18.000","Units":"in","Rept_Date":"2021-02-06 12"},"coordinates":[5154,3191]},{"type":"Point","properties":{"Station_ID":"SNYI4","Station_Nam":"STANLEY","Latitude":"42.63330","Longitude":"-91.86320","Snowdepth":"18.000","Units":"in","Rept_Date":"2021-02-06 13"},"coordinates":[1262,4450]},{"type":"Point","properties":{"Station_ID":"RKHN6","Station_Nam":"ROCK HILL 3 SW","Latitude":"41.59170","Longitude":"-74.61410","Snowdepth":"18.000","Units":"in","Rept_Date":"2021-02-06 12"},"coordinates":[5310,3814]},{"type":"Point","properties":{"Station_ID":"PRQM1","Station_Nam":"PRESQUE ISLE HILLTOP","Latitude":"46.68630","Longitude":"-67.99470","Snowdepth":"18.000","Units":"in","Rept_Date":"2021-02-06 12"},"coordinates":[6863,6923]},{"type":"Point","properties":{"Station_ID":"PLEP1","Station_Nam":"PLEASANT MOUNT 1 W","Latitude":"41.73940","Longitude":"-75.44650","Snowdepth":"18.000","Units":"in","Rept_Date":"2021-02-06 15"},"coordinates":[5114,3904]},{"type":"Point","properties":{"Station_ID":"PA-PK-22","Station_Nam":"MILFORD 8.7 NW, PA","Latitude":"41.42018","Longitude":"-74.90953","Snowdepth":"18.000","Units":"in","Rept_Date":"2021-02-06 12"},"coordinates":[5240,3709]},{"type":"Point","properties":{"Station_ID":"NY-TM-42","Station_Nam":"ITHACA 6.4 E, NY","Latitude":"42.43350","Longitude":"-76.37860","Snowdepth":"18.000","Units":"in","Rept_Date":"2021-02-06 12"},"coordinates":[4896,4328]},{"type":"Point","properties":{"Station_ID":"NY-OT-29","Station_Nam":"NEW BERLIN 1.5 NE, NY","Latitude":"42.63689","Longitude":"-75.31090","Snowdepth":"18.000","Units":"in","Rept_Date":"2021-02-06 13"},"coordinates":[5146,4452]},{"type":"Point","properties":{"Station_ID":"NY-CR-1","Station_Nam":"FREETOWN 1.0 NE, NY","Latitude":"42.53299","Longitude":"-76.02111","Snowdepth":"18.000","Units":"in","Rept_Date":"2021-02-06 12"},"coordinates":[4980,4388]},{"type":"Point","properties":{"Station_ID":"NJ-PS-14","Station_Nam":"HAWTHORNE 1.0 SSE, NJ","Latitude":"40.94364","Longitude":"-74.15230","Snowdepth":"18.000","Units":"in","Rept_Date":"2021-02-06 12"},"coordinates":[5418,3418]},{"type":"Point","properties":{"Station_ID":"NH-CH-20","Station_Nam":"RINDGE 3.2 ESE, NH","Latitude":"42.73100","Longitude":"-71.95200","Snowdepth":"18.000","Units":"in","Rept_Date":"2021-02-06 12"},"coordinates":[5935,4509]},{"type":"Point","properties":{"Station_ID":"MN-IS-18","Station_Nam":"BRAHAM 0.7 SW, MN","Latitude":"45.71379","Longitude":"-93.18095","Snowdepth":"18.000","Units":"in","Rept_Date":"2021-02-06 14"},"coordinates":[952,6329]},{"type":"Point","properties":{"Station_ID":"LOWN6","Station_Nam":"LOWVILLE","Latitude":"43.79280","Longitude":"-75.48290","Snowdepth":"18.000","Units":"in","Rept_Date":"2021-02-06 12"},"coordinates":[5106,5157]},{"type":"Point","properties":{"Station_ID":"IRMM4","Station_Nam":"WWTP","Latitude":"46.46670","Longitude":"-90.18330","Snowdepth":"18.000","Units":"in","Rept_Date":"2021-02-06 13"},"coordinates":[1656,6789]},{"type":"Point","properties":{"Station_ID":"HVJP1","Station_Nam":"HIDDEN VALLEY COOP","Latitude":"40.04200","Longitude":"-79.25660","Snowdepth":"18.000","Units":"in","Rept_Date":"2021-02-06 13"},"coordinates":[4220,2868]},{"type":"Point","properties":{"Station_ID":"FARM1","Station_Nam":"FARMINGTON","Latitude":"44.68930","Longitude":"-70.15640","Snowdepth":"18.000","Units":"in","Rept_Date":"2021-02-06 12"},"coordinates":[6356,5704]},{"type":"Point","properties":{"Station_ID":"EVRW3","Station_Nam":"EAGLE RIVER-4 E","Latitude":"45.91890","Longitude":"-89.15280","Snowdepth":"18.000","Units":"in","Rept_Date":"2021-02-06 13"},"coordinates":[1898,6455]},{"type":"Point","properties":{"Station_ID":"BKBW2","Station_Nam":"DAVIS.","Latitude":"39.09830","Longitude":"-79.43190","Snowdepth":"18.000","Units":"in","Rept_Date":"2021-02-06 12"},"coordinates":[4179,2292]},{"type":"Point","properties":{"Station_ID":"AVLV1","Station_Nam":"AVERILL","Latitude":"45.00570","Longitude":"-71.69030","Snowdepth":"18.000","Units":"in","Rept_Date":"2021-02-06 13"},"coordinates":[5996,5897]},{"type":"Point","properties":{"Station_ID":"AGNW3","Station_Nam":"ARGONNE-1.5 NW","Latitude":"45.67360","Longitude":"-88.90380","Snowdepth":"18.000","Units":"in","Rept_Date":"2021-02-06 13"},"coordinates":[1956,6305]},{"type":"Point","properties":{"Station_ID":"QTM","Station_Nam":"QTM","Latitude":"51.05780","Longitude":"-72.57190","Snowdepth":"17.992","Units":"in","Rept_Date":"2021-02-06 12"},"coordinates":[5789,9591]},{"type":"Point","properties":{"Station_ID":"QOU","Station_Nam":"QOU","Latitude":"50.79250","Longitude":"-69.67470","Snowdepth":"17.874","Units":"in","Rept_Date":"2021-02-06 12"},"coordinates":[6469,9429]},{"type":"Point","properties":{"Station_ID":"SVBQ6","Station_Nam":"SAVANT BASE","Latitude":"50.28730","Longitude":"-90.65670","Snowdepth":"17.600","Units":"in","Rept_Date":"2021-02-07 06"},"coordinates":[1545,9120]},{"type":"Point","properties":{"Station_ID":"WI-CB-5","Station_Nam":"PORTAGE 7.2 SW, WI","Latitude":"43.47933","Longitude":"-89.57370","Snowdepth":"17.500","Units":"in","Rept_Date":"2021-02-06 13"},"coordinates":[1799,4966]},{"type":"Point","properties":{"Station_ID":"WI-BY-22","Station_Nam":"MASON 11.5 WNW, WI","Latitude":"46.50198","Longitude":"-91.28339","Snowdepth":"17.500","Units":"in","Rept_Date":"2021-02-06 14"},"coordinates":[1398,6810]},{"type":"Point","properties":{"Station_ID":"VT-OL-9","Station_Nam":"GREENSBORO 2.1 NNW, VT","Latitude":"44.60528","Longitude":"-72.30940","Snowdepth":"17.500","Units":"in","Rept_Date":"2021-02-06 13"},"coordinates":[5851,5653]},{"type":"Point","properties":{"Station_ID":"VT-ES-3","Station_Nam":"LUNENBURG 2.3 NNW, VT","Latitude":"44.49324","Longitude":"-71.70446","Snowdepth":"17.500","Units":"in","Rept_Date":"2021-02-06 12"},"coordinates":[5993,5585]},{"type":"Point","properties":{"Station_ID":"NY-TM-27","Station_Nam":"GROTON 3.2 SSW, NY","Latitude":"42.54725","Longitude":"-76.39960","Snowdepth":"17.500","Units":"in","Rept_Date":"2021-02-06 12"},"coordinates":[4891,4397]},{"type":"Point","properties":{"Station_ID":"NH-CR-41","Station_Nam":"ALBANY 2.8 SW, NH","Latitude":"43.92648","Longitude":"-71.21556","Snowdepth":"17.500","Units":"in","Rept_Date":"2021-02-06 13"},"coordinates":[6107,5239]},{"type":"Point","properties":{"Station_ID":"IA-BC-9","Station_Nam":"WINTHROP 5.6 NNE, IA","Latitude":"42.55206","Longitude":"-91.70663","Snowdepth":"17.500","Units":"in","Rept_Date":"2021-02-06 15"},"coordinates":[1298,4400]},{"type":"Point","properties":{"Station_ID":"CAN-ON-5","Station_Nam":"OWEN SOUND 1.5 NW - GSCA, CAN","Latitude":"44.57837","Longitude":"-80.95461","Snowdepth":"17.500","Units":"in","Rept_Date":"2021-02-06 13"},"coordinates":[3822,5637]},{"type":"Point","properties":{"Station_ID":"NJ-HN-7","Station_Nam":"BETHLEHEM TWP 0.6 S, NJ","Latitude":"40.65995","Longitude":"-75.00803","Snowdepth":"17.200","Units":"in","Rept_Date":"2021-02-06 13"},"coordinates":[5217,3245]},{"type":"Point","properties":{"Station_ID":"MLZ","Station_Nam":"MLZ","Latitude":"50.66170","Longitude":"-68.82360","Snowdepth":"17.008","Units":"in","Rept_Date":"2021-02-06 12"},"coordinates":[6669,9349]},{"type":"Point","properties":{"Station_ID":"WSFW3","Station_Nam":"TOWN OF WESTFORD","Latitude":"43.47190","Longitude":"-88.88250","Snowdepth":"17.000","Units":"in","Rept_Date":"2021-02-06 13"},"coordinates":[1961,4961]},{"type":"Point","properties":{"Station_ID":"WORV1","Station_Nam":"WORCESTER 2 W","Latitude":"44.37470","Longitude":"-72.58220","Snowdepth":"17.000","Units":"in","Rept_Date":"2021-02-06 12"},"coordinates":[5787,5512]},{"type":"Point","properties":{"Station_ID":"WI-VL-14","Station_Nam":"BOULDER JUNCTION 1.4 NE, WI","Latitude":"46.12840","Longitude":"-89.62470","Snowdepth":"17.000","Units":"in","Rept_Date":"2021-02-06 13"},"coordinates":[1787,6582]},{"type":"Point","properties":{"Station_ID":"WI-DD-16","Station_Nam":"BEAVER DAM 2.4 WNW, WI","Latitude":"43.47210","Longitude":"-88.88280","Snowdepth":"17.000","Units":"in","Rept_Date":"2021-02-06 13"},"coordinates":[1961,4961]},{"type":"Point","properties":{"Station_ID":"VT-OL-2","Station_Nam":"BARTON 3.0 ENE, VT","Latitude":"44.75863","Longitude":"-72.11680","Snowdepth":"17.000","Units":"in","Rept_Date":"2021-02-06 12"},"coordinates":[5896,5747]},{"type":"Point","properties":{"Station_ID":"VT-FR-21","Station_Nam":"FAIRFAX 4.9 WNW, VT","Latitude":"44.68880","Longitude":"-73.10340","Snowdepth":"17.000","Units":"in","Rept_Date":"2021-02-06 14"},"coordinates":[5664,5704]},{"type":"Point","properties":{"Station_ID":"SUTV1","Station_Nam":"SUTTON","Latitude":"44.61220","Longitude":"-72.04810","Snowdepth":"17.000","Units":"in","Rept_Date":"2021-02-06 13"},"coordinates":[5912,5657]},{"type":"Point","properties":{"Station_ID":"STMM4","Station_Nam":"STAMBAUGH 2SSE","Latitude":"46.05550","Longitude":"-88.62780","Snowdepth":"17.000","Units":"in","Rept_Date":"2021-02-06 13"},"coordinates":[2021,6538]},{"type":"Point","properties":{"Station_ID":"SNOW2","Station_Nam":"SNOWSHOE","Latitude":"38.39900","Longitude":"-79.99490","Snowdepth":"17.000","Units":"in","Rept_Date":"2021-02-06 11"},"coordinates":[4047,1865]},{"type":"Point","properties":{"Station_ID":"RLKW3","Station_Nam":"REST LAKE","Latitude":"46.12220","Longitude":"-89.87720","Snowdepth":"17.000","Units":"in","Rept_Date":"2021-02-06 13"},"coordinates":[1728,6579]},{"type":"Point","properties":{"Station_ID":"PDGM4","Station_Nam":"PAULDING","Latitude":"46.39760","Longitude":"-89.17940","Snowdepth":"17.000","Units":"in","Rept_Date":"2021-02-06 14"},"coordinates":[1891,6747]},{"type":"Point","properties":{"Station_ID":"PA-CB-33","Station_Nam":"LAKE HARMONY 2.4 WNW, PA","Latitude":"41.07333","Longitude":"-75.63317","Snowdepth":"17.000","Units":"in","Rept_Date":"2021-02-06 12"},"coordinates":[5071,3498]},{"type":"Point","properties":{"Station_ID":"NY-ER-166","Station_Nam":"BOSTON 2.5 NE, NY","Latitude":"42.65480","Longitude":"-78.70300","Snowdepth":"17.000","Units":"in","Rept_Date":"2021-02-06 12"},"coordinates":[4350,4463]},{"type":"Point","properties":{"Station_ID":"NPTV1","Station_Nam":"NEWPORT","Latitude":"44.94900","Longitude":"-72.19120","Snowdepth":"17.000","Units":"in","Rept_Date":"2021-02-06 12"},"coordinates":[5878,5863]},{"type":"Point","properties":{"Station_ID":"NJ-WR-1","Station_Nam":"GREENWICH TWP 1.6 S, NJ","Latitude":"40.65545","Longitude":"-75.11670","Snowdepth":"17.000","Units":"in","Rept_Date":"2021-02-06 12"},"coordinates":[5192,3242]},{"type":"Point","properties":{"Station_ID":"NJ-SS-1","Station_Nam":"ANDOVER TWP 1.7 W, NJ","Latitude":"41.01974","Longitude":"-74.76110","Snowdepth":"17.000","Units":"in","Rept_Date":"2021-02-06 12"},"coordinates":[5275,3465]},{"type":"Point","properties":{"Station_ID":"NJ-MS-94","Station_Nam":"JEFFERSON TWP 4.4 SW, NJ","Latitude":"40.96404","Longitude":"-74.62162","Snowdepth":"17.000","Units":"in","Rept_Date":"2021-02-06 13"},"coordinates":[5308,3431]},{"type":"Point","properties":{"Station_ID":"NJ-MS-87","Station_Nam":"MOUNT ARLINGTON 0.8 S, NJ","Latitude":"40.90789","Longitude":"-74.64077","Snowdepth":"17.000","Units":"in","Rept_Date":"2021-02-06 13"},"coordinates":[5304,3397]},{"type":"Point","properties":{"Station_ID":"MI-GG-4","Station_Nam":"WATERSMEET 5.0 SE, MI","Latitude":"46.20333","Longitude":"-89.13170","Snowdepth":"17.000","Units":"in","Rept_Date":"2021-02-06 14"},"coordinates":[1903,6628]},{"type":"Point","properties":{"Station_ID":"IL-SP-26","Station_Nam":"FREEPORT 2.9 WSW, IL","Latitude":"42.26779","Longitude":"-89.68323","Snowdepth":"17.000","Units":"in","Rept_Date":"2021-02-06 14"},"coordinates":[1773,4226]},{"type":"Point","properties":{"Station_ID":"IL-JD-8","Station_Nam":"STOCKTON 3.4 NNE, IL","Latitude":"42.39960","Longitude":"-89.99020","Snowdepth":"17.000","Units":"in","Rept_Date":"2021-02-06 13"},"coordinates":[1701,4307]},{"type":"Point","properties":{"Station_ID":"EGRW3","Station_Nam":"EAGLE RIVER-SOUTH","Latitude":"45.91360","Longitude":"-89.24360","Snowdepth":"17.000","Units":"in","Rept_Date":"2021-02-06 13"},"coordinates":[1876,6451]},{"type":"Point","properties":{"Station_ID":"CLUI4","Station_Nam":"CLUTIER,IA","Latitude":"42.08330","Longitude":"-92.40000","Snowdepth":"17.000","Units":"in","Rept_Date":"2021-02-06 13"},"coordinates":[1136,4114]},{"type":"Point","properties":{"Station_ID":"BRLN3","Station_Nam":"BERLIN","Latitude":"44.45350","Longitude":"-71.18540","Snowdepth":"17.000","Units":"in","Rept_Date":"2021-02-06 14"},"coordinates":[6115,5560]},{"type":"Point","properties":{"Station_ID":"BLTW3","Station_Nam":"BELOIT,WI","Latitude":"42.50000","Longitude":"-89.03330","Snowdepth":"17.000","Units":"in","Rept_Date":"2021-02-06 12"},"coordinates":[1926,4368]},{"type":"Point","properties":{"Station_ID":"BEAW3","Station_Nam":"BEAVER DAM,WI","Latitude":"43.45000","Longitude":"-88.85000","Snowdepth":"17.000","Units":"in","Rept_Date":"2021-02-06 13"},"coordinates":[1969,4948]},{"type":"Point","properties":{"Station_ID":"AURN6","Station_Nam":"AURORA RESEARCH FARM","Latitude":"42.73380","Longitude":"-76.65910","Snowdepth":"17.000","Units":"in","Rept_Date":"2021-02-06 12"},"coordinates":[4830,4511]},{"type":"Point","properties":{"Station_ID":"QWE","Station_Nam":"QWE","Latitude":"47.84610","Longitude":"-73.80670","Snowdepth":"16.732","Units":"in","Rept_Date":"2021-02-06 12"},"coordinates":[5499,7631]},{"type":"Point","properties":{"Station_ID":"WI-SR-1","Station_Nam":"HAYWARD 9.2 NNE, WI","Latitude":"46.13255","Longitude":"-91.40500","Snowdepth":"16.500","Units":"in","Rept_Date":"2021-02-06 12"},"coordinates":[1369,6585]},{"type":"Point","properties":{"Station_ID":"WI-DA-35","Station_Nam":"MADISON 5.5 N, WI","Latitude":"43.15858","Longitude":"-89.37280","Snowdepth":"16.500","Units":"in","Rept_Date":"2021-02-06 14"},"coordinates":[1846,4770]},{"type":"Point","properties":{"Station_ID":"VT-WS-15","Station_Nam":"EAST CALAIS 1.5 SW, VT","Latitude":"44.35523","Longitude":"-72.45540","Snowdepth":"16.500","Units":"in","Rept_Date":"2021-02-06 12"},"coordinates":[5816,5500]},{"type":"Point","properties":{"Station_ID":"NY-OT-31","Station_Nam":"MARYLAND 1.8 W, NY","Latitude":"42.53310","Longitude":"-74.92090","Snowdepth":"16.500","Units":"in","Rept_Date":"2021-02-06 13"},"coordinates":[5238,4388]},{"type":"Point","properties":{"Station_ID":"NY-AB-1","Station_Nam":"ALTAMONT 2.7 SSW, NY","Latitude":"42.66696","Longitude":"-74.05090","Snowdepth":"16.500","Units":"in","Rept_Date":"2021-02-06 12"},"coordinates":[5442,4470]},{"type":"Point","properties":{"Station_ID":"MI-MQ-28","Station_Nam":"CARLSHEND, MI","Latitude":"46.31638","Longitude":"-87.19944","Snowdepth":"16.500","Units":"in","Rept_Date":"2021-02-06 13"},"coordinates":[2356,6697]},{"type":"Point","properties":{"Station_ID":"MI-AG-6","Station_Nam":"MUNISING 11.1 SSW, MI","Latitude":"46.27805","Longitude":"-86.75747","Snowdepth":"16.500","Units":"in","Rept_Date":"2021-02-06 12"},"coordinates":[2460,6674]},{"type":"Point","properties":{"Station_ID":"ME-FR-22","Station_Nam":"FARMINGTON 4.8 NNW, ME","Latitude":"44.73396","Longitude":"-70.18007","Snowdepth":"16.500","Units":"in","Rept_Date":"2021-02-06 14"},"coordinates":[6350,5731]},{"type":"Point","properties":{"Station_ID":"IL-MCH-95","Station_Nam":"CARY 0.5 SSW, IL","Latitude":"42.20235","Longitude":"-88.25224","Snowdepth":"16.500","Units":"in","Rept_Date":"2021-02-06 13"},"coordinates":[2109,4187]},{"type":"Point","properties":{"Station_ID":"IL-MCH-13","Station_Nam":"BULL VALLEY 2.5 WNW, IL","Latitude":"42.32455","Longitude":"-88.39460","Snowdepth":"16.500","Units":"in","Rept_Date":"2021-02-06 14"},"coordinates":[2076,4261]},{"type":"Point","properties":{"Station_ID":"WI-WK-34","Station_Nam":"MUKWONAGO 5.3 W, WI","Latitude":"42.85380","Longitude":"-88.43550","Snowdepth":"16.000","Units":"in","Rept_Date":"2021-02-06 13"},"coordinates":[2066,4584]},{"type":"Point","properties":{"Station_ID":"WI-RK-6","Station_Nam":"EVANSVILLE 0.4 E, WI","Latitude":"42.77913","Longitude":"-89.29020","Snowdepth":"16.000","Units":"in","Rept_Date":"2021-02-06 12"},"coordinates":[1865,4538]},{"type":"Point","properties":{"Station_ID":"WI-RK-12","Station_Nam":"JANESVILLE 3.1 W, WI","Latitude":"42.67576","Longitude":"-89.07614","Snowdepth":"16.000","Units":"in","Rept_Date":"2021-02-06 13"},"coordinates":[1916,4475]},{"type":"Point","properties":{"Station_ID":"WI-MW-18","Station_Nam":"WEST ALLIS 0.7 SSE, WI","Latitude":"42.99802","Longitude":"-88.02380","Snowdepth":"16.000","Units":"in","Rept_Date":"2021-02-06 14"},"coordinates":[2163,4672]},{"type":"Point","properties":{"Station_ID":"WI-DA-99","Station_Nam":"FITCHBURG 1.1 NW, WI","Latitude":"42.99740","Longitude":"-89.44046","Snowdepth":"16.000","Units":"in","Rept_Date":"2021-02-06 13"},"coordinates":[1830,4672]},{"type":"Point","properties":{"Station_ID":"VT-LM-1","Station_Nam":"STOWE 0.2 SW, VT","Latitude":"44.46399","Longitude":"-72.69070","Snowdepth":"16.000","Units":"in","Rept_Date":"2021-02-06 12"},"coordinates":[5761,5567]},{"type":"Point","properties":{"Station_ID":"VT-CL-18","Station_Nam":"WHEELOCK 1.6 S, VT","Latitude":"44.56491","Longitude":"-72.08830","Snowdepth":"16.000","Units":"in","Rept_Date":"2021-02-06 12"},"coordinates":[5903,5628]},{"type":"Point","properties":{"Station_ID":"SLNV1","Station_Nam":"SOUTH LINCOLN","Latitude":"44.07460","Longitude":"-72.97180","Snowdepth":"16.000","Units":"in","Rept_Date":"2021-02-06 12"},"coordinates":[5695,5329]},{"type":"Point","properties":{"Station_ID":"SEEW3","Station_Nam":"SOUTH MILWAUKEE WWTP","Latitude":"42.90110","Longitude":"-87.84940","Snowdepth":"16.000","Units":"in","Rept_Date":"2021-02-06 13"},"coordinates":[2204,4613]},{"type":"Point","properties":{"Station_ID":"RCHW3","Station_Nam":"RICHRIELD,WI","Latitude":"43.21080","Longitude":"-88.20940","Snowdepth":"16.000","Units":"in","Rept_Date":"2021-02-06 12"},"coordinates":[2119,4802]},{"type":"Point","properties":{"Station_ID":"NY-SR-22","Station_Nam":"GREENFIELD CENTER 1.6 W, NY","Latitude":"43.12684","Longitude":"-73.87860","Snowdepth":"16.000","Units":"in","Rept_Date":"2021-02-06 14"},"coordinates":[5482,4751]},{"type":"Point","properties":{"Station_ID":"NY-OT-11","Station_Nam":"HARTWICK, NY","Latitude":"42.65990","Longitude":"-75.05000","Snowdepth":"16.000","Units":"in","Rept_Date":"2021-02-06 15"},"coordinates":[5208,4466]},{"type":"Point","properties":{"Station_ID":"NY-ER-56","Station_Nam":"COLDEN 1.4 NNW, NY","Latitude":"42.64740","Longitude":"-78.71120","Snowdepth":"16.000","Units":"in","Rept_Date":"2021-02-06 12"},"coordinates":[4348,4458]},{"type":"Point","properties":{"Station_ID":"NJ-SS-7","Station_Nam":"HARDYSTON TWP 3.2 SE, NJ","Latitude":"41.08903","Longitude":"-74.53990","Snowdepth":"16.000","Units":"in","Rept_Date":"2021-02-06 13"},"coordinates":[5327,3507]},{"type":"Point","properties":{"Station_ID":"NJ-MS-4","Station_Nam":"ROCKAWAY TWP 0.7 NE, NJ","Latitude":"40.96583","Longitude":"-74.48780","Snowdepth":"16.000","Units":"in","Rept_Date":"2021-02-06 13"},"coordinates":[5339,3432]},{"type":"Point","properties":{"Station_ID":"NJ-BG-56","Station_Nam":"FAIR LAWN 1.2 SE, NJ","Latitude":"40.92170","Longitude":"-74.10440","Snowdepth":"16.000","Units":"in","Rept_Date":"2021-02-06 13"},"coordinates":[5429,3405]},{"type":"Point","properties":{"Station_ID":"NH-CR-11","Station_Nam":"NORTH CONWAY 1.4 SSW, NH","Latitude":"44.03556","Longitude":"-71.14010","Snowdepth":"16.000","Units":"in","Rept_Date":"2021-02-06 12"},"coordinates":[6125,5305]},{"type":"Point","properties":{"Station_ID":"NFKC3","Station_Nam":"NORFOLK","Latitude":"41.97250","Longitude":"-73.22080","Snowdepth":"16.000","Units":"in","Rept_Date":"2021-02-06 13"},"coordinates":[5637,4046]},{"type":"Point","properties":{"Station_ID":"MWOW3","Station_Nam":"MUKWONAGO","Latitude":"42.85380","Longitude":"-88.43550","Snowdepth":"16.000","Units":"in","Rept_Date":"2021-02-06 13"},"coordinates":[2066,4584]},{"type":"Point","properties":{"Station_ID":"ME-AR-15","Station_Nam":"PRESQUE ISLE 1.3 WSW, ME","Latitude":"46.67960","Longitude":"-68.01270","Snowdepth":"16.000","Units":"in","Rept_Date":"2021-02-06 12"},"coordinates":[6859,6919]},{"type":"Point","properties":{"Station_ID":"LODW3","Station_Nam":"LODI","Latitude":"43.32170","Longitude":"-89.53110","Snowdepth":"16.000","Units":"in","Rept_Date":"2021-02-06 13"},"coordinates":[1809,4870]},{"type":"Point","properties":{"Station_ID":"KINM1","Station_Nam":"KINGFIELD","Latitude":"44.95950","Longitude":"-70.17530","Snowdepth":"16.000","Units":"in","Rept_Date":"2021-02-06 13"},"coordinates":[6352,5869]},{"type":"Point","properties":{"Station_ID":"IL-SP-6","Station_Nam":"FREEPORT 2.0 NW, IL","Latitude":"42.30955","Longitude":"-89.66370","Snowdepth":"16.000","Units":"in","Rept_Date":"2021-02-06 14"},"coordinates":[1778,4252]},{"type":"Point","properties":{"Station_ID":"HUBN3","Station_Nam":"HUBBARD BROOK","Latitude":"43.93330","Longitude":"-71.71670","Snowdepth":"16.000","Units":"in","Rept_Date":"2021-02-07 06"},"coordinates":[5990,5243]},{"type":"Point","properties":{"Station_ID":"GOVN6","Station_Nam":"GOUVERNEUR 3 NW","Latitude":"44.35400","Longitude":"-75.51230","Snowdepth":"16.000","Units":"in","Rept_Date":"2021-02-06 12"},"coordinates":[5099,5500]},{"type":"Point","properties":{"Station_ID":"FREM4","Station_Nam":"FREMONT,MI","Latitude":"43.45000","Longitude":"-86.03330","Snowdepth":"16.000","Units":"in","Rept_Date":"2021-02-06 12"},"coordinates":[2630,4948]},{"type":"Point","properties":{"Station_ID":"DUBI4","Station_Nam":"DUBUQUE #3","Latitude":"42.40870","Longitude":"-90.73250","Snowdepth":"16.000","Units":"in","Rept_Date":"2021-02-07 00"},"coordinates":[1527,4312]},{"type":"Point","properties":{"Station_ID":"DEKI2","Station_Nam":"SOUTH BRANCH KISHWAUKEE RIVER AT DEKALB","Latitude":"41.93110","Longitude":"-88.75970","Snowdepth":"16.000","Units":"in","Rept_Date":"2021-02-06 13"},"coordinates":[1990,4021]},{"type":"Point","properties":{"Station_ID":"DBQ","Station_Nam":"DUBUQUE REGIONAL AIRPORT","Latitude":"42.40310","Longitude":"-90.70920","Snowdepth":"16.000","Units":"in","Rept_Date":"2021-02-07 00"},"coordinates":[1532,4309]},{"type":"Point","properties":{"Station_ID":"CODN6","Station_Nam":"COLDEN","Latitude":"42.64720","Longitude":"-78.71110","Snowdepth":"16.000","Units":"in","Rept_Date":"2021-02-06 12"},"coordinates":[4348,4458]},{"type":"Point","properties":{"Station_ID":"CMKW3","Station_Nam":"CLAM LAKE 4W","Latitude":"46.16940","Longitude":"-90.98080","Snowdepth":"16.000","Units":"in","Rept_Date":"2021-02-06 13"},"coordinates":[1469,6607]},{"type":"Point","properties":{"Station_ID":"CAN-ON-42","Station_Nam":"VANKLEEK HILL 3.4 S, CA","Latitude":"45.48987","Longitude":"-74.64570","Snowdepth":"16.000","Units":"in","Rept_Date":"2021-02-06 12"},"coordinates":[5302,6193]},{"type":"Point","properties":{"Station_ID":"CAN-ON-118","Station_Nam":"DURHAM 1.4 S, CAN","Latitude":"44.16525","Longitude":"-80.82064","Snowdepth":"16.000","Units":"in","Rept_Date":"2021-02-06 12"},"coordinates":[3853,5384]},{"type":"Point","properties":{"Station_ID":"CAN-MB-368","Station_Nam":"WHITESHELL 1.3 NE, CAN","Latitude":"49.74405","Longitude":"-95.19123","Snowdepth":"16.000","Units":"in","Rept_Date":"2021-02-06 14"},"coordinates":[481,8789]},{"type":"Point","properties":{"Station_ID":"CAAW2","Station_Nam":"CANAAN VALLEY","Latitude":"39.05890","Longitude":"-79.44030","Snowdepth":"16.000","Units":"in","Rept_Date":"2021-02-06 14"},"coordinates":[4177,2268]},{"type":"Point","properties":{"Station_ID":"BROW3","Station_Nam":"BRODHEAD,WI","Latitude":"42.61720","Longitude":"-89.38970","Snowdepth":"16.000","Units":"in","Rept_Date":"2021-02-06 13"},"coordinates":[1842,4440]},{"type":"Point","properties":{"Station_ID":"BDMW3","Station_Nam":"BEAVER DAM 1 N","Latitude":"43.46860","Longitude":"-88.83970","Snowdepth":"16.000","Units":"in","Rept_Date":"2021-02-06 13"},"coordinates":[1971,4959]},{"type":"Point","properties":{"Station_ID":"BARI2","Station_Nam":"CRABTREE NATURE CENTER","Latitude":"42.11530","Longitude":"-88.16390","Snowdepth":"16.000","Units":"in","Rept_Date":"2021-02-06 14"},"coordinates":[2130,4133]},{"type":"Point","properties":{"Station_ID":"AUBN6","Station_Nam":"AUBURN","Latitude":"42.93270","Longitude":"-76.54470","Snowdepth":"16.000","Units":"in","Rept_Date":"2021-02-06 12"},"coordinates":[4857,4632]},{"type":"Point","properties":{"Station_ID":"QTV","Station_Nam":"QTV","Latitude":"49.66000","Longitude":"-69.35690","Snowdepth":"15.866","Units":"in","Rept_Date":"2021-02-06 12"},"coordinates":[6544,8738]},{"type":"Point","properties":{"Station_ID":"CAN-QC-57","Station_Nam":"ACTON VALE 1.3 N, CAN","Latitude":"45.65868","Longitude":"-72.56645","Snowdepth":"15.700","Units":"in","Rept_Date":"2021-02-06 13"},"coordinates":[5790,6296]},{"type":"Point","properties":{"Station_ID":"CAN-ON-526","Station_Nam":"HILTON BEACH 0.7 SW - MNRF, CAN","Latitude":"46.25357","Longitude":"-83.90014","Snowdepth":"15.700","Units":"in","Rept_Date":"2021-02-06 12"},"coordinates":[3130,6659]},{"type":"Point","properties":{"Station_ID":"WI-WW-12","Station_Nam":"ELKHORN 0.4 ESE, WI","Latitude":"42.66970","Longitude":"-88.53170","Snowdepth":"15.600","Units":"in","Rept_Date":"2021-02-06 11"},"coordinates":[2043,4472]},{"type":"Point","properties":{"Station_ID":"WI-OZ-12","Station_Nam":"PORT WASHINGTON 0.5 S, WI","Latitude":"43.38610","Longitude":"-87.87900","Snowdepth":"15.500","Units":"in","Rept_Date":"2021-02-06 13"},"coordinates":[2197,4909]},{"type":"Point","properties":{"Station_ID":"WI-BY-29","Station_Nam":"BAYFIELD 5.1 NNW, WI","Latitude":"46.88063","Longitude":"-90.85854","Snowdepth":"15.500","Units":"in","Rept_Date":"2021-02-06 14"},"coordinates":[1497,7041]},{"type":"Point","properties":{"Station_ID":"WI-BY-2","Station_Nam":"MELLEN 18.6 SW, WI","Latitude":"46.16937","Longitude":"-90.98090","Snowdepth":"15.500","Units":"in","Rept_Date":"2021-02-06 13"},"coordinates":[1469,6607]},{"type":"Point","properties":{"Station_ID":"VT-WR-10","Station_Nam":"WEST WINDSOR 1.7 S, VT","Latitude":"43.46164","Longitude":"-72.49197","Snowdepth":"15.500","Units":"in","Rept_Date":"2021-02-06 12"},"coordinates":[5808,4955]},{"type":"Point","properties":{"Station_ID":"PA-NH-15","Station_Nam":"PORTLAND 2.7 WNW, PA","Latitude":"40.93750","Longitude":"-75.14450","Snowdepth":"15.500","Units":"in","Rept_Date":"2021-02-06 12"},"coordinates":[5185,3415]},{"type":"Point","properties":{"Station_ID":"NY-ER-65","Station_Nam":"BOSTON 1.5 NE, NY","Latitude":"42.65470","Longitude":"-78.72010","Snowdepth":"15.500","Units":"in","Rept_Date":"2021-02-06 12"},"coordinates":[4346,4463]},{"type":"Point","properties":{"Station_ID":"NJ-MS-71","Station_Nam":"DENVILLE TWP 1.5 ESE, NJ","Latitude":"40.88053","Longitude":"-74.46310","Snowdepth":"15.500","Units":"in","Rept_Date":"2021-02-06 12"},"coordinates":[5345,3380]},{"type":"Point","properties":{"Station_ID":"MI-OT-17","Station_Nam":"GAYLORD 4.1 S, MI","Latitude":"44.96388","Longitude":"-84.68467","Snowdepth":"15.500","Units":"in","Rept_Date":"2021-02-06 11"},"coordinates":[2946,5872]},{"type":"Point","properties":{"Station_ID":"MA-ES-48","Station_Nam":"ANDOVER 0.6 E, MA","Latitude":"42.65659","Longitude":"-71.13048","Snowdepth":"15.500","Units":"in","Rept_Date":"2021-02-06 10"},"coordinates":[6127,4464]},{"type":"Point","properties":{"Station_ID":"WSWN6","Station_Nam":"WARSAW","Latitude":"42.74220","Longitude":"-78.20850","Snowdepth":"15.000","Units":"in","Rept_Date":"2021-02-06 12"},"coordinates":[4466,4516]},{"type":"Point","properties":{"Station_ID":"WRSN6","Station_Nam":"WARSAW 6SW","Latitude":"42.68550","Longitude":"-78.22020","Snowdepth":"15.000","Units":"in","Rept_Date":"2021-02-06 12"},"coordinates":[4463,4481]},{"type":"Point","properties":{"Station_ID":"WLNM4","Station_Nam":"WELLSTON 1N","Latitude":"44.22940","Longitude":"-85.95690","Snowdepth":"15.000","Units":"in","Rept_Date":"2021-02-06 12"},"coordinates":[2648,5424]},{"type":"Point","properties":{"Station_ID":"WILW3","Station_Nam":"RESERVOIR","Latitude":"45.70000","Longitude":"-89.83330","Snowdepth":"15.000","Units":"in","Rept_Date":"2021-02-06 12"},"coordinates":[1738,6321]},{"type":"Point","properties":{"Station_ID":"WI-WW-2","Station_Nam":"LAKE GENEVA 0.6 ENE, WI","Latitude":"42.59169","Longitude":"-88.41770","Snowdepth":"15.000","Units":"in","Rept_Date":"2021-02-06 13"},"coordinates":[2070,4424]},{"type":"Point","properties":{"Station_ID":"WI-RC-3","Station_Nam":"RACINE 2.3 WSW, WI","Latitude":"42.71124","Longitude":"-87.84570","Snowdepth":"15.000","Units":"in","Rept_Date":"2021-02-06 13"},"coordinates":[2204,4497]},{"type":"Point","properties":{"Station_ID":"WI-PK-33","Station_Nam":"FREDERIC 4.8 NE, WI","Latitude":"45.70970","Longitude":"-92.39950","Snowdepth":"15.000","Units":"in","Rept_Date":"2021-02-06 13"},"coordinates":[1136,6327]},{"type":"Point","properties":{"Station_ID":"WI-ON-6","Station_Nam":"RHINELANDER 5.2 N, WI","Latitude":"45.71388","Longitude":"-89.42150","Snowdepth":"15.000","Units":"in","Rept_Date":"2021-02-06 14"},"coordinates":[1835,6329]},{"type":"Point","properties":{"Station_ID":"WI-DD-4","Station_Nam":"BEAVER DAM 1.4 SSW, WI","Latitude":"43.44719","Longitude":"-88.85260","Snowdepth":"15.000","Units":"in","Rept_Date":"2021-02-06 14"},"coordinates":[1968,4946]},{"type":"Point","properties":{"Station_ID":"WI-CB-4","Station_Nam":"PORTAGE 5.7 WSW, WI","Latitude":"43.51411","Longitude":"-89.56910","Snowdepth":"15.000","Units":"in","Rept_Date":"2021-02-06 12"},"coordinates":[1800,4987]},{"type":"Point","properties":{"Station_ID":"WDSV1","Station_Nam":"WOODSTOCK","Latitude":"43.63030","Longitude":"-72.50720","Snowdepth":"15.000","Units":"in","Rept_Date":"2021-02-06 13"},"coordinates":[5804,5058]},{"type":"Point","properties":{"Station_ID":"VT-CL-14","Station_Nam":"LYNDONVILLE 1.1 W, VT","Latitude":"44.53582","Longitude":"-72.02867","Snowdepth":"15.000","Units":"in","Rept_Date":"2021-02-06 12"},"coordinates":[5917,5611]},{"type":"Point","properties":{"Station_ID":"VQAW3","Station_Nam":"VIROQUA","Latitude":"43.55970","Longitude":"-90.87560","Snowdepth":"15.000","Units":"in","Rept_Date":"2021-02-06 13"},"coordinates":[1493,5015]},{"type":"Point","properties":{"Station_ID":"VNTI4","Station_Nam":"VINTON","Latitude":"42.17020","Longitude":"-92.00770","Snowdepth":"15.000","Units":"in","Rept_Date":"2021-02-06 13"},"coordinates":[1228,4167]},{"type":"Point","properties":{"Station_ID":"TMWN3","Station_Nam":"TAMWORTH 4","Latitude":"43.86390","Longitude":"-71.26610","Snowdepth":"15.000","Units":"in","Rept_Date":"2021-02-06 12"},"coordinates":[6096,5200]},{"type":"Point","properties":{"Station_ID":"TAKW3","Station_Nam":"RICE RESERVOIR NO. 2","Latitude":"45.53770","Longitude":"-89.73220","Snowdepth":"15.000","Units":"in","Rept_Date":"2021-02-06 13"},"coordinates":[1762,6222]},{"type":"Point","properties":{"Station_ID":"STGW3","Station_Nam":"ST GERMAIN","Latitude":"45.91550","Longitude":"-89.48940","Snowdepth":"15.000","Units":"in","Rept_Date":"2021-02-06 12"},"coordinates":[1819,6453]},{"type":"Point","properties":{"Station_ID":"SRAW3","Station_Nam":"SARONA","Latitude":"45.80250","Longitude":"-91.86700","Snowdepth":"15.000","Units":"in","Rept_Date":"2021-02-06 14"},"coordinates":[1261,6384]},{"type":"Point","properties":{"Station_ID":"RHRW3","Station_Nam":"RHINELANDER WJFW TV-12","Latitude":"45.62220","Longitude":"-89.41000","Snowdepth":"15.000","Units":"in","Rept_Date":"2021-02-07 04"},"coordinates":[1837,6274]},{"type":"Point","properties":{"Station_ID":"RHLW3","Station_Nam":"RHINELANDER 4NE","Latitude":"45.65270","Longitude":"-89.30740","Snowdepth":"15.000","Units":"in","Rept_Date":"2021-02-06 12"},"coordinates":[1861,6292]},{"type":"Point","properties":{"Station_ID":"RHIW3","Station_Nam":"RHINELANDER","Latitude":"45.59860","Longitude":"-89.45080","Snowdepth":"15.000","Units":"in","Rept_Date":"2021-02-06 13"},"coordinates":[1828,6259]},{"type":"Point","properties":{"Station_ID":"RHI","Station_Nam":"RHINELANDER-ONEIDA COUNTY AIRPORT","Latitude":"45.63080","Longitude":"-89.46530","Snowdepth":"15.000","Units":"in","Rept_Date":"2021-02-07 00"},"coordinates":[1824,6279]},{"type":"Point","properties":{"Station_ID":"NY-TM-4","Station_Nam":"GROTON 0.5 NW, NY","Latitude":"42.59127","Longitude":"-76.37200","Snowdepth":"15.000","Units":"in","Rept_Date":"2021-02-06 12"},"coordinates":[4897,4424]},{"type":"Point","properties":{"Station_ID":"NY-ER-63","Station_Nam":"GLENWOOD 1.5 SE, NY","Latitude":"42.60195","Longitude":"-78.63910","Snowdepth":"15.000","Units":"in","Rept_Date":"2021-02-06 13"},"coordinates":[4365,4430]},{"type":"Point","properties":{"Station_ID":"NY-CY-8","Station_Nam":"AUBURN 8.3 SSE, NY","Latitude":"42.82869","Longitude":"-76.48670","Snowdepth":"15.000","Units":"in","Rept_Date":"2021-02-06 12"},"coordinates":[4870,4569]},{"type":"Point","properties":{"Station_ID":"NY-CL-7","Station_Nam":"PERU 4.1 ESE, NY","Latitude":"44.56461","Longitude":"-73.45390","Snowdepth":"15.000","Units":"in","Rept_Date":"2021-02-06 11"},"coordinates":[5582,5628]},{"type":"Point","properties":{"Station_ID":"NUMN3","Station_Nam":"NORTHUMBERLAND","Latitude":"44.52830","Longitude":"-71.50440","Snowdepth":"15.000","Units":"in","Rept_Date":"2021-02-06 13"},"coordinates":[6040,5606]},{"type":"Point","properties":{"Station_ID":"NJ-HN-12","Station_Nam":"HOLLAND TWP 2.6 NNE, NJ","Latitude":"40.63168","Longitude":"-75.10450","Snowdepth":"15.000","Units":"in","Rept_Date":"2021-02-06 11"},"coordinates":[5195,3228]},{"type":"Point","properties":{"Station_ID":"NJ-BG-23","Station_Nam":"OAKLAND 0.9 SSE, NJ","Latitude":"41.01905","Longitude":"-74.23340","Snowdepth":"15.000","Units":"in","Rept_Date":"2021-02-06 13"},"coordinates":[5399,3464]},{"type":"Point","properties":{"Station_ID":"NH-MR-60","Station_Nam":"SOUTH SUTTON 1.3 SE, NH","Latitude":"43.29531","Longitude":"-71.90238","Snowdepth":"15.000","Units":"in","Rept_Date":"2021-02-06 13"},"coordinates":[5946,4854]},{"type":"Point","properties":{"Station_ID":"NH-CS-7","Station_Nam":"LANCASTER 0.5 N, NH","Latitude":"44.49611","Longitude":"-71.57640","Snowdepth":"15.000","Units":"in","Rept_Date":"2021-02-06 12"},"coordinates":[6023,5586]},{"type":"Point","properties":{"Station_ID":"NH-CR-27","Station_Nam":"TAMWORTH 0.4 NNW, NH","Latitude":"43.86449","Longitude":"-71.26610","Snowdepth":"15.000","Units":"in","Rept_Date":"2021-02-06 12"},"coordinates":[6096,5201]},{"type":"Point","properties":{"Station_ID":"NCON3","Station_Nam":"NORTH CONWAY","Latitude":"44.05620","Longitude":"-71.12970","Snowdepth":"15.000","Units":"in","Rept_Date":"2021-02-06 12"},"coordinates":[6128,5318]},{"type":"Point","properties":{"Station_ID":"NCKN6","Station_Nam":"NORTH CREEK 5 SE","Latitude":"43.66110","Longitude":"-73.89690","Snowdepth":"15.000","Units":"in","Rept_Date":"2021-02-06 12"},"coordinates":[5478,5077]},{"type":"Point","properties":{"Station_ID":"MNPV1","Station_Nam":"MONTPELIER 2","Latitude":"44.25530","Longitude":"-72.60060","Snowdepth":"15.000","Units":"in","Rept_Date":"2021-02-06 12"},"coordinates":[5782,5439]},{"type":"Point","properties":{"Station_ID":"MN-SL-108","Station_Nam":"IRON JUNCTION 3.4 NNW, MN","Latitude":"47.46150","Longitude":"-92.63130","Snowdepth":"15.000","Units":"in","Rept_Date":"2021-02-06 11"},"coordinates":[1081,7396]},{"type":"Point","properties":{"Station_ID":"MI-MQ-19","Station_Nam":"ISHPEMING 7.2 SW, MI","Latitude":"46.40550","Longitude":"-87.75670","Snowdepth":"15.000","Units":"in","Rept_Date":"2021-02-06 11"},"coordinates":[2225,6752]},{"type":"Point","properties":{"Station_ID":"MI-AT-6","Station_Nam":"MANCELONA 0.5 ESE, MI","Latitude":"44.89981","Longitude":"-85.05100","Snowdepth":"15.000","Units":"in","Rept_Date":"2021-02-06 13"},"coordinates":[2860,5833]},{"type":"Point","properties":{"Station_ID":"MAPM4","Station_Nam":"MAPLE CITY 1E","Latitude":"44.85500","Longitude":"-85.83520","Snowdepth":"15.000","Units":"in","Rept_Date":"2021-02-06 23"},"coordinates":[2676,5805]},{"type":"Point","properties":{"Station_ID":"LGEW3","Station_Nam":"LAKE GENEVA, WI","Latitude":"42.60000","Longitude":"-88.43440","Snowdepth":"15.000","Units":"in","Rept_Date":"2021-02-06 13"},"coordinates":[2066,4429]},{"type":"Point","properties":{"Station_ID":"KISM4","Station_Nam":"K.I. SAWYER WWTP","Latitude":"46.33410","Longitude":"-87.37790","Snowdepth":"15.000","Units":"in","Rept_Date":"2021-02-06 13"},"coordinates":[2314,6708]},{"type":"Point","properties":{"Station_ID":"JKMM1","Station_Nam":"JACKMAN","Latitude":"45.62600","Longitude":"-70.24600","Snowdepth":"15.000","Units":"in","Rept_Date":"2021-02-06 12"},"coordinates":[6335,6276]},{"type":"Point","properties":{"Station_ID":"JEFN3","Station_Nam":"JEFFERSON","Latitude":"44.41690","Longitude":"-71.50080","Snowdepth":"15.000","Units":"in","Rept_Date":"2021-02-06 12"},"coordinates":[6040,5538]},{"type":"Point","properties":{"Station_ID":"IL-BN-19","Station_Nam":"BELVIDERE 5.0 NNW, IL","Latitude":"42.32071","Longitude":"-88.88282","Snowdepth":"15.000","Units":"in","Rept_Date":"2021-02-06 13"},"coordinates":[1961,4259]},{"type":"Point","properties":{"Station_ID":"IA-ST-1","Station_Nam":"LE CLAIRE 1.8 NNE, IA","Latitude":"41.62355","Longitude":"-90.35140","Snowdepth":"15.000","Units":"in","Rept_Date":"2021-02-06 13"},"coordinates":[1616,3833]},{"type":"Point","properties":{"Station_ID":"HGHN4","Station_Nam":"HIGHLAND LAKES 1SW","Latitude":"41.16330","Longitude":"-74.45930","Snowdepth":"15.000","Units":"in","Rept_Date":"2021-02-06 11"},"coordinates":[5346,3552]},{"type":"Point","properties":{"Station_ID":"GTTI4","Station_Nam":"LOCK & DAM 10","Latitude":"42.78580","Longitude":"-91.09970","Snowdepth":"15.000","Units":"in","Rept_Date":"2021-02-06 14"},"coordinates":[1441,4543]},{"type":"Point","properties":{"Station_ID":"ENFV1","Station_Nam":"ENOSBURG FALLS 2","Latitude":"44.90960","Longitude":"-72.81370","Snowdepth":"15.000","Units":"in","Rept_Date":"2021-02-06 14"},"coordinates":[5732,5839]},{"type":"Point","properties":{"Station_ID":"DARW3","Station_Nam":"DARLINGTON","Latitude":"42.67780","Longitude":"-90.11860","Snowdepth":"15.000","Units":"in","Rept_Date":"2021-02-06 13"},"coordinates":[1671,4477]},{"type":"Point","properties":{"Station_ID":"COVP1","Station_Nam":"COVINGTON 2WSW","Latitude":"41.73330","Longitude":"-77.11670","Snowdepth":"15.000","Units":"in","Rept_Date":"2021-02-06 12"},"coordinates":[4722,3900]},{"type":"Point","properties":{"Station_ID":"CNDP1","Station_Nam":"CANADENSIS","Latitude":"41.18980","Longitude":"-75.23830","Snowdepth":"15.000","Units":"in","Rept_Date":"2021-02-06 12"},"coordinates":[5163,3569]},{"type":"Point","properties":{"Station_ID":"CDLM4","Station_Nam":"CADILLAC 9&10 NEWS","Latitude":"44.21130","Longitude":"-85.40860","Snowdepth":"15.000","Units":"in","Rept_Date":"2021-02-06 12"},"coordinates":[2776,5413]},{"type":"Point","properties":{"Station_ID":"CARM1","Station_Nam":"CARIBOU WFO","Latitude":"46.86810","Longitude":"-68.01250","Snowdepth":"15.000","Units":"in","Rept_Date":"2021-02-07 05"},"coordinates":[6859,7034]},{"type":"Point","properties":{"Station_ID":"CAR","Station_Nam":"CARIBOU, ME","Latitude":"46.86830","Longitude":"-68.01360","Snowdepth":"15.000","Units":"in","Rept_Date":"2021-02-06 12"},"coordinates":[6859,7034]},{"type":"Point","properties":{"Station_ID":"CAN-ON-791","Station_Nam":"METCALFE 4.4 NNW, CAN","Latitude":"45.27286","Longitude":"-75.48952","Snowdepth":"15.000","Units":"in","Rept_Date":"2021-02-06 11"},"coordinates":[5104,6060]},{"type":"Point","properties":{"Station_ID":"CAN-NB-18","Station_Nam":"MCLEOD HILL 1.1 ENE, CA","Latitude":"46.02725","Longitude":"-66.67460","Snowdepth":"15.000","Units":"in","Rept_Date":"2021-02-06 12"},"coordinates":[7173,6521]},{"type":"Point","properties":{"Station_ID":"BNDM5","Station_Nam":"ELY 25E","Latitude":"47.97190","Longitude":"-91.44860","Snowdepth":"15.000","Units":"in","Rept_Date":"2021-02-06 13"},"coordinates":[1359,7707]},{"type":"Point","properties":{"Station_ID":"BETM1","Station_Nam":"BETHEL 6 SSE","Latitude":"44.32000","Longitude":"-70.75680","Snowdepth":"15.000","Units":"in","Rept_Date":"2021-02-06 12"},"coordinates":[6215,5479]},{"type":"Point","properties":{"Station_ID":"BAGM4","Station_Nam":"BARAGA 7NW","Latitude":"46.82100","Longitude":"-88.60590","Snowdepth":"15.000","Units":"in","Rept_Date":"2021-02-06 13"},"coordinates":[2026,7005]},{"type":"Point","properties":{"Station_ID":"AVTW3","Station_Nam":"ARBOR VITAE-JOHNSON LAKE","Latitude":"45.89940","Longitude":"-89.72670","Snowdepth":"15.000","Units":"in","Rept_Date":"2021-02-06 12"},"coordinates":[1763,6443]},{"type":"Point","properties":{"Station_ID":"ATAN6","Station_Nam":"ATTICA 7 SW","Latitude":"42.81070","Longitude":"-78.39790","Snowdepth":"15.000","Units":"in","Rept_Date":"2021-02-06 11"},"coordinates":[4422,4558]},{"type":"Point","properties":{"Station_ID":"AMDW3","Station_Nam":"ALMOND-5 NE","Latitude":"44.30830","Longitude":"-89.34640","Snowdepth":"15.000","Units":"in","Rept_Date":"2021-02-06 14"},"coordinates":[1852,5472]},{"type":"Point","properties":{"Station_ID":"QLM","Station_Nam":"QLM","Latitude":"48.92030","Longitude":"-70.25280","Snowdepth":"14.882","Units":"in","Rept_Date":"2021-02-06 12"},"coordinates":[6333,8286]},{"type":"Point","properties":{"Station_ID":"NJ-MS-98","Station_Nam":"HARDING TWP 2.4 W, NJ","Latitude":"40.74165","Longitude":"-74.54592","Snowdepth":"14.600","Units":"in","Rept_Date":"2021-02-06 12"},"coordinates":[5326,3295]},{"type":"Point","properties":{"Station_ID":"WI-WK-61","Station_Nam":"HARTLAND 5.0 NNE, WI","Latitude":"43.16351","Longitude":"-88.30400","Snowdepth":"14.500","Units":"in","Rept_Date":"2021-02-06 13"},"coordinates":[2097,4773]},{"type":"Point","properties":{"Station_ID":"WI-DA-39","Station_Nam":"MADISON 4.0 W, WI","Latitude":"43.07741","Longitude":"-89.46757","Snowdepth":"14.500","Units":"in","Rept_Date":"2021-02-06 13"},"coordinates":[1824,4721]},{"type":"Point","properties":{"Station_ID":"NY-PT-2","Station_Nam":"BEACON 4.2 ESE, NY","Latitude":"41.48070","Longitude":"-73.89110","Snowdepth":"14.500","Units":"in","Rept_Date":"2021-02-06 12"},"coordinates":[5479,3746]},{"type":"Point","properties":{"Station_ID":"NY-MD-16","Station_Nam":"CHITTENANGO 2.1 ESE, NY","Latitude":"43.03297","Longitude":"-75.83480","Snowdepth":"14.500","Units":"in","Rept_Date":"2021-02-06 13"},"coordinates":[5023,4693]},{"type":"Point","properties":{"Station_ID":"NJ-WR-5","Station_Nam":"HACKETTSTOWN 0.8 W, NJ","Latitude":"40.85155","Longitude":"-74.84030","Snowdepth":"14.500","Units":"in","Rept_Date":"2021-02-06 12"},"coordinates":[5257,3362]},{"type":"Point","properties":{"Station_ID":"NJ-WR-42","Station_Nam":"KNOWLTON TWP 1.7 S, NJ","Latitude":"40.90560","Longitude":"-75.05880","Snowdepth":"14.500","Units":"in","Rept_Date":"2021-02-06 13"},"coordinates":[5205,3395]},{"type":"Point","properties":{"Station_ID":"MA-WR-89","Station_Nam":"HOLDEN 0.9 SSE, MA","Latitude":"42.33809","Longitude":"-71.85686","Snowdepth":"14.500","Units":"in","Rept_Date":"2021-02-06 12"},"coordinates":[5957,4269]},{"type":"Point","properties":{"Station_ID":"MA-WR-56","Station_Nam":"STERLING 4.3 NW, MA","Latitude":"42.47540","Longitude":"-71.81140","Snowdepth":"14.500","Units":"in","Rept_Date":"2021-02-06 12"},"coordinates":[5968,4353]},{"type":"Point","properties":{"Station_ID":"IL-SP-25","Station_Nam":"FREEPORT 1.7 NW, IL","Latitude":"42.30427","Longitude":"-89.66285","Snowdepth":"14.500","Units":"in","Rept_Date":"2021-02-06 13"},"coordinates":[1778,4249]},{"type":"Point","properties":{"Station_ID":"QMD","Station_Nam":"QMD","Latitude":"49.29060","Longitude":"-75.84500","Snowdepth":"14.409","Units":"in","Rept_Date":"2021-02-06 12"},"coordinates":[5021,8512]},{"type":"Point","properties":{"Station_ID":"MI-GT-27","Station_Nam":"TRAVERSE CITY 4.7 W, MI","Latitude":"44.75372","Longitude":"-85.69934","Snowdepth":"14.400","Units":"in","Rept_Date":"2021-02-06 13"},"coordinates":[2708,5744]},{"type":"Point","properties":{"Station_ID":"CAN-NB-105","Station_Nam":"SISSON BROOK 3.8 E, CAN","Latitude":"46.98305","Longitude":"-67.32532","Snowdepth":"14.200","Units":"in","Rept_Date":"2021-02-06 12"},"coordinates":[7020,7104]},{"type":"Point","properties":{"Station_ID":"WTBW3","Station_Nam":"WEST BEND PUBLIC WORKS","Latitude":"43.41110","Longitude":"-88.19380","Snowdepth":"14.000","Units":"in","Rept_Date":"2021-02-06 13"},"coordinates":[2123,4924]},{"type":"Point","properties":{"Station_ID":"WSTW3","Station_Nam":"WEST BEND -FIRE","Latitude":"43.43138","Longitude":"-88.16111","Snowdepth":"14.000","Units":"in","Rept_Date":"2021-02-06 13"},"coordinates":[2130,4937]},{"type":"Point","properties":{"Station_ID":"WRSM5","Station_Nam":"WRENSHALL","Latitude":"46.61550","Longitude":"-92.38380","Snowdepth":"14.000","Units":"in","Rept_Date":"2021-02-06 14"},"coordinates":[1139,6880]},{"type":"Point","properties":{"Station_ID":"WODI2","Station_Nam":"WOODSTOCK","Latitude":"42.36280","Longitude":"-88.53140","Snowdepth":"14.000","Units":"in","Rept_Date":"2021-02-06 13"},"coordinates":[2044,4284]},{"type":"Point","properties":{"Station_ID":"WLSN6","Station_Nam":"WALES","Latitude":"42.73920","Longitude":"-78.58780","Snowdepth":"14.000","Units":"in","Rept_Date":"2021-02-06 12"},"coordinates":[4377,4514]},{"type":"Point","properties":{"Station_ID":"WLKW3","Station_Nam":"WHITE LAKE 1 SE","Latitude":"45.14520","Longitude":"-88.74160","Snowdepth":"14.000","Units":"in","Rept_Date":"2021-02-06 14"},"coordinates":[1994,5982]},{"type":"Point","properties":{"Station_ID":"WI-WH-7","Station_Nam":"WILD ROSE 0.5 E, WI","Latitude":"44.17764","Longitude":"-89.23812","Snowdepth":"14.000","Units":"in","Rept_Date":"2021-02-06 13"},"coordinates":[1878,5392]},{"type":"Point","properties":{"Station_ID":"WI-SB-10","Station_Nam":"RANDOM LAKE 0.5 SSE, WI","Latitude":"43.54812","Longitude":"-87.95050","Snowdepth":"14.000","Units":"in","Rept_Date":"2021-02-06 13"},"coordinates":[2180,5008]},{"type":"Point","properties":{"Station_ID":"WI-MW-23","Station_Nam":"GREENDALE 1.0 ENE, WI","Latitude":"42.94094","Longitude":"-87.98230","Snowdepth":"14.000","Units":"in","Rept_Date":"2021-02-06 13"},"coordinates":[2172,4637]},{"type":"Point","properties":{"Station_ID":"WI-GL-4","Station_Nam":"GREEN LAKE 0.8 E, WI","Latitude":"43.84369","Longitude":"-88.94066","Snowdepth":"14.000","Units":"in","Rept_Date":"2021-02-06 13"},"coordinates":[1947,5188]},{"type":"Point","properties":{"Station_ID":"WI-DG-20","Station_Nam":"SOLON SPRINGS 1.2 W, WI","Latitude":"46.35217","Longitude":"-91.84405","Snowdepth":"14.000","Units":"in","Rept_Date":"2021-02-06 13"},"coordinates":[1266,6719]},{"type":"Point","properties":{"Station_ID":"WI-DA-87","Station_Nam":"DUNKIRK 0.1 NW, WI","Latitude":"42.88356","Longitude":"-89.21056","Snowdepth":"14.000","Units":"in","Rept_Date":"2021-02-06 12"},"coordinates":[1884,4602]},{"type":"Point","properties":{"Station_ID":"WI-CK-3","Station_Nam":"COLBY 5.9 WSW, WI","Latitude":"44.87209","Longitude":"-90.42463","Snowdepth":"14.000","Units":"in","Rept_Date":"2021-02-07 01"},"coordinates":[1599,5816]},{"type":"Point","properties":{"Station_ID":"WELM4","Station_Nam":"WELLSTON TIPPY DAM","Latitude":"44.25860","Longitude":"-85.93940","Snowdepth":"14.000","Units":"in","Rept_Date":"2021-02-06 13"},"coordinates":[2652,5441]},{"type":"Point","properties":{"Station_ID":"VT-OL-24","Station_Nam":"DERBY LINE 1.9 W, VT","Latitude":"45.00454","Longitude":"-72.14170","Snowdepth":"14.000","Units":"in","Rept_Date":"2021-02-06 12"},"coordinates":[5890,5897]},{"type":"Point","properties":{"Station_ID":"VT-CL-27","Station_Nam":"DANVILLE 0.4 N, VT","Latitude":"44.41769","Longitude":"-72.13936","Snowdepth":"14.000","Units":"in","Rept_Date":"2021-02-06 12"},"coordinates":[5891,5538]},{"type":"Point","properties":{"Station_ID":"VT-CH-38","Station_Nam":"WILLISTON 0.2 WSW, VT","Latitude":"44.43669","Longitude":"-73.07154","Snowdepth":"14.000","Units":"in","Rept_Date":"2021-02-06 12"},"coordinates":[5672,5550]},{"type":"Point","properties":{"Station_ID":"TLDI4","Station_Nam":"TOLEDO,IA","Latitude":"41.98330","Longitude":"-92.58330","Snowdepth":"14.000","Units":"in","Rept_Date":"2021-02-06 13"},"coordinates":[1093,4053]},{"type":"Point","properties":{"Station_ID":"SHHN6","Station_Nam":"SCHOHARIE VILLAGE","Latitude":"42.66500","Longitude":"-74.30360","Snowdepth":"14.000","Units":"in","Rept_Date":"2021-02-06 13"},"coordinates":[5383,4469]},{"type":"Point","properties":{"Station_ID":"SAUW3","Station_Nam":"WAUSAU WSAW TV","Latitude":"44.94630","Longitude":"-89.62220","Snowdepth":"14.000","Units":"in","Rept_Date":"2021-02-07 05"},"coordinates":[1788,5861]},{"type":"Point","properties":{"Station_ID":"ROCW3","Station_Nam":"ROCHESTER WWTP","Latitude":"42.72690","Longitude":"-88.22580","Snowdepth":"14.000","Units":"in","Rept_Date":"2021-02-06 14"},"coordinates":[2115,4507]},{"type":"Point","properties":{"Station_ID":"PLFV1","Station_Nam":"PLAINFIELD","Latitude":"44.27610","Longitude":"-72.41500","Snowdepth":"14.000","Units":"in","Rept_Date":"2021-02-06 12"},"coordinates":[5826,5452]},{"type":"Point","properties":{"Station_ID":"PLBN6","Station_Nam":"PLATTSBURGH COOP","Latitude":"44.69180","Longitude":"-73.45560","Snowdepth":"14.000","Units":"in","Rept_Date":"2021-02-06 12"},"coordinates":[5582,5706]},{"type":"Point","properties":{"Station_ID":"PA-NH-8","Station_Nam":"MARTINS CREEK 0.2 E, PA","Latitude":"40.78285","Longitude":"-75.18270","Snowdepth":"14.000","Units":"in","Rept_Date":"2021-02-06 12"},"coordinates":[5176,3320]},{"type":"Point","properties":{"Station_ID":"PA-LH-25","Station_Nam":"COOPERSBURG 2.8 WSW, PA","Latitude":"40.49818","Longitude":"-75.44143","Snowdepth":"14.000","Units":"in","Rept_Date":"2021-02-06 13"},"coordinates":[5116,3147]},{"type":"Point","properties":{"Station_ID":"NY-TM-3","Station_Nam":"ITHACA 1.1 SE, NY","Latitude":"42.43173","Longitude":"-76.48860","Snowdepth":"14.000","Units":"in","Rept_Date":"2021-02-06 12"},"coordinates":[4870,4326]},{"type":"Point","properties":{"Station_ID":"NY-TG-15","Station_Nam":"BERKSHIRE 1.9 ENE, NY","Latitude":"42.31910","Longitude":"-76.21940","Snowdepth":"14.000","Units":"in","Rept_Date":"2021-02-06 13"},"coordinates":[4933,4258]},{"type":"Point","properties":{"Station_ID":"NY-SY-11","Station_Nam":"DUNDEE 6.2 E, NY","Latitude":"42.52210","Longitude":"-76.85580","Snowdepth":"14.000","Units":"in","Rept_Date":"2021-02-06 12"},"coordinates":[4784,4382]},{"type":"Point","properties":{"Station_ID":"NY-ER-75","Station_Nam":"ELMA CENTER 0.7 SE, NY","Latitude":"42.81936","Longitude":"-78.62140","Snowdepth":"14.000","Units":"in","Rept_Date":"2021-02-06 14"},"coordinates":[4369,4563]},{"type":"Point","properties":{"Station_ID":"NY-ER-194","Station_Nam":"GLENWOOD 1.0 SE, NY","Latitude":"42.60740","Longitude":"-78.64610","Snowdepth":"14.000","Units":"in","Rept_Date":"2021-02-06 12"},"coordinates":[4364,4434]},{"type":"Point","properties":{"Station_ID":"NY-DL-32","Station_Nam":"DELHI 6.6 WNW, NY","Latitude":"42.32118","Longitude":"-75.02991","Snowdepth":"14.000","Units":"in","Rept_Date":"2021-02-06 12"},"coordinates":[5212,4259]},{"type":"Point","properties":{"Station_ID":"NY-DL-25","Station_Nam":"HOBART 4.8 ESE, NY","Latitude":"42.35230","Longitude":"-74.57830","Snowdepth":"14.000","Units":"in","Rept_Date":"2021-02-06 12"},"coordinates":[5318,4278]},{"type":"Point","properties":{"Station_ID":"NY-CT-33","Station_Nam":"GREAT VALLEY 2.2 WNW, NY","Latitude":"42.22790","Longitude":"-78.67580","Snowdepth":"14.000","Units":"in","Rept_Date":"2021-02-06 12"},"coordinates":[4357,4202]},{"type":"Point","properties":{"Station_ID":"NY-CR-5","Station_Nam":"MARATHON 1.0 NW, NY","Latitude":"42.45161","Longitude":"-76.04370","Snowdepth":"14.000","Units":"in","Rept_Date":"2021-02-06 12"},"coordinates":[4974,4339]},{"type":"Point","properties":{"Station_ID":"NWSM1","Station_Nam":"NEW SHARON","Latitude":"44.63520","Longitude":"-70.00020","Snowdepth":"14.000","Units":"in","Rept_Date":"2021-02-06 12"},"coordinates":[6393,5671]},{"type":"Point","properties":{"Station_ID":"NOHM5","Station_Nam":"NORTHOME","Latitude":"47.83590","Longitude":"-94.25550","Snowdepth":"14.000","Units":"in","Rept_Date":"2021-02-06 13"},"coordinates":[700,7624]},{"type":"Point","properties":{"Station_ID":"NJ-ES-31","Station_Nam":"MONTCLAIR 0.7 N, NJ","Latitude":"40.83534","Longitude":"-74.20896","Snowdepth":"14.000","Units":"in","Rept_Date":"2021-02-06 13"},"coordinates":[5405,3352]},{"type":"Point","properties":{"Station_ID":"NH-CR-46","Station_Nam":"NORTH CONWAY 1.8 SSE, NH","Latitude":"44.02955","Longitude":"-71.11664","Snowdepth":"14.000","Units":"in","Rept_Date":"2021-02-06 14"},"coordinates":[6131,5302]},{"type":"Point","properties":{"Station_ID":"MSRN3","Station_Nam":"MASCOMA RIVER","Latitude":"43.78330","Longitude":"-72.03330","Snowdepth":"14.000","Units":"in","Rept_Date":"2021-02-07 05"},"coordinates":[5916,5151]},{"type":"Point","properties":{"Station_ID":"MRBW3","Station_Nam":"MT HOREB","Latitude":"42.98030","Longitude":"-89.73940","Snowdepth":"14.000","Units":"in","Rept_Date":"2021-02-06 13"},"coordinates":[1760,4661]},{"type":"Point","properties":{"Station_ID":"MRAM5","Station_Nam":"MORA","Latitude":"45.87760","Longitude":"-93.31470","Snowdepth":"14.000","Units":"in","Rept_Date":"2021-02-06 13"},"coordinates":[921,6429]},{"type":"Point","properties":{"Station_ID":"MQRW3","Station_Nam":"MINOCQUA","Latitude":"45.88630","Longitude":"-89.73220","Snowdepth":"14.000","Units":"in","Rept_Date":"2021-02-06 12"},"coordinates":[1762,6435]},{"type":"Point","properties":{"Station_ID":"MN-KB-17","Station_Nam":"MORA 2.5 S, MN","Latitude":"45.84100","Longitude":"-93.29700","Snowdepth":"14.000","Units":"in","Rept_Date":"2021-02-06 13"},"coordinates":[925,6407]},{"type":"Point","properties":{"Station_ID":"MN-CK-18","Station_Nam":"GRAND MARAIS 4.4 WSW, MN","Latitude":"47.74462","Longitude":"-90.43796","Snowdepth":"14.000","Units":"in","Rept_Date":"2021-02-06 13"},"coordinates":[1596,7569]},{"type":"Point","properties":{"Station_ID":"MKE","Station_Nam":"GEN MITCHELL INTL AIRPORT","Latitude":"42.94720","Longitude":"-87.89670","Snowdepth":"14.000","Units":"in","Rept_Date":"2021-02-07 00"},"coordinates":[2192,4641]},{"type":"Point","properties":{"Station_ID":"MI-OT-4","Station_Nam":"GAYLORD 1.7 WNW, MI","Latitude":"45.03280","Longitude":"-84.71090","Snowdepth":"14.000","Units":"in","Rept_Date":"2021-02-06 13"},"coordinates":[2940,5914]},{"type":"Point","properties":{"Station_ID":"MI-OT-16","Station_Nam":"GAYLORD 2.2 SSE, MI","Latitude":"44.99441","Longitude":"-84.65820","Snowdepth":"14.000","Units":"in","Rept_Date":"2021-02-06 13"},"coordinates":[2953,5890]},{"type":"Point","properties":{"Station_ID":"MI-OG-6","Station_Nam":"WEST BRANCH 2.1 SSW, MI","Latitude":"44.24814","Longitude":"-84.25089","Snowdepth":"14.000","Units":"in","Rept_Date":"2021-02-06 12"},"coordinates":[3048,5435]},{"type":"Point","properties":{"Station_ID":"MD-GR-4","Station_Nam":"MC HENRY 4.8 SSE, MD","Latitude":"39.48539","Longitude":"-79.31830","Snowdepth":"14.000","Units":"in","Rept_Date":"2021-02-06 13"},"coordinates":[4206,2528]},{"type":"Point","properties":{"Station_ID":"MA-MD-125","Station_Nam":"TEWKSBURY 3.6 SSE, MA","Latitude":"42.57083","Longitude":"-71.19813","Snowdepth":"14.000","Units":"in","Rept_Date":"2021-02-06 12"},"coordinates":[6112,4411]},{"type":"Point","properties":{"Station_ID":"LEIM5","Station_Nam":"ORR 3E","Latitude":"48.05810","Longitude":"-92.75220","Snowdepth":"14.000","Units":"in","Rept_Date":"2021-02-06 12"},"coordinates":[1053,7760]},{"type":"Point","properties":{"Station_ID":"LAPP1","Station_Nam":"LAPORTE,PA","Latitude":"41.42470","Longitude":"-76.49250","Snowdepth":"14.000","Units":"in","Rept_Date":"2021-02-06 12"},"coordinates":[4869,3712]},{"type":"Point","properties":{"Station_ID":"KMKE","Station_Nam":"GEN MITCHELL INTERNATIONAL  AIRPORT","Latitude":"42.95000","Longitude":"-87.90000","Snowdepth":"14.000","Units":"in","Rept_Date":"2021-02-07 06"},"coordinates":[2192,4643]},{"type":"Point","properties":{"Station_ID":"ISLV1","Station_Nam":"ISLAND POND","Latitude":"44.81280","Longitude":"-71.89020","Snowdepth":"14.000","Units":"in","Rept_Date":"2021-02-06 14"},"coordinates":[5949,5780]},{"type":"Point","properties":{"Station_ID":"IA-CT-8","Station_Nam":"ELKADER 6.8 WSW, IA","Latitude":"42.81136","Longitude":"-91.52332","Snowdepth":"14.000","Units":"in","Rept_Date":"2021-02-06 14"},"coordinates":[1341,4558]},{"type":"Point","properties":{"Station_ID":"GAYM4","Station_Nam":"GAYLORD","Latitude":"45.03320","Longitude":"-84.71130","Snowdepth":"14.000","Units":"in","Rept_Date":"2021-02-06 13"},"coordinates":[2940,5914]},{"type":"Point","properties":{"Station_ID":"ESGM1","Station_Nam":"EAST SANGERVILLE","Latitude":"45.13690","Longitude":"-69.28060","Snowdepth":"14.000","Units":"in","Rept_Date":"2021-02-06 12"},"coordinates":[6562,5977]},{"type":"Point","properties":{"Station_ID":"ELYM5","Station_Nam":"ELY","Latitude":"47.90560","Longitude":"-91.82830","Snowdepth":"14.000","Units":"in","Rept_Date":"2021-02-06 14"},"coordinates":[1270,7667]},{"type":"Point","properties":{"Station_ID":"EKRI4","Station_Nam":"ELKADER 6SSW","Latitude":"42.77540","Longitude":"-91.45370","Snowdepth":"14.000","Units":"in","Rept_Date":"2021-02-06 13"},"coordinates":[1358,4536]},{"type":"Point","properties":{"Station_ID":"DLNW3","Station_Nam":"WALWORTH COUNTYMETROPOLITAN SEWERAGE DISTRICT (DELEVAN)","Latitude":"42.63440","Longitude":"-88.66280","Snowdepth":"14.000","Units":"in","Rept_Date":"2021-02-06 12"},"coordinates":[2013,4450]},{"type":"Point","properties":{"Station_ID":"CT-NH-72","Station_Nam":"NORTHFORD 0.8 SW, CT","Latitude":"41.38554","Longitude":"-72.80240","Snowdepth":"14.000","Units":"in","Rept_Date":"2021-02-06 12"},"coordinates":[5735,3688]},{"type":"Point","properties":{"Station_ID":"CRPI4","Station_Nam":"CEDAR RAPIDS NO 1","Latitude":"42.05000","Longitude":"-91.58810","Snowdepth":"14.000","Units":"in","Rept_Date":"2021-02-06 23"},"coordinates":[1326,4094]},{"type":"Point","properties":{"Station_ID":"CORV1","Station_Nam":"CORINTH","Latitude":"44.00690","Longitude":"-72.31940","Snowdepth":"14.000","Units":"in","Rept_Date":"2021-02-06 12"},"coordinates":[5848,5288]},{"type":"Point","properties":{"Station_ID":"COBN6","Station_Nam":"COBLESKILL 2ESE","Latitude":"42.66710","Longitude":"-74.44230","Snowdepth":"14.000","Units":"in","Rept_Date":"2021-02-06 13"},"coordinates":[5350,4470]},{"type":"Point","properties":{"Station_ID":"BFHW3","Station_Nam":"BAYFIELD FISH HATCHERY","Latitude":"46.78670","Longitude":"-90.86420","Snowdepth":"14.000","Units":"in","Rept_Date":"2021-02-06 14"},"coordinates":[1496,6984]},{"type":"Point","properties":{"Station_ID":"BELN4","Station_Nam":"BELVIDERE BRIDGE","Latitude":"40.82910","Longitude":"-75.08330","Snowdepth":"14.000","Units":"in","Rept_Date":"2021-02-06 12"},"coordinates":[5200,3348]},{"type":"Point","properties":{"Station_ID":"BABM5","Station_Nam":"BABBITT","Latitude":"47.71210","Longitude":"-91.95330","Snowdepth":"14.000","Units":"in","Rept_Date":"2021-02-06 13"},"coordinates":[1240,7549]},{"type":"Point","properties":{"Station_ID":"AUW","Station_Nam":"WAUSAU MUNICIPAL AIRPORT","Latitude":"44.92580","Longitude":"-89.62560","Snowdepth":"14.000","Units":"in","Rept_Date":"2021-02-07 00"},"coordinates":[1787,5849]},{"type":"Point","properties":{"Station_ID":"ARX","Station_Nam":"LA CROSSE, WI","Latitude":"43.82280","Longitude":"-91.19190","Snowdepth":"14.000","Units":"in","Rept_Date":"2021-02-07 06"},"coordinates":[1419,5175]},{"type":"Point","properties":{"Station_ID":"QLP","Station_Nam":"QLP","Latitude":"48.13920","Longitude":"-72.63830","Snowdepth":"13.858","Units":"in","Rept_Date":"2021-02-06 12"},"coordinates":[5774,7810]},{"type":"Point","properties":{"Station_ID":"QLI","Station_Nam":"QLI","Latitude":"50.27080","Longitude":"-73.92280","Snowdepth":"13.622","Units":"in","Rept_Date":"2021-02-06 12"},"coordinates":[5472,9110]},{"type":"Point","properties":{"Station_ID":"WI-WS-5","Station_Nam":"JACKSON 0.2 WSW, WI","Latitude":"43.32007","Longitude":"-88.16820","Snowdepth":"13.500","Units":"in","Rept_Date":"2021-02-06 12"},"coordinates":[2129,4869]},{"type":"Point","properties":{"Station_ID":"WI-TY-3","Station_Nam":"MEDFORD 0.8 ENE, WI","Latitude":"45.14421","Longitude":"-90.33349","Snowdepth":"13.500","Units":"in","Rept_Date":"2021-02-06 14"},"coordinates":[1621,5982]},{"type":"Point","properties":{"Station_ID":"WI-PR-8","Station_Nam":"PHILLIPS 0.4 SSW, WI","Latitude":"45.69086","Longitude":"-90.40200","Snowdepth":"13.500","Units":"in","Rept_Date":"2021-02-06 13"},"coordinates":[1605,6315]},{"type":"Point","properties":{"Station_ID":"WI-OZ-22","Station_Nam":"SAUKVILLE 0.9 SSW, WI","Latitude":"43.37254","Longitude":"-87.95009","Snowdepth":"13.500","Units":"in","Rept_Date":"2021-02-06 13"},"coordinates":[2180,4901]},{"type":"Point","properties":{"Station_ID":"NY-OR-2","Station_Nam":"CORNWALL ON HUDSON 0.6 NNW, NY","Latitude":"41.44687","Longitude":"-74.02140","Snowdepth":"13.500","Units":"in","Rept_Date":"2021-02-06 12"},"coordinates":[5449,3725]},{"type":"Point","properties":{"Station_ID":"NY-OR-19","Station_Nam":"GREENWOOD LAKE 3.0 SW, NY","Latitude":"41.18900","Longitude":"-74.32650","Snowdepth":"13.500","Units":"in","Rept_Date":"2021-02-06 13"},"coordinates":[5377,3568]},{"type":"Point","properties":{"Station_ID":"NJ-UN-10","Station_Nam":"NEW PROVIDENCE 0.8 ESE, NJ","Latitude":"40.69450","Longitude":"-74.38980","Snowdepth":"13.500","Units":"in","Rept_Date":"2021-02-06 12"},"coordinates":[5362,3266]},{"type":"Point","properties":{"Station_ID":"NJ-PS-21","Station_Nam":"WEST MILFORD TWP 2.5 SSE, NJ","Latitude":"41.07393","Longitude":"-74.36800","Snowdepth":"13.500","Units":"in","Rept_Date":"2021-02-06 12"},"coordinates":[5368,3498]},{"type":"Point","properties":{"Station_ID":"NJ-MS-82","Station_Nam":"MENDHAM 1.5 W, NJ","Latitude":"40.77272","Longitude":"-74.62908","Snowdepth":"13.500","Units":"in","Rept_Date":"2021-02-06 14"},"coordinates":[5306,3314]},{"type":"Point","properties":{"Station_ID":"NJ-MS-42","Station_Nam":"RANDOLPH TWP 2.0 E, NJ","Latitude":"40.83980","Longitude":"-74.54320","Snowdepth":"13.500","Units":"in","Rept_Date":"2021-02-06 13"},"coordinates":[5326,3355]},{"type":"Point","properties":{"Station_ID":"MA-HS-2","Station_Nam":"WESTHAMPTON 1.8 SW, MA","Latitude":"42.27943","Longitude":"-72.78700","Snowdepth":"13.500","Units":"in","Rept_Date":"2021-02-06 13"},"coordinates":[5739,4234]},{"type":"Point","properties":{"Station_ID":"IL-WL-131","Station_Nam":"HOMER GLEN 0.7 NNE, IL","Latitude":"41.60842","Longitude":"-87.93270","Snowdepth":"13.500","Units":"in","Rept_Date":"2021-02-06 13"},"coordinates":[2184,3824]},{"type":"Point","properties":{"Station_ID":"IL-CK-12","Station_Nam":"BRIDGEVIEW 1.3 NNW, IL","Latitude":"41.75502","Longitude":"-87.81730","Snowdepth":"13.500","Units":"in","Rept_Date":"2021-02-06 13"},"coordinates":[2211,3914]},{"type":"Point","properties":{"Station_ID":"CAN-ON-491","Station_Nam":"MILVERTON 1.1 ESE- CANWARN, CAN","Latitude":"43.56074","Longitude":"-80.90887","Snowdepth":"13.500","Units":"in","Rept_Date":"2021-02-06 11"},"coordinates":[3832,5015]},{"type":"Point","properties":{"Station_ID":"WLDM5","Station_Nam":"WILD RIVER STATE PARK","Latitude":"45.52310","Longitude":"-92.74890","Snowdepth":"13.000","Units":"in","Rept_Date":"2021-02-06 14"},"coordinates":[1054,6213]},{"type":"Point","properties":{"Station_ID":"WI-WK-73","Station_Nam":"MENOMONEE FALLS 3.2 NNW, WI","Latitude":"43.18817","Longitude":"-88.15555","Snowdepth":"13.000","Units":"in","Rept_Date":"2021-02-06 13"},"coordinates":[2132,4788]},{"type":"Point","properties":{"Station_ID":"WI-WK-29","Station_Nam":"OCONOMOWOC 4.6 NE, WI","Latitude":"43.14621","Longitude":"-88.42860","Snowdepth":"13.000","Units":"in","Rept_Date":"2021-02-06 15"},"coordinates":[2068,4763]},{"type":"Point","properties":{"Station_ID":"WI-OZ-17","Station_Nam":"WEST BEND 7.3 E, WI","Latitude":"43.42860","Longitude":"-88.03870","Snowdepth":"13.000","Units":"in","Rept_Date":"2021-02-06 13"},"coordinates":[2159,4935]},{"type":"Point","properties":{"Station_ID":"WI-MN-9","Station_Nam":"WARRENS 4.7 WSW, WI","Latitude":"44.10386","Longitude":"-90.58884","Snowdepth":"13.000","Units":"in","Rept_Date":"2021-02-06 14"},"coordinates":[1561,5347]},{"type":"Point","properties":{"Station_ID":"WI-DA-31","Station_Nam":"DEERFIELD 0.6 N, WI","Latitude":"43.05958","Longitude":"-89.07340","Snowdepth":"13.000","Units":"in","Rept_Date":"2021-02-06 15"},"coordinates":[1916,4710]},{"type":"Point","properties":{"Station_ID":"WI-DA-13","Station_Nam":"MADISON 3.7 WSW, WI","Latitude":"43.06230","Longitude":"-89.45650","Snowdepth":"13.000","Units":"in","Rept_Date":"2021-02-06 13"},"coordinates":[1826,4711]},{"type":"Point","properties":{"Station_ID":"WI-BY-1","Station_Nam":"BAYFIELD 8.8 N, WI","Latitude":"46.93855","Longitude":"-90.83490","Snowdepth":"13.000","Units":"in","Rept_Date":"2021-02-06 13"},"coordinates":[1503,7077]},{"type":"Point","properties":{"Station_ID":"VT-AD-28","Station_Nam":"MONKTON 1.5 NE, VT","Latitude":"44.26760","Longitude":"-73.09940","Snowdepth":"13.000","Units":"in","Rept_Date":"2021-02-06 12"},"coordinates":[5665,5447]},{"type":"Point","properties":{"Station_ID":"SULW3","Station_Nam":"SUMMIT LAKE","Latitude":"45.37880","Longitude":"-89.19410","Snowdepth":"13.000","Units":"in","Rept_Date":"2021-02-06 11"},"coordinates":[1888,6125]},{"type":"Point","properties":{"Station_ID":"STEM4","Station_Nam":"STEUBEN","Latitude":"46.18530","Longitude":"-86.46410","Snowdepth":"13.000","Units":"in","Rept_Date":"2021-02-06 14"},"coordinates":[2529,6617]},{"type":"Point","properties":{"Station_ID":"SHIW3","Station_Nam":"SHIOCTON","Latitude":"44.43890","Longitude":"-88.58390","Snowdepth":"13.000","Units":"in","Rept_Date":"2021-02-06 14"},"coordinates":[2031,5551]},{"type":"Point","properties":{"Station_ID":"SGVN6","Station_Nam":"SPRINGVILLE","Latitude":"42.54970","Longitude":"-78.57670","Snowdepth":"13.000","Units":"in","Rept_Date":"2021-02-06 22"},"coordinates":[4380,4398]},