{"type":"Topology","objects":{"snowdepth_geo":{"type":"GeometryCollection","name":"snowdepth","crs":{"type":"name","properties":{"name":"urn:ogc:def:crs:OGC:1.3:CRS84"}},"geometries":[{"type":"Point","properties":{"Station_ID":"PRKM4","Station_Nam":"MUNISING EAST","Latitude":"46.42580","Longitude":"-86.62000","Snowdepth":"76.500","Units":"in","Rept_Date":"2020-03-21 06"},"coordinates":[2492,4954]},{"type":"Point","properties":{"Station_ID":"OGIQ6","Station_Nam":"OGOKI CAMP","Latitude":"50.76680","Longitude":"-87.85820","Snowdepth":"61.100","Units":"in","Rept_Date":"2020-03-21 06"},"coordinates":[2201,9085]},{"type":"Point","properties":{"Station_ID":"HTLN3","Station_Nam":"HERMIT LAKE SNOWPLOT","Latitude":"44.26130","Longitude":"-71.28330","Snowdepth":"61.000","Units":"in","Rept_Date":"2020-03-20 09"},"coordinates":[6091,2894]},{"type":"Point","properties":{"Station_ID":"PDLM4","Station_Nam":"PAINESDALE","Latitude":"47.04160","Longitude":"-88.67170","Snowdepth":"51.000","Units":"in","Rept_Date":"2020-03-20 12"},"coordinates":[2011,5540]},{"type":"Point","properties":{"Station_ID":"CLUM4","Station_Nam":"CALUMET-TAMARACK","Latitude":"47.24550","Longitude":"-88.46790","Snowdepth":"51.000","Units":"in","Rept_Date":"2020-03-20 13"},"coordinates":[2058,5734]},{"type":"Point","properties":{"Station_ID":"HVCN3","Station_Nam":"HARVARD CABIN SNOWPLOT","Latitude":"44.26630","Longitude":"-71.27790","Snowdepth":"50.000","Units":"in","Rept_Date":"2020-03-20 10"},"coordinates":[6093,2898]},{"type":"Point","properties":{"Station_ID":"DVLQ6","Station_Nam":"DEVIOUS LAKE","Latitude":"49.19890","Longitude":"-87.76440","Snowdepth":"43.460","Units":"in","Rept_Date":"2020-03-21 06"},"coordinates":[2223,7593]},{"type":"Point","properties":{"Station_ID":"GMSM4","Station_Nam":"GRAND MARAIS 10S","Latitude":"46.50940","Longitude":"-85.96310","Snowdepth":"42.000","Units":"in","Rept_Date":"2020-03-20 12"},"coordinates":[2646,5033]},{"type":"Point","properties":{"Station_ID":"MNSM4","Station_Nam":"MUNISING","Latitude":"46.41210","Longitude":"-86.66250","Snowdepth":"37.000","Units":"in","Rept_Date":"2020-03-20 10"},"coordinates":[2482,4941]},{"type":"Point","properties":{"Station_ID":"PTLQ6","Station_Nam":"PORTAGE LAKE","Latitude":"49.06950","Longitude":"-86.65940","Snowdepth":"36.100","Units":"in","Rept_Date":"2020-03-21 06"},"coordinates":[2483,7470]},{"type":"Point","properties":{"Station_ID":"ME-AR-18","Station_Nam":"NEW SWEDEN 4.9 NNW, ME","Latitude":"47.01080","Longitude":"-68.14390","Snowdepth":"36.000","Units":"in","Rept_Date":"2020-03-20 11"},"coordinates":[6828,5510]},{"type":"Point","properties":{"Station_ID":"KSGM4","Station_Nam":"KEARSARGE","Latitude":"47.27520","Longitude":"-88.41700","Snowdepth":"36.000","Units":"in","Rept_Date":"2020-03-20 12"},"coordinates":[2070,5762]},{"type":"Point","properties":{"Station_ID":"CAN-NL-82","Station_Nam":"GANDER 2.7 NW, CAN","Latitude":"48.97737","Longitude":"-54.63396","Snowdepth":"35.800","Units":"in","Rept_Date":"2020-03-20 10"},"coordinates":[9999,7382]},{"type":"Point","properties":{"Station_ID":"WLFM5","Station_Nam":"WOLF RIDGE ENVIRON LEARNING CENTER","Latitude":"47.38240","Longitude":"-91.19730","Snowdepth":"35.000","Units":"in","Rept_Date":"2020-03-20 12"},"coordinates":[1418,5864]},{"type":"Point","properties":{"Station_ID":"QNCM4","Station_Nam":"QUINCY HILL","Latitude":"47.13640","Longitude":"-88.57950","Snowdepth":"34.000","Units":"in","Rept_Date":"2020-03-20 13"},"coordinates":[2032,5630]},{"type":"Point","properties":{"Station_ID":"MQT","Station_Nam":"MARQUETTE, MI","Latitude":"46.53140","Longitude":"-87.54920","Snowdepth":"34.000","Units":"in","Rept_Date":"2020-03-21 06"},"coordinates":[2274,5054]},{"type":"Point","properties":{"Station_ID":"MI-BG-3","Station_Nam":"L'ANSE 17.8 SE, MI","Latitude":"46.55730","Longitude":"-88.20770","Snowdepth":"33.000","Units":"in","Rept_Date":"2020-03-20 13"},"coordinates":[2119,5079]},{"type":"Point","properties":{"Station_ID":"HERM4","Station_Nam":"HERMAN,MI","Latitude":"46.65000","Longitude":"-88.33330","Snowdepth":"33.000","Units":"in","Rept_Date":"2020-03-20 14"},"coordinates":[2090,5167]},{"type":"Point","properties":{"Station_ID":"CAN-NB-105","Station_Nam":"SISSON BROOK 3.8 E, CAN","Latitude":"46.98305","Longitude":"-67.32532","Snowdepth":"32.700","Units":"in","Rept_Date":"2020-03-20 12"},"coordinates":[7020,5484]},{"type":"Point","properties":{"Station_ID":"CAN-QC-47","Station_Nam":"SAINTE-FOY 1.8 ENE, CAN","Latitude":"46.76934","Longitude":"-71.27124","Snowdepth":"32.300","Units":"in","Rept_Date":"2020-03-20 12"},"coordinates":[6094,5281]},{"type":"Point","properties":{"Station_ID":"VANM1","Station_Nam":"VAN BUREN","Latitude":"47.16600","Longitude":"-67.93900","Snowdepth":"31.000","Units":"in","Rept_Date":"2020-03-20 11"},"coordinates":[6876,5658]},{"type":"Point","properties":{"Station_ID":"CAN-NB-13","Station_Nam":"BATHURST 3.8 NW, CAN","Latitude":"47.64212","Longitude":"-65.68756","Snowdepth":"30.500","Units":"in","Rept_Date":"2020-03-20 09"},"coordinates":[7405,6111]},{"type":"Point","properties":{"Station_ID":"AUDQ6","Station_Nam":"AUDEN","Latitude":"48.52600","Longitude":"-82.57570","Snowdepth":"30.160","Units":"in","Rept_Date":"2020-03-21 06"},"coordinates":[3441,6953]},{"type":"Point","properties":{"Station_ID":"FISM1","Station_Nam":"FORT KENT COOP","Latitude":"47.23850","Longitude":"-68.61240","Snowdepth":"30.000","Units":"in","Rept_Date":"2020-03-20 11"},"coordinates":[6718,5727]},{"type":"Point","properties":{"Station_ID":"STEM4","Station_Nam":"STEUBEN","Latitude":"46.18530","Longitude":"-86.46410","Snowdepth":"29.000","Units":"in","Rept_Date":"2020-03-20 13"},"coordinates":[2529,4725]},{"type":"Point","properties":{"Station_ID":"CAN-NB-11","Station_Nam":"MIRAMICHI 3.3 S, CAN","Latitude":"46.99343","Longitude":"-65.50690","Snowdepth":"28.500","Units":"in","Rept_Date":"2020-03-20 09"},"coordinates":[7447,5494]},{"type":"Point","properties":{"Station_ID":"MI-HG-6","Station_Nam":"CALUMET 5.8 ENE, MI","Latitude":"47.27200","Longitude":"-88.33400","Snowdepth":"28.000","Units":"in","Rept_Date":"2020-03-20 11"},"coordinates":[2090,5759]},{"type":"Point","properties":{"Station_ID":"IBLM5","Station_Nam":"ISABELLA 14W","Latitude":"47.59360","Longitude":"-91.65140","Snowdepth":"28.000","Units":"in","Rept_Date":"2020-03-20 14"},"coordinates":[1311,6065]},{"type":"Point","properties":{"Station_ID":"CARM1","Station_Nam":"CARIBOU WFO","Latitude":"46.86810","Longitude":"-68.01250","Snowdepth":"28.000","Units":"in","Rept_Date":"2020-03-21 04"},"coordinates":[6859,5375]},{"type":"Point","properties":{"Station_ID":"CAR","Station_Nam":"CARIBOU, ME","Latitude":"46.86830","Longitude":"-68.01360","Snowdepth":"28.000","Units":"in","Rept_Date":"2020-03-20 12"},"coordinates":[6859,5375]},{"type":"Point","properties":{"Station_ID":"SVBQ6","Station_Nam":"SAVANT BASE","Latitude":"50.28730","Longitude":"-90.65670","Snowdepth":"27.720","Units":"in","Rept_Date":"2020-03-21 06"},"coordinates":[1545,8629]},{"type":"Point","properties":{"Station_ID":"TRIQ6","Station_Nam":"TRIO LAKE","Latitude":"49.22880","Longitude":"-87.22920","Snowdepth":"27.640","Units":"in","Rept_Date":"2020-03-21 06"},"coordinates":[2349,7621]},{"type":"Point","properties":{"Station_ID":"BERM4","Station_Nam":"BERGLAND DAM","Latitude":"46.58690","Longitude":"-89.54750","Snowdepth":"27.000","Units":"in","Rept_Date":"2020-03-20 12"},"coordinates":[1805,5107]},{"type":"Point","properties":{"Station_ID":"CNRM1","Station_Nam":"CONNOR TWP","Latitude":"46.95830","Longitude":"-68.03330","Snowdepth":"26.000","Units":"in","Rept_Date":"2020-03-20 12"},"coordinates":[6854,5460]},{"type":"Point","properties":{"Station_ID":"KABQ6","Station_Nam":"CAB LAKE","Latitude":"49.59950","Longitude":"-89.17990","Snowdepth":"25.470","Units":"in","Rept_Date":"2020-03-21 06"},"coordinates":[1891,7974]},{"type":"Point","properties":{"Station_ID":"WRPW3","Station_Nam":"WATER PURIFICATION PLANT","Latitude":"44.38800","Longitude":"-89.80550","Snowdepth":"25.000","Units":"in","Rept_Date":"2020-03-20 11"},"coordinates":[1744,3014]},{"type":"Point","properties":{"Station_ID":"MI-HG-1","Station_Nam":"HOUGHTON 1.6 ESE, MI","Latitude":"47.10774","Longitude":"-88.52940","Snowdepth":"25.000","Units":"in","Rept_Date":"2020-03-20 16"},"coordinates":[2044,5603]},{"type":"Point","properties":{"Station_ID":"SOCQ6","Station_Nam":"SOCKET LAKE","Latitude":"50.77870","Longitude":"-91.79300","Snowdepth":"24.720","Units":"in","Rept_Date":"2020-03-21 06"},"coordinates":[1278,9097]},{"type":"Point","properties":{"Station_ID":"NWCM4","Station_Nam":"NEWBERRY CITY","Latitude":"46.35720","Longitude":"-85.51780","Snowdepth":"24.000","Units":"in","Rept_Date":"2020-03-20 11"},"coordinates":[2751,4888]},{"type":"Point","properties":{"Station_ID":"MN-CK-18","Station_Nam":"GRAND MARAIS 4.4 WSW, MN","Latitude":"47.74462","Longitude":"-90.43796","Snowdepth":"24.000","Units":"in","Rept_Date":"2020-03-20 13"},"coordinates":[1596,6209]},{"type":"Point","properties":{"Station_ID":"IWOM4","Station_Nam":"IRONWOOD#2","Latitude":"46.46520","Longitude":"-90.13820","Snowdepth":"24.000","Units":"in","Rept_Date":"2020-03-20 12"},"coordinates":[1666,4991]},{"type":"Point","properties":{"Station_ID":"GNLM4","Station_Nam":"GREENLAND 6N","Latitude":"46.87360","Longitude":"-89.10060","Snowdepth":"24.000","Units":"in","Rept_Date":"2020-03-20 12"},"coordinates":[1910,5380]},{"type":"Point","properties":{"Station_ID":"GNFM5","Station_Nam":"GUNFLINT LAKE","Latitude":"48.16670","Longitude":"-90.88750","Snowdepth":"24.000","Units":"in","Rept_Date":"2020-03-20 12"},"coordinates":[1490,6611]},{"type":"Point","properties":{"Station_ID":"CAN-NB-89","Station_Nam":"MEMRAMCOOK 4.0 W, CAN","Latitude":"46.01133","Longitude":"-64.60244","Snowdepth":"23.600","Units":"in","Rept_Date":"2020-03-20 14"},"coordinates":[7659,4559]},{"type":"Point","properties":{"Station_ID":"KABM5","Station_Nam":"KABETOGAMA LAKE VISITOR CTR","Latitude":"48.40880","Longitude":"-93.04840","Snowdepth":"23.000","Units":"in","Rept_Date":"2020-03-20 12"},"coordinates":[983,6841]},{"type":"Point","properties":{"Station_ID":"CAN-NB-96","Station_Nam":"SAINT-IGNACE 2.6 NE, CAN","Latitude":"46.71424","Longitude":"-65.05609","Snowdepth":"22.800","Units":"in","Rept_Date":"2020-03-20 11"},"coordinates":[7553,5228]},{"type":"Point","properties":{"Station_ID":"WI-VL-9","Station_Nam":"LAND O' LAKES 11.7 W, WI","Latitude":"46.19023","Longitude":"-89.45790","Snowdepth":"22.000","Units":"in","Rept_Date":"2020-03-20 13"},"coordinates":[1826,4729]},{"type":"Point","properties":{"Station_ID":"WI-VL-10","Station_Nam":"LAND O LAKES 4.3 WNW, WI","Latitude":"46.17440","Longitude":"-89.30380","Snowdepth":"22.000","Units":"in","Rept_Date":"2020-03-20 13"},"coordinates":[1862,4714]},{"type":"Point","properties":{"Station_ID":"UPSW3","Station_Nam":"UPSON,WI","Latitude":"46.36780","Longitude":"-90.41220","Snowdepth":"22.000","Units":"in","Rept_Date":"2020-03-20 23"},"coordinates":[1602,4898]},{"type":"Point","properties":{"Station_ID":"LNOW3","Station_Nam":"LAND O LAKES","Latitude":"46.19000","Longitude":"-89.45700","Snowdepth":"22.000","Units":"in","Rept_Date":"2020-03-20 12"},"coordinates":[1826,4729]},{"type":"Point","properties":{"Station_ID":"CATQ6","Station_Nam":"CAT LAKE","Latitude":"51.72690","Longitude":"-91.82210","Snowdepth":"21.340","Units":"in","Rept_Date":"2020-03-21 06"},"coordinates":[1271,9999]},{"type":"Point","properties":{"Station_ID":"SUAW3","Station_Nam":"SUAMICO","Latitude":"44.60190","Longitude":"-88.09780","Snowdepth":"21.000","Units":"in","Rept_Date":"2020-03-20 11"},"coordinates":[2145,3218]},{"type":"Point","properties":{"Station_ID":"PDGM4","Station_Nam":"PAULDING","Latitude":"46.39760","Longitude":"-89.17940","Snowdepth":"21.000","Units":"in","Rept_Date":"2020-03-20 13"},"coordinates":[1891,4927]},{"type":"Point","properties":{"Station_ID":"MN-IT-23","Station_Nam":"BOVEY 13.4 N, MN","Latitude":"47.48855","Longitude":"-93.43497","Snowdepth":"21.000","Units":"in","Rept_Date":"2020-03-20 12"},"coordinates":[893,5965]},{"type":"Point","properties":{"Station_ID":"MN-IT-10","Station_Nam":"DEER RIVER 3.7 W, MN","Latitude":"47.33564","Longitude":"-93.87514","Snowdepth":"21.000","Units":"in","Rept_Date":"2020-03-20 14"},"coordinates":[789,5820]},{"type":"Point","properties":{"Station_ID":"LILM1","Station_Nam":"LILLE","Latitude":"47.27770","Longitude":"-68.10520","Snowdepth":"21.000","Units":"in","Rept_Date":"2020-03-20 11"},"coordinates":[6837,5764]},{"type":"Point","properties":{"Station_ID":"CLQM5","Station_Nam":"CLOQUET","Latitude":"46.70470","Longitude":"-92.52530","Snowdepth":"21.000","Units":"in","Rept_Date":"2020-03-20 13"},"coordinates":[1106,5219]},{"type":"Point","properties":{"Station_ID":"BBEM4","Station_Nam":"BIG BAY 9SW","Latitude":"46.74620","Longitude":"-87.88160","Snowdepth":"21.000","Units":"in","Rept_Date":"2020-03-20 12"},"coordinates":[2196,5259]},{"type":"Point","properties":{"Station_ID":"MI-MQ-19","Station_Nam":"ISHPEMING 7.2 SW, MI","Latitude":"46.40550","Longitude":"-87.75670","Snowdepth":"20.000","Units":"in","Rept_Date":"2020-03-20 11"},"coordinates":[2225,4934]},{"type":"Point","properties":{"Station_ID":"INL","Station_Nam":"FALLS INTERNATIONAL ARPT","Latitude":"48.56640","Longitude":"-93.40310","Snowdepth":"20.000","Units":"in","Rept_Date":"2020-03-21 00"},"coordinates":[900,6991]},{"type":"Point","properties":{"Station_ID":"IFSM5","Station_Nam":"INTERNATIONAL FALLS SNOW","Latitude":"48.57780","Longitude":"-93.39640","Snowdepth":"20.000","Units":"in","Rept_Date":"2020-03-20 12"},"coordinates":[902,7002]},{"type":"Point","properties":{"Station_ID":"HURW3","Station_Nam":"HURLEY","Latitude":"46.46250","Longitude":"-90.19550","Snowdepth":"20.000","Units":"in","Rept_Date":"2020-03-20 13"},"coordinates":[1653,4989]},{"type":"Point","properties":{"Station_ID":"GLDM4","Station_Nam":"GLADSTONE NO. 2","Latitude":"45.84330","Longitude":"-87.03910","Snowdepth":"20.000","Units":"in","Rept_Date":"2020-03-20 11"},"coordinates":[2394,4399]},{"type":"Point","properties":{"Station_ID":"EVRW3","Station_Nam":"EAGLE RIVER-4 E","Latitude":"45.91890","Longitude":"-89.15280","Snowdepth":"20.000","Units":"in","Rept_Date":"2020-03-20 12"},"coordinates":[1898,4471]},{"type":"Point","properties":{"Station_ID":"BRAM1","Station_Nam":"BRASSUA DAM","Latitude":"45.66020","Longitude":"-69.81190","Snowdepth":"20.000","Units":"in","Rept_Date":"2020-03-20 11"},"coordinates":[6437,4225]},{"type":"Point","properties":{"Station_ID":"MN-IT-17","Station_Nam":"GRAND RAPIDS 6.1 N, MN","Latitude":"47.31165","Longitude":"-93.55036","Snowdepth":"19.500","Units":"in","Rept_Date":"2020-03-20 13"},"coordinates":[866,5797]},{"type":"Point","properties":{"Station_ID":"WTNM4","Station_Nam":"WATTON 2WSW","Latitude":"46.52660","Longitude":"-88.64240","Snowdepth":"19.000","Units":"in","Rept_Date":"2020-03-20 12"},"coordinates":[2017,5050]},{"type":"Point","properties":{"Station_ID":"WNBM5","Station_Nam":"DAM","Latitude":"47.43060","Longitude":"-94.05000","Snowdepth":"19.000","Units":"in","Rept_Date":"2020-03-20 13"},"coordinates":[748,5910]},{"type":"Point","properties":{"Station_ID":"VT-OL-12","Station_Nam":"GREENSBORO 3.9 NNE, VT","Latitude":"44.63100","Longitude":"-72.28000","Snowdepth":"19.000","Units":"in","Rept_Date":"2020-03-20 10"},"coordinates":[5858,3245]},{"type":"Point","properties":{"Station_ID":"SSMM4","Station_Nam":"SAULT STE MARIE","Latitude":"46.48660","Longitude":"-84.40250","Snowdepth":"19.000","Units":"in","Rept_Date":"2020-03-20 12"},"coordinates":[3012,5011]},{"type":"Point","properties":{"Station_ID":"RKWM1","Station_Nam":"MOOSEHEAD LAKE","Latitude":"45.58330","Longitude":"-69.71670","Snowdepth":"19.000","Units":"in","Rept_Date":"2020-03-20 11"},"coordinates":[6459,4152]},{"type":"Point","properties":{"Station_ID":"RGNM1","Station_Nam":"RANGELEY 2NW","Latitude":"44.98940","Longitude":"-70.67220","Snowdepth":"19.000","Units":"in","Rept_Date":"2020-03-20 10"},"coordinates":[6235,3587]},{"type":"Point","properties":{"Station_ID":"LVDW3","Station_Nam":"LAC VIEUX DESERT","Latitude":"46.12110","Longitude":"-89.07580","Snowdepth":"19.000","Units":"in","Rept_Date":"2020-03-20 14"},"coordinates":[1916,4664]},{"type":"Point","properties":{"Station_ID":"ELYM5","Station_Nam":"ELY","Latitude":"47.90560","Longitude":"-91.82830","Snowdepth":"19.000","Units":"in","Rept_Date":"2020-03-20 13"},"coordinates":[1270,6362]},{"type":"Point","properties":{"Station_ID":"CEFM4","Station_Nam":"EXPERIMENT FARM #2","Latitude":"46.33330","Longitude":"-86.91670","Snowdepth":"19.000","Units":"in","Rept_Date":"2020-03-20 12"},"coordinates":[2422,4866]},{"type":"Point","properties":{"Station_ID":"BRDM1","Station_Nam":"BRIDGEWATER","Latitude":"46.42870","Longitude":"-67.84370","Snowdepth":"19.000","Units":"in","Rept_Date":"2020-03-20 22"},"coordinates":[6899,4956]},{"type":"Point","properties":{"Station_ID":"BABM5","Station_Nam":"BABBITT","Latitude":"47.71210","Longitude":"-91.95330","Snowdepth":"19.000","Units":"in","Rept_Date":"2020-03-20 12"},"coordinates":[1240,6178]},{"type":"Point","properties":{"Station_ID":"ANJM4","Station_Nam":"SNOW PAID OBSERVER FOR KANJ","Latitude":"46.48670","Longitude":"-84.40260","Snowdepth":"19.000","Units":"in","Rept_Date":"2020-03-21 00"},"coordinates":[3012,5012]},{"type":"Point","properties":{"Station_ID":"ANJ","Station_Nam":"SAULT STE MARIE","Latitude":"46.46670","Longitude":"-84.36670","Snowdepth":"19.000","Units":"in","Rept_Date":"2020-03-20 12"},"coordinates":[3021,4993]},{"type":"Point","properties":{"Station_ID":"CAN-NB-18","Station_Nam":"MCLEOD HILL 1.1 ENE, CA","Latitude":"46.02725","Longitude":"-66.67460","Snowdepth":"18.500","Units":"in","Rept_Date":"2020-03-20 12"},"coordinates":[7173,4574]},{"type":"Point","properties":{"Station_ID":"CAN-PE-19","Station_Nam":"CHARLOTTETOWN 6.5 NNW, CAN","Latitude":"46.29235","Longitude":"-63.17271","Snowdepth":"18.100","Units":"in","Rept_Date":"2020-03-20 12"},"coordinates":[7995,4827]},{"type":"Point","properties":{"Station_ID":"NOHM5","Station_Nam":"NORTHOME","Latitude":"47.83590","Longitude":"-94.25550","Snowdepth":"18.000","Units":"in","Rept_Date":"2020-03-20 12"},"coordinates":[700,6296]},{"type":"Point","properties":{"Station_ID":"MNV905PW","Station_Nam":"ROOSEVELT 5.3 N","Latitude":"48.87933","Longitude":"-95.08224","Snowdepth":"18.000","Units":"in","Rept_Date":"2020-03-20 12"},"coordinates":[506,7289]},{"type":"Point","properties":{"Station_ID":"LEIM5","Station_Nam":"ORR 3E","Latitude":"48.05810","Longitude":"-92.75220","Snowdepth":"18.000","Units":"in","Rept_Date":"2020-03-20 11"},"coordinates":[1053,6507]},{"type":"Point","properties":{"Station_ID":"DFXM1","Station_Nam":"DOVER-FOXCROFT","Latitude":"45.18720","Longitude":"-69.18350","Snowdepth":"18.000","Units":"in","Rept_Date":"2020-03-20 11"},"coordinates":[6584,3775]},{"type":"Point","properties":{"Station_ID":"COVM4","Station_Nam":"COVINGTON","Latitude":"46.55880","Longitude":"-88.54190","Snowdepth":"18.000","Units":"in","Rept_Date":"2020-03-20 12"},"coordinates":[2041,5080]},{"type":"Point","properties":{"Station_ID":"CAN-MB-298","Station_Nam":"GARDENTON 4.2 W - SRRCD, CAN","Latitude":"49.09480","Longitude":"-96.75446","Snowdepth":"17.700","Units":"in","Rept_Date":"2020-03-20 14"},"coordinates":[114,7494]},{"type":"Point","properties":{"Station_ID":"WI-VL-14","Station_Nam":"BOULDER JUNCTION 1.4 NE, WI","Latitude":"46.12840","Longitude":"-89.62470","Snowdepth":"17.500","Units":"in","Rept_Date":"2020-03-20 13"},"coordinates":[1787,4671]},{"type":"Point","properties":{"Station_ID":"WI-BY-2","Station_Nam":"MELLEN 18.6 SW, WI","Latitude":"46.16937","Longitude":"-90.98090","Snowdepth":"17.000","Units":"in","Rept_Date":"2020-03-20 13"},"coordinates":[1469,4710]},{"type":"Point","properties":{"Station_ID":"STGW3","Station_Nam":"ST GERMAIN","Latitude":"45.91550","Longitude":"-89.48940","Snowdepth":"17.000","Units":"in","Rept_Date":"2020-03-20 11"},"coordinates":[1819,4468]},{"type":"Point","properties":{"Station_ID":"MN-SL-15","Station_Nam":"CHISHOLM 0.4 WSW, MN","Latitude":"47.48557","Longitude":"-92.88690","Snowdepth":"17.000","Units":"in","Rept_Date":"2020-03-20 13"},"coordinates":[1021,5962]},{"type":"Point","properties":{"Station_ID":"MIEM4","Station_Nam":"MICHIGAMME 3WNW","Latitude":"46.54530","Longitude":"-88.18000","Snowdepth":"17.000","Units":"in","Rept_Date":"2020-03-20 12"},"coordinates":[2126,5067]},{"type":"Point","properties":{"Station_ID":"GGRM4","Station_Nam":"GREEN GARDEN NO.2","Latitude":"46.45330","Longitude":"-87.30380","Snowdepth":"17.000","Units":"in","Rept_Date":"2020-03-20 10"},"coordinates":[2332,4980]},{"type":"Point","properties":{"Station_ID":"CSLM5","Station_Nam":"CASS LAKE,MN","Latitude":"47.38470","Longitude":"-94.61470","Snowdepth":"17.000","Units":"in","Rept_Date":"2020-03-20 13"},"coordinates":[616,5866]},{"type":"Point","properties":{"Station_ID":"CMKW3","Station_Nam":"CLAM LAKE 4W","Latitude":"46.16940","Longitude":"-90.98080","Snowdepth":"17.000","Units":"in","Rept_Date":"2020-03-20 12"},"coordinates":[1469,4710]},{"type":"Point","properties":{"Station_ID":"WI-IR-3","Station_Nam":"PENCE 0.1 E, WI","Latitude":"46.41555","Longitude":"-90.27013","Snowdepth":"16.500","Units":"in","Rept_Date":"2020-03-20 13"},"coordinates":[1635,4944]},{"type":"Point","properties":{"Station_ID":"WI-BY-22","Station_Nam":"MASON 11.5 WNW, WI","Latitude":"46.50198","Longitude":"-91.28339","Snowdepth":"16.500","Units":"in","Rept_Date":"2020-03-20 14"},"coordinates":[1398,5026]},{"type":"Point","properties":{"Station_ID":"VT-CL-3","Station_Nam":"GROTON 4.4 WSW, VT","Latitude":"44.19440","Longitude":"-72.28240","Snowdepth":"16.500","Units":"in","Rept_Date":"2020-03-20 11"},"coordinates":[5857,2830]},{"type":"Point","properties":{"Station_ID":"MI-GG-4","Station_Nam":"WATERSMEET 5.0 SE, MI","Latitude":"46.20333","Longitude":"-89.13170","Snowdepth":"16.500","Units":"in","Rept_Date":"2020-03-20 14"},"coordinates":[1903,4742]},{"type":"Point","properties":{"Station_ID":"TOGM5","Station_Nam":"CELINA 2E","Latitude":"47.86630","Longitude":"-93.02660","Snowdepth":"16.000","Units":"in","Rept_Date":"2020-03-20 13"},"coordinates":[988,6325]},{"type":"Point","properties":{"Station_ID":"PRDM4","Station_Nam":"PARADISE","Latitude":"46.60380","Longitude":"-85.03960","Snowdepth":"16.000","Units":"in","Rept_Date":"2020-03-20 10"},"coordinates":[2863,5123]},{"type":"Point","properties":{"Station_ID":"PHEW3","Station_Nam":"PHELPS","Latitude":"46.06630","Longitude":"-89.07520","Snowdepth":"16.000","Units":"in","Rept_Date":"2020-03-20 12"},"coordinates":[1916,4611]},{"type":"Point","properties":{"Station_ID":"NH-CS-10","Station_Nam":"RANDOLPH 1.4 NE, NH","Latitude":"44.38824","Longitude":"-71.26950","Snowdepth":"16.000","Units":"in","Rept_Date":"2020-03-20 12"},"coordinates":[6095,3014]},{"type":"Point","properties":{"Station_ID":"MI-CP-14","Station_Nam":"SAULT STE. MARIE 2.2 E, MI","Latitude":"46.48933","Longitude":"-84.31971","Snowdepth":"16.000","Units":"in","Rept_Date":"2020-03-20 13"},"coordinates":[3032,5014]},{"type":"Point","properties":{"Station_ID":"JKMM1","Station_Nam":"JACKMAN","Latitude":"45.62600","Longitude":"-70.24600","Snowdepth":"16.000","Units":"in","Rept_Date":"2020-03-20 11"},"coordinates":[6335,4192]},{"type":"Point","properties":{"Station_ID":"HRVM4","Station_Nam":"HARVEY","Latitude":"46.49080","Longitude":"-87.35470","Snowdepth":"16.000","Units":"in","Rept_Date":"2020-03-20 12"},"coordinates":[2320,5015]},{"type":"Point","properties":{"Station_ID":"GHMN3","Station_Nam":"PINKHAM NOTCH","Latitude":"44.25800","Longitude":"-71.25250","Snowdepth":"16.000","Units":"in","Rept_Date":"2020-03-20 09"},"coordinates":[6099,2890]},{"type":"Point","properties":{"Station_ID":"DLHM5","Station_Nam":"DULUTH NWS","Latitude":"46.83680","Longitude":"-92.21080","Snowdepth":"16.000","Units":"in","Rept_Date":"2020-03-21 06"},"coordinates":[1180,5345]},{"type":"Point","properties":{"Station_ID":"DLH","Station_Nam":"DULUTH, MN","Latitude":"46.83690","Longitude":"-92.21030","Snowdepth":"16.000","Units":"in","Rept_Date":"2020-03-21 00"},"coordinates":[1180,5345]},{"type":"Point","properties":{"Station_ID":"CRLM5","Station_Nam":"CROSS LAKE DAM","Latitude":"46.66930","Longitude":"-94.11060","Snowdepth":"16.000","Units":"in","Rept_Date":"2020-03-20 13"},"coordinates":[734,5185]},{"type":"Point","properties":{"Station_ID":"COKM5","Station_Nam":"COOK","Latitude":"47.85060","Longitude":"-92.69250","Snowdepth":"16.000","Units":"in","Rept_Date":"2020-03-20 11"},"coordinates":[1067,6310]},{"type":"Point","properties":{"Station_ID":"CLKM4","Station_Nam":"CLARKSBURG","Latitude":"46.49910","Longitude":"-87.84500","Snowdepth":"16.000","Units":"in","Rept_Date":"2020-03-20 11"},"coordinates":[2205,5023]},{"type":"Point","properties":{"Station_ID":"CAN-NS-60","Station_Nam":"SYDNEY FORKS, CAN","Latitude":"46.05645","Longitude":"-60.31510","Snowdepth":"16.000","Units":"in","Rept_Date":"2020-03-20 14"},"coordinates":[8666,4602]},{"type":"Point","properties":{"Station_ID":"CAN-NS-103","Station_Nam":"TRAFALGAR 4.9 WSW, CAN","Latitude":"45.26217","Longitude":"-62.72285","Snowdepth":"16.000","Units":"in","Rept_Date":"2020-03-20 12"},"coordinates":[8101,3846]},{"type":"Point","properties":{"Station_ID":"BNDM5","Station_Nam":"ELY 25E","Latitude":"47.97190","Longitude":"-91.44860","Snowdepth":"16.000","Units":"in","Rept_Date":"2020-03-20 12"},"coordinates":[1359,6425]},{"type":"Point","properties":{"Station_ID":"AMAM4","Station_Nam":"AMASA 1W","Latitude":"46.23470","Longitude":"-88.45440","Snowdepth":"16.000","Units":"in","Rept_Date":"2020-03-20 13"},"coordinates":[2061,4772]},{"type":"Point","properties":{"Station_ID":"CAN-NB-2","Station_Nam":"GRAFTON 2.7 NNE, CA","Latitude":"46.17062","Longitude":"-67.55330","Snowdepth":"15.500","Units":"in","Rept_Date":"2020-03-20 11"},"coordinates":[6967,4711]},{"type":"Point","properties":{"Station_ID":"WI-ON-8","Station_Nam":"HAZELHURST 2.1 SSE, WI","Latitude":"45.78186","Longitude":"-89.70330","Snowdepth":"15.000","Units":"in","Rept_Date":"2020-03-20 13"},"coordinates":[1768,4341]},{"type":"Point","properties":{"Station_ID":"MN-SL-108","Station_Nam":"IRON JUNCTION 3.4 NNW, MN","Latitude":"47.46150","Longitude":"-92.63130","Snowdepth":"15.000","Units":"in","Rept_Date":"2020-03-20 14"},"coordinates":[1081,5939]},{"type":"Point","properties":{"Station_ID":"MN-IT-1","Station_Nam":"GRAND RAPIDS 2.0 E, MN","Latitude":"47.22266","Longitude":"-93.49600","Snowdepth":"15.000","Units":"in","Rept_Date":"2020-03-20 12"},"coordinates":[878,5712]},{"type":"Point","properties":{"Station_ID":"MN-CK-6","Station_Nam":"GRAND MARAIS 4.4 W, MN","Latitude":"47.74865","Longitude":"-90.43760","Snowdepth":"15.000","Units":"in","Rept_Date":"2020-03-20 13"},"coordinates":[1596,6213]},{"type":"Point","properties":{"Station_ID":"IRMM4","Station_Nam":"WWTP","Latitude":"46.46670","Longitude":"-90.18330","Snowdepth":"15.000","Units":"in","Rept_Date":"2020-03-20 12"},"coordinates":[1656,4993]},{"type":"Point","properties":{"Station_ID":"INDM5","Station_Nam":"INDUS,MN","Latitude":"48.61670","Longitude":"-93.90000","Snowdepth":"15.000","Units":"in","Rept_Date":"2020-03-20 13"},"coordinates":[783,7039]},{"type":"Point","properties":{"Station_ID":"FEDM5","Station_Nam":"LEECH LAKE DAM","Latitude":"47.24670","Longitude":"-94.22280","Snowdepth":"15.000","Units":"in","Rept_Date":"2020-03-20 13"},"coordinates":[708,5735]},{"type":"Point","properties":{"Station_ID":"FTHQ6","Station_Nam":"FORT HOPE","Latitude":"51.55820","Longitude":"-87.90510","Snowdepth":"14.760","Units":"in","Rept_Date":"2020-03-21 06"},"coordinates":[2190,9838]},{"type":"Point","properties":{"Station_ID":"WI-BY-14","Station_Nam":"ASHLAND 9.8 W, WI","Latitude":"46.59742","Longitude":"-91.07856","Snowdepth":"14.500","Units":"in","Rept_Date":"2020-03-20 12"},"coordinates":[1446,5117]},{"type":"Point","properties":{"Station_ID":"WRUM5","Station_Nam":"WARROAD 4W","Latitude":"48.89600","Longitude":"-95.40700","Snowdepth":"14.000","Units":"in","Rept_Date":"2020-03-21 03"},"coordinates":[430,7305]},{"type":"Point","properties":{"Station_ID":"WRSM5","Station_Nam":"WRENSHALL","Latitude":"46.61550","Longitude":"-92.38380","Snowdepth":"14.000","Units":"in","Rept_Date":"2020-03-20 13"},"coordinates":[1139,5134]},{"type":"Point","properties":{"Station_ID":"VT-CL-40","Station_Nam":"LYNDONVILLE 4.2 NNW, VT","Latitude":"44.59440","Longitude":"-72.02389","Snowdepth":"14.000","Units":"in","Rept_Date":"2020-03-20 12"},"coordinates":[5918,3211]},{"type":"Point","properties":{"Station_ID":"RANM1","Station_Nam":"RANGELEY","Latitude":"44.98910","Longitude":"-70.67190","Snowdepth":"14.000","Units":"in","Rept_Date":"2020-03-20 10"},"coordinates":[6235,3586]},{"type":"Point","properties":{"Station_ID":"JCBM4","Station_Nam":"JACOBSVILLE","Latitude":"47.00830","Longitude":"-88.43180","Snowdepth":"14.000","Units":"in","Rept_Date":"2020-03-20 11"},"coordinates":[2067,5508]},{"type":"Point","properties":{"Station_ID":"AVTW3","Station_Nam":"ARBOR VITAE-JOHNSON LAKE","Latitude":"45.89940","Longitude":"-89.72670","Snowdepth":"14.000","Units":"in","Rept_Date":"2020-03-20 11"},"coordinates":[1763,4453]},{"type":"Point","properties":{"Station_ID":"MN-BK-6","Station_Nam":"LAKE PARK 6.0 S, MN","Latitude":"46.79850","Longitude":"-96.12180","Snowdepth":"13.500","Units":"in","Rept_Date":"2020-03-20 13"},"coordinates":[262,5308]},{"type":"Point","properties":{"Station_ID":"CAN-NB-64","Station_Nam":"KESWICK RIDGE 4.0 SE, CAN","Latitude":"45.97014","Longitude":"-66.85538","Snowdepth":"13.500","Units":"in","Rept_Date":"2020-03-20 13"},"coordinates":[7131,4520]},{"type":"Point","properties":{"Station_ID":"SUTV1","Station_Nam":"SUTTON","Latitude":"44.61220","Longitude":"-72.04810","Snowdepth":"13.000","Units":"in","Rept_Date":"2020-03-20 12"},"coordinates":[5912,3228]},{"type":"Point","properties":{"Station_ID":"PKGM5","Station_Nam":"POKEGANA LK DAM","Latitude":"47.25080","Longitude":"-93.58610","Snowdepth":"13.000","Units":"in","Rept_Date":"2020-03-20 13"},"coordinates":[857,5739]},{"type":"Point","properties":{"Station_ID":"MN7M8EBJ","Station_Nam":"LUTSEN 15.7 NNW","Latitude":"47.85324","Longitude":"-89.92908","Snowdepth":"13.000","Units":"in","Rept_Date":"2020-03-20 13"},"coordinates":[1715,6312]},{"type":"Point","properties":{"Station_ID":"MAIW3","Station_Nam":"MADELINE ISLAND","Latitude":"46.78330","Longitude":"-90.76670","Snowdepth":"13.000","Units":"in","Rept_Date":"2020-03-20 14"},"coordinates":[1519,5294]},{"type":"Point","properties":{"Station_ID":"KINM1","Station_Nam":"KINGFIELD","Latitude":"44.95950","Longitude":"-70.17530","Snowdepth":"13.000","Units":"in","Rept_Date":"2020-03-20 13"},"coordinates":[6352,3558]},{"type":"Point","properties":{"Station_ID":"GRFN8","Station_Nam":"UNIVERSITY","Latitude":"47.93330","Longitude":"-97.08330","Snowdepth":"13.000","Units":"in","Rept_Date":"2020-03-21 05"},"coordinates":[36,6388]},{"type":"Point","properties":{"Station_ID":"CAN-ON-526","Station_Nam":"HILTON BEACH 0.7 SW - MNRF, CAN","Latitude":"46.25357","Longitude":"-83.90014","Snowdepth":"13.000","Units":"in","Rept_Date":"2020-03-20 12"},"coordinates":[3130,4790]},{"type":"Point","properties":{"Station_ID":"AVLV1","Station_Nam":"AVERILL","Latitude":"45.00570","Longitude":"-71.69030","Snowdepth":"13.000","Units":"in","Rept_Date":"2020-03-20 12"},"coordinates":[5996,3602]},{"type":"Point","properties":{"Station_ID":"AGNW3","Station_Nam":"ARGONNE-1.5 NW","Latitude":"45.67360","Longitude":"-88.90380","Snowdepth":"13.000","Units":"in","Rept_Date":"2020-03-20 13"},"coordinates":[1956,4238]},{"type":"Point","properties":{"Station_ID":"CAN-ON-757","Station_Nam":"SAULT STE. MARIE 2.8 ESE - GLFC, CAN","Latitude":"46.50300","Longitude":"-84.30300","Snowdepth":"12.800","Units":"in","Rept_Date":"2020-03-20 13"},"coordinates":[3036,5027]},{"type":"Point","properties":{"Station_ID":"NH-CR-15","Station_Nam":"JACKSON 3.7 NW, NH","Latitude":"44.19069","Longitude":"-71.22598","Snowdepth":"12.500","Units":"in","Rept_Date":"2020-03-20 12"},"coordinates":[6105,2826]},{"type":"Point","properties":{"Station_ID":"CAN-NB-16","Station_Nam":"DORCHESTER 1.0 SSE, CAN","Latitude":"45.89160","Longitude":"-64.51269","Snowdepth":"12.500","Units":"in","Rept_Date":"2020-03-20 11"},"coordinates":[7681,4445]},{"type":"Point","properties":{"Station_ID":"CAN-NB-97","Station_Nam":"NEW MARYLAND 0.6 NW, CAN","Latitude":"45.90112","Longitude":"-66.68739","Snowdepth":"12.200","Units":"in","Rept_Date":"2020-03-20 11"},"coordinates":[7170,4454]},{"type":"Point","properties":{"Station_ID":"ZNOM4","Station_Nam":"NORWAY","Latitude":"45.77810","Longitude":"-87.89560","Snowdepth":"12.000","Units":"in","Rept_Date":"2020-03-21 00"},"coordinates":[2193,4337]},{"type":"Point","properties":{"Station_ID":"WTRM4","Station_Nam":"WATERSMEET 12WSW","Latitude":"46.22310","Longitude":"-89.40850","Snowdepth":"12.000","Units":"in","Rept_Date":"2020-03-20 11"},"coordinates":[1838,4761]},{"type":"Point","properties":{"Station_ID":"WI-BY-1","Station_Nam":"BAYFIELD 8.8 N, WI","Latitude":"46.93855","Longitude":"-90.83490","Snowdepth":"12.000","Units":"in","Rept_Date":"2020-03-20 13"},"coordinates":[1503,5442]},{"type":"Point","properties":{"Station_ID":"VT-BN-12","Station_Nam":"STAMFORD 5.0 NNE, VT","Latitude":"42.82000","Longitude":"-73.02000","Snowdepth":"12.000","Units":"in","Rept_Date":"2020-03-20 21"},"coordinates":[5684,1522]},{"type":"Point","properties":{"Station_ID":"PTBN3","Station_Nam":"PITTSBURG RESERVOIR","Latitude":"45.04690","Longitude":"-71.38300","Snowdepth":"12.000","Units":"in","Rept_Date":"2020-03-20 12"},"coordinates":[6068,3641]},{"type":"Point","properties":{"Station_ID":"NY-ES-6","Station_Nam":"OLMSTEDVILLE 4.6 NNE, NY","Latitude":"43.83350","Longitude":"-73.89780","Snowdepth":"12.000","Units":"in","Rept_Date":"2020-03-20 13"},"coordinates":[5478,2486]},{"type":"Point","properties":{"Station_ID":"MN6JKRHL","Station_Nam":"TOFTE 0.6 SSW","Latitude":"47.56557","Longitude":"-90.84117","Snowdepth":"12.000","Units":"in","Rept_Date":"2020-03-20 12"},"coordinates":[1501,6038]},{"type":"Point","properties":{"Station_ID":"MI-DL-1","Station_Nam":"GARDEN CORNERS 0.8 NW, MI","Latitude":"45.89815","Longitude":"-86.54850","Snowdepth":"12.000","Units":"in","Rept_Date":"2020-03-20 13"},"coordinates":[2509,4451]},{"type":"Point","properties":{"Station_ID":"ME-FR-4","Station_Nam":"NEW SHARON 2.0 NW, ME","Latitude":"44.66582","Longitude":"-70.02720","Snowdepth":"12.000","Units":"in","Rept_Date":"2020-03-20 12"},"coordinates":[6386,3279]},{"type":"Point","properties":{"Station_ID":"LPLN6","Station_Nam":"LAKE PLACID 2 S","Latitude":"44.30420","Longitude":"-73.98390","Snowdepth":"12.000","Units":"in","Rept_Date":"2020-03-20 14"},"coordinates":[5458,2934]},{"type":"Point","properties":{"Station_ID":"LBRM5","Station_Nam":"LAKE BRONSON DAM","Latitude":"48.72410","Longitude":"-96.62180","Snowdepth":"12.000","Units":"in","Rept_Date":"2020-03-20 13"},"coordinates":[145,7141]},{"type":"Point","properties":{"Station_ID":"IMNM4","Station_Nam":"IRON MOUTAIN 5N","Latitude":"45.87580","Longitude":"-88.04030","Snowdepth":"12.000","Units":"in","Rept_Date":"2020-03-20 12"},"coordinates":[2159,4430]},{"type":"Point","properties":{"Station_ID":"GDCM4","Station_Nam":"GARDEN CORNERS","Latitude":"45.89830","Longitude":"-86.54850","Snowdepth":"12.000","Units":"in","Rept_Date":"2020-03-20 12"},"coordinates":[2509,4452]},{"type":"Point","properties":{"Station_ID":"FLNW3","Station_Nam":"FLORENCE","Latitude":"45.93360","Longitude":"-88.25830","Snowdepth":"12.000","Units":"in","Rept_Date":"2020-03-20 12"},"coordinates":[2108,4485]},{"type":"Point","properties":{"Station_ID":"EAHV1","Station_Nam":"EAST HAVEN","Latitude":"44.64250","Longitude":"-71.89120","Snowdepth":"12.000","Units":"in","Rept_Date":"2020-03-20 11"},"coordinates":[5949,3256]},{"type":"Point","properties":{"Station_ID":"COTM5","Station_Nam":"COTTON","Latitude":"47.16870","Longitude":"-92.46290","Snowdepth":"12.000","Units":"in","Rept_Date":"2020-03-20 11"},"coordinates":[1121,5661]},{"type":"Point","properties":{"Station_ID":"AURW3","Station_Nam":"AURORA","Latitude":"45.77000","Longitude":"-88.11810","Snowdepth":"12.000","Units":"in","Rept_Date":"2020-03-20 12"},"coordinates":[2140,4329]},{"type":"Point","properties":{"Station_ID":"WI-PR-2","Station_Nam":"BUTTERNUT 5.9 SW, WI","Latitude":"45.96501","Longitude":"-90.59750","Snowdepth":"11.500","Units":"in","Rept_Date":"2020-03-20 12"},"coordinates":[1559,4515]},{"type":"Point","properties":{"Station_ID":"VT-ES-1","Station_Nam":"GRANBY 1.4 NW, VT","Latitude":"44.58330","Longitude":"-71.77870","Snowdepth":"11.500","Units":"in","Rept_Date":"2020-03-20 13"},"coordinates":[5975,3200]},{"type":"Point","properties":{"Station_ID":"MWTM1","Station_Nam":"MILLINOCKET WWTP","Latitude":"45.64030","Longitude":"-68.67480","Snowdepth":"11.000","Units":"in","Rept_Date":"2020-03-20 10"},"coordinates":[6704,4206]},{"type":"Point","properties":{"Station_ID":"MN-PK-15","Station_Nam":"MENTOR 2.5 SSW, MN","Latitude":"47.66625","Longitude":"-96.17328","Snowdepth":"11.000","Units":"in","Rept_Date":"2020-03-20 13"},"coordinates":[250,6134]},{"type":"Point","properties":{"Station_ID":"MN-IT-19","Station_Nam":"COHASSET 7.6 NNW, MN","Latitude":"47.34204","Longitude":"-93.69765","Snowdepth":"11.000","Units":"in","Rept_Date":"2020-03-20 16"},"coordinates":[831,5826]},{"type":"Point","properties":{"Station_ID":"MI-AT-6","Station_Nam":"MANCELONA 0.5 ESE, MI","Latitude":"44.89981","Longitude":"-85.05100","Snowdepth":"11.000","Units":"in","Rept_Date":"2020-03-20 13"},"coordinates":[2860,3501]},{"type":"Point","properties":{"Station_ID":"CAN-PE-3","Station_Nam":"WELLINGTON 1.6 NE, CA","Latitude":"46.46672","Longitude":"-63.98920","Snowdepth":"11.000","Units":"in","Rept_Date":"2020-03-20 11"},"coordinates":[7803,4993]},{"type":"Point","properties":{"Station_ID":"BTLN3","Station_Nam":"BARTLETT","Latitude":"44.08380","Longitude":"-71.29340","Snowdepth":"11.000","Units":"in","Rept_Date":"2020-03-20 11"},"coordinates":[6089,2725]},{"type":"Point","properties":{"Station_ID":"WI-ON-6","Station_Nam":"RHINELANDER 5.2 N, WI","Latitude":"45.71388","Longitude":"-89.42150","Snowdepth":"10.500","Units":"in","Rept_Date":"2020-03-20 15"},"coordinates":[1835,4276]},{"type":"Point","properties":{"Station_ID":"WI-SR-1","Station_Nam":"HAYWARD 9.2 NNE, WI","Latitude":"46.13255","Longitude":"-91.40500","Snowdepth":"10.000","Units":"in","Rept_Date":"2020-03-20 12"},"coordinates":[1369,4675]},{"type":"Point","properties":{"Station_ID":"NH-CS-4","Station_Nam":"PITTSBURG 6.1 NE, NH","Latitude":"45.11060","Longitude":"-71.29760","Snowdepth":"10.000","Units":"in","Rept_Date":"2020-03-20 12"},"coordinates":[6088,3702]},{"type":"Point","properties":{"Station_ID":"MWN","Station_Nam":"MOUNT WASHINGTON","Latitude":"44.26670","Longitude":"-71.30000","Snowdepth":"10.000","Units":"in","Rept_Date":"2020-03-21 04"},"coordinates":[6088,2899]},{"type":"Point","properties":{"Station_ID":"KMWN","Station_Nam":"MOUNT WASHINGTON","Latitude":"44.26666","Longitude":"-71.30000","Snowdepth":"10.000","Units":"in","Rept_Date":"2020-03-21 06"},"coordinates":[6088,2899]},{"type":"Point","properties":{"Station_ID":"ASTW3","Station_Nam":"ATHELSTANE","Latitude":"45.42500","Longitude":"-88.05750","Snowdepth":"10.000","Units":"in","Rept_Date":"2020-03-20 11"},"coordinates":[2155,4001]},{"type":"Point","properties":{"Station_ID":"MN-CW-22","Station_Nam":"FORT RIPLEY 0.8 N, MN","Latitude":"46.18089","Longitude":"-94.36510","Snowdepth":"9.500","Units":"in","Rept_Date":"2020-03-20 13"},"coordinates":[674,4721]},{"type":"Point","properties":{"Station_ID":"MN-BK-10","Station_Nam":"DETROIT LAKES 5.7 N, MN","Latitude":"46.88666","Longitude":"-95.84444","Snowdepth":"9.500","Units":"in","Rept_Date":"2020-03-20 10"},"coordinates":[327,5392]},{"type":"Point","properties":{"Station_ID":"CAN-NB-1","Station_Nam":"FREDERICTON 4.0 SSE, CA","Latitude":"45.92897","Longitude":"-66.62830","Snowdepth":"9.300","Units":"in","Rept_Date":"2020-03-20 12"},"coordinates":[7184,4481]},{"type":"Point","properties":{"Station_ID":"CAN-PE-7","Station_Nam":"MORELL 1.4 NNW, CA","Latitude":"46.42741","Longitude":"-62.70870","Snowdepth":"9.200","Units":"in","Rept_Date":"2020-03-20 12"},"coordinates":[8104,4955]},{"type":"Point","properties":{"Station_ID":"WI-SR-5","Station_Nam":"HAYWARD 9.7 NE, WI","Latitude":"46.12030","Longitude":"-91.35370","Snowdepth":"9.000","Units":"in","Rept_Date":"2020-03-20 14"},"coordinates":[1381,4663]},{"type":"Point","properties":{"Station_ID":"WI-BN-6","Station_Nam":"SUAMICO 4.4 WNW, WI","Latitude":"44.66111","Longitude":"-88.11780","Snowdepth":"9.000","Units":"in","Rept_Date":"2020-03-20 13"},"coordinates":[2140,3274]},{"type":"Point","properties":{"Station_ID":"RHIW3","Station_Nam":"RHINELANDER","Latitude":"45.59860","Longitude":"-89.45080","Snowdepth":"9.000","Units":"in","Rept_Date":"2020-03-20 12"},"coordinates":[1828,4166]},{"type":"Point","properties":{"Station_ID":"NY-FK-7","Station_Nam":"SARANAC LAKE 6.2 N, NY","Latitude":"44.41359","Longitude":"-74.15211","Snowdepth":"9.000","Units":"in","Rept_Date":"2020-03-20 12"},"coordinates":[5418,3038]},{"type":"Point","properties":{"Station_ID":"NH-CR-41","Station_Nam":"ALBANY 2.8 SW, NH","Latitude":"43.92648","Longitude":"-71.21556","Snowdepth":"9.000","Units":"in","Rept_Date":"2020-03-20 14"},"coordinates":[6107,2575]},{"type":"Point","properties":{"Station_ID":"MN-BM-15","Station_Nam":"BEMIDJI 7.8 ENE, MN","Latitude":"47.52043","Longitude":"-94.72121","Snowdepth":"9.000","Units":"in","Rept_Date":"2020-03-20 13"},"coordinates":[591,5995]},{"type":"Point","properties":{"Station_ID":"MI-OT-17","Station_Nam":"GAYLORD 4.1 S, MI","Latitude":"44.96388","Longitude":"-84.68467","Snowdepth":"9.000","Units":"in","Rept_Date":"2020-03-20 12"},"coordinates":[2946,3562]},{"type":"Point","properties":{"Station_ID":"ME-OX-2","Station_Nam":"HARTFORD 1.4 N, ME","Latitude":"44.39318","Longitude":"-70.34760","Snowdepth":"9.000","Units":"in","Rept_Date":"2020-03-20 12"},"coordinates":[6311,3019]},{"type":"Point","properties":{"Station_ID":"LNKM1","Station_Nam":"LINCOLN SANITARY DISTRICT/WTP","Latitude":"45.37520","Longitude":"-68.50820","Snowdepth":"9.000","Units":"in","Rept_Date":"2020-03-20 11"},"coordinates":[6743,3954]},{"type":"Point","properties":{"Station_ID":"KGFK","Station_Nam":"GRAND FORKS INTERNATIONAL","Latitude":"47.95000","Longitude":"-97.18333","Snowdepth":"9.000","Units":"in","Rept_Date":"2020-03-21 00"},"coordinates":[13,6404]},{"type":"Point","properties":{"Station_ID":"INDN6","Station_Nam":"INDIAN LAKE","Latitude":"43.75500","Longitude":"-74.27560","Snowdepth":"9.000","Units":"in","Rept_Date":"2020-03-20 12"},"coordinates":[5389,2412]},{"type":"Point","properties":{"Station_ID":"GFK","Station_Nam":"GRAND FORKS INTERNATIONAL AIRPORT","Latitude":"47.94920","Longitude":"-97.17610","Snowdepth":"9.000","Units":"in","Rept_Date":"2020-03-21 00"},"coordinates":[15,6404]},{"type":"Point","properties":{"Station_ID":"EGRW3","Station_Nam":"EAGLE RIVER-SOUTH","Latitude":"45.91360","Longitude":"-89.24360","Snowdepth":"9.000","Units":"in","Rept_Date":"2020-03-20 12"},"coordinates":[1876,4466]},{"type":"Point","properties":{"Station_ID":"CORV1","Station_Nam":"CORINTH","Latitude":"44.00690","Longitude":"-72.31940","Snowdepth":"9.000","Units":"in","Rept_Date":"2020-03-20 11"},"coordinates":[5848,2651]},{"type":"Point","properties":{"Station_ID":"BRAM5","Station_Nam":"BRAINERD","Latitude":"46.34320","Longitude":"-94.20900","Snowdepth":"9.000","Units":"in","Rept_Date":"2020-03-20 12"},"coordinates":[711,4875]},{"type":"Point","properties":{"Station_ID":"AROM4","Station_Nam":"ARNOLD,MI","Latitude":"46.06670","Longitude":"-87.48330","Snowdepth":"9.000","Units":"in","Rept_Date":"2020-03-20 12"},"coordinates":[2289,4612]},{"type":"Point","properties":{"Station_ID":"VT-CL-18","Station_Nam":"WHEELOCK 1.6 S, VT","Latitude":"44.56491","Longitude":"-72.08830","Snowdepth":"8.500","Units":"in","Rept_Date":"2020-03-20 12"},"coordinates":[5903,3183]},{"type":"Point","properties":{"Station_ID":"NH-GR-49","Station_Nam":"PLYMOUTH 3.7 N, NH","Latitude":"43.79048","Longitude":"-71.68413","Snowdepth":"8.500","Units":"in","Rept_Date":"2020-03-20 12"},"coordinates":[5997,2445]},{"type":"Point","properties":{"Station_ID":"VT-OL-9","Station_Nam":"GREENSBORO 2.1 NNW, VT","Latitude":"44.60528","Longitude":"-72.30940","Snowdepth":"8.000","Units":"in","Rept_Date":"2020-03-20 12"},"coordinates":[5851,3221]},{"type":"Point","properties":{"Station_ID":"VT-OL-1","Station_Nam":"WESTFIELD 0.7 WNW, VT","Latitude":"44.89160","Longitude":"-72.44350","Snowdepth":"8.000","Units":"in","Rept_Date":"2020-03-20 12"},"coordinates":[5819,3493]},{"type":"Point","properties":{"Station_ID":"STMM4","Station_Nam":"STAMBAUGH 2SSE","Latitude":"46.05550","Longitude":"-88.62780","Snowdepth":"8.000","Units":"in","Rept_Date":"2020-03-20 12"},"coordinates":[2021,4601]},{"type":"Point","properties":{"Station_ID":"NH-CR-26","Station_Nam":"CENTER SANDWICH 4.9 E, NH","Latitude":"43.80976","Longitude":"-71.34150","Snowdepth":"8.000","Units":"in","Rept_Date":"2020-03-20 11"},"coordinates":[6078,2464]},{"type":"Point","properties":{"Station_ID":"LBKV1","Station_Nam":"LYE BROOK","Latitude":"43.05000","Longitude":"-73.03330","Snowdepth":"8.000","Units":"in","Rept_Date":"2020-03-21 05"},"coordinates":[5681,1741]},{"type":"Point","properties":{"Station_ID":"ESGM1","Station_Nam":"EAST SANGERVILLE","Latitude":"45.13690","Longitude":"-69.28060","Snowdepth":"8.000","Units":"in","Rept_Date":"2020-03-20 11"},"coordinates":[6562,3727]},{"type":"Point","properties":{"Station_ID":"ESDN3","Station_Nam":"EAST SANDWICH","Latitude":"43.80990","Longitude":"-71.34250","Snowdepth":"8.000","Units":"in","Rept_Date":"2020-03-20 10"},"coordinates":[6078,2464]},{"type":"Point","properties":{"Station_ID":"CAN-ON-92","Station_Nam":"DUNROBIN 1.9 W - MVCA, CAN","Latitude":"45.42318","Longitude":"-76.04525","Snowdepth":"8.000","Units":"in","Rept_Date":"2020-03-20 12"},"coordinates":[4974,3999]},{"type":"Point","properties":{"Station_ID":"BREW3","Station_Nam":"SURING","Latitude":"44.99580","Longitude":"-88.37860","Snowdepth":"8.000","Units":"in","Rept_Date":"2020-03-20 12"},"coordinates":[2079,3593]},{"type":"Point","properties":{"Station_ID":"BFHW3","Station_Nam":"BAYFIELD FISH HATCHERY","Latitude":"46.78670","Longitude":"-90.86420","Snowdepth":"8.000","Units":"in","Rept_Date":"2020-03-20 13"},"coordinates":[1496,5297]},{"type":"Point","properties":{"Station_ID":"CAN-NS-163","Station_Nam":"SYDNEY MINES 2.2 WNW, CAN","Latitude":"46.24851","Longitude":"-60.25161","Snowdepth":"7.900","Units":"in","Rept_Date":"2020-03-20 12"},"coordinates":[8681,4785]},{"type":"Point","properties":{"Station_ID":"MI-OT-16","Station_Nam":"GAYLORD 2.2 SSE, MI","Latitude":"44.99441","Longitude":"-84.65820","Snowdepth":"7.500","Units":"in","Rept_Date":"2020-03-20 12"},"coordinates":[2952,3591]},{"type":"Point","properties":{"Station_ID":"VT-ES-3","Station_Nam":"LUNENBURG 2.3 NNW, VT","Latitude":"44.49324","Longitude":"-71.70446","Snowdepth":"7.000","Units":"in","Rept_Date":"2020-03-20 12"},"coordinates":[5993,3114]},{"type":"Point","properties":{"Station_ID":"VANM4","Station_Nam":"VANDERBILT 11ENE","Latitude":"45.17020","Longitude":"-84.43970","Snowdepth":"7.000","Units":"in","Rept_Date":"2020-03-20 12"},"coordinates":[3004,3759]},{"type":"Point","properties":{"Station_ID":"TOPM1","Station_Nam":"TOPSFIELD","Latitude":"45.43470","Longitude":"-67.72020","Snowdepth":"7.000","Units":"in","Rept_Date":"2020-03-20 11"},"coordinates":[6928,4010]},{"type":"Point","properties":{"Station_ID":"NUMN3","Station_Nam":"NORTHUMBERLAND","Latitude":"44.52830","Longitude":"-71.50440","Snowdepth":"7.000","Units":"in","Rept_Date":"2020-03-20 12"},"coordinates":[6040,3148]},{"type":"Point","properties":{"Station_ID":"NH-CR-11","Station_Nam":"NORTH CONWAY 1.4 SSW, NH","Latitude":"44.03556","Longitude":"-71.14010","Snowdepth":"7.000","Units":"in","Rept_Date":"2020-03-20 12"},"coordinates":[6125,2679]},{"type":"Point","properties":{"Station_ID":"NCBN6","Station_Nam":"NEWCOMB","Latitude":"43.97070","Longitude":"-74.22200","Snowdepth":"7.000","Units":"in","Rept_Date":"2020-03-20 12"},"coordinates":[5402,2617]},{"type":"Point","properties":{"Station_ID":"COUW3","Station_Nam":"COUDERAY,WI","Latitude":"45.86670","Longitude":"-91.45000","Snowdepth":"7.000","Units":"in","Rept_Date":"2020-03-20 21"},"coordinates":[1358,4422]},{"type":"Point","properties":{"Station_ID":"CAN-ON-245","Station_Nam":"PHELPSTON 3.1 ESE, CAN","Latitude":"44.50564","Longitude":"-79.81035","Snowdepth":"7.000","Units":"in","Rept_Date":"2020-03-20 14"},"coordinates":[4090,3126]},{"type":"Point","properties":{"Station_ID":"CAN-ON-120","Station_Nam":"DUNROBIN 5.8 NE MIVCA, CA","Latitude":"45.46243","Longitude":"-75.97120","Snowdepth":"6.700","Units":"in","Rept_Date":"2020-03-20 12"},"coordinates":[4991,4037]},{"type":"Point","properties":{"Station_ID":"CAN-NB-98","Station_Nam":"HOYT 4.2 S, CAN","Latitude":"45.54763","Longitude":"-66.55440","Snowdepth":"6.700","Units":"in","Rept_Date":"2020-03-20 12"},"coordinates":[7201,4118]},{"type":"Point","properties":{"Station_ID":"WI-PR-6","Station_Nam":"PHILLIPS 1.3 S, WI","Latitude":"45.67677","Longitude":"-90.39543","Snowdepth":"6.500","Units":"in","Rept_Date":"2020-03-20 12"},"coordinates":[1606,4241]},{"type":"Point","properties":{"Station_ID":"ME-FR-22","Station_Nam":"FARMINGTON 4.8 NNW, ME","Latitude":"44.73396","Longitude":"-70.18007","Snowdepth":"6.500","Units":"in","Rept_Date":"2020-03-20 14"},"coordinates":[6350,3343]},{"type":"Point","properties":{"Station_ID":"CAN-PE-10","Station_Nam":"NEW LONDON 1.6 ENE, CA","Latitude":"46.46985","Longitude":"-63.49200","Snowdepth":"6.200","Units":"in","Rept_Date":"2020-03-20 12"},"coordinates":[7920,4996]},{"type":"Point","properties":{"Station_ID":"WLKW3","Station_Nam":"WHITE LAKE 1 SE","Latitude":"45.14520","Longitude":"-88.74160","Snowdepth":"6.000","Units":"in","Rept_Date":"2020-03-20 13"},"coordinates":[1994,3735]},{"type":"Point","properties":{"Station_ID":"WILW3","Station_Nam":"RESERVOIR","Latitude":"45.70000","Longitude":"-89.83330","Snowdepth":"6.000","Units":"in","Rept_Date":"2020-03-20 11"},"coordinates":[1738,4263]},{"type":"Point","properties":{"Station_ID":"WI-WB-2","Station_Nam":"STONE LAKE 2.0 NW, WI","Latitude":"45.85960","Longitude":"-91.57710","Snowdepth":"6.000","Units":"in","Rept_Date":"2020-03-20 13"},"coordinates":[1329,4415]},{"type":"Point","properties":{"Station_ID":"RRVM4","Station_Nam":"RAPID RIVER 9S","Latitude":"45.78750","Longitude":"-86.93920","Snowdepth":"6.000","Units":"in","Rept_Date":"2020-03-20 16"},"coordinates":[2417,4346]},{"type":"Point","properties":{"Station_ID":"RHRW3","Station_Nam":"RHINELANDER WJFW TV-12","Latitude":"45.62220","Longitude":"-89.41000","Snowdepth":"6.000","Units":"in","Rept_Date":"2020-03-21 02"},"coordinates":[1837,4189]},{"type":"Point","properties":{"Station_ID":"OTTM5","Station_Nam":"OTTERTAIL,MN","Latitude":"46.41670","Longitude":"-95.56670","Snowdepth":"6.000","Units":"in","Rept_Date":"2020-03-20 12"},"coordinates":[392,4945]},{"type":"Point","properties":{"Station_ID":"ND-CS-25","Station_Nam":"FARGO 2.1 N, ND","Latitude":"46.90816","Longitude":"-96.77937","Snowdepth":"6.000","Units":"in","Rept_Date":"2020-03-20 14"},"coordinates":[108,5413]},{"type":"Point","properties":{"Station_ID":"MI-OT-4","Station_Nam":"GAYLORD 1.7 WNW, MI","Latitude":"45.03280","Longitude":"-84.71090","Snowdepth":"6.000","Units":"in","Rept_Date":"2020-03-20 13"},"coordinates":[2940,3628]},{"type":"Point","properties":{"Station_ID":"GAYM4","Station_Nam":"GAYLORD","Latitude":"45.03320","Longitude":"-84.71130","Snowdepth":"6.000","Units":"in","Rept_Date":"2020-03-20 12"},"coordinates":[2940,3628]},{"type":"Point","properties":{"Station_ID":"EJNM4","Station_Nam":"EAST JORDAN 2NW","Latitude":"45.18630","Longitude":"-85.14770","Snowdepth":"6.000","Units":"in","Rept_Date":"2020-03-20 12"},"coordinates":[2838,3774]},{"type":"Point","properties":{"Station_ID":"ND-CS-1","Station_Nam":"WEST FARGO 3.8 SSE, ND","Latitude":"46.82750","Longitude":"-96.85280","Snowdepth":"5.500","Units":"in","Rept_Date":"2020-03-20 13"},"coordinates":[90,5336]},{"type":"Point","properties":{"Station_ID":"MI-CX-7","Station_Nam":"EAST JORDAN 2.1 NNW, MI","Latitude":"45.18639","Longitude":"-85.14750","Snowdepth":"5.500","Units":"in","Rept_Date":"2020-03-20 13"},"coordinates":[2838,3774]},{"type":"Point","properties":{"Station_ID":"MI-CP-7","Station_Nam":"DRUMMOND 2.9 NE, MI","Latitude":"46.05329","Longitude":"-83.69060","Snowdepth":"5.500","Units":"in","Rept_Date":"2020-03-20 14"},"coordinates":[3180,4599]},{"type":"Point","properties":{"Station_ID":"WI-RS-1","Station_Nam":"LADYSMITH 2.8 WNW, WI","Latitude":"45.48180","Longitude":"-91.14680","Snowdepth":"5.000","Units":"in","Rept_Date":"2020-03-20 13"},"coordinates":[1430,4055]},{"type":"Point","properties":{"Station_ID":"WI-MT-14","Station_Nam":"MOSINEE 2.7 WSW, WI","Latitude":"44.77240","Longitude":"-89.73441","Snowdepth":"5.000","Units":"in","Rept_Date":"2020-03-20 13"},"coordinates":[1761,3380]},{"type":"Point","properties":{"Station_ID":"WI-MT-1","Station_Nam":"SCHOFIELD 3.3 E, WI","Latitude":"44.91806","Longitude":"-89.54470","Snowdepth":"5.000","Units":"in","Rept_Date":"2020-03-20 13"},"coordinates":[1806,3519]},{"type":"Point","properties":{"Station_ID":"VT-WS-30","Station_Nam":"WOODBURY 3.4 NNW, VT","Latitude":"44.48825","Longitude":"-72.43258","Snowdepth":"5.000","Units":"in","Rept_Date":"2020-03-20 12"},"coordinates":[5822,3110]},{"type":"Point","properties":{"Station_ID":"VT-WR-2","Station_Nam":"POMFRET 2.6 N, VT","Latitude":"43.74230","Longitude":"-72.52550","Snowdepth":"5.000","Units":"in","Rept_Date":"2020-03-20 12"},"coordinates":[5800,2400]},{"type":"Point","properties":{"Station_ID":"VT-OG-11","Station_Nam":"VERSHIRE 1.5 ESE, VT","Latitude":"43.96138","Longitude":"-72.29777","Snowdepth":"5.000","Units":"in","Rept_Date":"2020-03-20 11"},"coordinates":[5853,2608]},{"type":"Point","properties":{"Station_ID":"VT-BN-3","Station_Nam":"LANDGROVE 1.1 NNE, VT","Latitude":"43.29092","Longitude":"-72.83260","Snowdepth":"5.000","Units":"in","Rept_Date":"2020-03-20 12"},"coordinates":[5728,1970]},{"type":"Point","properties":{"Station_ID":"SBNM5","Station_Nam":"SABIN","Latitude":"46.77690","Longitude":"-96.65610","Snowdepth":"5.000","Units":"in","Rept_Date":"2020-03-20 13"},"coordinates":[137,5288]},{"type":"Point","properties":{"Station_ID":"RHLW3","Station_Nam":"RHINELANDER 4NE","Latitude":"45.65270","Longitude":"-89.30740","Snowdepth":"5.000","Units":"in","Rept_Date":"2020-03-20 11"},"coordinates":[1861,4218]},{"type":"Point","properties":{"Station_ID":"PARM4","Station_Nam":"PARENT BAY","Latitude":"45.79610","Longitude":"-86.40110","Snowdepth":"5.000","Units":"in","Rept_Date":"2020-03-20 13"},"coordinates":[2543,4354]},{"type":"Point","properties":{"Station_ID":"NYMM5","Station_Nam":"NEW YORK MILLS","Latitude":"46.50920","Longitude":"-95.37990","Snowdepth":"5.000","Units":"in","Rept_Date":"2020-03-20 12"},"coordinates":[436,5033]},{"type":"Point","properties":{"Station_ID":"MQRW3","Station_Nam":"MINOCQUA","Latitude":"45.88630","Longitude":"-89.73220","Snowdepth":"5.000","Units":"in","Rept_Date":"2020-03-20 11"},"coordinates":[1762,4440]},{"type":"Point","properties":{"Station_ID":"MN76ACVS","Station_Nam":"GRAND MARAIS 3.0 WNW","Latitude":"47.76602","Longitude":"-90.26427","Snowdepth":"5.000","Units":"in","Rept_Date":"2020-03-20 12"},"coordinates":[1637,6229]},{"type":"Point","properties":{"Station_ID":"KSEM4","Station_Nam":"KALKASKA 11SE","Latitude":"44.58970","Longitude":"-85.04860","Snowdepth":"5.000","Units":"in","Rept_Date":"2020-03-20 12"},"coordinates":[2861,3206]},{"type":"Point","properties":{"Station_ID":"ISLV1","Station_Nam":"ISLAND POND","Latitude":"44.81280","Longitude":"-71.89020","Snowdepth":"5.000","Units":"in","Rept_Date":"2020-03-20 14"},"coordinates":[5949,3418]},{"type":"Point","properties":{"Station_ID":"HOLW3","Station_Nam":"HOLCOMBE","Latitude":"45.22370","Longitude":"-91.12700","Snowdepth":"5.000","Units":"in","Rept_Date":"2020-03-20 12"},"coordinates":[1434,3810]},{"type":"Point","properties":{"Station_ID":"HOKN6","Station_Nam":"HOOKER 12 NNW","Latitude":"43.85240","Longitude":"-75.71580","Snowdepth":"5.000","Units":"in","Rept_Date":"2020-03-20 11"},"coordinates":[5051,2504]},{"type":"Point","properties":{"Station_ID":"HMYM1","Station_Nam":"HARMONY","Latitude":"44.94660","Longitude":"-69.54560","Snowdepth":"5.000","Units":"in","Rept_Date":"2020-03-20 11"},"coordinates":[6499,3546]},{"type":"Point","properties":{"Station_ID":"FDRN8","Station_Nam":"FARGO 3S","Latitude":"46.82930","Longitude":"-96.79620","Snowdepth":"5.000","Units":"in","Rept_Date":"2020-03-21 03"},"coordinates":[104,5338]},{"type":"Point","properties":{"Station_ID":"FAR","Station_Nam":"HECTOR INTERNATIONAL ARPT","Latitude":"46.91560","Longitude":"-96.81440","Snowdepth":"5.000","Units":"in","Rept_Date":"2020-03-21 00"},"coordinates":[99,5420]},{"type":"Point","properties":{"Station_ID":"ENGM4","Station_Nam":"ENGADINE MDOT","Latitude":"46.12800","Longitude":"-85.56960","Snowdepth":"5.000","Units":"in","Rept_Date":"2020-03-20 11"},"coordinates":[2739,4670]},{"type":"Point","properties":{"Station_ID":"EMRN1","Station_Nam":"EMERSON","Latitude":"42.27970","Longitude":"-96.72440","Snowdepth":"5.000","Units":"in","Rept_Date":"2020-03-20 12"},"coordinates":[121,1008]},{"type":"Point","properties":{"Station_ID":"CNNS2","Station_Nam":"CANTON","Latitude":"43.31120","Longitude":"-96.58770","Snowdepth":"5.000","Units":"in","Rept_Date":"2020-03-20 13"},"coordinates":[153,1989]},{"type":"Point","properties":{"Station_ID":"BRLN3","Station_Nam":"BERLIN","Latitude":"44.45350","Longitude":"-71.18540","Snowdepth":"5.000","Units":"in","Rept_Date":"2020-03-20 11"},"coordinates":[6114,3076]},{"type":"Point","properties":{"Station_ID":"BOWW3","Station_Nam":"STOCKBRIDGE-MUNSEE RESERVATION","Latitude":"44.87000","Longitude":"-88.90440","Snowdepth":"5.000","Units":"in","Rept_Date":"2020-03-20 13"},"coordinates":[1956,3473]},{"type":"Point","properties":{"Station_ID":"NH-CR-27","Station_Nam":"TAMWORTH 0.4 NNW, NH","Latitude":"43.86449","Longitude":"-71.26610","Snowdepth":"4.500","Units":"in","Rept_Date":"2020-03-20 12"},"coordinates":[6096,2516]},{"type":"Point","properties":{"Station_ID":"MN-RK-5","Station_Nam":"HILLS 0.2 NW, MN","Latitude":"43.52960","Longitude":"-96.36146","Snowdepth":"4.100","Units":"in","Rept_Date":"2020-03-20 13"},"coordinates":[206,2197]},{"type":"Point","properties":{"Station_ID":"WSKW3","Station_Nam":"WAUSAUKEE","Latitude":"45.38020","Longitude":"-87.95660","Snowdepth":"4.000","Units":"in","Rept_Date":"2020-03-20 13"},"coordinates":[2178,3958]},{"type":"Point","properties":{"Station_ID":"WI-AS-4","Station_Nam":"ASHLAND 0.5 WNW, WI","Latitude":"46.58240","Longitude":"-90.88390","Snowdepth":"4.000","Units":"in","Rept_Date":"2020-03-20 13"},"coordinates":[1491,5103]},{"type":"Point","properties":{"Station_ID":"TMWN3","Station_Nam":"TAMWORTH 4","Latitude":"43.86390","Longitude":"-71.26610","Snowdepth":"4.000","Units":"in","Rept_Date":"2020-03-20 11"},"coordinates":[6096,2515]},{"type":"Point","properties":{"Station_ID":"SULW3","Station_Nam":"SUMMIT LAKE","Latitude":"45.37880","Longitude":"-89.19410","Snowdepth":"4.000","Units":"in","Rept_Date":"2020-03-20 10"},"coordinates":[1888,3957]},{"type":"Point","properties":{"Station_ID":"SD-MH-1","Station_Nam":"SIOUX FALLS 5.0 SE ARPT, SD","Latitude":"43.52360","Longitude":"-96.66780","Snowdepth":"4.000","Units":"in","Rept_Date":"2020-03-20 13"},"coordinates":[134,2191]},{"type":"Point","properties":{"Station_ID":"SD-LN-32","Station_Nam":"SIOUX FALLS 3.6 SSE, SD","Latitude":"43.49360","Longitude":"-96.71249","Snowdepth":"4.000","Units":"in","Rept_Date":"2020-03-20 13"},"coordinates":[123,2163]},{"type":"Point","properties":{"Station_ID":"RSTW3","Station_Nam":"ROSHOLT","Latitude":"44.62710","Longitude":"-89.30600","Snowdepth":"4.000","Units":"in","Rept_Date":"2020-03-20 13"},"coordinates":[1862,3242]},{"type":"Point","properties":{"Station_ID":"RLKW3","Station_Nam":"REST LAKE","Latitude":"46.12220","Longitude":"-89.87720","Snowdepth":"4.000","Units":"in","Rept_Date":"2020-03-20 13"},"coordinates":[1728,4665]},{"type":"Point","properties":{"Station_ID":"RKRI4","Station_Nam":"ROCK RAPIDS,IA","Latitude":"43.43330","Longitude":"-96.16670","Snowdepth":"4.000","Units":"in","Rept_Date":"2020-03-20 13"},"coordinates":[251,2105]},{"type":"Point","properties":{"Station_ID":"PERV1","Station_Nam":"PERU","Latitude":"43.26670","Longitude":"-72.90000","Snowdepth":"4.000","Units":"in","Rept_Date":"2020-03-20 11"},"coordinates":[5712,1947]},{"type":"Point","properties":{"Station_ID":"PEKN6","Station_Nam":"PECK LAKE","Latitude":"43.11500","Longitude":"-74.42360","Snowdepth":"4.000","Units":"in","Rept_Date":"2020-03-20 11"},"coordinates":[5354,1803]},{"type":"Point","properties":{"Station_ID":"NY-HR-18","Station_Nam":"SALISBURY CENTER 1.8 NW, NY","Latitude":"43.16260","Longitude":"-74.80880","Snowdepth":"4.000","Units":"in","Rept_Date":"2020-03-20 11"},"coordinates":[5264,1848]},{"type":"Point","properties":{"Station_ID":"NY-ES-11","Station_Nam":"VERMONTVILLE 2.8 S, NY","Latitude":"44.41205","Longitude":"-74.06760","Snowdepth":"4.000","Units":"in","Rept_Date":"2020-03-20 12"},"coordinates":[5438,3037]},{"type":"Point","properties":{"Station_ID":"NESN1","Station_Nam":"CONCORD","Latitude":"42.38440","Longitude":"-96.98830","Snowdepth":"4.000","Units":"in","Rept_Date":"2020-03-20 22"},"coordinates":[59,1107]},{"type":"Point","properties":{"Station_ID":"MTQM4","Station_Nam":"MANISTIQUE WWTP","Latitude":"45.95120","Longitude":"-86.25130","Snowdepth":"4.000","Units":"in","Rept_Date":"2020-03-20 11"},"coordinates":[2579,4502]},{"type":"Point","properties":{"Station_ID":"MCLN8","Station_Nam":"MC LEOD,ND","Latitude":"46.40250","Longitude":"-97.23810","Snowdepth":"4.000","Units":"in","Rept_Date":"2020-03-20 13"},"coordinates":[0,4931]},{"type":"Point","properties":{"Station_ID":"LNGM5","Station_Nam":"LONG PRAIRIE","Latitude":"45.96460","Longitude":"-94.88920","Snowdepth":"4.000","Units":"in","Rept_Date":"2020-03-20 11"},"coordinates":[551,4515]},{"type":"Point","properties":{"Station_ID":"CLGM5","Station_Nam":"COLLEGEVILLE ST JOHN","Latitude":"45.57940","Longitude":"-94.39200","Snowdepth":"4.000","Units":"in","Rept_Date":"2020-03-20 23"},"coordinates":[668,4148]},{"type":"Point","properties":{"Station_ID":"CAN-ON-42","Station_Nam":"VANKLEEK HILL 3.4 S, CA","Latitude":"45.48987","Longitude":"-74.64570","Snowdepth":"4.000","Units":"in","Rept_Date":"2020-03-20 12"},"coordinates":[5302,4063]},{"type":"Point","properties":{"Station_ID":"AWXW3","Station_Nam":"ASHLAND","Latitude":"46.58240","Longitude":"-90.88390","Snowdepth":"4.000","Units":"in","Rept_Date":"2020-03-20 12"},"coordinates":[1491,5103]},{"type":"Point","properties":{"Station_ID":"AMDW3","Station_Nam":"ALMOND-5 NE","Latitude":"44.30830","Longitude":"-89.34640","Snowdepth":"4.000","Units":"in","Rept_Date":"2020-03-20 13"},"coordinates":[1852,2938]},{"type":"Point","properties":{"Station_ID":"WI-PR-8","Station_Nam":"PHILLIPS 0.4 SSW, WI","Latitude":"45.69086","Longitude":"-90.40200","Snowdepth":"3.500","Units":"in","Rept_Date":"2020-03-20 13"},"coordinates":[1604,4254]},{"type":"Point","properties":{"Station_ID":"VT-CL-14","Station_Nam":"LYNDONVILLE 1.1 W, VT","Latitude":"44.53582","Longitude":"-72.02867","Snowdepth":"3.500","Units":"in","Rept_Date":"2020-03-20 13"},"coordinates":[5917,3155]},{"type":"Point","properties":{"Station_ID":"WRNM5","Station_Nam":"WORTHINGTON,MN","Latitude":"43.65440","Longitude":"-95.57920","Snowdepth":"3.000","Units":"in","Rept_Date":"2020-03-20 12"},"coordinates":[389,2316]},{"type":"Point","properties":{"Station_ID":"WI-BT-14","Station_Nam":"OAKLAND 9.0 ENE, WI","Latitude":"45.95184","Longitude":"-92.21653","Snowdepth":"3.000","Units":"in","Rept_Date":"2020-03-20 13"},"coordinates":[1179,4503]},{"type":"Point","properties":{"Station_ID":"WHFN6","Station_Nam":"WILMINGTON 2W","Latitude":"44.39310","Longitude":"-73.85890","Snowdepth":"3.000","Units":"in","Rept_Date":"2020-03-20 12"},"coordinates":[5487,3019]},{"type":"Point","properties":{"Station_ID":"WAYN002","Station_Nam":"WAYNE 0.7 ENE, NE","Latitude":"42.23610","Longitude":"-97.00740","Snowdepth":"3.000","Units":"in","Rept_Date":"2020-03-20 13"},"coordinates":[54,966]},{"type":"Point","properties":{"Station_ID":"VT-OL-2","Station_Nam":"BARTON 3.0 ENE, VT","Latitude":"44.75863","Longitude":"-72.11680","Snowdepth":"3.000","Units":"in","Rept_Date":"2020-03-20 12"},"coordinates":[5896,3367]},{"type":"Point","properties":{"Station_ID":"SUX","Station_Nam":"SIOUX GATEWAY AIRPORT","Latitude":"42.40390","Longitude":"-96.38330","Snowdepth":"3.000","Units":"in","Rept_Date":"2020-03-21 00"},"coordinates":[201,1126]},{"type":"Point","properties":{"Station_ID":"SLBI4","Station_Nam":"STORM LAKE","Latitude":"42.64690","Longitude":"-95.19330","Snowdepth":"3.000","Units":"in","Rept_Date":"2020-03-20 13"},"coordinates":[480,1357]},{"type":"Point","properties":{"Station_ID":"RFDM1","Station_Nam":"RUMFORD 7SW","Latitude":"44.49470","Longitude":"-70.65640","Snowdepth":"3.000","Units":"in","Rept_Date":"2020-03-20 12"},"coordinates":[6239,3116]},{"type":"Point","properties":{"Station_ID":"PKFW3","Station_Nam":"PARK FALLS,WI","Latitude":"45.93360","Longitude":"-90.45060","Snowdepth":"3.000","Units":"in","Rept_Date":"2020-03-20 13"},"coordinates":[1593,4485]},{"type":"Point","properties":{"Station_ID":"MN-MR-4","Station_Nam":"LITTLE FALLS 1.2 SW, MN","Latitude":"45.96886","Longitude":"-94.37720","Snowdepth":"3.000","Units":"in","Rept_Date":"2020-03-20 13"},"coordinates":[671,4519]},{"type":"Point","properties":{"Station_ID":"LSXI4","Station_Nam":"LITTLE SIOUX,IA","Latitude":"41.81670","Longitude":"-96.01670","Snowdepth":"3.000","Units":"in","Rept_Date":"2020-03-20 12"},"coordinates":[287,567]},{"type":"Point","properties":{"Station_ID":"LNCM1","Station_Nam":"LINCOLN WATER DISTRICT","Latitude":"45.32410","Longitude":"-68.58300","Snowdepth":"3.000","Units":"in","Rept_Date":"2020-03-20 11"},"coordinates":[6725,3905]},{"type":"Point","properties":{"Station_ID":"JEFV1","Station_Nam":"JEFFERSONVILLE","Latitude":"44.58430","Longitude":"-72.78700","Snowdepth":"3.000","Units":"in","Rept_Date":"2020-03-20 11"},"coordinates":[5739,3201]},{"type":"Point","properties":{"Station_ID":"FARM1","Station_Nam":"FARMINGTON","Latitude":"44.68930","Longitude":"-70.15640","Snowdepth":"3.000","Units":"in","Rept_Date":"2020-03-21 04"},"coordinates":[6356,3301]},{"type":"Point","properties":{"Station_ID":"DTVM4","Station_Nam":"DETOUR VILLAGE","Latitude":"45.99830","Longitude":"-83.90130","Snowdepth":"3.000","Units":"in","Rept_Date":"2020-03-20 12"},"coordinates":[3130,4547]},{"type":"Point","properties":{"Station_ID":"CVZW3","Station_Nam":"WISCONSIN PUBLIC SERVICE","Latitude":"45.23530","Longitude":"-88.01360","Snowdepth":"3.000","Units":"in","Rept_Date":"2020-03-20 12"},"coordinates":[2165,3821]},{"type":"Point","properties":{"Station_ID":"APXM4","Station_Nam":"GAYLORD 9SSW","Latitude":"44.90720","Longitude":"-84.71880","Snowdepth":"3.000","Units":"in","Rept_Date":"2020-03-21 04"},"coordinates":[2938,3508]},{"type":"Point","properties":{"Station_ID":"SD-MH-23","Station_Nam":"SIOUX FALLS 3.4 WSW, SD","Latitude":"43.52393","Longitude":"-96.79210","Snowdepth":"2.800","Units":"in","Rept_Date":"2020-03-20 15"},"coordinates":[105,2192]},{"type":"Point","properties":{"Station_ID":"NH-MR-60","Station_Nam":"SOUTH SUTTON 1.3 SE, NH","Latitude":"43.29531","Longitude":"-71.90238","Snowdepth":"2.500","Units":"in","Rept_Date":"2020-03-20 13"},"coordinates":[5946,1974]},{"type":"Point","properties":{"Station_ID":"WDOM5","Station_Nam":"WINDOM","Latitude":"43.87700","Longitude":"-95.11590","Snowdepth":"2.000","Units":"in","Rept_Date":"2020-03-20 13"},"coordinates":[498,2528]},{"type":"Point","properties":{"Station_ID":"TOHM5","Station_Nam":"TWO HARBORS WWTP","Latitude":"47.01760","Longitude":"-91.66480","Snowdepth":"2.000","Units":"in","Rept_Date":"2020-03-20 12"},"coordinates":[1308,5517]},{"type":"Point","properties":{"Station_ID":"SXGI4","Station_Nam":"ANG BASE","Latitude":"42.39640","Longitude":"-96.37780","Snowdepth":"2.000","Units":"in","Rept_Date":"2020-03-20 11"},"coordinates":[202,1119]},{"type":"Point","properties":{"Station_ID":"SPRI4","Station_Nam":"SPIRIT LAKE","Latitude":"43.42310","Longitude":"-95.10000","Snowdepth":"2.000","Units":"in","Rept_Date":"2020-03-20 12"},"coordinates":[502,2096]},{"type":"Point","properties":{"Station_ID":"SHDI4","Station_Nam":"SHELDON,IA","Latitude":"43.18080","Longitude":"-95.85280","Snowdepth":"2.000","Units":"in","Rept_Date":"2020-03-20 12"},"coordinates":[325,1865]},{"type":"Point","properties":{"Station_ID":"SD-UN-2","Station_Nam":"ELK POINT 5.6 NNE, SD","Latitude":"42.76126","Longitude":"-96.65320","Snowdepth":"2.000","Units":"in","Rept_Date":"2020-03-20 15"},"coordinates":[137,1466]},{"type":"Point","properties":{"Station_ID":"SD-MH-8","Station_Nam":"HARTFORD 6.4 S, SD","Latitude":"43.53128","Longitude":"-96.95020","Snowdepth":"2.000","Units":"in","Rept_Date":"2020-03-20 14"},"coordinates":[68,2199]},{"type":"Point","properties":{"Station_ID":"SD-MH-41","Station_Nam":"SIOUX FALLS 3.9 SW, SD","Latitude":"43.50475","Longitude":"-96.78660","Snowdepth":"2.000","Units":"in","Rept_Date":"2020-03-20 13"},"coordinates":[106,2173]},{"type":"Point","properties":{"Station_ID":"SD-CY-10","Station_Nam":"VERMILLION 1.4 SE, SD","Latitude":"42.76865","Longitude":"-96.90649","Snowdepth":"2.000","Units":"in","Rept_Date":"2020-03-20 12"},"coordinates":[78,1473]},{"type":"Point","properties":{"Station_ID":"SAUW3","Station_Nam":"WAUSAU WSAW TV","Latitude":"44.94630","Longitude":"-89.62220","Snowdepth":"2.000","Units":"in","Rept_Date":"2020-03-20 17"},"coordinates":[1787,3546]},{"type":"Point","properties":{"Station_ID":"RMSI4","Station_Nam":"REMSEN NO. 2","Latitude":"42.81050","Longitude":"-95.97530","Snowdepth":"2.000","Units":"in","Rept_Date":"2020-03-20 17"},"coordinates":[296,1513]},{"type":"Point","properties":{"Station_ID":"PLOW3","Station_Nam":"PLOVER","Latitude":"44.44280","Longitude":"-89.54530","Snowdepth":"2.000","Units":"in","Rept_Date":"2020-03-20 12"},"coordinates":[1805,3066]},{"type":"Point","properties":{"Station_ID":"NY-CL-12","Station_Nam":"SARANAC 0.8 SSE, NY","Latitude":"44.63980","Longitude":"-73.73848","Snowdepth":"2.000","Units":"in","Rept_Date":"2020-03-20 12"},"coordinates":[5515,3254]},{"type":"Point","properties":{"Station_ID":"NWSM1","Station_Nam":"NEW SHARON","Latitude":"44.63520","Longitude":"-70.00020","Snowdepth":"2.000","Units":"in","Rept_Date":"2020-03-20 11"},"coordinates":[6393,3249]},{"type":"Point","properties":{"Station_ID":"NCKN6","Station_Nam":"NORTH CREEK 5 SE","Latitude":"43.66110","Longitude":"-73.89690","Snowdepth":"2.000","Units":"in","Rept_Date":"2020-03-20 11"},"coordinates":[5478,2322]},{"type":"Point","properties":{"Station_ID":"NCKN1","Station_Nam":"NICKERSON 3NE","Latitude":"41.56500","Longitude":"-96.44250","Snowdepth":"2.000","Units":"in","Rept_Date":"2020-03-20 12"},"coordinates":[187,327]},{"type":"Point","properties":{"Station_ID":"MYOM4","Station_Nam":"MIO WWTP","Latitude":"44.64660","Longitude":"-84.11580","Snowdepth":"2.000","Units":"in","Rept_Date":"2020-03-20 12"},"coordinates":[3080,3260]},{"type":"Point","properties":{"Station_ID":"MN-SH-10","Station_Nam":"BIG LAKE 5.6 NNE, MN","Latitude":"45.41409","Longitude":"-93.69190","Snowdepth":"2.000","Units":"in","Rept_Date":"2020-03-20 13"},"coordinates":[832,3991]},{"type":"Point","properties":{"Station_ID":"MN-OL-18","Station_Nam":"ROCHESTER 2.6 NE, MN","Latitude":"44.03975","Longitude":"-92.43750","Snowdepth":"2.000","Units":"in","Rept_Date":"2020-03-20 12"},"coordinates":[1127,2683]},{"type":"Point","properties":{"Station_ID":"MN-MR-13","Station_Nam":"LITTLE FALLS 8.0 NE, MN","Latitude":"46.06785","Longitude":"-94.24789","Snowdepth":"2.000","Units":"in","Rept_Date":"2020-03-20 13"},"coordinates":[702,4613]},{"type":"Point","properties":{"Station_ID":"MI-BZ-1","Station_Nam":"BENZONIA 5.3 S, MI","Latitude":"44.53976","Longitude":"-86.10650","Snowdepth":"2.000","Units":"in","Rept_Date":"2020-03-20 14"},"coordinates":[2613,3159]},{"type":"Point","properties":{"Station_ID":"MA-MD-47","Station_Nam":"WEST TOWNSEND 0.5 W, MA","Latitude":"42.67623","Longitude":"-71.74983","Snowdepth":"2.000","Units":"in","Rept_Date":"2020-03-20 11"},"coordinates":[5982,1385]},{"type":"Point","properties":{"Station_ID":"LMLI4","Station_Nam":"LAKE MILLS,IA","Latitude":"43.40000","Longitude":"-93.53330","Snowdepth":"2.000","Units":"in","Rept_Date":"2020-03-20 12"},"coordinates":[870,2074]},{"type":"Point","properties":{"Station_ID":"LKFM5","Station_Nam":"LAKEFIELD,MN","Latitude":"43.68330","Longitude":"-95.18330","Snowdepth":"2.000","Units":"in","Rept_Date":"2020-03-20 12"},"coordinates":[482,2343]},{"type":"Point","properties":{"Station_ID":"LEMI4","Station_Nam":"LE MARS,IA","Latitude":"42.78170","Longitude":"-96.16670","Snowdepth":"2.000","Units":"in","Rept_Date":"2020-03-20 12"},"coordinates":[251,1485]},{"type":"Point","properties":{"Station_ID":"ISEM5","Station_Nam":"ISLE 12N","Latitude":"46.31970","Longitude":"-93.50140","Snowdepth":"2.000","Units":"in","Rept_Date":"2020-03-20 13"},"coordinates":[877,4853]},{"type":"Point","properties":{"Station_ID":"IA-SX-9","Station_Nam":"ORANGE CITY 0.3 ENE, IA","Latitude":"43.00598","Longitude":"-96.05268","Snowdepth":"2.000","Units":"in","Rept_Date":"2020-03-20 14"},"coordinates":[278,1699]},{"type":"Point","properties":{"Station_ID":"IA-LY-6","Station_Nam":"ROCK RAPIDS 3.0 N, IA","Latitude":"43.46890","Longitude":"-96.15600","Snowdepth":"2.000","Units":"in","Rept_Date":"2020-03-20 17"},"coordinates":[254,2139]},{"type":"Point","properties":{"Station_ID":"IA-DK-11","Station_Nam":"SPIRIT LAKE 1.7 SW, IA","Latitude":"43.40694","Longitude":"-95.13694","Snowdepth":"2.000","Units":"in","Rept_Date":"2020-03-20 14"},"coordinates":[493,2080]},{"type":"Point","properties":{"Station_ID":"HRTM1","Station_Nam":"HARTFORD","Latitude":"44.37440","Longitude":"-70.31620","Snowdepth":"2.000","Units":"in","Rept_Date":"2020-03-20 11"},"coordinates":[6318,3001]},{"type":"Point","properties":{"Station_ID":"HAWI4","Station_Nam":"HAWARDEN,IA","Latitude":"43.99750","Longitude":"-96.49810","Snowdepth":"2.000","Units":"in","Rept_Date":"2020-03-20 12"},"coordinates":[174,2642]},{"type":"Point","properties":{"Station_ID":"FSD","Station_Nam":"SIOUX FALLS, SD","Latitude":"43.58750","Longitude":"-96.72940","Snowdepth":"2.000","Units":"in","Rept_Date":"2020-03-20 12"},"coordinates":[119,2252]},{"type":"Point","properties":{"Station_ID":"EVYI4","Station_Nam":"EVERLY,IA","Latitude":"43.18330","Longitude":"-95.36670","Snowdepth":"2.000","Units":"in","Rept_Date":"2020-03-20 12"},"coordinates":[439,1868]},{"type":"Point","properties":{"Station_ID":"CORM1","Station_Nam":"CORINNA","Latitude":"44.91980","Longitude":"-69.24180","Snowdepth":"2.000","Units":"in","Rept_Date":"2020-03-20 12"},"coordinates":[6571,3520]},{"type":"Point","properties":{"Station_ID":"CAN-ON-208","Station_Nam":"PAKENHAM 7.8 NNW, CAN","Latitude":"45.39166","Longitude":"-76.34111","Snowdepth":"2.000","Units":"in","Rept_Date":"2020-03-20 12"},"coordinates":[4904,3969]},{"type":"Point","properties":{"Station_ID":"BRCM5","Station_Nam":"BRICELYN","Latitude":"43.54400","Longitude":"-93.84230","Snowdepth":"2.000","Units":"in","Rept_Date":"2020-03-20 12"},"coordinates":[797,2211]},{"type":"Point","properties":{"Station_ID":"BFSW3","Station_Nam":"BIG FALLS-5 NW","Latitude":"44.63980","Longitude":"-89.11330","Snowdepth":"2.000","Units":"in","Rept_Date":"2020-03-20 12"},"coordinates":[1907,3254]},{"type":"Point","properties":{"Station_ID":"BETM1","Station_Nam":"BETHEL 6 SSE","Latitude":"44.32000","Longitude":"-70.75680","Snowdepth":"2.000","Units":"in","Rept_Date":"2020-03-20 12"},"coordinates":[6215,2949]},{"type":"Point","properties":{"Station_ID":"ALXM5","Station_Nam":"ALEXANDRIA","Latitude":"45.87820","Longitude":"-95.38270","Snowdepth":"2.000","Units":"in","Rept_Date":"2020-03-20 11"},"coordinates":[435,4432]},{"type":"Point","properties":{"Station_ID":"ABGW3","Station_Nam":"AMBERG 9 E","Latitude":"45.48250","Longitude":"-87.81190","Snowdepth":"2.000","Units":"in","Rept_Date":"2020-03-20 11"},"coordinates":[2212,4056]},{"type":"Point","properties":{"Station_ID":"MN-FM-10","Station_Nam":"WYKOFF 3.1 NW, MN","Latitude":"43.74340","Longitude":"-92.30650","Snowdepth":"1.100","Units":"in","Rept_Date":"2020-03-20 13"},"coordinates":[1157,2401]},{"type":"Point","properties":{"Station_ID":"WUNW3","Station_Nam":"WAUSAU-NORTHEAST","Latitude":"44.97310","Longitude":"-89.61690","Snowdepth":"1.000","Units":"in","Rept_Date":"2020-03-20 11"},"coordinates":[1789,3571]},{"type":"Point","properties":{"Station_ID":"WTRW3","Station_Nam":"WINTER","Latitude":"45.79920","Longitude":"-90.99470","Snowdepth":"1.000","Units":"in","Rept_Date":"2020-03-20 14"},"coordinates":[1465,4357]},{"type":"Point","properties":{"Station_ID":"WSLW3","Station_Nam":"WEST SALEM","Latitude":"43.89670","Longitude":"-91.08570","Snowdepth":"1.000","Units":"in","Rept_Date":"2020-03-20 12"},"coordinates":[1444,2547]},{"type":"Point","properties":{"Station_ID":"WPTN1","Station_Nam":"WEST POINT,NE","Latitude":"41.83330","Longitude":"-96.71670","Snowdepth":"1.000","Units":"in","Rept_Date":"2020-03-20 13"},"coordinates":[122,583]},{"type":"Point","properties":{"Station_ID":"WMTI4","Station_Nam":"FORT DODGE,IA","Latitude":"42.50610","Longitude":"-94.20110","Snowdepth":"1.000","Units":"in","Rept_Date":"2020-03-20 11"},"coordinates":[713,1223]},{"type":"Point","properties":{"Station_ID":"WIRW3","Station_Nam":"WIS RAPIDS GRAND AV B","Latitude":"44.39940","Longitude":"-89.83050","Snowdepth":"1.000","Units":"in","Rept_Date":"2020-03-20 12"},"coordinates":[1739,3025]},{"type":"Point","properties":{"Station_ID":"WIPW3","Station_Nam":"WISCONSIN RAPIDS-SOUTHEAST","Latitude":"44.38190","Longitude":"-89.80470","Snowdepth":"1.000","Units":"in","Rept_Date":"2020-03-20 12"},"coordinates":[1745,3008]},{"type":"Point","properties":{"Station_ID":"WIDM5","Station_Nam":"WINONA DAM 5A","Latitude":"44.08750","Longitude":"-91.67030","Snowdepth":"1.000","Units":"in","Rept_Date":"2020-03-20 13"},"coordinates":[1307,2728]},{"type":"Point","properties":{"Station_ID":"WI-WP-8","Station_Nam":"WAUPACA 5.7 WSW, WI","Latitude":"44.33239","Longitude":"-89.18714","Snowdepth":"1.000","Units":"in","Rept_Date":"2020-03-20 13"},"coordinates":[1890,2961]},{"type":"Point","properties":{"Station_ID":"WI-WN-9","Station_Nam":"NEENAH 1.1 ENE, WI","Latitude":"44.17370","Longitude":"-88.45130","Snowdepth":"1.000","Units":"in","Rept_Date":"2020-03-20 13"},"coordinates":[2062,2810]},{"type":"Point","properties":{"Station_ID":"WI-WD-7","Station_Nam":"NEKOOSA 3.7 SSW, WI","Latitude":"44.26305","Longitude":"-89.93526","Snowdepth":"1.000","Units":"in","Rept_Date":"2020-03-20 13"},"coordinates":[1714,2895]},{"type":"Point","properties":{"Station_ID":"WI-WD-2","Station_Nam":"WISCONSIN RAPIDS 4.6 SSE, WI","Latitude":"44.33823","Longitude":"-89.78200","Snowdepth":"1.000","Units":"in","Rept_Date":"2020-03-20 14"},"coordinates":[1750,2967]},{"type":"Point","properties":{"Station_ID":"WI-TR-8","Station_Nam":"ETTRICK 4.0 WNW, WI","Latitude":"44.19004","Longitude":"-91.34249","Snowdepth":"1.000","Units":"in","Rept_Date":"2020-03-20 13"},"coordinates":[1384,2826]},{"type":"Point","properties":{"Station_ID":"WI-PT-8","Station_Nam":"RUDOLPH 2.1 NNE, WI","Latitude":"44.52553","Longitude":"-89.78677","Snowdepth":"1.000","Units":"in","Rept_Date":"2020-03-20 11"},"coordinates":[1749,3145]},{"type":"Point","properties":{"Station_ID":"WI-MN-9","Station_Nam":"WARRENS 4.7 WSW, WI","Latitude":"44.10386","Longitude":"-90.58884","Snowdepth":"1.000","Units":"in","Rept_Date":"2020-03-20 13"},"coordinates":[1561,2744]},{"type":"Point","properties":{"Station_ID":"WI-LN-2","Station_Nam":"MERRILL 7.0 W, WI","Latitude":"45.17746","Longitude":"-89.84820","Snowdepth":"1.000","Units":"in","Rept_Date":"2020-03-20 12"},"coordinates":[1734,3766]},{"type":"Point","properties":{"Station_ID":"WI-LC-1","Station_Nam":"WEST SALEM 0.7 W, WI","Latitude":"43.89817","Longitude":"-91.09548","Snowdepth":"1.000","Units":"in","Rept_Date":"2020-03-20 13"},"coordinates":[1442,2548]},{"type":"Point","properties":{"Station_ID":"WI-DR-5","Station_Nam":"ELLISON BAY 2.2 E, WI","Latitude":"45.25750","Longitude":"-87.02670","Snowdepth":"1.000","Units":"in","Rept_Date":"2020-03-20 13"},"coordinates":[2397,3842]},{"type":"Point","properties":{"Station_ID":"WESN1","Station_Nam":"WESTON 3NW","Latitude":"41.22110","Longitude":"-96.77750","Snowdepth":"1.000","Units":"in","Rept_Date":"2020-03-20 13"},"coordinates":[108,0]},{"type":"Point","properties":{"Station_ID":"WELM5","Station_Nam":"WELLS","Latitude":"43.74680","Longitude":"-93.73680","Snowdepth":"1.000","Units":"in","Rept_Date":"2020-03-20 13"},"coordinates":[822,2404]},{"type":"Point","properties":{"Station_ID":"WASW3","Station_Nam":"WASHINGTON IS","Latitude":"45.35800","Longitude":"-86.89110","Snowdepth":"1.000","Units":"in","Rept_Date":"2020-03-20 12"},"coordinates":[2428,3937]},{"type":"Point","properties":{"Station_ID":"VT-LM-7","Station_Nam":"HYDE PARK 2.9 NE, VT","Latitude":"44.62080","Longitude":"-72.57250","Snowdepth":"1.000","Units":"in","Rept_Date":"2020-03-20 13"},"coordinates":[5789,3236]},{"type":"Point","properties":{"Station_ID":"VRMS2","Station_Nam":"VERMILLION,SD","Latitude":"42.76250","Longitude":"-96.91940","Snowdepth":"1.000","Units":"in","Rept_Date":"2020-03-20 20"},"coordinates":[75,1467]},{"type":"Point","properties":{"Station_ID":"VQAW3","Station_Nam":"VIROQUA","Latitude":"43.55970","Longitude":"-90.87560","Snowdepth":"1.000","Units":"in","Rept_Date":"2020-03-20 12"},"coordinates":[1493,2226]},{"type":"Point","properties":{"Station_ID":"TAHW3","Station_Nam":"TAYCHEEDAH","Latitude":"43.83390","Longitude":"-88.34690","Snowdepth":"1.000","Units":"in","Rept_Date":"2020-03-20 12"},"coordinates":[2087,2487]},{"type":"Point","properties":{"Station_ID":"STRW3","Station_Nam":"STRATFORD 1NW","Latitude":"44.81750","Longitude":"-90.08990","Snowdepth":"1.000","Units":"in","Rept_Date":"2020-03-20 11"},"coordinates":[1678,3423]},{"type":"Point","properties":{"Station_ID":"STPW3","Station_Nam":"STEVENS POINT","Latitude":"44.51130","Longitude":"-89.58550","Snowdepth":"1.000","Units":"in","Rept_Date":"2020-03-20 12"},"coordinates":[1796,3131]},{"type":"Point","properties":{"Station_ID":"SRTW3","Station_Nam":"SPARTA","Latitude":"43.93650","Longitude":"-90.81630","Snowdepth":"1.000","Units":"in","Rept_Date":"2020-03-20 13"},"coordinates":[1507,2584]},{"type":"Point","properties":{"Station_ID":"SPOW3","Station_Nam":"SPOONER,WI","Latitude":"45.82360","Longitude":"-91.70000","Snowdepth":"1.000","Units":"in","Rept_Date":"2020-03-20 13"},"coordinates":[1300,4380]},{"type":"Point","properties":{"Station_ID":"SPGM5","Station_Nam":"SPRING VALLEY","Latitude":"43.69330","Longitude":"-92.39260","Snowdepth":"1.000","Units":"in","Rept_Date":"2020-03-20 12"},"coordinates":[1137,2353]},{"type":"Point","properties":{"Station_ID":"SPCW3","Station_Nam":"SPENCER-WWTP","Latitude":"44.75390","Longitude":"-90.28920","Snowdepth":"1.000","Units":"in","Rept_Date":"2020-03-20 12"},"coordinates":[1631,3362]},{"type":"Point","properties":{"Station_ID":"SIXI4","Station_Nam":"SIOUX CENTER,IA","Latitude":"43.05000","Longitude":"-96.15000","Snowdepth":"1.000","Units":"in","Rept_Date":"2020-03-20 13"},"coordinates":[255,1741]},{"type":"Point","properties":{"Station_ID":"SIBI4","Station_Nam":"SIBLEY","Latitude":"43.40470","Longitude":"-95.74830","Snowdepth":"1.000","Units":"in","Rept_Date":"2020-03-20 12"},"coordinates":[350,2078]},{"type":"Point","properties":{"Station_ID":"SHIW3","Station_Nam":"SHIOCTON","Latitude":"44.43890","Longitude":"-88.58390","Snowdepth":"1.000","Units":"in","Rept_Date":"2020-03-20 12"},"coordinates":[2031,3063]},{"type":"Point","properties":{"Station_ID":"SHHW3","Station_Nam":"SHAWANO 2SSW","Latitude":"44.76310","Longitude":"-88.61830","Snowdepth":"1.000","Units":"in","Rept_Date":"2020-03-20 13"},"coordinates":[2023,3371]},{"type":"Point","properties":{"Station_ID":"SANI4","Station_Nam":"ST ANSGAR","Latitude":"43.38170","Longitude":"-92.92320","Snowdepth":"1.000","Units":"in","Rept_Date":"2020-03-20 11"},"coordinates":[1013,2056]},{"type":"Point","properties":{"Station_ID":"SACI4","Station_Nam":"SAC CITY,IA","Latitude":"42.42390","Longitude":"-94.99080","Snowdepth":"1.000","Units":"in","Rept_Date":"2020-03-20 11"},"coordinates":[527,1145]},{"type":"Point","properties":{"Station_ID":"RWGM5","Station_Nam":"RED WING","Latitude":"44.57120","Longitude":"-92.52830","Snowdepth":"1.000","Units":"in","Rept_Date":"2020-03-20 13"},"coordinates":[1105,3188]},{"type":"Point","properties":{"Station_ID":"ROWM3","Station_Nam":"ROWE 3NE","Latitude":"42.73500","Longitude":"-72.86920","Snowdepth":"1.000","Units":"in","Rept_Date":"2020-03-20 13"},"coordinates":[5719,1441]},{"type":"Point","properties":{"Station_ID":"RKWI4","Station_Nam":"ROCKWELL CITY,IA","Latitude":"42.40000","Longitude":"-94.61670","Snowdepth":"1.000","Units":"in","Rept_Date":"2020-03-20 12"},"coordinates":[615,1122]},{"type":"Point","properties":{"Station_ID":"PSHW3","Station_Nam":"PESHTIGO","Latitude":"45.02810","Longitude":"-87.73560","Snowdepth":"1.000","Units":"in","Rept_Date":"2020-03-20 12"},"coordinates":[2230,3623]},{"type":"Point","properties":{"Station_ID":"POYW3","Station_Nam":"POY SIPPI - 2 SW","Latitude":"44.10810","Longitude":"-89.01610","Snowdepth":"1.000","Units":"in","Rept_Date":"2020-03-20 12"},"coordinates":[1930,2748]},{"type":"Point","properties":{"Station_ID":"POCI4","Station_Nam":"POCAHONTAS,IA","Latitude":"42.72920","Longitude":"-94.66060","Snowdepth":"1.000","Units":"in","Rept_Date":"2020-03-20 13"},"coordinates":[605,1435]},{"type":"Point","properties":{"Station_ID":"OTRW3","Station_Nam":"ONTARIO 3E","Latitude":"43.71940","Longitude":"-90.53010","Snowdepth":"1.000","Units":"in","Rept_Date":"2020-03-20 12"},"coordinates":[1574,2378]},{"type":"Point","properties":{"Station_ID":"OSAI4","Station_Nam":"OSAGE","Latitude":"43.27940","Longitude":"-92.81060","Snowdepth":"1.000","Units":"in","Rept_Date":"2020-03-20 12"},"coordinates":[1039,1959]},{"type":"Point","properties":{"Station_ID":"ORCI4","Station_Nam":"ORANGE CITY","Latitude":"43.00080","Longitude":"-96.05390","Snowdepth":"1.000","Units":"in","Rept_Date":"2020-03-20 12"},"coordinates":[278,1694]},{"type":"Point","properties":{"Station_ID":"OOHW3","Station_Nam":"OSHKOSH 5 N","Latitude":"44.09360","Longitude":"-88.55310","Snowdepth":"1.000","Units":"in","Rept_Date":"2020-03-20 12"},"coordinates":[2038,2734]},{"type":"Point","properties":{"Station_ID":"NPTM4","Station_Nam":"NORTHPORT 2W","Latitude":"45.13220","Longitude":"-85.64720","Snowdepth":"1.000","Units":"in","Rept_Date":"2020-03-20 12"},"coordinates":[2720,3722]},{"type":"Point","properties":{"Station_ID":"NONW3","Station_Nam":"NEW LONDON","Latitude":"44.35890","Longitude":"-88.71890","Snowdepth":"1.000","Units":"in","Rept_Date":"2020-03-20 11"},"coordinates":[1999,2986]},{"type":"Point","properties":{"Station_ID":"NLDW3","Station_Nam":"NEW LONDON-WWTP","Latitude":"44.39060","Longitude":"-88.75220","Snowdepth":"1.000","Units":"in","Rept_Date":"2020-03-20 12"},"coordinates":[1992,3017]},{"type":"Point","properties":{"Station_ID":"NH-MR-41","Station_Nam":"NEWBURY 1.6 NW, NH","Latitude":"43.33667","Longitude":"-72.06060","Snowdepth":"1.000","Units":"in","Rept_Date":"2020-03-20 12"},"coordinates":[5909,2014]},{"type":"Point","properties":{"Station_ID":"NH-HL-48","Station_Nam":"GREENVILLE 1.1 ENE, NH","Latitude":"42.77674","Longitude":"-71.77990","Snowdepth":"1.000","Units":"in","Rept_Date":"2020-03-20 13"},"coordinates":[5975,1481]},{"type":"Point","properties":{"Station_ID":"NAZW3","Station_Nam":"ST. NAZIANZ-2 W","Latitude":"44.00420","Longitude":"-87.96360","Snowdepth":"1.000","Units":"in","Rept_Date":"2020-03-20 12"},"coordinates":[2177,2649]},{"type":"Point","properties":{"Station_ID":"MRAM5","Station_Nam":"MORA","Latitude":"45.87760","Longitude":"-93.31470","Snowdepth":"1.000","Units":"in","Rept_Date":"2020-03-20 12"},"coordinates":[921,4432]},{"type":"Point","properties":{"Station_ID":"MPTI4","Station_Nam":"NO.2","Latitude":"42.16670","Longitude":"-95.78330","Snowdepth":"1.000","Units":"in","Rept_Date":"2020-03-20 12"},"coordinates":[341,900]},{"type":"Point","properties":{"Station_ID":"MONS2","Station_Nam":"MONTROSE","Latitude":"43.70500","Longitude":"-97.18780","Snowdepth":"1.000","Units":"in","Rept_Date":"2020-03-20 13"},"coordinates":[12,2364]},{"type":"Point","properties":{"Station_ID":"MN-MW-8","Station_Nam":"AUSTIN 2.4 W, MN","Latitude":"43.67190","Longitude":"-93.02280","Snowdepth":"1.000","Units":"in","Rept_Date":"2020-03-20 13"},"coordinates":[989,2333]},{"type":"Point","properties":{"Station_ID":"MN-HS-4","Station_Nam":"CALEDONIA 5.4 S, MN","Latitude":"43.55696","Longitude":"-91.51300","Snowdepth":"1.000","Units":"in","Rept_Date":"2020-03-20 14"},"coordinates":[1344,2223]},{"type":"Point","properties":{"Station_ID":"MLLW3","Station_Nam":"MERRILL 8W","Latitude":"45.17810","Longitude":"-89.84810","Snowdepth":"1.000","Units":"in","Rept_Date":"2020-03-20 11"},"coordinates":[1734,3766]},{"type":"Point","properties":{"Station_ID":"MFDW3","Station_Nam":"MARSHFIELD EXP FARM","Latitude":"44.64110","Longitude":"-90.13330","Snowdepth":"1.000","Units":"in","Rept_Date":"2020-03-20 12"},"coordinates":[1667,3255]},{"type":"Point","properties":{"Station_ID":"MAUW3","Station_Nam":"MAUSTON 1SE","Latitude":"43.78990","Longitude":"-90.05970","Snowdepth":"1.000","Units":"in","Rept_Date":"2020-03-20 13"},"coordinates":[1685,2445]},{"type":"Point","properties":{"Station_ID":"MATW3","Station_Nam":"MATHER 3NW","Latitude":"44.17460","Longitude":"-90.34820","Snowdepth":"1.000","Units":"in","Rept_Date":"2020-03-20 12"},"coordinates":[1617,2811]},{"type":"Point","properties":{"Station_ID":"MAPM4","Station_Nam":"MAPLE CITY 1E","Latitude":"44.85500","Longitude":"-85.83520","Snowdepth":"1.000","Units":"in","Rept_Date":"2020-03-20 22"},"coordinates":[2676,3459]},{"type":"Point","properties":{"Station_ID":"MABM5","Station_Nam":"MABEL","Latitude":"43.52410","Longitude":"-91.76160","Snowdepth":"1.000","Units":"in","Rept_Date":"2020-03-20 11"},"coordinates":[1285,2192]},{"type":"Point","properties":{"Station_ID":"LSNW3","Station_Nam":"LA CROSSE SNOW","Latitude":"43.86220","Longitude":"-91.26660","Snowdepth":"1.000","Units":"in","Rept_Date":"2020-03-20 17"},"coordinates":[1401,2514]},{"type":"Point","properties":{"Station_ID":"LSE","Station_Nam":"LA CROSSE MUNICIPAL AIRPORT","Latitude":"43.87920","Longitude":"-91.25610","Snowdepth":"1.000","Units":"in","Rept_Date":"2020-03-20 12"},"coordinates":[1404,2530]},{"type":"Point","properties":{"Station_ID":"LOGI4","Station_Nam":"LOGAN,IA","Latitude":"41.63330","Longitude":"-95.81670","Snowdepth":"1.000","Units":"in","Rept_Date":"2020-03-20 12"},"coordinates":[334,392]},{"type":"Point","properties":{"Station_ID":"KTVC","Station_Nam":"CHERRY CAPITAL AIRPORT","Latitude":"44.73333","Longitude":"-85.56666","Snowdepth":"1.000","Units":"in","Rept_Date":"2020-03-21 00"},"coordinates":[2739,3343]},{"type":"Point","properties":{"Station_ID":"KLKM4","Station_Nam":"KALKASKA","Latitude":"44.72800","Longitude":"-85.17270","Snowdepth":"1.000","Units":"in","Rept_Date":"2020-03-20 12"},"coordinates":[2832,3338]},{"type":"Point","properties":{"Station_ID":"IONI4","Station_Nam":"IONIA 2W","Latitude":"43.03360","Longitude":"-92.50180","Snowdepth":"1.000","Units":"in","Rept_Date":"2020-03-20 12"},"coordinates":[1112,1725]},{"type":"Point","properties":{"Station_ID":"ILEW3","Station_Nam":"STILES 1S","Latitude":"44.84190","Longitude":"-88.05420","Snowdepth":"1.000","Units":"in","Rept_Date":"2020-03-20 12"},"coordinates":[2155,3446]},{"type":"Point","properties":{"Station_ID":"IA-KS-4","Station_Nam":"ALGONA 0.7 SE, IA","Latitude":"43.06627","Longitude":"-94.22214","Snowdepth":"1.000","Units":"in","Rept_Date":"2020-03-20 13"},"coordinates":[708,1756]},{"type":"Point","properties":{"Station_ID":"HPTI4","Station_Nam":"HAMPTON,IA","Latitude":"42.75000","Longitude":"-93.20000","Snowdepth":"1.000","Units":"in","Rept_Date":"2020-03-20 12"},"coordinates":[948,1455]},{"type":"Point","properties":{"Station_ID":"HMNW3","Station_Nam":"HOLMEN 2S","Latitude":"43.93430","Longitude":"-91.24550","Snowdepth":"1.000","Units":"in","Rept_Date":"2020-03-20 12"},"coordinates":[1406,2582]},{"type":"Point","properties":{"Station_ID":"HLYI4","Station_Nam":"HORNICK 4 NNE","Latitude":"42.28390","Longitude":"-96.05800","Snowdepth":"1.000","Units":"in","Rept_Date":"2020-03-20 12"},"coordinates":[277,1012]},{"type":"Point","properties":{"Station_ID":"HLSI4","Station_Nam":"HOLSTEIN 5 NNW","Latitude":"42.54630","Longitude":"-95.61100","Snowdepth":"1.000","Units":"in","Rept_Date":"2020-03-20 12"},"coordinates":[382,1261]},{"type":"Point","properties":{"Station_ID":"HANW3","Station_Nam":"HANCOCK EXP FARM","Latitude":"44.11860","Longitude":"-89.53580","Snowdepth":"1.000","Units":"in","Rept_Date":"2020-03-20 12"},"coordinates":[1808,2758]},{"type":"Point","properties":{"Station_ID":"GLVW3","Station_Nam":"GALESVILLE 1ESE","Latitude":"44.07560","Longitude":"-91.34100","Snowdepth":"1.000","Units":"in","Rept_Date":"2020-03-20 12"},"coordinates":[1384,2717]},{"type":"Point","properties":{"Station_ID":"GAVW3","Station_Nam":"GALESVILLE 2WSW","Latitude":"44.07440","Longitude":"-91.38730","Snowdepth":"1.000","Units":"in","Rept_Date":"2020-03-20 12"},"coordinates":[1373,2716]},{"type":"Point","properties":{"Station_ID":"FRSW3","Station_Nam":"FRIENDSHIP","Latitude":"43.97500","Longitude":"-89.83080","Snowdepth":"1.000","Units":"in","Rept_Date":"2020-03-20 12"},"coordinates":[1738,2621]},{"type":"Point","properties":{"Station_ID":"FRKM4","Station_Nam":"FRANKFORT 2NE","Latitude":"44.64800","Longitude":"-86.21000","Snowdepth":"1.000","Units":"in","Rept_Date":"2020-03-20 22"},"coordinates":[2588,3262]},{"type":"Point","properties":{"Station_ID":"FORW3","Station_Nam":"FORESTVILLE-4E","Latitude":"44.69780","Longitude":"-87.39690","Snowdepth":"1.000","Units":"in","Rept_Date":"2020-03-20 12"},"coordinates":[2310,3309]},{"type":"Point","properties":{"Station_ID":"FORM5","Station_Nam":"FOREST LAKE 5NE","Latitude":"45.33170","Longitude":"-92.89820","Snowdepth":"1.000","Units":"in","Rept_Date":"2020-03-20 12"},"coordinates":[1019,3912]},{"type":"Point","properties":{"Station_ID":"FMTN1","Station_Nam":"FREMONT,NE","Latitude":"41.43330","Longitude":"-96.48330","Snowdepth":"1.000","Units":"in","Rept_Date":"2020-03-20 12"},"coordinates":[177,202]},{"type":"Point","properties":{"Station_ID":"FLAM4","Station_Nam":"FIFE LAKE 2WNW","Latitude":"44.58480","Longitude":"-85.36530","Snowdepth":"1.000","Units":"in","Rept_Date":"2020-03-20 11"},"coordinates":[2786,3201]},{"type":"Point","properties":{"Station_ID":"FCLN1","Station_Nam":"FT CALHOUN 4W","Latitude":"41.44670","Longitude":"-96.09190","Snowdepth":"1.000","Units":"in","Rept_Date":"2020-03-20 12"},"coordinates":[269,215]},{"type":"Point","properties":{"Station_ID":"EPTW3","Station_Nam":"EAU PLEINE TENDER","Latitude":"44.77220","Longitude":"-89.76720","Snowdepth":"1.000","Units":"in","Rept_Date":"2020-03-20 12"},"coordinates":[1753,3380]},{"type":"Point","properties":{"Station_ID":"DENW3","Station_Nam":"DENMARK WWTP","Latitude":"44.35130","Longitude":"-87.81190","Snowdepth":"1.000","Units":"in","Rept_Date":"2020-03-20 13"},"coordinates":[2212,2979]},{"type":"Point","properties":{"Station_ID":"DAKI4","Station_Nam":"RIVER","Latitude":"42.72390","Longitude":"-94.19170","Snowdepth":"1.000","Units":"in","Rept_Date":"2020-03-20 13"},"coordinates":[715,1430]},{"type":"Point","properties":{"Station_ID":"CNTW3","Station_Nam":"CLINTONVILLE","Latitude":"44.62270","Longitude":"-88.74830","Snowdepth":"1.000","Units":"in","Rept_Date":"2020-03-20 12"},"coordinates":[1993,3238]},{"type":"Point","properties":{"Station_ID":"CMRI4","Station_Nam":"CALMAR NE","Latitude":"43.18760","Longitude":"-91.86200","Snowdepth":"1.000","Units":"in","Rept_Date":"2020-03-20 12"},"coordinates":[1262,1872]},{"type":"Point","properties":{"Station_ID":"CLDM5","Station_Nam":"CALEDONIA","Latitude":"43.63090","Longitude":"-91.50270","Snowdepth":"1.000","Units":"in","Rept_Date":"2020-03-20 12"},"coordinates":[1346,2294]},{"type":"Point","properties":{"Station_ID":"CKPI4","Station_Nam":"CHEROKEE,IA","Latitude":"42.75720","Longitude":"-95.53780","Snowdepth":"1.000","Units":"in","Rept_Date":"2020-03-20 13"},"coordinates":[399,1462]},{"type":"Point","properties":{"Station_ID":"CIYI4","Station_Nam":"CHARLES CITY","Latitude":"43.06040","Longitude":"-92.67160","Snowdepth":"1.000","Units":"in","Rept_Date":"2020-03-20 12"},"coordinates":[1072,1751]},{"type":"Point","properties":{"Station_ID":"CANM5","Station_Nam":"CANBY","Latitude":"44.71840","Longitude":"-96.26960","Snowdepth":"1.000","Units":"in","Rept_Date":"2020-03-20 13"},"coordinates":[227,3329]},{"type":"Point","properties":{"Station_ID":"BTTI4","Station_Nam":"BRITT,IA","Latitude":"43.08330","Longitude":"-93.80140","Snowdepth":"1.000","Units":"in","Rept_Date":"2020-03-20 13"},"coordinates":[807,1772]},{"type":"Point","properties":{"Station_ID":"BNTN1","Station_Nam":"BENNINGTON,NE","Latitude":"41.36670","Longitude":"-96.13330","Snowdepth":"1.000","Units":"in","Rept_Date":"2020-03-20 12"},"coordinates":[259,139]},{"type":"Point","properties":{"Station_ID":"BLKW3","Station_Nam":"BLACK RIVER FALLS SEWAGE","Latitude":"44.29040","Longitude":"-90.85360","Snowdepth":"1.000","Units":"in","Rept_Date":"2020-03-20 13"},"coordinates":[1498,2921]},{"type":"Point","properties":{"Station_ID":"BKEM5","Station_Nam":"BRECKENRIDGE 4NE","Latitude":"46.30470","Longitude":"-96.52170","Snowdepth":"1.000","Units":"in","Rept_Date":"2020-03-20 12"},"coordinates":[168,4838]},{"type":"Point","properties":{"Station_ID":"ASTM5","Station_Nam":"AUSTIN WASTE WATER TREATMENT FACILITY","Latitude":"43.65420","Longitude":"-92.97390","Snowdepth":"1.000","Units":"in","Rept_Date":"2020-03-20 12"},"coordinates":[1001,2316]},{"type":"Point","properties":{"Station_ID":"APPW3","Station_Nam":"APPLETON","Latitude":"44.27690","Longitude":"-88.43770","Snowdepth":"1.000","Units":"in","Rept_Date":"2020-03-20 11"},"coordinates":[2065,2908]},{"type":"Point","properties":{"Station_ID":"ALTM5","Station_Nam":"ALTURA 5W","Latitude":"44.06330","Longitude":"-92.03970","Snowdepth":"1.000","Units":"in","Rept_Date":"2020-03-20 12"},"coordinates":[1220,2705]},{"type":"Point","properties":{"Station_ID":"ALGI4","Station_Nam":"ALGONA,IA","Latitude":"43.06670","Longitude":"-94.30610","Snowdepth":"1.000","Units":"in","Rept_Date":"2020-03-20 12"},"coordinates":[688,1757]},{"type":"Point","properties":{"Station_ID":"ALBM5","Station_Nam":"ALBERT LEA 3 SE","Latitude":"43.60640","Longitude":"-93.30190","Snowdepth":"1.000","Units":"in","Rept_Date":"2020-03-20 13"},"coordinates":[924,2270]}]}},"arcs":[],"transform":{"scale":[0.004260840084008401,0.0010506850685068508],"translate":[-97.2381,41.2211]}}