{"type":"Topology","objects":{"snowdepth_geo":{"type":"GeometryCollection","name":"snowdepth","crs":{"type":"name","properties":{"name":"urn:ogc:def:crs:OGC:1.3:CRS84"}},"geometries":[{"type":"Point","properties":{"Station_ID":"PRKM4","Station_Nam":"MUNISING EAST","Latitude":"46.42580","Longitude":"-86.62000","Snowdepth":"76.500","Units":"in","Rept_Date":"2020-01-12 06"},"coordinates":[2428,6735]},{"type":"Point","properties":{"Station_ID":"MMSV1","Station_Nam":"MOUNT MANSFIELD","Latitude":"44.53330","Longitude":"-72.83330","Snowdepth":"74.000","Units":"in","Rept_Date":"2020-01-12 05"},"coordinates":[5582,5570]},{"type":"Point","properties":{"Station_ID":"OGIQ6","Station_Nam":"OGOKI CAMP","Latitude":"50.76680","Longitude":"-87.85820","Snowdepth":"61.100","Units":"in","Rept_Date":"2020-01-12 06"},"coordinates":[2145,9408]},{"type":"Point","properties":{"Station_ID":"AUDQ6","Station_Nam":"AUDEN","Latitude":"48.52600","Longitude":"-82.57570","Snowdepth":"47.640","Units":"in","Rept_Date":"2020-01-12 06"},"coordinates":[3353,8028]},{"type":"Point","properties":{"Station_ID":"DVLQ6","Station_Nam":"DEVIOUS LAKE","Latitude":"49.19890","Longitude":"-87.76440","Snowdepth":"43.460","Units":"in","Rept_Date":"2020-01-12 06"},"coordinates":[2167,8443]},{"type":"Point","properties":{"Station_ID":"PDLM4","Station_Nam":"PAINESDALE","Latitude":"47.04160","Longitude":"-88.67170","Snowdepth":"40.000","Units":"in","Rept_Date":"2020-01-11 13"},"coordinates":[1959,7114]},{"type":"Point","properties":{"Station_ID":"MI-HG-18","Station_Nam":"CALUMET 0.7 W (TAMARACK), MI","Latitude":"47.24560","Longitude":"-88.46791","Snowdepth":"40.000","Units":"in","Rept_Date":"2020-01-11 13"},"coordinates":[2006,7240]},{"type":"Point","properties":{"Station_ID":"CLUM4","Station_Nam":"CALUMET-TAMARACK","Latitude":"47.24550","Longitude":"-88.46790","Snowdepth":"40.000","Units":"in","Rept_Date":"2020-01-11 14"},"coordinates":[2006,7240]},{"type":"Point","properties":{"Station_ID":"GMSM4","Station_Nam":"GRAND MARAIS 10S","Latitude":"46.50940","Longitude":"-85.96310","Snowdepth":"36.000","Units":"in","Rept_Date":"2020-01-11 12"},"coordinates":[2579,6787]},{"type":"Point","properties":{"Station_ID":"MI-HG-17","Station_Nam":"CALUMET 0.5 NE (CALUMET LAKE), MI","Latitude":"47.25300","Longitude":"-88.44652","Snowdepth":"33.000","Units":"in","Rept_Date":"2020-01-11 13"},"coordinates":[2011,7245]},{"type":"Point","properties":{"Station_ID":"KSGM4","Station_Nam":"KEARSARGE","Latitude":"47.27520","Longitude":"-88.41700","Snowdepth":"31.000","Units":"in","Rept_Date":"2020-01-11 13"},"coordinates":[2018,7258]},{"type":"Point","properties":{"Station_ID":"QGO","Station_Nam":"QGO","Latitude":"48.85500","Longitude":"-74.20640","Snowdepth":"30.827","Units":"in","Rept_Date":"2020-01-11 12"},"coordinates":[5268,8231]},{"type":"Point","properties":{"Station_ID":"QOU","Station_Nam":"QOU","Latitude":"50.79250","Longitude":"-69.67470","Snowdepth":"30.472","Units":"in","Rept_Date":"2020-01-11 12"},"coordinates":[6304,9424]},{"type":"Point","properties":{"Station_ID":"WLFM5","Station_Nam":"WOLF RIDGE ENVIRON LEARNING CENTER","Latitude":"47.38240","Longitude":"-91.19730","Snowdepth":"30.000","Units":"in","Rept_Date":"2020-01-11 13"},"coordinates":[1382,7324]},{"type":"Point","properties":{"Station_ID":"MI-HG-11","Station_Nam":"HOUGHTON 3.0 SSW, MI","Latitude":"47.07704","Longitude":"-88.59680","Snowdepth":"29.000","Units":"in","Rept_Date":"2020-01-11 13"},"coordinates":[1976,7136]},{"type":"Point","properties":{"Station_ID":"MLZ","Station_Nam":"MLZ","Latitude":"50.66170","Longitude":"-68.82360","Snowdepth":"28.701","Units":"in","Rept_Date":"2020-01-11 12"},"coordinates":[6499,9343]},{"type":"Point","properties":{"Station_ID":"QGD","Station_Nam":"QGD","Latitude":"51.11140","Longitude":"-67.13940","Snowdepth":"28.307","Units":"in","Rept_Date":"2020-01-11 12"},"coordinates":[6884,9620]},{"type":"Point","properties":{"Station_ID":"MI-KW-2","Station_Nam":"DELAWARE 5.2 SW, MI","Latitude":"47.36928","Longitude":"-88.17919","Snowdepth":"28.000","Units":"in","Rept_Date":"2020-01-11 09"},"coordinates":[2072,7316]},{"type":"Point","properties":{"Station_ID":"QNCM4","Station_Nam":"QUINCY HILL","Latitude":"47.13640","Longitude":"-88.57950","Snowdepth":"27.000","Units":"in","Rept_Date":"2020-01-11 12"},"coordinates":[1980,7173]},{"type":"Point","properties":{"Station_ID":"IBLM5","Station_Nam":"ISABELLA 14W","Latitude":"47.59360","Longitude":"-91.65140","Snowdepth":"27.000","Units":"in","Rept_Date":"2020-01-11 15"},"coordinates":[1278,7454]},{"type":"Point","properties":{"Station_ID":"QCU","Station_Nam":"QCU","Latitude":"47.82750","Longitude":"-76.59830","Snowdepth":"26.653","Units":"in","Rept_Date":"2020-01-11 12"},"coordinates":[4721,7598]},{"type":"Point","properties":{"Station_ID":"CAN-NL-81","Station_Nam":"GRAND FALLS-WINDSOR 1.2 S, CAN","Latitude":"48.93123","Longitude":"-55.65333","Snowdepth":"26.400","Units":"in","Rept_Date":"2020-01-11 10"},"coordinates":[9511,8278]},{"type":"Point","properties":{"Station_ID":"MQT","Station_Nam":"MARQUETTE, MI","Latitude":"46.53140","Longitude":"-87.54920","Snowdepth":"26.000","Units":"in","Rept_Date":"2020-01-12 06"},"coordinates":[2216,6800]},{"type":"Point","properties":{"Station_ID":"NY-JF-30","Station_Nam":"WEST CARTHAGE 0.3 ENE, NY","Latitude":"43.97493","Longitude":"-75.61640","Snowdepth":"25.500","Units":"in","Rept_Date":"2020-01-11 12"},"coordinates":[4945,5226]},{"type":"Point","properties":{"Station_ID":"QLB","Station_Nam":"QLB","Latitude":"50.72360","Longitude":"-75.10000","Snowdepth":"25.079","Units":"in","Rept_Date":"2020-01-11 12"},"coordinates":[5063,9381]},{"type":"Point","properties":{"Station_ID":"NWCM4","Station_Nam":"NEWBERRY CITY","Latitude":"46.35720","Longitude":"-85.51780","Snowdepth":"25.000","Units":"in","Rept_Date":"2020-01-11 12"},"coordinates":[2681,6693]},{"type":"Point","properties":{"Station_ID":"MI-BG-3","Station_Nam":"L'ANSE 17.8 SE, MI","Latitude":"46.55730","Longitude":"-88.20770","Snowdepth":"25.000","Units":"in","Rept_Date":"2020-01-11 13"},"coordinates":[2065,6816]},{"type":"Point","properties":{"Station_ID":"HURW3","Station_Nam":"HURLEY","Latitude":"46.46250","Longitude":"-90.19550","Snowdepth":"25.000","Units":"in","Rept_Date":"2020-01-11 14"},"coordinates":[1611,6758]},{"type":"Point","properties":{"Station_ID":"MNSM4","Station_Nam":"MUNISING","Latitude":"46.41210","Longitude":"-86.66250","Snowdepth":"24.000","Units":"in","Rept_Date":"2020-01-11 11"},"coordinates":[2419,6727]},{"type":"Point","properties":{"Station_ID":"MI-HG-14","Station_Nam":"HOUGHTON 0.6 SE, MI","Latitude":"47.10847","Longitude":"-88.55235","Snowdepth":"24.000","Units":"in","Rept_Date":"2020-01-11 13"},"coordinates":[1987,7156]},{"type":"Point","properties":{"Station_ID":"BBEM4","Station_Nam":"BIG BAY 9SW","Latitude":"46.74620","Longitude":"-87.88160","Snowdepth":"24.000","Units":"in","Rept_Date":"2020-01-11 13"},"coordinates":[2140,6933]},{"type":"Point","properties":{"Station_ID":"QCX","Station_Nam":"QCX","Latitude":"51.32830","Longitude":"-70.08060","Snowdepth":"23.150","Units":"in","Rept_Date":"2020-01-11 12"},"coordinates":[6211,9754]},{"type":"Point","properties":{"Station_ID":"STEM4","Station_Nam":"STEUBEN","Latitude":"46.18530","Longitude":"-86.46410","Snowdepth":"23.000","Units":"in","Rept_Date":"2020-01-11 15"},"coordinates":[2464,6587]},{"type":"Point","properties":{"Station_ID":"PRDM4","Station_Nam":"PARADISE","Latitude":"46.60380","Longitude":"-85.03960","Snowdepth":"23.000","Units":"in","Rept_Date":"2020-01-11 12"},"coordinates":[2790,6845]},{"type":"Point","properties":{"Station_ID":"PHEW3","Station_Nam":"PHELPS","Latitude":"46.06630","Longitude":"-89.07520","Snowdepth":"23.000","Units":"in","Rept_Date":"2020-01-11 13"},"coordinates":[1867,6514]},{"type":"Point","properties":{"Station_ID":"MN-SL-15","Station_Nam":"CHISHOLM 0.4 WSW, MN","Latitude":"47.48557","Longitude":"-92.88690","Snowdepth":"23.000","Units":"in","Rept_Date":"2020-01-11 13"},"coordinates":[995,7388]},{"type":"Point","properties":{"Station_ID":"GNLM4","Station_Nam":"GREENLAND 6N","Latitude":"46.87360","Longitude":"-89.10060","Snowdepth":"23.000","Units":"in","Rept_Date":"2020-01-11 13"},"coordinates":[1861,7011]},{"type":"Point","properties":{"Station_ID":"PTLQ6","Station_Nam":"PORTAGE LAKE","Latitude":"49.06950","Longitude":"-86.65940","Snowdepth":"22.800","Units":"in","Rept_Date":"2020-01-12 06"},"coordinates":[2419,8363]},{"type":"Point","properties":{"Station_ID":"TRIQ6","Station_Nam":"TRIO LAKE","Latitude":"49.22880","Longitude":"-87.22920","Snowdepth":"22.520","Units":"in","Rept_Date":"2020-01-12 06"},"coordinates":[2289,8461]},{"type":"Point","properties":{"Station_ID":"SVBQ6","Station_Nam":"SAVANT BASE","Latitude":"50.28730","Longitude":"-90.65670","Snowdepth":"22.400","Units":"in","Rept_Date":"2020-01-12 06"},"coordinates":[1505,9113]},{"type":"Point","properties":{"Station_ID":"WRSM5","Station_Nam":"WRENSHALL","Latitude":"46.61550","Longitude":"-92.38380","Snowdepth":"22.000","Units":"in","Rept_Date":"2020-01-11 14"},"coordinates":[1110,6852]},{"type":"Point","properties":{"Station_ID":"WI-VL-10","Station_Nam":"LAND O LAKES 4.3 WNW, WI","Latitude":"46.17440","Longitude":"-89.30380","Snowdepth":"22.000","Units":"in","Rept_Date":"2020-01-11 13"},"coordinates":[1815,6580]},{"type":"Point","properties":{"Station_ID":"WI-IR-3","Station_Nam":"PENCE 0.1 E, WI","Latitude":"46.41555","Longitude":"-90.27013","Snowdepth":"22.000","Units":"in","Rept_Date":"2020-01-11 13"},"coordinates":[1594,6729]},{"type":"Point","properties":{"Station_ID":"TOGM5","Station_Nam":"CELINA 2E","Latitude":"47.86630","Longitude":"-93.02660","Snowdepth":"22.000","Units":"in","Rept_Date":"2020-01-11 14"},"coordinates":[963,7622]},{"type":"Point","properties":{"Station_ID":"BNDM5","Station_Nam":"ELY 25E","Latitude":"47.97190","Longitude":"-91.44860","Snowdepth":"22.000","Units":"in","Rept_Date":"2020-01-11 13"},"coordinates":[1324,7687]},{"type":"Point","properties":{"Station_ID":"QYR","Station_Nam":"QYR","Latitude":"48.87220","Longitude":"-75.61470","Snowdepth":"21.575","Units":"in","Rept_Date":"2020-01-11 12"},"coordinates":[4946,8241]},{"type":"Point","properties":{"Station_ID":"QTV","Station_Nam":"QTV","Latitude":"49.66000","Longitude":"-69.35690","Snowdepth":"21.220","Units":"in","Rept_Date":"2020-01-11 12"},"coordinates":[6377,8726]},{"type":"Point","properties":{"Station_ID":"PDGM4","Station_Nam":"PAULDING","Latitude":"46.39760","Longitude":"-89.17940","Snowdepth":"21.000","Units":"in","Rept_Date":"2020-01-11 13"},"coordinates":[1843,6718]},{"type":"Point","properties":{"Station_ID":"MI-MQ-19","Station_Nam":"ISHPEMING 7.2 SW, MI","Latitude":"46.40550","Longitude":"-87.75670","Snowdepth":"21.000","Units":"in","Rept_Date":"2020-01-11 11"},"coordinates":[2169,6723]},{"type":"Point","properties":{"Station_ID":"ILIM5","Station_Nam":"ISLAND LAKE","Latitude":"47.02400","Longitude":"-92.07000","Snowdepth":"21.000","Units":"in","Rept_Date":"2020-01-11 15"},"coordinates":[1182,7104]},{"type":"Point","properties":{"Station_ID":"BABM5","Station_Nam":"BABBITT","Latitude":"47.71210","Longitude":"-91.95330","Snowdepth":"21.000","Units":"in","Rept_Date":"2020-01-11 13"},"coordinates":[1209,7527]},{"type":"Point","properties":{"Station_ID":"QWE","Station_Nam":"QWE","Latitude":"47.84610","Longitude":"-73.80670","Snowdepth":"20.630","Units":"in","Rept_Date":"2020-01-11 12"},"coordinates":[5359,7610]},{"type":"Point","properties":{"Station_ID":"QFT","Station_Nam":"QFT","Latitude":"50.83280","Longitude":"-74.40390","Snowdepth":"20.512","Units":"in","Rept_Date":"2020-01-11 12"},"coordinates":[5222,9449]},{"type":"Point","properties":{"Station_ID":"CAN-NB-50","Station_Nam":"DOYLEVILLE 2.4 WNW, CAN","Latitude":"47.90803","Longitude":"-66.13279","Snowdepth":"20.500","Units":"in","Rept_Date":"2020-01-11 13"},"coordinates":[7114,7648]},{"type":"Point","properties":{"Station_ID":"KABQ6","Station_Nam":"CAB LAKE","Latitude":"49.59950","Longitude":"-89.17990","Snowdepth":"20.390","Units":"in","Rept_Date":"2020-01-12 06"},"coordinates":[1843,8689]},{"type":"Point","properties":{"Station_ID":"WLKM5","Station_Nam":"AH-GWAH-CHING","Latitude":"47.15000","Longitude":"-94.65000","Snowdepth":"20.000","Units":"in","Rept_Date":"2020-01-11 14"},"coordinates":[592,7181]},{"type":"Point","properties":{"Station_ID":"WI-WB-2","Station_Nam":"STONE LAKE 2.0 NW, WI","Latitude":"45.85960","Longitude":"-91.57710","Snowdepth":"20.000","Units":"in","Rept_Date":"2020-01-11 13"},"coordinates":[1295,6387]},{"type":"Point","properties":{"Station_ID":"WI-VL-9","Station_Nam":"LAND O' LAKES 11.7 W, WI","Latitude":"46.19023","Longitude":"-89.45790","Snowdepth":"20.000","Units":"in","Rept_Date":"2020-01-11 13"},"coordinates":[1779,6590]},{"type":"Point","properties":{"Station_ID":"MN-BK-6","Station_Nam":"LAKE PARK 6.0 S, MN","Latitude":"46.79850","Longitude":"-96.12180","Snowdepth":"20.000","Units":"in","Rept_Date":"2020-01-11 13"},"coordinates":[255,6965]},{"type":"Point","properties":{"Station_ID":"MI-HG-12","Station_Nam":"DOLLAR BAY 0.2 ENE, MI","Latitude":"47.12067","Longitude":"-88.49895","Snowdepth":"20.000","Units":"in","Rept_Date":"2020-01-11 13"},"coordinates":[1999,7163]},{"type":"Point","properties":{"Station_ID":"MCLN8","Station_Nam":"MC LEOD,ND","Latitude":"46.40250","Longitude":"-97.23810","Snowdepth":"20.000","Units":"in","Rept_Date":"2020-01-11 12"},"coordinates":[0,6721]},{"type":"Point","properties":{"Station_ID":"LVDW3","Station_Nam":"LAC VIEUX DESERT","Latitude":"46.12110","Longitude":"-89.07580","Snowdepth":"20.000","Units":"in","Rept_Date":"2020-01-11 14"},"coordinates":[1867,6548]},{"type":"Point","properties":{"Station_ID":"LNOW3","Station_Nam":"LAND O LAKES","Latitude":"46.19000","Longitude":"-89.45700","Snowdepth":"20.000","Units":"in","Rept_Date":"2020-01-11 13"},"coordinates":[1780,6590]},{"type":"Point","properties":{"Station_ID":"KISM4","Station_Nam":"K.I. SAWYER WWTP","Latitude":"46.33410","Longitude":"-87.37790","Snowdepth":"20.000","Units":"in","Rept_Date":"2020-01-11 13"},"coordinates":[2255,6679]},{"type":"Point","properties":{"Station_ID":"HERM4","Station_Nam":"HERMAN,MI","Latitude":"46.65000","Longitude":"-88.33330","Snowdepth":"20.000","Units":"in","Rept_Date":"2020-01-11 13"},"coordinates":[2037,6873]},{"type":"Point","properties":{"Station_ID":"DLHM5","Station_Nam":"DULUTH NWS","Latitude":"46.83680","Longitude":"-92.21080","Snowdepth":"20.000","Units":"in","Rept_Date":"2020-01-12 06"},"coordinates":[1150,6988]},{"type":"Point","properties":{"Station_ID":"DLH","Station_Nam":"DULUTH, MN","Latitude":"46.83690","Longitude":"-92.21030","Snowdepth":"20.000","Units":"in","Rept_Date":"2020-01-12 00"},"coordinates":[1150,6988]},{"type":"Point","properties":{"Station_ID":"CAN-NL-82","Station_Nam":"GANDER 2.7 NW, CAN","Latitude":"48.97737","Longitude":"-54.63396","Snowdepth":"19.700","Units":"in","Rept_Date":"2020-01-11 10"},"coordinates":[9744,8306]},{"type":"Point","properties":{"Station_ID":"MI-HG-1","Station_Nam":"HOUGHTON 1.6 ESE, MI","Latitude":"47.10774","Longitude":"-88.52940","Snowdepth":"19.500","Units":"in","Rept_Date":"2020-01-11 13"},"coordinates":[1992,7155]},{"type":"Point","properties":{"Station_ID":"QMA","Station_Nam":"QMA","Latitude":"50.10330","Longitude":"-70.47190","Snowdepth":"19.016","Units":"in","Rept_Date":"2020-01-11 12"},"coordinates":[6122,8999]},{"type":"Point","properties":{"Station_ID":"STGW3","Station_Nam":"ST GERMAIN","Latitude":"45.91550","Longitude":"-89.48940","Snowdepth":"19.000","Units":"in","Rept_Date":"2020-01-11 12"},"coordinates":[1772,6421]},{"type":"Point","properties":{"Station_ID":"MAIW3","Station_Nam":"MADELINE ISLAND","Latitude":"46.78330","Longitude":"-90.76670","Snowdepth":"19.000","Units":"in","Rept_Date":"2020-01-11 14"},"coordinates":[1480,6955]},{"type":"Point","properties":{"Station_ID":"GNFM5","Station_Nam":"GUNFLINT LAKE","Latitude":"48.16670","Longitude":"-90.88750","Snowdepth":"19.000","Units":"in","Rept_Date":"2020-01-11 13"},"coordinates":[1452,7807]},{"type":"Point","properties":{"Station_ID":"EVRW3","Station_Nam":"EAGLE RIVER-4 E","Latitude":"45.91890","Longitude":"-89.15280","Snowdepth":"19.000","Units":"in","Rept_Date":"2020-01-11 12"},"coordinates":[1849,6423]},{"type":"Point","properties":{"Station_ID":"QCO","Station_Nam":"QCO","Latitude":"51.45280","Longitude":"-72.20110","Snowdepth":"18.268","Units":"in","Rept_Date":"2020-01-11 12"},"coordinates":[5726,9830]},{"type":"Point","properties":{"Station_ID":"MFU","Station_Nam":"MFU","Latitude":"51.52170","Longitude":"-66.91110","Snowdepth":"18.228","Units":"in","Rept_Date":"2020-01-11 12"},"coordinates":[6936,9873]},{"type":"Point","properties":{"Station_ID":"CATQ6","Station_Nam":"CAT LAKE","Latitude":"51.72690","Longitude":"-91.82210","Snowdepth":"18.190","Units":"in","Rept_Date":"2020-01-12 06"},"coordinates":[1239,9999]},{"type":"Point","properties":{"Station_ID":"WTRW3","Station_Nam":"WINTER","Latitude":"45.79920","Longitude":"-90.99470","Snowdepth":"18.000","Units":"in","Rept_Date":"2020-01-11 15"},"coordinates":[1428,6349]},{"type":"Point","properties":{"Station_ID":"WTRM4","Station_Nam":"WATERSMEET 12WSW","Latitude":"46.22310","Longitude":"-89.40850","Snowdepth":"18.000","Units":"in","Rept_Date":"2020-01-11 12"},"coordinates":[1791,6610]},{"type":"Point","properties":{"Station_ID":"WI-BY-14","Station_Nam":"ASHLAND 9.8 W, WI","Latitude":"46.59742","Longitude":"-91.07856","Snowdepth":"18.000","Units":"in","Rept_Date":"2020-01-11 12"},"coordinates":[1409,6841]},{"type":"Point","properties":{"Station_ID":"SUAW3","Station_Nam":"SUAMICO","Latitude":"44.60190","Longitude":"-88.09780","Snowdepth":"18.000","Units":"in","Rept_Date":"2020-01-11 12"},"coordinates":[2091,5612]},{"type":"Point","properties":{"Station_ID":"RHIW3","Station_Nam":"RHINELANDER","Latitude":"45.59860","Longitude":"-89.45080","Snowdepth":"18.000","Units":"in","Rept_Date":"2020-01-11 13"},"coordinates":[1781,6226]},{"type":"Point","properties":{"Station_ID":"LEIM5","Station_Nam":"ORR 3E","Latitude":"48.05810","Longitude":"-92.75220","Snowdepth":"18.000","Units":"in","Rept_Date":"2020-01-11 12"},"coordinates":[1026,7740]},{"type":"Point","properties":{"Station_ID":"KABM5","Station_Nam":"KABETOGAMA LAKE VISITOR CTR","Latitude":"48.40880","Longitude":"-93.04840","Snowdepth":"18.000","Units":"in","Rept_Date":"2020-01-11 12"},"coordinates":[958,7956]},{"type":"Point","properties":{"Station_ID":"IRMM4","Station_Nam":"WWTP","Latitude":"46.46670","Longitude":"-90.18330","Snowdepth":"18.000","Units":"in","Rept_Date":"2020-01-11 13"},"coordinates":[1614,6760]},{"type":"Point","properties":{"Station_ID":"CSLM5","Station_Nam":"CASS LAKE,MN","Latitude":"47.38470","Longitude":"-94.61470","Snowdepth":"18.000","Units":"in","Rept_Date":"2020-01-11 14"},"coordinates":[600,7326]},{"type":"Point","properties":{"Station_ID":"QMD","Station_Nam":"QMD","Latitude":"49.29060","Longitude":"-75.84500","Snowdepth":"17.913","Units":"in","Rept_Date":"2020-01-11 12"},"coordinates":[4893,8499]},{"type":"Point","properties":{"Station_ID":"SOCQ6","Station_Nam":"SOCKET LAKE","Latitude":"50.77870","Longitude":"-91.79300","Snowdepth":"17.680","Units":"in","Rept_Date":"2020-01-12 06"},"coordinates":[1245,9415]},{"type":"Point","properties":{"Station_ID":"WI-VL-14","Station_Nam":"BOULDER JUNCTION 1.4 NE, WI","Latitude":"46.12840","Longitude":"-89.62470","Snowdepth":"17.500","Units":"in","Rept_Date":"2020-01-11 13"},"coordinates":[1741,6552]},{"type":"Point","properties":{"Station_ID":"QTM","Station_Nam":"QTM","Latitude":"51.05780","Longitude":"-72.57190","Snowdepth":"17.402","Units":"in","Rept_Date":"2020-01-11 12"},"coordinates":[5641,9587]},{"type":"Point","properties":{"Station_ID":"QLI","Station_Nam":"QLI","Latitude":"50.27080","Longitude":"-73.92280","Snowdepth":"17.165","Units":"in","Rept_Date":"2020-01-11 12"},"coordinates":[5333,9103]},{"type":"Point","properties":{"Station_ID":"NH-CS-10","Station_Nam":"RANDOLPH 1.4 NE, NH","Latitude":"44.38824","Longitude":"-71.26950","Snowdepth":"17.000","Units":"in","Rept_Date":"2020-01-11 12"},"coordinates":[5939,5481]},{"type":"Point","properties":{"Station_ID":"GLRM5","Station_Nam":"GLACIAL RIDGE","Latitude":"47.71670","Longitude":"-96.26670","Snowdepth":"17.000","Units":"in","Rept_Date":"2020-01-12 06"},"coordinates":[222,7530]},{"type":"Point","properties":{"Station_ID":"GLDM4","Station_Nam":"GLADSTONE NO. 2","Latitude":"45.84330","Longitude":"-87.03910","Snowdepth":"17.000","Units":"in","Rept_Date":"2020-01-11 12"},"coordinates":[2333,6377]},{"type":"Point","properties":{"Station_ID":"EMBM5","Station_Nam":"EMBARASS,MN","Latitude":"47.65810","Longitude":"-92.19580","Snowdepth":"17.000","Units":"in","Rept_Date":"2020-01-11 14"},"coordinates":[1153,7494]},{"type":"Point","properties":{"Station_ID":"ELYM5","Station_Nam":"ELY","Latitude":"47.90560","Longitude":"-91.82830","Snowdepth":"17.000","Units":"in","Rept_Date":"2020-01-11 14"},"coordinates":[1237,7646]},{"type":"Point","properties":{"Station_ID":"EGRW3","Station_Nam":"EAGLE RIVER-SOUTH","Latitude":"45.91360","Longitude":"-89.24360","Snowdepth":"17.000","Units":"in","Rept_Date":"2020-01-11 13"},"coordinates":[1828,6420]},{"type":"Point","properties":{"Station_ID":"CAN-NS-103","Station_Nam":"TRAFALGAR 4.9 WSW, CAN","Latitude":"45.26217","Longitude":"-62.72285","Snowdepth":"17.000","Units":"in","Rept_Date":"2020-01-11 12"},"coordinates":[7894,6019]},{"type":"Point","properties":{"Station_ID":"QIQ","Station_Nam":"QIQ","Latitude":"49.82390","Longitude":"-68.54310","Snowdepth":"16.890","Units":"in","Rept_Date":"2020-01-11 12"},"coordinates":[6563,8827]},{"type":"Point","properties":{"Station_ID":"QLM","Station_Nam":"QLM","Latitude":"48.92030","Longitude":"-70.25280","Snowdepth":"16.850","Units":"in","Rept_Date":"2020-01-11 12"},"coordinates":[6172,8271]},{"type":"Point","properties":{"Station_ID":"MN-SL-108","Station_Nam":"IRON JUNCTION 3.4 NNW, MN","Latitude":"47.46150","Longitude":"-92.63130","Snowdepth":"16.500","Units":"in","Rept_Date":"2020-01-11 14"},"coordinates":[1054,7373]},{"type":"Point","properties":{"Station_ID":"CAN-NS-94","Station_Nam":"MARGAREE FORKS 2.6 SSE CBN, CAN","Latitude":"46.30937","Longitude":"-61.07603","Snowdepth":"16.100","Units":"in","Rept_Date":"2020-01-11 13"},"coordinates":[8271,6664]},{"type":"Point","properties":{"Station_ID":"WI-BY-2","Station_Nam":"MELLEN 18.6 SW, WI","Latitude":"46.16937","Longitude":"-90.98090","Snowdepth":"16.000","Units":"in","Rept_Date":"2020-01-11 13"},"coordinates":[1431,6577]},{"type":"Point","properties":{"Station_ID":"SUTV1","Station_Nam":"SUTTON","Latitude":"44.61220","Longitude":"-72.04810","Snowdepth":"16.000","Units":"in","Rept_Date":"2020-01-11 13"},"coordinates":[5761,5619]},{"type":"Point","properties":{"Station_ID":"MI-HG-16","Station_Nam":"SOUTH RANGE 12.6 WSW, MI","Latitude":"47.02452","Longitude":"-88.90350","Snowdepth":"16.000","Units":"in","Rept_Date":"2020-01-11 13"},"coordinates":[1906,7104]},{"type":"Point","properties":{"Station_ID":"COVM4","Station_Nam":"COVINGTON","Latitude":"46.55880","Longitude":"-88.54190","Snowdepth":"16.000","Units":"in","Rept_Date":"2020-01-11 13"},"coordinates":[1989,6817]},{"type":"Point","properties":{"Station_ID":"CMKW3","Station_Nam":"CLAM LAKE 4W","Latitude":"46.16940","Longitude":"-90.98080","Snowdepth":"16.000","Units":"in","Rept_Date":"2020-01-11 13"},"coordinates":[1431,6577]},{"type":"Point","properties":{"Station_ID":"CBVM1","Station_Nam":"CARRABASSETT VALLEY","Latitude":"45.08040","Longitude":"-70.30310","Snowdepth":"16.000","Units":"in","Rept_Date":"2020-01-11 12"},"coordinates":[6160,5907]},{"type":"Point","properties":{"Station_ID":"FTHQ6","Station_Nam":"FORT HOPE","Latitude":"51.55820","Longitude":"-87.90510","Snowdepth":"15.710","Units":"in","Rept_Date":"2020-01-12 06"},"coordinates":[2135,9895]},{"type":"Point","properties":{"Station_ID":"WI-ON-8","Station_Nam":"HAZELHURST 2.1 SSE, WI","Latitude":"45.78186","Longitude":"-89.70330","Snowdepth":"15.500","Units":"in","Rept_Date":"2020-01-11 13"},"coordinates":[1723,6339]},{"type":"Point","properties":{"Station_ID":"MN-PK-15","Station_Nam":"MENTOR 2.5 SSW, MN","Latitude":"47.66625","Longitude":"-96.17328","Snowdepth":"15.500","Units":"in","Rept_Date":"2020-01-11 12"},"coordinates":[244,7499]},{"type":"Point","properties":{"Station_ID":"CAN-PE-43","Station_Nam":"GLENCOE 0.3 W, CAN","Latitude":"46.20115","Longitude":"-62.81740","Snowdepth":"15.400","Units":"in","Rept_Date":"2020-01-11 12"},"coordinates":[7872,6597]},{"type":"Point","properties":{"Station_ID":"SWTW3","Station_Nam":"SUPERIOR WWTP","Latitude":"46.72700","Longitude":"-92.07200","Snowdepth":"15.000","Units":"in","Rept_Date":"2020-01-12 06"},"coordinates":[1182,6921]},{"type":"Point","properties":{"Station_ID":"OTTM5","Station_Nam":"OTTERTAIL,MN","Latitude":"46.41670","Longitude":"-95.56670","Snowdepth":"15.000","Units":"in","Rept_Date":"2020-01-11 12"},"coordinates":[382,6730]},{"type":"Point","properties":{"Station_ID":"ND-CS-1","Station_Nam":"WEST FARGO 3.8 SSE, ND","Latitude":"46.82750","Longitude":"-96.85280","Snowdepth":"15.000","Units":"in","Rept_Date":"2020-01-11 13"},"coordinates":[88,6983]},{"type":"Point","properties":{"Station_ID":"MWN","Station_Nam":"MOUNT WASHINGTON","Latitude":"44.26670","Longitude":"-71.30000","Snowdepth":"15.000","Units":"in","Rept_Date":"2020-01-12 05"},"coordinates":[5932,5406]},{"type":"Point","properties":{"Station_ID":"MN-IT-1","Station_Nam":"GRAND RAPIDS 2.0 E, MN","Latitude":"47.22266","Longitude":"-93.49600","Snowdepth":"15.000","Units":"in","Rept_Date":"2020-01-11 15"},"coordinates":[856,7226]},{"type":"Point","properties":{"Station_ID":"MI-HG-13","Station_Nam":"HOUGHTON 1.2 WNW, MI","Latitude":"47.12035","Longitude":"-88.58525","Snowdepth":"15.000","Units":"in","Rept_Date":"2020-01-11 13"},"coordinates":[1979,7163]},{"type":"Point","properties":{"Station_ID":"JOHV1","Station_Nam":"JOHNSON 2 N","Latitude":"44.65790","Longitude":"-72.67850","Snowdepth":"15.000","Units":"in","Rept_Date":"2020-01-11 12"},"coordinates":[5617,5647]},{"type":"Point","properties":{"Station_ID":"INL","Station_Nam":"FALLS INTERNATIONAL ARPT","Latitude":"48.56640","Longitude":"-93.40310","Snowdepth":"15.000","Units":"in","Rept_Date":"2020-01-12 00"},"coordinates":[877,8053]},{"type":"Point","properties":{"Station_ID":"IFSM5","Station_Nam":"INTERNATIONAL FALLS SNOW","Latitude":"48.57780","Longitude":"-93.39640","Snowdepth":"15.000","Units":"in","Rept_Date":"2020-01-11 12"},"coordinates":[879,8060]},{"type":"Point","properties":{"Station_ID":"GGRM4","Station_Nam":"GREEN GARDEN NO.2","Latitude":"46.45330","Longitude":"-87.30380","Snowdepth":"15.000","Units":"in","Rept_Date":"2020-01-11 14"},"coordinates":[2272,6752]},{"type":"Point","properties":{"Station_ID":"CLKM4","Station_Nam":"CLARKSBURG","Latitude":"46.49910","Longitude":"-87.84500","Snowdepth":"15.000","Units":"in","Rept_Date":"2020-01-11 12"},"coordinates":[2148,6780]},{"type":"Point","properties":{"Station_ID":"BRAM5","Station_Nam":"BRAINERD","Latitude":"46.34320","Longitude":"-94.20900","Snowdepth":"15.000","Units":"in","Rept_Date":"2020-01-11 13"},"coordinates":[693,6684]},{"type":"Point","properties":{"Station_ID":"AGNW3","Station_Nam":"ARGONNE-1.5 NW","Latitude":"45.67360","Longitude":"-88.90380","Snowdepth":"15.000","Units":"in","Rept_Date":"2020-01-11 13"},"coordinates":[1906,6272]},{"type":"Point","properties":{"Station_ID":"QGA","Station_Nam":"QGA","Latitude":"47.25640","Longitude":"-73.73810","Snowdepth":"14.961","Units":"in","Rept_Date":"2020-01-11 12"},"coordinates":[5375,7247]},{"type":"Point","properties":{"Station_ID":"QWG","Station_Nam":"QWG","Latitude":"48.48890","Longitude":"-73.45940","Snowdepth":"14.803","Units":"in","Rept_Date":"2020-01-11 12"},"coordinates":[5438,8005]},{"type":"Point","properties":{"Station_ID":"VT-OL-12","Station_Nam":"GREENSBORO 3.9 NNE, VT","Latitude":"44.63100","Longitude":"-72.28000","Snowdepth":"14.500","Units":"in","Rept_Date":"2020-01-11 13"},"coordinates":[5708,5630]},{"type":"Point","properties":{"Station_ID":"VT-ES-3","Station_Nam":"LUNENBURG 2.3 NNW, VT","Latitude":"44.49324","Longitude":"-71.70446","Snowdepth":"14.500","Units":"in","Rept_Date":"2020-01-11 11"},"coordinates":[5840,5545]},{"type":"Point","properties":{"Station_ID":"ND-CS-25","Station_Nam":"FARGO 2.1 N, ND","Latitude":"46.90816","Longitude":"-96.77937","Snowdepth":"14.500","Units":"in","Rept_Date":"2020-01-11 14"},"coordinates":[105,7032]},{"type":"Point","properties":{"Station_ID":"QLP","Station_Nam":"QLP","Latitude":"48.13920","Longitude":"-72.63830","Snowdepth":"14.331","Units":"in","Rept_Date":"2020-01-11 12"},"coordinates":[5626,7790]},{"type":"Point","properties":{"Station_ID":"WI-IR-2","Station_Nam":"MERCER 2.0 SE, WI","Latitude":"46.14749","Longitude":"-90.03097","Snowdepth":"14.300","Units":"in","Rept_Date":"2020-01-11 13"},"coordinates":[1648,6564]},{"type":"Point","properties":{"Station_ID":"CAN-NL-14","Station_Nam":"WHITBOURNE 1.4 NE, CA","Latitude":"47.42741","Longitude":"-53.51950","Snowdepth":"14.200","Units":"in","Rept_Date":"2020-01-11 12"},"coordinates":[9999,7352]},{"type":"Point","properties":{"Station_ID":"MRL","Station_Nam":"MRL","Latitude":"51.28330","Longitude":"-68.84060","Snowdepth":"14.055","Units":"in","Rept_Date":"2020-01-11 12"},"coordinates":[6495,9726]},{"type":"Point","properties":{"Station_ID":"VT-OL-1","Station_Nam":"WESTFIELD 0.7 WNW, VT","Latitude":"44.89160","Longitude":"-72.44350","Snowdepth":"14.000","Units":"in","Rept_Date":"2020-01-11 12"},"coordinates":[5671,5791]},{"type":"Point","properties":{"Station_ID":"MIEM4","Station_Nam":"MICHIGAMME 3WNW","Latitude":"46.54530","Longitude":"-88.18000","Snowdepth":"14.000","Units":"in","Rept_Date":"2020-01-11 13"},"coordinates":[2072,6809]},{"type":"Point","properties":{"Station_ID":"GHMN3","Station_Nam":"PINKHAM NOTCH","Latitude":"44.25800","Longitude":"-71.25250","Snowdepth":"14.000","Units":"in","Rept_Date":"2020-01-11 11"},"coordinates":[5943,5401]},{"type":"Point","properties":{"Station_ID":"FDRN8","Station_Nam":"FARGO 3S","Latitude":"46.82930","Longitude":"-96.79620","Snowdepth":"14.000","Units":"in","Rept_Date":"2020-01-12 00"},"coordinates":[101,6984]},{"type":"Point","properties":{"Station_ID":"FAR","Station_Nam":"HECTOR INTERNATIONAL ARPT","Latitude":"46.91560","Longitude":"-96.81440","Snowdepth":"14.000","Units":"in","Rept_Date":"2020-01-12 00"},"coordinates":[97,7037]},{"type":"Point","properties":{"Station_ID":"EAHV1","Station_Nam":"EAST HAVEN","Latitude":"44.64250","Longitude":"-71.89120","Snowdepth":"14.000","Units":"in","Rept_Date":"2020-01-11 12"},"coordinates":[5797,5637]},{"type":"Point","properties":{"Station_ID":"CRVW3","Station_Nam":"CRIVITZ HIGH FALLS","Latitude":"45.35750","Longitude":"-88.19190","Snowdepth":"14.000","Units":"in","Rept_Date":"2020-01-11 13"},"coordinates":[2069,6078]},{"type":"Point","properties":{"Station_ID":"BRVM5","Station_Nam":"BROWNS VALLEY,MN","Latitude":"45.61670","Longitude":"-96.83330","Snowdepth":"14.000","Units":"in","Rept_Date":"2020-01-11 11"},"coordinates":[93,6237]},{"type":"Point","properties":{"Station_ID":"AVTW3","Station_Nam":"ARBOR VITAE-JOHNSON LAKE","Latitude":"45.89940","Longitude":"-89.72670","Snowdepth":"14.000","Units":"in","Rept_Date":"2020-01-11 12"},"coordinates":[1718,6411]},{"type":"Point","properties":{"Station_ID":"AURW3","Station_Nam":"AURORA","Latitude":"45.77000","Longitude":"-88.11810","Snowdepth":"14.000","Units":"in","Rept_Date":"2020-01-11 13"},"coordinates":[2086,6332]},{"type":"Point","properties":{"Station_ID":"WI-ON-6","Station_Nam":"RHINELANDER 5.2 N, WI","Latitude":"45.71388","Longitude":"-89.42150","Snowdepth":"13.500","Units":"in","Rept_Date":"2020-01-11 14"},"coordinates":[1788,6297]},{"type":"Point","properties":{"Station_ID":"VT-CL-40","Station_Nam":"LYNDONVILLE 4.2 NNW, VT","Latitude":"44.59440","Longitude":"-72.02389","Snowdepth":"13.500","Units":"in","Rept_Date":"2020-01-11 15"},"coordinates":[5767,5608]},{"type":"Point","properties":{"Station_ID":"WI-SR-1","Station_Nam":"HAYWARD 9.2 NNE, WI","Latitude":"46.13255","Longitude":"-91.40500","Snowdepth":"13.000","Units":"in","Rept_Date":"2020-01-11 12"},"coordinates":[1334,6555]},{"type":"Point","properties":{"Station_ID":"WI-PR-6","Station_Nam":"PHILLIPS 1.3 S, WI","Latitude":"45.67677","Longitude":"-90.39543","Snowdepth":"13.000","Units":"in","Rept_Date":"2020-01-11 12"},"coordinates":[1565,6274]},{"type":"Point","properties":{"Station_ID":"VT-CL-18","Station_Nam":"WHEELOCK 1.6 S, VT","Latitude":"44.56491","Longitude":"-72.08830","Snowdepth":"13.000","Units":"in","Rept_Date":"2020-01-11 12"},"coordinates":[5752,5590]},{"type":"Point","properties":{"Station_ID":"TOHM5","Station_Nam":"TWO HARBORS WWTP","Latitude":"47.01760","Longitude":"-91.66480","Snowdepth":"13.000","Units":"in","Rept_Date":"2020-01-11 13"},"coordinates":[1275,7100]},{"type":"Point","properties":{"Station_ID":"SSMM4","Station_Nam":"SAULT STE MARIE","Latitude":"46.48660","Longitude":"-84.40250","Snowdepth":"13.000","Units":"in","Rept_Date":"2020-01-11 13"},"coordinates":[2936,6773]},{"type":"Point","properties":{"Station_ID":"SIWS2","Station_Nam":"SISSETON 3W","Latitude":"45.65870","Longitude":"-97.12450","Snowdepth":"13.000","Units":"in","Rept_Date":"2020-01-11 13"},"coordinates":[26,6263]},{"type":"Point","properties":{"Station_ID":"SD-RB-1","Station_Nam":"SISSETON 3.8 W, SD","Latitude":"45.65865","Longitude":"-97.12370","Snowdepth":"13.000","Units":"in","Rept_Date":"2020-01-11 13"},"coordinates":[26,6263]},{"type":"Point","properties":{"Station_ID":"RHLW3","Station_Nam":"RHINELANDER 4NE","Latitude":"45.65270","Longitude":"-89.30740","Snowdepth":"13.000","Units":"in","Rept_Date":"2020-01-11 12"},"coordinates":[1814,6259]},{"type":"Point","properties":{"Station_ID":"MN-CW-22","Station_Nam":"FORT RIPLEY 0.8 N, MN","Latitude":"46.18089","Longitude":"-94.36510","Snowdepth":"13.000","Units":"in","Rept_Date":"2020-01-11 13"},"coordinates":[657,6584]},{"type":"Point","properties":{"Station_ID":"ME-AR-23","Station_Nam":"MADAWASKA 2.5 E, ME","Latitude":"47.34933","Longitude":"-68.28141","Snowdepth":"13.000","Units":"in","Rept_Date":"2020-01-11 12"},"coordinates":[6623,7304]},{"type":"Point","properties":{"Station_ID":"GRFN8","Station_Nam":"UNIVERSITY","Latitude":"47.93330","Longitude":"-97.08330","Snowdepth":"13.000","Units":"in","Rept_Date":"2020-01-12 06"},"coordinates":[35,7663]},{"type":"Point","properties":{"Station_ID":"COTM5","Station_Nam":"COTTON","Latitude":"47.16870","Longitude":"-92.46290","Snowdepth":"13.000","Units":"in","Rept_Date":"2020-01-11 13"},"coordinates":[1092,7193]},{"type":"Point","properties":{"Station_ID":"COKM5","Station_Nam":"COOK","Latitude":"47.85060","Longitude":"-92.69250","Snowdepth":"13.000","Units":"in","Rept_Date":"2020-01-11 12"},"coordinates":[1040,7612]},{"type":"Point","properties":{"Station_ID":"CAN-PE-19","Station_Nam":"CHARLOTTETOWN 6.5 NNW, CAN","Latitude":"46.29235","Longitude":"-63.17271","Snowdepth":"13.000","Units":"in","Rept_Date":"2020-01-11 12"},"coordinates":[7791,6653]},{"type":"Point","properties":{"Station_ID":"CAN-NB-105","Station_Nam":"SISSON BROOK 3.8 E, CAN","Latitude":"46.98305","Longitude":"-67.32532","Snowdepth":"13.000","Units":"in","Rept_Date":"2020-01-11 12"},"coordinates":[6841,7078]},{"type":"Point","properties":{"Station_ID":"AWXW3","Station_Nam":"ASHLAND","Latitude":"46.58240","Longitude":"-90.88390","Snowdepth":"13.000","Units":"in","Rept_Date":"2020-01-11 13"},"coordinates":[1453,6832]},{"type":"Point","properties":{"Station_ID":"ANJM4","Station_Nam":"SNOW PAID OBSERVER FOR KANJ","Latitude":"46.48670","Longitude":"-84.40260","Snowdepth":"13.000","Units":"in","Rept_Date":"2020-01-11 18"},"coordinates":[2936,6773]},{"type":"Point","properties":{"Station_ID":"ANJ","Station_Nam":"SAULT STE MARIE","Latitude":"46.46670","Longitude":"-84.36670","Snowdepth":"13.000","Units":"in","Rept_Date":"2020-01-12 00"},"coordinates":[2944,6760]},{"type":"Point","properties":{"Station_ID":"CAN-ON-757","Station_Nam":"SAULT STE. MARIE 2.8 ESE - GLFC, CAN","Latitude":"46.50300","Longitude":"-84.30300","Snowdepth":"12.700","Units":"in","Rept_Date":"2020-01-11 13"},"coordinates":[2958,6783]},{"type":"Point","properties":{"Station_ID":"WI-BY-1","Station_Nam":"BAYFIELD 8.8 N, WI","Latitude":"46.93855","Longitude":"-90.83490","Snowdepth":"12.500","Units":"in","Rept_Date":"2020-01-11 13"},"coordinates":[1464,7051]},{"type":"Point","properties":{"Station_ID":"WI-AS-4","Station_Nam":"ASHLAND 0.5 WNW, WI","Latitude":"46.58240","Longitude":"-90.88390","Snowdepth":"12.500","Units":"in","Rept_Date":"2020-01-11 13"},"coordinates":[1453,6832]},{"type":"Point","properties":{"Station_ID":"VT-OL-9","Station_Nam":"GREENSBORO 2.1 NNW, VT","Latitude":"44.60528","Longitude":"-72.30940","Snowdepth":"12.500","Units":"in","Rept_Date":"2020-01-11 12"},"coordinates":[5702,5614]},{"type":"Point","properties":{"Station_ID":"SD-CD-30","Station_Nam":"WATERTOWN 2.3 E, SD","Latitude":"44.91604","Longitude":"-97.11925","Snowdepth":"12.500","Units":"in","Rept_Date":"2020-01-11 14"},"coordinates":[27,5806]},{"type":"Point","properties":{"Station_ID":"MN-CK-6","Station_Nam":"GRAND MARAIS 4.4 W, MN","Latitude":"47.74865","Longitude":"-90.43760","Snowdepth":"12.500","Units":"in","Rept_Date":"2020-01-11 13"},"coordinates":[1555,7550]},{"type":"Point","properties":{"Station_ID":"MI-OT-17","Station_Nam":"GAYLORD 4.1 S, MI","Latitude":"44.96388","Longitude":"-84.68467","Snowdepth":"12.500","Units":"in","Rept_Date":"2020-01-11 12"},"coordinates":[2871,5835]},{"type":"Point","properties":{"Station_ID":"WTNM4","Station_Nam":"WATTON 2WSW","Latitude":"46.52660","Longitude":"-88.64240","Snowdepth":"12.000","Units":"in","Rept_Date":"2020-01-11 13"},"coordinates":[1966,6797]},{"type":"Point","properties":{"Station_ID":"WI-SR-5","Station_Nam":"HAYWARD 9.7 NE, WI","Latitude":"46.12030","Longitude":"-91.35370","Snowdepth":"12.000","Units":"in","Rept_Date":"2020-01-11 14"},"coordinates":[1346,6547]},{"type":"Point","properties":{"Station_ID":"WI-RS-1","Station_Nam":"LADYSMITH 2.8 WNW, WI","Latitude":"45.48180","Longitude":"-91.14680","Snowdepth":"12.000","Units":"in","Rept_Date":"2020-01-11 13"},"coordinates":[1393,6154]},{"type":"Point","properties":{"Station_ID":"WI-PR-8","Station_Nam":"PHILLIPS 0.4 SSW, WI","Latitude":"45.69086","Longitude":"-90.40200","Snowdepth":"12.000","Units":"in","Rept_Date":"2020-01-11 13"},"coordinates":[1564,6283]},{"type":"Point","properties":{"Station_ID":"WI-PR-2","Station_Nam":"BUTTERNUT 5.9 SW, WI","Latitude":"45.96501","Longitude":"-90.59750","Snowdepth":"12.000","Units":"in","Rept_Date":"2020-01-11 12"},"coordinates":[1519,6452]},{"type":"Point","properties":{"Station_ID":"WI-OC-1","Station_Nam":"MOUNTAIN 1.1 SW, WI","Latitude":"45.17239","Longitude":"-88.48990","Snowdepth":"12.000","Units":"in","Rept_Date":"2020-01-11 13"},"coordinates":[2001,5964]},{"type":"Point","properties":{"Station_ID":"TAKW3","Station_Nam":"RICE RESERVOIR NO. 2","Latitude":"45.53770","Longitude":"-89.73220","Snowdepth":"12.000","Units":"in","Rept_Date":"2020-01-11 13"},"coordinates":[1717,6188]},{"type":"Point","properties":{"Station_ID":"STMM4","Station_Nam":"STAMBAUGH 2SSE","Latitude":"46.05550","Longitude":"-88.62780","Snowdepth":"12.000","Units":"in","Rept_Date":"2020-01-11 13"},"coordinates":[1969,6507]},{"type":"Point","properties":{"Station_ID":"SD-RB-4","Station_Nam":"SISSETON 10.4 ENE, SD","Latitude":"45.69480","Longitude":"-96.83480","Snowdepth":"12.000","Units":"in","Rept_Date":"2020-01-11 13"},"coordinates":[92,6285]},{"type":"Point","properties":{"Station_ID":"RARM4","Station_Nam":"RAPID RIVER 1 SW","Latitude":"45.91500","Longitude":"-86.98800","Snowdepth":"12.000","Units":"in","Rept_Date":"2020-01-11 12"},"coordinates":[2344,6421]},{"type":"Point","properties":{"Station_ID":"PRNW3","Station_Nam":"PRENTICE,WI","Latitude":"45.54780","Longitude":"-90.30000","Snowdepth":"12.000","Units":"in","Rept_Date":"2020-01-11 14"},"coordinates":[1587,6195]},{"type":"Point","properties":{"Station_ID":"MOUW3","Station_Nam":"MOUNTAIN 1 SW","Latitude":"45.17220","Longitude":"-88.49390","Snowdepth":"12.000","Units":"in","Rept_Date":"2020-01-11 13"},"coordinates":[2000,5963]},{"type":"Point","properties":{"Station_ID":"MN-BK-10","Station_Nam":"DETROIT LAKES 5.7 N, MN","Latitude":"46.88666","Longitude":"-95.84444","Snowdepth":"12.000","Units":"in","Rept_Date":"2020-01-11 10"},"coordinates":[319,7019]},{"type":"Point","properties":{"Station_ID":"MN-AT-5","Station_Nam":"TAMARACK 1.4 SW, MN","Latitude":"46.63760","Longitude":"-93.14554","Snowdepth":"12.000","Units":"in","Rept_Date":"2020-01-11 11"},"coordinates":[936,6866]},{"type":"Point","properties":{"Station_ID":"MLBS2","Station_Nam":"MILBANK","Latitude":"45.22040","Longitude":"-96.62530","Snowdepth":"12.000","Units":"in","Rept_Date":"2020-01-11 13"},"coordinates":[140,5993]},{"type":"Point","properties":{"Station_ID":"MI-AT-6","Station_Nam":"MANCELONA 0.5 ESE, MI","Latitude":"44.89981","Longitude":"-85.05100","Snowdepth":"12.000","Units":"in","Rept_Date":"2020-01-11 13"},"coordinates":[2787,5796]},{"type":"Point","properties":{"Station_ID":"JCBM4","Station_Nam":"JACOBSVILLE","Latitude":"47.00830","Longitude":"-88.43180","Snowdepth":"12.000","Units":"in","Rept_Date":"2020-01-11 12"},"coordinates":[2014,7094]},{"type":"Point","properties":{"Station_ID":"FLDM5","Station_Nam":"FLOODWOOD,MN","Latitude":"47.00000","Longitude":"-92.91670","Snowdepth":"12.000","Units":"in","Rept_Date":"2020-01-11 14"},"coordinates":[988,7089]},{"type":"Point","properties":{"Station_ID":"COUW3","Station_Nam":"COUDERAY,WI","Latitude":"45.86670","Longitude":"-91.45000","Snowdepth":"12.000","Units":"in","Rept_Date":"2020-01-11 22"},"coordinates":[1324,6391]},{"type":"Point","properties":{"Station_ID":"CORV1","Station_Nam":"CORINTH","Latitude":"44.00690","Longitude":"-72.31940","Snowdepth":"12.000","Units":"in","Rept_Date":"2020-01-11 12"},"coordinates":[5699,5246]},{"type":"Point","properties":{"Station_ID":"CLGM5","Station_Nam":"COLLEGEVILLE ST JOHN","Latitude":"45.57940","Longitude":"-94.39200","Snowdepth":"12.000","Units":"in","Rept_Date":"2020-01-12 00"},"coordinates":[651,6214]},{"type":"Point","properties":{"Station_ID":"CAN-NB-11","Station_Nam":"MIRAMICHI 3.3 S, CAN","Latitude":"46.99343","Longitude":"-65.50690","Snowdepth":"12.000","Units":"in","Rept_Date":"2020-01-11 12"},"coordinates":[7257,7085]},{"type":"Point","properties":{"Station_ID":"BETM1","Station_Nam":"BETHEL 6 SSE","Latitude":"44.32000","Longitude":"-70.75680","Snowdepth":"12.000","Units":"in","Rept_Date":"2020-01-11 12"},"coordinates":[6057,5439]},{"type":"Point","properties":{"Station_ID":"AVLV1","Station_Nam":"AVERILL","Latitude":"45.00570","Longitude":"-71.69030","Snowdepth":"12.000","Units":"in","Rept_Date":"2020-01-11 13"},"coordinates":[5843,5861]},{"type":"Point","properties":{"Station_ID":"AROM4","Station_Nam":"ARNOLD,MI","Latitude":"46.06670","Longitude":"-87.48330","Snowdepth":"12.000","Units":"in","Rept_Date":"2020-01-11 13"},"coordinates":[2231,6514]},{"type":"Point","properties":{"Station_ID":"ME-PN-45","Station_Nam":"MILLINOCKET 2.7 ESE, ME","Latitude":"45.65002","Longitude":"-68.64472","Snowdepth":"11.500","Units":"in","Rept_Date":"2020-01-11 12"},"coordinates":[6540,6258]},{"type":"Point","properties":{"Station_ID":"WI-CH-3","Station_Nam":"CORNELL 4.1 W, WI","Latitude":"45.17024","Longitude":"-91.23610","Snowdepth":"11.000","Units":"in","Rept_Date":"2020-01-11 14"},"coordinates":[1373,5962]},{"type":"Point","properties":{"Station_ID":"VT-OL-2","Station_Nam":"BARTON 3.0 ENE, VT","Latitude":"44.75863","Longitude":"-72.11680","Snowdepth":"11.000","Units":"in","Rept_Date":"2020-01-11 12"},"coordinates":[5746,5709]},{"type":"Point","properties":{"Station_ID":"SRAW3","Station_Nam":"SARONA","Latitude":"45.80250","Longitude":"-91.86700","Snowdepth":"11.000","Units":"in","Rept_Date":"2020-01-11 14"},"coordinates":[1228,6352]},{"type":"Point","properties":{"Station_ID":"NH-CR-26","Station_Nam":"CENTER SANDWICH 4.9 E, NH","Latitude":"43.80976","Longitude":"-71.34150","Snowdepth":"11.000","Units":"in","Rept_Date":"2020-01-11 12"},"coordinates":[5923,5125]},{"type":"Point","properties":{"Station_ID":"MQRW3","Station_Nam":"MINOCQUA","Latitude":"45.88630","Longitude":"-89.73220","Snowdepth":"11.000","Units":"in","Rept_Date":"2020-01-11 12"},"coordinates":[1717,6403]},{"type":"Point","properties":{"Station_ID":"LUCW3","Station_Nam":"LUCK","Latitude":"45.57330","Longitude":"-92.48520","Snowdepth":"11.000","Units":"in","Rept_Date":"2020-01-11 17"},"coordinates":[1087,6210]},{"type":"Point","properties":{"Station_ID":"LNGM5","Station_Nam":"LONG PRAIRIE","Latitude":"45.96460","Longitude":"-94.88920","Snowdepth":"11.000","Units":"in","Rept_Date":"2020-01-11 12"},"coordinates":[537,6451]},{"type":"Point","properties":{"Station_ID":"LGRN8","Station_Nam":"LIDGERWOOD,ND","Latitude":"46.06670","Longitude":"-97.16670","Snowdepth":"11.000","Units":"in","Rept_Date":"2020-01-11 13"},"coordinates":[16,6514]},{"type":"Point","properties":{"Station_ID":"KGFK","Station_Nam":"GRAND FORKS INTERNATIONAL","Latitude":"47.95000","Longitude":"-97.18333","Snowdepth":"11.000","Units":"in","Rept_Date":"2020-01-12 06"},"coordinates":[13,7674]},{"type":"Point","properties":{"Station_ID":"GRBM5","Station_Nam":"GRAND RAPIDS 12N","Latitude":"47.39800","Longitude":"-93.51330","Snowdepth":"11.000","Units":"in","Rept_Date":"2020-01-11 14"},"coordinates":[852,7334]},{"type":"Point","properties":{"Station_ID":"GFK","Station_Nam":"GRAND FORKS INTERNATIONAL AIRPORT","Latitude":"47.94920","Longitude":"-97.17610","Snowdepth":"11.000","Units":"in","Rept_Date":"2020-01-12 00"},"coordinates":[14,7673]},{"type":"Point","properties":{"Station_ID":"ESDN3","Station_Nam":"EAST SANDWICH","Latitude":"43.80990","Longitude":"-71.34250","Snowdepth":"11.000","Units":"in","Rept_Date":"2020-01-11 11"},"coordinates":[5923,5125]},{"type":"Point","properties":{"Station_ID":"ESAM4","Station_Nam":"ESCANABA","Latitude":"45.74380","Longitude":"-87.04060","Snowdepth":"11.000","Units":"in","Rept_Date":"2020-01-11 12"},"coordinates":[2332,6315]},{"type":"Point","properties":{"Station_ID":"CAN-PE-50","Station_Nam":"BEDFORD CORNER 3.9 WNW, CAN","Latitude":"46.34628","Longitude":"-63.06157","Snowdepth":"11.000","Units":"in","Rept_Date":"2020-01-11 11"},"coordinates":[7817,6686]},{"type":"Point","properties":{"Station_ID":"CAN-NB-2","Station_Nam":"GRAFTON 2.7 NNE, CA","Latitude":"46.17062","Longitude":"-67.55330","Snowdepth":"11.000","Units":"in","Rept_Date":"2020-01-11 11"},"coordinates":[6789,6578]},{"type":"Point","properties":{"Station_ID":"BKEM5","Station_Nam":"BRECKENRIDGE 4NE","Latitude":"46.30470","Longitude":"-96.52170","Snowdepth":"11.000","Units":"in","Rept_Date":"2020-01-11 13"},"coordinates":[164,6661]},{"type":"Point","properties":{"Station_ID":"ARTM5","Station_Nam":"ARTICHOKE LAKE 1 E","Latitude":"45.38560","Longitude":"-96.12570","Snowdepth":"11.000","Units":"in","Rept_Date":"2020-01-12 00"},"coordinates":[254,6095]},{"type":"Point","properties":{"Station_ID":"CAN-PE-7","Station_Nam":"MORELL 1.4 NNW, CA","Latitude":"46.42741","Longitude":"-62.70870","Snowdepth":"10.600","Units":"in","Rept_Date":"2020-01-11 11"},"coordinates":[7897,6736]},{"type":"Point","properties":{"Station_ID":"CAN-NS-163","Station_Nam":"SYDNEY MINES 2.2 WNW, CAN","Latitude":"46.24851","Longitude":"-60.25161","Snowdepth":"10.600","Units":"in","Rept_Date":"2020-01-11 12"},"coordinates":[8459,6626]},{"type":"Point","properties":{"Station_ID":"CAN-NB-89","Station_Nam":"MEMRAMCOOK 4.0 W, CAN","Latitude":"46.01133","Longitude":"-64.60244","Snowdepth":"10.600","Units":"in","Rept_Date":"2020-01-11 13"},"coordinates":[7464,6480]},{"type":"Point","properties":{"Station_ID":"WI-BT-14","Station_Nam":"OAKLAND 9.0 ENE, WI","Latitude":"45.95184","Longitude":"-92.21653","Snowdepth":"10.500","Units":"in","Rept_Date":"2020-01-11 13"},"coordinates":[1149,6443]},{"type":"Point","properties":{"Station_ID":"VT-OG-11","Station_Nam":"VERSHIRE 1.5 ESE, VT","Latitude":"43.96138","Longitude":"-72.29777","Snowdepth":"10.500","Units":"in","Rept_Date":"2020-01-11 11"},"coordinates":[5704,5218]},{"type":"Point","properties":{"Station_ID":"ZNOM4","Station_Nam":"NORWAY","Latitude":"45.77810","Longitude":"-87.89560","Snowdepth":"10.000","Units":"in","Rept_Date":"2020-01-11 13"},"coordinates":[2137,6336]},{"type":"Point","properties":{"Station_ID":"WLKW3","Station_Nam":"WHITE LAKE 1 SE","Latitude":"45.14520","Longitude":"-88.74160","Snowdepth":"10.000","Units":"in","Rept_Date":"2020-01-11 14"},"coordinates":[1943,5947]},{"type":"Point","properties":{"Station_ID":"WILW3","Station_Nam":"RESERVOIR","Latitude":"45.70000","Longitude":"-89.83330","Snowdepth":"10.000","Units":"in","Rept_Date":"2020-01-11 12"},"coordinates":[1694,6288]},{"type":"Point","properties":{"Station_ID":"WI-DN-1","Station_Nam":"BOYCEVILLE 3.3 N, WI","Latitude":"45.08913","Longitude":"-92.02760","Snowdepth":"10.000","Units":"in","Rept_Date":"2020-01-11 13"},"coordinates":[1192,5912]},{"type":"Point","properties":{"Station_ID":"SULW3","Station_Nam":"SUMMIT LAKE","Latitude":"45.37880","Longitude":"-89.19410","Snowdepth":"10.000","Units":"in","Rept_Date":"2020-01-11 11"},"coordinates":[1840,6091]},{"type":"Point","properties":{"Station_ID":"RRVM4","Station_Nam":"RAPID RIVER 9S","Latitude":"45.78750","Longitude":"-86.93920","Snowdepth":"10.000","Units":"in","Rept_Date":"2020-01-11 13"},"coordinates":[2355,6342]},{"type":"Point","properties":{"Station_ID":"RHRW3","Station_Nam":"RHINELANDER WJFW TV-12","Latitude":"45.62220","Longitude":"-89.41000","Snowdepth":"10.000","Units":"in","Rept_Date":"2020-01-12 04"},"coordinates":[1790,6241]},{"type":"Point","properties":{"Station_ID":"RHI","Station_Nam":"RHINELANDER-ONEIDA COUNTY AIRPORT","Latitude":"45.63080","Longitude":"-89.46530","Snowdepth":"10.000","Units":"in","Rept_Date":"2020-01-12 00"},"coordinates":[1778,6246]},{"type":"Point","properties":{"Station_ID":"RGNM1","Station_Nam":"RANGELEY 2NW","Latitude":"44.98940","Longitude":"-70.67220","Snowdepth":"10.000","Units":"in","Rept_Date":"2020-01-11 13"},"coordinates":[6076,5851]},{"type":"Point","properties":{"Station_ID":"NH-MR-6","Station_Nam":"DANBURY 2.2 ESE, NH","Latitude":"43.52000","Longitude":"-71.81900","Snowdepth":"10.000","Units":"in","Rept_Date":"2020-01-11 13"},"coordinates":[5814,4946]},{"type":"Point","properties":{"Station_ID":"NCON3","Station_Nam":"NORTH CONWAY,NH","Latitude":"44.05000","Longitude":"-71.13330","Snowdepth":"10.000","Units":"in","Rept_Date":"2020-01-11 12"},"coordinates":[5971,5273]},{"type":"Point","properties":{"Station_ID":"ME-SG-1","Station_Nam":"BATH 1.1 WSW, ME","Latitude":"43.93063","Longitude":"-69.85730","Snowdepth":"10.000","Units":"in","Rept_Date":"2020-01-11 12"},"coordinates":[6262,5199]},{"type":"Point","properties":{"Station_ID":"ME-FR-4","Station_Nam":"NEW SHARON 2.0 NW, ME","Latitude":"44.66582","Longitude":"-70.02720","Snowdepth":"10.000","Units":"in","Rept_Date":"2020-01-11 12"},"coordinates":[6223,5652]},{"type":"Point","properties":{"Station_ID":"ME-CM-125","Station_Nam":"CUMBERLAND CENTER 4.4 NW, ME","Latitude":"43.84640","Longitude":"-70.31340","Snowdepth":"10.000","Units":"in","Rept_Date":"2020-01-11 12"},"coordinates":[6158,5147]},{"type":"Point","properties":{"Station_ID":"LBRM5","Station_Nam":"LAKE BRONSON DAM","Latitude":"48.72410","Longitude":"-96.62180","Snowdepth":"10.000","Units":"in","Rept_Date":"2020-01-11 14"},"coordinates":[141,8150]},{"type":"Point","properties":{"Station_ID":"KMWN","Station_Nam":"MOUNT WASHINGTON","Latitude":"44.26666","Longitude":"-71.30000","Snowdepth":"10.000","Units":"in","Rept_Date":"2020-01-12 06"},"coordinates":[5932,5406]},{"type":"Point","properties":{"Station_ID":"KINM1","Station_Nam":"KINGFIELD","Latitude":"44.95950","Longitude":"-70.17530","Snowdepth":"10.000","Units":"in","Rept_Date":"2020-01-11 13"},"coordinates":[6190,5833]},{"type":"Point","properties":{"Station_ID":"JEFN3","Station_Nam":"JEFFERSON","Latitude":"44.41690","Longitude":"-71.50080","Snowdepth":"10.000","Units":"in","Rept_Date":"2020-01-11 12"},"coordinates":[5886,5498]},{"type":"Point","properties":{"Station_ID":"ISLV1","Station_Nam":"ISLAND POND","Latitude":"44.81280","Longitude":"-71.89020","Snowdepth":"10.000","Units":"in","Rept_Date":"2020-01-11 15"},"coordinates":[5797,5742]},{"type":"Point","properties":{"Station_ID":"ISEM5","Station_Nam":"ISLE 12N","Latitude":"46.31970","Longitude":"-93.50140","Snowdepth":"10.000","Units":"in","Rept_Date":"2020-01-11 14"},"coordinates":[855,6670]},{"type":"Point","properties":{"Station_ID":"DFXM1","Station_Nam":"DOVER-FOXCROFT","Latitude":"45.18720","Longitude":"-69.18350","Snowdepth":"10.000","Units":"in","Rept_Date":"2020-01-11 12"},"coordinates":[6416,5973]},{"type":"Point","properties":{"Station_ID":"BTLN3","Station_Nam":"BARTLETT","Latitude":"44.08380","Longitude":"-71.29340","Snowdepth":"10.000","Units":"in","Rept_Date":"2020-01-11 12"},"coordinates":[5934,5293]},{"type":"Point","properties":{"Station_ID":"BTHM1","Station_Nam":"BATH","Latitude":"43.93160","Longitude":"-69.85640","Snowdepth":"10.000","Units":"in","Rept_Date":"2020-01-11 10"},"coordinates":[6263,5200]},{"type":"Point","properties":{"Station_ID":"CAN-PE-20","Station_Nam":"BONSHAW 6.6 NNE, CAN","Latitude":"46.25082","Longitude":"-63.33409","Snowdepth":"9.600","Units":"in","Rept_Date":"2020-01-11 12"},"coordinates":[7754,6628]},{"type":"Point","properties":{"Station_ID":"MI-OT-16","Station_Nam":"GAYLORD 2.2 SSE, MI","Latitude":"44.99441","Longitude":"-84.65820","Snowdepth":"9.500","Units":"in","Rept_Date":"2020-01-11 14"},"coordinates":[2877,5854]},{"type":"Point","properties":{"Station_ID":"WLDM5","Station_Nam":"WILD RIVER STATE PARK","Latitude":"45.52310","Longitude":"-92.74890","Snowdepth":"9.000","Units":"in","Rept_Date":"2020-01-11 14"},"coordinates":[1027,6180]},{"type":"Point","properties":{"Station_ID":"WI-LN-2","Station_Nam":"MERRILL 7.0 W, WI","Latitude":"45.17746","Longitude":"-89.84820","Snowdepth":"9.000","Units":"in","Rept_Date":"2020-01-11 12"},"coordinates":[1690,5967]},{"type":"Point","properties":{"Station_ID":"WI-EC-23","Station_Nam":"EAU CLAIRE 3.7 S, WI","Latitude":"44.76858","Longitude":"-91.49898","Snowdepth":"9.000","Units":"in","Rept_Date":"2020-01-11 16"},"coordinates":[1313,5715]},{"type":"Point","properties":{"Station_ID":"SAUW3","Station_Nam":"WAUSAU WSAW TV","Latitude":"44.94630","Longitude":"-89.62220","Snowdepth":"9.000","Units":"in","Rept_Date":"2020-01-12 04"},"coordinates":[1742,5824]},{"type":"Point","properties":{"Station_ID":"NY-ES-6","Station_Nam":"OLMSTEDVILLE 4.6 NNE, NY","Latitude":"43.83350","Longitude":"-73.89780","Snowdepth":"9.000","Units":"in","Rept_Date":"2020-01-11 13"},"coordinates":[5338,5139]},{"type":"Point","properties":{"Station_ID":"NUMN3","Station_Nam":"NORTHUMBERLAND","Latitude":"44.52830","Longitude":"-71.50440","Snowdepth":"9.000","Units":"in","Rept_Date":"2020-01-11 13"},"coordinates":[5886,5567]},{"type":"Point","properties":{"Station_ID":"NH-MR-45","Station_Nam":"NORTHFIELD 2.8 E, NH","Latitude":"43.43945","Longitude":"-71.53730","Snowdepth":"9.000","Units":"in","Rept_Date":"2020-01-11 12"},"coordinates":[5878,4897]},{"type":"Point","properties":{"Station_ID":"NH-GR-49","Station_Nam":"PLYMOUTH 3.7 N, NH","Latitude":"43.79048","Longitude":"-71.68413","Snowdepth":"9.000","Units":"in","Rept_Date":"2020-01-11 12"},"coordinates":[5845,5113]},{"type":"Point","properties":{"Station_ID":"NH-CR-11","Station_Nam":"NORTH CONWAY 1.4 SSW, NH","Latitude":"44.03556","Longitude":"-71.14010","Snowdepth":"9.000","Units":"in","Rept_Date":"2020-01-11 12"},"coordinates":[5969,5264]},{"type":"Point","properties":{"Station_ID":"MRQM4","Station_Nam":"MARQUETTE WFP","Latitude":"46.54580","Longitude":"-87.37950","Snowdepth":"9.000","Units":"in","Rept_Date":"2020-01-11 13"},"coordinates":[2255,6809]},{"type":"Point","properties":{"Station_ID":"MONS2","Station_Nam":"SIOUX FALLS-26MI.WNW","Latitude":"43.70190","Longitude":"-97.18330","Snowdepth":"9.000","Units":"in","Rept_Date":"2020-01-11 14"},"coordinates":[13,5058]},{"type":"Point","properties":{"Station_ID":"MN-SH-10","Station_Nam":"BIG LAKE 5.6 NNE, MN","Latitude":"45.41409","Longitude":"-93.69190","Snowdepth":"9.000","Units":"in","Rept_Date":"2020-01-11 13"},"coordinates":[811,6112]},{"type":"Point","properties":{"Station_ID":"MN-MR-4","Station_Nam":"LITTLE FALLS 1.2 SW, MN","Latitude":"45.96886","Longitude":"-94.37720","Snowdepth":"9.000","Units":"in","Rept_Date":"2020-01-11 13"},"coordinates":[654,6454]},{"type":"Point","properties":{"Station_ID":"MN-MR-13","Station_Nam":"LITTLE FALLS 8.0 NE, MN","Latitude":"46.06785","Longitude":"-94.24789","Snowdepth":"9.000","Units":"in","Rept_Date":"2020-01-11 13"},"coordinates":[684,6515]},{"type":"Point","properties":{"Station_ID":"MLLW3","Station_Nam":"MERRILL 8W","Latitude":"45.17810","Longitude":"-89.84810","Snowdepth":"9.000","Units":"in","Rept_Date":"2020-01-11 12"},"coordinates":[1690,5967]},{"type":"Point","properties":{"Station_ID":"ME-AR-15","Station_Nam":"PRESQUE ISLE 1.3 WSW, ME","Latitude":"46.67960","Longitude":"-68.01270","Snowdepth":"9.000","Units":"in","Rept_Date":"2020-01-11 12"},"coordinates":[6684,6892]},{"type":"Point","properties":{"Station_ID":"LNCM1","Station_Nam":"LINCOLN WATER DISTRICT","Latitude":"45.32410","Longitude":"-68.58300","Snowdepth":"9.000","Units":"in","Rept_Date":"2020-01-11 12"},"coordinates":[6554,6057]},{"type":"Point","properties":{"Station_ID":"HYTS2","Station_Nam":"HAYTI 1W","Latitude":"44.66330","Longitude":"-97.22670","Snowdepth":"9.000","Units":"in","Rept_Date":"2020-01-11 14"},"coordinates":[3,5650]},{"type":"Point","properties":{"Station_ID":"HRTM1","Station_Nam":"HARTFORD","Latitude":"44.37440","Longitude":"-70.31620","Snowdepth":"9.000","Units":"in","Rept_Date":"2020-01-11 12"},"coordinates":[6157,5472]},{"type":"Point","properties":{"Station_ID":"GILV1","Station_Nam":"GILMAN","Latitude":"44.41120","Longitude":"-71.71860","Snowdepth":"9.000","Units":"in","Rept_Date":"2020-01-11 12"},"coordinates":[5837,5495]},{"type":"Point","properties":{"Station_ID":"DURM1","Station_Nam":"DURHAM","Latitude":"43.99960","Longitude":"-70.09630","Snowdepth":"9.000","Units":"in","Rept_Date":"2020-01-11 12"},"coordinates":[6208,5242]},{"type":"Point","properties":{"Station_ID":"CHRM4","Station_Nam":"CHARLEVOIX","Latitude":"45.31720","Longitude":"-85.26720","Snowdepth":"9.000","Units":"in","Rept_Date":"2020-01-11 13"},"coordinates":[2738,6053]},{"type":"Point","properties":{"Station_ID":"CARM1","Station_Nam":"CARIBOU WFO","Latitude":"46.86810","Longitude":"-68.01250","Snowdepth":"9.000","Units":"in","Rept_Date":"2020-01-12 05"},"coordinates":[6684,7008]},{"type":"Point","properties":{"Station_ID":"CAR","Station_Nam":"CARIBOU, ME","Latitude":"46.86830","Longitude":"-68.01360","Snowdepth":"9.000","Units":"in","Rept_Date":"2020-01-11 12"},"coordinates":[6684,7008]},{"type":"Point","properties":{"Station_ID":"CAN-NS-18","Station_Nam":"HAMMONDS PLAINS 2.1 NNW, CA","Latitude":"44.75181","Longitude":"-63.79100","Snowdepth":"9.000","Units":"in","Rept_Date":"2020-01-11 11"},"coordinates":[7650,5705]},{"type":"Point","properties":{"Station_ID":"CAN-NB-13","Station_Nam":"BATHURST 3.8 NW, CAN","Latitude":"47.64212","Longitude":"-65.68756","Snowdepth":"9.000","Units":"in","Rept_Date":"2020-01-11 11"},"coordinates":[7216,7484]},{"type":"Point","properties":{"Station_ID":"CAN-MB-32","Station_Nam":"PINAWA 1.0 SW, CA","Latitude":"50.14747","Longitude":"-95.89020","Snowdepth":"9.000","Units":"in","Rept_Date":"2020-01-11 13"},"coordinates":[308,9027]},{"type":"Point","properties":{"Station_ID":"BRDM1","Station_Nam":"BRIDGEWATER","Latitude":"46.42870","Longitude":"-67.84370","Snowdepth":"9.000","Units":"in","Rept_Date":"2020-01-11 23"},"coordinates":[6723,6737]},{"type":"Point","properties":{"Station_ID":"AUW","Station_Nam":"WAUSAU MUNICIPAL AIRPORT","Latitude":"44.92580","Longitude":"-89.62560","Snowdepth":"9.000","Units":"in","Rept_Date":"2020-01-12 00"},"coordinates":[1741,5812]},{"type":"Point","properties":{"Station_ID":"APXM4","Station_Nam":"GAYLORD 9SSW","Latitude":"44.90720","Longitude":"-84.71880","Snowdepth":"9.000","Units":"in","Rept_Date":"2020-01-12 06"},"coordinates":[2863,5800]},{"type":"Point","properties":{"Station_ID":"WI-CH-7","Station_Nam":"CHIPPEWA FALLS 1.2 E, WI","Latitude":"44.92920","Longitude":"-91.36730","Snowdepth":"8.500","Units":"in","Rept_Date":"2020-01-11 13"},"coordinates":[1343,5814]},{"type":"Point","properties":{"Station_ID":"SD-BK-7","Station_Nam":"BROOKINGS 0.2 SSW, SD","Latitude":"44.30389","Longitude":"-96.78780","Snowdepth":"8.500","Units":"in","Rept_Date":"2020-01-11 13"},"coordinates":[103,5429]},{"type":"Point","properties":{"Station_ID":"NH-GR-47","Station_Nam":"LITTLETON 7.3 W, NH","Latitude":"44.31847","Longitude":"-71.91086","Snowdepth":"8.500","Units":"in","Rept_Date":"2020-01-11 13"},"coordinates":[5793,5438]},{"type":"Point","properties":{"Station_ID":"NH-CR-27","Station_Nam":"TAMWORTH 0.4 NNW, NH","Latitude":"43.86449","Longitude":"-71.26610","Snowdepth":"8.500","Units":"in","Rept_Date":"2020-01-11 12"},"coordinates":[5940,5158]},{"type":"Point","properties":{"Station_ID":"NH-BK-9","Station_Nam":"MEREDITH 2.9 SSW, NH","Latitude":"43.62245","Longitude":"-71.53510","Snowdepth":"8.500","Units":"in","Rept_Date":"2020-01-11 13"},"coordinates":[5879,5009]},{"type":"Point","properties":{"Station_ID":"ME-YK-67","Station_Nam":"CORNISH 5.6 ESE, ME","Latitude":"43.78308","Longitude":"-70.69539","Snowdepth":"8.500","Units":"in","Rept_Date":"2020-01-11 12"},"coordinates":[6071,5108]},{"type":"Point","properties":{"Station_ID":"ME-AN-32","Station_Nam":"WINTHROP 9.4 W, ME","Latitude":"44.30476","Longitude":"-70.15835","Snowdepth":"8.500","Units":"in","Rept_Date":"2020-01-11 12"},"coordinates":[6193,5429]},{"type":"Point","properties":{"Station_ID":"CAN-NS-13","Station_Nam":"TRURO 5.0 ENE, CA","Latitude":"45.38252","Longitude":"-63.22810","Snowdepth":"8.300","Units":"in","Rept_Date":"2020-01-11 11"},"coordinates":[7779,6093]},{"type":"Point","properties":{"Station_ID":"CAN-NB-64","Station_Nam":"KESWICK RIDGE 4.0 SE, CAN","Latitude":"45.97014","Longitude":"-66.85538","Snowdepth":"8.300","Units":"in","Rept_Date":"2020-01-11 13"},"coordinates":[6949,6455]},{"type":"Point","properties":{"Station_ID":"QGT","Station_Nam":"QGT","Latitude":"49.64720","Longitude":"-67.62640","Snowdepth":"8.071","Units":"in","Rept_Date":"2020-01-11 12"},"coordinates":[6773,8719]},{"type":"Point","properties":{"Station_ID":"WUNW3","Station_Nam":"WAUSAU-NORTHEAST","Latitude":"44.97310","Longitude":"-89.61690","Snowdepth":"8.000","Units":"in","Rept_Date":"2020-01-11 12"},"coordinates":[1743,5841]},{"type":"Point","properties":{"Station_ID":"WRUM5","Station_Nam":"WARROAD 4W","Latitude":"48.89600","Longitude":"-95.40700","Snowdepth":"8.000","Units":"in","Rept_Date":"2020-01-12 04"},"coordinates":[419,8256]},{"type":"Point","properties":{"Station_ID":"WORV1","Station_Nam":"WORCESTER 2 W","Latitude":"44.37470","Longitude":"-72.58220","Snowdepth":"8.000","Units":"in","Rept_Date":"2020-01-11 12"},"coordinates":[5639,5472]},{"type":"Point","properties":{"Station_ID":"VT-WS-10","Station_Nam":"NORTHFIELD 1.5 N, VT","Latitude":"44.16986","Longitude":"-72.65200","Snowdepth":"8.000","Units":"in","Rept_Date":"2020-01-11 12"},"coordinates":[5623,5346]},{"type":"Point","properties":{"Station_ID":"VT-WR-2","Station_Nam":"POMFRET 2.6 N, VT","Latitude":"43.74230","Longitude":"-72.52550","Snowdepth":"8.000","Units":"in","Rept_Date":"2020-01-11 12"},"coordinates":[5652,5083]},{"type":"Point","properties":{"Station_ID":"TOPM1","Station_Nam":"TOPSFIELD","Latitude":"45.43470","Longitude":"-67.72020","Snowdepth":"8.000","Units":"in","Rept_Date":"2020-01-11 12"},"coordinates":[6751,6125]},{"type":"Point","properties":{"Station_ID":"TMWN3","Station_Nam":"TAMWORTH 4","Latitude":"43.86390","Longitude":"-71.26610","Snowdepth":"8.000","Units":"in","Rept_Date":"2020-01-11 12"},"coordinates":[5940,5158]},{"type":"Point","properties":{"Station_ID":"RRLW3","Station_Nam":"MERRILL,WI","Latitude":"45.17860","Longitude":"-89.66170","Snowdepth":"8.000","Units":"in","Rept_Date":"2020-01-11 14"},"coordinates":[1733,5967]},{"type":"Point","properties":{"Station_ID":"RCEM5","Station_Nam":"RICE","Latitude":"45.75760","Longitude":"-94.20720","Snowdepth":"8.000","Units":"in","Rept_Date":"2020-01-11 13"},"coordinates":[693,6324]},{"type":"Point","properties":{"Station_ID":"RANM1","Station_Nam":"RANGELEY,ME","Latitude":"44.96670","Longitude":"-70.65000","Snowdepth":"8.000","Units":"in","Rept_Date":"2020-01-11 13"},"coordinates":[6081,5837]},{"type":"Point","properties":{"Station_ID":"ORAN3","Station_Nam":"ORANGE","Latitude":"43.66880","Longitude":"-71.94830","Snowdepth":"8.000","Units":"in","Rept_Date":"2020-01-11 12"},"coordinates":[5784,5038]},{"type":"Point","properties":{"Station_ID":"NY-FK-7","Station_Nam":"SARANAC LAKE 6.2 N, NY","Latitude":"44.41359","Longitude":"-74.15211","Snowdepth":"8.000","Units":"in","Rept_Date":"2020-01-11 12"},"coordinates":[5280,5496]},{"type":"Point","properties":{"Station_ID":"NSFN3","Station_Nam":"NORTH STRATFORD","Latitude":"44.68190","Longitude":"-71.58570","Snowdepth":"8.000","Units":"in","Rept_Date":"2020-01-11 12"},"coordinates":[5867,5662]},{"type":"Point","properties":{"Station_ID":"NPTV1","Station_Nam":"NEWPORT","Latitude":"44.94900","Longitude":"-72.19120","Snowdepth":"8.000","Units":"in","Rept_Date":"2020-01-11 12"},"coordinates":[5729,5826]},{"type":"Point","properties":{"Station_ID":"NH-MR-41","Station_Nam":"NEWBURY 1.6 NW, NH","Latitude":"43.33667","Longitude":"-72.06060","Snowdepth":"8.000","Units":"in","Rept_Date":"2020-01-11 12"},"coordinates":[5758,4833]},{"type":"Point","properties":{"Station_ID":"NH-GR-1","Station_Nam":"BRISTOL 0.4 SSE, NH","Latitude":"43.59490","Longitude":"-71.74140","Snowdepth":"8.000","Units":"in","Rept_Date":"2020-01-11 12"},"coordinates":[5831,4992]},{"type":"Point","properties":{"Station_ID":"NH-BK-29","Station_Nam":"SANBORNTON 2.3 WNW, NH","Latitude":"43.49730","Longitude":"-71.62800","Snowdepth":"8.000","Units":"in","Rept_Date":"2020-01-11 12"},"coordinates":[5857,4932]},{"type":"Point","properties":{"Station_ID":"NH-BK-1","Station_Nam":"TILTON NORTHFIELD 3.3 NE, NH","Latitude":"43.48000","Longitude":"-71.55000","Snowdepth":"8.000","Units":"in","Rept_Date":"2020-01-11 12"},"coordinates":[5875,4922]},{"type":"Point","properties":{"Station_ID":"MLCM5","Station_Nam":"MILACA","Latitude":"45.75320","Longitude":"-93.66170","Snowdepth":"8.000","Units":"in","Rept_Date":"2020-01-11 13"},"coordinates":[818,6321]},{"type":"Point","properties":{"Station_ID":"MI-OT-4","Station_Nam":"GAYLORD 1.7 WNW, MI","Latitude":"45.03280","Longitude":"-84.71090","Snowdepth":"8.000","Units":"in","Rept_Date":"2020-01-11 13"},"coordinates":[2865,5878]},{"type":"Point","properties":{"Station_ID":"MI-DL-1","Station_Nam":"GARDEN CORNERS 0.8 NW, MI","Latitude":"45.89815","Longitude":"-86.54850","Snowdepth":"8.000","Units":"in","Rept_Date":"2020-01-11 13"},"coordinates":[2445,6410]},{"type":"Point","properties":{"Station_ID":"MA-HS-7","Station_Nam":"PLAINFIELD 2.2 SW, MA","Latitude":"42.49272","Longitude":"-72.94540","Snowdepth":"8.000","Units":"in","Rept_Date":"2020-01-11 13"},"coordinates":[5556,4314]},{"type":"Point","properties":{"Station_ID":"INDN6","Station_Nam":"INDIAN LAKE","Latitude":"43.75500","Longitude":"-74.27560","Snowdepth":"8.000","Units":"in","Rept_Date":"2020-01-11 13"},"coordinates":[5252,5091]},{"type":"Point","properties":{"Station_ID":"HOLM1","Station_Nam":"HOLLIS","Latitude":"43.64750","Longitude":"-70.67490","Snowdepth":"8.000","Units":"in","Rept_Date":"2020-01-11 12"},"coordinates":[6075,5025]},{"type":"Point","properties":{"Station_ID":"HGHN6","Station_Nam":"HIGHMARKET","Latitude":"43.57520","Longitude":"-75.52070","Snowdepth":"8.000","Units":"in","Rept_Date":"2020-01-11 11"},"coordinates":[4967,4980]},{"type":"Point","properties":{"Station_ID":"GYX","Station_Nam":"PORTLAND, ME","Latitude":"43.89250","Longitude":"-70.25500","Snowdepth":"8.000","Units":"in","Rept_Date":"2020-01-11 12"},"coordinates":[6171,5176]},{"type":"Point","properties":{"Station_ID":"GDCM4","Station_Nam":"GARDEN CORNERS","Latitude":"45.89830","Longitude":"-86.54850","Snowdepth":"8.000","Units":"in","Rept_Date":"2020-01-11 13"},"coordinates":[2445,6411]},{"type":"Point","properties":{"Station_ID":"GAYM4","Station_Nam":"GAYLORD","Latitude":"45.03320","Longitude":"-84.71130","Snowdepth":"8.000","Units":"in","Rept_Date":"2020-01-11 13"},"coordinates":[2865,5878]},{"type":"Point","properties":{"Station_ID":"ESGM1","Station_Nam":"EAST SANGERVILLE","Latitude":"45.13690","Longitude":"-69.28060","Snowdepth":"8.000","Units":"in","Rept_Date":"2020-01-11 12"},"coordinates":[6394,5942]},{"type":"Point","properties":{"Station_ID":"EPTW3","Station_Nam":"EAU PLEINE TENDER","Latitude":"44.77220","Longitude":"-89.76720","Snowdepth":"8.000","Units":"in","Rept_Date":"2020-01-11 13"},"coordinates":[1709,5717]},{"type":"Point","properties":{"Station_ID":"CAN-NB-18","Station_Nam":"MCLEOD HILL 1.1 ENE, CA","Latitude":"46.02725","Longitude":"-66.67460","Snowdepth":"8.000","Units":"in","Rept_Date":"2020-01-11 12"},"coordinates":[6990,6490]},{"type":"Point","properties":{"Station_ID":"BRAM1","Station_Nam":"BRASSUA DAM","Latitude":"45.66020","Longitude":"-69.81190","Snowdepth":"8.000","Units":"in","Rept_Date":"2020-01-11 12"},"coordinates":[6273,6264]},{"type":"Point","properties":{"Station_ID":"VT-WS-30","Station_Nam":"WOODBURY 3.4 NNW, VT","Latitude":"44.48825","Longitude":"-72.43258","Snowdepth":"7.500","Units":"in","Rept_Date":"2020-01-11 12"},"coordinates":[5673,5542]},{"type":"Point","properties":{"Station_ID":"SD-BK-2","Station_Nam":"ASTORIA 2.2 SSE, SD","Latitude":"44.53093","Longitude":"-96.52270","Snowdepth":"7.500","Units":"in","Rept_Date":"2020-01-11 13"},"coordinates":[164,5569]},{"type":"Point","properties":{"Station_ID":"NH-CS-7","Station_Nam":"LANCASTER 0.5 N, NH","Latitude":"44.49611","Longitude":"-71.57640","Snowdepth":"7.500","Units":"in","Rept_Date":"2020-01-11 12"},"coordinates":[5869,5547]},{"type":"Point","properties":{"Station_ID":"ME-YK-3","Station_Nam":"HOLLIS CENTER 5.4 NW, ME","Latitude":"43.64750","Longitude":"-70.67510","Snowdepth":"7.500","Units":"in","Rept_Date":"2020-01-11 12"},"coordinates":[6075,5025]},{"type":"Point","properties":{"Station_ID":"ME-CM-128","Station_Nam":"SOUTH PORTLAND 1.6 S, ME","Latitude":"43.60900","Longitude":"-70.28600","Snowdepth":"7.500","Units":"in","Rept_Date":"2020-01-11 12"},"coordinates":[6164,5001]},{"type":"Point","properties":{"Station_ID":"CAN-ON-245","Station_Nam":"PHELPSTON 3.1 ESE, CAN","Latitude":"44.50564","Longitude":"-79.81035","Snowdepth":"7.500","Units":"in","Rept_Date":"2020-01-11 13"},"coordinates":[3986,5553]},{"type":"Point","properties":{"Station_ID":"CAN-NS-142","Station_Nam":"MAHONE BAY 0.5 NE, CAN","Latitude":"44.45141","Longitude":"-64.37532","Snowdepth":"7.500","Units":"in","Rept_Date":"2020-01-11 12"},"coordinates":[7516,5520]},{"type":"Point","properties":{"Station_ID":"NY-HR-18","Station_Nam":"SALISBURY CENTER 1.8 NW, NY","Latitude":"43.16260","Longitude":"-74.80880","Snowdepth":"7.300","Units":"in","Rept_Date":"2020-01-11 11"},"coordinates":[5130,4726]},{"type":"Point","properties":{"Station_ID":"ME-CM-54","Station_Nam":"WINDHAM 3.9 NW, ME","Latitude":"43.85787","Longitude":"-70.46200","Snowdepth":"7.300","Units":"in","Rept_Date":"2020-01-11 12"},"coordinates":[6124,5154]},{"type":"Point","properties":{"Station_ID":"CAN-NS-159","Station_Nam":"NORTHPORT 0.1 NE, CAN","Latitude":"45.93299","Longitude":"-63.86711","Snowdepth":"7.300","Units":"in","Rept_Date":"2020-01-11 11"},"coordinates":[7632,6432]},{"type":"Point","properties":{"Station_ID":"WNDM1","Station_Nam":"WINDHAM 2NW","Latitude":"43.85670","Longitude":"-70.46630","Snowdepth":"7.000","Units":"in","Rept_Date":"2020-01-11 12"},"coordinates":[6123,5154]},{"type":"Point","properties":{"Station_ID":"WMRM5","Station_Nam":"WILLMAR 5N","Latitude":"45.19010","Longitude":"-95.05860","Snowdepth":"7.000","Units":"in","Rept_Date":"2020-01-11 12"},"coordinates":[498,5974]},{"type":"Point","properties":{"Station_ID":"WDOM5","Station_Nam":"WINDOM","Latitude":"43.87700","Longitude":"-95.11590","Snowdepth":"7.000","Units":"in","Rept_Date":"2020-01-11 14"},"coordinates":[485,5166]},{"type":"Point","properties":{"Station_ID":"VT-WS-19","Station_Nam":"WATERBURY 3.0 NW, VT","Latitude":"44.36060","Longitude":"-72.80770","Snowdepth":"7.000","Units":"in","Rept_Date":"2020-01-11 11"},"coordinates":[5588,5464]},{"type":"Point","properties":{"Station_ID":"VANM1","Station_Nam":"VAN BUREN","Latitude":"47.16600","Longitude":"-67.93900","Snowdepth":"7.000","Units":"in","Rept_Date":"2020-01-11 12"},"coordinates":[6701,7191]},{"type":"Point","properties":{"Station_ID":"TURM1","Station_Nam":"TURNER","Latitude":"44.28220","Longitude":"-70.25610","Snowdepth":"7.000","Units":"in","Rept_Date":"2020-01-11 12"},"coordinates":[6171,5416]},{"type":"Point","properties":{"Station_ID":"STRW3","Station_Nam":"STRATFORD 1NW","Latitude":"44.81750","Longitude":"-90.08990","Snowdepth":"7.000","Units":"in","Rept_Date":"2020-01-11 13"},"coordinates":[1635,5745]},{"type":"Point","properties":{"Station_ID":"SIBI4","Station_Nam":"SIBLEY","Latitude":"43.40470","Longitude":"-95.74830","Snowdepth":"7.000","Units":"in","Rept_Date":"2020-01-11 13"},"coordinates":[341,4875]},{"type":"Point","properties":{"Station_ID":"RSTW3","Station_Nam":"ROSHOLT","Latitude":"44.62710","Longitude":"-89.30600","Snowdepth":"7.000","Units":"in","Rept_Date":"2020-01-11 11"},"coordinates":[1814,5628]},{"type":"Point","properties":{"Station_ID":"ROWM3","Station_Nam":"ROWE 3NE","Latitude":"42.73500","Longitude":"-72.86920","Snowdepth":"7.000","Units":"in","Rept_Date":"2020-01-11 12"},"coordinates":[5573,4463]},{"type":"Point","properties":{"Station_ID":"RKWM1","Station_Nam":"MOOSEHEAD LAKE","Latitude":"45.58330","Longitude":"-69.71670","Snowdepth":"7.000","Units":"in","Rept_Date":"2020-01-11 12"},"coordinates":[6294,6217]},{"type":"Point","properties":{"Station_ID":"RFDM5","Station_Nam":"ROCKFORD","Latitude":"45.08960","Longitude":"-93.73990","Snowdepth":"7.000","Units":"in","Rept_Date":"2020-01-11 13"},"coordinates":[800,5913]},{"type":"Point","properties":{"Station_ID":"RFDM1","Station_Nam":"RUMFORD 7SW","Latitude":"44.49470","Longitude":"-70.65640","Snowdepth":"7.000","Units":"in","Rept_Date":"2020-01-11 13"},"coordinates":[6080,5546]},{"type":"Point","properties":{"Station_ID":"PWM","Station_Nam":"RESIDUAL OFFICE TO PORTLAND WSFO (GYX)","Latitude":"43.64610","Longitude":"-70.30920","Snowdepth":"7.000","Units":"in","Rept_Date":"2020-01-11 12"},"coordinates":[6159,5024]},{"type":"Point","properties":{"Station_ID":"POLM1","Station_Nam":"POLAND,ME","Latitude":"44.00750","Longitude":"-70.36190","Snowdepth":"7.000","Units":"in","Rept_Date":"2020-01-11 12"},"coordinates":[6147,5246]},{"type":"Point","properties":{"Station_ID":"PLFV1","Station_Nam":"PLAINFIELD","Latitude":"44.27610","Longitude":"-72.41500","Snowdepth":"7.000","Units":"in","Rept_Date":"2020-01-11 12"},"coordinates":[5677,5412]},{"type":"Point","properties":{"Station_ID":"NH-CR-9","Station_Nam":"MADISON 1.7 SE, NH","Latitude":"43.87928","Longitude":"-71.12660","Snowdepth":"7.000","Units":"in","Rept_Date":"2020-01-11 12"},"coordinates":[5972,5167]},{"type":"Point","properties":{"Station_ID":"NH-CR-15","Station_Nam":"JACKSON 3.7 NW, NH","Latitude":"44.19069","Longitude":"-71.22598","Snowdepth":"7.000","Units":"in","Rept_Date":"2020-01-11 12"},"coordinates":[5949,5359]},{"type":"Point","properties":{"Station_ID":"NH-BK-2","Station_Nam":"BELMONT 1.7 SW, NH","Latitude":"43.43556","Longitude":"-71.50690","Snowdepth":"7.000","Units":"in","Rept_Date":"2020-01-11 12"},"coordinates":[5885,4894]},{"type":"Point","properties":{"Station_ID":"NCKN6","Station_Nam":"NORTH CREEK 5 SE","Latitude":"43.66110","Longitude":"-73.89690","Snowdepth":"7.000","Units":"in","Rept_Date":"2020-01-11 12"},"coordinates":[5338,5033]},{"type":"Point","properties":{"Station_ID":"MRAM5","Station_Nam":"MORA","Latitude":"45.87760","Longitude":"-93.31470","Snowdepth":"7.000","Units":"in","Rept_Date":"2020-01-11 13"},"coordinates":[897,6398]},{"type":"Point","properties":{"Station_ID":"MRAM4","Station_Nam":"MORAN","Latitude":"45.99030","Longitude":"-84.83610","Snowdepth":"7.000","Units":"in","Rept_Date":"2020-01-11 13"},"coordinates":[2837,6467]},{"type":"Point","properties":{"Station_ID":"MN76ACVS","Station_Nam":"GRAND MARAIS 3.0 WNW","Latitude":"47.76602","Longitude":"-90.26427","Snowdepth":"7.000","Units":"in","Rept_Date":"2020-01-11 13"},"coordinates":[1595,7560]},{"type":"Point","properties":{"Station_ID":"MN-SR-29","Station_Nam":"ALBANY 3.8 S, MN","Latitude":"45.57441","Longitude":"-94.55543","Snowdepth":"7.000","Units":"in","Rept_Date":"2020-01-11 13"},"coordinates":[614,6211]},{"type":"Point","properties":{"Station_ID":"MIAM5","Station_Nam":"MILAN 1NW","Latitude":"45.12190","Longitude":"-95.92690","Snowdepth":"7.000","Units":"in","Rept_Date":"2020-01-12 00"},"coordinates":[300,5932]},{"type":"Point","properties":{"Station_ID":"MI-DL-4","Station_Nam":"GLADSTONE 2.1 SW, MI","Latitude":"45.83218","Longitude":"-87.05727","Snowdepth":"7.000","Units":"in","Rept_Date":"2020-01-11 12"},"coordinates":[2328,6370]},{"type":"Point","properties":{"Station_ID":"ME-YK-65","Station_Nam":"NORTH BERWICK 5.3 W, ME","Latitude":"43.29801","Longitude":"-70.83956","Snowdepth":"7.000","Units":"in","Rept_Date":"2020-01-11 13"},"coordinates":[6038,4810]},{"type":"Point","properties":{"Station_ID":"ME-FR-22","Station_Nam":"FARMINGTON 4.8 NNW, ME","Latitude":"44.73396","Longitude":"-70.18007","Snowdepth":"7.000","Units":"in","Rept_Date":"2020-01-11 14"},"coordinates":[6189,5694]},{"type":"Point","properties":{"Station_ID":"ME-CM-18","Station_Nam":"PORTLAND 5.5 WNW, ME","Latitude":"43.70288","Longitude":"-70.30550","Snowdepth":"7.000","Units":"in","Rept_Date":"2020-01-11 12"},"coordinates":[6160,5059]},{"type":"Point","properties":{"Station_ID":"ME-AN-41","Station_Nam":"AUBURN 2.1 NNW, ME","Latitude":"44.11275","Longitude":"-70.26452","Snowdepth":"7.000","Units":"in","Rept_Date":"2020-01-11 12"},"coordinates":[6169,5311]},{"type":"Point","properties":{"Station_ID":"LVRM1","Station_Nam":"LIVERMORE FALLS 1 E","Latitude":"44.47160","Longitude":"-70.15940","Snowdepth":"7.000","Units":"in","Rept_Date":"2020-01-11 12"},"coordinates":[6193,5532]},{"type":"Point","properties":{"Station_ID":"LPLN6","Station_Nam":"LAKE PLACID 2 S","Latitude":"44.30420","Longitude":"-73.98390","Snowdepth":"7.000","Units":"in","Rept_Date":"2020-01-11 13"},"coordinates":[5319,5429]},{"type":"Point","properties":{"Station_ID":"FORM5","Station_Nam":"FOREST LAKE 5NE","Latitude":"45.33170","Longitude":"-92.89820","Snowdepth":"7.000","Units":"in","Rept_Date":"2020-01-11 13"},"coordinates":[993,6062]},{"type":"Point","properties":{"Station_ID":"BRLN3","Station_Nam":"BERLIN","Latitude":"44.45350","Longitude":"-71.18540","Snowdepth":"7.000","Units":"in","Rept_Date":"2020-01-11 12"},"coordinates":[5959,5521]},{"type":"Point","properties":{"Station_ID":"BREW3","Station_Nam":"SURING","Latitude":"44.99580","Longitude":"-88.37860","Snowdepth":"7.000","Units":"in","Rept_Date":"2020-01-11 13"},"coordinates":[2026,5855]},{"type":"Point","properties":{"Station_ID":"ASTW3","Station_Nam":"ATHELSTANE","Latitude":"45.42500","Longitude":"-88.05750","Snowdepth":"7.000","Units":"in","Rept_Date":"2020-01-11 12"},"coordinates":[2100,6119]},{"type":"Point","properties":{"Station_ID":"ABGW3","Station_Nam":"AMBERG 9 E","Latitude":"45.48250","Longitude":"-87.81190","Snowdepth":"7.000","Units":"in","Rept_Date":"2020-01-11 12"},"coordinates":[2156,6155]},{"type":"Point","properties":{"Station_ID":"NH-MR-55","Station_Nam":"CANTERBURY 2.5 SSW, NH","Latitude":"43.30277","Longitude":"-71.57893","Snowdepth":"6.800","Units":"in","Rept_Date":"2020-01-11 13"},"coordinates":[5869,4813]},{"type":"Point","properties":{"Station_ID":"CAN-NB-98","Station_Nam":"HOYT 4.2 S, CAN","Latitude":"45.54763","Longitude":"-66.55440","Snowdepth":"6.700","Units":"in","Rept_Date":"2020-01-11 11"},"coordinates":[7018,6195]},{"type":"Point","properties":{"Station_ID":"VT-CL-23","Station_Nam":"RYEGATE 1.5 N, VT","Latitude":"44.23024","Longitude":"-72.10523","Snowdepth":"6.500","Units":"in","Rept_Date":"2020-01-11 12"},"coordinates":[5748,5384]},{"type":"Point","properties":{"Station_ID":"NH-MR-60","Station_Nam":"SOUTH SUTTON 1.3 SE, NH","Latitude":"43.29531","Longitude":"-71.90238","Snowdepth":"6.500","Units":"in","Rept_Date":"2020-01-11 13"},"coordinates":[5795,4808]},{"type":"Point","properties":{"Station_ID":"ME-PN-30","Station_Nam":"OLD TOWN 4.1 ESE, ME","Latitude":"44.93543","Longitude":"-68.65840","Snowdepth":"6.500","Units":"in","Rept_Date":"2020-01-11 12"},"coordinates":[6537,5818]},{"type":"Point","properties":{"Station_ID":"CAN-NB-97","Station_Nam":"NEW MARYLAND 0.6 NW, CAN","Latitude":"45.90112","Longitude":"-66.68739","Snowdepth":"6.500","Units":"in","Rept_Date":"2020-01-11 12"},"coordinates":[6987,6412]},{"type":"Point","properties":{"Station_ID":"WDSV1","Station_Nam":"WOODSTOCK","Latitude":"43.63030","Longitude":"-72.50720","Snowdepth":"6.000","Units":"in","Rept_Date":"2020-01-11 13"},"coordinates":[5656,5014]},{"type":"Point","properties":{"Station_ID":"VT-LM-7","Station_Nam":"HYDE PARK 2.9 NE, VT","Latitude":"44.62080","Longitude":"-72.57250","Snowdepth":"6.000","Units":"in","Rept_Date":"2020-01-11 13"},"coordinates":[5641,5624]},{"type":"Point","properties":{"Station_ID":"VT-LM-1","Station_Nam":"STOWE 0.2 SW, VT","Latitude":"44.46399","Longitude":"-72.69070","Snowdepth":"6.000","Units":"in","Rept_Date":"2020-01-11 12"},"coordinates":[5614,5527]},{"type":"Point","properties":{"Station_ID":"VT-AD-20","Station_Nam":"HANCOCK 0.3 S, VT","Latitude":"43.92166","Longitude":"-72.84042","Snowdepth":"6.000","Units":"in","Rept_Date":"2020-01-11 12"},"coordinates":[5580,5194]},{"type":"Point","properties":{"Station_ID":"NH-MR-4","Station_Nam":"BOW 1.6 NW, NH","Latitude":"43.14994","Longitude":"-71.55650","Snowdepth":"6.000","Units":"in","Rept_Date":"2020-01-11 12"},"coordinates":[5874,4718]},{"type":"Point","properties":{"Station_ID":"NH-MR-26","Station_Nam":"PITTSFIELD 0.2 SSW, NH","Latitude":"43.29880","Longitude":"-71.33450","Snowdepth":"6.000","Units":"in","Rept_Date":"2020-01-11 13"},"coordinates":[5924,4810]},{"type":"Point","properties":{"Station_ID":"NEDM1","Station_Nam":"CAPE NEDDICK","Latitude":"43.22410","Longitude":"-70.63880","Snowdepth":"6.000","Units":"in","Rept_Date":"2020-01-11 12"},"coordinates":[6084,4764]},{"type":"Point","properties":{"Station_ID":"MWTM1","Station_Nam":"MILLINOCKET WWTP","Latitude":"45.64030","Longitude":"-68.67480","Snowdepth":"6.000","Units":"in","Rept_Date":"2020-01-11 12"},"coordinates":[6533,6252]},{"type":"Point","properties":{"Station_ID":"MTQM4","Station_Nam":"MANISTIQUE WWTP","Latitude":"45.95120","Longitude":"-86.25130","Snowdepth":"6.000","Units":"in","Rept_Date":"2020-01-11 12"},"coordinates":[2513,6443]},{"type":"Point","properties":{"Station_ID":"MNEY8CTB","Station_Nam":"MIDLAND JUNCTION 2.2 ENE","Latitude":"44.33041","Longitude":"-91.95891","Snowdepth":"6.000","Units":"in","Rept_Date":"2020-01-11 14"},"coordinates":[1207,5445]},{"type":"Point","properties":{"Station_ID":"MN228YHJ","Station_Nam":"RICE 2.8 ESE","Latitude":"45.73609","Longitude":"-94.17230","Snowdepth":"6.000","Units":"in","Rept_Date":"2020-01-11 13"},"coordinates":[701,6311]},{"type":"Point","properties":{"Station_ID":"MN-HN-6","Station_Nam":"LONG LAKE 0.2 WSW, MN","Latitude":"44.98290","Longitude":"-93.57360","Snowdepth":"6.000","Units":"in","Rept_Date":"2020-01-11 14"},"coordinates":[838,5847]},{"type":"Point","properties":{"Station_ID":"MI-CP-7","Station_Nam":"DRUMMOND 2.9 NE, MI","Latitude":"46.05329","Longitude":"-83.69060","Snowdepth":"6.000","Units":"in","Rept_Date":"2020-01-11 14"},"coordinates":[3098,6506]},{"type":"Point","properties":{"Station_ID":"MEDN3","Station_Nam":"MEREDITH 3 NNE","Latitude":"43.69300","Longitude":"-71.47340","Snowdepth":"6.000","Units":"in","Rept_Date":"2020-01-12 05"},"coordinates":[5893,5053]},{"type":"Point","properties":{"Station_ID":"ME-YK-52","Station_Nam":"YORK 5.2 N, ME","Latitude":"43.23585","Longitude":"-70.63400","Snowdepth":"6.000","Units":"in","Rept_Date":"2020-01-11 12"},"coordinates":[6085,4771]},{"type":"Point","properties":{"Station_ID":"LEWM4","Station_Nam":"LEWISTON 3W","Latitude":"44.88210","Longitude":"-84.36540","Snowdepth":"6.000","Units":"in","Rept_Date":"2020-01-11 13"},"coordinates":[2944,5785]},{"type":"Point","properties":{"Station_ID":"GFDN6","Station_Nam":"CHASES LAKE","Latitude":"43.75920","Longitude":"-75.29980","Snowdepth":"6.000","Units":"in","Rept_Date":"2020-01-11 11"},"coordinates":[5018,5094]},{"type":"Point","properties":{"Station_ID":"EJDM4","Station_Nam":"EAST JORDAN","Latitude":"45.15190","Longitude":"-85.13220","Snowdepth":"6.000","Units":"in","Rept_Date":"2020-01-11 13"},"coordinates":[2769,5951]},{"type":"Point","properties":{"Station_ID":"EAU","Station_Nam":"CHIPPEWA VALLEY REGIONAL AIRPORT","Latitude":"44.86650","Longitude":"-91.48790","Snowdepth":"6.000","Units":"in","Rept_Date":"2020-01-12 00"},"coordinates":[1315,5775]},{"type":"Point","properties":{"Station_ID":"CON","Station_Nam":"CONCORD MUNI ARPT","Latitude":"43.20280","Longitude":"-71.50220","Snowdepth":"6.000","Units":"in","Rept_Date":"2020-01-11 12"},"coordinates":[5886,4751]},{"type":"Point","properties":{"Station_ID":"CAN-NS-56","Station_Nam":"HAMMOND PLAINS 2.9 WSW, CA","Latitude":"44.72456","Longitude":"-63.81920","Snowdepth":"6.000","Units":"in","Rept_Date":"2020-01-11 12"},"coordinates":[7643,5688]},{"type":"Point","properties":{"Station_ID":"BMRW3","Station_Nam":"BLOOMER","Latitude":"45.09070","Longitude":"-91.48640","Snowdepth":"6.000","Units":"in","Rept_Date":"2020-01-11 14"},"coordinates":[1315,5913]},{"type":"Point","properties":{"Station_ID":"CAN-QC-51","Station_Nam":"BELOEIL 0.7 NW, CAN","Latitude":"45.58049","Longitude":"-73.21218","Snowdepth":"5.900","Units":"in","Rept_Date":"2020-01-11 12"},"coordinates":[5495,6215]},{"type":"Point","properties":{"Station_ID":"CAN-NS-3","Station_Nam":"WOLFVILLE 7.1 ESE, CAN","Latitude":"45.07921","Longitude":"-64.27107","Snowdepth":"5.900","Units":"in","Rept_Date":"2020-01-11 11"},"coordinates":[7540,5906]},{"type":"Point","properties":{"Station_ID":"CAN-QC-47","Station_Nam":"SAINTE-FOY 1.8 ENE, CAN","Latitude":"46.76934","Longitude":"-71.27124","Snowdepth":"5.700","Units":"in","Rept_Date":"2020-01-11 12"},"coordinates":[5939,6947]},{"type":"Point","properties":{"Station_ID":"WI-PT-8","Station_Nam":"RUDOLPH 2.1 NNE, WI","Latitude":"44.52553","Longitude":"-89.78677","Snowdepth":"5.500","Units":"in","Rept_Date":"2020-01-11 11"},"coordinates":[1704,5565]},{"type":"Point","properties":{"Station_ID":"VT-BN-12","Station_Nam":"STAMFORD 5.0 NNE, VT","Latitude":"42.82000","Longitude":"-73.02000","Snowdepth":"5.500","Units":"in","Rept_Date":"2020-01-12 02"},"coordinates":[5539,4515]},{"type":"Point","properties":{"Station_ID":"MN-MC-16","Station_Nam":"HUTCHINSON 0.1 ENE, MN","Latitude":"44.88633","Longitude":"-94.37503","Snowdepth":"5.500","Units":"in","Rept_Date":"2020-01-11 13"},"coordinates":[655,5787]},{"type":"Point","properties":{"Station_ID":"ME-YK-28","Station_Nam":"BIDDEFORD 1.5 NNE, ME","Latitude":"43.48679","Longitude":"-70.43470","Snowdepth":"5.500","Units":"in","Rept_Date":"2020-01-11 12"},"coordinates":[6130,4926]},{"type":"Point","properties":{"Station_ID":"CAN-PE-36","Station_Nam":"SPRING VALLEY 1.5 SE - MCPEI, CAN","Latitude":"46.48997","Longitude":"-63.61226","Snowdepth":"5.500","Units":"in","Rept_Date":"2020-01-11 11"},"coordinates":[7691,6775]},{"type":"Point","properties":{"Station_ID":"CAN-NB-96","Station_Nam":"SAINT-IGNACE 2.6 NE, CAN","Latitude":"46.71424","Longitude":"-65.05609","Snowdepth":"5.500","Units":"in","Rept_Date":"2020-01-11 11"},"coordinates":[7360,6913]},{"type":"Point","properties":{"Station_ID":"YATK1","Station_Nam":"YATES CENTER","Latitude":"37.88310","Longitude":"-95.72760","Snowdepth":"5.000","Units":"in","Rept_Date":"2020-01-11 14"},"coordinates":[345,1476]},{"type":"Point","properties":{"Station_ID":"WSFW3","Station_Nam":"TOWN OF WESTFORD","Latitude":"43.47190","Longitude":"-88.88250","Snowdepth":"5.000","Units":"in","Rept_Date":"2020-01-11 13"},"coordinates":[1911,4917]},{"type":"Point","properties":{"Station_ID":"WNNM5","Station_Nam":"WINNEBAGO","Latitude":"43.76920","Longitude":"-94.18730","Snowdepth":"5.000","Units":"in","Rept_Date":"2020-01-11 14"},"coordinates":[698,5100]},{"type":"Point","properties":{"Station_ID":"WI-DN-15","Station_Nam":"MENOMONIE 0.9 NW, WI","Latitude":"44.89832","Longitude":"-91.92398","Snowdepth":"5.000","Units":"in","Rept_Date":"2020-01-11 13"},"coordinates":[1215,5795]},{"type":"Point","properties":{"Station_ID":"VT-WR-17","Station_Nam":"ROCHESTER 2.3 NE, VT","Latitude":"43.89418","Longitude":"-72.76992","Snowdepth":"5.000","Units":"in","Rept_Date":"2020-01-11 12"},"coordinates":[5596,5177]},{"type":"Point","properties":{"Station_ID":"SPCW3","Station_Nam":"SPENCER-WWTP","Latitude":"44.75390","Longitude":"-90.28920","Snowdepth":"5.000","Units":"in","Rept_Date":"2020-01-11 13"},"coordinates":[1589,5706]},{"type":"Point","properties":{"Station_ID":"PELW3","Station_Nam":"PELLA 3SE","Latitude":"44.73580","Longitude":"-88.73780","Snowdepth":"5.000","Units":"in","Rept_Date":"2020-01-11 11"},"coordinates":[1944,5695]},{"type":"Point","properties":{"Station_ID":"PEKN6","Station_Nam":"PECK LAKE","Latitude":"43.11500","Longitude":"-74.42360","Snowdepth":"5.000","Units":"in","Rept_Date":"2020-01-11 13"},"coordinates":[5218,4697]},{"type":"Point","properties":{"Station_ID":"ONAM4","Station_Nam":"ONAWAY 4N","Latitude":"45.41080","Longitude":"-84.22330","Snowdepth":"5.000","Units":"in","Rept_Date":"2020-01-11 23"},"coordinates":[2977,6110]},{"type":"Point","properties":{"Station_ID":"NY-FK-9","Station_Nam":"GABRIELS 1.3 SE, NY","Latitude":"44.41934","Longitude":"-74.16194","Snowdepth":"5.000","Units":"in","Rept_Date":"2020-01-11 12"},"coordinates":[5278,5500]},{"type":"Point","properties":{"Station_ID":"NWSM1","Station_Nam":"NEW SHARON","Latitude":"44.63520","Longitude":"-70.00020","Snowdepth":"5.000","Units":"in","Rept_Date":"2020-01-11 12"},"coordinates":[6230,5633]},{"type":"Point","properties":{"Station_ID":"NUMM5","Station_Nam":"NEW ULM 3SE","Latitude":"44.29450","Longitude":"-94.40840","Snowdepth":"5.000","Units":"in","Rept_Date":"2020-01-11 12"},"coordinates":[647,5423]},{"type":"Point","properties":{"Station_ID":"NH-RC-48","Station_Nam":"NORTHWOOD 2.9 WSW, NH","Latitude":"43.20114","Longitude":"-71.25750","Snowdepth":"5.000","Units":"in","Rept_Date":"2020-01-11 12"},"coordinates":[5942,4750]},{"type":"Point","properties":{"Station_ID":"NH-HL-48","Station_Nam":"GREENVILLE 1.1 ENE, NH","Latitude":"42.77674","Longitude":"-71.77990","Snowdepth":"5.000","Units":"in","Rept_Date":"2020-01-11 13"},"coordinates":[5823,4489]},{"type":"Point","properties":{"Station_ID":"MRLV1","Station_Nam":"MARLBORO","Latitude":"42.86000","Longitude":"-72.72000","Snowdepth":"5.000","Units":"in","Rept_Date":"2020-01-11 13"},"coordinates":[5608,4540]},{"type":"Point","properties":{"Station_ID":"MRFS2","Station_Nam":"MADISON,SD","Latitude":"44.00000","Longitude":"-97.23330","Snowdepth":"5.000","Units":"in","Rept_Date":"2020-01-11 15"},"coordinates":[1,5242]},{"type":"Point","properties":{"Station_ID":"MNE9SLWI","Station_Nam":"LEAVENWORTH 5.4 S","Latitude":"44.14481","Longitude":"-94.78882","Snowdepth":"5.000","Units":"in","Rept_Date":"2020-01-11 13"},"coordinates":[560,5331]},{"type":"Point","properties":{"Station_ID":"MN-RM-2","Station_Nam":"NORTH SAINT PAUL 1.0 NNW, MN","Latitude":"45.02629","Longitude":"-93.00790","Snowdepth":"5.000","Units":"in","Rept_Date":"2020-01-11 12"},"coordinates":[968,5874]},{"type":"Point","properties":{"Station_ID":"MN-DK-53","Station_Nam":"LAKEVILLE 3.8 ENE, MN","Latitude":"44.70423","Longitude":"-93.18460","Snowdepth":"5.000","Units":"in","Rept_Date":"2020-01-11 14"},"coordinates":[927,5675]},{"type":"Point","properties":{"Station_ID":"MN-CG-16","Station_Nam":"NORTH BRANCH 1.3 NNW, MN","Latitude":"45.53121","Longitude":"-92.97110","Snowdepth":"5.000","Units":"in","Rept_Date":"2020-01-11 12"},"coordinates":[976,6184]},{"type":"Point","properties":{"Station_ID":"MN-AA-76","Station_Nam":"NOWTHEN 2.9 SSE, MN","Latitude":"45.30360","Longitude":"-93.42620","Snowdepth":"5.000","Units":"in","Rept_Date":"2020-01-11 13"},"coordinates":[872,6044]},{"type":"Point","properties":{"Station_ID":"MLRM5","Station_Nam":"MELROSE","Latitude":"45.67710","Longitude":"-94.80200","Snowdepth":"5.000","Units":"in","Rept_Date":"2020-01-11 13"},"coordinates":[557,6274]},{"type":"Point","properties":{"Station_ID":"ME-LN-21","Station_Nam":"WESTPORT ISLAND 2.2 SSW, ME","Latitude":"43.88806","Longitude":"-69.70890","Snowdepth":"5.000","Units":"in","Rept_Date":"2020-01-11 13"},"coordinates":[6296,5173]},{"type":"Point","properties":{"Station_ID":"MA-WR-22","Station_Nam":"FITCHBURG 2.0 NNE, MA","Latitude":"42.61671","Longitude":"-71.80100","Snowdepth":"5.000","Units":"in","Rept_Date":"2020-01-11 13"},"coordinates":[5818,4390]},{"type":"Point","properties":{"Station_ID":"LOWN6","Station_Nam":"LOWVILLE","Latitude":"43.79280","Longitude":"-75.48290","Snowdepth":"5.000","Units":"in","Rept_Date":"2020-01-11 12"},"coordinates":[4976,5114]},{"type":"Point","properties":{"Station_ID":"LKFM5","Station_Nam":"LAKEFIELD,MN","Latitude":"43.68330","Longitude":"-95.18330","Snowdepth":"5.000","Units":"in","Rept_Date":"2020-01-11 13"},"coordinates":[470,5047]},{"type":"Point","properties":{"Station_ID":"LBKV1","Station_Nam":"LYE BROOK","Latitude":"43.05000","Longitude":"-73.03330","Snowdepth":"5.000","Units":"in","Rept_Date":"2020-01-12 06"},"coordinates":[5536,4657]},{"type":"Point","properties":{"Station_ID":"KIMM5","Station_Nam":"KIMBALL 3N","Latitude":"45.35330","Longitude":"-94.30560","Snowdepth":"5.000","Units":"in","Rept_Date":"2020-01-11 12"},"coordinates":[671,6075]},{"type":"Point","properties":{"Station_ID":"FCHM3","Station_Nam":"FITCHBURG COOP","Latitude":"42.61680","Longitude":"-71.80170","Snowdepth":"5.000","Units":"in","Rept_Date":"2020-01-11 13"},"coordinates":[5818,4390]},{"type":"Point","properties":{"Station_ID":"ELWW3","Station_Nam":"ELLSWORTH 1E","Latitude":"44.73030","Longitude":"-92.45860","Snowdepth":"5.000","Units":"in","Rept_Date":"2020-01-11 13"},"coordinates":[1093,5691]},{"type":"Point","properties":{"Station_ID":"CAN-PE-3","Station_Nam":"WELLINGTON 1.6 NE, CA","Latitude":"46.46672","Longitude":"-63.98920","Snowdepth":"5.000","Units":"in","Rept_Date":"2020-01-11 11"},"coordinates":[7604,6760]},{"type":"Point","properties":{"Station_ID":"WI-IW-7","Station_Nam":"DODGEVILLE 2.7 NE, WI","Latitude":"42.99414","Longitude":"-90.09488","Snowdepth":"4.500","Units":"in","Rept_Date":"2020-01-11 13"},"coordinates":[1634,4622]},{"type":"Point","properties":{"Station_ID":"MN-BW-8","Station_Nam":"COMFREY 6.5 ENE, MN","Latitude":"44.15109","Longitude":"-94.78516","Snowdepth":"4.500","Units":"in","Rept_Date":"2020-01-11 14"},"coordinates":[561,5335]},{"type":"Point","properties":{"Station_ID":"ME-WL-12","Station_Nam":"SEARSMONT 3.5 WNW, ME","Latitude":"44.37680","Longitude":"-69.26160","Snowdepth":"4.500","Units":"in","Rept_Date":"2020-01-11 12"},"coordinates":[6399,5474]},{"type":"Point","properties":{"Station_ID":"MA-FR-13","Station_Nam":"CONWAY 2.9 NW, MA","Latitude":"42.54419","Longitude":"-72.72743","Snowdepth":"4.500","Units":"in","Rept_Date":"2020-01-11 13"},"coordinates":[5606,4345]},{"type":"Point","properties":{"Station_ID":"WI-SC-24","Station_Nam":"DEER PARK 2.6 SSE, WI","Latitude":"45.15739","Longitude":"-92.35759","Snowdepth":"4.300","Units":"in","Rept_Date":"2020-01-11 13"},"coordinates":[1116,5954]},{"type":"Point","properties":{"Station_ID":"CAN-NS-160","Station_Nam":"DARTMOUTH 2.3 ENE, CAN","Latitude":"44.67708","Longitude":"-63.53360","Snowdepth":"4.300","Units":"in","Rept_Date":"2020-01-11 13"},"coordinates":[7709,5659]},{"type":"Point","properties":{"Station_ID":"IA-PK-83","Station_Nam":"ALTOONA 1.5 SSE, IA","Latitude":"41.63125","Longitude":"-93.46584","Snowdepth":"4.200","Units":"in","Rept_Date":"2020-01-11 13"},"coordinates":[863,3783]},{"type":"Point","properties":{"Station_ID":"CAN-NS-43","Station_Nam":"BEDFORD 0.6 WNW, CAN","Latitude":"44.72917","Longitude":"-63.67521","Snowdepth":"4.100","Units":"in","Rept_Date":"2020-01-11 12"},"coordinates":[7676,5691]},{"type":"Point","properties":{"Station_ID":"WI-PC-5","Station_Nam":"RIVER FALLS 1.2 SSW, WI","Latitude":"44.84032","Longitude":"-92.63500","Snowdepth":"4.000","Units":"in","Rept_Date":"2020-01-11 13"},"coordinates":[1053,5759]},{"type":"Point","properties":{"Station_ID":"WACM5","Station_Nam":"WACONIA","Latitude":"44.85330","Longitude":"-93.80260","Snowdepth":"4.000","Units":"in","Rept_Date":"2020-01-11 12"},"coordinates":[786,5767]},{"type":"Point","properties":{"Station_ID":"VT-WH-29","Station_Nam":"BRATTLEBORO 0.7 S, VT","Latitude":"42.84030","Longitude":"-72.55580","Snowdepth":"4.000","Units":"in","Rept_Date":"2020-01-11 12"},"coordinates":[5645,4528]},{"type":"Point","properties":{"Station_ID":"THLM5","Station_Nam":"THEILMAN 1SSW","Latitude":"44.28130","Longitude":"-92.19430","Snowdepth":"4.000","Units":"in","Rept_Date":"2020-01-11 13"},"coordinates":[1154,5415]},{"type":"Point","properties":{"Station_ID":"TCEM4","Station_Nam":"TRAVERSE CITY 5ESE","Latitude":"44.73370","Longitude":"-85.51180","Snowdepth":"4.000","Units":"in","Rept_Date":"2020-01-11 12"},"coordinates":[2682,5693]},{"type":"Point","properties":{"Station_ID":"SLNV1","Station_Nam":"SOUTH LINCOLN","Latitude":"44.07460","Longitude":"-72.97180","Snowdepth":"4.000","Units":"in","Rept_Date":"2020-01-11 12"},"coordinates":[5550,5288]},{"type":"Point","properties":{"Station_ID":"SJBV1","Station_Nam":"SAINT JOHNSBURY","Latitude":"44.42000","Longitude":"-72.01940","Snowdepth":"4.000","Units":"in","Rept_Date":"2020-01-11 21"},"coordinates":[5768,5500]},{"type":"Point","properties":{"Station_ID":"SD-MH-41","Station_Nam":"SIOUX FALLS 3.9 SW, SD","Latitude":"43.50475","Longitude":"-96.78660","Snowdepth":"4.000","Units":"in","Rept_Date":"2020-01-11 13"},"coordinates":[103,4937]},{"type":"Point","properties":{"Station_ID":"PIPM5","Station_Nam":"PIPESTONE,MN","Latitude":"44.01390","Longitude":"-96.32580","Snowdepth":"4.000","Units":"in","Rept_Date":"2020-01-11 14"},"coordinates":[209,5250]},{"type":"Point","properties":{"Station_ID":"OCON6","Station_Nam":"OSCEOLA","Latitude":"43.49910","Longitude":"-75.71210","Snowdepth":"4.000","Units":"in","Rept_Date":"2020-01-11 12"},"coordinates":[4923,4933]},{"type":"Point","properties":{"Station_ID":"NY-OD-2","Station_Nam":"POINT ROCK 0.6 SE, NY","Latitude":"43.37335","Longitude":"-75.53840","Snowdepth":"4.000","Units":"in","Rept_Date":"2020-01-11 13"},"coordinates":[4963,4856]},{"type":"Point","properties":{"Station_ID":"NWTI4","Station_Nam":"NEWTON,IA","Latitude":"41.70000","Longitude":"-93.05000","Snowdepth":"4.000","Units":"in","Rept_Date":"2020-01-11 13"},"coordinates":[958,3826]},{"type":"Point","properties":{"Station_ID":"NVLV1","Station_Nam":"NASHVILLE","Latitude":"44.44970","Longitude":"-72.92640","Snowdepth":"4.000","Units":"in","Rept_Date":"2020-01-11 12"},"coordinates":[5560,5519]},{"type":"Point","properties":{"Station_ID":"NH-HL-25","Station_Nam":"AMHERST 3.7 NNE, NH","Latitude":"42.91409","Longitude":"-71.61020","Snowdepth":"4.000","Units":"in","Rept_Date":"2020-01-11 11"},"coordinates":[5861,4573]},{"type":"Point","properties":{"Station_ID":"NCYN1","Station_Nam":"NEBRASKA CITY,NE","Latitude":"40.70000","Longitude":"-95.86670","Snowdepth":"4.000","Units":"in","Rept_Date":"2020-01-11 13"},"coordinates":[314,3210]},