{"type":"Topology","objects":{"snowdepth_geo":{"type":"GeometryCollection","name":"snowdepth","crs":{"type":"name","properties":{"name":"urn:ogc:def:crs:OGC:1.3:CRS84"}},"geometries":[{"type":"Point","properties":{"Station_ID":"PRKM4","Station_Nam":"MUNISING EAST","Latitude":"46.42580","Longitude":"-86.62000","Snowdepth":"76.500","Units":"in","Rept_Date":"2021-02-14 06"},"coordinates":[2389,6717]},{"type":"Point","properties":{"Station_ID":"PDLM4","Station_Nam":"PAINESDALE","Latitude":"47.04160","Longitude":"-88.67170","Snowdepth":"46.000","Units":"in","Rept_Date":"2021-02-13 13"},"coordinates":[1928,7098]},{"type":"Point","properties":{"Station_ID":"MMNV1","Station_Nam":"MT. MANSFIELD","Latitude":"44.52480","Longitude":"-72.81540","Snowdepth":"46.000","Units":"in","Rept_Date":"2021-02-13 21"},"coordinates":[5495,5539]},{"type":"Point","properties":{"Station_ID":"HTLN3","Station_Nam":"HERMIT LAKE SNOWPLOT","Latitude":"44.26130","Longitude":"-71.28330","Snowdepth":"44.000","Units":"in","Rept_Date":"2021-02-13 10"},"coordinates":[5840,5376]},{"type":"Point","properties":{"Station_ID":"KSGM4","Station_Nam":"KEARSARGE","Latitude":"47.27520","Longitude":"-88.41700","Snowdepth":"42.000","Units":"in","Rept_Date":"2021-02-13 13"},"coordinates":[1985,7242]},{"type":"Point","properties":{"Station_ID":"HLSN3","Station_Nam":"HERMIT LAKE SNOTEL","Latitude":"44.26130","Longitude":"-71.28320","Snowdepth":"39.090","Units":"in","Rept_Date":"2021-02-14 06"},"coordinates":[5840,5376]},{"type":"Point","properties":{"Station_ID":"QNCM4","Station_Nam":"QUINCY HILL","Latitude":"47.13640","Longitude":"-88.57950","Snowdepth":"37.000","Units":"in","Rept_Date":"2021-02-13 12"},"coordinates":[1948,7157]},{"type":"Point","properties":{"Station_ID":"MI-HG-20","Station_Nam":"CALUMET 1.1 SSW, MI","Latitude":"47.23165","Longitude":"-88.45823","Snowdepth":"36.000","Units":"in","Rept_Date":"2021-02-13 11"},"coordinates":[1976,7216]},{"type":"Point","properties":{"Station_ID":"HGHN6","Station_Nam":"HIGHMARKET","Latitude":"43.60510","Longitude":"-75.55430","Snowdepth":"35.000","Units":"in","Rept_Date":"2021-02-13 11"},"coordinates":[4879,4970]},{"type":"Point","properties":{"Station_ID":"PTLQ6","Station_Nam":"PORTAGE LAKE","Latitude":"49.06950","Longitude":"-86.65940","Snowdepth":"33.500","Units":"in","Rept_Date":"2021-02-14 06"},"coordinates":[2380,8354]},{"type":"Point","properties":{"Station_ID":"GNLM4","Station_Nam":"GREENLAND 6N","Latitude":"46.87360","Longitude":"-89.10060","Snowdepth":"32.000","Units":"in","Rept_Date":"2021-02-13 13"},"coordinates":[1831,6994]},{"type":"Point","properties":{"Station_ID":"MI-KW-2","Station_Nam":"DELAWARE 5.2 SW, MI","Latitude":"47.36928","Longitude":"-88.17919","Snowdepth":"30.000","Units":"in","Rept_Date":"2021-02-13 09"},"coordinates":[2038,7301]},{"type":"Point","properties":{"Station_ID":"NH-CS-10","Station_Nam":"RANDOLPH 1.4 NE, NH","Latitude":"44.38824","Longitude":"-71.26950","Snowdepth":"29.000","Units":"in","Rept_Date":"2021-02-13 12"},"coordinates":[5843,5455]},{"type":"Point","properties":{"Station_ID":"TRIQ6","Station_Nam":"TRIO LAKE","Latitude":"49.22880","Longitude":"-87.22920","Snowdepth":"28.430","Units":"in","Rept_Date":"2021-02-14 06"},"coordinates":[2252,8452]},{"type":"Point","properties":{"Station_ID":"PERV1","Station_Nam":"PERU","Latitude":"43.26670","Longitude":"-72.90000","Snowdepth":"28.000","Units":"in","Rept_Date":"2021-02-13 12"},"coordinates":[5476,4760]},{"type":"Point","properties":{"Station_ID":"DVLQ6","Station_Nam":"DEVIOUS LAKE","Latitude":"49.19890","Longitude":"-87.76440","Snowdepth":"27.800","Units":"in","Rept_Date":"2021-02-14 06"},"coordinates":[2132,8434]},{"type":"Point","properties":{"Station_ID":"WNDP1","Station_Nam":"WINDBER COUNTY CLUB","Latitude":"40.28780","Longitude":"-78.77530","Snowdepth":"26.000","Units":"in","Rept_Date":"2021-02-13 12"},"coordinates":[4154,2916]},{"type":"Point","properties":{"Station_ID":"LBKV1","Station_Nam":"LYE BROOK","Latitude":"43.05000","Longitude":"-73.03330","Snowdepth":"26.000","Units":"in","Rept_Date":"2021-02-14 06"},"coordinates":[5446,4626]},{"type":"Point","properties":{"Station_ID":"NY-HR-18","Station_Nam":"SALISBURY CENTER 1.8 NW, NY","Latitude":"43.16260","Longitude":"-74.80880","Snowdepth":"25.500","Units":"in","Rept_Date":"2021-02-13 10"},"coordinates":[5047,4696]},{"type":"Point","properties":{"Station_ID":"AUDQ6","Station_Nam":"AUDEN","Latitude":"48.52600","Longitude":"-82.57570","Snowdepth":"25.120","Units":"in","Rept_Date":"2021-02-14 06"},"coordinates":[3299,8017]},{"type":"Point","properties":{"Station_ID":"QGO","Station_Nam":"QGO","Latitude":"48.85500","Longitude":"-74.20640","Snowdepth":"25.079","Units":"in","Rept_Date":"2021-02-13 12"},"coordinates":[5182,8221]},{"type":"Point","properties":{"Station_ID":"VT-BN-3","Station_Nam":"LANDGROVE 1.1 NNE, VT","Latitude":"43.29092","Longitude":"-72.83260","Snowdepth":"25.000","Units":"in","Rept_Date":"2021-02-13 12"},"coordinates":[5491,4775]},{"type":"Point","properties":{"Station_ID":"VA-ND-2","Station_Nam":"LOTTSBURG 2.3 NNE, VA","Latitude":"37.99278","Longitude":"-76.50920","Snowdepth":"25.000","Units":"in","Rept_Date":"2021-02-13 12"},"coordinates":[4664,1495]},{"type":"Point","properties":{"Station_ID":"MI-EM-8","Station_Nam":"PETOSKEY 1.7 SSW, MI","Latitude":"45.34209","Longitude":"-84.96530","Snowdepth":"25.000","Units":"in","Rept_Date":"2021-02-13 17"},"coordinates":[2761,6045]},{"type":"Point","properties":{"Station_ID":"GMSM4","Station_Nam":"GRAND MARAIS 10S","Latitude":"46.50940","Longitude":"-85.96310","Snowdepth":"25.000","Units":"in","Rept_Date":"2021-02-13 12"},"coordinates":[2537,6768]},{"type":"Point","properties":{"Station_ID":"BRAM1","Station_Nam":"BRASSUA DAM","Latitude":"45.66020","Longitude":"-69.81190","Snowdepth":"25.000","Units":"in","Rept_Date":"2021-02-13 12"},"coordinates":[6171,6242]},{"type":"Point","properties":{"Station_ID":"QLB","Station_Nam":"QLB","Latitude":"50.72360","Longitude":"-75.10000","Snowdepth":"24.842","Units":"in","Rept_Date":"2021-02-13 12"},"coordinates":[4981,9378]},{"type":"Point","properties":{"Station_ID":"VT-WH-19","Station_Nam":"EAST DOVER 1.8 N, VT","Latitude":"42.97658","Longitude":"-72.77637","Snowdepth":"24.000","Units":"in","Rept_Date":"2021-02-13 13"},"coordinates":[5504,4581]},{"type":"Point","properties":{"Station_ID":"ROWM3","Station_Nam":"ROWE 3NE","Latitude":"42.73500","Longitude":"-72.86920","Snowdepth":"24.000","Units":"in","Rept_Date":"2021-02-13 12"},"coordinates":[5483,4431]},{"type":"Point","properties":{"Station_ID":"ME-FR-2","Station_Nam":"TEMPLE 1.8 W, ME","Latitude":"44.68329","Longitude":"-70.26420","Snowdepth":"24.000","Units":"in","Rept_Date":"2021-02-13 12"},"coordinates":[6069,5638]},{"type":"Point","properties":{"Station_ID":"JEFV1","Station_Nam":"JEFFERSONVILLE","Latitude":"44.58430","Longitude":"-72.78700","Snowdepth":"24.000","Units":"in","Rept_Date":"2021-02-13 12"},"coordinates":[5501,5576]},{"type":"Point","properties":{"Station_ID":"GHMN3","Station_Nam":"PINKHAM NOTCH","Latitude":"44.25800","Longitude":"-71.25250","Snowdepth":"24.000","Units":"in","Rept_Date":"2021-02-13 10"},"coordinates":[5847,5374]},{"type":"Point","properties":{"Station_ID":"GFDN6","Station_Nam":"CHASES LAKE","Latitude":"43.75920","Longitude":"-75.29980","Snowdepth":"24.000","Units":"in","Rept_Date":"2021-02-13 11"},"coordinates":[4936,5065]},{"type":"Point","properties":{"Station_ID":"VT-WR-17","Station_Nam":"ROCHESTER 2.3 NE, VT","Latitude":"43.89418","Longitude":"-72.76992","Snowdepth":"23.500","Units":"in","Rept_Date":"2021-02-13 12"},"coordinates":[5505,5149]},{"type":"Point","properties":{"Station_ID":"NY-LW-12","Station_Nam":"CHASES LAKE COOP, NY","Latitude":"43.75924","Longitude":"-75.29982","Snowdepth":"23.500","Units":"in","Rept_Date":"2021-02-13 11"},"coordinates":[4936,5065]},{"type":"Point","properties":{"Station_ID":"OCON6","Station_Nam":"OSCEOLA","Latitude":"43.50370","Longitude":"-75.72170","Snowdepth":"23.000","Units":"in","Rept_Date":"2021-02-13 13"},"coordinates":[4841,4907]},{"type":"Point","properties":{"Station_ID":"NE-SN-3","Station_Nam":"WESTON 0.2 ENE, NE","Latitude":"41.19322","Longitude":"-96.73740","Snowdepth":"23.000","Units":"in","Rept_Date":"2021-02-13 12"},"coordinates":[113,3476]},{"type":"Point","properties":{"Station_ID":"MNSM4","Station_Nam":"MUNISING","Latitude":"46.41210","Longitude":"-86.66250","Snowdepth":"23.000","Units":"in","Rept_Date":"2021-02-13 11"},"coordinates":[2380,6708]},{"type":"Point","properties":{"Station_ID":"LVDW3","Station_Nam":"LAC VIEUX DESERT","Latitude":"46.12110","Longitude":"-89.07580","Snowdepth":"23.000","Units":"in","Rept_Date":"2021-02-13 15"},"coordinates":[1837,6528]},{"type":"Point","properties":{"Station_ID":"LPLN6","Station_Nam":"LAKE PLACID 2 S","Latitude":"44.30420","Longitude":"-73.98390","Snowdepth":"23.000","Units":"in","Rept_Date":"2021-02-13 13"},"coordinates":[5232,5403]},{"type":"Point","properties":{"Station_ID":"HERM4","Station_Nam":"HERMAN,MI","Latitude":"46.65000","Longitude":"-88.33330","Snowdepth":"23.000","Units":"in","Rept_Date":"2021-02-13 15"},"coordinates":[2004,6855]},{"type":"Point","properties":{"Station_ID":"QCU","Station_Nam":"QCU","Latitude":"47.82750","Longitude":"-76.59830","Snowdepth":"22.874","Units":"in","Rept_Date":"2021-02-13 12"},"coordinates":[4644,7584]},{"type":"Point","properties":{"Station_ID":"NY-HM-10","Station_Nam":"LAKE PLEASANT 2.3 WSW, NY","Latitude":"43.45490","Longitude":"-74.45287","Snowdepth":"22.500","Units":"in","Rept_Date":"2021-02-13 12"},"coordinates":[5127,4877]},{"type":"Point","properties":{"Station_ID":"IL-CK-193","Station_Nam":"WINNETKA 0.8 ESE, IL","Latitude":"42.10164","Longitude":"-87.72900","Snowdepth":"22.400","Units":"in","Rept_Date":"2021-02-13 14"},"coordinates":[2140,4039]},{"type":"Point","properties":{"Station_ID":"PTBN3","Station_Nam":"PITTSBURG RESERVOIR","Latitude":"45.04690","Longitude":"-71.38300","Snowdepth":"22.000","Units":"in","Rept_Date":"2021-02-13 12"},"coordinates":[5817,5863]},{"type":"Point","properties":{"Station_ID":"NY-FK-9","Station_Nam":"GABRIELS 1.3 SE, NY","Latitude":"44.41934","Longitude":"-74.16194","Snowdepth":"22.000","Units":"in","Rept_Date":"2021-02-13 12"},"coordinates":[5192,5474]},{"type":"Point","properties":{"Station_ID":"NY-ES-11","Station_Nam":"VERMONTVILLE 2.8 S, NY","Latitude":"44.41205","Longitude":"-74.06760","Snowdepth":"22.000","Units":"in","Rept_Date":"2021-02-13 12"},"coordinates":[5213,5470]},{"type":"Point","properties":{"Station_ID":"FISM1","Station_Nam":"FORT KENT COOP","Latitude":"47.23850","Longitude":"-68.61240","Snowdepth":"22.000","Units":"in","Rept_Date":"2021-02-13 12"},"coordinates":[6441,7220]},{"type":"Point","properties":{"Station_ID":"VT-WS-33","Station_Nam":"WAITSFIELD 3.5 WNW, VT","Latitude":"44.20052","Longitude":"-72.89421","Snowdepth":"21.500","Units":"in","Rept_Date":"2021-02-13 13"},"coordinates":[5477,5339]},{"type":"Point","properties":{"Station_ID":"NJ-SS-54","Station_Nam":"SPARTA TWP 3.6 SSW, NJ","Latitude":"41.00503","Longitude":"-74.66358","Snowdepth":"21.500","Units":"in","Rept_Date":"2021-02-13 12"},"coordinates":[5079,3360]},{"type":"Point","properties":{"Station_ID":"NH-MR-41","Station_Nam":"NEWBURY 1.6 NW, NH","Latitude":"43.33667","Longitude":"-72.06060","Snowdepth":"21.500","Units":"in","Rept_Date":"2021-02-13 12"},"coordinates":[5665,4804]},{"type":"Point","properties":{"Station_ID":"ME-SM-45","Station_Nam":"BRIGHTON PLANTATION 2.1 N, ME","Latitude":"45.07098","Longitude":"-69.69860","Snowdepth":"21.500","Units":"in","Rept_Date":"2021-02-13 12"},"coordinates":[6196,5878]},{"type":"Point","properties":{"Station_ID":"MA-WR-56","Station_Nam":"STERLING 4.3 NW, MA","Latitude":"42.47540","Longitude":"-71.81140","Snowdepth":"21.500","Units":"in","Rept_Date":"2021-02-13 12"},"coordinates":[5721,4270]},{"type":"Point","properties":{"Station_ID":"IA-BC-9","Station_Nam":"WINTHROP 5.6 NNE, IA","Latitude":"42.55206","Longitude":"-91.70663","Snowdepth":"21.300","Units":"in","Rept_Date":"2021-02-13 15"},"coordinates":[1245,4318]},{"type":"Point","properties":{"Station_ID":"QFT","Station_Nam":"QFT","Latitude":"50.83280","Longitude":"-74.40390","Snowdepth":"21.024","Units":"in","Rept_Date":"2021-02-13 12"},"coordinates":[5138,9445]},{"type":"Point","properties":{"Station_ID":"WLFM5","Station_Nam":"WOLF RIDGE ENVIRON LEARNING CENTER","Latitude":"47.38240","Longitude":"-91.19730","Snowdepth":"21.000","Units":"in","Rept_Date":"2021-02-13 13"},"coordinates":[1359,7309]},{"type":"Point","properties":{"Station_ID":"WAIV1","Station_Nam":"WAITSFIELD","Latitude":"44.17560","Longitude":"-72.79610","Snowdepth":"21.000","Units":"in","Rept_Date":"2021-02-13 12"},"coordinates":[5499,5323]},{"type":"Point","properties":{"Station_ID":"VT-WS-11","Station_Nam":"WAITSFIELD 1.8 SE, VT","Latitude":"44.17551","Longitude":"-72.79540","Snowdepth":"21.000","Units":"in","Rept_Date":"2021-02-13 12"},"coordinates":[5500,5323]},{"type":"Point","properties":{"Station_ID":"VT-WR-2","Station_Nam":"POMFRET 2.6 N, VT","Latitude":"43.74230","Longitude":"-72.52550","Snowdepth":"21.000","Units":"in","Rept_Date":"2021-02-13 12"},"coordinates":[5560,5055]},{"type":"Point","properties":{"Station_ID":"VT-WH-30","Station_Nam":"MARLBORO 2.0 NNE, VT","Latitude":"42.88484","Longitude":"-72.70935","Snowdepth":"21.000","Units":"in","Rept_Date":"2021-02-13 13"},"coordinates":[5519,4524]},{"type":"Point","properties":{"Station_ID":"RKWM1","Station_Nam":"MOOSEHEAD LAKE","Latitude":"45.58330","Longitude":"-69.71670","Snowdepth":"21.000","Units":"in","Rept_Date":"2021-02-13 12"},"coordinates":[6192,6195]},{"type":"Point","properties":{"Station_ID":"NY-CL-12","Station_Nam":"SARANAC 0.8 SSE, NY","Latitude":"44.63980","Longitude":"-73.73848","Snowdepth":"21.000","Units":"in","Rept_Date":"2021-02-13 12"},"coordinates":[5287,5611]},{"type":"Point","properties":{"Station_ID":"NH-CR-26","Station_Nam":"CENTER SANDWICH 4.9 E, NH","Latitude":"43.80976","Longitude":"-71.34150","Snowdepth":"21.000","Units":"in","Rept_Date":"2021-02-13 12"},"coordinates":[5827,5097]},{"type":"Point","properties":{"Station_ID":"MRLV1","Station_Nam":"MARLBORO","Latitude":"42.86000","Longitude":"-72.72000","Snowdepth":"21.000","Units":"in","Rept_Date":"2021-02-13 13"},"coordinates":[5517,4509]},{"type":"Point","properties":{"Station_ID":"MONW3","Station_Nam":"MONROE,WI","Latitude":"42.60000","Longitude":"-89.66670","Snowdepth":"21.000","Units":"in","Rept_Date":"2021-02-13 13"},"coordinates":[1704,4348]},{"type":"Point","properties":{"Station_ID":"MALN6","Station_Nam":"MALONE","Latitude":"44.84180","Longitude":"-74.30600","Snowdepth":"21.000","Units":"in","Rept_Date":"2021-02-13 12"},"coordinates":[5160,5736]},{"type":"Point","properties":{"Station_ID":"MA-HS-7","Station_Nam":"PLAINFIELD 2.2 SW, MA","Latitude":"42.49272","Longitude":"-72.94540","Snowdepth":"21.000","Units":"in","Rept_Date":"2021-02-13 13"},"coordinates":[5466,4281]},{"type":"Point","properties":{"Station_ID":"IL-SP-27","Station_Nam":"DAVIS 2.7 N, IL","Latitude":"42.46110","Longitude":"-89.40890","Snowdepth":"21.000","Units":"in","Rept_Date":"2021-02-13 13"},"coordinates":[1762,4262]},{"type":"Point","properties":{"Station_ID":"ESDN3","Station_Nam":"EAST SANDWICH","Latitude":"43.80990","Longitude":"-71.34250","Snowdepth":"21.000","Units":"in","Rept_Date":"2021-02-13 11"},"coordinates":[5826,5097]},{"type":"Point","properties":{"Station_ID":"CHRM4","Station_Nam":"CHARLEVOIX","Latitude":"45.31720","Longitude":"-85.26720","Snowdepth":"21.000","Units":"in","Rept_Date":"2021-02-13 13"},"coordinates":[2693,6030]},{"type":"Point","properties":{"Station_ID":"QTM","Station_Nam":"QTM","Latitude":"51.05780","Longitude":"-72.57190","Snowdepth":"20.669","Units":"in","Rept_Date":"2021-02-13 12"},"coordinates":[5550,9585]},{"type":"Point","properties":{"Station_ID":"MI-SH-1","Station_Nam":"MANISTIQUE 2.7 NW, MI","Latitude":"45.99042","Longitude":"-86.28266","Snowdepth":"20.500","Units":"in","Rept_Date":"2021-02-13 11"},"coordinates":[2465,6447]},{"type":"Point","properties":{"Station_ID":"IL-DP-155","Station_Nam":"MEDINAH 1.0 SSW, IL","Latitude":"41.96360","Longitude":"-88.06590","Snowdepth":"20.500","Units":"in","Rept_Date":"2021-02-13 14"},"coordinates":[2064,3954]},{"type":"Point","properties":{"Station_ID":"CAN-NL-11","Station_Nam":"MOUNT PEARL 2.1 SSE, CA","Latitude":"47.50347","Longitude":"-52.79730","Snowdepth":"20.300","Units":"in","Rept_Date":"2021-02-13 11"},"coordinates":[9999,7384]},{"type":"Point","properties":{"Station_ID":"VT-WS-19","Station_Nam":"WATERBURY 3.0 NW, VT","Latitude":"44.36060","Longitude":"-72.80770","Snowdepth":"20.000","Units":"in","Rept_Date":"2021-02-13 11"},"coordinates":[5497,5438]},{"type":"Point","properties":{"Station_ID":"VT-OL-1","Station_Nam":"WESTFIELD 0.7 WNW, VT","Latitude":"44.89160","Longitude":"-72.44350","Snowdepth":"20.000","Units":"in","Rept_Date":"2021-02-13 12"},"coordinates":[5579,5767]},{"type":"Point","properties":{"Station_ID":"TOPN6","Station_Nam":"TUPPER LAKE SUNMOUNT","Latitude":"44.23070","Longitude":"-74.43820","Snowdepth":"20.000","Units":"in","Rept_Date":"2021-02-13 12"},"coordinates":[5130,5357]},{"type":"Point","properties":{"Station_ID":"RKHN6","Station_Nam":"ROCK HILL 3 SW","Latitude":"41.59170","Longitude":"-74.61410","Snowdepth":"20.000","Units":"in","Rept_Date":"2021-02-13 12"},"coordinates":[5090,3723]},{"type":"Point","properties":{"Station_ID":"PHON6","Station_Nam":"PHOENICIA 2SW","Latitude":"42.06420","Longitude":"-74.34080","Snowdepth":"20.000","Units":"in","Rept_Date":"2021-02-13 12"},"coordinates":[5152,4016]},{"type":"Point","properties":{"Station_ID":"PEKN6","Station_Nam":"PECK LAKE","Latitude":"43.11500","Longitude":"-74.42360","Snowdepth":"20.000","Units":"in","Rept_Date":"2021-02-13 12"},"coordinates":[5133,4666]},{"type":"Point","properties":{"Station_ID":"NY-OD-2","Station_Nam":"POINT ROCK 0.6 SE, NY","Latitude":"43.37335","Longitude":"-75.53840","Snowdepth":"20.000","Units":"in","Rept_Date":"2021-02-13 13"},"coordinates":[4882,4826]},{"type":"Point","properties":{"Station_ID":"MI-BG-3","Station_Nam":"THREE LAKES, MI","Latitude":"46.55730","Longitude":"-88.20770","Snowdepth":"20.000","Units":"in","Rept_Date":"2021-02-13 13"},"coordinates":[2032,6798]},{"type":"Point","properties":{"Station_ID":"MHRI4","Station_Nam":"MANCHESTER #2","Latitude":"42.47320","Longitude":"-91.45160","Snowdepth":"20.000","Units":"in","Rept_Date":"2021-02-13 13"},"coordinates":[1302,4269]},{"type":"Point","properties":{"Station_ID":"LOWN6","Station_Nam":"LOWVILLE","Latitude":"43.79280","Longitude":"-75.48290","Snowdepth":"20.000","Units":"in","Rept_Date":"2021-02-13 12"},"coordinates":[4895,5086]},{"type":"Point","properties":{"Station_ID":"IWOM4","Station_Nam":"IRONWOOD#2","Latitude":"46.46520","Longitude":"-90.13820","Snowdepth":"20.000","Units":"in","Rept_Date":"2021-02-13 13"},"coordinates":[1598,6741]},{"type":"Point","properties":{"Station_ID":"IL-JD-8","Station_Nam":"STOCKTON 3.4 NNE, IL","Latitude":"42.39960","Longitude":"-89.99020","Snowdepth":"20.000","Units":"in","Rept_Date":"2021-02-13 13"},"coordinates":[1631,4223]},{"type":"Point","properties":{"Station_ID":"HURW3","Station_Nam":"HURLEY","Latitude":"46.46250","Longitude":"-90.19550","Snowdepth":"20.000","Units":"in","Rept_Date":"2021-02-13 14"},"coordinates":[1585,6739]},{"type":"Point","properties":{"Station_ID":"VT-WS-30","Station_Nam":"WOODBURY 3.4 NNW, VT","Latitude":"44.48825","Longitude":"-72.43258","Snowdepth":"19.500","Units":"in","Rept_Date":"2021-02-13 12"},"coordinates":[5581,5517]},{"type":"Point","properties":{"Station_ID":"PA-MN-16","Station_Nam":"MOUNT POCONO 0.7 N, PA","Latitude":"41.13190","Longitude":"-75.35804","Snowdepth":"19.500","Units":"in","Rept_Date":"2021-02-13 12"},"coordinates":[4923,3439]},{"type":"Point","properties":{"Station_ID":"NY-ES-6","Station_Nam":"OLMSTEDVILLE 4.6 NNE, NY","Latitude":"43.83350","Longitude":"-73.89780","Snowdepth":"19.500","Units":"in","Rept_Date":"2021-02-13 13"},"coordinates":[5252,5111]},{"type":"Point","properties":{"Station_ID":"ME-FR-22","Station_Nam":"FARMINGTON 4.8 NNW, ME","Latitude":"44.73396","Longitude":"-70.18007","Snowdepth":"19.500","Units":"in","Rept_Date":"2021-02-13 14"},"coordinates":[6088,5669]},{"type":"Point","properties":{"Station_ID":"IL-LK-69","Station_Nam":"HIGHWOOD 0.9 S, IL","Latitude":"42.19841","Longitude":"-87.81400","Snowdepth":"19.500","Units":"in","Rept_Date":"2021-02-13 13"},"coordinates":[2120,4099]},{"type":"Point","properties":{"Station_ID":"CAN-NB-11","Station_Nam":"MIRAMICHI 3.3 S, CAN","Latitude":"46.99343","Longitude":"-65.50690","Snowdepth":"19.500","Units":"in","Rept_Date":"2021-02-13 11"},"coordinates":[7139,7068]},{"type":"Point","properties":{"Station_ID":"MLZ","Station_Nam":"MLZ","Latitude":"50.66170","Longitude":"-68.82360","Snowdepth":"19.370","Units":"in","Rept_Date":"2021-02-13 12"},"coordinates":[6393,9339]},{"type":"Point","properties":{"Station_ID":"QOU","Station_Nam":"QOU","Latitude":"50.79250","Longitude":"-69.67470","Snowdepth":"19.213","Units":"in","Rept_Date":"2021-02-13 12"},"coordinates":[6202,9420]},{"type":"Point","properties":{"Station_ID":"QCO","Station_Nam":"QCO","Latitude":"51.45280","Longitude":"-72.20110","Snowdepth":"19.094","Units":"in","Rept_Date":"2021-02-13 12"},"coordinates":[5633,9829]},{"type":"Point","properties":{"Station_ID":"WI-VL-9","Station_Nam":"LAND O' LAKES 11.7 W, WI","Latitude":"46.19023","Longitude":"-89.45790","Snowdepth":"19.000","Units":"in","Rept_Date":"2021-02-13 13"},"coordinates":[1751,6571]},{"type":"Point","properties":{"Station_ID":"WI-MW-46","Station_Nam":"WAUWATOSA 1.9 E, WI","Latitude":"43.05863","Longitude":"-87.99600","Snowdepth":"19.000","Units":"in","Rept_Date":"2021-02-13 13"},"coordinates":[2080,4632]},{"type":"Point","properties":{"Station_ID":"WI-BY-29","Station_Nam":"BAYFIELD 5.1 NNW, WI","Latitude":"46.88063","Longitude":"-90.85854","Snowdepth":"19.000","Units":"in","Rept_Date":"2021-02-13 14"},"coordinates":[1435,6998]},{"type":"Point","properties":{"Station_ID":"VT-CH-4","Station_Nam":"UNDERHILL 4.4 NNE, VT","Latitude":"44.58774","Longitude":"-72.92250","Snowdepth":"19.000","Units":"in","Rept_Date":"2021-02-13 12"},"coordinates":[5471,5578]},{"type":"Point","properties":{"Station_ID":"SPRP1","Station_Nam":"SPRINGTOWN 1 NNE","Latitude":"40.57110","Longitude":"-75.27810","Snowdepth":"19.000","Units":"in","Rept_Date":"2021-02-13 12"},"coordinates":[4941,3091]},{"type":"Point","properties":{"Station_ID":"PRDM4","Station_Nam":"PARADISE","Latitude":"46.60380","Longitude":"-85.03960","Snowdepth":"19.000","Units":"in","Rept_Date":"2021-02-13 11"},"coordinates":[2745,6827]},{"type":"Point","properties":{"Station_ID":"NUNV1","Station_Nam":"NORTH UNDERHILL","Latitude":"44.58760","Longitude":"-72.92150","Snowdepth":"19.000","Units":"in","Rept_Date":"2021-02-13 12"},"coordinates":[5471,5578]},{"type":"Point","properties":{"Station_ID":"MQT","Station_Nam":"MARQUETTE, MI","Latitude":"46.53140","Longitude":"-87.54920","Snowdepth":"19.000","Units":"in","Rept_Date":"2021-02-14 06"},"coordinates":[2180,6782]},{"type":"Point","properties":{"Station_ID":"LNOW3","Station_Nam":"LAND O LAKES","Latitude":"46.19000","Longitude":"-89.45700","Snowdepth":"19.000","Units":"in","Rept_Date":"2021-02-13 13"},"coordinates":[1751,6571]},{"type":"Point","properties":{"Station_ID":"FARM1","Station_Nam":"FARMINGTON","Latitude":"44.68930","Longitude":"-70.15640","Snowdepth":"19.000","Units":"in","Rept_Date":"2021-02-13 12"},"coordinates":[6093,5641]},{"type":"Point","properties":{"Station_ID":"DUBI4","Station_Nam":"DUBUQUE #3","Latitude":"42.40870","Longitude":"-90.73250","Snowdepth":"19.000","Units":"in","Rept_Date":"2021-02-13 18"},"coordinates":[1464,4229]},{"type":"Point","properties":{"Station_ID":"DBQ","Station_Nam":"DUBUQUE REGIONAL AIRPORT","Latitude":"42.40310","Longitude":"-90.70920","Snowdepth":"19.000","Units":"in","Rept_Date":"2021-02-14 00"},"coordinates":[1469,4226]},{"type":"Point","properties":{"Station_ID":"CLUI4","Station_Nam":"CLUTIER,IA","Latitude":"42.08330","Longitude":"-92.40000","Snowdepth":"19.000","Units":"in","Rept_Date":"2021-02-13 13"},"coordinates":[1089,4028]},{"type":"Point","properties":{"Station_ID":"BKBW2","Station_Nam":"DAVIS.","Latitude":"39.09830","Longitude":"-79.43190","Snowdepth":"19.000","Units":"in","Rept_Date":"2021-02-13 12"},"coordinates":[4006,2179]},{"type":"Point","properties":{"Station_ID":"OGIQ6","Station_Nam":"OGOKI CAMP","Latitude":"50.76680","Longitude":"-87.85820","Snowdepth":"18.900","Units":"in","Rept_Date":"2021-02-14 06"},"coordinates":[2111,9405]},{"type":"Point","properties":{"Station_ID":"CAN-ON-757","Station_Nam":"SAULT STE. MARIE 2.8 ESE - GLFC, CAN","Latitude":"46.50300","Longitude":"-84.30300","Snowdepth":"18.900","Units":"in","Rept_Date":"2021-02-13 13"},"coordinates":[2910,6764]},{"type":"Point","properties":{"Station_ID":"NH-CS-19","Station_Nam":"CARROLL 4.6 NE, NH","Latitude":"44.33765","Longitude":"-71.46461","Snowdepth":"18.500","Units":"in","Rept_Date":"2021-02-13 12"},"coordinates":[5799,5424]},{"type":"Point","properties":{"Station_ID":"IL-CK-288","Station_Nam":"ROSELLE 0.8 N, IL","Latitude":"41.99255","Longitude":"-88.08422","Snowdepth":"18.500","Units":"in","Rept_Date":"2021-02-13 13"},"coordinates":[2060,3971]},{"type":"Point","properties":{"Station_ID":"CAN-NL-82","Station_Nam":"GANDER 2.7 NW, CAN","Latitude":"48.97737","Longitude":"-54.63396","Snowdepth":"18.500","Units":"in","Rept_Date":"2021-02-13 10"},"coordinates":[9586,8296]},{"type":"Point","properties":{"Station_ID":"SOCQ6","Station_Nam":"SOCKET LAKE","Latitude":"50.77870","Longitude":"-91.79300","Snowdepth":"18.310","Units":"in","Rept_Date":"2021-02-14 06"},"coordinates":[1225,9412]},{"type":"Point","properties":{"Station_ID":"KABQ6","Station_Nam":"CAB LAKE","Latitude":"49.59950","Longitude":"-89.17990","Snowdepth":"18.030","Units":"in","Rept_Date":"2021-02-14 06"},"coordinates":[1813,8682]},{"type":"Point","properties":{"Station_ID":"WTNM4","Station_Nam":"WATTON 2WSW","Latitude":"46.52660","Longitude":"-88.64240","Snowdepth":"18.000","Units":"in","Rept_Date":"2021-02-13 13"},"coordinates":[1934,6779]},{"type":"Point","properties":{"Station_ID":"VT-WR-10","Station_Nam":"WEST WINDSOR 1.7 S, VT","Latitude":"43.46164","Longitude":"-72.49197","Snowdepth":"18.000","Units":"in","Rept_Date":"2021-02-13 12"},"coordinates":[5568,4881]},{"type":"Point","properties":{"Station_ID":"SSMM4","Station_Nam":"SAULT STE MARIE","Latitude":"46.48660","Longitude":"-84.40250","Snowdepth":"18.000","Units":"in","Rept_Date":"2021-02-13 13"},"coordinates":[2888,6754]},{"type":"Point","properties":{"Station_ID":"SNOW2","Station_Nam":"SNOWSHOE","Latitude":"38.39900","Longitude":"-79.99490","Snowdepth":"18.000","Units":"in","Rept_Date":"2021-02-13 11"},"coordinates":[3880,1746]},{"type":"Point","properties":{"Station_ID":"RANM1","Station_Nam":"RANGELEY","Latitude":"44.98910","Longitude":"-70.67190","Snowdepth":"18.000","Units":"in","Rept_Date":"2021-02-13 13"},"coordinates":[5977,5827]},{"type":"Point","properties":{"Station_ID":"PLEP1","Station_Nam":"PLEASANT MOUNT 1 W","Latitude":"41.73940","Longitude":"-75.44650","Snowdepth":"18.000","Units":"in","Rept_Date":"2021-02-13 12"},"coordinates":[4903,3815]},{"type":"Point","properties":{"Station_ID":"PA-PK-22","Station_Nam":"MILFORD 8.7 NW, PA","Latitude":"41.42018","Longitude":"-74.90953","Snowdepth":"18.000","Units":"in","Rept_Date":"2021-02-13 12"},"coordinates":[5024,3617]},{"type":"Point","properties":{"Station_ID":"PA-CB-33","Station_Nam":"LAKE HARMONY 2.4 WNW, PA","Latitude":"41.07333","Longitude":"-75.63317","Snowdepth":"18.000","Units":"in","Rept_Date":"2021-02-13 12"},"coordinates":[4861,3402]},{"type":"Point","properties":{"Station_ID":"PA-BR-7","Station_Nam":"FLEETWOOD 2.0 ESE, PA","Latitude":"40.44292","Longitude":"-75.78720","Snowdepth":"18.000","Units":"in","Rept_Date":"2021-02-13 13"},"coordinates":[4826,3012]},{"type":"Point","properties":{"Station_ID":"NY-TM-45","Station_Nam":"NEWFIELD HAMLET 4.3 S, NY","Latitude":"42.29650","Longitude":"-76.60676","Snowdepth":"18.000","Units":"in","Rept_Date":"2021-02-13 14"},"coordinates":[4642,4160]},{"type":"Point","properties":{"Station_ID":"NVLV1","Station_Nam":"NASHVILLE","Latitude":"44.44970","Longitude":"-72.92640","Snowdepth":"18.000","Units":"in","Rept_Date":"2021-02-13 12"},"coordinates":[5470,5493]},{"type":"Point","properties":{"Station_ID":"NJ-SS-1","Station_Nam":"ANDOVER TWP 1.7 W, NJ","Latitude":"41.01974","Longitude":"-74.76110","Snowdepth":"18.000","Units":"in","Rept_Date":"2021-02-13 12"},"coordinates":[5057,3369]},{"type":"Point","properties":{"Station_ID":"NH-CS-4","Station_Nam":"PITTSBURG 6.1 NE, NH","Latitude":"45.11060","Longitude":"-71.29760","Snowdepth":"18.000","Units":"in","Rept_Date":"2021-02-13 12"},"coordinates":[5837,5902]},{"type":"Point","properties":{"Station_ID":"NCBN6","Station_Nam":"NEWCOMB","Latitude":"43.97070","Longitude":"-74.22200","Snowdepth":"18.000","Units":"in","Rept_Date":"2021-02-13 12"},"coordinates":[5179,5196]},{"type":"Point","properties":{"Station_ID":"MN-IS-18","Station_Nam":"BRAHAM 0.7 SW, MN","Latitude":"45.71379","Longitude":"-93.18095","Snowdepth":"18.000","Units":"in","Rept_Date":"2021-02-13 14"},"coordinates":[913,6276]},{"type":"Point","properties":{"Station_ID":"MIEM4","Station_Nam":"MICHIGAMME 3WNW","Latitude":"46.54530","Longitude":"-88.18000","Snowdepth":"18.000","Units":"in","Rept_Date":"2021-02-13 13"},"coordinates":[2038,6791]},{"type":"Point","properties":{"Station_ID":"ME-AR-18","Station_Nam":"NEW SWEDEN 4.9 NNW, ME","Latitude":"47.01080","Longitude":"-68.14390","Snowdepth":"18.000","Units":"in","Rept_Date":"2021-02-13 12"},"coordinates":[6546,7079]},{"type":"Point","properties":{"Station_ID":"MAPM4","Station_Nam":"MAPLE CITY 1E","Latitude":"44.85500","Longitude":"-85.83520","Snowdepth":"18.000","Units":"in","Rept_Date":"2021-02-14 00"},"coordinates":[2566,5744]},{"type":"Point","properties":{"Station_ID":"LODW3","Station_Nam":"LODI","Latitude":"43.32170","Longitude":"-89.53110","Snowdepth":"18.000","Units":"in","Rept_Date":"2021-02-13 13"},"coordinates":[1734,4794]},{"type":"Point","properties":{"Station_ID":"JOHV1","Station_Nam":"JOHNSON 2 N","Latitude":"44.65790","Longitude":"-72.67850","Snowdepth":"18.000","Units":"in","Rept_Date":"2021-02-13 12"},"coordinates":[5526,5622]},{"type":"Point","properties":{"Station_ID":"JCBM4","Station_Nam":"JACOBSVILLE","Latitude":"47.00830","Longitude":"-88.43180","Snowdepth":"18.000","Units":"in","Rept_Date":"2021-02-13 12"},"coordinates":[1981,7077]},{"type":"Point","properties":{"Station_ID":"IL-DP-87","Station_Nam":"ROSELLE 1.2 ESE, IL","Latitude":"41.97664","Longitude":"-88.05980","Snowdepth":"18.000","Units":"in","Rept_Date":"2021-02-13 15"},"coordinates":[2065,3962]},{"type":"Point","properties":{"Station_ID":"HGHN4","Station_Nam":"HIGHLAND LAKES 1SW","Latitude":"41.16330","Longitude":"-74.45930","Snowdepth":"18.000","Units":"in","Rept_Date":"2021-02-13 11"},"coordinates":[5125,3458]},{"type":"Point","properties":{"Station_ID":"GTTI4","Station_Nam":"LOCK & DAM 10","Latitude":"42.78580","Longitude":"-91.09970","Snowdepth":"18.000","Units":"in","Rept_Date":"2021-02-13 14"},"coordinates":[1381,4463]},{"type":"Point","properties":{"Station_ID":"CAN-QC-62","Station_Nam":"SAINT-LUC-DE-BELLECHASSE 2.2 SE, CAN","Latitude":"46.49532","Longitude":"-70.46313","Snowdepth":"18.000","Units":"in","Rept_Date":"2021-02-13 12"},"coordinates":[6024,6760]},{"type":"Point","properties":{"Station_ID":"CAN-ON-245","Station_Nam":"PHELPSTON 3.1 ESE, CAN","Latitude":"44.50564","Longitude":"-79.81035","Snowdepth":"18.000","Units":"in","Rept_Date":"2021-02-13 14"},"coordinates":[3921,5528]},{"type":"Point","properties":{"Station_ID":"BLTW3","Station_Nam":"BELOIT,WI","Latitude":"42.50000","Longitude":"-89.03330","Snowdepth":"18.000","Units":"in","Rept_Date":"2021-02-13 12"},"coordinates":[1846,4286]},{"type":"Point","properties":{"Station_ID":"BAYW2","Station_Nam":"BAYARD COOP","Latitude":"39.27280","Longitude":"-79.36830","Snowdepth":"18.000","Units":"in","Rept_Date":"2021-02-13 12"},"coordinates":[4021,2287]},{"type":"Point","properties":{"Station_ID":"AVLV1","Station_Nam":"AVERILL","Latitude":"45.00570","Longitude":"-71.69030","Snowdepth":"18.000","Units":"in","Rept_Date":"2021-02-13 13"},"coordinates":[5748,5837]},{"type":"Point","properties":{"Station_ID":"ANJM4","Station_Nam":"SNOW PAID OBSERVER FOR KANJ","Latitude":"46.48670","Longitude":"-84.40260","Snowdepth":"18.000","Units":"in","Rept_Date":"2021-02-14 06"},"coordinates":[2888,6754]},{"type":"Point","properties":{"Station_ID":"ANJ","Station_Nam":"SAULT STE MARIE","Latitude":"46.46670","Longitude":"-84.36670","Snowdepth":"18.000","Units":"in","Rept_Date":"2021-02-14 00"},"coordinates":[2896,6742]},{"type":"Point","properties":{"Station_ID":"WI-RK-12","Station_Nam":"JANESVILLE 3.1 W, WI","Latitude":"42.67576","Longitude":"-89.07614","Snowdepth":"17.500","Units":"in","Rept_Date":"2021-02-13 13"},"coordinates":[1837,4394]},{"type":"Point","properties":{"Station_ID":"WI-RC-3","Station_Nam":"RACINE 2.3 WSW, WI","Latitude":"42.71124","Longitude":"-87.84570","Snowdepth":"17.500","Units":"in","Rept_Date":"2021-02-13 13"},"coordinates":[2113,4416]},{"type":"Point","properties":{"Station_ID":"VT-WS-10","Station_Nam":"NORTHFIELD 1.5 N, VT","Latitude":"44.16986","Longitude":"-72.65200","Snowdepth":"17.500","Units":"in","Rept_Date":"2021-02-13 12"},"coordinates":[5532,5320]},{"type":"Point","properties":{"Station_ID":"NY-SR-22","Station_Nam":"GREENFIELD CENTER 1.6 W, NY","Latitude":"43.12684","Longitude":"-73.87860","Snowdepth":"17.500","Units":"in","Rept_Date":"2021-02-13 13"},"coordinates":[5256,4674]},{"type":"Point","properties":{"Station_ID":"NY-OT-29","Station_Nam":"NEW BERLIN 1.5 NE, NY","Latitude":"42.63689","Longitude":"-75.31090","Snowdepth":"17.500","Units":"in","Rept_Date":"2021-02-13 13"},"coordinates":[4934,4370]},{"type":"Point","properties":{"Station_ID":"NJ-SS-7","Station_Nam":"HARDYSTON TWP 3.2 SE, NJ","Latitude":"41.08903","Longitude":"-74.53990","Snowdepth":"17.500","Units":"in","Rept_Date":"2021-02-13 13"},"coordinates":[5107,3412]},{"type":"Point","properties":{"Station_ID":"NJ-MS-94","Station_Nam":"JEFFERSON TWP 4.4 SW, NJ","Latitude":"40.96404","Longitude":"-74.62162","Snowdepth":"17.500","Units":"in","Rept_Date":"2021-02-13 12"},"coordinates":[5089,3335]},{"type":"Point","properties":{"Station_ID":"IA-SH-6","Station_Nam":"KIRKMAN 1.0 SE, IA","Latitude":"41.71810","Longitude":"-95.25310","Snowdepth":"17.500","Units":"in","Rept_Date":"2021-02-13 13"},"coordinates":[447,3801]},{"type":"Point","properties":{"Station_ID":"QMD","Station_Nam":"QMD","Latitude":"49.29060","Longitude":"-75.84500","Snowdepth":"17.126","Units":"in","Rept_Date":"2021-02-13 12"},"coordinates":[4813,8490]},{"type":"Point","properties":{"Station_ID":"WI-WW-12","Station_Nam":"ELKHORN 0.4 ESE, WI","Latitude":"42.66970","Longitude":"-88.53170","Snowdepth":"17.100","Units":"in","Rept_Date":"2021-02-13 11"},"coordinates":[1959,4391]},{"type":"Point","properties":{"Station_ID":"QWE","Station_Nam":"QWE","Latitude":"47.84610","Longitude":"-73.80670","Snowdepth":"17.047","Units":"in","Rept_Date":"2021-02-13 12"},"coordinates":[5272,7596]},{"type":"Point","properties":{"Station_ID":"WTRM4","Station_Nam":"WATERSMEET 12WSW","Latitude":"46.22310","Longitude":"-89.40850","Snowdepth":"17.000","Units":"in","Rept_Date":"2021-02-13 12"},"coordinates":[1762,6591]},{"type":"Point","properties":{"Station_ID":"WSFW3","Station_Nam":"TOWN OF WESTFORD","Latitude":"43.47190","Longitude":"-88.88250","Snowdepth":"17.000","Units":"in","Rept_Date":"2021-02-13 13"},"coordinates":[1880,4887]},{"type":"Point","properties":{"Station_ID":"WI-MW-18","Station_Nam":"WEST ALLIS 0.7 SSE, WI","Latitude":"42.99802","Longitude":"-88.02380","Snowdepth":"17.000","Units":"in","Rept_Date":"2021-02-13 14"},"coordinates":[2073,4594]},{"type":"Point","properties":{"Station_ID":"WI-IW-3","Station_Nam":"MINERAL POINT 7.3 ENE, WI","Latitude":"42.91400","Longitude":"-90.05700","Snowdepth":"17.000","Units":"in","Rept_Date":"2021-02-13 13"},"coordinates":[1616,4542]},{"type":"Point","properties":{"Station_ID":"WI-DD-16","Station_Nam":"BEAVER DAM 2.4 WNW, WI","Latitude":"43.47210","Longitude":"-88.88280","Snowdepth":"17.000","Units":"in","Rept_Date":"2021-02-13 13"},"coordinates":[1880,4888]},{"type":"Point","properties":{"Station_ID":"VT-ES-3","Station_Nam":"LUNENBURG 2.3 NNW, VT","Latitude":"44.49324","Longitude":"-71.70446","Snowdepth":"17.000","Units":"in","Rept_Date":"2021-02-13 11"},"coordinates":[5745,5520]},{"type":"Point","properties":{"Station_ID":"VNTI4","Station_Nam":"VINTON","Latitude":"42.17020","Longitude":"-92.00770","Snowdepth":"17.000","Units":"in","Rept_Date":"2021-02-13 13"},"coordinates":[1177,4081]},{"type":"Point","properties":{"Station_ID":"SUAW3","Station_Nam":"SUAMICO","Latitude":"44.60190","Longitude":"-88.09780","Snowdepth":"17.000","Units":"in","Rept_Date":"2021-02-13 12"},"coordinates":[2057,5587]},{"type":"Point","properties":{"Station_ID":"SPTI4","Station_Nam":"STRAWBERRY POINT","Latitude":"42.68530","Longitude":"-91.53300","Snowdepth":"17.000","Units":"in","Rept_Date":"2021-02-13 13"},"coordinates":[1284,4400]},{"type":"Point","properties":{"Station_ID":"PDGM4","Station_Nam":"PAULDING","Latitude":"46.39760","Longitude":"-89.17940","Snowdepth":"17.000","Units":"in","Rept_Date":"2021-02-13 13"},"coordinates":[1813,6699]},{"type":"Point","properties":{"Station_ID":"PA-BR-21","Station_Nam":"ALBURTIS 4.7 SW, PA","Latitude":"40.46515","Longitude":"-75.66820","Snowdepth":"17.000","Units":"in","Rept_Date":"2021-02-13 12"},"coordinates":[4853,3026]},{"type":"Point","properties":{"Station_ID":"NY-OS-15","Station_Nam":"MINETTO 0.1 SE, NY","Latitude":"43.39771","Longitude":"-76.47960","Snowdepth":"17.000","Units":"in","Rept_Date":"2021-02-13 13"},"coordinates":[4671,4842]},{"type":"Point","properties":{"Station_ID":"NJ-MS-87","Station_Nam":"MOUNT ARLINGTON 0.8 S, NJ","Latitude":"40.90789","Longitude":"-74.64077","Snowdepth":"17.000","Units":"in","Rept_Date":"2021-02-13 13"},"coordinates":[5084,3300]},{"type":"Point","properties":{"Station_ID":"NJ-MS-4","Station_Nam":"ROCKAWAY TWP 0.7 NE, NJ","Latitude":"40.96583","Longitude":"-74.48780","Snowdepth":"17.000","Units":"in","Rept_Date":"2021-02-13 13"},"coordinates":[5119,3336]},{"type":"Point","properties":{"Station_ID":"NFKC3","Station_Nam":"NORFOLK","Latitude":"41.97250","Longitude":"-73.22080","Snowdepth":"17.000","Units":"in","Rept_Date":"2021-02-13 13"},"coordinates":[5404,3959]},{"type":"Point","properties":{"Station_ID":"MTCI2","Station_Nam":"MOUNT CARROLL","Latitude":"42.09800","Longitude":"-89.98410","Snowdepth":"17.000","Units":"in","Rept_Date":"2021-02-13 14"},"coordinates":[1632,4037]},{"type":"Point","properties":{"Station_ID":"MKE","Station_Nam":"GEN MITCHELL INTL AIRPORT","Latitude":"42.94720","Longitude":"-87.89670","Snowdepth":"17.000","Units":"in","Rept_Date":"2021-02-14 00"},"coordinates":[2102,4563]},{"type":"Point","properties":{"Station_ID":"MI-OW-2","Station_Nam":"HOLLAND 3.9 NNE, MI","Latitude":"42.82296","Longitude":"-86.06780","Snowdepth":"17.000","Units":"in","Rept_Date":"2021-02-13 11"},"coordinates":[2513,4486]},{"type":"Point","properties":{"Station_ID":"MI-GG-4","Station_Nam":"WATERSMEET 5.0 SE, MI","Latitude":"46.20333","Longitude":"-89.13170","Snowdepth":"17.000","Units":"in","Rept_Date":"2021-02-13 14"},"coordinates":[1824,6579]},{"type":"Point","properties":{"Station_ID":"MA-BE-24","Station_Nam":"HANCOCK 3.6 NNE, MA","Latitude":"42.59130","Longitude":"-73.29530","Snowdepth":"17.000","Units":"in","Rept_Date":"2021-02-13 17"},"coordinates":[5387,4342]},{"type":"Point","properties":{"Station_ID":"LSXI4","Station_Nam":"LITTLE SIOUX,IA","Latitude":"41.81670","Longitude":"-96.01670","Snowdepth":"17.000","Units":"in","Rept_Date":"2021-02-13 13"},"coordinates":[275,3863]},{"type":"Point","properties":{"Station_ID":"LGEW3","Station_Nam":"LAKE GENEVA, WI","Latitude":"42.60000","Longitude":"-88.43440","Snowdepth":"17.000","Units":"in","Rept_Date":"2021-02-13 13"},"coordinates":[1981,4348]},{"type":"Point","properties":{"Station_ID":"KGTB","Station_Nam":"FORT DRUM / WHEELER-SACK U. S. ARMY AIRFIELD","Latitude":"44.05000","Longitude":"-75.73333","Snowdepth":"17.000","Units":"in","Rept_Date":"2021-02-14 06"},"coordinates":[4839,5245]},{"type":"Point","properties":{"Station_ID":"KABM5","Station_Nam":"KABETOGAMA LAKE VISITOR CTR","Latitude":"48.40880","Longitude":"-93.04840","Snowdepth":"17.000","Units":"in","Rept_Date":"2021-02-13 13"},"coordinates":[943,7944]},{"type":"Point","properties":{"Station_ID":"IL-WN-32","Station_Nam":"ROCKFORD 5.5 S, IL","Latitude":"42.19058","Longitude":"-89.06040","Snowdepth":"17.000","Units":"in","Rept_Date":"2021-02-13 14"},"coordinates":[1840,4094]},{"type":"Point","properties":{"Station_ID":"IL-BN-19","Station_Nam":"BELVIDERE 5.0 NNW, IL","Latitude":"42.32071","Longitude":"-88.88282","Snowdepth":"17.000","Units":"in","Rept_Date":"2021-02-13 13"},"coordinates":[1880,4175]},{"type":"Point","properties":{"Station_ID":"HUBN3","Station_Nam":"HUBBARD BROOK","Latitude":"43.93330","Longitude":"-71.71670","Snowdepth":"17.000","Units":"in","Rept_Date":"2021-02-14 06"},"coordinates":[5742,5173]},{"type":"Point","properties":{"Station_ID":"EJNM4","Station_Nam":"EAST JORDAN 2NW","Latitude":"45.18630","Longitude":"-85.14770","Snowdepth":"17.000","Units":"in","Rept_Date":"2021-02-13 13"},"coordinates":[2720,5949]},{"type":"Point","properties":{"Station_ID":"DEKI2","Station_Nam":"SOUTH BRANCH KISHWAUKEE RIVER AT DEKALB","Latitude":"41.93110","Longitude":"-88.75970","Snowdepth":"17.000","Units":"in","Rept_Date":"2021-02-13 13"},"coordinates":[1908,3933]},{"type":"Point","properties":{"Station_ID":"CNDP1","Station_Nam":"CANADENSIS","Latitude":"41.18980","Longitude":"-75.23830","Snowdepth":"17.000","Units":"in","Rept_Date":"2021-02-13 12"},"coordinates":[4950,3474]},{"type":"Point","properties":{"Station_ID":"CLKM4","Station_Nam":"CLARKSBURG","Latitude":"46.49910","Longitude":"-87.84500","Snowdepth":"17.000","Units":"in","Rept_Date":"2021-02-13 12"},"coordinates":[2114,6762]},{"type":"Point","properties":{"Station_ID":"CAN-QC-51","Station_Nam":"BELOEIL 0.7 NW, CAN","Latitude":"45.58049","Longitude":"-73.21218","Snowdepth":"17.000","Units":"in","Rept_Date":"2021-02-13 12"},"coordinates":[5406,6193]},{"type":"Point","properties":{"Station_ID":"CAN-NS-39","Station_Nam":"ST. ANNS 2.8 NW, CA","Latitude":"46.25082","Longitude":"-60.64340","Snowdepth":"17.000","Units":"in","Rept_Date":"2021-02-13 12"},"coordinates":[8234,6608]},{"type":"Point","properties":{"Station_ID":"CAN-NB-13","Station_Nam":"BATHURST 3.8 NW, CAN","Latitude":"47.64212","Longitude":"-65.68756","Snowdepth":"17.000","Units":"in","Rept_Date":"2021-02-13 11"},"coordinates":[7099,7470]},{"type":"Point","properties":{"Station_ID":"BDMW3","Station_Nam":"BEAVER DAM 1 N","Latitude":"43.46860","Longitude":"-88.83970","Snowdepth":"17.000","Units":"in","Rept_Date":"2021-02-13 17"},"coordinates":[1890,4885]},{"type":"Point","properties":{"Station_ID":"WI-GT-9","Station_Nam":"CASSVILLE 7.8 ENE, WI","Latitude":"42.74949","Longitude":"-90.84390","Snowdepth":"16.800","Units":"in","Rept_Date":"2021-02-13 14"},"coordinates":[1439,4440]},{"type":"Point","properties":{"Station_ID":"WI-MW-43","Station_Nam":"BROWN DEER 0.8 NW, WI","Latitude":"43.18438","Longitude":"-87.98401","Snowdepth":"16.500","Units":"in","Rept_Date":"2021-02-13 13"},"coordinates":[2082,4709]},{"type":"Point","properties":{"Station_ID":"WI-IR-2","Station_Nam":"MERCER 2.0 SE, WI","Latitude":"46.14749","Longitude":"-90.03097","Snowdepth":"16.500","Units":"in","Rept_Date":"2021-02-13 13"},"coordinates":[1622,6544]},{"type":"Point","properties":{"Station_ID":"WI-CB-5","Station_Nam":"PORTAGE 7.2 SW, WI","Latitude":"43.47933","Longitude":"-89.57370","Snowdepth":"16.500","Units":"in","Rept_Date":"2021-02-13 13"},"coordinates":[1725,4892]},{"type":"Point","properties":{"Station_ID":"VT-OL-9","Station_Nam":"GREENSBORO 2.1 NNW, VT","Latitude":"44.60528","Longitude":"-72.30940","Snowdepth":"16.500","Units":"in","Rept_Date":"2021-02-13 12"},"coordinates":[5609,5589]},{"type":"Point","properties":{"Station_ID":"NY-MD-10","Station_Nam":"CAZENOVIA 2.9 SE, NY","Latitude":"42.90003","Longitude":"-75.81140","Snowdepth":"16.500","Units":"in","Rept_Date":"2021-02-13 12"},"coordinates":[4821,4533]},{"type":"Point","properties":{"Station_ID":"NY-ES-7","Station_Nam":"KEESEVILLE 0.8 SE, NY","Latitude":"44.49504","Longitude":"-73.47109","Snowdepth":"16.500","Units":"in","Rept_Date":"2021-02-13 12"},"coordinates":[5348,5521]},{"type":"Point","properties":{"Station_ID":"NY-ER-65","Station_Nam":"BOSTON 1.5 NE, NY","Latitude":"42.65470","Longitude":"-78.72010","Snowdepth":"16.500","Units":"in","Rept_Date":"2021-02-13 13"},"coordinates":[4167,4381]},{"type":"Point","properties":{"Station_ID":"NY-ER-166","Station_Nam":"BOSTON 2.5 NE, NY","Latitude":"42.65480","Longitude":"-78.70300","Snowdepth":"16.500","Units":"in","Rept_Date":"2021-02-13 12"},"coordinates":[4170,4382]},{"type":"Point","properties":{"Station_ID":"NJ-SS-3","Station_Nam":"VERNON TWP 1.7 N, NJ","Latitude":"41.22151","Longitude":"-74.48800","Snowdepth":"16.500","Units":"in","Rept_Date":"2021-02-13 12"},"coordinates":[5119,3494]},{"type":"Point","properties":{"Station_ID":"MI-CX-7","Station_Nam":"EAST JORDAN 2.1 NNW, MI","Latitude":"45.18639","Longitude":"-85.14750","Snowdepth":"16.500","Units":"in","Rept_Date":"2021-02-13 13"},"coordinates":[2720,5949]},{"type":"Point","properties":{"Station_ID":"MD-GR-9","Station_Nam":"MOUNTAIN LAKE PARK 0.4 E, MD","Latitude":"39.40407","Longitude":"-79.37220","Snowdepth":"16.500","Units":"in","Rept_Date":"2021-02-13 12"},"coordinates":[4020,2369]},{"type":"Point","properties":{"Station_ID":"MA-ES-48","Station_Nam":"ANDOVER 0.6 E, MA","Latitude":"42.65659","Longitude":"-71.13048","Snowdepth":"16.500","Units":"in","Rept_Date":"2021-02-13 10"},"coordinates":[5874,4383]},{"type":"Point","properties":{"Station_ID":"IL-SP-6","Station_Nam":"FREEPORT 2.0 NW, IL","Latitude":"42.30955","Longitude":"-89.66370","Snowdepth":"16.500","Units":"in","Rept_Date":"2021-02-13 13"},"coordinates":[1704,4168]},{"type":"Point","properties":{"Station_ID":"IL-SP-26","Station_Nam":"FREEPORT 2.9 WSW, IL","Latitude":"42.26779","Longitude":"-89.68323","Snowdepth":"16.500","Units":"in","Rept_Date":"2021-02-13 14"},"coordinates":[1700,4142]},{"type":"Point","properties":{"Station_ID":"IL-CR-12","Station_Nam":"MOUNT CARROLL 6.8 NNW, IL","Latitude":"42.18735","Longitude":"-90.02185","Snowdepth":"16.500","Units":"in","Rept_Date":"2021-02-13 13"},"coordinates":[1624,4092]},{"type":"Point","properties":{"Station_ID":"IA-ST-1","Station_Nam":"LE CLAIRE 1.8 NNE, IA","Latitude":"41.62355","Longitude":"-90.35140","Snowdepth":"16.500","Units":"in","Rept_Date":"2021-02-13 13"},"coordinates":[1550,3743]},{"type":"Point","properties":{"Station_ID":"CT-NH-72","Station_Nam":"NORTHFORD 0.8 SW, CT","Latitude":"41.38554","Longitude":"-72.80240","Snowdepth":"16.500","Units":"in","Rept_Date":"2021-02-13 12"},"coordinates":[5498,3596]},{"type":"Point","properties":{"Station_ID":"WI-RK-6","Station_Nam":"EVANSVILLE 0.4 E, WI","Latitude":"42.77913","Longitude":"-89.29020","Snowdepth":"16.400","Units":"in","Rept_Date":"2021-02-13 12"},"coordinates":[1788,4458]},{"type":"Point","properties":{"Station_ID":"NJ-WR-42","Station_Nam":"KNOWLTON TWP 1.7 S, NJ","Latitude":"40.90560","Longitude":"-75.05880","Snowdepth":"16.400","Units":"in","Rept_Date":"2021-02-13 12"},"coordinates":[4990,3298]},{"type":"Point","properties":{"Station_ID":"CAN-QC-47","Station_Nam":"SAINTE-FOY 1.8 ENE, CAN","Latitude":"46.76934","Longitude":"-71.27124","Snowdepth":"16.200","Units":"in","Rept_Date":"2021-02-13 12"},"coordinates":[5842,6929]},{"type":"Point","properties":{"Station_ID":"MI-AN-20","Station_Nam":"HOLLAND 5.3 WSW, MI","Latitude":"42.74900","Longitude":"-86.20200","Snowdepth":"16.100","Units":"in","Rept_Date":"2021-02-13 13"},"coordinates":[2483,4440]},{"type":"Point","properties":{"Station_ID":"QTV","Station_Nam":"QTV","Latitude":"49.66000","Longitude":"-69.35690","Snowdepth":"16.063","Units":"in","Rept_Date":"2021-02-13 12"},"coordinates":[6273,8719]},{"type":"Point","properties":{"Station_ID":"WRSN6","Station_Nam":"WARSAW 6SW","Latitude":"42.68550","Longitude":"-78.22020","Snowdepth":"16.000","Units":"in","Rept_Date":"2021-02-13 12"},"coordinates":[4279,4401]},{"type":"Point","properties":{"Station_ID":"WORV1","Station_Nam":"WORCESTER 2 W","Latitude":"44.37470","Longitude":"-72.58220","Snowdepth":"16.000","Units":"in","Rept_Date":"2021-02-13 12"},"coordinates":[5548,5446]},{"type":"Point","properties":{"Station_ID":"WODI2","Station_Nam":"WOODSTOCK","Latitude":"42.36280","Longitude":"-88.53140","Snowdepth":"16.000","Units":"in","Rept_Date":"2021-02-13 15"},"coordinates":[1959,4201]},{"type":"Point","properties":{"Station_ID":"WI-WW-2","Station_Nam":"LAKE GENEVA 0.6 ENE, WI","Latitude":"42.59169","Longitude":"-88.41770","Snowdepth":"16.000","Units":"in","Rept_Date":"2021-02-13 13"},"coordinates":[1985,4342]},{"type":"Point","properties":{"Station_ID":"WI-WK-34","Station_Nam":"MUKWONAGO 5.3 W, WI","Latitude":"42.85380","Longitude":"-88.43550","Snowdepth":"16.000","Units":"in","Rept_Date":"2021-02-13 13"},"coordinates":[1981,4505]},{"type":"Point","properties":{"Station_ID":"WI-WB-2","Station_Nam":"STONE LAKE 2.0 NW, WI","Latitude":"45.85960","Longitude":"-91.57710","Snowdepth":"16.000","Units":"in","Rept_Date":"2021-02-13 13"},"coordinates":[1274,6366]},{"type":"Point","properties":{"Station_ID":"WI-PR-2","Station_Nam":"BUTTERNUT 5.9 SW, WI","Latitude":"45.96501","Longitude":"-90.59750","Snowdepth":"16.000","Units":"in","Rept_Date":"2021-02-13 12"},"coordinates":[1494,6431]},{"type":"Point","properties":{"Station_ID":"WI-IR-3","Station_Nam":"PENCE 0.1 E, WI","Latitude":"46.41555","Longitude":"-90.27013","Snowdepth":"16.000","Units":"in","Rept_Date":"2021-02-13 13"},"coordinates":[1568,6710]},{"type":"Point","properties":{"Station_ID":"WI-DA-99","Station_Nam":"FITCHBURG 1.1 NW, WI","Latitude":"42.99740","Longitude":"-89.44046","Snowdepth":"16.000","Units":"in","Rept_Date":"2021-02-13 13"},"coordinates":[1755,4594]},{"type":"Point","properties":{"Station_ID":"WI-DA-45","Station_Nam":"MADISON 6.1 W, WI","Latitude":"43.06948","Longitude":"-89.50788","Snowdepth":"16.000","Units":"in","Rept_Date":"2021-02-13 13"},"coordinates":[1739,4638]},{"type":"Point","properties":{"Station_ID":"WI-DA-31","Station_Nam":"DEERFIELD 0.6 N, WI","Latitude":"43.05958","Longitude":"-89.07340","Snowdepth":"16.000","Units":"in","Rept_Date":"2021-02-13 20"},"coordinates":[1837,4632]},{"type":"Point","properties":{"Station_ID":"WI-CB-4","Station_Nam":"PORTAGE 5.7 WSW, WI","Latitude":"43.51411","Longitude":"-89.56910","Snowdepth":"16.000","Units":"in","Rept_Date":"2021-02-13 12"},"coordinates":[1726,4914]},{"type":"Point","properties":{"Station_ID":"WI-BY-1","Station_Nam":"BAYFIELD 8.8 N, WI","Latitude":"46.93855","Longitude":"-90.83490","Snowdepth":"16.000","Units":"in","Rept_Date":"2021-02-13 13"},"coordinates":[1441,7034]},{"type":"Point","properties":{"Station_ID":"WDSV1","Station_Nam":"WOODSTOCK","Latitude":"43.63030","Longitude":"-72.50720","Snowdepth":"16.000","Units":"in","Rept_Date":"2021-02-13 13"},"coordinates":[5564,4986]},{"type":"Point","properties":{"Station_ID":"VT-CH-7","Station_Nam":"HUNTINGTON 1.1 E, VT","Latitude":"44.32488","Longitude":"-72.96570","Snowdepth":"16.000","Units":"in","Rept_Date":"2021-02-13 12"},"coordinates":[5461,5416]},{"type":"Point","properties":{"Station_ID":"STMM4","Station_Nam":"STAMBAUGH 2SSE","Latitude":"46.05550","Longitude":"-88.62780","Snowdepth":"16.000","Units":"in","Rept_Date":"2021-02-13 13"},"coordinates":[1937,6487]},{"type":"Point","properties":{"Station_ID":"SLNV1","Station_Nam":"SOUTH LINCOLN","Latitude":"44.07460","Longitude":"-72.97180","Snowdepth":"16.000","Units":"in","Rept_Date":"2021-02-13 12"},"coordinates":[5460,5261]},{"type":"Point","properties":{"Station_ID":"ROCW3","Station_Nam":"ROCHESTER WWTP","Latitude":"42.72690","Longitude":"-88.22580","Snowdepth":"16.000","Units":"in","Rept_Date":"2021-02-13 15"},"coordinates":[2028,4426]},{"type":"Point","properties":{"Station_ID":"RGNM1","Station_Nam":"RANGELEY 2NW","Latitude":"44.98940","Longitude":"-70.67220","Snowdepth":"16.000","Units":"in","Rept_Date":"2021-02-13 14"},"coordinates":[5977,5827]},{"type":"Point","properties":{"Station_ID":"RCHW3","Station_Nam":"RICHRIELD,WI","Latitude":"43.21080","Longitude":"-88.20940","Snowdepth":"16.000","Units":"in","Rept_Date":"2021-02-13 12"},"coordinates":[2032,4726]},{"type":"Point","properties":{"Station_ID":"PKBI4","Station_Nam":"PARKERSBURG,IA","Latitude":"42.59250","Longitude":"-92.77860","Snowdepth":"16.000","Units":"in","Rept_Date":"2021-02-13 13"},"coordinates":[1003,4343]},{"type":"Point","properties":{"Station_ID":"NY-OT-31","Station_Nam":"MARYLAND 1.8 W, NY","Latitude":"42.53310","Longitude":"-74.92090","Snowdepth":"16.000","Units":"in","Rept_Date":"2021-02-13 13"},"coordinates":[5021,4306]},{"type":"Point","properties":{"Station_ID":"NY-OS-38","Station_Nam":"MEXICO COOP, NY","Latitude":"43.43830","Longitude":"-76.26570","Snowdepth":"16.000","Units":"in","Rept_Date":"2021-02-13 12"},"coordinates":[4719,4867]},{"type":"Point","properties":{"Station_ID":"NY-ER-63","Station_Nam":"GLENWOOD 1.5 SE, NY","Latitude":"42.60195","Longitude":"-78.63910","Snowdepth":"16.000","Units":"in","Rept_Date":"2021-02-13 13"},"coordinates":[4185,4349]},{"type":"Point","properties":{"Station_ID":"NY-CR-1","Station_Nam":"FREETOWN 1.0 NE, NY","Latitude":"42.53299","Longitude":"-76.02111","Snowdepth":"16.000","Units":"in","Rept_Date":"2021-02-13 12"},"coordinates":[4774,4306]},{"type":"Point","properties":{"Station_ID":"NJ-SS-39","Station_Nam":"WANTAGE TWP 1.6 SE, NJ","Latitude":"41.22830","Longitude":"-74.60330","Snowdepth":"16.000","Units":"in","Rept_Date":"2021-02-13 12"},"coordinates":[5093,3498]},{"type":"Point","properties":{"Station_ID":"NJ-MS-71","Station_Nam":"DENVILLE TWP 1.5 ESE, NJ","Latitude":"40.88053","Longitude":"-74.46310","Snowdepth":"16.000","Units":"in","Rept_Date":"2021-02-13 12"},"coordinates":[5124,3283]},{"type":"Point","properties":{"Station_ID":"NH-MR-60","Station_Nam":"SOUTH SUTTON 1.3 SE, NH","Latitude":"43.29531","Longitude":"-71.90238","Snowdepth":"16.000","Units":"in","Rept_Date":"2021-02-13 13"},"coordinates":[5700,4778]},{"type":"Point","properties":{"Station_ID":"MXON6","Station_Nam":"MEXICO","Latitude":"43.43830","Longitude":"-76.26560","Snowdepth":"16.000","Units":"in","Rept_Date":"2021-02-13 12"},"coordinates":[4719,4867]},{"type":"Point","properties":{"Station_ID":"MWOW3","Station_Nam":"MUKWONAGO","Latitude":"42.85380","Longitude":"-88.43550","Snowdepth":"16.000","Units":"in","Rept_Date":"2021-02-13 13"},"coordinates":[1981,4505]},{"type":"Point","properties":{"Station_ID":"MTQM4","Station_Nam":"MANISTIQUE WWTP","Latitude":"45.95120","Longitude":"-86.25130","Snowdepth":"16.000","Units":"in","Rept_Date":"2021-02-13 12"},"coordinates":[2472,6423]},{"type":"Point","properties":{"Station_ID":"MSRN3","Station_Nam":"MASCOMA RIVER","Latitude":"43.78330","Longitude":"-72.03330","Snowdepth":"16.000","Units":"in","Rept_Date":"2021-02-14 05"},"coordinates":[5671,5080]},{"type":"Point","properties":{"Station_ID":"MI-MQ-28","Station_Nam":"CARLSHEND, MI","Latitude":"46.31638","Longitude":"-87.19944","Snowdepth":"16.000","Units":"in","Rept_Date":"2021-02-13 13"},"coordinates":[2259,6649]},{"type":"Point","properties":{"Station_ID":"MI-CP-14","Station_Nam":"SAULT STE. MARIE 2.2 E, MI","Latitude":"46.48933","Longitude":"-84.31971","Snowdepth":"16.000","Units":"in","Rept_Date":"2021-02-13 14"},"coordinates":[2907,6756]},{"type":"Point","properties":{"Station_ID":"ME-SM-4","Station_Nam":"SOLON 3.9 ESE, ME","Latitude":"44.94705","Longitude":"-69.77790","Snowdepth":"16.000","Units":"in","Rept_Date":"2021-02-13 12"},"coordinates":[6178,5801]},{"type":"Point","properties":{"Station_ID":"ME-FR-4","Station_Nam":"NEW SHARON 2.0 NW, ME","Latitude":"44.66582","Longitude":"-70.02720","Snowdepth":"16.000","Units":"in","Rept_Date":"2021-02-13 12"},"coordinates":[6122,5627]},{"type":"Point","properties":{"Station_ID":"ME-AR-15","Station_Nam":"PRESQUE ISLE 1.3 WSW, ME","Latitude":"46.67960","Longitude":"-68.01270","Snowdepth":"16.000","Units":"in","Rept_Date":"2021-02-13 12"},"coordinates":[6576,6874]},{"type":"Point","properties":{"Station_ID":"MA-MD-125","Station_Nam":"TEWKSBURY 3.6 SSE, MA","Latitude":"42.57083","Longitude":"-71.19813","Snowdepth":"16.000","Units":"in","Rept_Date":"2021-02-13 12"},"coordinates":[5859,4330]},{"type":"Point","properties":{"Station_ID":"KMKE","Station_Nam":"GEN MITCHELL INTERNATIONAL  AIRPORT","Latitude":"42.95000","Longitude":"-87.90000","Snowdepth":"16.000","Units":"in","Rept_Date":"2021-02-14 06"},"coordinates":[2101,4564]},{"type":"Point","properties":{"Station_ID":"KINM1","Station_Nam":"KINGFIELD","Latitude":"44.95950","Longitude":"-70.17530","Snowdepth":"16.000","Units":"in","Rept_Date":"2021-02-13 14"},"coordinates":[6089,5809]},{"type":"Point","properties":{"Station_ID":"ISLV1","Station_Nam":"ISLAND POND","Latitude":"44.81280","Longitude":"-71.89020","Snowdepth":"16.000","Units":"in","Rept_Date":"2021-02-13 14"},"coordinates":[5703,5718]},{"type":"Point","properties":{"Station_ID":"IRMM4","Station_Nam":"WWTP","Latitude":"46.46670","Longitude":"-90.18330","Snowdepth":"16.000","Units":"in","Rept_Date":"2021-02-13 13"},"coordinates":[1587,6742]},{"type":"Point","properties":{"Station_ID":"IN-PT-91","Station_Nam":"CHESTERTON 4.2 E, IN","Latitude":"41.59433","Longitude":"-86.97520","Snowdepth":"16.000","Units":"in","Rept_Date":"2021-02-13 13"},"coordinates":[2309,3725]},{"type":"Point","properties":{"Station_ID":"IL-SP-25","Station_Nam":"FREEPORT 1.7 NW, IL","Latitude":"42.30427","Longitude":"-89.66285","Snowdepth":"16.000","Units":"in","Rept_Date":"2021-02-13 13"},"coordinates":[1704,4164]},{"type":"Point","properties":{"Station_ID":"IL-CK-180","Station_Nam":"PARK RIDGE 0.5 SSW, IL","Latitude":"42.00443","Longitude":"-87.84600","Snowdepth":"16.000","Units":"in","Rept_Date":"2021-02-13 13"},"coordinates":[2113,3979]},{"type":"Point","properties":{"Station_ID":"IL-CK-149","Station_Nam":"OAK LAWN 0.5 SSW, IL","Latitude":"41.70845","Longitude":"-87.75390","Snowdepth":"16.000","Units":"in","Rept_Date":"2021-02-13 14"},"coordinates":[2134,3796]},{"type":"Point","properties":{"Station_ID":"IA-BH-6","Station_Nam":"WATERLOO 1.9 SSE, IA","Latitude":"42.46500","Longitude":"-92.34100","Snowdepth":"16.000","Units":"in","Rept_Date":"2021-02-13 14"},"coordinates":[1102,4264]},{"type":"Point","properties":{"Station_ID":"GNDI4","Station_Nam":"GRUNDY CENTER,IA","Latitude":"42.35530","Longitude":"-92.77390","Snowdepth":"16.000","Units":"in","Rept_Date":"2021-02-13 15"},"coordinates":[1005,4196]},{"type":"Point","properties":{"Station_ID":"GLEI2","Station_Nam":"GLEN ELLYN 4S","Latitude":"41.82670","Longitude":"-88.05810","Snowdepth":"16.000","Units":"in","Rept_Date":"2021-02-13 18"},"coordinates":[2066,3869]},{"type":"Point","properties":{"Station_ID":"EVRW3","Station_Nam":"EAGLE RIVER-4 E","Latitude":"45.91890","Longitude":"-89.15280","Snowdepth":"16.000","Units":"in","Rept_Date":"2021-02-13 13"},"coordinates":[1819,6403]},{"type":"Point","properties":{"Station_ID":"EGRW3","Station_Nam":"EAGLE RIVER-SOUTH","Latitude":"45.91360","Longitude":"-89.24360","Snowdepth":"16.000","Units":"in","Rept_Date":"2021-02-13 13"},"coordinates":[1799,6399]},{"type":"Point","properties":{"Station_ID":"EAHV1","Station_Nam":"EAST HAVEN","Latitude":"44.64250","Longitude":"-71.89120","Snowdepth":"16.000","Units":"in","Rept_Date":"2021-02-13 12"},"coordinates":[5703,5612]},{"type":"Point","properties":{"Station_ID":"CRPI4","Station_Nam":"CEDAR RAPIDS NO 1","Latitude":"42.05000","Longitude":"-91.58810","Snowdepth":"16.000","Units":"in","Rept_Date":"2021-02-13 23"},"coordinates":[1271,4007]},{"type":"Point","properties":{"Station_ID":"CAN-ON-5","Station_Nam":"OWEN SOUND 1.5 NW - GSCA, CAN","Latitude":"44.57837","Longitude":"-80.95461","Snowdepth":"16.000","Units":"in","Rept_Date":"2021-02-13 13"},"coordinates":[3664,5573]},{"type":"Point","properties":{"Station_ID":"CAN-NL-65","Station_Nam":"KIPPENS 0.7 NE, CA","Latitude":"48.55436","Longitude":"-58.61850","Snowdepth":"16.000","Units":"in","Rept_Date":"2021-02-13 12"},"coordinates":[8689,8035]},{"type":"Point","properties":{"Station_ID":"ALXI4","Station_Nam":"WATERLOO SNOW","Latitude":"42.53130","Longitude":"-92.37550","Snowdepth":"16.000","Units":"in","Rept_Date":"2021-02-14 06"},"coordinates":[1094,4305]},{"type":"Point","properties":{"Station_ID":"ALO","Station_Nam":"WATERLOO MUNICIPAL AIRPORT","Latitude":"42.55690","Longitude":"-92.40000","Snowdepth":"16.000","Units":"in","Rept_Date":"2021-02-14 00"},"coordinates":[1089,4321]},{"type":"Point","properties":{"Station_ID":"AGNW3","Station_Nam":"ARGONNE-1.5 NW","Latitude":"45.67360","Longitude":"-88.90380","Snowdepth":"16.000","Units":"in","Rept_Date":"2021-02-13 13"},"coordinates":[1875,6251]},{"type":"Point","properties":{"Station_ID":"SVBQ6","Station_Nam":"SAVANT BASE","Latitude":"50.28730","Longitude":"-90.65670","Snowdepth":"15.870","Units":"in","Rept_Date":"2021-02-14 06"},"coordinates":[1481,9108]},{"type":"Point","properties":{"Station_ID":"NJ-MS-98","Station_Nam":"HARDING TWP 2.4 W, NJ","Latitude":"40.74165","Longitude":"-74.54592","Snowdepth":"15.800","Units":"in","Rept_Date":"2021-02-13 12"},"coordinates":[5106,3197]},{"type":"Point","properties":{"Station_ID":"IL-WL-63","Station_Nam":"NEW LENOX 1.8 SE, IL","Latitude":"41.49964","Longitude":"-87.96030","Snowdepth":"15.800","Units":"in","Rept_Date":"2021-02-13 13"},"coordinates":[2088,3666]},{"type":"Point","properties":{"Station_ID":"CAN-NB-105","Station_Nam":"SISSON BROOK 3.8 E, CAN","Latitude":"46.98305","Longitude":"-67.32532","Snowdepth":"15.700","Units":"in","Rept_Date":"2021-02-13 12"},"coordinates":[6730,7062]},{"type":"Point","properties":{"Station_ID":"CAN-MB-368","Station_Nam":"WHITESHELL 1.3 NE, CAN","Latitude":"49.74405","Longitude":"-95.19123","Snowdepth":"15.700","Units":"in","Rept_Date":"2021-02-13 14"},"coordinates":[461,8771]},{"type":"Point","properties":{"Station_ID":"WI-PR-6","Station_Nam":"PHILLIPS 1.3 S, WI","Latitude":"45.67677","Longitude":"-90.39543","Snowdepth":"15.500","Units":"in","Rept_Date":"2021-02-13 12"},"coordinates":[1540,6253]},{"type":"Point","properties":{"Station_ID":"WI-OZ-12","Station_Nam":"PORT WASHINGTON 0.5 S, WI","Latitude":"43.38610","Longitude":"-87.87900","Snowdepth":"15.500","Units":"in","Rept_Date":"2021-02-13 13"},"coordinates":[2106,4834]},{"type":"Point","properties":{"Station_ID":"VT-CH-11","Station_Nam":"UNDERHILL 5.1 NNE, VT","Latitude":"44.59811","Longitude":"-72.91880","Snowdepth":"15.500","Units":"in","Rept_Date":"2021-02-13 13"},"coordinates":[5472,5585]},{"type":"Point","properties":{"Station_ID":"NY-TM-42","Station_Nam":"ITHACA 6.4 E, NY","Latitude":"42.43350","Longitude":"-76.37860","Snowdepth":"15.500","Units":"in","Rept_Date":"2021-02-13 12"},"coordinates":[4693,4244]},{"type":"Point","properties":{"Station_ID":"NY-DL-23","Station_Nam":"LONG EDDY 6.5 NNE, NY","Latitude":"41.93510","Longitude":"-75.07840","Snowdepth":"15.500","Units":"in","Rept_Date":"2021-02-13 13"},"coordinates":[4986,3936]},{"type":"Point","properties":{"Station_ID":"MA-WR-88","Station_Nam":"LEICESTER 2.5 WSW, MA","Latitude":"42.23742","Longitude":"-71.94612","Snowdepth":"15.500","Units":"in","Rept_Date":"2021-02-13 12"},"coordinates":[5691,4123]},{"type":"Point","properties":{"Station_ID":"MA-FR-17","Station_Nam":"BUCKLAND 1.8 ESE, MA","Latitude":"42.58900","Longitude":"-72.75110","Snowdepth":"15.500","Units":"in","Rept_Date":"2021-02-13 13"},"coordinates":[5510,4341]},{"type":"Point","properties":{"Station_ID":"IL-MCH-13","Station_Nam":"BULL VALLEY 2.5 WNW, IL","Latitude":"42.32455","Longitude":"-88.39460","Snowdepth":"15.500","Units":"in","Rept_Date":"2021-02-13 14"},"coordinates":[1990,4177]},{"type":"Point","properties":{"Station_ID":"IL-DP-109","Station_Nam":"ELMHURST 0.8 ESE, IL","Latitude":"41.89287","Longitude":"-87.92960","Snowdepth":"15.500","Units":"in","Rept_Date":"2021-02-13 13"},"coordinates":[2094,3910]},{"type":"Point","properties":{"Station_ID":"IL-CK-211","Station_Nam":"OAK LAWN 1.6 WNW, IL","Latitude":"41.72686","Longitude":"-87.77770","Snowdepth":"15.500","Units":"in","Rept_Date":"2021-02-13 14"},"coordinates":[2129,3807]},{"type":"Point","properties":{"Station_ID":"IA-CT-8","Station_Nam":"ELKADER 6.8 WSW, IA","Latitude":"42.81136","Longitude":"-91.52332","Snowdepth":"15.500","Units":"in","Rept_Date":"2021-02-13 14"},"coordinates":[1286,4478]},{"type":"Point","properties":{"Station_ID":"IA-BT-12","Station_Nam":"FAIRFAX 4.0 NW, IA","Latitude":"41.96223","Longitude":"-91.83675","Snowdepth":"15.500","Units":"in","Rept_Date":"2021-02-13 13"},"coordinates":[1215,3953]},{"type":"Point","properties":{"Station_ID":"QGD","Station_Nam":"QGD","Latitude":"51.11140","Longitude":"-67.13940","Snowdepth":"15.315","Units":"in","Rept_Date":"2021-02-13 12"},"coordinates":[6772,9618]},{"type":"Point","properties":{"Station_ID":"WI-SR-1","Station_Nam":"HAYWARD 9.2 NNE, WI","Latitude":"46.13255","Longitude":"-91.40500","Snowdepth":"15.300","Units":"in","Rept_Date":"2021-02-13 12"},"coordinates":[1313,6535]},{"type":"Point","properties":{"Station_ID":"QLI","Station_Nam":"QLI","Latitude":"50.27080","Longitude":"-73.92280","Snowdepth":"15.197","Units":"in","Rept_Date":"2021-02-13 12"},"coordinates":[5246,9097]},{"type":"Point","properties":{"Station_ID":"WMTI4","Station_Nam":"FORT DODGE,IA","Latitude":"42.50610","Longitude":"-94.20110","Snowdepth":"15.000","Units":"in","Rept_Date":"2021-02-13 13"},"coordinates":[683,4289]},{"type":"Point","properties":{"Station_ID":"WLLI2","Station_Nam":"WILLOW SPRINGS","Latitude":"41.70910","Longitude":"-87.95940","Snowdepth":"15.000","Units":"in","Rept_Date":"2021-02-13 14"},"coordinates":[2088,3796]},{"type":"Point","properties":{"Station_ID":"WILW3","Station_Nam":"RESERVOIR","Latitude":"45.70000","Longitude":"-89.83330","Snowdepth":"15.000","Units":"in","Rept_Date":"2021-02-13 12"},"coordinates":[1666,6267]},{"type":"Point","properties":{"Station_ID":"WI-VL-14","Station_Nam":"BOULDER JUNCTION 1.4 NE, WI","Latitude":"46.12840","Longitude":"-89.62470","Snowdepth":"15.000","Units":"in","Rept_Date":"2021-02-13 13"},"coordinates":[1713,6532]},{"type":"Point","properties":{"Station_ID":"WI-DA-39","Station_Nam":"MADISON 4.0 W, WI","Latitude":"43.07741","Longitude":"-89.46757","Snowdepth":"15.000","Units":"in","Rept_Date":"2021-02-13 13"},"coordinates":[1748,4643]},{"type":"Point","properties":{"Station_ID":"WI-BY-2","Station_Nam":"MELLEN 18.6 SW, WI","Latitude":"46.16937","Longitude":"-90.98090","Snowdepth":"15.000","Units":"in","Rept_Date":"2021-02-13 13"},"coordinates":[1408,6558]},{"type":"Point","properties":{"Station_ID":"VT-LM-1","Station_Nam":"STOWE 0.2 SW, VT","Latitude":"44.46399","Longitude":"-72.69070","Snowdepth":"15.000","Units":"in","Rept_Date":"2021-02-13 12"},"coordinates":[5523,5502]},{"type":"Point","properties":{"Station_ID":"VQAW3","Station_Nam":"VIROQUA","Latitude":"43.55970","Longitude":"-90.87560","Snowdepth":"15.000","Units":"in","Rept_Date":"2021-02-13 13"},"coordinates":[1432,4942]},{"type":"Point","properties":{"Station_ID":"UGRW3","Station_Nam":"UNION GROVE,WI","Latitude":"42.70000","Longitude":"-88.03220","Snowdepth":"15.000","Units":"in","Rept_Date":"2021-02-13 13"},"coordinates":[2071,4409]},{"type":"Point","properties":{"Station_ID":"TOPM1","Station_Nam":"TOPSFIELD","Latitude":"45.43470","Longitude":"-67.72020","Snowdepth":"15.000","Units":"in","Rept_Date":"2021-02-13 12"},"coordinates":[6641,6103]},{"type":"Point","properties":{"Station_ID":"TAKW3","Station_Nam":"RICE RESERVOIR NO. 2","Latitude":"45.53770","Longitude":"-89.73220","Snowdepth":"15.000","Units":"in","Rept_Date":"2021-02-13 13"},"coordinates":[1689,6167]},{"type":"Point","properties":{"Station_ID":"SUTV1","Station_Nam":"SUTTON","Latitude":"44.61220","Longitude":"-72.04810","Snowdepth":"15.000","Units":"in","Rept_Date":"2021-02-13 13"},"coordinates":[5668,5594]},{"type":"Point","properties":{"Station_ID":"STEM4","Station_Nam":"STEUBEN","Latitude":"46.18530","Longitude":"-86.46410","Snowdepth":"15.000","Units":"in","Rept_Date":"2021-02-13 14"},"coordinates":[2424,6568]},{"type":"Point","properties":{"Station_ID":"SRAW3","Station_Nam":"SARONA","Latitude":"45.80250","Longitude":"-91.86700","Snowdepth":"15.000","Units":"in","Rept_Date":"2021-02-13 14"},"coordinates":[1209,6331]},{"type":"Point","properties":{"Station_ID":"RLKW3","Station_Nam":"REST LAKE","Latitude":"46.12220","Longitude":"-89.87720","Snowdepth":"15.000","Units":"in","Rept_Date":"2021-02-13 14"},"coordinates":[1656,6529]},{"type":"Point","properties":{"Station_ID":"RHRW3","Station_Nam":"RHINELANDER WJFW TV-12","Latitude":"45.62220","Longitude":"-89.41000","Snowdepth":"15.000","Units":"in","Rept_Date":"2021-02-14 04"},"coordinates":[1761,6219]},{"type":"Point","properties":{"Station_ID":"RHI","Station_Nam":"RHINELANDER-ONEIDA COUNTY AIRPORT","Latitude":"45.63080","Longitude":"-89.46530","Snowdepth":"15.000","Units":"in","Rept_Date":"2021-02-13 12"},"coordinates":[1749,6224]},{"type":"Point","properties":{"Station_ID":"RGLN4","Station_Nam":"REIGELSVILLE","Latitude":"40.59450","Longitude":"-75.18970","Snowdepth":"15.000","Units":"in","Rept_Date":"2021-02-13 12"},"coordinates":[4961,3106]},{"type":"Point","properties":{"Station_ID":"PEOI2","Station_Nam":"PEOTONE,IL","Latitude":"41.33330","Longitude":"-87.80000","Snowdepth":"15.000","Units":"in","Rept_Date":"2021-02-13 13"},"coordinates":[2124,3563]},{"type":"Point","properties":{"Station_ID":"PA-NH-8","Station_Nam":"MARTINS CREEK 0.2 E, PA","Latitude":"40.78285","Longitude":"-75.18270","Snowdepth":"15.000","Units":"in","Rept_Date":"2021-02-13 12"},"coordinates":[4962,3222]},{"type":"Point","properties":{"Station_ID":"PA-NH-15","Station_Nam":"PORTLAND 2.7 WNW, PA","Latitude":"40.93750","Longitude":"-75.14450","Snowdepth":"15.000","Units":"in","Rept_Date":"2021-02-13 12"},"coordinates":[4971,3318]},{"type":"Point","properties":{"Station_ID":"NY-PT-2","Station_Nam":"BEACON 4.2 ESE, NY","Latitude":"41.48070","Longitude":"-73.89110","Snowdepth":"15.000","Units":"in","Rept_Date":"2021-02-13 12"},"coordinates":[5253,3654]},{"type":"Point","properties":{"Station_ID":"NY-OT-11","Station_Nam":"HARTWICK, NY","Latitude":"42.65990","Longitude":"-75.05000","Snowdepth":"15.000","Units":"in","Rept_Date":"2021-02-13 14"},"coordinates":[4992,4385]},{"type":"Point","properties":{"Station_ID":"NY-FL-7","Station_Nam":"BROADALBIN 4.7 ESE, NY","Latitude":"43.03940","Longitude":"-74.10845","Snowdepth":"15.000","Units":"in","Rept_Date":"2021-02-13 14"},"coordinates":[5204,4620]},{"type":"Point","properties":{"Station_ID":"NY-DL-28","Station_Nam":"FLEISCHMANNS 5.7 N, NY","Latitude":"42.23779","Longitude":"-74.52335","Snowdepth":"15.000","Units":"in","Rept_Date":"2021-02-13 12"},"coordinates":[5111,4123]},{"type":"Point","properties":{"Station_ID":"NY-DL-25","Station_Nam":"HOBART 4.8 ESE, NY","Latitude":"42.35230","Longitude":"-74.57830","Snowdepth":"15.000","Units":"in","Rept_Date":"2021-02-13 12"},"coordinates":[5098,4194]},{"type":"Point","properties":{"Station_ID":"NWSM1","Station_Nam":"NEW SHARON","Latitude":"44.63520","Longitude":"-70.00020","Snowdepth":"15.000","Units":"in","Rept_Date":"2021-02-13 12"},"coordinates":[6128,5608]},{"type":"Point","properties":{"Station_ID":"NJ-WR-5","Station_Nam":"HACKETTSTOWN 0.8 W, NJ","Latitude":"40.85155","Longitude":"-74.84030","Snowdepth":"15.000","Units":"in","Rept_Date":"2021-02-13 12"},"coordinates":[5039,3265]},{"type":"Point","properties":{"Station_ID":"NJ-UN-10","Station_Nam":"NEW PROVIDENCE 0.8 ESE, NJ","Latitude":"40.69450","Longitude":"-74.38980","Snowdepth":"15.000","Units":"in","Rept_Date":"2021-02-13 12"},"coordinates":[5141,3168]},{"type":"Point","properties":{"Station_ID":"NJ-MS-42","Station_Nam":"RANDOLPH TWP 2.0 E, NJ","Latitude":"40.83980","Longitude":"-74.54320","Snowdepth":"15.000","Units":"in","Rept_Date":"2021-02-13 13"},"coordinates":[5106,3258]},{"type":"Point","properties":{"Station_ID":"MSN","Station_Nam":"MADISON DANE COUNTY RGNL","Latitude":"43.13970","Longitude":"-89.33750","Snowdepth":"15.000","Units":"in","Rept_Date":"2021-02-14 00"},"coordinates":[1778,4682]},{"type":"Point","properties":{"Station_ID":"MKX","Station_Nam":"MILWAUKEE, WI","Latitude":"42.96810","Longitude":"-88.54920","Snowdepth":"15.000","Units":"in","Rept_Date":"2021-02-14 06"},"coordinates":[1955,4576]},{"type":"Point","properties":{"Station_ID":"MI-OC-3","Station_Nam":"HART 3 WSW, MI","Latitude":"43.67470","Longitude":"-86.42250","Snowdepth":"15.000","Units":"in","Rept_Date":"2021-02-13 12"},"coordinates":[2434,5013]},{"type":"Point","properties":{"Station_ID":"MI-MQ-19","Station_Nam":"ISHPEMING 7.2 SW, MI","Latitude":"46.40550","Longitude":"-87.75670","Snowdepth":"15.000","Units":"in","Rept_Date":"2021-02-13 11"},"coordinates":[2133,6704]},{"type":"Point","properties":{"Station_ID":"MI-DL-1","Station_Nam":"GARDEN CORNERS 0.8 NW, MI","Latitude":"45.89815","Longitude":"-86.54850","Snowdepth":"15.000","Units":"in","Rept_Date":"2021-02-13 13"},"coordinates":[2405,6390]},{"type":"Point","properties":{"Station_ID":"MECN6","Station_Nam":"MECKLENBURG 4 SW","Latitude":"42.44220","Longitude":"-76.75740","Snowdepth":"15.000","Units":"in","Rept_Date":"2021-02-13 12"},"coordinates":[4608,4250]},{"type":"Point","properties":{"Station_ID":"ME-AN-32","Station_Nam":"WINTHROP 9.4 W, ME","Latitude":"44.30476","Longitude":"-70.15835","Snowdepth":"15.000","Units":"in","Rept_Date":"2021-02-13 12"},"coordinates":[6093,5403]},{"type":"Point","properties":{"Station_ID":"MDDW3","Station_Nam":"MIDDLETON,WI","Latitude":"43.09060","Longitude":"-89.51470","Snowdepth":"15.000","Units":"in","Rept_Date":"2021-02-13 13"},"coordinates":[1738,4651]},{"type":"Point","properties":{"Station_ID":"MA-WR-89","Station_Nam":"HOLDEN 0.9 SSE, MA","Latitude":"42.33809","Longitude":"-71.85686","Snowdepth":"15.000","Units":"in","Rept_Date":"2021-02-13 12"},"coordinates":[5711,4185]},{"type":"Point","properties":{"Station_ID":"LYNW3","Station_Nam":"LYNXVILLE DAM 9","Latitude":"43.21180","Longitude":"-91.09850","Snowdepth":"15.000","Units":"in","Rept_Date":"2021-02-13 14"},"coordinates":[1381,4726]},{"type":"Point","properties":{"Station_ID":"LNK","Station_Nam":"LINCOLN MUNICIPAL AIRPORT","Latitude":"40.85080","Longitude":"-96.75920","Snowdepth":"15.000","Units":"in","Rept_Date":"2021-02-14 00"},"coordinates":[108,3264]},{"type":"Point","properties":{"Station_ID":"KORD","Station_Nam":"CHICAGO OHARE INTERNATIONAL","Latitude":"41.98333","Longitude":"-87.91666","Snowdepth":"15.000","Units":"in","Rept_Date":"2021-02-14 00"},"coordinates":[2097,3966]},{"type":"Point","properties":{"Station_ID":"KMSN","Station_Nam":"MADISON DANE COUNTY RGNL","Latitude":"43.13333","Longitude":"-89.35000","Snowdepth":"15.000","Units":"in","Rept_Date":"2021-02-14 06"},"coordinates":[1775,4678]},{"type":"Point","properties":{"Station_ID":"IN-PT-98","Station_Nam":"VALPARAISO 0.9 NNW, IN","Latitude":"41.48956","Longitude":"-87.05800","Snowdepth":"15.000","Units":"in","Rept_Date":"2021-02-13 13"},"coordinates":[2291,3660]},{"type":"Point","properties":{"Station_ID":"IN-PT-3","Station_Nam":"VALPARAISO 2.0 WSW, IN","Latitude":"41.46741","Longitude":"-87.08750","Snowdepth":"15.000","Units":"in","Rept_Date":"2021-02-13 23"},"coordinates":[2284,3646]},{"type":"Point","properties":{"Station_ID":"IL-WL-46","Station_Nam":"PEOTONE 0.4 ENE, IL","Latitude":"41.33361","Longitude":"-87.78910","Snowdepth":"15.000","Units":"in","Rept_Date":"2021-02-13 13"},"coordinates":[2126,3563]},{"type":"Point","properties":{"Station_ID":"IL-WL-25","Station_Nam":"CRETE 2.6 E, IL","Latitude":"41.44681","Longitude":"-87.56570","Snowdepth":"15.000","Units":"in","Rept_Date":"2021-02-13 13"},"coordinates":[2176,3634]},{"type":"Point","properties":{"Station_ID":"IL-MCH-43","Station_Nam":"ALGONQUIN 0.7 N, IL","Latitude":"42.17392","Longitude":"-88.29930","Snowdepth":"15.000","Units":"in","Rept_Date":"2021-02-13 12"},"coordinates":[2011,4084]},{"type":"Point","properties":{"Station_ID":"IL-LK-42","Station_Nam":"GURNEE 1.6 W, IL","Latitude":"42.37776","Longitude":"-87.96740","Snowdepth":"15.000","Units":"in","Rept_Date":"2021-02-13 13"},"coordinates":[2086,4210]},{"type":"Point","properties":{"Station_ID":"IL-CK-61","Station_Nam":"OAK PARK 1.0 SW, IL","Latitude":"41.87558","Longitude":"-87.80110","Snowdepth":"15.000","Units":"in","Rept_Date":"2021-02-13 13"},"coordinates":[2123,3899]},{"type":"Point","properties":{"Station_ID":"IL-CK-320","Station_Nam":"PARK FOREST 0.7 WNW, IL","Latitude":"41.48579","Longitude":"-87.69962","Snowdepth":"15.000","Units":"in","Rept_Date":"2021-02-13 13"},"coordinates":[2146,3658]},{"type":"Point","properties":{"Station_ID":"IL-CK-152","Station_Nam":"CHICAGO RIDGE 0.2 WSW, IL","Latitude":"41.70177","Longitude":"-87.78200","Snowdepth":"15.000","Units":"in","Rept_Date":"2021-02-13 13"},"coordinates":[2128,3791]},{"type":"Point","properties":{"Station_ID":"IA-ST-3","Station_Nam":"PARK VIEW 0.2 WSW, IA","Latitude":"41.68855","Longitude":"-90.54380","Snowdepth":"15.000","Units":"in","Rept_Date":"2021-02-13 13"},"coordinates":[1506,3783]},{"type":"Point","properties":{"Station_ID":"IA-LN-7","Station_Nam":"CENTRAL CITY 6.7 W, IA","Latitude":"42.19830","Longitude":"-91.65430","Snowdepth":"15.000","Units":"in","Rept_Date":"2021-02-13 13"},"coordinates":[1256,4099]},{"type":"Point","properties":{"Station_ID":"IA-JH-14","Station_Nam":"SWISHER 0.4 NNE, IA","Latitude":"41.84830","Longitude":"-91.69210","Snowdepth":"15.000","Units":"in","Rept_Date":"2021-02-13 14"},"coordinates":[1248,3882]},{"type":"Point","properties":{"Station_ID":"HRTM4","Station_Nam":"HART,MI","Latitude":"43.70000","Longitude":"-86.36670","Snowdepth":"15.000","Units":"in","Rept_Date":"2021-02-13 12"},"coordinates":[2446,5029]},{"type":"Point","properties":{"Station_ID":"GDCM4","Station_Nam":"GARDEN CORNERS","Latitude":"45.89830","Longitude":"-86.54850","Snowdepth":"15.000","Units":"in","Rept_Date":"2021-02-13 13"},"coordinates":[2405,6390]},{"type":"Point","properties":{"Station_ID":"ENFV1","Station_Nam":"ENOSBURG FALLS 2","Latitude":"44.90960","Longitude":"-72.81370","Snowdepth":"15.000","Units":"in","Rept_Date":"2021-02-13 14"},"coordinates":[5495,5778]},{"type":"Point","properties":{"Station_ID":"CT-FR-58","Station_Nam":"RIDGEFIELD 3.6 N, CT","Latitude":"41.32589","Longitude":"-73.48902","Snowdepth":"15.000","Units":"in","Rept_Date":"2021-02-13 11"},"coordinates":[5344,3559]},{"type":"Point","properties":{"Station_ID":"CMKW3","Station_Nam":"CLAM LAKE 4W","Latitude":"46.16940","Longitude":"-90.98080","Snowdepth":"15.000","Units":"in","Rept_Date":"2021-02-13 13"},"coordinates":[1408,6558]},{"type":"Point","properties":{"Station_ID":"CAN-ON-42","Station_Nam":"VANKLEEK HILL 3.4 S, CA","Latitude":"45.48987","Longitude":"-74.64570","Snowdepth":"15.000","Units":"in","Rept_Date":"2021-02-13 12"},"coordinates":[5083,6137]},{"type":"Point","properties":{"Station_ID":"CAN-NB-64","Station_Nam":"KESWICK RIDGE 4.0 SE, CAN","Latitude":"45.97014","Longitude":"-66.85538","Snowdepth":"15.000","Units":"in","Rept_Date":"2021-02-13 12"},"coordinates":[6836,6434]},{"type":"Point","properties":{"Station_ID":"CAN-MB-32","Station_Nam":"PINAWA 1.0 SW, CA","Latitude":"50.14747","Longitude":"-95.89020","Snowdepth":"15.000","Units":"in","Rept_Date":"2021-02-13 13"},"coordinates":[303,9021]},{"type":"Point","properties":{"Station_ID":"BROW3","Station_Nam":"BRODHEAD,WI","Latitude":"42.61720","Longitude":"-89.38970","Snowdepth":"15.000","Units":"in","Rept_Date":"2021-02-13 12"},"coordinates":[1766,4358]},{"type":"Point","properties":{"Station_ID":"BLHM3","Station_Nam":"BLUE HILL COOP","Latitude":"42.21230","Longitude":"-71.11370","Snowdepth":"15.000","Units":"in","Rept_Date":"2021-02-13 12"},"coordinates":[5878,4108]},{"type":"Point","properties":{"Station_ID":"BARI2","Station_Nam":"CRABTREE NATURE CENTER","Latitude":"42.11530","Longitude":"-88.16390","Snowdepth":"15.000","Units":"in","Rept_Date":"2021-02-13 14"},"coordinates":[2042,4047]},{"type":"Point","properties":{"Station_ID":"CAN-ON-791","Station_Nam":"METCALFE 4.4 NNW, CAN","Latitude":"45.27286","Longitude":"-75.48952","Snowdepth":"14.800","Units":"in","Rept_Date":"2021-02-13 11"},"coordinates":[4893,6003]},{"type":"Point","properties":{"Station_ID":"NJ-MS-59","Station_Nam":"MADISON 0.8 WSW, NJ","Latitude":"40.75239","Longitude":"-74.42972","Snowdepth":"14.700","Units":"in","Rept_Date":"2021-02-13 12"},"coordinates":[5132,3204]},{"type":"Point","properties":{"Station_ID":"CAN-NB-98","Station_Nam":"HOYT 4.2 S, CAN","Latitude":"45.54763","Longitude":"-66.55440","Snowdepth":"14.600","Units":"in","Rept_Date":"2021-02-13 11"},"coordinates":[6904,6173]},{"type":"Point","properties":{"Station_ID":"WI-SB-10","Station_Nam":"RANDOM LAKE 0.5 SSE, WI","Latitude":"43.54812","Longitude":"-87.95050","Snowdepth":"14.500","Units":"in","Rept_Date":"2021-02-13 13"},"coordinates":[2090,4935]},{"type":"Point","properties":{"Station_ID":"WI-JF-17","Station_Nam":"JOHNSON CREEK 2.7 SSW, WI","Latitude":"43.04559","Longitude":"-88.79925","Snowdepth":"14.500","Units":"in","Rept_Date":"2021-02-13 12"},"coordinates":[1899,4623]},{"type":"Point","properties":{"Station_ID":"WI-GL-4","Station_Nam":"GREEN LAKE 0.8 E, WI","Latitude":"43.84369","Longitude":"-88.94066","Snowdepth":"14.500","Units":"in","Rept_Date":"2021-02-13 13"},"coordinates":[1867,5118]},{"type":"Point","properties":{"Station_ID":"VT-WS-15","Station_Nam":"EAST CALAIS 1.5 SW, VT","Latitude":"44.35523","Longitude":"-72.45540","Snowdepth":"14.500","Units":"in","Rept_Date":"2021-02-13 12"},"coordinates":[5576,5434]},{"type":"Point","properties":{"Station_ID":"NY-TG-15","Station_Nam":"BERKSHIRE 1.9 ENE, NY","Latitude":"42.31910","Longitude":"-76.21940","Snowdepth":"14.500","Units":"in","Rept_Date":"2021-02-13 13"},"coordinates":[4729,4174]},{"type":"Point","properties":{"Station_ID":"NY-OR-19","Station_Nam":"GREENWOOD LAKE 3.0 SW, NY","Latitude":"41.18900","Longitude":"-74.32650","Snowdepth":"14.500","Units":"in","Rept_Date":"2021-02-13 13"},"coordinates":[5155,3474]},{"type":"Point","properties":{"Station_ID":"NJ-SM-67","Station_Nam":"FRANKLIN TWP 2.4 ENE, NJ","Latitude":"40.49170","Longitude":"-74.51077","Snowdepth":"14.500","Units":"in","Rept_Date":"2021-02-13 12"},"coordinates":[5114,3042]},{"type":"Point","properties":{"Station_ID":"NJ-SM-56","Station_Nam":"FRANKLIN TWP 5.9 SW, NJ","Latitude":"40.40787","Longitude":"-74.61990","Snowdepth":"14.500","Units":"in","Rept_Date":"2021-02-13 13"},"coordinates":[5089,2990]},{"type":"Point","properties":{"Station_ID":"NJ-PS-14","Station_Nam":"HAWTHORNE 1.0 SSE, NJ","Latitude":"40.94364","Longitude":"-74.15230","Snowdepth":"14.500","Units":"in","Rept_Date":"2021-02-13 12"},"coordinates":[5194,3322]},{"type":"Point","properties":{"Station_ID":"NJ-HN-9","Station_Nam":"FRANKLIN TWP 0.4 W, NJ","Latitude":"40.56633","Longitude":"-74.94430","Snowdepth":"14.500","Units":"in","Rept_Date":"2021-02-13 18"},"coordinates":[5016,3088]},{"type":"Point","properties":{"Station_ID":"NJ-HN-31","Station_Nam":"FRENCHTOWN 0.5 N, NJ","Latitude":"40.53420","Longitude":"-75.05590","Snowdepth":"14.500","Units":"in","Rept_Date":"2021-02-13 12"},"coordinates":[4991,3068]},{"type":"Point","properties":{"Station_ID":"NJ-BG-23","Station_Nam":"OAKLAND 0.9 SSE, NJ","Latitude":"41.01905","Longitude":"-74.23340","Snowdepth":"14.500","Units":"in","Rept_Date":"2021-02-13 13"},"coordinates":[5176,3369]},{"type":"Point","properties":{"Station_ID":"MA-MD-156","Station_Nam":"MARLBOROUGH 2.8 ENE, MA","Latitude":"42.37021","Longitude":"-71.50011","Snowdepth":"14.500","Units":"in","Rept_Date":"2021-02-13 10"},"coordinates":[5791,4205]},{"type":"Point","properties":{"Station_ID":"MA-FR-13","Station_Nam":"CONWAY 2.9 NW, MA","Latitude":"42.54419","Longitude":"-72.72743","Snowdepth":"14.500","Units":"in","Rept_Date":"2021-02-13 13"},"coordinates":[5515,4313]},{"type":"Point","properties":{"Station_ID":"IL-WL-20","Station_Nam":"MANHATTAN 4.7 ENE, IL","Latitude":"41.45845","Longitude":"-87.90980","Snowdepth":"14.500","Units":"in","Rept_Date":"2021-02-13 14"},"coordinates":[2099,3641]},{"type":"Point","properties":{"Station_ID":"IL-WL-166","Station_Nam":"NAPERVILLE 3.6 SE, IL","Latitude":"41.72312","Longitude":"-88.10876","Snowdepth":"14.500","Units":"in","Rept_Date":"2021-02-13 14"},"coordinates":[2054,3805]},{"type":"Point","properties":{"Station_ID":"IL-WL-131","Station_Nam":"HOMER GLEN 0.7 NNE, IL","Latitude":"41.60842","Longitude":"-87.93270","Snowdepth":"14.500","Units":"in","Rept_Date":"2021-02-13 13"},"coordinates":[2094,3734]},{"type":"Point","properties":{"Station_ID":"IL-KN-5","Station_Nam":"BATAVIA 0.7 WSW, IL","Latitude":"41.84815","Longitude":"-88.31440","Snowdepth":"14.500","Units":"in","Rept_Date":"2021-02-13 12"},"coordinates":[2008,3882]},{"type":"Point","properties":{"Station_ID":"IL-DP-118","Station_Nam":"DARIEN 0.4 SSE, IL","Latitude":"41.74312","Longitude":"-87.97462","Snowdepth":"14.500","Units":"in","Rept_Date":"2021-02-13 14"},"coordinates":[2084,3817]},{"type":"Point","properties":{"Station_ID":"IL-CK-285","Station_Nam":"HARWOOD HEIGHTS 0.4 NNE, IL","Latitude":"41.97154","Longitude":"-87.80325","Snowdepth":"14.500","Units":"in","Rept_Date":"2021-02-13 13"},"coordinates":[2123,3958]},{"type":"Point","properties":{"Station_ID":"QLP","Station_Nam":"QLP","Latitude":"48.13920","Longitude":"-72.63830","Snowdepth":"14.213","Units":"in","Rept_Date":"2021-02-13 12"},"coordinates":[5535,7777]},{"type":"Point","properties":{"Station_ID":"CAN-PE-20","Station_Nam":"BONSHAW 6.6 NNE, CAN","Latitude":"46.25082","Longitude":"-63.33409","Snowdepth":"14.200","Units":"in","Rept_Date":"2021-02-13 12"},"coordinates":[7628,6608]},{"type":"Point","properties":{"Station_ID":"WTBW3","Station_Nam":"WEST BEND PUBLIC WORKS","Latitude":"43.41110","Longitude":"-88.19380","Snowdepth":"14.000","Units":"in","Rept_Date":"2021-02-13 12"},"coordinates":[2035,4850]},{"type":"Point","properties":{"Station_ID":"WRSM5","Station_Nam":"WRENSHALL","Latitude":"46.61550","Longitude":"-92.38380","Snowdepth":"14.000","Units":"in","Rept_Date":"2021-02-13 14"},"coordinates":[1092,6834]},{"type":"Point","properties":{"Station_ID":"WI-WK-29","Station_Nam":"OCONOMOWOC 4.6 NE, WI","Latitude":"43.14621","Longitude":"-88.42860","Snowdepth":"14.000","Units":"in","Rept_Date":"2021-02-13 15"},"coordinates":[1982,4686]},{"type":"Point","properties":{"Station_ID":"WI-WK-20","Station_Nam":"MUKWONAGO 0.5 N, WI","Latitude":"42.87385","Longitude":"-88.33180","Snowdepth":"14.000","Units":"in","Rept_Date":"2021-02-13 14"},"coordinates":[2004,4517]},{"type":"Point","properties":{"Station_ID":"WI-DD-4","Station_Nam":"BEAVER DAM 1.4 SSW, WI","Latitude":"43.44719","Longitude":"-88.85260","Snowdepth":"14.000","Units":"in","Rept_Date":"2021-02-13 14"},"coordinates":[1887,4872]},{"type":"Point","properties":{"Station_ID":"WI-DA-88","Station_Nam":"BLACK EARTH 3.1 SSE, WI","Latitude":"43.09290","Longitude":"-89.72889","Snowdepth":"14.000","Units":"in","Rept_Date":"2021-02-13 13"},"coordinates":[1690,4653]},{"type":"Point","properties":{"Station_ID":"WI-DA-87","Station_Nam":"DUNKIRK 0.1 NW, WI","Latitude":"42.88356","Longitude":"-89.21056","Snowdepth":"14.000","Units":"in","Rept_Date":"2021-02-13 12"},"coordinates":[1806,4523]},{"type":"Point","properties":{"Station_ID":"WBRM4","Station_Nam":"WEST BRANCH 3SE","Latitude":"44.25410","Longitude":"-84.20110","Snowdepth":"14.000","Units":"in","Rept_Date":"2021-02-13 13"},"coordinates":[2933,5372]},{"type":"Point","properties":{"Station_ID":"VT-OL-25","Station_Nam":"NEWPORT 1.5 WSW, VT","Latitude":"44.93059","Longitude":"-72.23731","Snowdepth":"14.000","Units":"in","Rept_Date":"2021-02-13 12"},"coordinates":[5625,5791]},{"type":"Point","properties":{"Station_ID":"VT-OL-2","Station_Nam":"BARTON 3.0 ENE, VT","Latitude":"44.75863","Longitude":"-72.11680","Snowdepth":"14.000","Units":"in","Rept_Date":"2021-02-13 12"},"coordinates":[5652,5684]},{"type":"Point","properties":{"Station_ID":"VT-CL-14","Station_Nam":"LYNDONVILLE 1.1 W, VT","Latitude":"44.53582","Longitude":"-72.02867","Snowdepth":"14.000","Units":"in","Rept_Date":"2021-02-13 12"},"coordinates":[5672,5546]},{"type":"Point","properties":{"Station_ID":"TURM1","Station_Nam":"TURNER","Latitude":"44.28220","Longitude":"-70.25610","Snowdepth":"14.000","Units":"in","Rept_Date":"2021-02-13 12"},"coordinates":[6071,5389]},{"type":"Point","properties":{"Station_ID":"STGW3","Station_Nam":"ST GERMAIN","Latitude":"45.91550","Longitude":"-89.48940","Snowdepth":"14.000","Units":"in","Rept_Date":"2021-02-13 12"},"coordinates":[1744,6401]},{"type":"Point","properties":{"Station_ID":"SHIW3","Station_Nam":"SHIOCTON","Latitude":"44.43890","Longitude":"-88.58390","Snowdepth":"14.000","Units":"in","Rept_Date":"2021-02-13 13"},"coordinates":[1947,5486]},{"type":"Point","properties":{"Station_ID":"SHHN6","Station_Nam":"SCHOHARIE VILLAGE","Latitude":"42.66500","Longitude":"-74.30360","Snowdepth":"14.000","Units":"in","Rept_Date":"2021-02-13 12"},"coordinates":[5160,4388]},{"type":"Point","properties":{"Station_ID":"SAVW3","Station_Nam":"SAUKVILLE WWTP","Latitude":"43.37470","Longitude":"-87.93940","Snowdepth":"14.000","Units":"in","Rept_Date":"2021-02-13 12"},"coordinates":[2092,4827]},{"type":"Point","properties":{"Station_ID":"RHIW3","Station_Nam":"RHINELANDER","Latitude":"45.59860","Longitude":"-89.45080","Snowdepth":"14.000","Units":"in","Rept_Date":"2021-02-13 13"},"coordinates":[1752,6204]},{"type":"Point","properties":{"Station_ID":"RCFI2","Station_Nam":"ROCK FALLS 3 NE","Latitude":"41.79810","Longitude":"-89.64140","Snowdepth":"14.000","Units":"in","Rept_Date":"2021-02-13 13"},"coordinates":[1709,3851]},{"type":"Point","properties":{"Station_ID":"PLFV1","Station_Nam":"PLAINFIELD","Latitude":"44.27610","Longitude":"-72.41500","Snowdepth":"14.000","Units":"in","Rept_Date":"2021-02-13 12"},"coordinates":[5585,5385]},{"type":"Point","properties":{"Station_ID":"PKFI2","Station_Nam":"PARK FOREST,IL","Latitude":"41.50000","Longitude":"-87.68330","Snowdepth":"14.000","Units":"in","Rept_Date":"2021-02-13 11"},"coordinates":[2150,3666]},{"type":"Point","properties":{"Station_ID":"OLNI4","Station_Nam":"OELWEIN 1E","Latitude":"42.68010","Longitude":"-91.87510","Snowdepth":"14.000","Units":"in","Rept_Date":"2021-02-13 12"},"coordinates":[1207,4397]},{"type":"Point","properties":{"Station_ID":"NY-UL-29","Station_Nam":"HIGHLAND 0.2 SW, NY","Latitude":"41.71486","Longitude":"-73.96839","Snowdepth":"14.000","Units":"in","Rept_Date":"2021-02-13 12"},"coordinates":[5236,3799]},{"type":"Point","properties":{"Station_ID":"NUMN3","Station_Nam":"NORTHUMBERLAND","Latitude":"44.52830","Longitude":"-71.50440","Snowdepth":"14.000","Units":"in","Rept_Date":"2021-02-13 13"},"coordinates":[5790,5542]},{"type":"Point","properties":{"Station_ID":"NPTV1","Station_Nam":"NEWPORT","Latitude":"44.94900","Longitude":"-72.19120","Snowdepth":"14.000","Units":"in","Rept_Date":"2021-02-13 12"},"coordinates":[5636,5802]},{"type":"Point","properties":{"Station_ID":"NH-GR-47","Station_Nam":"LITTLETON 7.3 W, NH","Latitude":"44.31847","Longitude":"-71.91086","Snowdepth":"14.000","Units":"in","Rept_Date":"2021-02-13 13"},"coordinates":[5699,5412]},{"type":"Point","properties":{"Station_ID":"NH-CS-7","Station_Nam":"LANCASTER 0.5 N, NH","Latitude":"44.49611","Longitude":"-71.57640","Snowdepth":"14.000","Units":"in","Rept_Date":"2021-02-13 12"},"coordinates":[5774,5522]},{"type":"Point","properties":{"Station_ID":"NCON3","Station_Nam":"NORTH CONWAY","Latitude":"44.05620","Longitude":"-71.12970","Snowdepth":"14.000","Units":"in","Rept_Date":"2021-02-13 13"},"coordinates":[5874,5249]},{"type":"Point","properties":{"Station_ID":"NCKN6","Station_Nam":"NORTH CREEK 5 SE","Latitude":"43.66110","Longitude":"-73.89690","Snowdepth":"14.000","Units":"in","Rept_Date":"2021-02-13 12"},"coordinates":[5252,5005]},{"type":"Point","properties":{"Station_ID":"MRBW3","Station_Nam":"MT HOREB","Latitude":"42.98030","Longitude":"-89.73940","Snowdepth":"14.000","Units":"in","Rept_Date":"2021-02-13 13"},"coordinates":[1687,4583]},{"type":"Point","properties":{"Station_ID":"MQRW3","Station_Nam":"MINOCQUA","Latitude":"45.88630","Longitude":"-89.73220","Snowdepth":"14.000","Units":"in","Rept_Date":"2021-02-13 12"},"coordinates":[1689,6382]},{"type":"Point","properties":{"Station_ID":"MN-SL-18","Station_Nam":"DULUTH 1.4 NNW, MN","Latitude":"46.80321","Longitude":"-92.11240","Snowdepth":"14.000","Units":"in","Rept_Date":"2021-02-13 14"},"coordinates":[1153,6950]},{"type":"Point","properties":{"Station_ID":"MI-OT-17","Station_Nam":"GAYLORD 4.1 S, MI","Latitude":"44.96388","Longitude":"-84.68467","Snowdepth":"14.000","Units":"in","Rept_Date":"2021-02-13 12"},"coordinates":[2825,5811]},{"type":"Point","properties":{"Station_ID":"MI-MG-13","Station_Nam":"MUSKEGON 3.5 SSE, MI","Latitude":"43.17913","Longitude":"-86.23640","Snowdepth":"14.000","Units":"in","Rept_Date":"2021-02-13 12"},"coordinates":[2475,4706]},{"type":"Point","properties":{"Station_ID":"MI-AT-6","Station_Nam":"MANCELONA 0.5 ESE, MI","Latitude":"44.89981","Longitude":"-85.05100","Snowdepth":"14.000","Units":"in","Rept_Date":"2021-02-13 13"},"coordinates":[2742,5772]},{"type":"Point","properties":{"Station_ID":"ME-OX-26","Station_Nam":"OXFORD 5.3 SW, ME","Latitude":"44.09787","Longitude":"-70.59612","Snowdepth":"14.000","Units":"in","Rept_Date":"2021-02-13 12"},"coordinates":[5994,5275]},{"type":"Point","properties":{"Station_ID":"MDWI2","Station_Nam":"BURBANK,IL","Latitude":"41.73330","Longitude":"-87.76670","Snowdepth":"14.000","Units":"in","Rept_Date":"2021-02-14 06"},"coordinates":[2131,3811]},{"type":"Point","properties":{"Station_ID":"MA-MD-89","Station_Nam":"SUDBURY 3.6 W, MA","Latitude":"42.36394","Longitude":"-71.47012","Snowdepth":"14.000","Units":"in","Rept_Date":"2021-02-13 12"},"coordinates":[5798,4201]},{"type":"Point","properties":{"Station_ID":"MA-MD-51","Station_Nam":"MAYNARD 0.7 ESE, MA","Latitude":"42.42027","Longitude":"-71.44484","Snowdepth":"14.000","Units":"in","Rept_Date":"2021-02-13 12"},"coordinates":[5803,4236]},{"type":"Point","properties":{"Station_ID":"MA-MD-12","Station_Nam":"ACTON 1.3 SW, MA","Latitude":"42.46746","Longitude":"-71.48200","Snowdepth":"14.000","Units":"in","Rept_Date":"2021-02-13 12"},"coordinates":[5795,4266]},{"type":"Point","properties":{"Station_ID":"MA-BE-21","Station_Nam":"CHESHIRE 0.5 NNW, MA","Latitude":"42.56315","Longitude":"-73.15701","Snowdepth":"14.000","Units":"in","Rept_Date":"2021-02-13 12"},"coordinates":[5418,4325]},{"type":"Point","properties":{"Station_ID":"LOTI2","Station_Nam":"ROMEOVILLE WFO","Latitude":"41.60440","Longitude":"-88.08580","Snowdepth":"14.000","Units":"in","Rept_Date":"2021-02-14 06"},"coordinates":[2059,3731]},{"type":"Point","properties":{"Station_ID":"LKZI2","Station_Nam":"LAKE ZURICH","Latitude":"42.19250","Longitude":"-88.06530","Snowdepth":"14.000","Units":"in","Rept_Date":"2021-02-13 13"},"coordinates":[2064,4095]},{"type":"Point","properties":{"Station_ID":"LKMW3","Station_Nam":"LAKE MILLS,WI","Latitude":"43.06670","Longitude":"-88.91220","Snowdepth":"14.000","Units":"in","Rept_Date":"2021-02-13 15"},"coordinates":[1873,4637]},{"type":"Point","properties":{"Station_ID":"LGHP1","Station_Nam":"LEHIGHTON 1SSW","Latitude":"40.82230","Longitude":"-75.69620","Snowdepth":"14.000","Units":"in","Rept_Date":"2021-02-13 13"},"coordinates":[4847,3247]},{"type":"Point","properties":{"Station_ID":"LEIM5","Station_Nam":"ORR 3E","Latitude":"48.05810","Longitude":"-92.75220","Snowdepth":"14.000","Units":"in","Rept_Date":"2021-02-13 12"},"coordinates":[1009,7727]},{"type":"Point","properties":{"Station_ID":"LAPP1","Station_Nam":"LAPORTE,PA","Latitude":"41.42470","Longitude":"-76.49250","Snowdepth":"14.000","Units":"in","Rept_Date":"2021-02-13 12"},"coordinates":[4668,3620]},{"type":"Point","properties":{"Station_ID":"LAFW3","Station_Nam":"LA FARGE","Latitude":"43.57340","Longitude":"-90.63200","Snowdepth":"14.000","Units":"in","Rept_Date":"2021-02-13 13"},"coordinates":[1486,4950]},{"type":"Point","properties":{"Station_ID":"KRFD","Station_Nam":"GREATER ROCKFORD AIRPORT","Latitude":"42.20000","Longitude":"-89.10000","Snowdepth":"14.000","Units":"in","Rept_Date":"2021-02-14 06"},"coordinates":[1831,4100]},{"type":"Point","properties":{"Station_ID":"KENW3","Station_Nam":"WATER POLLUTION CONTROL PLANT","Latitude":"42.55000","Longitude":"-87.81420","Snowdepth":"14.000","Units":"in","Rept_Date":"2021-02-14 06"},"coordinates":[2120,4317]},{"type":"Point","properties":{"Station_ID":"JEFN3","Station_Nam":"JEFFERSON","Latitude":"44.41690","Longitude":"-71.50080","Snowdepth":"14.000","Units":"in","Rept_Date":"2021-02-13 12"},"coordinates":[5791,5473]},{"type":"Point","properties":{"Station_ID":"IN-PT-63","Station_Nam":"VALPARAISO 1.8 NW, IN","Latitude":"41.49775","Longitude":"-87.07300","Snowdepth":"14.000","Units":"in","Rept_Date":"2021-02-13 14"},"coordinates":[2287,3665]},{"type":"Point","properties":{"Station_ID":"IN-LP-7","Station_Nam":"LA PORTE 1.6 SW, IN","Latitude":"41.59040","Longitude":"-86.73430","Snowdepth":"14.000","Units":"in","Rept_Date":"2021-02-13 13"},"coordinates":[2363,3722]},{"type":"Point","properties":{"Station_ID":"IN-LK-107","Station_Nam":"LOWELL 3.1 NNW, IN","Latitude":"41.33596","Longitude":"-87.43737","Snowdepth":"14.000","Units":"in","Rept_Date":"2021-02-13 14"},"coordinates":[2205,3565]},{"type":"Point","properties":{"Station_ID":"IL-WL-80","Station_Nam":"LOCKPORT 1.3 SE, IL","Latitude":"41.57454","Longitude":"-88.03300","Snowdepth":"14.000","Units":"in","Rept_Date":"2021-02-13 13"},"coordinates":[2071,3713]},{"type":"Point","properties":{"Station_ID":"IL-LK-98","Station_Nam":"LINDENHURST 0.7 NNW, IL","Latitude":"42.42730","Longitude":"-88.03289","Snowdepth":"14.000","Units":"in","Rept_Date":"2021-02-13 13"},"coordinates":[2071,4241]},{"type":"Point","properties":{"Station_ID":"IL-LK-81","Station_Nam":"LAKE VILLA 2.3 WSW, IL","Latitude":"42.40532","Longitude":"-88.12380","Snowdepth":"14.000","Units":"in","Rept_Date":"2021-02-13 13"},"coordinates":[2051,4227]},{"type":"Point","properties":{"Station_ID":"IL-KD-102","Station_Nam":"OSWEGO 2.4 SSW, IL","Latitude":"41.66450","Longitude":"-88.34430","Snowdepth":"14.000","Units":"in","Rept_Date":"2021-02-13 16"},"coordinates":[2001,3768]},{"type":"Point","properties":{"Station_ID":"IL-DP-79","Station_Nam":"BURR RIDGE 1.9 SW, IL","Latitude":"41.73194","Longitude":"-87.94860","Snowdepth":"14.000","Units":"in","Rept_Date":"2021-02-13 13"},"coordinates":[2090,3810]},{"type":"Point","properties":{"Station_ID":"IL-DP-57","Station_Nam":"AURORA 3.5 NE, IL","Latitude":"41.80891","Longitude":"-88.25280","Snowdepth":"14.000","Units":"in","Rept_Date":"2021-02-13 16"},"coordinates":[2022,3858]},{"type":"Point","properties":{"Station_ID":"IL-DP-127","Station_Nam":"DOWNERS GROVE 0.4 NNE, IL","Latitude":"41.80331","Longitude":"-88.01542","Snowdepth":"14.000","Units":"in","Rept_Date":"2021-02-13 13"},"coordinates":[2075,3854]},{"type":"Point","properties":{"Station_ID":"IL-DK-36","Station_Nam":"DE KALB 3.5 WSW, IL","Latitude":"41.91085","Longitude":"-88.81389","Snowdepth":"14.000","Units":"in","Rept_Date":"2021-02-13 13"},"coordinates":[1896,3921]},{"type":"Point","properties":{"Station_ID":"IL-DK-28","Station_Nam":"DE KALB 0.7 SW, IL","Latitude":"41.92269","Longitude":"-88.76072","Snowdepth":"14.000","Units":"in","Rept_Date":"2021-02-13 14"},"coordinates":[1907,3928]},