{"type":"Topology","objects":{"snowdepth_geo":{"type":"GeometryCollection","name":"snowdepth","crs":{"type":"name","properties":{"name":"urn:ogc:def:crs:OGC:1.3:CRS84"}},"geometries":[{"type":"Point","properties":{"Station_ID":"WITM1","Station_Nam":"WHITING","Latitude":"44.74240","Longitude":"-67.30520","Snowdepth":"257.999","Units":"in","Rept_Date":"2019-11-06 12"},"coordinates":[9869,4674]},{"type":"Point","properties":{"Station_ID":"MMSV1","Station_Nam":"MOUNT MANSFIELD","Latitude":"44.53330","Longitude":"-72.83330","Snowdepth":"77.000","Units":"in","Rept_Date":"2019-11-07 05"},"coordinates":[8046,4514]},{"type":"Point","properties":{"Station_ID":"PRKM4","Station_Nam":"MUNISING EAST","Latitude":"46.42580","Longitude":"-86.62000","Snowdepth":"76.500","Units":"in","Rept_Date":"2019-11-07 06"},"coordinates":[3500,5957]},{"type":"Point","properties":{"Station_ID":"OGIQ6","Station_Nam":"OGOKI CAMP","Latitude":"50.76680","Longitude":"-87.85820","Snowdepth":"61.100","Units":"in","Rept_Date":"2019-11-07 06"},"coordinates":[3092,9267]},{"type":"Point","properties":{"Station_ID":"AUDQ6","Station_Nam":"AUDEN","Latitude":"48.52600","Longitude":"-82.57570","Snowdepth":"47.640","Units":"in","Rept_Date":"2019-11-07 06"},"coordinates":[4833,7558]},{"type":"Point","properties":{"Station_ID":"DVLQ6","Station_Nam":"DEVIOUS LAKE","Latitude":"49.19890","Longitude":"-87.76440","Snowdepth":"43.460","Units":"in","Rept_Date":"2019-11-07 06"},"coordinates":[3122,8072]},{"type":"Point","properties":{"Station_ID":"MFU","Station_Nam":"MFU","Latitude":"51.52170","Longitude":"-66.91110","Snowdepth":"13.858","Units":"in","Rept_Date":"2019-11-06 12"},"coordinates":[9999,9843]},{"type":"Point","properties":{"Station_ID":"QGD","Station_Nam":"QGD","Latitude":"51.11140","Longitude":"-67.13940","Snowdepth":"13.268","Units":"in","Rept_Date":"2019-11-06 12"},"coordinates":[9924,9530]},{"type":"Point","properties":{"Station_ID":"QOU","Station_Nam":"QOU","Latitude":"50.79250","Longitude":"-69.67470","Snowdepth":"11.693","Units":"in","Rept_Date":"2019-11-06 12"},"coordinates":[9088,9287]},{"type":"Point","properties":{"Station_ID":"QMA","Station_Nam":"QMA","Latitude":"50.10330","Longitude":"-70.47190","Snowdepth":"9.921","Units":"in","Rept_Date":"2019-11-06 12"},"coordinates":[8825,8761]},{"type":"Point","properties":{"Station_ID":"QMD","Station_Nam":"QMD","Latitude":"49.29060","Longitude":"-75.84500","Snowdepth":"9.331","Units":"in","Rept_Date":"2019-11-06 12"},"coordinates":[7053,8141]},{"type":"Point","properties":{"Station_ID":"PRDM4","Station_Nam":"PARADISE","Latitude":"46.60380","Longitude":"-85.03960","Snowdepth":"8.000","Units":"in","Rept_Date":"2019-11-06 11"},"coordinates":[4021,6093]},{"type":"Point","properties":{"Station_ID":"QCX","Station_Nam":"QCX","Latitude":"51.32830","Longitude":"-70.08060","Snowdepth":"7.953","Units":"in","Rept_Date":"2019-11-06 12"},"coordinates":[8954,9695]},{"type":"Point","properties":{"Station_ID":"MI-HG-18","Station_Nam":"CALUMET 0.7 W (TAMARACK), MI","Latitude":"47.24560","Longitude":"-88.46791","Snowdepth":"7.000","Units":"in","Rept_Date":"2019-11-06 13"},"coordinates":[2890,6582]},{"type":"Point","properties":{"Station_ID":"GMSM4","Station_Nam":"GRAND MARAIS 10S","Latitude":"46.50940","Longitude":"-85.96310","Snowdepth":"7.000","Units":"in","Rept_Date":"2019-11-06 11"},"coordinates":[3716,6021]},{"type":"Point","properties":{"Station_ID":"QCO","Station_Nam":"QCO","Latitude":"51.45280","Longitude":"-72.20110","Snowdepth":"6.890","Units":"in","Rept_Date":"2019-11-06 12"},"coordinates":[8255,9790]},{"type":"Point","properties":{"Station_ID":"QFT","Station_Nam":"QFT","Latitude":"50.83280","Longitude":"-74.40390","Snowdepth":"6.339","Units":"in","Rept_Date":"2019-11-06 12"},"coordinates":[7528,9317]},{"type":"Point","properties":{"Station_ID":"WELM5","Station_Nam":"WELLS","Latitude":"43.74680","Longitude":"-93.73680","Snowdepth":"6.000","Units":"in","Rept_Date":"2019-11-06 14"},"coordinates":[1153,3914]},{"type":"Point","properties":{"Station_ID":"PDLM4","Station_Nam":"PAINESDALE","Latitude":"47.04160","Longitude":"-88.67170","Snowdepth":"6.000","Units":"in","Rept_Date":"2019-11-06 13"},"coordinates":[2823,6427]},{"type":"Point","properties":{"Station_ID":"MKNM4","Station_Nam":"MUSKEGON 4 SE","Latitude":"43.18390","Longitude":"-86.20370","Snowdepth":"6.000","Units":"in","Rept_Date":"2019-11-07 06"},"coordinates":[3637,3485]},{"type":"Point","properties":{"Station_ID":"QTM","Station_Nam":"QTM","Latitude":"51.05780","Longitude":"-72.57190","Snowdepth":"5.905","Units":"in","Rept_Date":"2019-11-06 12"},"coordinates":[8132,9489]},{"type":"Point","properties":{"Station_ID":"QGO","Station_Nam":"QGO","Latitude":"48.85500","Longitude":"-74.20640","Snowdepth":"5.354","Units":"in","Rept_Date":"2019-11-06 12"},"coordinates":[7593,7809]},{"type":"Point","properties":{"Station_ID":"SVBQ6","Station_Nam":"SAVANT BASE","Latitude":"50.28730","Longitude":"-90.65670","Snowdepth":"5.200","Units":"in","Rept_Date":"2019-11-07 06"},"coordinates":[2169,8901]},{"type":"Point","properties":{"Station_ID":"WI-LC-20","Station_Nam":"LA CROSSE 4.4 SSE, WI","Latitude":"43.76580","Longitude":"-91.20600","Snowdepth":"5.000","Units":"in","Rept_Date":"2019-11-06 13"},"coordinates":[1988,3929]},{"type":"Point","properties":{"Station_ID":"STDW3","Station_Nam":"STODDARD","Latitude":"43.66020","Longitude":"-91.21930","Snowdepth":"5.000","Units":"in","Rept_Date":"2019-11-06 13"},"coordinates":[1983,3848]},{"type":"Point","properties":{"Station_ID":"MNE9SLWI","Station_Nam":"LEAVENWORTH 5.4 S","Latitude":"44.14481","Longitude":"-94.78882","Snowdepth":"5.000","Units":"in","Rept_Date":"2019-11-06 13"},"coordinates":[806,4218]},{"type":"Point","properties":{"Station_ID":"MN-MT-6","Station_Nam":"FAIRMONT 0.7 E, MN","Latitude":"43.64501","Longitude":"-94.44860","Snowdepth":"5.000","Units":"in","Rept_Date":"2019-11-06 13"},"coordinates":[918,3837]},{"type":"Point","properties":{"Station_ID":"BDMW3","Station_Nam":"BEAVER DAM 1 N","Latitude":"43.46860","Longitude":"-88.83970","Snowdepth":"5.000","Units":"in","Rept_Date":"2019-11-06 18"},"coordinates":[2768,3702]},{"type":"Point","properties":{"Station_ID":"BAGM4","Station_Nam":"BARAGA 7NW","Latitude":"46.82100","Longitude":"-88.60590","Snowdepth":"5.000","Units":"in","Rept_Date":"2019-11-06 13"},"coordinates":[2845,6258]},{"type":"Point","properties":{"Station_ID":"MN-FM-10","Station_Nam":"WYKOFF 3.1 NW, MN","Latitude":"43.74340","Longitude":"-92.30650","Snowdepth":"4.800","Units":"in","Rept_Date":"2019-11-06 13"},"coordinates":[1625,3912]},{"type":"Point","properties":{"Station_ID":"WI-VR-6","Station_Nam":"STODDARD 0.1 SW, WI","Latitude":"43.66050","Longitude":"-91.21930","Snowdepth":"4.500","Units":"in","Rept_Date":"2019-11-06 13"},"coordinates":[1983,3849]},{"type":"Point","properties":{"Station_ID":"MN-MW-8","Station_Nam":"AUSTIN 2.4 W, MN","Latitude":"43.67190","Longitude":"-93.02280","Snowdepth":"4.500","Units":"in","Rept_Date":"2019-11-06 13"},"coordinates":[1388,3857]},{"type":"Point","properties":{"Station_ID":"MN-BW-8","Station_Nam":"COMFREY 6.5 ENE, MN","Latitude":"44.15109","Longitude":"-94.78516","Snowdepth":"4.500","Units":"in","Rept_Date":"2019-11-06 13"},"coordinates":[807,4223]},{"type":"Point","properties":{"Station_ID":"MI-OT-16","Station_Nam":"GAYLORD 2.2 SSE, MI","Latitude":"44.99441","Longitude":"-84.65820","Snowdepth":"4.500","Units":"in","Rept_Date":"2019-11-06 11"},"coordinates":[4147,4866]},{"type":"Point","properties":{"Station_ID":"SOCQ6","Station_Nam":"SOCKET LAKE","Latitude":"50.77870","Longitude":"-91.79300","Snowdepth":"4.210","Units":"in","Rept_Date":"2019-11-07 06"},"coordinates":[1794,9276]},{"type":"Point","properties":{"Station_ID":"MN-WC-8","Station_Nam":"WASECA 2.0 N, MN","Latitude":"44.11194","Longitude":"-93.49972","Snowdepth":"4.200","Units":"in","Rept_Date":"2019-11-06 13"},"coordinates":[1231,4193]},{"type":"Point","properties":{"Station_ID":"MLZ","Station_Nam":"MLZ","Latitude":"50.66170","Longitude":"-68.82360","Snowdepth":"4.173","Units":"in","Rept_Date":"2019-11-06 12"},"coordinates":[9368,9187]},{"type":"Point","properties":{"Station_ID":"WESW3","Station_Nam":"WESTBY 3ENE","Latitude":"43.67490","Longitude":"-90.80770","Snowdepth":"4.000","Units":"in","Rept_Date":"2019-11-06 13"},"coordinates":[2119,3860]},{"type":"Point","properties":{"Station_ID":"VQAW3","Station_Nam":"VIROQUA","Latitude":"43.55970","Longitude":"-90.87560","Snowdepth":"4.000","Units":"in","Rept_Date":"2019-11-06 13"},"coordinates":[2097,3772]},{"type":"Point","properties":{"Station_ID":"SRTW3","Station_Nam":"SPARTA","Latitude":"43.93650","Longitude":"-90.81630","Snowdepth":"4.000","Units":"in","Rept_Date":"2019-11-06 14"},"coordinates":[2116,4059]},{"type":"Point","properties":{"Station_ID":"SPGM5","Station_Nam":"SPRING VALLEY","Latitude":"43.69330","Longitude":"-92.39260","Snowdepth":"4.000","Units":"in","Rept_Date":"2019-11-06 13"},"coordinates":[1596,3874]},{"type":"Point","properties":{"Station_ID":"RST","Station_Nam":"ROCHESTER INTERNATIONAL ARPT","Latitude":"43.90890","Longitude":"-92.49780","Snowdepth":"4.000","Units":"in","Rept_Date":"2019-11-07 00"},"coordinates":[1562,4038]},{"type":"Point","properties":{"Station_ID":"RSRM5","Station_Nam":"ROCHESTER AP 2NE","Latitude":"43.92810","Longitude":"-92.47580","Snowdepth":"4.000","Units":"in","Rept_Date":"2019-11-07 00"},"coordinates":[1569,4053]},{"type":"Point","properties":{"Station_ID":"RLWM5","Station_Nam":"CAMP NORRIS DNR","Latitude":"48.61000","Longitude":"-95.18170","Snowdepth":"4.000","Units":"in","Rept_Date":"2019-11-06 14"},"coordinates":[677,7622]},{"type":"Point","properties":{"Station_ID":"QNCM4","Station_Nam":"QUINCY HILL","Latitude":"47.13640","Longitude":"-88.57950","Snowdepth":"4.000","Units":"in","Rept_Date":"2019-11-06 12"},"coordinates":[2854,6499]},{"type":"Point","properties":{"Station_ID":"OWAM5","Station_Nam":"OWATONNA","Latitude":"44.09760","Longitude":"-93.23180","Snowdepth":"4.000","Units":"in","Rept_Date":"2019-11-06 14"},"coordinates":[1320,4182]},{"type":"Point","properties":{"Station_ID":"NUMM5","Station_Nam":"NEW ULM 3SE","Latitude":"44.29450","Longitude":"-94.40840","Snowdepth":"4.000","Units":"in","Rept_Date":"2019-11-06 12"},"coordinates":[932,4332]},{"type":"Point","properties":{"Station_ID":"MN-WC-9","Station_Nam":"WASECA 6.0 N, MN","Latitude":"44.16925","Longitude":"-93.50775","Snowdepth":"4.000","Units":"in","Rept_Date":"2019-11-06 14"},"coordinates":[1229,4237]},{"type":"Point","properties":{"Station_ID":"MN-WC-5","Station_Nam":"WASECA 0.9 NNE, MN","Latitude":"44.09451","Longitude":"-93.49289","Snowdepth":"4.000","Units":"in","Rept_Date":"2019-11-06 13"},"coordinates":[1233,4180]},{"type":"Point","properties":{"Station_ID":"MN-LS-13","Station_Nam":"NEW PRAGUE 1.0 S, MN","Latitude":"44.53277","Longitude":"-93.57254","Snowdepth":"4.000","Units":"in","Rept_Date":"2019-11-06 13"},"coordinates":[1207,4514]},{"type":"Point","properties":{"Station_ID":"MN-HS-4","Station_Nam":"CALEDONIA 5.4 S, MN","Latitude":"43.55696","Longitude":"-91.51300","Snowdepth":"4.000","Units":"in","Rept_Date":"2019-11-06 14"},"coordinates":[1886,3770]},{"type":"Point","properties":{"Station_ID":"MN-FT-7","Station_Nam":"WELLS 3.5 SE, MN","Latitude":"43.71420","Longitude":"-93.67130","Snowdepth":"4.000","Units":"in","Rept_Date":"2019-11-06 13"},"coordinates":[1175,3890]},{"type":"Point","properties":{"Station_ID":"MI-OT-4","Station_Nam":"GAYLORD 1.7 WNW, MI","Latitude":"45.03280","Longitude":"-84.71090","Snowdepth":"4.000","Units":"in","Rept_Date":"2019-11-06 13"},"coordinates":[4129,4895]},{"type":"Point","properties":{"Station_ID":"MI-OT-17","Station_Nam":"GAYLORD 4.1 S, MI","Latitude":"44.96388","Longitude":"-84.68467","Snowdepth":"4.000","Units":"in","Rept_Date":"2019-11-06 12"},"coordinates":[4138,4842]},{"type":"Point","properties":{"Station_ID":"MI-HG-17","Station_Nam":"CALUMET 0.5 NE (CALUMET LAKE), MI","Latitude":"47.25300","Longitude":"-88.44652","Snowdepth":"4.000","Units":"in","Rept_Date":"2019-11-06 13"},"coordinates":[2898,6588]},{"type":"Point","properties":{"Station_ID":"MI-HG-11","Station_Nam":"HOUGHTON 3.0 SSW, MI","Latitude":"47.07704","Longitude":"-88.59680","Snowdepth":"4.000","Units":"in","Rept_Date":"2019-11-06 13"},"coordinates":[2848,6454]},{"type":"Point","properties":{"Station_ID":"LSNW3","Station_Nam":"LA CROSSE SNOW","Latitude":"43.86220","Longitude":"-91.26660","Snowdepth":"4.000","Units":"in","Rept_Date":"2019-11-07 06"},"coordinates":[1968,4002]},{"type":"Point","properties":{"Station_ID":"LSE","Station_Nam":"LA CROSSE MUNICIPAL AIRPORT","Latitude":"43.87920","Longitude":"-91.25610","Snowdepth":"4.000","Units":"in","Rept_Date":"2019-11-07 00"},"coordinates":[1971,4015]},{"type":"Point","properties":{"Station_ID":"LAFW3","Station_Nam":"LA FARGE","Latitude":"43.57340","Longitude":"-90.63200","Snowdepth":"4.000","Units":"in","Rept_Date":"2019-11-06 13"},"coordinates":[2177,3782]},{"type":"Point","properties":{"Station_ID":"HERM4","Station_Nam":"HERMAN,MI","Latitude":"46.65000","Longitude":"-88.33330","Snowdepth":"4.000","Units":"in","Rept_Date":"2019-11-06 13"},"coordinates":[2935,6128]},{"type":"Point","properties":{"Station_ID":"GNLM4","Station_Nam":"GREENLAND 6N","Latitude":"46.87360","Longitude":"-89.10060","Snowdepth":"4.000","Units":"in","Rept_Date":"2019-11-06 13"},"coordinates":[2682,6299]},{"type":"Point","properties":{"Station_ID":"GENW3","Station_Nam":"GENOA DAM 8","Latitude":"43.57050","Longitude":"-91.22950","Snowdepth":"4.000","Units":"in","Rept_Date":"2019-11-06 12"},"coordinates":[1980,3780]},{"type":"Point","properties":{"Station_ID":"F0896_MADIS","Station_Nam":"FW0896 WELLS","Latitude":"43.71417","Longitude":"-93.67130","Snowdepth":"4.000","Units":"in","Rept_Date":"2019-11-06 07"},"coordinates":[1175,3890]},{"type":"Point","properties":{"Station_ID":"ETTW3","Station_Nam":"ETTRICK 4WNW","Latitude":"44.19000","Longitude":"-91.34240","Snowdepth":"4.000","Units":"in","Rept_Date":"2019-11-06 14"},"coordinates":[1943,4252]},{"type":"Point","properties":{"Station_ID":"DCRI4","Station_Nam":"DECORAH","Latitude":"43.30430","Longitude":"-91.79520","Snowdepth":"4.000","Units":"in","Rept_Date":"2019-11-07 00"},"coordinates":[1793,3577]},{"type":"Point","properties":{"Station_ID":"BTHM5","Station_Nam":"BLUE EARTH 1S","Latitude":"43.62370","Longitude":"-94.09470","Snowdepth":"4.000","Units":"in","Rept_Date":"2019-11-06 14"},"coordinates":[1035,3821]},{"type":"Point","properties":{"Station_ID":"IA-WH-1","Station_Nam":"DECORAH 7.9 ENE, IA","Latitude":"43.34391","Longitude":"-91.64430","Snowdepth":"3.900","Units":"in","Rept_Date":"2019-11-06 14"},"coordinates":[1843,3607]},{"type":"Point","properties":{"Station_ID":"FTHQ6","Station_Nam":"FORT HOPE","Latitude":"51.55820","Longitude":"-87.90510","Snowdepth":"3.780","Units":"in","Rept_Date":"2019-11-07 06"},"coordinates":[3076,9870]},{"type":"Point","properties":{"Station_ID":"WI-VR-3","Station_Nam":"VIOLA 3.5 WNW, WI","Latitude":"43.52680","Longitude":"-90.73850","Snowdepth":"3.700","Units":"in","Rept_Date":"2019-11-06 14"},"coordinates":[2142,3747]},{"type":"Point","properties":{"Station_ID":"QCU","Station_Nam":"QCU","Latitude":"47.82750","Longitude":"-76.59830","Snowdepth":"3.543","Units":"in","Rept_Date":"2019-11-06 12"},"coordinates":[6805,7026]},{"type":"Point","properties":{"Station_ID":"WI-DD-15","Station_Nam":"COLUMBUS 4.8 ENE, WI","Latitude":"43.35742","Longitude":"-88.93819","Snowdepth":"3.500","Units":"in","Rept_Date":"2019-11-06 17"},"coordinates":[2735,3618]},{"type":"Point","properties":{"Station_ID":"MN-OL-30","Station_Nam":"ROCHESTER 4.7 N, MN","Latitude":"44.08372","Longitude":"-92.48315","Snowdepth":"3.400","Units":"in","Rept_Date":"2019-11-06 13"},"coordinates":[1566,4171]},{"type":"Point","properties":{"Station_ID":"MN-WB-4","Station_Nam":"ZUMBRO FALLS 3.5 SSW, MN","Latitude":"44.23895","Longitude":"-92.45510","Snowdepth":"3.300","Units":"in","Rept_Date":"2019-11-06 13"},"coordinates":[1576,4290]},{"type":"Point","properties":{"Station_ID":"MN-GH-28","Station_Nam":"CANNON FALLS 0.5 SE, MN","Latitude":"44.50866","Longitude":"-92.89526","Snowdepth":"3.300","Units":"in","Rept_Date":"2019-11-06 14"},"coordinates":[1431,4495]},{"type":"Point","properties":{"Station_ID":"WNNM5","Station_Nam":"WINNEBAGO","Latitude":"43.76920","Longitude":"-94.18730","Snowdepth":"3.000","Units":"in","Rept_Date":"2019-11-06 14"},"coordinates":[1004,3932]},{"type":"Point","properties":{"Station_ID":"WAOW3","Station_Nam":"WAUTOMA SILVER LAKE SANITARY DISTRICT","Latitude":"44.04110","Longitude":"-89.24330","Snowdepth":"3.000","Units":"in","Rept_Date":"2019-11-06 14"},"coordinates":[2635,4139]},{"type":"Point","properties":{"Station_ID":"VICW3","Station_Nam":"DE SOTO 1SE","Latitude":"43.41620","Longitude":"-91.19400","Snowdepth":"3.000","Units":"in","Rept_Date":"2019-11-06 13"},"coordinates":[1992,3662]},{"type":"Point","properties":{"Station_ID":"UCTW3","Station_Nam":"UNION CENTER","Latitude":"43.68140","Longitude":"-90.26360","Snowdepth":"3.000","Units":"in","Rept_Date":"2019-11-06 13"},"coordinates":[2298,3865]},{"type":"Point","properties":{"Station_ID":"SD-BK-3","Station_Nam":"BROOKINGS 1.4 SW, SD","Latitude":"44.28989","Longitude":"-96.80210","Snowdepth":"3.000","Units":"in","Rept_Date":"2019-11-06 14"},"coordinates":[142,4329]},{"type":"Point","properties":{"Station_ID":"RNBW3","Station_Nam":"WFO GREEN BAY","Latitude":"44.49780","Longitude":"-88.11080","Snowdepth":"3.000","Units":"in","Rept_Date":"2019-11-07 06"},"coordinates":[3008,4487]},{"type":"Point","properties":{"Station_ID":"RBGW3","Station_Nam":"REEDSBURG","Latitude":"43.52060","Longitude":"-89.99970","Snowdepth":"3.000","Units":"in","Rept_Date":"2019-11-06 14"},"coordinates":[2385,3742]},{"type":"Point","properties":{"Station_ID":"PTNM5","Station_Nam":"PRESTON","Latitude":"43.67250","Longitude":"-92.07470","Snowdepth":"3.000","Units":"in","Rept_Date":"2019-11-06 14"},"coordinates":[1701,3858]},{"type":"Point","properties":{"Station_ID":"OTRW3","Station_Nam":"ONTARIO 3E","Latitude":"43.71940","Longitude":"-90.53010","Snowdepth":"3.000","Units":"in","Rept_Date":"2019-11-06 13"},"coordinates":[2210,3894]},{"type":"Point","properties":{"Station_ID":"MTLW3","Station_Nam":"MONTELLO,WI","Latitude":"43.78000","Longitude":"-89.30000","Snowdepth":"3.000","Units":"in","Rept_Date":"2019-11-06 13"},"coordinates":[2616,3940]},{"type":"Point","properties":{"Station_ID":"MSN","Station_Nam":"MADISON DANE COUNTY RGNL","Latitude":"43.13970","Longitude":"-89.33750","Snowdepth":"3.000","Units":"in","Rept_Date":"2019-11-07 00"},"coordinates":[2604,3452]},{"type":"Point","properties":{"Station_ID":"MSCM5","Station_Nam":"MINNESOTA CITY","Latitude":"44.16000","Longitude":"-91.81220","Snowdepth":"3.000","Units":"in","Rept_Date":"2019-11-06 13"},"coordinates":[1788,4230]},{"type":"Point","properties":{"Station_ID":"MN-SE-2","Station_Nam":"OWATONNA 0.8 E, MN","Latitude":"44.09170","Longitude":"-93.21380","Snowdepth":"3.000","Units":"in","Rept_Date":"2019-11-06 12"},"coordinates":[1325,4177]},{"type":"Point","properties":{"Station_ID":"MN-MY-5","Station_Nam":"TRACY 7.8 SSW, MN","Latitude":"44.13486","Longitude":"-95.68073","Snowdepth":"3.000","Units":"in","Rept_Date":"2019-11-06 13"},"coordinates":[512,4210]},{"type":"Point","properties":{"Station_ID":"MN-GH-4","Station_Nam":"NERSTRAND 4.2 E, MN","Latitude":"44.34247","Longitude":"-92.97920","Snowdepth":"3.000","Units":"in","Rept_Date":"2019-11-06 13"},"coordinates":[1403,4369]},{"type":"Point","properties":{"Station_ID":"MN-DK-63","Station_Nam":"NORTHFIELD 2.4 NE, MN","Latitude":"44.48347","Longitude":"-93.12837","Snowdepth":"3.000","Units":"in","Rept_Date":"2019-11-06 13"},"coordinates":[1354,4476]},{"type":"Point","properties":{"Station_ID":"MN-BU-31","Station_Nam":"LAKE CRYSTAL 4.9 N, MN","Latitude":"44.17549","Longitude":"-94.20798","Snowdepth":"3.000","Units":"in","Rept_Date":"2019-11-06 12"},"coordinates":[998,4241]},{"type":"Point","properties":{"Station_ID":"MKX","Station_Nam":"MILWAUKEE, WI","Latitude":"42.96810","Longitude":"-88.54920","Snowdepth":"3.000","Units":"in","Rept_Date":"2019-11-07 06"},"coordinates":[2864,3321]},{"type":"Point","properties":{"Station_ID":"MKG","Station_Nam":"MUSKEGON COUNTY AIRPORT","Latitude":"43.16940","Longitude":"-86.23810","Snowdepth":"3.000","Units":"in","Rept_Date":"2019-11-07 00"},"coordinates":[3626,3474]},{"type":"Point","properties":{"Station_ID":"MDIW3","Station_Nam":"MONDOVI","Latitude":"44.56470","Longitude":"-91.67190","Snowdepth":"3.000","Units":"in","Rept_Date":"2019-11-07 00"},"coordinates":[1834,4538]},{"type":"Point","properties":{"Station_ID":"MAUW3","Station_Nam":"MAUSTON 1SE","Latitude":"43.78990","Longitude":"-90.05970","Snowdepth":"3.000","Units":"in","Rept_Date":"2019-11-06 14"},"coordinates":[2366,3947]},{"type":"Point","properties":{"Station_ID":"MANW3","Station_Nam":"MANITOWOC","Latitude":"44.08690","Longitude":"-87.65220","Snowdepth":"3.000","Units":"in","Rept_Date":"2019-11-07 00"},"coordinates":[3159,4174]},{"type":"Point","properties":{"Station_ID":"LMLI4","Station_Nam":"LAKE MILLS,IA","Latitude":"43.40000","Longitude":"-93.53330","Snowdepth":"3.000","Units":"in","Rept_Date":"2019-11-06 13"},"coordinates":[1220,3650]},{"type":"Point","properties":{"Station_ID":"LKFM5","Station_Nam":"LAKEFIELD,MN","Latitude":"43.68330","Longitude":"-95.18330","Snowdepth":"3.000","Units":"in","Rept_Date":"2019-11-06 13"},"coordinates":[676,3866]},{"type":"Point","properties":{"Station_ID":"LCFW3","Station_Nam":"LA CROSSE 4NNW","Latitude":"43.86690","Longitude":"-91.27250","Snowdepth":"3.000","Units":"in","Rept_Date":"2019-11-06 13"},"coordinates":[1966,4006]},{"type":"Point","properties":{"Station_ID":"LAMM5","Station_Nam":"LAMBERTON SW RESEARCH AND OUTREACH CENTER","Latitude":"44.23950","Longitude":"-95.31520","Snowdepth":"3.000","Units":"in","Rept_Date":"2019-11-06 14"},"coordinates":[633,4290]},{"type":"Point","properties":{"Station_ID":"KVOK","Station_Nam":"VOLK / CAMP DOUGLAS","Latitude":"43.93333","Longitude":"-90.26666","Snowdepth":"3.000","Units":"in","Rept_Date":"2019-11-06 18"},"coordinates":[2297,4057]},{"type":"Point","properties":{"Station_ID":"KMSN","Station_Nam":"MADISON DANE COUNTY RGNL","Latitude":"43.13333","Longitude":"-89.35000","Snowdepth":"3.000","Units":"in","Rept_Date":"2019-11-07 06"},"coordinates":[2600,3447]},{"type":"Point","properties":{"Station_ID":"JCBM4","Station_Nam":"JACOBSVILLE","Latitude":"47.00830","Longitude":"-88.43180","Snowdepth":"3.000","Units":"in","Rept_Date":"2019-11-06 12"},"coordinates":[2902,6401]},{"type":"Point","properties":{"Station_ID":"INDM5","Station_Nam":"INDUS,MN","Latitude":"48.61670","Longitude":"-93.90000","Snowdepth":"3.000","Units":"in","Rept_Date":"2019-11-06 14"},"coordinates":[1099,7628]},{"type":"Point","properties":{"Station_ID":"HTLM4","Station_Nam":"SNOW PAID OBSERVER FOR KHTL","Latitude":"44.34470","Longitude":"-84.67730","Snowdepth":"3.000","Units":"in","Rept_Date":"2019-11-07 06"},"coordinates":[4140,4370]},{"type":"Point","properties":{"Station_ID":"HTL","Station_Nam":"ROSCOMMON COUNTY AIRPORT","Latitude":"44.35000","Longitude":"-84.66670","Snowdepth":"3.000","Units":"in","Rept_Date":"2019-11-07 00"},"coordinates":[4144,4374]},{"type":"Point","properties":{"Station_ID":"HLBW3","Station_Nam":"HILLSBORO 2SW","Latitude":"43.63410","Longitude":"-90.37920","Snowdepth":"3.000","Units":"in","Rept_Date":"2019-11-06 13"},"coordinates":[2260,3829]},{"type":"Point","properties":{"Station_ID":"GRB","Station_Nam":"GREEN BAY, WI","Latitude":"44.49860","Longitude":"-88.11170","Snowdepth":"3.000","Units":"in","Rept_Date":"2019-11-07 00"},"coordinates":[3008,4488]},{"type":"Point","properties":{"Station_ID":"FDCW3","Station_Nam":"FOND DU LAC-MID","Latitude":"43.63330","Longitude":"-88.45000","Snowdepth":"3.000","Units":"in","Rept_Date":"2019-11-07 06"},"coordinates":[2896,3828]},{"type":"Point","properties":{"Station_ID":"FBTM5","Station_Nam":"FARIBAULT","Latitude":"44.30920","Longitude":"-93.26600","Snowdepth":"3.000","Units":"in","Rept_Date":"2019-11-06 13"},"coordinates":[1308,4343]},{"type":"Point","properties":{"Station_ID":"EGNM5","Station_Nam":"ELGIN 2SSW","Latitude":"44.09700","Longitude":"-92.27010","Snowdepth":"3.000","Units":"in","Rept_Date":"2019-11-06 13"},"coordinates":[1637,4181]},{"type":"Point","properties":{"Station_ID":"CTNW3","Station_Nam":"CASHTON 3NNW","Latitude":"43.78600","Longitude":"-90.79520","Snowdepth":"3.000","Units":"in","Rept_Date":"2019-11-06 13"},"coordinates":[2123,3944]},{"type":"Point","properties":{"Station_ID":"CRCI4","Station_Nam":"CRESCO 1NE","Latitude":"43.38940","Longitude":"-92.09380","Snowdepth":"3.000","Units":"in","Rept_Date":"2019-11-06 13"},"coordinates":[1695,3642]},{"type":"Point","properties":{"Station_ID":"CLDM5","Station_Nam":"CALEDONIA","Latitude":"43.63090","Longitude":"-91.50270","Snowdepth":"3.000","Units":"in","Rept_Date":"2019-11-06 13"},"coordinates":[1890,3826]},{"type":"Point","properties":{"Station_ID":"BROS2","Station_Nam":"BROOKINGS,SD","Latitude":"44.31670","Longitude":"-96.76670","Snowdepth":"3.000","Units":"in","Rept_Date":"2019-11-06 14"},"coordinates":[154,4349]},{"type":"Point","properties":{"Station_ID":"BRCM5","Station_Nam":"BRICELYN","Latitude":"43.54400","Longitude":"-93.84230","Snowdepth":"3.000","Units":"in","Rept_Date":"2019-11-06 13"},"coordinates":[1118,3760]},{"type":"Point","properties":{"Station_ID":"BNDM5","Station_Nam":"ELY 25E","Latitude":"47.97190","Longitude":"-91.44860","Snowdepth":"3.000","Units":"in","Rept_Date":"2019-11-06 13"},"coordinates":[1908,7136]},{"type":"Point","properties":{"Station_ID":"ARX","Station_Nam":"LA CROSSE, WI","Latitude":"43.82280","Longitude":"-91.19190","Snowdepth":"3.000","Units":"in","Rept_Date":"2019-11-07 06"},"coordinates":[1992,3972]},{"type":"Point","properties":{"Station_ID":"APXM4","Station_Nam":"GAYLORD 9SSW","Latitude":"44.90720","Longitude":"-84.71880","Snowdepth":"3.000","Units":"in","Rept_Date":"2019-11-07 05"},"coordinates":[4127,4799]},{"type":"Point","properties":{"Station_ID":"AMDW3","Station_Nam":"ALMOND-5 NE","Latitude":"44.30830","Longitude":"-89.34640","Snowdepth":"3.000","Units":"in","Rept_Date":"2019-11-06 14"},"coordinates":[2601,4343]},{"type":"Point","properties":{"Station_ID":"ALMW3","Station_Nam":"ALMA DAM 4","Latitude":"44.32710","Longitude":"-91.91940","Snowdepth":"3.000","Units":"in","Rept_Date":"2019-11-06 14"},"coordinates":[1752,4357]},{"type":"Point","properties":{"Station_ID":"ALBM5","Station_Nam":"ALBERT LEA 3 SE","Latitude":"43.60640","Longitude":"-93.30190","Snowdepth":"3.000","Units":"in","Rept_Date":"2019-11-06 14"},"coordinates":[1296,3807]},{"type":"Point","properties":{"Station_ID":"QYR","Station_Nam":"QYR","Latitude":"48.87220","Longitude":"-75.61470","Snowdepth":"2.992","Units":"in","Rept_Date":"2019-11-06 12"},"coordinates":[7129,7822]},{"type":"Point","properties":{"Station_ID":"MN-NC-9","Station_Nam":"KASOTA 4.0 SW, MN","Latitude":"44.25630","Longitude":"-94.03390","Snowdepth":"2.900","Units":"in","Rept_Date":"2019-11-06 13"},"coordinates":[1055,4303]},{"type":"Point","properties":{"Station_ID":"CATQ6","Station_Nam":"CAT LAKE","Latitude":"51.72690","Longitude":"-91.82210","Snowdepth":"2.720","Units":"in","Rept_Date":"2019-11-07 06"},"coordinates":[1784,9999]},{"type":"Point","properties":{"Station_ID":"WI-VR-2","Station_Nam":"VIROQUA 0.8 ESE, WI","Latitude":"43.55304","Longitude":"-90.87100","Snowdepth":"2.700","Units":"in","Rept_Date":"2019-11-06 13"},"coordinates":[2098,3767]},{"type":"Point","properties":{"Station_ID":"WI-WP-8","Station_Nam":"WAUPACA 5.7 WSW, WI","Latitude":"44.33239","Longitude":"-89.18714","Snowdepth":"2.500","Units":"in","Rept_Date":"2019-11-06 13"},"coordinates":[2653,4361]},{"type":"Point","properties":{"Station_ID":"WI-SK-2","Station_Nam":"ROCK SPRINGS 2.8 WSW, WI","Latitude":"43.45901","Longitude":"-89.96540","Snowdepth":"2.500","Units":"in","Rept_Date":"2019-11-06 13"},"coordinates":[2397,3695]},{"type":"Point","properties":{"Station_ID":"WI-DD-4","Station_Nam":"BEAVER DAM 1.4 SSW, WI","Latitude":"43.44719","Longitude":"-88.85260","Snowdepth":"2.500","Units":"in","Rept_Date":"2019-11-06 14"},"coordinates":[2764,3686]},{"type":"Point","properties":{"Station_ID":"WI-CR-4","Station_Nam":"GAYS MILLS 0.3 SE, WI","Latitude":"43.31670","Longitude":"-90.84527","Snowdepth":"2.500","Units":"in","Rept_Date":"2019-11-06 13"},"coordinates":[2107,3587]},{"type":"Point","properties":{"Station_ID":"WI-CB-4","Station_Nam":"PORTAGE 5.7 WSW, WI","Latitude":"43.51411","Longitude":"-89.56910","Snowdepth":"2.500","Units":"in","Rept_Date":"2019-11-06 12"},"coordinates":[2527,3737]},{"type":"Point","properties":{"Station_ID":"SD-BK-7","Station_Nam":"BROOKINGS 0.2 SSW, SD","Latitude":"44.30389","Longitude":"-96.78780","Snowdepth":"2.500","Units":"in","Rept_Date":"2019-11-06 13"},"coordinates":[147,4339]},{"type":"Point","properties":{"Station_ID":"MN-HS-10","Station_Nam":"BROWNSVILLE 3.1 S, MN","Latitude":"43.65410","Longitude":"-91.27894","Snowdepth":"2.500","Units":"in","Rept_Date":"2019-11-06 11"},"coordinates":[1964,3844]},{"type":"Point","properties":{"Station_ID":"MN-GH-3","Station_Nam":"LAKE CITY 1.2 NNW, MN","Latitude":"44.45597","Longitude":"-92.29070","Snowdepth":"2.500","Units":"in","Rept_Date":"2019-11-06 13"},"coordinates":[1630,4455]},{"type":"Point","properties":{"Station_ID":"MI-HG-1","Station_Nam":"HOUGHTON 1.6 ESE, MI","Latitude":"47.10774","Longitude":"-88.52940","Snowdepth":"2.500","Units":"in","Rept_Date":"2019-11-06 13"},"coordinates":[2870,6477]},{"type":"Point","properties":{"Station_ID":"MI-AT-6","Station_Nam":"MANCELONA 0.5 ESE, MI","Latitude":"44.89981","Longitude":"-85.05100","Snowdepth":"2.500","Units":"in","Rept_Date":"2019-11-06 13"},"coordinates":[4017,4794]},{"type":"Point","properties":{"Station_ID":"IA-WH-5","Station_Nam":"DECORAH 4.9SE, IA","Latitude":"43.26481","Longitude":"-91.70294","Snowdepth":"2.500","Units":"in","Rept_Date":"2019-11-06 13"},"coordinates":[1824,3547]},{"type":"Point","properties":{"Station_ID":"MI-BG-3","Station_Nam":"L'ANSE 17.8 SE, MI","Latitude":"46.55730","Longitude":"-88.20770","Snowdepth":"2.400","Units":"in","Rept_Date":"2019-11-06 13"},"coordinates":[2976,6057]},{"type":"Point","properties":{"Station_ID":"QLB","Station_Nam":"QLB","Latitude":"50.72360","Longitude":"-75.10000","Snowdepth":"2.323","Units":"in","Rept_Date":"2019-11-06 12"},"coordinates":[7299,9234]},{"type":"Point","properties":{"Station_ID":"SD-BK-37","Station_Nam":"BRUCE 0.2 SSW, SD","Latitude":"44.43551","Longitude":"-96.89067","Snowdepth":"2.300","Units":"in","Rept_Date":"2019-11-06 13"},"coordinates":[113,4440]},{"type":"Point","properties":{"Station_ID":"MN-DK-49","Station_Nam":"LAKEVILLE 2.1 SW, MN","Latitude":"44.65694","Longitude":"-93.28390","Snowdepth":"2.300","Units":"in","Rept_Date":"2019-11-06 14"},"coordinates":[1302,4608]},{"type":"Point","properties":{"Station_ID":"WI-CR-1","Station_Nam":"GAYS MILLS 6.1 SE, WI","Latitude":"43.26477","Longitude":"-90.75570","Snowdepth":"2.100","Units":"in","Rept_Date":"2019-11-06 13"},"coordinates":[2136,3547]},{"type":"Point","properties":{"Station_ID":"QWG","Station_Nam":"QWG","Latitude":"48.48890","Longitude":"-73.45940","Snowdepth":"2.008","Units":"in","Rept_Date":"2019-11-06 12"},"coordinates":[7840,7530]},{"type":"Point","properties":{"Station_ID":"WTBW3","Station_Nam":"WEST BEND PUBLIC WORKS","Latitude":"43.41110","Longitude":"-88.19380","Snowdepth":"2.000","Units":"in","Rept_Date":"2019-11-06 14"},"coordinates":[2981,3659]},{"type":"Point","properties":{"Station_ID":"WRUM5","Station_Nam":"WARROAD 4W","Latitude":"48.89600","Longitude":"-95.40700","Snowdepth":"2.000","Units":"in","Rept_Date":"2019-11-07 04"},"coordinates":[602,7841]},{"type":"Point","properties":{"Station_ID":"WRNM5","Station_Nam":"WORTHINGTON,MN","Latitude":"43.65440","Longitude":"-95.57920","Snowdepth":"2.000","Units":"in","Rept_Date":"2019-11-06 13"},"coordinates":[545,3844]},{"type":"Point","properties":{"Station_ID":"WIDM5","Station_Nam":"WINONA DAM 5A","Latitude":"44.08750","Longitude":"-91.67030","Snowdepth":"2.000","Units":"in","Rept_Date":"2019-11-06 14"},"coordinates":[1834,4174]},{"type":"Point","properties":{"Station_ID":"WI-WS-5","Station_Nam":"JACKSON 0.2 WSW, WI","Latitude":"43.32007","Longitude":"-88.16820","Snowdepth":"2.000","Units":"in","Rept_Date":"2019-11-06 12"},"coordinates":[2989,3589]},{"type":"Point","properties":{"Station_ID":"WI-WS-1","Station_Nam":"HARTFORD 3.8 E, WI","Latitude":"43.32410","Longitude":"-88.31340","Snowdepth":"2.000","Units":"in","Rept_Date":"2019-11-06 13"},"coordinates":[2941,3592]},{"type":"Point","properties":{"Station_ID":"WI-WK-68","Station_Nam":"OCONOMOWOC 0.9 W, WI","Latitude":"43.10089","Longitude":"-88.51441","Snowdepth":"2.000","Units":"in","Rept_Date":"2019-11-06 14"},"coordinates":[2875,3422]},{"type":"Point","properties":{"Station_ID":"WI-MN-4","Station_Nam":"WILTON 4.2 E, WI","Latitude":"43.81028","Longitude":"-90.44360","Snowdepth":"2.000","Units":"in","Rept_Date":"2019-11-06 13"},"coordinates":[2239,3963]},{"type":"Point","properties":{"Station_ID":"WI-GT-6","Station_Nam":"MUSCODA 0.5 WSW, WI","Latitude":"43.18483","Longitude":"-90.44318","Snowdepth":"2.000","Units":"in","Rept_Date":"2019-11-06 16"},"coordinates":[2239,3486]},{"type":"Point","properties":{"Station_ID":"TREW3","Station_Nam":"DAM 6","Latitude":"43.99970","Longitude":"-91.43580","Snowdepth":"2.000","Units":"in","Rept_Date":"2019-11-06 12"},"coordinates":[1912,4107]},{"type":"Point","properties":{"Station_ID":"SWEI4","Station_Nam":"SWEA CITY,IA","Latitude":"43.38530","Longitude":"-94.25000","Snowdepth":"2.000","Units":"in","Rept_Date":"2019-11-06 15"},"coordinates":[984,3639]},{"type":"Point","properties":{"Station_ID":"SLRW3","Station_Nam":"SLINGER","Latitude":"43.33390","Longitude":"-88.29780","Snowdepth":"2.000","Units":"in","Rept_Date":"2019-11-06 13"},"coordinates":[2947,3600]},{"type":"Point","properties":{"Station_ID":"SANI4","Station_Nam":"ST ANSGAR","Latitude":"43.38170","Longitude":"-92.92320","Snowdepth":"2.000","Units":"in","Rept_Date":"2019-11-06 12"},"coordinates":[1421,3636]},{"type":"Point","properties":{"Station_ID":"RWGM5","Station_Nam":"RED WING","Latitude":"44.57120","Longitude":"-92.52830","Snowdepth":"2.000","Units":"in","Rept_Date":"2019-11-06 14"},"coordinates":[1552,4543]},{"type":"Point","properties":{"Station_ID":"RSMM5","Station_Nam":"ROSEMOUNT RESEARCH AND OUTREACH CENTER","Latitude":"44.71660","Longitude":"-93.09800","Snowdepth":"2.000","Units":"in","Rept_Date":"2019-11-06 14"},"coordinates":[1364,4654]},{"type":"Point","properties":{"Station_ID":"RKNW3","Station_Nam":"MARKESAN","Latitude":"43.70280","Longitude":"-88.99890","Snowdepth":"2.000","Units":"in","Rept_Date":"2019-11-06 13"},"coordinates":[2715,3881]},{"type":"Point","properties":{"Station_ID":"REWM5","Station_Nam":"REDWOOD FALLS","Latitude":"44.54850","Longitude":"-95.09980","Snowdepth":"2.000","Units":"in","Rept_Date":"2019-11-06 13"},"coordinates":[704,4526]},{"type":"Point","properties":{"Station_ID":"PVRW3","Station_Nam":"PLOVER-2-E WATER TREATMENT PLANT","Latitude":"44.45920","Longitude":"-89.49530","Snowdepth":"2.000","Units":"in","Rept_Date":"2019-11-06 14"},"coordinates":[2552,4458]},{"type":"Point","properties":{"Station_ID":"PORW3","Station_Nam":"PORTAGE,WI","Latitude":"43.53190","Longitude":"-89.43780","Snowdepth":"2.000","Units":"in","Rept_Date":"2019-11-06 14"},"coordinates":[2571,3751]},{"type":"Point","properties":{"Station_ID":"ONCW3","Station_Nam":"SOUTH","Latitude":"43.11170","Longitude":"-88.49970","Snowdepth":"2.000","Units":"in","Rept_Date":"2019-11-06 14"},"coordinates":[2880,3430]},{"type":"Point","properties":{"Station_ID":"OCOW3","Station_Nam":"OCONOMOWOC,WI","Latitude":"43.10190","Longitude":"-88.50330","Snowdepth":"2.000","Units":"in","Rept_Date":"2019-11-06 13"},"coordinates":[2879,3423]},{"type":"Point","properties":{"Station_ID":"MWN","Station_Nam":"MOUNT WASHINGTON","Latitude":"44.26670","Longitude":"-71.30000","Snowdepth":"2.000","Units":"in","Rept_Date":"2019-11-07 05"},"coordinates":[8552,4311]},{"type":"Point","properties":{"Station_ID":"MTOM5","Station_Nam":"MANKATO 4E","Latitude":"44.16730","Longitude":"-93.91020","Snowdepth":"2.000","Units":"in","Rept_Date":"2019-11-06 13"},"coordinates":[1096,4235]},{"type":"Point","properties":{"Station_ID":"MRFS2","Station_Nam":"MADISON,SD","Latitude":"44.00000","Longitude":"-97.23330","Snowdepth":"2.000","Units":"in","Rept_Date":"2019-11-06 15"},"coordinates":[0,4108]},{"type":"Point","properties":{"Station_ID":"MNG0GYSN","Station_Nam":"LONSDALE 1.1 SSW","Latitude":"44.46445","Longitude":"-93.43293","Snowdepth":"2.000","Units":"in","Rept_Date":"2019-11-06 12"},"coordinates":[1253,4462]},{"type":"Point","properties":{"Station_ID":"MN-SC-25","Station_Nam":"ELKO NEW MARKET 4.8 WNW, MN","Latitude":"44.58490","Longitude":"-93.43142","Snowdepth":"2.000","Units":"in","Rept_Date":"2019-11-06 13"},"coordinates":[1254,4554]},{"type":"Point","properties":{"Station_ID":"MN-RC-11","Station_Nam":"NEW PRAGUE 4.8 ESE, MN","Latitude":"44.51999","Longitude":"-93.48470","Snowdepth":"2.000","Units":"in","Rept_Date":"2019-11-06 11"},"coordinates":[1236,4504]},{"type":"Point","properties":{"Station_ID":"MN-RC-1","Station_Nam":"MONTGOMERY 3.2 ENE, MN","Latitude":"44.46400","Longitude":"-93.51980","Snowdepth":"2.000","Units":"in","Rept_Date":"2019-11-06 11"},"coordinates":[1225,4461]},{"type":"Point","properties":{"Station_ID":"MN-PS-6","Station_Nam":"EDGERTON 0.2 WSW, MN","Latitude":"43.87444","Longitude":"-96.13328","Snowdepth":"2.000","Units":"in","Rept_Date":"2019-11-06 12"},"coordinates":[363,4012]},{"type":"Point","properties":{"Station_ID":"MN-OL-18","Station_Nam":"ROCHESTER 2.6 NE, MN","Latitude":"44.03975","Longitude":"-92.43750","Snowdepth":"2.000","Units":"in","Rept_Date":"2019-11-06 12"},"coordinates":[1581,4138]},{"type":"Point","properties":{"Station_ID":"MN-DK-44","Station_Nam":"ROSEMOUNT 4.5 WSW, MN","Latitude":"44.72079","Longitude":"-93.14970","Snowdepth":"2.000","Units":"in","Rept_Date":"2019-11-06 13"},"coordinates":[1347,4657]},{"type":"Point","properties":{"Station_ID":"MDDW3","Station_Nam":"MIDDLETON,WI","Latitude":"43.09060","Longitude":"-89.51470","Snowdepth":"2.000","Units":"in","Rept_Date":"2019-11-06 13"},"coordinates":[2545,3414]},{"type":"Point","properties":{"Station_ID":"MAPM4","Station_Nam":"MAPLE CITY 1E","Latitude":"44.85500","Longitude":"-85.83520","Snowdepth":"2.000","Units":"in","Rept_Date":"2019-11-06 22"},"coordinates":[3759,4759]},{"type":"Point","properties":{"Station_ID":"LODW3","Station_Nam":"LODI","Latitude":"43.32170","Longitude":"-89.53110","Snowdepth":"2.000","Units":"in","Rept_Date":"2019-11-06 13"},"coordinates":[2540,3590]},{"type":"Point","properties":{"Station_ID":"LCRM5","Station_Nam":"LA CRESCENT DAM 7","Latitude":"43.86560","Longitude":"-91.31000","Snowdepth":"2.000","Units":"in","Rept_Date":"2019-11-06 14"},"coordinates":[1953,4005]},{"type":"Point","properties":{"Station_ID":"KMWN","Station_Nam":"MOUNT WASHINGTON","Latitude":"44.26666","Longitude":"-71.30000","Snowdepth":"2.000","Units":"in","Rept_Date":"2019-11-07 06"},"coordinates":[8552,4311]},{"type":"Point","properties":{"Station_ID":"KMKG","Station_Nam":"MUSKEGON COUNTY AIRPORT","Latitude":"43.16666","Longitude":"-86.23333","Snowdepth":"2.000","Units":"in","Rept_Date":"2019-11-06 18"},"coordinates":[3627,3472]},{"type":"Point","properties":{"Station_ID":"KMKE","Station_Nam":"GEN MITCHELL INTERNATIONAL  AIRPORT","Latitude":"42.95000","Longitude":"-87.90000","Snowdepth":"2.000","Units":"in","Rept_Date":"2019-11-07 06"},"coordinates":[3078,3307]},{"type":"Point","properties":{"Station_ID":"JORM5","Station_Nam":"JORDAN 1SSW","Latitude":"44.65010","Longitude":"-93.63560","Snowdepth":"2.000","Units":"in","Rept_Date":"2019-11-06 11"},"coordinates":[1186,4603]},{"type":"Point","properties":{"Station_ID":"JFNW3","Station_Nam":"JEFFERSON - WWTP","Latitude":"42.99470","Longitude":"-88.80390","Snowdepth":"2.000","Units":"in","Rept_Date":"2019-11-06 13"},"coordinates":[2780,3341]},{"type":"Point","properties":{"Station_ID":"JACW3","Station_Nam":"JACKSON","Latitude":"43.31940","Longitude":"-88.16810","Snowdepth":"2.000","Units":"in","Rept_Date":"2019-11-06 12"},"coordinates":[2989,3589]},{"type":"Point","properties":{"Station_ID":"HORW3","Station_Nam":"HORICON WWTP","Latitude":"43.45000","Longitude":"-88.63330","Snowdepth":"2.000","Units":"in","Rept_Date":"2019-11-06 13"},"coordinates":[2836,3688]},{"type":"Point","properties":{"Station_ID":"FRSW3","Station_Nam":"FRIENDSHIP","Latitude":"43.97500","Longitude":"-89.83080","Snowdepth":"2.000","Units":"in","Rept_Date":"2019-11-06 13"},"coordinates":[2441,4088]},{"type":"Point","properties":{"Station_ID":"ELMI4","Station_Nam":"ELMA IOWA","Latitude":"43.24190","Longitude":"-92.44330","Snowdepth":"2.000","Units":"in","Rept_Date":"2019-11-06 13"},"coordinates":[1580,3530]},{"type":"Point","properties":{"Station_ID":"EAU","Station_Nam":"CHIPPEWA VALLEY REGIONAL AIRPORT","Latitude":"44.86650","Longitude":"-91.48790","Snowdepth":"2.000","Units":"in","Rept_Date":"2019-11-07 00"},"coordinates":[1895,4768]},{"type":"Point","properties":{"Station_ID":"DRDW3","Station_Nam":"DURAND","Latitude":"44.61970","Longitude":"-91.97950","Snowdepth":"2.000","Units":"in","Rept_Date":"2019-11-06 14"},"coordinates":[1732,4580]},{"type":"Point","properties":{"Station_ID":"CUSW3","Station_Nam":"COLUMBUS","Latitude":"43.32610","Longitude":"-89.00810","Snowdepth":"2.000","Units":"in","Rept_Date":"2019-11-06 13"},"coordinates":[2712,3594]},{"type":"Point","properties":{"Station_ID":"COKM5","Station_Nam":"COOK","Latitude":"47.85060","Longitude":"-92.69250","Snowdepth":"2.000","Units":"in","Rept_Date":"2019-11-06 12"},"coordinates":[1497,7043]},{"type":"Point","properties":{"Station_ID":"CLKM4","Station_Nam":"CLARKSBURG","Latitude":"46.49910","Longitude":"-87.84500","Snowdepth":"2.000","Units":"in","Rept_Date":"2019-11-06 12"},"coordinates":[3096,6013]},{"type":"Point","properties":{"Station_ID":"CGPM4","Station_Nam":"DOLLAR BAY","Latitude":"47.11670","Longitude":"-88.51370","Snowdepth":"2.000","Units":"in","Rept_Date":"2019-11-06 12"},"coordinates":[2875,6484]},{"type":"Point","properties":{"Station_ID":"BVUW3","Station_Nam":"GREEN BAY-EAST","Latitude":"44.49290","Longitude":"-87.92560","Snowdepth":"2.000","Units":"in","Rept_Date":"2019-11-06 23"},"coordinates":[3069,4483]},{"type":"Point","properties":{"Station_ID":"BEAW3","Station_Nam":"BEAVER DAM,WI","Latitude":"43.45000","Longitude":"-88.85000","Snowdepth":"2.000","Units":"in","Rept_Date":"2019-11-06 13"},"coordinates":[2764,3688]},{"type":"Point","properties":{"Station_ID":"BABW3","Station_Nam":"BARABOO WWTP","Latitude":"43.48330","Longitude":"-89.63330","Snowdepth":"2.000","Units":"in","Rept_Date":"2019-11-06 14"},"coordinates":[2506,3714]},{"type":"Point","properties":{"Station_ID":"ASTM5","Station_Nam":"AUSTIN WASTE WATER TREATMENT FACILITY","Latitude":"43.65420","Longitude":"-92.97390","Snowdepth":"2.000","Units":"in","Rept_Date":"2019-11-06 13"},"coordinates":[1405,3844]},{"type":"Point","properties":{"Station_ID":"ARLW3","Station_Nam":"UNIV FARM","Latitude":"43.30000","Longitude":"-89.35000","Snowdepth":"2.000","Units":"in","Rept_Date":"2019-11-06 14"},"coordinates":[2600,3574]},{"type":"Point","properties":{"Station_ID":"ANJM4","Station_Nam":"SNOW PAID OBSERVER FOR KANJ","Latitude":"46.48670","Longitude":"-84.40260","Snowdepth":"2.000","Units":"in","Rept_Date":"2019-11-07 06"},"coordinates":[4231,6004]},{"type":"Point","properties":{"Station_ID":"ALTM5","Station_Nam":"ALTURA 5W","Latitude":"44.06330","Longitude":"-92.03970","Snowdepth":"2.000","Units":"in","Rept_Date":"2019-11-06 13"},"coordinates":[1713,4156]},{"type":"Point","properties":{"Station_ID":"ALLW3","Station_Nam":"ALLENTON","Latitude":"43.42360","Longitude":"-88.35110","Snowdepth":"2.000","Units":"in","Rept_Date":"2019-11-06 14"},"coordinates":[2929,3668]},{"type":"Point","properties":{"Station_ID":"TRIQ6","Station_Nam":"TRIO LAKE","Latitude":"49.22880","Longitude":"-87.22920","Snowdepth":"1.730","Units":"in","Rept_Date":"2019-11-07 06"},"coordinates":[3299,8094]},{"type":"Point","properties":{"Station_ID":"MN-DK-73","Station_Nam":"LAKEVILLE 2.6 NNE, MN","Latitude":"44.71250","Longitude":"-93.23043","Snowdepth":"1.700","Units":"in","Rept_Date":"2019-11-06 13"},"coordinates":[1320,4651]},{"type":"Point","properties":{"Station_ID":"QLM","Station_Nam":"QLM","Latitude":"48.92030","Longitude":"-70.25280","Snowdepth":"1.614","Units":"in","Rept_Date":"2019-11-06 12"},"coordinates":[8897,7859]},{"type":"Point","properties":{"Station_ID":"WI-WS-30","Station_Nam":"HARTFORD 2.9 ENE, WI","Latitude":"43.34256","Longitude":"-88.33687","Snowdepth":"1.500","Units":"in","Rept_Date":"2019-11-06 13"},"coordinates":[2934,3606]},{"type":"Point","properties":{"Station_ID":"WI-WK-73","Station_Nam":"MENOMONEE FALLS 3.2 NNW, WI","Latitude":"43.18817","Longitude":"-88.15555","Snowdepth":"1.500","Units":"in","Rept_Date":"2019-11-06 13"},"coordinates":[2993,3489]},{"type":"Point","properties":{"Station_ID":"WI-SK-15","Station_Nam":"REEDSBURG 1.3 N, WI","Latitude":"43.55348","Longitude":"-89.99739","Snowdepth":"1.500","Units":"in","Rept_Date":"2019-11-06 11"},"coordinates":[2386,3767]},{"type":"Point","properties":{"Station_ID":"WI-MW-43","Station_Nam":"BROWN DEER 0.8 NW, WI","Latitude":"43.18438","Longitude":"-87.98401","Snowdepth":"1.500","Units":"in","Rept_Date":"2019-11-06 13"},"coordinates":[3050,3486]},{"type":"Point","properties":{"Station_ID":"WI-EC-23","Station_Nam":"EAU CLAIRE 3.7 S, WI","Latitude":"44.76858","Longitude":"-91.49898","Snowdepth":"1.500","Units":"in","Rept_Date":"2019-11-06 14"},"coordinates":[1891,4694]},{"type":"Point","properties":{"Station_ID":"WI-DA-60","Station_Nam":"MIDDLETON 0.8 SSW, WI","Latitude":"43.09292","Longitude":"-89.51258","Snowdepth":"1.500","Units":"in","Rept_Date":"2019-11-06 13"},"coordinates":[2546,3416]},{"type":"Point","properties":{"Station_ID":"WI-DA-45","Station_Nam":"MADISON 6.1 W, WI","Latitude":"43.06948","Longitude":"-89.50788","Snowdepth":"1.500","Units":"in","Rept_Date":"2019-11-06 13"},"coordinates":[2548,3398]},{"type":"Point","properties":{"Station_ID":"WI-DA-39","Station_Nam":"MADISON 4.0 W, WI","Latitude":"43.07741","Longitude":"-89.46757","Snowdepth":"1.500","Units":"in","Rept_Date":"2019-11-06 13"},"coordinates":[2561,3404]},{"type":"Point","properties":{"Station_ID":"WI-DA-13","Station_Nam":"MADISON 3.7 WSW, WI","Latitude":"43.06230","Longitude":"-89.45650","Snowdepth":"1.500","Units":"in","Rept_Date":"2019-11-06 13"},"coordinates":[2564,3393]},{"type":"Point","properties":{"Station_ID":"WI-AD-10","Station_Nam":"OXFORD 4.0 W, WI","Latitude":"43.78638","Longitude":"-89.64166","Snowdepth":"1.500","Units":"in","Rept_Date":"2019-11-06 13"},"coordinates":[2503,3945]},{"type":"Point","properties":{"Station_ID":"MN-DK-53","Station_Nam":"LAKEVILLE 3.8 ENE, MN","Latitude":"44.70423","Longitude":"-93.18460","Snowdepth":"1.500","Units":"in","Rept_Date":"2019-11-06 12"},"coordinates":[1335,4644]},{"type":"Point","properties":{"Station_ID":"MN-DK-104","Station_Nam":"HASTINGS 1.6 NW, MN","Latitude":"44.74458","Longitude":"-92.88035","Snowdepth":"1.500","Units":"in","Rept_Date":"2019-11-06 13"},"coordinates":[1435,4675]},{"type":"Point","properties":{"Station_ID":"WI-WK-60","Station_Nam":"OCONOMOWOC 2.3 WSW, WI","Latitude":"43.08753","Longitude":"-88.53749","Snowdepth":"1.400","Units":"in","Rept_Date":"2019-11-06 23"},"coordinates":[2868,3412]},{"type":"Point","properties":{"Station_ID":"WI-DA-75","Station_Nam":"COTTAGE GROVE 2.2 E, WI","Latitude":"43.08112","Longitude":"-89.15945","Snowdepth":"1.400","Units":"in","Rept_Date":"2019-11-06 13"},"coordinates":[2662,3407]},{"type":"Point","properties":{"Station_ID":"WI-DA-46","Station_Nam":"MADISON 6.4 W, WI","Latitude":"43.08337","Longitude":"-89.51503","Snowdepth":"1.400","Units":"in","Rept_Date":"2019-11-06 13"},"coordinates":[2545,3409]},{"type":"Point","properties":{"Station_ID":"WI-DA-63","Station_Nam":"MADISON 7.0 WSW, WI","Latitude":"43.04003","Longitude":"-89.51438","Snowdepth":"1.300","Units":"in","Rept_Date":"2019-11-06 13"},"coordinates":[2545,3376]},{"type":"Point","properties":{"Station_ID":"WI-GL-4","Station_Nam":"GREEN LAKE 0.8 E, WI","Latitude":"43.84369","Longitude":"-88.94066","Snowdepth":"1.200","Units":"in","Rept_Date":"2019-11-06 14"},"coordinates":[2735,3988]},{"type":"Point","properties":{"Station_ID":"WI-DD-6","Station_Nam":"THERESA 0.5 SSW, WI","Latitude":"43.51135","Longitude":"-88.45578","Snowdepth":"1.200","Units":"in","Rept_Date":"2019-11-06 13"},"coordinates":[2894,3735]},{"type":"Point","properties":{"Station_ID":"WI-DA-77","Station_Nam":"VERONA 3.9 WSW, WI","Latitude":"42.97286","Longitude":"-89.61041","Snowdepth":"1.200","Units":"in","Rept_Date":"2019-11-06 14"},"coordinates":[2514,3324]},{"type":"Point","properties":{"Station_ID":"MN-SC-33","Station_Nam":"SHAKOPEE 2.6 W, MN","Latitude":"44.78173","Longitude":"-93.52868","Snowdepth":"1.100","Units":"in","Rept_Date":"2019-11-06 13"},"coordinates":[1222,4704]},{"type":"Point","properties":{"Station_ID":"MBGM7","Station_Nam":"MISSOURI BOTANICAL GARDENS","Latitude":"38.61280","Longitude":"-90.26080","Snowdepth":"1.100","Units":"in","Rept_Date":"2019-11-07 06"},"coordinates":[2299,0]},{"type":"Point","properties":{"Station_ID":"IA-AL-6","Station_Nam":"POSTVILLE 5.5 NE, IA","Latitude":"43.14090","Longitude":"-91.49260","Snowdepth":"1.100","Units":"in","Rept_Date":"2019-11-06 13"},"coordinates":[1893,3453]},{"type":"Point","properties":{"Station_ID":"WWWW3","Station_Nam":"WAUPACA","Latitude":"44.35470","Longitude":"-89.05920","Snowdepth":"1.000","Units":"in","Rept_Date":"2019-11-06 14"},"coordinates":[2695,4378]},{"type":"Point","properties":{"Station_ID":"WTNM4","Station_Nam":"WATTON 2WSW","Latitude":"46.52660","Longitude":"-88.64240","Snowdepth":"1.000","Units":"in","Rept_Date":"2019-11-06 13"},"coordinates":[2833,6034]},{"type":"Point","properties":{"Station_ID":"WRNW3","Station_Nam":"WARRENS 4WSW","Latitude":"44.10390","Longitude":"-90.58870","Snowdepth":"1.000","Units":"in","Rept_Date":"2019-11-06 13"},"coordinates":[2191,4187]},{"type":"Point","properties":{"Station_ID":"WPKW3","Station_Nam":"SW-WHITNAL PARK","Latitude":"42.91670","Longitude":"-88.03330","Snowdepth":"1.000","Units":"in","Rept_Date":"2019-11-06 13"},"coordinates":[3034,3282]},{"type":"Point","properties":{"Station_ID":"WIRW3","Station_Nam":"WIS RAPIDS GRAND AV B","Latitude":"44.39940","Longitude":"-89.83050","Snowdepth":"1.000","Units":"in","Rept_Date":"2019-11-06 13"},"coordinates":[2441,4412]},{"type":"Point","properties":{"Station_ID":"WIPW3","Station_Nam":"WISCONSIN RAPIDS-SOUTHEAST","Latitude":"44.38190","Longitude":"-89.80470","Snowdepth":"1.000","Units":"in","Rept_Date":"2019-11-06 12"},"coordinates":[2450,4399]},{"type":"Point","properties":{"Station_ID":"WI-WS-4","Station_Nam":"KEWASKUM 1.8 WNW, WI","Latitude":"43.52880","Longitude":"-88.26570","Snowdepth":"1.000","Units":"in","Rept_Date":"2019-11-06 13"},"coordinates":[2957,3748]},{"type":"Point","properties":{"Station_ID":"WI-WS-16","Station_Nam":"GERMANTOWN 1.3 NE, WI","Latitude":"43.23127","Longitude":"-88.10234","Snowdepth":"1.000","Units":"in","Rept_Date":"2019-11-06 12"},"coordinates":[3011,3521]},{"type":"Point","properties":{"Station_ID":"WI-WN-19","Station_Nam":"OSHKOSH 1.6 ESE, WI","Latitude":"44.01097","Longitude":"-88.52354","Snowdepth":"1.000","Units":"in","Rept_Date":"2019-11-06 13"},"coordinates":[2872,4116]},{"type":"Point","properties":{"Station_ID":"WI-WK-65","Station_Nam":"EAGLE 3.4 SW, WI","Latitude":"42.85067","Longitude":"-88.52596","Snowdepth":"1.000","Units":"in","Rept_Date":"2019-11-06 14"},"coordinates":[2871,3231]},{"type":"Point","properties":{"Station_ID":"WI-WK-61","Station_Nam":"HARTLAND 5.0 NNE, WI","Latitude":"43.16351","Longitude":"-88.30400","Snowdepth":"1.000","Units":"in","Rept_Date":"2019-11-06 12"},"coordinates":[2945,3470]},{"type":"Point","properties":{"Station_ID":"WI-WK-34","Station_Nam":"MUKWONAGO 5.3 W, WI","Latitude":"42.85380","Longitude":"-88.43550","Snowdepth":"1.000","Units":"in","Rept_Date":"2019-11-06 13"},"coordinates":[2901,3234]},{"type":"Point","properties":{"Station_ID":"WI-WK-20","Station_Nam":"MUKWONAGO 0.5 N, WI","Latitude":"42.87385","Longitude":"-88.33180","Snowdepth":"1.000","Units":"in","Rept_Date":"2019-11-06 14"},"coordinates":[2935,3249]},{"type":"Point","properties":{"Station_ID":"WI-WD-2","Station_Nam":"WISCONSIN RAPIDS 4.6 SSE, WI","Latitude":"44.33823","Longitude":"-89.78200","Snowdepth":"1.000","Units":"in","Rept_Date":"2019-11-06 12"},"coordinates":[2457,4365]},{"type":"Point","properties":{"Station_ID":"WI-VL-9","Station_Nam":"LAND O' LAKES 11.7 W, WI","Latitude":"46.19023","Longitude":"-89.45790","Snowdepth":"1.000","Units":"in","Rept_Date":"2019-11-06 13"},"coordinates":[2564,5778]},{"type":"Point","properties":{"Station_ID":"WI-PC-5","Station_Nam":"RIVER FALLS 1.2 SSW, WI","Latitude":"44.84032","Longitude":"-92.63500","Snowdepth":"1.000","Units":"in","Rept_Date":"2019-11-06 13"},"coordinates":[1516,4748]},{"type":"Point","properties":{"Station_ID":"WI-MW-23","Station_Nam":"GREENDALE 1.0 ENE, WI","Latitude":"42.94094","Longitude":"-87.98230","Snowdepth":"1.000","Units":"in","Rept_Date":"2019-11-06 13"},"coordinates":[3051,3300]},{"type":"Point","properties":{"Station_ID":"WI-MW-18","Station_Nam":"WEST ALLIS 0.7 SSE, WI","Latitude":"42.99802","Longitude":"-88.02380","Snowdepth":"1.000","Units":"in","Rept_Date":"2019-11-06 14"},"coordinates":[3037,3344]},{"type":"Point","properties":{"Station_ID":"WI-JF-17","Station_Nam":"JOHNSON CREEK 2.7 SSW, WI","Latitude":"43.04559","Longitude":"-88.79925","Snowdepth":"1.000","Units":"in","Rept_Date":"2019-11-06 12"},"coordinates":[2781,3380]},{"type":"Point","properties":{"Station_ID":"WI-JF-10","Station_Nam":"PALMYRA 1.5 N, WI","Latitude":"42.90084","Longitude":"-88.58620","Snowdepth":"1.000","Units":"in","Rept_Date":"2019-11-06 13"},"coordinates":[2851,3269]},{"type":"Point","properties":{"Station_ID":"WI-DD-14","Station_Nam":"THERESA 0.1 ESE, WI","Latitude":"43.51691","Longitude":"-88.45026","Snowdepth":"1.000","Units":"in","Rept_Date":"2019-11-06 13"},"coordinates":[2896,3739]},{"type":"Point","properties":{"Station_ID":"WI-DA-78","Station_Nam":"SUN PRAIRIE 3.0 W, WI","Latitude":"43.17607","Longitude":"-89.29134","Snowdepth":"1.000","Units":"in","Rept_Date":"2019-11-06 13"},"coordinates":[2619,3479]},{"type":"Point","properties":{"Station_ID":"WI-DA-33","Station_Nam":"OREGON 0.4 SSW, WI","Latitude":"42.92080","Longitude":"-89.38540","Snowdepth":"1.000","Units":"in","Rept_Date":"2019-11-06 14"},"coordinates":[2588,3285]},{"type":"Point","properties":{"Station_ID":"WI-DA-31","Station_Nam":"DEERFIELD 0.6 N, WI","Latitude":"43.05958","Longitude":"-89.07340","Snowdepth":"1.000","Units":"in","Rept_Date":"2019-11-06 12"},"coordinates":[2691,3391]},{"type":"Point","properties":{"Station_ID":"WHTW3","Station_Nam":"WHITEWATER,WI","Latitude":"42.85670","Longitude":"-88.72940","Snowdepth":"1.000","Units":"in","Rept_Date":"2019-11-06 13"},"coordinates":[2804,3236]},{"type":"Point","properties":{"Station_ID":"WATW3","Station_Nam":"WATERTOWN,WI","Latitude":"43.17500","Longitude":"-88.73530","Snowdepth":"1.000","Units":"in","Rept_Date":"2019-11-06 13"},"coordinates":[2802,3479]},{"type":"Point","properties":{"Station_ID":"VANM4","Station_Nam":"VANDERBILT 11ENE","Latitude":"45.17020","Longitude":"-84.43970","Snowdepth":"1.000","Units":"in","Rept_Date":"2019-11-06 13"},"coordinates":[4219,5000]},{"type":"Point","properties":{"Station_ID":"TOWM5","Station_Nam":"TOWER,MN","Latitude":"47.75530","Longitude":"-92.28580","Snowdepth":"1.000","Units":"in","Rept_Date":"2019-11-06 13"},"coordinates":[1631,6971]},{"type":"Point","properties":{"Station_ID":"STPW3","Station_Nam":"STEVENS POINT","Latitude":"44.51130","Longitude":"-89.58550","Snowdepth":"1.000","Units":"in","Rept_Date":"2019-11-06 13"},"coordinates":[2522,4497]},{"type":"Point","properties":{"Station_ID":"STOW3","Station_Nam":"STOUGHTON,WI","Latitude":"42.91670","Longitude":"-89.21670","Snowdepth":"1.000","Units":"in","Rept_Date":"2019-11-06 13"},"coordinates":[2644,3282]},{"type":"Point","properties":{"Station_ID":"STOI2","Station_Nam":"STOCKTON 3 NNE","Latitude":"42.40050","Longitude":"-89.99580","Snowdepth":"1.000","Units":"in","Rept_Date":"2019-11-07 03"},"coordinates":[2387,2888]},{"type":"Point","properties":{"Station_ID":"SSMM4","Station_Nam":"SAULT STE MARIE","Latitude":"46.48660","Longitude":"-84.40250","Snowdepth":"1.000","Units":"in","Rept_Date":"2019-11-06 13"},"coordinates":[4231,6003]},{"type":"Point","properties":{"Station_ID":"SHIW3","Station_Nam":"SHIOCTON","Latitude":"44.43890","Longitude":"-88.58390","Snowdepth":"1.000","Units":"in","Rept_Date":"2019-11-06 13"},"coordinates":[2852,4442]},{"type":"Point","properties":{"Station_ID":"SEEW3","Station_Nam":"SOUTH MILWAUKEE WWTP","Latitude":"42.90110","Longitude":"-87.84940","Snowdepth":"1.000","Units":"in","Rept_Date":"2019-11-06 14"},"coordinates":[3094,3270]},{"type":"Point","properties":{"Station_ID":"SD-BK-2","Station_Nam":"ASTORIA 2.2 SSE, SD","Latitude":"44.53093","Longitude":"-96.52270","Snowdepth":"1.000","Units":"in","Rept_Date":"2019-11-06 13"},"coordinates":[234,4512]},{"type":"Point","properties":{"Station_ID":"SACW3","Station_Nam":"SAUK CITY","Latitude":"43.26000","Longitude":"-89.73580","Snowdepth":"1.000","Units":"in","Rept_Date":"2019-11-06 12"},"coordinates":[2472,3543]},{"type":"Point","properties":{"Station_ID":"ROCW3","Station_Nam":"ROCHESTER WWTP","Latitude":"42.72690","Longitude":"-88.22580","Snowdepth":"1.000","Units":"in","Rept_Date":"2019-11-06 11"},"coordinates":[2970,3137]},{"type":"Point","properties":{"Station_ID":"RCHW3","Station_Nam":"RICHRIELD,WI","Latitude":"43.21080","Longitude":"-88.20940","Snowdepth":"1.000","Units":"in","Rept_Date":"2019-11-06 12"},"coordinates":[2976,3506]},{"type":"Point","properties":{"Station_ID":"PYRW3","Station_Nam":"PALMYRA WWTP","Latitude":"42.88720","Longitude":"-88.58310","Snowdepth":"1.000","Units":"in","Rept_Date":"2019-11-06 13"},"coordinates":[2852,3259]},{"type":"Point","properties":{"Station_ID":"POYW3","Station_Nam":"POY SIPPI - 2 SW","Latitude":"44.10810","Longitude":"-89.01610","Snowdepth":"1.000","Units":"in","Rept_Date":"2019-11-06 13"},"coordinates":[2710,4190]},{"type":"Point","properties":{"Station_ID":"PLOW3","Station_Nam":"PLOVER","Latitude":"44.44280","Longitude":"-89.54530","Snowdepth":"1.000","Units":"in","Rept_Date":"2019-11-06 13"},"coordinates":[2535,4445]},{"type":"Point","properties":{"Station_ID":"PITW3","Station_Nam":"PITTSVILLE-WWTP","Latitude":"44.43690","Longitude":"-90.13170","Snowdepth":"1.000","Units":"in","Rept_Date":"2019-11-06 13"},"coordinates":[2342,4441]},{"type":"Point","properties":{"Station_ID":"PDGM4","Station_Nam":"PAULDING","Latitude":"46.39760","Longitude":"-89.17940","Snowdepth":"1.000","Units":"in","Rept_Date":"2019-11-06 13"},"coordinates":[2656,5936]},{"type":"Point","properties":{"Station_ID":"PDCW3","Station_Nam":"PRAIRIE DU CHIEN","Latitude":"43.05150","Longitude":"-91.13490","Snowdepth":"1.000","Units":"in","Rept_Date":"2019-11-06 13"},"coordinates":[2011,3384]},{"type":"Point","properties":{"Station_ID":"OSNW3","Station_Nam":"OSHKOSH-NORTH","Latitude":"44.03500","Longitude":"-88.54390","Snowdepth":"1.000","Units":"in","Rept_Date":"2019-11-06 13"},"coordinates":[2865,4134]},{"type":"Point","properties":{"Station_ID":"OSAI4","Station_Nam":"OSAGE","Latitude":"43.27940","Longitude":"-92.81060","Snowdepth":"1.000","Units":"in","Rept_Date":"2019-11-06 13"},"coordinates":[1458,3558]},{"type":"Point","properties":{"Station_ID":"ONAM4","Station_Nam":"ONAWAY 4N","Latitude":"45.41080","Longitude":"-84.22330","Snowdepth":"1.000","Units":"in","Rept_Date":"2019-11-06 23"},"coordinates":[4290,5183]},{"type":"Point","properties":{"Station_ID":"MWOW3","Station_Nam":"MUKWONAGO","Latitude":"42.85380","Longitude":"-88.43550","Snowdepth":"1.000","Units":"in","Rept_Date":"2019-11-06 13"},"coordinates":[2901,3234]},{"type":"Point","properties":{"Station_ID":"MRBW3","Station_Nam":"MT HOREB","Latitude":"42.98030","Longitude":"-89.73940","Snowdepth":"1.000","Units":"in","Rept_Date":"2019-11-06 13"},"coordinates":[2471,3330]},{"type":"Point","properties":{"Station_ID":"MNSM4","Station_Nam":"MUNISING","Latitude":"46.41210","Longitude":"-86.66250","Snowdepth":"1.000","Units":"in","Rept_Date":"2019-11-06 11"},"coordinates":[3486,5947]},{"type":"Point","properties":{"Station_ID":"MN-WG-33","Station_Nam":"COTTAGE GROVE 1.6 NNW, MN","Latitude":"44.83821","Longitude":"-92.93590","Snowdepth":"1.000","Units":"in","Rept_Date":"2019-11-06 13"},"coordinates":[1417,4747]},{"type":"Point","properties":{"Station_ID":"MN-SL-108","Station_Nam":"IRON JUNCTION 3.4 NNW, MN","Latitude":"47.46150","Longitude":"-92.63130","Snowdepth":"1.000","Units":"in","Rept_Date":"2019-11-06 13"},"coordinates":[1518,6747]},{"type":"Point","properties":{"Station_ID":"MN-SC-2","Station_Nam":"PRIOR LAKE 2.0 W, MN","Latitude":"44.71250","Longitude":"-93.46360","Snowdepth":"1.000","Units":"in","Rept_Date":"2019-11-06 12"},"coordinates":[1243,4651]},{"type":"Point","properties":{"Station_ID":"MN-RV-8","Station_Nam":"BIRD ISLAND 7.2 SSE, MN","Latitude":"44.66542","Longitude":"-94.85440","Snowdepth":"1.000","Units":"in","Rept_Date":"2019-11-06 13"},"coordinates":[784,4615]},{"type":"Point","properties":{"Station_ID":"MN-DK-14","Station_Nam":"INVER GROVE HEIGHTS 1.3 ENE, MN","Latitude":"44.83439","Longitude":"-93.03580","Snowdepth":"1.000","Units":"in","Rept_Date":"2019-11-06 13"},"coordinates":[1384,4744]},{"type":"Point","properties":{"Station_ID":"MMLM5","Station_Nam":"DIVERSION","Latitude":"44.47060","Longitude":"-95.80000","Snowdepth":"1.000","Units":"in","Rept_Date":"2019-11-06 14"},"coordinates":[473,4466]},{"type":"Point","properties":{"Station_ID":"MIEM4","Station_Nam":"MICHIGAMME 3WNW","Latitude":"46.54530","Longitude":"-88.18000","Snowdepth":"1.000","Units":"in","Rept_Date":"2019-11-06 13"},"coordinates":[2985,6048]},{"type":"Point","properties":{"Station_ID":"MI-MQ-19","Station_Nam":"ISHPEMING 7.2 SW, MI","Latitude":"46.40550","Longitude":"-87.75670","Snowdepth":"1.000","Units":"in","Rept_Date":"2019-11-06 11"},"coordinates":[3125,5942]},{"type":"Point","properties":{"Station_ID":"MI-CF-9","Station_Nam":"GRAYLING 15.8 NE, MI","Latitude":"44.80464","Longitude":"-84.46313","Snowdepth":"1.000","Units":"in","Rept_Date":"2019-11-06 12"},"coordinates":[4211,4721]},{"type":"Point","properties":{"Station_ID":"MFDW3","Station_Nam":"MARSHFIELD EXP FARM","Latitude":"44.64110","Longitude":"-90.13330","Snowdepth":"1.000","Units":"in","Rept_Date":"2019-11-06 13"},"coordinates":[2341,4596]},{"type":"Point","properties":{"Station_ID":"MBS","Station_Nam":"MBS INTERNATIONAL AIRPORT","Latitude":"43.53310","Longitude":"-84.07970","Snowdepth":"1.000","Units":"in","Rept_Date":"2019-11-07 00"},"coordinates":[4338,3752]},{"type":"Point","properties":{"Station_ID":"MABM5","Station_Nam":"MABEL","Latitude":"43.52410","Longitude":"-91.76160","Snowdepth":"1.000","Units":"in","Rept_Date":"2019-11-06 12"},"coordinates":[1804,3745]},{"type":"Point","properties":{"Station_ID":"LYNW3","Station_Nam":"LYNXVILLE DAM 9","Latitude":"43.21180","Longitude":"-91.09850","Snowdepth":"1.000","Units":"in","Rept_Date":"2019-11-06 13"},"coordinates":[2023,3507]},{"type":"Point","properties":{"Station_ID":"LOOW3","Station_Nam":"WATERLOO","Latitude":"43.18830","Longitude":"-88.98440","Snowdepth":"1.000","Units":"in","Rept_Date":"2019-11-06 13"},"coordinates":[2720,3489]},{"type":"Point","properties":{"Station_ID":"LNOW3","Station_Nam":"LAND O LAKES","Latitude":"46.19000","Longitude":"-89.45700","Snowdepth":"1.000","Units":"in","Rept_Date":"2019-11-06 13"},"coordinates":[2564,5777]},{"type":"Point","properties":{"Station_ID":"LKMW3","Station_Nam":"LAKE MILLS,WI","Latitude":"43.06670","Longitude":"-88.91220","Snowdepth":"1.000","Units":"in","Rept_Date":"2019-11-06 12"},"coordinates":[2744,3396]},{"type":"Point","properties":{"Station_ID":"LEIM5","Station_Nam":"ORR 3E","Latitude":"48.05810","Longitude":"-92.75220","Snowdepth":"1.000","Units":"in","Rept_Date":"2019-11-06 12"},"coordinates":[1478,7202]},{"type":"Point","properties":{"Station_ID":"KTVC","Station_Nam":"CHERRY CAPITAL AIRPORT","Latitude":"44.73333","Longitude":"-85.56666","Snowdepth":"1.000","Units":"in","Rept_Date":"2019-11-07 00"},"coordinates":[3847,4667]},{"type":"Point","properties":{"Station_ID":"KTCM4","Station_Nam":"KENT CITY,MI","Latitude":"43.20000","Longitude":"-85.76670","Snowdepth":"1.000","Units":"in","Rept_Date":"2019-11-06 14"},"coordinates":[3781,3498]},{"type":"Point","properties":{"Station_ID":"KENW3","Station_Nam":"WATER POLLUTION CONTROL PLANT","Latitude":"42.55000","Longitude":"-87.81420","Snowdepth":"1.000","Units":"in","Rept_Date":"2019-11-07 06"},"coordinates":[3106,3002]},{"type":"Point","properties":{"Station_ID":"KABM5","Station_Nam":"KABETOGAMA LAKE VISITOR CTR","Latitude":"48.40880","Longitude":"-93.04840","Snowdepth":"1.000","Units":"in","Rept_Date":"2019-11-06 13"},"coordinates":[1380,7469]},{"type":"Point","properties":{"Station_ID":"INL","Station_Nam":"FALLS INTERNATIONAL ARPT","Latitude":"48.56640","Longitude":"-93.40310","Snowdepth":"1.000","Units":"in","Rept_Date":"2019-11-07 00"},"coordinates":[1263,7589]},{"type":"Point","properties":{"Station_ID":"IFSM5","Station_Nam":"INTERNATIONAL FALLS SNOW","Latitude":"48.57780","Longitude":"-93.39640","Snowdepth":"1.000","Units":"in","Rept_Date":"2019-11-07 00"},"coordinates":[1265,7598]},{"type":"Point","properties":{"Station_ID":"HYTS2","Station_Nam":"HAYTI 1W","Latitude":"44.66330","Longitude":"-97.22670","Snowdepth":"1.000","Units":"in","Rept_Date":"2019-11-06 14"},"coordinates":[2,4613]},{"type":"Point","properties":{"Station_ID":"HARW3","Station_Nam":"HARTFORD,WI","Latitude":"43.31670","Longitude":"-88.40000","Snowdepth":"1.000","Units":"in","Rept_Date":"2019-11-06 12"},"coordinates":[2913,3587]},{"type":"Point","properties":{"Station_ID":"HANW3","Station_Nam":"HANCOCK EXP FARM","Latitude":"44.11860","Longitude":"-89.53580","Snowdepth":"1.000","Units":"in","Rept_Date":"2019-11-06 14"},"coordinates":[2538,4198]},{"type":"Point","properties":{"Station_ID":"GERW3","Station_Nam":"GERMANTOWN,WI","Latitude":"43.21670","Longitude":"-88.11670","Snowdepth":"1.000","Units":"in","Rept_Date":"2019-11-06 13"},"coordinates":[3006,3510]},{"type":"Point","properties":{"Station_ID":"FEDM5","Station_Nam":"LEECH LAKE DAM","Latitude":"47.24670","Longitude":"-94.22280","Snowdepth":"1.000","Units":"in","Rept_Date":"2019-11-06 14"},"coordinates":[993,6583]},{"type":"Point","properties":{"Station_ID":"FCDW3","Station_Nam":"FOND DU LAC-AM","Latitude":"43.76670","Longitude":"-88.46670","Snowdepth":"1.000","Units":"in","Rept_Date":"2019-11-06 13"},"coordinates":[2891,3930]},{"type":"Point","properties":{"Station_ID":"FATW3","Station_Nam":"FORT ATKINSON,WI","Latitude":"42.88330","Longitude":"-88.83330","Snowdepth":"1.000","Units":"in","Rept_Date":"2019-11-06 13"},"coordinates":[2770,3256]},{"type":"Point","properties":{"Station_ID":"EMBM5","Station_Nam":"EMBARASS,MN","Latitude":"47.65810","Longitude":"-92.19580","Snowdepth":"1.000","Units":"in","Rept_Date":"2019-11-06 12"},"coordinates":[1661,6897]},{"type":"Point","properties":{"Station_ID":"ELYM5","Station_Nam":"ELY","Latitude":"47.90560","Longitude":"-91.82830","Snowdepth":"1.000","Units":"in","Rept_Date":"2019-11-06 15"},"coordinates":[1782,7085]},{"type":"Point","properties":{"Station_ID":"ELRW3","Station_Nam":"EAU CLAIRE 3SW","Latitude":"44.78780","Longitude":"-91.51650","Snowdepth":"1.000","Units":"in","Rept_Date":"2019-11-07 06"},"coordinates":[1885,4708]},{"type":"Point","properties":{"Station_ID":"DGVW3","Station_Nam":"DODGEVILLE","Latitude":"42.96670","Longitude":"-90.11670","Snowdepth":"1.000","Units":"in","Rept_Date":"2019-11-06 13"},"coordinates":[2347,3320]},{"type":"Point","properties":{"Station_ID":"CMRI4","Station_Nam":"CALMAR NE","Latitude":"43.18760","Longitude":"-91.86200","Snowdepth":"1.000","Units":"in","Rept_Date":"2019-11-06 13"},"coordinates":[1771,3488]},{"type":"Point","properties":{"Station_ID":"CLKS2","Station_Nam":"WATERTOWN-23MI.ESE","Latitude":"44.75000","Longitude":"-96.68330","Snowdepth":"1.000","Units":"in","Rept_Date":"2019-11-06 16"},"coordinates":[181,4679]},{"type":"Point","properties":{"Station_ID":"CHMW3","Station_Nam":"MADISON,WI","Latitude":"43.06030","Longitude":"-89.47810","Snowdepth":"1.000","Units":"in","Rept_Date":"2019-11-06 13"},"coordinates":[2557,3391]},{"type":"Point","properties":{"Station_ID":"CHIW3","Station_Nam":"CHILTON,WI","Latitude":"44.03330","Longitude":"-88.15000","Snowdepth":"1.000","Units":"in","Rept_Date":"2019-11-06 13"},"coordinates":[2995,4133]},{"type":"Point","properties":{"Station_ID":"CHES2","Station_Nam":"CHESTER 2N","Latitude":"43.92830","Longitude":"-96.93160","Snowdepth":"1.000","Units":"in","Rept_Date":"2019-11-06 13"},"coordinates":[99,4053]},{"type":"Point","properties":{"Station_ID":"CAN-ON-118","Station_Nam":"DURHAM 1.4 S, CAN","Latitude":"44.16525","Longitude":"-80.82064","Snowdepth":"1.000","Units":"in","Rept_Date":"2019-11-06 12"},"coordinates":[5412,4234]},{"type":"Point","properties":{"Station_ID":"CAN-MB-63","Station_Nam":"STEINBACH 0.8 SSE, CA","Latitude":"49.51964","Longitude":"-96.67940","Snowdepth":"1.000","Units":"in","Rept_Date":"2019-11-06 13"},"coordinates":[183,8316]},{"type":"Point","properties":{"Station_ID":"BLNW3","Station_Nam":"BERLIN WWTP","Latitude":"43.99000","Longitude":"-88.94170","Snowdepth":"1.000","Units":"in","Rept_Date":"2019-11-06 13"},"coordinates":[2734,4100]},{"type":"Point","properties":{"Station_ID":"BFDW3","Station_Nam":"BROOKFIELD","Latitude":"43.05390","Longitude":"-88.17640","Snowdepth":"1.000","Units":"in","Rept_Date":"2019-11-06 14"},"coordinates":[2987,3386]},{"type":"Point","properties":{"Station_ID":"BDIM5","Station_Nam":"BIRD ISLAND 7SSE","Latitude":"44.66490","Longitude":"-94.85460","Snowdepth":"1.000","Units":"in","Rept_Date":"2019-11-06 13"},"coordinates":[784,4614]},{"type":"Point","properties":{"Station_ID":"BABM5","Station_Nam":"BABBITT","Latitude":"47.71210","Longitude":"-91.95330","Snowdepth":"1.000","Units":"in","Rept_Date":"2019-11-06 13"},"coordinates":[1741,6938]},{"type":"Point","properties":{"Station_ID":"APLW3","Station_Nam":"APPLETON WHBY RADIO","Latitude":"44.25110","Longitude":"-88.36440","Snowdepth":"1.000","Units":"in","Rept_Date":"2019-11-06 14"},"coordinates":[2925,4299]},{"type":"Point","properties":{"Station_ID":"ANJ","Station_Nam":"SAULT STE MARIE","Latitude":"46.46670","Longitude":"-84.36670","Snowdepth":"1.000","Units":"in","Rept_Date":"2019-11-07 00"},"coordinates":[4243,5988]},{"type":"Point","properties":{"Station_ID":"AMHW3","Station_Nam":"AMHERST-3 SE","Latitude":"44.41280","Longitude":"-89.26390","Snowdepth":"1.000","Units":"in","Rept_Date":"2019-11-06 13"},"coordinates":[2628,4422]},{"type":"Point","properties":{"Station_ID":"ALXI4","Station_Nam":"WATERLOO SNOW","Latitude":"42.53130","Longitude":"-92.37550","Snowdepth":"1.000","Units":"in","Rept_Date":"2019-11-07 06"},"coordinates":[1602,2988]}]}},"arcs":[],"transform":{"scale":[0.0030325232523252324,0.0013115411541154117],"translate":[-97.2333,38.6128]}}