{"type":"Topology","objects":{"snowdepth_geo":{"type":"GeometryCollection","name":"snowdepth","crs":{"type":"name","properties":{"name":"urn:ogc:def:crs:OGC:1.3:CRS84"}},"geometries":[{"type":"Point","properties":{"Station_ID":"PRKM4","Station_Nam":"MUNISING EAST","Latitude":"46.42580","Longitude":"-86.62000","Snowdepth":"76.500","Units":"in","Rept_Date":"2020-11-17 06"},"coordinates":[2364,5310]},{"type":"Point","properties":{"Station_ID":"PA-BR-41","Station_Nam":"FLEETWOOD 4.8 ESE, PA","Latitude":"40.42150","Longitude":"-75.74132","Snowdepth":"9.000","Units":"in","Rept_Date":"2020-11-16 12"},"coordinates":[4822,0]},{"type":"Point","properties":{"Station_ID":"NH-BK-9","Station_Nam":"MEREDITH 2.9 SSW, NH","Latitude":"43.62245","Longitude":"-71.53510","Snowdepth":"9.000","Units":"in","Rept_Date":"2020-11-16 12"},"coordinates":[5772,2831]},{"type":"Point","properties":{"Station_ID":"MN-SL-105","Station_Nam":"DULUTH 11.8 NNE, MN","Latitude":"46.94680","Longitude":"-92.03925","Snowdepth":"8.000","Units":"in","Rept_Date":"2020-11-16 13"},"coordinates":[1140,5771]},{"type":"Point","properties":{"Station_ID":"FLDM5","Station_Nam":"FLOODWOOD,MN","Latitude":"47.00000","Longitude":"-92.91670","Snowdepth":"8.000","Units":"in","Rept_Date":"2020-11-16 14"},"coordinates":[941,5818]},{"type":"Point","properties":{"Station_ID":"DLHM5","Station_Nam":"DULUTH NWS","Latitude":"46.83680","Longitude":"-92.21080","Snowdepth":"8.000","Units":"in","Rept_Date":"2020-11-17 06"},"coordinates":[1101,5674]},{"type":"Point","properties":{"Station_ID":"DLH","Station_Nam":"DULUTH, MN","Latitude":"46.83690","Longitude":"-92.21030","Snowdepth":"8.000","Units":"in","Rept_Date":"2020-11-17 00"},"coordinates":[1101,5674]},{"type":"Point","properties":{"Station_ID":"CLQM5","Station_Nam":"CLOQUET","Latitude":"46.70470","Longitude":"-92.52530","Snowdepth":"8.000","Units":"in","Rept_Date":"2020-11-16 14"},"coordinates":[1030,5557]},{"type":"Point","properties":{"Station_ID":"TRIQ6","Station_Nam":"TRIO LAKE","Latitude":"49.22880","Longitude":"-87.22920","Snowdepth":"7.870","Units":"in","Rept_Date":"2020-11-17 06"},"coordinates":[2226,7790]},{"type":"Point","properties":{"Station_ID":"MN-CN-36","Station_Nam":"CLOQUET 3.4 ENE, MN","Latitude":"46.74146","Longitude":"-92.42698","Snowdepth":"7.500","Units":"in","Rept_Date":"2020-11-16 13"},"coordinates":[1052,5590]},{"type":"Point","properties":{"Station_ID":"WLFM5","Station_Nam":"WOLF RIDGE ENVIRON LEARNING CENTER","Latitude":"47.38240","Longitude":"-91.19730","Snowdepth":"7.000","Units":"in","Rept_Date":"2020-11-16 13"},"coordinates":[1330,6157]},{"type":"Point","properties":{"Station_ID":"FISM1","Station_Nam":"FORT KENT COOP","Latitude":"47.23850","Longitude":"-68.61240","Snowdepth":"7.000","Units":"in","Rept_Date":"2020-11-16 12"},"coordinates":[6433,6029]},{"type":"Point","properties":{"Station_ID":"MN-CN-33","Station_Nam":"BARNUM 4.3 W, MN","Latitude":"46.50393","Longitude":"-92.77943","Snowdepth":"6.900","Units":"in","Rept_Date":"2020-11-16 12"},"coordinates":[972,5380]},{"type":"Point","properties":{"Station_ID":"MN-SL-18","Station_Nam":"DULUTH 1.4 NNW, MN","Latitude":"46.80321","Longitude":"-92.11240","Snowdepth":"6.500","Units":"in","Rept_Date":"2020-11-16 14"},"coordinates":[1123,5644]},{"type":"Point","properties":{"Station_ID":"WRSM5","Station_Nam":"WRENSHALL","Latitude":"46.61550","Longitude":"-92.38380","Snowdepth":"6.000","Units":"in","Rept_Date":"2020-11-16 14"},"coordinates":[1062,5478]},{"type":"Point","properties":{"Station_ID":"WI-WB-2","Station_Nam":"STONE LAKE 2.0 NW, WI","Latitude":"45.85960","Longitude":"-91.57710","Snowdepth":"6.000","Units":"in","Rept_Date":"2020-11-16 13"},"coordinates":[1244,4810]},{"type":"Point","properties":{"Station_ID":"UPSW3","Station_Nam":"UPSON,WI","Latitude":"46.36780","Longitude":"-90.41220","Snowdepth":"6.000","Units":"in","Rept_Date":"2020-11-17 00"},"coordinates":[1507,5259]},{"type":"Point","properties":{"Station_ID":"HURW3","Station_Nam":"HURLEY","Latitude":"46.46250","Longitude":"-90.19550","Snowdepth":"6.000","Units":"in","Rept_Date":"2020-11-16 14"},"coordinates":[1556,5343]},{"type":"Point","properties":{"Station_ID":"BBEM4","Station_Nam":"BIG BAY 9SW","Latitude":"46.74620","Longitude":"-87.88160","Snowdepth":"6.000","Units":"in","Rept_Date":"2020-11-16 13"},"coordinates":[2079,5594]},{"type":"Point","properties":{"Station_ID":"BABM5","Station_Nam":"BABBITT","Latitude":"47.71210","Longitude":"-91.95330","Snowdepth":"6.000","Units":"in","Rept_Date":"2020-11-16 13"},"coordinates":[1159,6448]},{"type":"Point","properties":{"Station_ID":"MLZ","Station_Nam":"MLZ","Latitude":"50.66170","Longitude":"-68.82360","Snowdepth":"5.866","Units":"in","Rept_Date":"2020-11-16 12"},"coordinates":[6385,9057]},{"type":"Point","properties":{"Station_ID":"QOU","Station_Nam":"QOU","Latitude":"50.79250","Longitude":"-69.67470","Snowdepth":"5.827","Units":"in","Rept_Date":"2020-11-16 12"},"coordinates":[6193,9173]},{"type":"Point","properties":{"Station_ID":"DVLQ6","Station_Nam":"DEVIOUS LAKE","Latitude":"49.19890","Longitude":"-87.76440","Snowdepth":"5.550","Units":"in","Rept_Date":"2020-11-17 06"},"coordinates":[2106,7763]},{"type":"Point","properties":{"Station_ID":"WI-DG-20","Station_Nam":"SOLON SPRINGS 1.2 W, WI","Latitude":"46.35217","Longitude":"-91.84405","Snowdepth":"5.500","Units":"in","Rept_Date":"2020-11-16 13"},"coordinates":[1184,5245]},{"type":"Point","properties":{"Station_ID":"WI-IR-3","Station_Nam":"PENCE 0.1 E, WI","Latitude":"46.41555","Longitude":"-90.27013","Snowdepth":"5.000","Units":"in","Rept_Date":"2020-11-16 13"},"coordinates":[1539,5301]},{"type":"Point","properties":{"Station_ID":"WI-BY-22","Station_Nam":"MASON 11.5 WNW, WI","Latitude":"46.50198","Longitude":"-91.28339","Snowdepth":"5.000","Units":"in","Rept_Date":"2020-11-16 14"},"coordinates":[1310,5378]},{"type":"Point","properties":{"Station_ID":"WI-BY-14","Station_Nam":"ASHLAND 9.8 W, WI","Latitude":"46.59742","Longitude":"-91.07856","Snowdepth":"5.000","Units":"in","Rept_Date":"2020-11-16 12"},"coordinates":[1357,5462]},{"type":"Point","properties":{"Station_ID":"IRMM4","Station_Nam":"WWTP","Latitude":"46.46670","Longitude":"-90.18330","Snowdepth":"5.000","Units":"in","Rept_Date":"2020-11-16 13"},"coordinates":[1559,5347]},{"type":"Point","properties":{"Station_ID":"COTM5","Station_Nam":"COTTON","Latitude":"47.16870","Longitude":"-92.46290","Snowdepth":"5.000","Units":"in","Rept_Date":"2020-11-16 13"},"coordinates":[1044,5968]},{"type":"Point","properties":{"Station_ID":"AUDQ6","Station_Nam":"AUDEN","Latitude":"48.52600","Longitude":"-82.57570","Snowdepth":"4.060","Units":"in","Rept_Date":"2020-11-17 06"},"coordinates":[3278,7168]},{"type":"Point","properties":{"Station_ID":"WRIM5","Station_Nam":"WRIGHT 3E","Latitude":"46.68040","Longitude":"-92.95420","Snowdepth":"4.000","Units":"in","Rept_Date":"2020-11-16 12"},"coordinates":[933,5536]},{"type":"Point","properties":{"Station_ID":"WI-BY-6","Station_Nam":"BARNES 2.2 S, WI","Latitude":"46.30264","Longitude":"-91.50320","Snowdepth":"4.000","Units":"in","Rept_Date":"2020-11-16 13"},"coordinates":[1261,5202]},{"type":"Point","properties":{"Station_ID":"SUAW3","Station_Nam":"SUAMICO","Latitude":"44.60190","Longitude":"-88.09780","Snowdepth":"4.000","Units":"in","Rept_Date":"2020-11-16 12"},"coordinates":[2030,3697]},{"type":"Point","properties":{"Station_ID":"ME-AR-18","Station_Nam":"NEW SWEDEN 4.9 NNW, ME","Latitude":"47.01080","Longitude":"-68.14390","Snowdepth":"4.000","Units":"in","Rept_Date":"2020-11-16 11"},"coordinates":[6539,5828]},{"type":"Point","properties":{"Station_ID":"IWOM4","Station_Nam":"IRONWOOD#2","Latitude":"46.46520","Longitude":"-90.13820","Snowdepth":"4.000","Units":"in","Rept_Date":"2020-11-16 13"},"coordinates":[1569,5345]},{"type":"Point","properties":{"Station_ID":"HERM4","Station_Nam":"HERMAN,MI","Latitude":"46.65000","Longitude":"-88.33330","Snowdepth":"4.000","Units":"in","Rept_Date":"2020-11-16 15"},"coordinates":[1977,5509]},{"type":"Point","properties":{"Station_ID":"COUW3","Station_Nam":"COUDERAY,WI","Latitude":"45.86670","Longitude":"-91.45000","Snowdepth":"4.000","Units":"in","Rept_Date":"2020-11-16 22"},"coordinates":[1273,4816]},{"type":"Point","properties":{"Station_ID":"BRUM5","Station_Nam":"BRUNO,MN","Latitude":"46.28330","Longitude":"-92.50000","Snowdepth":"4.000","Units":"in","Rept_Date":"2020-11-16 14"},"coordinates":[1036,5184]},{"type":"Point","properties":{"Station_ID":"BNDM5","Station_Nam":"ELY 25E","Latitude":"47.97190","Longitude":"-91.44860","Snowdepth":"4.000","Units":"in","Rept_Date":"2020-11-16 13"},"coordinates":[1273,6678]},{"type":"Point","properties":{"Station_ID":"CAN-NL-79","Station_Nam":"MOUNT PEARL 1.3 WNW, CAN","Latitude":"47.51955","Longitude":"-52.82838","Snowdepth":"3.900","Units":"in","Rept_Date":"2020-11-16 10"},"coordinates":[9999,6278]},{"type":"Point","properties":{"Station_ID":"WI-SR-1","Station_Nam":"HAYWARD 9.2 NNE, WI","Latitude":"46.13255","Longitude":"-91.40500","Snowdepth":"3.800","Units":"in","Rept_Date":"2020-11-16 12"},"coordinates":[1283,5051]},{"type":"Point","properties":{"Station_ID":"PTLQ6","Station_Nam":"PORTAGE LAKE","Latitude":"49.06950","Longitude":"-86.65940","Snowdepth":"3.780","Units":"in","Rept_Date":"2020-11-17 06"},"coordinates":[2355,7649]},{"type":"Point","properties":{"Station_ID":"MN-SL-15","Station_Nam":"CHISHOLM 0.4 WSW, MN","Latitude":"47.48557","Longitude":"-92.88690","Snowdepth":"3.500","Units":"in","Rept_Date":"2020-11-16 13"},"coordinates":[948,6248]},{"type":"Point","properties":{"Station_ID":"MN-SL-143","Station_Nam":"CANYON 4.6 NNE, MN","Latitude":"47.09800","Longitude":"-92.42170","Snowdepth":"3.500","Units":"in","Rept_Date":"2020-11-16 13"},"coordinates":[1053,5905]},{"type":"Point","properties":{"Station_ID":"MN-SL-108","Station_Nam":"IRON JUNCTION 3.4 NNW, MN","Latitude":"47.46150","Longitude":"-92.63130","Snowdepth":"3.500","Units":"in","Rept_Date":"2020-11-16 13"},"coordinates":[1006,6226]},{"type":"Point","properties":{"Station_ID":"MN-CW-29","Station_Nam":"BRAINERD 7.7 SSE, MN","Latitude":"46.24996","Longitude":"-94.14576","Snowdepth":"3.500","Units":"in","Rept_Date":"2020-11-16 13"},"coordinates":[664,5155]},{"type":"Point","properties":{"Station_ID":"MN-KB-17","Station_Nam":"MORA 2.5 S, MN","Latitude":"45.84100","Longitude":"-93.29700","Snowdepth":"3.300","Units":"in","Rept_Date":"2020-11-16 13"},"coordinates":[855,4793]},{"type":"Point","properties":{"Station_ID":"QTV","Station_Nam":"QTV","Latitude":"49.66000","Longitude":"-69.35690","Snowdepth":"3.110","Units":"in","Rept_Date":"2020-11-16 12"},"coordinates":[6265,8171]},{"type":"Point","properties":{"Station_ID":"MFU","Station_Nam":"MFU","Latitude":"51.52170","Longitude":"-66.91110","Snowdepth":"3.031","Units":"in","Rept_Date":"2020-11-16 12"},"coordinates":[6817,9818]},{"type":"Point","properties":{"Station_ID":"WI-BY-2","Station_Nam":"MELLEN 18.6 SW, WI","Latitude":"46.16937","Longitude":"-90.98090","Snowdepth":"3.000","Units":"in","Rept_Date":"2020-11-16 13"},"coordinates":[1379,5084]},{"type":"Point","properties":{"Station_ID":"WI-BT-14","Station_Nam":"OAKLAND 9.0 ENE, WI","Latitude":"45.95184","Longitude":"-92.21653","Snowdepth":"3.000","Units":"in","Rept_Date":"2020-11-16 13"},"coordinates":[1100,4891]},{"type":"Point","properties":{"Station_ID":"VANM1","Station_Nam":"VAN BUREN","Latitude":"47.16600","Longitude":"-67.93900","Snowdepth":"3.000","Units":"in","Rept_Date":"2020-11-16 12"},"coordinates":[6585,5965]},{"type":"Point","properties":{"Station_ID":"PDGM4","Station_Nam":"PAULDING","Latitude":"46.39760","Longitude":"-89.17940","Snowdepth":"3.000","Units":"in","Rept_Date":"2020-11-16 13"},"coordinates":[1786,5286]},{"type":"Point","properties":{"Station_ID":"MN-SL-124","Station_Nam":"BABBITT 4.4 N, MN","Latitude":"47.70744","Longitude":"-91.93062","Snowdepth":"3.000","Units":"in","Rept_Date":"2020-11-16 13"},"coordinates":[1164,6444]},{"type":"Point","properties":{"Station_ID":"MN-SL-115","Station_Nam":"COTTON 5.7 ESE, MN","Latitude":"47.15142","Longitude":"-92.35772","Snowdepth":"3.000","Units":"in","Rept_Date":"2020-11-16 13"},"coordinates":[1068,5952]},{"type":"Point","properties":{"Station_ID":"MIEM4","Station_Nam":"MICHIGAMME 3WNW","Latitude":"46.54530","Longitude":"-88.18000","Snowdepth":"3.000","Units":"in","Rept_Date":"2020-11-16 13"},"coordinates":[2012,5416]},{"type":"Point","properties":{"Station_ID":"MI-BG-3","Station_Nam":"THREE LAKES, MI","Latitude":"46.55730","Longitude":"-88.20770","Snowdepth":"3.000","Units":"in","Rept_Date":"2020-11-16 13"},"coordinates":[2005,5427]},{"type":"Point","properties":{"Station_ID":"LUCW3","Station_Nam":"LUCK","Latitude":"45.57330","Longitude":"-92.48520","Snowdepth":"3.000","Units":"in","Rept_Date":"2020-11-16 22"},"coordinates":[1039,4556]},{"type":"Point","properties":{"Station_ID":"LNGM5","Station_Nam":"LONG PRAIRIE","Latitude":"45.96460","Longitude":"-94.88920","Snowdepth":"3.000","Units":"in","Rept_Date":"2020-11-16 12"},"coordinates":[496,4903]},{"type":"Point","properties":{"Station_ID":"ELYM5","Station_Nam":"ELY","Latitude":"47.90560","Longitude":"-91.82830","Snowdepth":"3.000","Units":"in","Rept_Date":"2020-11-16 14"},"coordinates":[1187,6619]},{"type":"Point","properties":{"Station_ID":"COKM5","Station_Nam":"COOK","Latitude":"47.85060","Longitude":"-92.69250","Snowdepth":"3.000","Units":"in","Rept_Date":"2020-11-16 12"},"coordinates":[992,6571]},{"type":"Point","properties":{"Station_ID":"CMKW3","Station_Nam":"CLAM LAKE 4W","Latitude":"46.16940","Longitude":"-90.98080","Snowdepth":"3.000","Units":"in","Rept_Date":"2020-11-16 13"},"coordinates":[1379,5084]},{"type":"Point","properties":{"Station_ID":"CLGM5","Station_Nam":"COLLEGEVILLE ST JOHN","Latitude":"45.57940","Longitude":"-94.39200","Snowdepth":"3.000","Units":"in","Rept_Date":"2020-11-17 00"},"coordinates":[608,4562]},{"type":"Point","properties":{"Station_ID":"CDLM4","Station_Nam":"CADILLAC 9&10 NEWS","Latitude":"44.21130","Longitude":"-85.40860","Snowdepth":"3.000","Units":"in","Rept_Date":"2020-11-16 12"},"coordinates":[2638,3352]},{"type":"Point","properties":{"Station_ID":"BSNM5","Station_Nam":"BENSON","Latitude":"45.31670","Longitude":"-95.61660","Snowdepth":"3.000","Units":"in","Rept_Date":"2020-11-16 14"},"coordinates":[331,4330]},{"type":"Point","properties":{"Station_ID":"BRAM5","Station_Nam":"BRAINERD","Latitude":"46.34320","Longitude":"-94.20900","Snowdepth":"3.000","Units":"in","Rept_Date":"2020-11-16 13"},"coordinates":[649,5237]},{"type":"Point","properties":{"Station_ID":"FTHQ6","Station_Nam":"FORT HOPE","Latitude":"51.55820","Longitude":"-87.90510","Snowdepth":"2.640","Units":"in","Rept_Date":"2020-11-17 06"},"coordinates":[2074,9850]},{"type":"Point","properties":{"Station_ID":"QCX","Station_Nam":"QCX","Latitude":"51.32830","Longitude":"-70.08060","Snowdepth":"2.638","Units":"in","Rept_Date":"2020-11-16 12"},"coordinates":[6101,9646]},{"type":"Point","properties":{"Station_ID":"KABQ6","Station_Nam":"CAB LAKE","Latitude":"49.59950","Longitude":"-89.17990","Snowdepth":"2.600","Units":"in","Rept_Date":"2020-11-17 06"},"coordinates":[1786,8117]},{"type":"Point","properties":{"Station_ID":"QLB","Station_Nam":"QLB","Latitude":"50.72360","Longitude":"-75.10000","Snowdepth":"2.598","Units":"in","Rept_Date":"2020-11-16 12"},"coordinates":[4967,9112]},{"type":"Point","properties":{"Station_ID":"SD-UN-2","Station_Nam":"ELK POINT 5.6 NNE, SD","Latitude":"42.76126","Longitude":"-96.65320","Snowdepth":"2.500","Units":"in","Rept_Date":"2020-11-16 15"},"coordinates":[97,2069]},{"type":"Point","properties":{"Station_ID":"CAN-ON-620","Station_Nam":"GOODERHAM 3.4 SSW, CAN","Latitude":"44.87690","Longitude":"-78.39265","Snowdepth":"2.400","Units":"in","Rept_Date":"2020-11-16 12"},"coordinates":[4223,3941]},{"type":"Point","properties":{"Station_ID":"CAN-NL-82","Station_Nam":"GANDER 2.7 NW, CAN","Latitude":"48.97737","Longitude":"-54.63396","Snowdepth":"2.400","Units":"in","Rept_Date":"2020-11-16 10"},"coordinates":[9591,7567]},{"type":"Point","properties":{"Station_ID":"OGIQ6","Station_Nam":"OGOKI CAMP","Latitude":"50.76680","Longitude":"-87.85820","Snowdepth":"2.130","Units":"in","Rept_Date":"2020-11-17 06"},"coordinates":[2084,9150]},{"type":"Point","properties":{"Station_ID":"WTRM4","Station_Nam":"WATERSMEET 12WSW","Latitude":"46.22310","Longitude":"-89.40850","Snowdepth":"2.000","Units":"in","Rept_Date":"2020-11-16 12"},"coordinates":[1734,5131]},{"type":"Point","properties":{"Station_ID":"WTNM4","Station_Nam":"WATTON 2WSW","Latitude":"46.52660","Longitude":"-88.64240","Snowdepth":"2.000","Units":"in","Rept_Date":"2020-11-16 13"},"coordinates":[1907,5400]},{"type":"Point","properties":{"Station_ID":"WMRM5","Station_Nam":"WILLMAR 5N","Latitude":"45.19010","Longitude":"-95.05860","Snowdepth":"2.000","Units":"in","Rept_Date":"2020-11-16 12"},"coordinates":[457,4218]},{"type":"Point","properties":{"Station_ID":"WI-WB-16","Station_Nam":"SARONA 4.5 NNE, WI","Latitude":"45.77030","Longitude":"-91.76890","Snowdepth":"2.000","Units":"in","Rept_Date":"2020-11-16 13"},"coordinates":[1201,4731]},{"type":"Point","properties":{"Station_ID":"WI-VL-9","Station_Nam":"LAND O' LAKES 11.7 W, WI","Latitude":"46.19023","Longitude":"-89.45790","Snowdepth":"2.000","Units":"in","Rept_Date":"2020-11-16 13"},"coordinates":[1723,5102]},{"type":"Point","properties":{"Station_ID":"WI-VL-14","Station_Nam":"BOULDER JUNCTION 1.4 NE, WI","Latitude":"46.12840","Longitude":"-89.62470","Snowdepth":"2.000","Units":"in","Rept_Date":"2020-11-16 13"},"coordinates":[1685,5047]},{"type":"Point","properties":{"Station_ID":"WI-PR-2","Station_Nam":"BUTTERNUT 5.9 SW, WI","Latitude":"45.96501","Longitude":"-90.59750","Snowdepth":"2.000","Units":"in","Rept_Date":"2020-11-16 12"},"coordinates":[1465,4903]},{"type":"Point","properties":{"Station_ID":"TOHM5","Station_Nam":"TWO HARBORS WWTP","Latitude":"47.01760","Longitude":"-91.66480","Snowdepth":"2.000","Units":"in","Rept_Date":"2020-11-16 13"},"coordinates":[1224,5834]},{"type":"Point","properties":{"Station_ID":"SAUW3","Station_Nam":"WAUSAU WSAW TV","Latitude":"44.94630","Longitude":"-89.62220","Snowdepth":"2.000","Units":"in","Rept_Date":"2020-11-17 03"},"coordinates":[1686,4002]},{"type":"Point","properties":{"Station_ID":"RCEM5","Station_Nam":"RICE","Latitude":"45.75760","Longitude":"-94.20720","Snowdepth":"2.000","Units":"in","Rept_Date":"2020-11-16 13"},"coordinates":[650,4719]},{"type":"Point","properties":{"Station_ID":"QNCM4","Station_Nam":"QUINCY HILL","Latitude":"47.13640","Longitude":"-88.57950","Snowdepth":"2.000","Units":"in","Rept_Date":"2020-11-16 12"},"coordinates":[1921,5939]},{"type":"Point","properties":{"Station_ID":"MWN","Station_Nam":"MOUNT WASHINGTON","Latitude":"44.26670","Longitude":"-71.30000","Snowdepth":"2.000","Units":"in","Rept_Date":"2020-11-16 12"},"coordinates":[5826,3401]},{"type":"Point","properties":{"Station_ID":"MN-TD-12","Station_Nam":"LONG PRAIRIE 2.1 NNE, MN","Latitude":"46.00588","Longitude":"-94.84649","Snowdepth":"2.000","Units":"in","Rept_Date":"2020-11-16 14"},"coordinates":[505,4939]},{"type":"Point","properties":{"Station_ID":"MN-SH-985","Station_Nam":"PRINCETON 3.3 WSW, MN","Latitude":"45.55211","Longitude":"-93.64481","Snowdepth":"2.000","Units":"in","Rept_Date":"2020-11-16 11"},"coordinates":[777,4538]},{"type":"Point","properties":{"Station_ID":"MN-RM-15","Station_Nam":"ROSEVILLE 2.1 NW, MN","Latitude":"45.03502","Longitude":"-93.18620","Snowdepth":"2.000","Units":"in","Rept_Date":"2020-11-16 12"},"coordinates":[881,4080]},{"type":"Point","properties":{"Station_ID":"MN-IS-18","Station_Nam":"BRAHAM 0.7 SW, MN","Latitude":"45.71379","Longitude":"-93.18095","Snowdepth":"2.000","Units":"in","Rept_Date":"2020-11-16 14"},"coordinates":[882,4681]},{"type":"Point","properties":{"Station_ID":"MN-HN-298","Station_Nam":"EXCELSIOR 1.8 W, MN","Latitude":"44.89722","Longitude":"-93.60286","Snowdepth":"2.000","Units":"in","Rept_Date":"2020-11-16 13"},"coordinates":[786,3959]},{"type":"Point","properties":{"Station_ID":"MN-HN-181","Station_Nam":"MINNEAPOLIS 0.4 NE, MN","Latitude":"44.96708","Longitude":"-93.26222","Snowdepth":"2.000","Units":"in","Rept_Date":"2020-11-16 13"},"coordinates":[863,4020]},{"type":"Point","properties":{"Station_ID":"MN-DS-9","Station_Nam":"ALEXANDRIA 0.5 W, MN","Latitude":"45.87828","Longitude":"-95.38273","Snowdepth":"2.000","Units":"in","Rept_Date":"2020-11-16 14"},"coordinates":[384,4826]},{"type":"Point","properties":{"Station_ID":"MN-CW-8","Station_Nam":"BRAINERD 11.5 E, MN","Latitude":"46.38556","Longitude":"-93.95720","Snowdepth":"2.000","Units":"in","Rept_Date":"2020-11-16 14"},"coordinates":[706,5275]},{"type":"Point","properties":{"Station_ID":"MN-CW-44","Station_Nam":"CROSBY 1.1 SW, MN","Latitude":"46.47772","Longitude":"-93.97293","Snowdepth":"2.000","Units":"in","Rept_Date":"2020-11-16 13"},"coordinates":[703,5356]},{"type":"Point","properties":{"Station_ID":"MN-CW-22","Station_Nam":"FORT RIPLEY 0.8 N, MN","Latitude":"46.18089","Longitude":"-94.36510","Snowdepth":"2.000","Units":"in","Rept_Date":"2020-11-16 13"},"coordinates":[614,5094]},{"type":"Point","properties":{"Station_ID":"MN-CK-6","Station_Nam":"GRAND MARAIS 4.4 W, MN","Latitude":"47.74865","Longitude":"-90.43760","Snowdepth":"2.000","Units":"in","Rept_Date":"2020-11-16 13"},"coordinates":[1502,6480]},{"type":"Point","properties":{"Station_ID":"MN-BK-16","Station_Nam":"PARK RAPIDS 15.3 NW, MN","Latitude":"47.08653","Longitude":"-95.26951","Snowdepth":"2.000","Units":"in","Rept_Date":"2020-11-16 16"},"coordinates":[410,5895]},{"type":"Point","properties":{"Station_ID":"MN-AT-5","Station_Nam":"TAMARACK 1.4 SW, MN","Latitude":"46.63760","Longitude":"-93.14554","Snowdepth":"2.000","Units":"in","Rept_Date":"2020-11-16 13"},"coordinates":[890,5498]},{"type":"Point","properties":{"Station_ID":"MN-AA-85","Station_Nam":"LINO LAKES 1.8 W, MN","Latitude":"45.16640","Longitude":"-93.12063","Snowdepth":"2.000","Units":"in","Rept_Date":"2020-11-16 13"},"coordinates":[895,4197]},{"type":"Point","properties":{"Station_ID":"MLCM5","Station_Nam":"MILACA","Latitude":"45.75320","Longitude":"-93.66170","Snowdepth":"2.000","Units":"in","Rept_Date":"2020-11-16 13"},"coordinates":[773,4716]},{"type":"Point","properties":{"Station_ID":"LNOW3","Station_Nam":"LAND O LAKES","Latitude":"46.19000","Longitude":"-89.45700","Snowdepth":"2.000","Units":"in","Rept_Date":"2020-11-16 13"},"coordinates":[1723,5102]},{"type":"Point","properties":{"Station_ID":"KMWN","Station_Nam":"MOUNT WASHINGTON","Latitude":"44.26666","Longitude":"-71.30000","Snowdepth":"2.000","Units":"in","Rept_Date":"2020-11-17 06"},"coordinates":[5826,3401]},{"type":"Point","properties":{"Station_ID":"ISEM5","Station_Nam":"ISLE 12N","Latitude":"46.31970","Longitude":"-93.50140","Snowdepth":"2.000","Units":"in","Rept_Date":"2020-11-16 14"},"coordinates":[809,5217]},{"type":"Point","properties":{"Station_ID":"FORM5","Station_Nam":"FOREST LAKE 5NE","Latitude":"45.33170","Longitude":"-92.89820","Snowdepth":"2.000","Units":"in","Rept_Date":"2020-11-16 13"},"coordinates":[946,4343]},{"type":"Point","properties":{"Station_ID":"EMBM5","Station_Nam":"EMBARASS,MN","Latitude":"47.65810","Longitude":"-92.19580","Snowdepth":"2.000","Units":"in","Rept_Date":"2020-11-16 12"},"coordinates":[1104,6400]},{"type":"Point","properties":{"Station_ID":"CRLM5","Station_Nam":"CROSS LAKE DAM","Latitude":"46.66930","Longitude":"-94.11060","Snowdepth":"2.000","Units":"in","Rept_Date":"2020-11-16 14"},"coordinates":[672,5526]},{"type":"Point","properties":{"Station_ID":"CNRM1","Station_Nam":"CONNOR TWP","Latitude":"46.95830","Longitude":"-68.03330","Snowdepth":"2.000","Units":"in","Rept_Date":"2020-11-16 12"},"coordinates":[6564,5781]},{"type":"Point","properties":{"Station_ID":"CLKM4","Station_Nam":"CLARKSBURG","Latitude":"46.49910","Longitude":"-87.84500","Snowdepth":"2.000","Units":"in","Rept_Date":"2020-11-16 12"},"coordinates":[2087,5375]},{"type":"Point","properties":{"Station_ID":"ANJM4","Station_Nam":"SNOW PAID OBSERVER FOR KANJ","Latitude":"46.48670","Longitude":"-84.40260","Snowdepth":"2.000","Units":"in","Rept_Date":"2020-11-17 06"},"coordinates":[2865,5364]},{"type":"Point","properties":{"Station_ID":"ALXM5","Station_Nam":"ALEXANDRIA","Latitude":"45.87820","Longitude":"-95.38270","Snowdepth":"2.000","Units":"in","Rept_Date":"2020-11-16 12"},"coordinates":[384,4826]},{"type":"Point","properties":{"Station_ID":"SOCQ6","Station_Nam":"SOCKET LAKE","Latitude":"50.77870","Longitude":"-91.79300","Snowdepth":"1.810","Units":"in","Rept_Date":"2020-11-17 06"},"coordinates":[1195,9160]},{"type":"Point","properties":{"Station_ID":"QGO","Station_Nam":"QGO","Latitude":"48.85500","Longitude":"-74.20640","Snowdepth":"1.693","Units":"in","Rept_Date":"2020-11-16 12"},"coordinates":[5169,7459]},{"type":"Point","properties":{"Station_ID":"WI-PR-6","Station_Nam":"PHILLIPS 1.3 S, WI","Latitude":"45.67677","Longitude":"-90.39543","Snowdepth":"1.500","Units":"in","Rept_Date":"2020-11-16 12"},"coordinates":[1511,4648]},{"type":"Point","properties":{"Station_ID":"SD-BK-7","Station_Nam":"BROOKINGS 0.2 SSW, SD","Latitude":"44.30389","Longitude":"-96.78780","Snowdepth":"1.500","Units":"in","Rept_Date":"2020-11-16 13"},"coordinates":[67,3434]},{"type":"Point","properties":{"Station_ID":"MN-WG-74","Station_Nam":"OAKDALE 0.4 S, MN","Latitude":"44.98208","Longitude":"-92.96510","Snowdepth":"1.500","Units":"in","Rept_Date":"2020-11-16 13"},"coordinates":[930,4034]},{"type":"Point","properties":{"Station_ID":"MN-SH-38","Station_Nam":"ELK RIVER 1.6 S, MN","Latitude":"45.30850","Longitude":"-93.56256","Snowdepth":"1.500","Units":"in","Rept_Date":"2020-11-16 13"},"coordinates":[795,4322]},{"type":"Point","properties":{"Station_ID":"MN-RM-101","Station_Nam":"FALCON HEIGHTS 0.4 NNW, MN","Latitude":"44.99563","Longitude":"-93.17928","Snowdepth":"1.500","Units":"in","Rept_Date":"2020-11-16 13"},"coordinates":[882,4046]},{"type":"Point","properties":{"Station_ID":"MN-MR-4","Station_Nam":"LITTLE FALLS 1.2 SW, MN","Latitude":"45.96886","Longitude":"-94.37720","Snowdepth":"1.500","Units":"in","Rept_Date":"2020-11-16 13"},"coordinates":[611,4906]},{"type":"Point","properties":{"Station_ID":"MN-MR-13","Station_Nam":"LITTLE FALLS 8.0 NE, MN","Latitude":"46.06785","Longitude":"-94.24789","Snowdepth":"1.500","Units":"in","Rept_Date":"2020-11-16 13"},"coordinates":[641,4994]},{"type":"Point","properties":{"Station_ID":"MN-IT-7","Station_Nam":"GRAND RAPIDS 6.2 SSW, MN","Latitude":"47.13687","Longitude":"-93.56660","Snowdepth":"1.500","Units":"in","Rept_Date":"2020-11-16 12"},"coordinates":[795,5939]},{"type":"Point","properties":{"Station_ID":"MN-IS-21","Station_Nam":"ISANTI 5.0 SW, MN","Latitude":"45.43360","Longitude":"-93.30200","Snowdepth":"1.500","Units":"in","Rept_Date":"2020-11-16 14"},"coordinates":[854,4433]},{"type":"Point","properties":{"Station_ID":"QIQ","Station_Nam":"QIQ","Latitude":"49.82390","Longitude":"-68.54310","Snowdepth":"1.496","Units":"in","Rept_Date":"2020-11-16 12"},"coordinates":[6448,8316]},{"type":"Point","properties":{"Station_ID":"MN-BK-15","Station_Nam":"LAKE PARK 9.9 S, MN","Latitude":"46.74150","Longitude":"-96.11090","Snowdepth":"1.400","Units":"in","Rept_Date":"2020-11-16 14"},"coordinates":[220,5590]},{"type":"Point","properties":{"Station_ID":"CATQ6","Station_Nam":"CAT LAKE","Latitude":"51.72690","Longitude":"-91.82210","Snowdepth":"1.340","Units":"in","Rept_Date":"2020-11-17 06"},"coordinates":[1189,9999]},{"type":"Point","properties":{"Station_ID":"CAN-NB-38","Station_Nam":"GRAND FALLS 2.2 NE, CA","Latitude":"47.05701","Longitude":"-67.72630","Snowdepth":"1.300","Units":"in","Rept_Date":"2020-11-16 11"},"coordinates":[6633,5869]},{"type":"Point","properties":{"Station_ID":"SVBQ6","Station_Nam":"SAVANT BASE","Latitude":"50.28730","Longitude":"-90.65670","Snowdepth":"1.260","Units":"in","Rept_Date":"2020-11-17 06"},"coordinates":[1452,8726]},{"type":"Point","properties":{"Station_ID":"QWE","Station_Nam":"QWE","Latitude":"47.84610","Longitude":"-73.80670","Snowdepth":"1.102","Units":"in","Rept_Date":"2020-11-16 12"},"coordinates":[5259,6567]},{"type":"Point","properties":{"Station_ID":"WI-AS-6","Station_Nam":"ODANAH 1.6 E, WI","Latitude":"46.60462","Longitude":"-90.64920","Snowdepth":"1.100","Units":"in","Rept_Date":"2020-11-16 13"},"coordinates":[1454,5469]},{"type":"Point","properties":{"Station_ID":"WSWN6","Station_Nam":"WARSAW","Latitude":"42.74220","Longitude":"-78.20850","Snowdepth":"1.000","Units":"in","Rept_Date":"2020-11-16 12"},"coordinates":[4265,2053]},{"type":"Point","properties":{"Station_ID":"WRUM5","Station_Nam":"WARROAD 4W","Latitude":"48.89600","Longitude":"-95.40700","Snowdepth":"1.000","Units":"in","Rept_Date":"2020-11-17 04"},"coordinates":[379,7495]},{"type":"Point","properties":{"Station_ID":"WRNM5","Station_Nam":"WORTHINGTON,MN","Latitude":"43.65440","Longitude":"-95.57920","Snowdepth":"1.000","Units":"in","Rept_Date":"2020-11-16 13"},"coordinates":[340,2859]},{"type":"Point","properties":{"Station_ID":"WLDM5","Station_Nam":"WILD RIVER STATE PARK","Latitude":"45.52310","Longitude":"-92.74890","Snowdepth":"1.000","Units":"in","Rept_Date":"2020-11-16 14"},"coordinates":[979,4512]},{"type":"Point","properties":{"Station_ID":"WI-PR-8","Station_Nam":"PHILLIPS 0.4 SSW, WI","Latitude":"45.69086","Longitude":"-90.40200","Snowdepth":"1.000","Units":"in","Rept_Date":"2020-11-16 13"},"coordinates":[1510,4660]},{"type":"Point","properties":{"Station_ID":"WI-ON-6","Station_Nam":"RHINELANDER 5.2 N, WI","Latitude":"45.71388","Longitude":"-89.42150","Snowdepth":"1.000","Units":"in","Rept_Date":"2020-11-16 14"},"coordinates":[1731,4681]},{"type":"Point","properties":{"Station_ID":"WDOM5","Station_Nam":"WINDOM","Latitude":"43.87700","Longitude":"-95.11590","Snowdepth":"1.000","Units":"in","Rept_Date":"2020-11-16 14"},"coordinates":[445,3056]},{"type":"Point","properties":{"Station_ID":"STGW3","Station_Nam":"ST GERMAIN","Latitude":"45.91550","Longitude":"-89.48940","Snowdepth":"1.000","Units":"in","Rept_Date":"2020-11-16 12"},"coordinates":[1716,4859]},{"type":"Point","properties":{"Station_ID":"STC","Station_Nam":"ST. CLOUD REGIONAL AIRPORT","Latitude":"45.54330","Longitude":"-94.05140","Snowdepth":"1.000","Units":"in","Rept_Date":"2020-11-16 12"},"coordinates":[685,4530]},{"type":"Point","properties":{"Station_ID":"SNBI4","Station_Nam":"SANBORN,IA","Latitude":"43.18170","Longitude":"-95.66030","Snowdepth":"1.000","Units":"in","Rept_Date":"2020-11-16 14"},"coordinates":[322,2441]},{"type":"Point","properties":{"Station_ID":"SIBI4","Station_Nam":"SIBLEY","Latitude":"43.40470","Longitude":"-95.74830","Snowdepth":"1.000","Units":"in","Rept_Date":"2020-11-16 13"},"coordinates":[302,2638]},{"type":"Point","properties":{"Station_ID":"SHDI4","Station_Nam":"SHELDON,IA","Latitude":"43.18080","Longitude":"-95.85280","Snowdepth":"1.000","Units":"in","Rept_Date":"2020-11-16 13"},"coordinates":[278,2440]},{"type":"Point","properties":{"Station_ID":"SD-BK-9","Station_Nam":"BRUCE 4.1 NE, SD","Latitude":"44.48479","Longitude":"-96.83750","Snowdepth":"1.000","Units":"in","Rept_Date":"2020-11-16 13"},"coordinates":[56,3594]},{"type":"Point","properties":{"Station_ID":"SD-BK-2","Station_Nam":"ASTORIA 2.2 SSE, SD","Latitude":"44.53093","Longitude":"-96.52270","Snowdepth":"1.000","Units":"in","Rept_Date":"2020-11-16 13"},"coordinates":[127,3635]},{"type":"Point","properties":{"Station_ID":"SCSM5","Station_Nam":"ST CLOUD STATE","Latitude":"45.55100","Longitude":"-94.14950","Snowdepth":"1.000","Units":"in","Rept_Date":"2020-11-16 12"},"coordinates":[663,4537]},{"type":"Point","properties":{"Station_ID":"PRNW3","Station_Nam":"PRENTICE,WI","Latitude":"45.54780","Longitude":"-90.30000","Snowdepth":"1.000","Units":"in","Rept_Date":"2020-11-16 14"},"coordinates":[1533,4534]},{"type":"Point","properties":{"Station_ID":"PIPM5","Station_Nam":"PIPESTONE,MN","Latitude":"44.01390","Longitude":"-96.32580","Snowdepth":"1.000","Units":"in","Rept_Date":"2020-11-16 14"},"coordinates":[171,3177]},{"type":"Point","properties":{"Station_ID":"NYMM5","Station_Nam":"NEW YORK MILLS","Latitude":"46.50920","Longitude":"-95.37990","Snowdepth":"1.000","Units":"in","Rept_Date":"2020-11-16 13"},"coordinates":[385,5384]},{"type":"Point","properties":{"Station_ID":"NY-ER-166","Station_Nam":"BOSTON 2.5 NE, NY","Latitude":"42.65480","Longitude":"-78.70300","Snowdepth":"1.000","Units":"in","Rept_Date":"2020-11-16 12"},"coordinates":[4153,1975]},{"type":"Point","properties":{"Station_ID":"MSP","Station_Nam":"MINNEAPOLIS-ST PAUL INTL AP","Latitude":"44.88310","Longitude":"-93.22890","Snowdepth":"1.000","Units":"in","Rept_Date":"2020-11-16 12"},"coordinates":[871,3946]},{"type":"Point","properties":{"Station_ID":"MQT","Station_Nam":"MARQUETTE, MI","Latitude":"46.53140","Longitude":"-87.54920","Snowdepth":"1.000","Units":"in","Rept_Date":"2020-11-17 06"},"coordinates":[2154,5404]},{"type":"Point","properties":{"Station_ID":"MN-SR-48","Station_Nam":"SAINT AUGUSTA 2.1 S, MN","Latitude":"45.41950","Longitude":"-94.19737","Snowdepth":"1.000","Units":"in","Rept_Date":"2020-11-16 13"},"coordinates":[652,4420]},{"type":"Point","properties":{"Station_ID":"MN-SR-24","Station_Nam":"PAYNESVILLE 1.9 SSW, MN","Latitude":"45.35170","Longitude":"-94.73120","Snowdepth":"1.000","Units":"in","Rept_Date":"2020-11-16 13"},"coordinates":[531,4360]},{"type":"Point","properties":{"Station_ID":"MN-SH-10","Station_Nam":"BIG LAKE 5.6 NNE, MN","Latitude":"45.41409","Longitude":"-93.69190","Snowdepth":"1.000","Units":"in","Rept_Date":"2020-11-16 13"},"coordinates":[766,4416]},{"type":"Point","properties":{"Station_ID":"MN-RV-8","Station_Nam":"BIRD ISLAND 7.2 SSE, MN","Latitude":"44.66542","Longitude":"-94.85440","Snowdepth":"1.000","Units":"in","Rept_Date":"2020-11-16 13"},"coordinates":[504,3754]},{"type":"Point","properties":{"Station_ID":"MN-RK-5","Station_Nam":"HILLS 0.2 NW, MN","Latitude":"43.52960","Longitude":"-96.36146","Snowdepth":"1.000","Units":"in","Rept_Date":"2020-11-16 14"},"coordinates":[163,2749]},{"type":"Point","properties":{"Station_ID":"MN-MS-8","Station_Nam":"NEWFOLDEN 0.2 W, MN","Latitude":"48.35613","Longitude":"-96.33460","Snowdepth":"1.000","Units":"in","Rept_Date":"2020-11-16 14"},"coordinates":[169,7018]},{"type":"Point","properties":{"Station_ID":"MN-IT-17","Station_Nam":"GRAND RAPIDS 6.1 N, MN","Latitude":"47.31165","Longitude":"-93.55036","Snowdepth":"1.000","Units":"in","Rept_Date":"2020-11-16 13"},"coordinates":[798,6094]},{"type":"Point","properties":{"Station_ID":"MN-HN-222","Station_Nam":"MAPLE GROVE 1.2 NE, MN","Latitude":"45.11960","Longitude":"-93.44410","Snowdepth":"1.000","Units":"in","Rept_Date":"2020-11-16 13"},"coordinates":[822,4155]},{"type":"Point","properties":{"Station_ID":"MN-DK-73","Station_Nam":"LAKEVILLE 2.6 NNE, MN","Latitude":"44.71250","Longitude":"-93.23043","Snowdepth":"1.000","Units":"in","Rept_Date":"2020-11-16 13"},"coordinates":[871,3795]},{"type":"Point","properties":{"Station_ID":"MN-CY-20","Station_Nam":"HAWLEY 5.2 WNW, MN","Latitude":"46.91652","Longitude":"-96.41147","Snowdepth":"1.000","Units":"in","Rept_Date":"2020-11-16 15"},"coordinates":[152,5744]},{"type":"Point","properties":{"Station_ID":"MN-CK-18","Station_Nam":"GRAND MARAIS 4.4 WSW, MN","Latitude":"47.74462","Longitude":"-90.43796","Snowdepth":"1.000","Units":"in","Rept_Date":"2020-11-16 13"},"coordinates":[1501,6477]},{"type":"Point","properties":{"Station_ID":"MN-CG-16","Station_Nam":"NORTH BRANCH 1.3 NNW, MN","Latitude":"45.53121","Longitude":"-92.97110","Snowdepth":"1.000","Units":"in","Rept_Date":"2020-11-16 12"},"coordinates":[929,4519]},{"type":"Point","properties":{"Station_ID":"MN-BK-6","Station_Nam":"LAKE PARK 6.0 S, MN","Latitude":"46.79850","Longitude":"-96.12180","Snowdepth":"1.000","Units":"in","Rept_Date":"2020-11-16 13"},"coordinates":[217,5640]},{"type":"Point","properties":{"Station_ID":"MMNV1","Station_Nam":"MT. MANSFIELD","Latitude":"44.52480","Longitude":"-72.81540","Snowdepth":"1.000","Units":"in","Rept_Date":"2020-11-16 21"},"coordinates":[5483,3629]},{"type":"Point","properties":{"Station_ID":"MI-OT-4","Station_Nam":"GAYLORD 1.7 WNW, MI","Latitude":"45.03280","Longitude":"-84.71090","Snowdepth":"1.000","Units":"in","Rept_Date":"2020-11-16 13"},"coordinates":[2795,4078]},{"type":"Point","properties":{"Station_ID":"MI-OT-17","Station_Nam":"GAYLORD 4.1 S, MI","Latitude":"44.96388","Longitude":"-84.68467","Snowdepth":"1.000","Units":"in","Rept_Date":"2020-11-16 12"},"coordinates":[2801,4017]},{"type":"Point","properties":{"Station_ID":"MI-OT-16","Station_Nam":"GAYLORD 2.2 SSE, MI","Latitude":"44.99441","Longitude":"-84.65820","Snowdepth":"1.000","Units":"in","Rept_Date":"2020-11-16 13"},"coordinates":[2807,4044]},{"type":"Point","properties":{"Station_ID":"MI-MQ-19","Station_Nam":"ISHPEMING 7.2 SW, MI","Latitude":"46.40550","Longitude":"-87.75670","Snowdepth":"1.000","Units":"in","Rept_Date":"2020-11-16 11"},"coordinates":[2107,5293]},{"type":"Point","properties":{"Station_ID":"MI-HG-20","Station_Nam":"CALUMET 1.1 SSW, MI","Latitude":"47.23165","Longitude":"-88.45823","Snowdepth":"1.000","Units":"in","Rept_Date":"2020-11-16 11"},"coordinates":[1949,6023]},{"type":"Point","properties":{"Station_ID":"LTMW3","Station_Nam":"LAKE TOMAHAWK 2 SE","Latitude":"45.80750","Longitude":"-89.55830","Snowdepth":"1.000","Units":"in","Rept_Date":"2020-11-16 12"},"coordinates":[1700,4764]},{"type":"Point","properties":{"Station_ID":"LSTM5","Station_Nam":"LESTER PRAIRIE 2S","Latitude":"44.85930","Longitude":"-94.05030","Snowdepth":"1.000","Units":"in","Rept_Date":"2020-11-16 13"},"coordinates":[685,3925]},{"type":"Point","properties":{"Station_ID":"LPLN6","Station_Nam":"LAKE PLACID 2 S","Latitude":"44.30420","Longitude":"-73.98390","Snowdepth":"1.000","Units":"in","Rept_Date":"2020-11-16 13"},"coordinates":[5219,3434]},{"type":"Point","properties":{"Station_ID":"KMSP","Station_Nam":"MINNEAPOLIS-ST PAUL INTERNATIONAL","Latitude":"44.86666","Longitude":"-93.21666","Snowdepth":"1.000","Units":"in","Rept_Date":"2020-11-16 12"},"coordinates":[874,3932]},{"type":"Point","properties":{"Station_ID":"KIMM5","Station_Nam":"KIMBALL 3N","Latitude":"45.35330","Longitude":"-94.30560","Snowdepth":"1.000","Units":"in","Rept_Date":"2020-11-16 12"},"coordinates":[628,4362]},{"type":"Point","properties":{"Station_ID":"GRFN8","Station_Nam":"UNIVERSITY","Latitude":"47.93330","Longitude":"-97.08330","Snowdepth":"1.000","Units":"in","Rept_Date":"2020-11-17 06"},"coordinates":[0,6644]},{"type":"Point","properties":{"Station_ID":"GMSM4","Station_Nam":"GRAND MARAIS 10S","Latitude":"46.50940","Longitude":"-85.96310","Snowdepth":"1.000","Units":"in","Rept_Date":"2020-11-16 12"},"coordinates":[2513,5384]},{"type":"Point","properties":{"Station_ID":"GAYM4","Station_Nam":"GAYLORD","Latitude":"45.03320","Longitude":"-84.71130","Snowdepth":"1.000","Units":"in","Rept_Date":"2020-11-16 13"},"coordinates":[2795,4079]},{"type":"Point","properties":{"Station_ID":"ELKM5","Station_Nam":"ELK RIVER","Latitude":"45.30470","Longitude":"-93.58420","Snowdepth":"1.000","Units":"in","Rept_Date":"2020-11-16 13"},"coordinates":[791,4319]},{"type":"Point","properties":{"Station_ID":"EGRW3","Station_Nam":"EAGLE RIVER-SOUTH","Latitude":"45.91360","Longitude":"-89.24360","Snowdepth":"1.000","Units":"in","Rept_Date":"2020-11-16 13"},"coordinates":[1771,4857]},{"type":"Point","properties":{"Station_ID":"CHES2","Station_Nam":"CHESTER 2N","Latitude":"43.92830","Longitude":"-96.93160","Snowdepth":"1.000","Units":"in","Rept_Date":"2020-11-16 13"},"coordinates":[34,3102]},{"type":"Point","properties":{"Station_ID":"CARM1","Station_Nam":"CARIBOU WFO","Latitude":"46.86810","Longitude":"-68.01250","Snowdepth":"1.000","Units":"in","Rept_Date":"2020-11-17 05"},"coordinates":[6568,5702]},{"type":"Point","properties":{"Station_ID":"CAR","Station_Nam":"CARIBOU, ME","Latitude":"46.86830","Longitude":"-68.01360","Snowdepth":"1.000","Units":"in","Rept_Date":"2020-11-16 12"},"coordinates":[6568,5702]},{"type":"Point","properties":{"Station_ID":"BWNM5","Station_Nam":"BROWNTON WWTP","Latitude":"44.73350","Longitude":"-94.34180","Snowdepth":"1.000","Units":"in","Rept_Date":"2020-11-16 14"},"coordinates":[619,3814]},{"type":"Point","properties":{"Station_ID":"BROS2","Station_Nam":"BROOKINGS,SD","Latitude":"44.31670","Longitude":"-96.76670","Snowdepth":"1.000","Units":"in","Rept_Date":"2020-11-16 14"},"coordinates":[72,3445]},{"type":"Point","properties":{"Station_ID":"BMON6","Station_Nam":"BIG MOOSE 3SE","Latitude":"43.80000","Longitude":"-74.86670","Snowdepth":"1.000","Units":"in","Rept_Date":"2020-11-16 13"},"coordinates":[5020,2988]},{"type":"Point","properties":{"Station_ID":"BKEM5","Station_Nam":"BRECKENRIDGE 4NE","Latitude":"46.30470","Longitude":"-96.52170","Snowdepth":"1.000","Units":"in","Rept_Date":"2020-11-16 13"},"coordinates":[127,5203]},{"type":"Point","properties":{"Station_ID":"BFHW3","Station_Nam":"BAYFIELD FISH HATCHERY","Latitude":"46.78670","Longitude":"-90.86420","Snowdepth":"1.000","Units":"in","Rept_Date":"2020-11-16 14"},"coordinates":[1405,5630]},{"type":"Point","properties":{"Station_ID":"BDIM5","Station_Nam":"BIRD ISLAND 7SSE","Latitude":"44.66490","Longitude":"-94.85460","Snowdepth":"1.000","Units":"in","Rept_Date":"2020-11-16 13"},"coordinates":[504,3753]},{"type":"Point","properties":{"Station_ID":"AVTW3","Station_Nam":"ARBOR VITAE-JOHNSON LAKE","Latitude":"45.89940","Longitude":"-89.72670","Snowdepth":"1.000","Units":"in","Rept_Date":"2020-11-16 12"},"coordinates":[1662,4845]},{"type":"Point","properties":{"Station_ID":"ASXW3","Station_Nam":"ASHLAND,WI","Latitude":"46.55220","Longitude":"-90.91610","Snowdepth":"1.000","Units":"in","Rept_Date":"2020-11-16 14"},"coordinates":[1393,5422]},{"type":"Point","properties":{"Station_ID":"APXM4","Station_Nam":"GAYLORD 9SSW","Latitude":"44.90720","Longitude":"-84.71880","Snowdepth":"1.000","Units":"in","Rept_Date":"2020-11-17 06"},"coordinates":[2794,3967]},{"type":"Point","properties":{"Station_ID":"AGNW3","Station_Nam":"ARGONNE-1.5 NW","Latitude":"45.67360","Longitude":"-88.90380","Snowdepth":"1.000","Units":"in","Rept_Date":"2020-11-16 14"},"coordinates":[1848,4645]}]}},"arcs":[],"transform":{"scale":[0.0044259345934593445,0.0011306530653065305],"translate":[-97.0833,40.4215]}}