{"type":"Topology","objects":{"snowdepth_geo":{"type":"GeometryCollection","name":"snowdepth","crs":{"type":"name","properties":{"name":"urn:ogc:def:crs:OGC:1.3:CRS84"}},"geometries":[{"type":"Point","properties":{"Station_ID":"PRKM4","Station_Nam":"MUNISING EAST","Latitude":"46.42580","Longitude":"-86.62000","Snowdepth":"76.500","Units":"in","Rept_Date":"2021-01-03 06"},"coordinates":[2901,6746]},{"type":"Point","properties":{"Station_ID":"QLB","Station_Nam":"QLB","Latitude":"50.72360","Longitude":"-75.10000","Snowdepth":"22.323","Units":"in","Rept_Date":"2021-01-02 12"},"coordinates":[6049,9383]},{"type":"Point","properties":{"Station_ID":"TRIQ6","Station_Nam":"TRIO LAKE","Latitude":"49.22880","Longitude":"-87.22920","Snowdepth":"22.320","Units":"in","Rept_Date":"2021-01-03 06"},"coordinates":[2735,8466]},{"type":"Point","properties":{"Station_ID":"PTLQ6","Station_Nam":"PORTAGE LAKE","Latitude":"49.06950","Longitude":"-86.65940","Snowdepth":"21.890","Units":"in","Rept_Date":"2021-01-03 06"},"coordinates":[2891,8368]},{"type":"Point","properties":{"Station_ID":"QGO","Station_Nam":"QGO","Latitude":"48.85500","Longitude":"-74.20640","Snowdepth":"21.457","Units":"in","Rept_Date":"2021-01-02 12"},"coordinates":[6293,8237]},{"type":"Point","properties":{"Station_ID":"CAN-ON-245","Station_Nam":"PHELPSTON 3.1 ESE, CAN","Latitude":"44.50564","Longitude":"-79.81035","Snowdepth":"21.000","Units":"in","Rept_Date":"2021-01-02 12"},"coordinates":[4762,5568]},{"type":"Point","properties":{"Station_ID":"AUDQ6","Station_Nam":"AUDEN","Latitude":"48.52600","Longitude":"-82.57570","Snowdepth":"20.550","Units":"in","Rept_Date":"2021-01-03 06"},"coordinates":[4006,8035]},{"type":"Point","properties":{"Station_ID":"QCU","Station_Nam":"QCU","Latitude":"47.82750","Longitude":"-76.59830","Snowdepth":"20.276","Units":"in","Rept_Date":"2021-01-02 12"},"coordinates":[5640,7606]},{"type":"Point","properties":{"Station_ID":"QCO","Station_Nam":"QCO","Latitude":"51.45280","Longitude":"-72.20110","Snowdepth":"20.197","Units":"in","Rept_Date":"2021-01-02 12"},"coordinates":[6841,9831]},{"type":"Point","properties":{"Station_ID":"PDLM4","Station_Nam":"PAINESDALE","Latitude":"47.04160","Longitude":"-88.67170","Snowdepth":"20.000","Units":"in","Rept_Date":"2021-01-02 13"},"coordinates":[2341,7124]},{"type":"Point","properties":{"Station_ID":"DVLQ6","Station_Nam":"DEVIOUS LAKE","Latitude":"49.19890","Longitude":"-87.76440","Snowdepth":"19.840","Units":"in","Rept_Date":"2021-01-03 06"},"coordinates":[2589,8448]},{"type":"Point","properties":{"Station_ID":"QTM","Station_Nam":"QTM","Latitude":"51.05780","Longitude":"-72.57190","Snowdepth":"18.189","Units":"in","Rept_Date":"2021-01-02 12"},"coordinates":[6740,9588]},{"type":"Point","properties":{"Station_ID":"HURW3","Station_Nam":"HURLEY","Latitude":"46.46250","Longitude":"-90.19550","Snowdepth":"18.000","Units":"in","Rept_Date":"2021-01-02 14"},"coordinates":[1924,6769]},{"type":"Point","properties":{"Station_ID":"QOU","Station_Nam":"QOU","Latitude":"50.79250","Longitude":"-69.67470","Snowdepth":"17.677","Units":"in","Rept_Date":"2021-01-02 12"},"coordinates":[7531,9426]},{"type":"Point","properties":{"Station_ID":"HERM4","Station_Nam":"HERMAN,MI","Latitude":"46.65000","Longitude":"-88.33330","Snowdepth":"17.000","Units":"in","Rept_Date":"2021-01-02 13"},"coordinates":[2433,6884]},{"type":"Point","properties":{"Station_ID":"MMNV1","Station_Nam":"MT. MANSFIELD","Latitude":"44.52480","Longitude":"-72.81540","Snowdepth":"16.000","Units":"in","Rept_Date":"2021-01-02 21"},"coordinates":[6673,5580]},{"type":"Point","properties":{"Station_ID":"IWOM4","Station_Nam":"IRONWOOD#2","Latitude":"46.46520","Longitude":"-90.13820","Snowdepth":"16.000","Units":"in","Rept_Date":"2021-01-02 13"},"coordinates":[1940,6770]},{"type":"Point","properties":{"Station_ID":"WLFM5","Station_Nam":"WOLF RIDGE ENVIRON LEARNING CENTER","Latitude":"47.38240","Longitude":"-91.19730","Snowdepth":"15.000","Units":"in","Rept_Date":"2021-01-02 13"},"coordinates":[1651,7333]},{"type":"Point","properties":{"Station_ID":"QNCM4","Station_Nam":"QUINCY HILL","Latitude":"47.13640","Longitude":"-88.57950","Snowdepth":"15.000","Units":"in","Rept_Date":"2021-01-02 13"},"coordinates":[2366,7182]},{"type":"Point","properties":{"Station_ID":"KSGM4","Station_Nam":"KEARSARGE","Latitude":"47.27520","Longitude":"-88.41700","Snowdepth":"15.000","Units":"in","Rept_Date":"2021-01-02 13"},"coordinates":[2410,7267]},{"type":"Point","properties":{"Station_ID":"HLSN3","Station_Nam":"HERMIT LAKE SNOTEL","Latitude":"44.26130","Longitude":"-71.28320","Snowdepth":"14.760","Units":"in","Rept_Date":"2021-01-03 06"},"coordinates":[7092,5418]},{"type":"Point","properties":{"Station_ID":"QLI","Station_Nam":"QLI","Latitude":"50.27080","Longitude":"-73.92280","Snowdepth":"14.173","Units":"in","Rept_Date":"2021-01-02 12"},"coordinates":[6371,9106]},{"type":"Point","properties":{"Station_ID":"QMD","Station_Nam":"QMD","Latitude":"49.29060","Longitude":"-75.84500","Snowdepth":"14.016","Units":"in","Rept_Date":"2021-01-02 12"},"coordinates":[5845,8504]},{"type":"Point","properties":{"Station_ID":"SWTW3","Station_Nam":"SUPERIOR WWTP","Latitude":"46.72700","Longitude":"-92.07200","Snowdepth":"14.000","Units":"in","Rept_Date":"2021-01-03 06"},"coordinates":[1412,6931]},{"type":"Point","properties":{"Station_ID":"CAN-ON-5","Station_Nam":"OWEN SOUND 1.5 NW - GSCA, CAN","Latitude":"44.57837","Longitude":"-80.95461","Snowdepth":"14.000","Units":"in","Rept_Date":"2021-01-02 13"},"coordinates":[4449,5613]},{"type":"Point","properties":{"Station_ID":"BERM4","Station_Nam":"BERGLAND DAM","Latitude":"46.58690","Longitude":"-89.54750","Snowdepth":"14.000","Units":"in","Rept_Date":"2021-01-02 13"},"coordinates":[2101,6845]},{"type":"Point","properties":{"Station_ID":"OGIQ6","Station_Nam":"OGOKI CAMP","Latitude":"50.76680","Longitude":"-87.85820","Snowdepth":"13.780","Units":"in","Rept_Date":"2021-01-03 06"},"coordinates":[2563,9410]},{"type":"Point","properties":{"Station_ID":"WI-BY-29","Station_Nam":"BAYFIELD 5.1 NNW, WI","Latitude":"46.88063","Longitude":"-90.85854","Snowdepth":"13.500","Units":"in","Rept_Date":"2021-01-02 13"},"coordinates":[1743,7025]},{"type":"Point","properties":{"Station_ID":"MI-OG-6","Station_Nam":"WEST BRANCH 2.1 SSW, MI","Latitude":"44.24814","Longitude":"-84.25089","Snowdepth":"13.000","Units":"in","Rept_Date":"2021-01-02 13"},"coordinates":[3549,5410]},{"type":"Point","properties":{"Station_ID":"MI-HG-20","Station_Nam":"CALUMET 1.1 SSW, MI","Latitude":"47.23165","Longitude":"-88.45823","Snowdepth":"13.000","Units":"in","Rept_Date":"2021-01-02 11"},"coordinates":[2399,7241]},{"type":"Point","properties":{"Station_ID":"KABM5","Station_Nam":"KABETOGAMA LAKE VISITOR CTR","Latitude":"48.40880","Longitude":"-93.04840","Snowdepth":"13.000","Units":"in","Rept_Date":"2021-01-02 13"},"coordinates":[1145,7963]},{"type":"Point","properties":{"Station_ID":"BNDM5","Station_Nam":"ELY 25E","Latitude":"47.97190","Longitude":"-91.44860","Snowdepth":"13.000","Units":"in","Rept_Date":"2021-01-02 13"},"coordinates":[1582,7695]},{"type":"Point","properties":{"Station_ID":"MI-BG-3","Station_Nam":"THREE LAKES, MI","Latitude":"46.55730","Longitude":"-88.20770","Snowdepth":"12.800","Units":"in","Rept_Date":"2021-01-02 13"},"coordinates":[2468,6827]},{"type":"Point","properties":{"Station_ID":"KABQ6","Station_Nam":"CAB LAKE","Latitude":"49.59950","Longitude":"-89.17990","Snowdepth":"12.520","Units":"in","Rept_Date":"2021-01-03 06"},"coordinates":[2202,8694]},{"type":"Point","properties":{"Station_ID":"MLZ","Station_Nam":"MLZ","Latitude":"50.66170","Longitude":"-68.82360","Snowdepth":"12.402","Units":"in","Rept_Date":"2021-01-02 12"},"coordinates":[7764,9345]},{"type":"Point","properties":{"Station_ID":"CAN-ON-452","Station_Nam":"CHATSWORTH 1.8 ENE - GSCA, CAN","Latitude":"44.46118","Longitude":"-80.87506","Snowdepth":"12.400","Units":"in","Rept_Date":"2021-01-02 12"},"coordinates":[4471,5541]},{"type":"Point","properties":{"Station_ID":"SOCQ6","Station_Nam":"SOCKET LAKE","Latitude":"50.77870","Longitude":"-91.79300","Snowdepth":"12.170","Units":"in","Rept_Date":"2021-01-03 06"},"coordinates":[1488,9417]},{"type":"Point","properties":{"Station_ID":"WRSM5","Station_Nam":"WRENSHALL","Latitude":"46.61550","Longitude":"-92.38380","Snowdepth":"12.000","Units":"in","Rept_Date":"2021-01-02 14"},"coordinates":[1326,6863]},{"type":"Point","properties":{"Station_ID":"PRDM4","Station_Nam":"PARADISE","Latitude":"46.60380","Longitude":"-85.03960","Snowdepth":"12.000","Units":"in","Rept_Date":"2021-01-02 11"},"coordinates":[3333,6855]},{"type":"Point","properties":{"Station_ID":"MN-SL-108","Station_Nam":"IRON JUNCTION 3.4 NNW, MN","Latitude":"47.46150","Longitude":"-92.63130","Snowdepth":"12.000","Units":"in","Rept_Date":"2021-01-02 13"},"coordinates":[1259,7382]},{"type":"Point","properties":{"Station_ID":"MN-IS-18","Station_Nam":"BRAHAM 0.7 SW, MN","Latitude":"45.71379","Longitude":"-93.18095","Snowdepth":"12.000","Units":"in","Rept_Date":"2021-01-02 14"},"coordinates":[1109,6309]},{"type":"Point","properties":{"Station_ID":"MN-CK-6","Station_Nam":"GRAND MARAIS 4.4 W, MN","Latitude":"47.74865","Longitude":"-90.43760","Snowdepth":"12.000","Units":"in","Rept_Date":"2021-01-02 13"},"coordinates":[1858,7558]},{"type":"Point","properties":{"Station_ID":"LUCW3","Station_Nam":"LUCK","Latitude":"45.57330","Longitude":"-92.48520","Snowdepth":"12.000","Units":"in","Rept_Date":"2021-01-02 17"},"coordinates":[1299,6223]},{"type":"Point","properties":{"Station_ID":"IRMM4","Station_Nam":"WWTP","Latitude":"46.46670","Longitude":"-90.18330","Snowdepth":"12.000","Units":"in","Rept_Date":"2021-01-02 13"},"coordinates":[1928,6771]},{"type":"Point","properties":{"Station_ID":"BLGW3","Station_Nam":"BELGIUM WWTP","Latitude":"43.51310","Longitude":"-87.85440","Snowdepth":"12.000","Units":"in","Rept_Date":"2021-01-02 12"},"coordinates":[2564,4959]},{"type":"Point","properties":{"Station_ID":"CAN-ON-741","Station_Nam":"KIMBERLEY 2.7 WSW, CAN","Latitude":"44.37820","Longitude":"-80.56956","Snowdepth":"11.800","Units":"in","Rept_Date":"2021-01-02 13"},"coordinates":[4555,5490]},{"type":"Point","properties":{"Station_ID":"CAN-ON-451","Station_Nam":"OWEN SOUND 1.2 N - GSCA, CAN","Latitude":"44.58092","Longitude":"-80.93025","Snowdepth":"11.800","Units":"in","Rept_Date":"2021-01-02 13"},"coordinates":[4456,5614]},{"type":"Point","properties":{"Station_ID":"SVBQ6","Station_Nam":"SAVANT BASE","Latitude":"50.28730","Longitude":"-90.65670","Snowdepth":"11.650","Units":"in","Rept_Date":"2021-01-03 06"},"coordinates":[1798,9116]},{"type":"Point","properties":{"Station_ID":"MN-SL-18","Station_Nam":"DULUTH 1.4 NNW, MN","Latitude":"46.80321","Longitude":"-92.11240","Snowdepth":"11.600","Units":"in","Rept_Date":"2021-01-02 14"},"coordinates":[1401,6978]},{"type":"Point","properties":{"Station_ID":"HPN20_MADIS","Station_Nam":"HOPKINS","Latitude":"44.95556","Longitude":"-93.41140","Snowdepth":"11.200","Units":"in","Rept_Date":"2021-01-02 23"},"coordinates":[1046,5844]},{"type":"Point","properties":{"Station_ID":"WI-DG-20","Station_Nam":"SOLON SPRINGS 1.2 W, WI","Latitude":"46.35217","Longitude":"-91.84405","Snowdepth":"11.000","Units":"in","Rept_Date":"2021-01-02 13"},"coordinates":[1474,6701]},{"type":"Point","properties":{"Station_ID":"TOHM5","Station_Nam":"TWO HARBORS WWTP","Latitude":"47.01760","Longitude":"-91.66480","Snowdepth":"11.000","Units":"in","Rept_Date":"2021-01-02 13"},"coordinates":[1523,7109]},{"type":"Point","properties":{"Station_ID":"NYMM5","Station_Nam":"NEW YORK MILLS","Latitude":"46.50920","Longitude":"-95.37990","Snowdepth":"11.000","Units":"in","Rept_Date":"2021-01-02 13"},"coordinates":[508,6797]},{"type":"Point","properties":{"Station_ID":"MONW3","Station_Nam":"MONROE,WI","Latitude":"42.60000","Longitude":"-89.66670","Snowdepth":"11.000","Units":"in","Rept_Date":"2021-01-02 13"},"coordinates":[2069,4399]},{"type":"Point","properties":{"Station_ID":"MN-CV-22","Station_Nam":"VICTORIA 1.6 WSW, MN","Latitude":"44.85670","Longitude":"-93.68640","Snowdepth":"11.000","Units":"in","Rept_Date":"2021-01-02 13"},"coordinates":[971,5783]},{"type":"Point","properties":{"Station_ID":"MIEM4","Station_Nam":"MICHIGAMME 3WNW","Latitude":"46.54530","Longitude":"-88.18000","Snowdepth":"11.000","Units":"in","Rept_Date":"2021-01-02 13"},"coordinates":[2475,6820]},{"type":"Point","properties":{"Station_ID":"MI-HG-1","Station_Nam":"HOUGHTON 1.6 ESE, MI","Latitude":"47.10774","Longitude":"-88.52940","Snowdepth":"11.000","Units":"in","Rept_Date":"2021-01-02 13"},"coordinates":[2380,7165]},{"type":"Point","properties":{"Station_ID":"LEIM5","Station_Nam":"ORR 3E","Latitude":"48.05810","Longitude":"-92.75220","Snowdepth":"11.000","Units":"in","Rept_Date":"2021-01-02 12"},"coordinates":[1226,7748]},{"type":"Point","properties":{"Station_ID":"IL-JD-8","Station_Nam":"STOCKTON 3.4 NNE, IL","Latitude":"42.39960","Longitude":"-89.99020","Snowdepth":"11.000","Units":"in","Rept_Date":"2021-01-02 13"},"coordinates":[1981,4276]},{"type":"Point","properties":{"Station_ID":"IA-JH-20","Station_Nam":"CORALVILLE 1.4 S, IA","Latitude":"41.67016","Longitude":"-91.60296","Snowdepth":"11.000","Units":"in","Rept_Date":"2021-01-02 14"},"coordinates":[1540,3828]},{"type":"Point","properties":{"Station_ID":"HVCN3","Station_Nam":"HARVARD CABIN SNOWPLOT","Latitude":"44.26630","Longitude":"-71.27790","Snowdepth":"11.000","Units":"in","Rept_Date":"2021-01-02 10"},"coordinates":[7093,5421]},{"type":"Point","properties":{"Station_ID":"HGHN6","Station_Nam":"HIGHMARKET","Latitude":"43.60510","Longitude":"-75.55430","Snowdepth":"11.000","Units":"in","Rept_Date":"2021-01-02 11"},"coordinates":[5925,5015]},{"type":"Point","properties":{"Station_ID":"ELYM5","Station_Nam":"ELY","Latitude":"47.90560","Longitude":"-91.82830","Snowdepth":"11.000","Units":"in","Rept_Date":"2021-01-02 14"},"coordinates":[1478,7654]},{"type":"Point","properties":{"Station_ID":"COKM5","Station_Nam":"COOK","Latitude":"47.85060","Longitude":"-92.69250","Snowdepth":"11.000","Units":"in","Rept_Date":"2021-01-02 12"},"coordinates":[1242,7621]},{"type":"Point","properties":{"Station_ID":"CLKM4","Station_Nam":"CLARKSBURG","Latitude":"46.49910","Longitude":"-87.84500","Snowdepth":"11.000","Units":"in","Rept_Date":"2021-01-02 12"},"coordinates":[2567,6791]},{"type":"Point","properties":{"Station_ID":"CAN-ON-804","Station_Nam":"KEMBLE 1.6 S - GSCA, CAN","Latitude":"44.71013","Longitude":"-80.92735","Snowdepth":"11.000","Units":"in","Rept_Date":"2021-01-02 13"},"coordinates":[4457,5694]},{"type":"Point","properties":{"Station_ID":"CAN-MB-56","Station_Nam":"WINNIPEG 7.6 ENE, CAN","Latitude":"49.93264","Longitude":"-97.04752","Snowdepth":"11.000","Units":"in","Rept_Date":"2021-01-02 14"},"coordinates":[52,8898]},{"type":"Point","properties":{"Station_ID":"BBEM4","Station_Nam":"BIG BAY 9SW","Latitude":"46.74620","Longitude":"-87.88160","Snowdepth":"11.000","Units":"in","Rept_Date":"2021-01-02 13"},"coordinates":[2557,6943]},{"type":"Point","properties":{"Station_ID":"BABM5","Station_Nam":"BABBITT","Latitude":"47.71210","Longitude":"-91.95330","Snowdepth":"11.000","Units":"in","Rept_Date":"2021-01-02 13"},"coordinates":[1444,7536]},{"type":"Point","properties":{"Station_ID":"IA-IA-13","Station_Nam":"PARNELL 0.1 SSW, IA","Latitude":"41.58238","Longitude":"-92.00541","Snowdepth":"10.500","Units":"in","Rept_Date":"2021-01-02 13"},"coordinates":[1430,3774]},{"type":"Point","properties":{"Station_ID":"QWE","Station_Nam":"QWE","Latitude":"47.84610","Longitude":"-73.80670","Snowdepth":"10.433","Units":"in","Rept_Date":"2021-01-02 12"},"coordinates":[6402,7618]},{"type":"Point","properties":{"Station_ID":"WTNM4","Station_Nam":"WATTON 2WSW","Latitude":"46.52660","Longitude":"-88.64240","Snowdepth":"10.000","Units":"in","Rept_Date":"2021-01-02 13"},"coordinates":[2349,6808]},{"type":"Point","properties":{"Station_ID":"WTBW3","Station_Nam":"WEST BEND PUBLIC WORKS","Latitude":"43.41110","Longitude":"-88.19380","Snowdepth":"10.000","Units":"in","Rept_Date":"2021-01-02 13"},"coordinates":[2471,4896]},{"type":"Point","properties":{"Station_ID":"WI-WB-2","Station_Nam":"STONE LAKE 2.0 NW, WI","Latitude":"45.85960","Longitude":"-91.57710","Snowdepth":"10.000","Units":"in","Rept_Date":"2021-01-02 13"},"coordinates":[1547,6399]},{"type":"Point","properties":{"Station_ID":"WI-SR-1","Station_Nam":"HAYWARD 9.2 NNE, WI","Latitude":"46.13255","Longitude":"-91.40500","Snowdepth":"10.000","Units":"in","Rept_Date":"2021-01-02 12"},"coordinates":[1594,6566]},{"type":"Point","properties":{"Station_ID":"WI-RK-12","Station_Nam":"JANESVILLE 3.1 W, WI","Latitude":"42.67576","Longitude":"-89.07614","Snowdepth":"10.000","Units":"in","Rept_Date":"2021-01-02 13"},"coordinates":[2230,4445]},{"type":"Point","properties":{"Station_ID":"WI-BY-1","Station_Nam":"BAYFIELD 8.8 N, WI","Latitude":"46.93855","Longitude":"-90.83490","Snowdepth":"10.000","Units":"in","Rept_Date":"2021-01-02 13"},"coordinates":[1750,7061]},{"type":"Point","properties":{"Station_ID":"TOGM5","Station_Nam":"CELINA 2E","Latitude":"47.86630","Longitude":"-93.02660","Snowdepth":"10.000","Units":"in","Rept_Date":"2021-01-02 15"},"coordinates":[1151,7630]},{"type":"Point","properties":{"Station_ID":"ONCW3","Station_Nam":"SOUTH","Latitude":"43.11170","Longitude":"-88.49970","Snowdepth":"10.000","Units":"in","Rept_Date":"2021-01-02 14"},"coordinates":[2388,4713]},{"type":"Point","properties":{"Station_ID":"NGLW3","Station_Nam":"NEW GLARUS","Latitude":"42.83500","Longitude":"-89.62080","Snowdepth":"10.000","Units":"in","Rept_Date":"2021-01-02 13"},"coordinates":[2081,4543]},{"type":"Point","properties":{"Station_ID":"MNSM4","Station_Nam":"MUNISING","Latitude":"46.41210","Longitude":"-86.66250","Snowdepth":"10.000","Units":"in","Rept_Date":"2021-01-02 11"},"coordinates":[2890,6738]},{"type":"Point","properties":{"Station_ID":"MN-SL-115","Station_Nam":"COTTON 5.7 ESE, MN","Latitude":"47.15142","Longitude":"-92.35772","Snowdepth":"10.000","Units":"in","Rept_Date":"2021-01-02 14"},"coordinates":[1334,7191]},{"type":"Point","properties":{"Station_ID":"MN-CW-54","Station_Nam":"AITKIN 9.6 W, MN","Latitude":"46.53711","Longitude":"-93.90688","Snowdepth":"10.000","Units":"in","Rept_Date":"2021-01-02 14"},"coordinates":[910,6815]},{"type":"Point","properties":{"Station_ID":"MN-CN-36","Station_Nam":"CLOQUET 3.4 ENE, MN","Latitude":"46.74146","Longitude":"-92.42698","Snowdepth":"10.000","Units":"in","Rept_Date":"2021-01-02 13"},"coordinates":[1315,6940]},{"type":"Point","properties":{"Station_ID":"MN-CG-16","Station_Nam":"NORTH BRANCH 1.3 NNW, MN","Latitude":"45.53121","Longitude":"-92.97110","Snowdepth":"10.000","Units":"in","Rept_Date":"2021-01-02 12"},"coordinates":[1166,6197]},{"type":"Point","properties":{"Station_ID":"JCBM4","Station_Nam":"JACOBSVILLE","Latitude":"47.00830","Longitude":"-88.43180","Snowdepth":"10.000","Units":"in","Rept_Date":"2021-01-02 12"},"coordinates":[2406,7104]},{"type":"Point","properties":{"Station_ID":"INL","Station_Nam":"FALLS INTERNATIONAL ARPT","Latitude":"48.56640","Longitude":"-93.40310","Snowdepth":"10.000","Units":"in","Rept_Date":"2021-01-03 00"},"coordinates":[1048,8060]},{"type":"Point","properties":{"Station_ID":"IL-SP-27","Station_Nam":"DAVIS 2.7 N, IL","Latitude":"42.46110","Longitude":"-89.40890","Snowdepth":"10.000","Units":"in","Rept_Date":"2021-01-02 13"},"coordinates":[2139,4314]},{"type":"Point","properties":{"Station_ID":"IFSM5","Station_Nam":"INTERNATIONAL FALLS SNOW","Latitude":"48.57780","Longitude":"-93.39640","Snowdepth":"10.000","Units":"in","Rept_Date":"2021-01-02 12"},"coordinates":[1050,8067]},{"type":"Point","properties":{"Station_ID":"HTLN3","Station_Nam":"HERMIT LAKE SNOWPLOT","Latitude":"44.26130","Longitude":"-71.28330","Snowdepth":"10.000","Units":"in","Rept_Date":"2021-01-02 09"},"coordinates":[7092,5418]},{"type":"Point","properties":{"Station_ID":"HTLM4","Station_Nam":"SNOW PAID OBSERVER FOR KHTL","Latitude":"44.34470","Longitude":"-84.67730","Snowdepth":"10.000","Units":"in","Rept_Date":"2021-01-02 18"},"coordinates":[3432,5469]},{"type":"Point","properties":{"Station_ID":"HTL","Station_Nam":"ROSCOMMON COUNTY AIRPORT","Latitude":"44.35000","Longitude":"-84.66670","Snowdepth":"10.000","Units":"in","Rept_Date":"2021-01-03 00"},"coordinates":[3435,5473]},{"type":"Point","properties":{"Station_ID":"CORM1","Station_Nam":"CORINNA","Latitude":"44.91980","Longitude":"-69.24180","Snowdepth":"10.000","Units":"in","Rept_Date":"2021-01-02 18"},"coordinates":[7650,5822]},{"type":"Point","properties":{"Station_ID":"CAN-ON-118","Station_Nam":"DURHAM 1.4 S, CAN","Latitude":"44.16525","Longitude":"-80.82064","Snowdepth":"10.000","Units":"in","Rept_Date":"2021-01-02 12"},"coordinates":[4486,5359]},{"type":"Point","properties":{"Station_ID":"BUTW3","Station_Nam":"BUTTERNUT 3SW","Latitude":"45.98080","Longitude":"-90.54170","Snowdepth":"10.000","Units":"in","Rept_Date":"2021-01-02 12"},"coordinates":[1830,6473]},{"type":"Point","properties":{"Station_ID":"IL-SP-6","Station_Nam":"FREEPORT 2.0 NW, IL","Latitude":"42.30955","Longitude":"-89.66370","Snowdepth":"9.800","Units":"in","Rept_Date":"2021-01-02 13"},"coordinates":[2070,4221]},{"type":"Point","properties":{"Station_ID":"CAN-ON-220","Station_Nam":"DEEP RIVER 1.5 SE - MNRF, CAN","Latitude":"46.09592","Longitude":"-77.47853","Snowdepth":"9.800","Units":"in","Rept_Date":"2021-01-02 14"},"coordinates":[5399,6544]},{"type":"Point","properties":{"Station_ID":"WI-WK-68","Station_Nam":"OCONOMOWOC 1.0 S, WI","Latitude":"43.09530","Longitude":"-88.48590","Snowdepth":"9.500","Units":"in","Rept_Date":"2021-01-02 14"},"coordinates":[2392,4703]},{"type":"Point","properties":{"Station_ID":"WI-WK-29","Station_Nam":"OCONOMOWOC 4.6 NE, WI","Latitude":"43.14621","Longitude":"-88.42860","Snowdepth":"9.500","Units":"in","Rept_Date":"2021-01-02 15"},"coordinates":[2407,4734]},{"type":"Point","properties":{"Station_ID":"WI-LF-6","Station_Nam":"SOUTH WAYNE 3.9 SSW, WI","Latitude":"42.51173","Longitude":"-89.89555","Snowdepth":"9.500","Units":"in","Rept_Date":"2021-01-02 13"},"coordinates":[2006,4345]},{"type":"Point","properties":{"Station_ID":"WI-BY-14","Station_Nam":"ASHLAND 9.8 W, WI","Latitude":"46.59742","Longitude":"-91.07856","Snowdepth":"9.500","Units":"in","Rept_Date":"2021-01-02 13"},"coordinates":[1683,6852]},{"type":"Point","properties":{"Station_ID":"MN-CW-44","Station_Nam":"CROSBY 1.1 SW, MN","Latitude":"46.47772","Longitude":"-93.97293","Snowdepth":"9.500","Units":"in","Rept_Date":"2021-01-02 13"},"coordinates":[892,6778]},{"type":"Point","properties":{"Station_ID":"IL-CR-12","Station_Nam":"MOUNT CARROLL 6.8 NNW, IL","Latitude":"42.18735","Longitude":"-90.02185","Snowdepth":"9.500","Units":"in","Rept_Date":"2021-01-02 13"},"coordinates":[1972,4146]},{"type":"Point","properties":{"Station_ID":"CAN-MB-32","Station_Nam":"PINAWA 1.0 SW, CA","Latitude":"50.14747","Longitude":"-95.89020","Snowdepth":"9.500","Units":"in","Rept_Date":"2021-01-02 13"},"coordinates":[368,9030]},{"type":"Point","properties":{"Station_ID":"CATQ6","Station_Nam":"CAT LAKE","Latitude":"51.72690","Longitude":"-91.82210","Snowdepth":"9.330","Units":"in","Rept_Date":"2021-01-03 06"},"coordinates":[1480,9999]},{"type":"Point","properties":{"Station_ID":"CAN-MB-368","Station_Nam":"WHITESHELL 1.3 NE, CAN","Latitude":"49.74405","Longitude":"-95.19123","Snowdepth":"9.100","Units":"in","Rept_Date":"2021-01-02 14"},"coordinates":[559,8782]},{"type":"Point","properties":{"Station_ID":"WRIM5","Station_Nam":"WRIGHT 3E","Latitude":"46.68040","Longitude":"-92.95420","Snowdepth":"9.000","Units":"in","Rept_Date":"2021-01-02 12"},"coordinates":[1171,6902]},{"type":"Point","properties":{"Station_ID":"WI-WK-73","Station_Nam":"MENOMONEE FALLS 3.2 NNW, WI","Latitude":"43.18817","Longitude":"-88.15555","Snowdepth":"9.000","Units":"in","Rept_Date":"2021-01-02 13"},"coordinates":[2482,4760]},{"type":"Point","properties":{"Station_ID":"WI-WK-42","Station_Nam":"OCONOMOWOC 1.2 W, WI","Latitude":"43.10560","Longitude":"-88.52044","Snowdepth":"9.000","Units":"in","Rept_Date":"2021-01-02 13"},"coordinates":[2382,4709]},{"type":"Point","properties":{"Station_ID":"WI-SB-10","Station_Nam":"RANDOM LAKE 0.5 SSE, WI","Latitude":"43.54812","Longitude":"-87.95050","Snowdepth":"9.000","Units":"in","Rept_Date":"2021-01-02 13"},"coordinates":[2538,4981]},{"type":"Point","properties":{"Station_ID":"WI-OZ-22","Station_Nam":"SAUKVILLE 0.9 SSW, WI","Latitude":"43.37254","Longitude":"-87.95009","Snowdepth":"9.000","Units":"in","Rept_Date":"2021-01-02 13"},"coordinates":[2538,4873]},{"type":"Point","properties":{"Station_ID":"WI-OZ-17","Station_Nam":"WEST BEND 7.3 E, WI","Latitude":"43.42860","Longitude":"-88.03870","Snowdepth":"9.000","Units":"in","Rept_Date":"2021-01-02 13"},"coordinates":[2514,4907]},{"type":"Point","properties":{"Station_ID":"WI-MW-18","Station_Nam":"WEST ALLIS 0.7 SSE, WI","Latitude":"42.99802","Longitude":"-88.02380","Snowdepth":"9.000","Units":"in","Rept_Date":"2021-01-02 14"},"coordinates":[2518,4643]},{"type":"Point","properties":{"Station_ID":"WI-JF-27","Station_Nam":"JEFFERSON 0.9 E, WI","Latitude":"43.00451","Longitude":"-88.79107","Snowdepth":"9.000","Units":"in","Rept_Date":"2021-01-02 16"},"coordinates":[2308,4647]},{"type":"Point","properties":{"Station_ID":"WI-BT-14","Station_Nam":"OAKLAND 9.0 ENE, WI","Latitude":"45.95184","Longitude":"-92.21653","Snowdepth":"9.000","Units":"in","Rept_Date":"2021-01-02 13"},"coordinates":[1372,6455]},{"type":"Point","properties":{"Station_ID":"WHTW3","Station_Nam":"WHITEWATER,WI","Latitude":"42.85670","Longitude":"-88.72940","Snowdepth":"9.000","Units":"in","Rept_Date":"2021-01-02 12"},"coordinates":[2325,4556]},{"type":"Point","properties":{"Station_ID":"UGRW3","Station_Nam":"UNION GROVE,WI","Latitude":"42.70000","Longitude":"-88.03220","Snowdepth":"9.000","Units":"in","Rept_Date":"2021-01-02 13"},"coordinates":[2515,4460]},{"type":"Point","properties":{"Station_ID":"SWHI4","Station_Nam":"SWISHER #2","Latitude":"41.84970","Longitude":"-91.67650","Snowdepth":"9.000","Units":"in","Rept_Date":"2021-01-02 15"},"coordinates":[1520,3938]},{"type":"Point","properties":{"Station_ID":"SSMM4","Station_Nam":"SAULT STE MARIE","Latitude":"46.48660","Longitude":"-84.40250","Snowdepth":"9.000","Units":"in","Rept_Date":"2021-01-02 13"},"coordinates":[3507,6784]},{"type":"Point","properties":{"Station_ID":"RCHW3","Station_Nam":"RICHRIELD,WI","Latitude":"43.21080","Longitude":"-88.20940","Snowdepth":"9.000","Units":"in","Rept_Date":"2021-01-02 12"},"coordinates":[2467,4774]},{"type":"Point","properties":{"Station_ID":"OCOW3","Station_Nam":"OCONOMOWOC,WI","Latitude":"43.10190","Longitude":"-88.50330","Snowdepth":"9.000","Units":"in","Rept_Date":"2021-01-02 13"},"coordinates":[2387,4707]},{"type":"Point","properties":{"Station_ID":"NY-FK-9","Station_Nam":"GABRIELS 1.3 SE, NY","Latitude":"44.41934","Longitude":"-74.16194","Snowdepth":"9.000","Units":"in","Rept_Date":"2021-01-02 12"},"coordinates":[6305,5515]},{"type":"Point","properties":{"Station_ID":"NY-FK-7","Station_Nam":"SARANAC LAKE 6.2 N, NY","Latitude":"44.41359","Longitude":"-74.15211","Snowdepth":"9.000","Units":"in","Rept_Date":"2021-01-02 13"},"coordinates":[6308,5512]},{"type":"Point","properties":{"Station_ID":"MWOW3","Station_Nam":"MUKWONAGO","Latitude":"42.85380","Longitude":"-88.43550","Snowdepth":"9.000","Units":"in","Rept_Date":"2021-01-02 13"},"coordinates":[2405,4554]},{"type":"Point","properties":{"Station_ID":"MSP","Station_Nam":"MINNEAPOLIS-ST PAUL INTL AP","Latitude":"44.88310","Longitude":"-93.22890","Snowdepth":"9.000","Units":"in","Rept_Date":"2021-01-03 00"},"coordinates":[1096,5800]},{"type":"Point","properties":{"Station_ID":"MQT","Station_Nam":"MARQUETTE, MI","Latitude":"46.53140","Longitude":"-87.54920","Snowdepth":"9.000","Units":"in","Rept_Date":"2021-01-03 06"},"coordinates":[2647,6811]},{"type":"Point","properties":{"Station_ID":"MN-IS-21","Station_Nam":"ISANTI 5.0 SW, MN","Latitude":"45.43360","Longitude":"-93.30200","Snowdepth":"9.000","Units":"in","Rept_Date":"2021-01-02 14"},"coordinates":[1076,6137]},{"type":"Point","properties":{"Station_ID":"MN-CW-22","Station_Nam":"FORT RIPLEY 0.8 N, MN","Latitude":"46.18089","Longitude":"-94.36510","Snowdepth":"9.000","Units":"in","Rept_Date":"2021-01-02 13"},"coordinates":[785,6596]},{"type":"Point","properties":{"Station_ID":"MN-BK-6","Station_Nam":"LAKE PARK 6.0 S, MN","Latitude":"46.79850","Longitude":"-96.12180","Snowdepth":"9.000","Units":"in","Rept_Date":"2021-01-02 13"},"coordinates":[305,6975]},{"type":"Point","properties":{"Station_ID":"MKX","Station_Nam":"MILWAUKEE, WI","Latitude":"42.96810","Longitude":"-88.54920","Snowdepth":"9.000","Units":"in","Rept_Date":"2021-01-03 06"},"coordinates":[2374,4625]},{"type":"Point","properties":{"Station_ID":"MKTI4","Station_Nam":"MAQUOKETA","Latitude":"42.07710","Longitude":"-90.66470","Snowdepth":"9.000","Units":"in","Rept_Date":"2021-01-02 13"},"coordinates":[1796,4078]},{"type":"Point","properties":{"Station_ID":"KMSP","Station_Nam":"MINNEAPOLIS-ST PAUL INTERNATIONAL","Latitude":"44.86666","Longitude":"-93.21666","Snowdepth":"9.000","Units":"in","Rept_Date":"2021-01-03 00"},"coordinates":[1099,5790]},{"type":"Point","properties":{"Station_ID":"IA-JH-14","Station_Nam":"SWISHER 0.4 NNE, IA","Latitude":"41.84830","Longitude":"-91.69210","Snowdepth":"9.000","Units":"in","Rept_Date":"2021-01-02 15"},"coordinates":[1515,3937]},{"type":"Point","properties":{"Station_ID":"GIBW3","Station_Nam":"GIBBSVILLE,WI","Latitude":"43.65670","Longitude":"-87.81170","Snowdepth":"9.000","Units":"in","Rept_Date":"2021-01-02 13"},"coordinates":[2576,5047]},{"type":"Point","properties":{"Station_ID":"BROW3","Station_Nam":"BRODHEAD,WI","Latitude":"42.61720","Longitude":"-89.38970","Snowdepth":"9.000","Units":"in","Rept_Date":"2021-01-02 13"},"coordinates":[2145,4409]},{"type":"Point","properties":{"Station_ID":"BFDW3","Station_Nam":"BROOKFIELD","Latitude":"43.05390","Longitude":"-88.17640","Snowdepth":"9.000","Units":"in","Rept_Date":"2021-01-02 15"},"coordinates":[2476,4677]},{"type":"Point","properties":{"Station_ID":"WI-WK-84","Station_Nam":"WAUKESHA 2.5 NW, WI","Latitude":"43.03422","Longitude":"-88.27814","Snowdepth":"8.500","Units":"in","Rept_Date":"2021-01-02 13"},"coordinates":[2448,4665]},{"type":"Point","properties":{"Station_ID":"WI-WK-74","Station_Nam":"BROOKFIELD 2.8 SSW, WI","Latitude":"43.02390","Longitude":"-88.13760","Snowdepth":"8.500","Units":"in","Rept_Date":"2021-01-02 13"},"coordinates":[2487,4659]},{"type":"Point","properties":{"Station_ID":"WI-WB-16","Station_Nam":"SARONA 4.5 NNE, WI","Latitude":"45.77030","Longitude":"-91.76890","Snowdepth":"8.500","Units":"in","Rept_Date":"2021-01-02 13"},"coordinates":[1495,6344]},{"type":"Point","properties":{"Station_ID":"WI-RK-16","Station_Nam":"JANESVILLE 2.7 ENE, WI","Latitude":"42.69228","Longitude":"-88.96319","Snowdepth":"8.500","Units":"in","Rept_Date":"2021-01-02 14"},"coordinates":[2261,4455]},{"type":"Point","properties":{"Station_ID":"WI-RC-33","Station_Nam":"RACINE 5.9 N, WI","Latitude":"42.81268","Longitude":"-87.81460","Snowdepth":"8.500","Units":"in","Rept_Date":"2021-01-02 14"},"coordinates":[2575,4529]},{"type":"Point","properties":{"Station_ID":"WI-MW-14","Station_Nam":"MILWAUKEE 3.6 NNW, WI","Latitude":"43.11300","Longitude":"-87.98730","Snowdepth":"8.500","Units":"in","Rept_Date":"2021-01-02 11"},"coordinates":[2528,4714]},{"type":"Point","properties":{"Station_ID":"WI-JF-24","Station_Nam":"LAC LABELLE 1.2 SW, WI","Latitude":"43.13126","Longitude":"-88.53959","Snowdepth":"8.500","Units":"in","Rept_Date":"2021-01-02 11"},"coordinates":[2377,4725]},{"type":"Point","properties":{"Station_ID":"WI-JF-10","Station_Nam":"PALMYRA 1.5 N, WI","Latitude":"42.90084","Longitude":"-88.58620","Snowdepth":"8.500","Units":"in","Rept_Date":"2021-01-02 13"},"coordinates":[2364,4583]},{"type":"Point","properties":{"Station_ID":"WI-BY-2","Station_Nam":"MELLEN 18.6 SW, WI","Latitude":"46.16937","Longitude":"-90.98090","Snowdepth":"8.500","Units":"in","Rept_Date":"2021-01-02 13"},"coordinates":[1710,6589]},{"type":"Point","properties":{"Station_ID":"MN-IT-1","Station_Nam":"GRAND RAPIDS 2.0 E, MN","Latitude":"47.22266","Longitude":"-93.49600","Snowdepth":"8.500","Units":"in","Rept_Date":"2021-01-02 14"},"coordinates":[1023,7235]},{"type":"Point","properties":{"Station_ID":"MI-OT-17","Station_Nam":"GAYLORD 4.1 S, MI","Latitude":"44.96388","Longitude":"-84.68467","Snowdepth":"8.500","Units":"in","Rept_Date":"2021-01-02 12"},"coordinates":[3430,5849]},{"type":"Point","properties":{"Station_ID":"IL-JD-6","Station_Nam":"HANOVER 0.2 NW, IL","Latitude":"42.25640","Longitude":"-90.28109","Snowdepth":"8.500","Units":"in","Rept_Date":"2021-01-02 13"},"coordinates":[1901,4188]},{"type":"Point","properties":{"Station_ID":"IA-JH-1","Station_Nam":"SOLON 0.3 ESE, IA","Latitude":"41.80398","Longitude":"-91.48910","Snowdepth":"8.500","Units":"in","Rept_Date":"2021-01-02 13"},"coordinates":[1571,3910]},{"type":"Point","properties":{"Station_ID":"CAN-ON-829","Station_Nam":"THORNBURY 0.8 WSW - GSCA, CAN","Latitude":"44.55716","Longitude":"-80.46427","Snowdepth":"8.300","Units":"in","Rept_Date":"2021-01-02 13"},"coordinates":[4583,5600]},{"type":"Point","properties":{"Station_ID":"WI-DA-87","Station_Nam":"DUNKIRK 0.1 NW, WI","Latitude":"42.88356","Longitude":"-89.21056","Snowdepth":"8.200","Units":"in","Rept_Date":"2021-01-02 12"},"coordinates":[2194,4573]},{"type":"Point","properties":{"Station_ID":"WSTW3","Station_Nam":"WEST BEND -FIRE","Latitude":"43.43138","Longitude":"-88.16111","Snowdepth":"8.000","Units":"in","Rept_Date":"2021-01-02 13"},"coordinates":[2480,4909]},{"type":"Point","properties":{"Station_ID":"WI-WW-14","Station_Nam":"DARIEN 1.6 NNE, WI","Latitude":"42.62361","Longitude":"-88.70083","Snowdepth":"8.000","Units":"in","Rept_Date":"2021-01-02 13"},"coordinates":[2333,4413]},{"type":"Point","properties":{"Station_ID":"WI-WS-30","Station_Nam":"HARTFORD 2.9 ENE, WI","Latitude":"43.34256","Longitude":"-88.33687","Snowdepth":"8.000","Units":"in","Rept_Date":"2021-01-02 13"},"coordinates":[2432,4854]},{"type":"Point","properties":{"Station_ID":"WI-WK-61","Station_Nam":"HARTLAND 5.0 NNE, WI","Latitude":"43.16351","Longitude":"-88.30400","Snowdepth":"8.000","Units":"in","Rept_Date":"2021-01-02 13"},"coordinates":[2441,4745]},{"type":"Point","properties":{"Station_ID":"WI-WK-60","Station_Nam":"OCONOMOWOC 2.3 WSW, WI","Latitude":"43.08753","Longitude":"-88.53749","Snowdepth":"8.000","Units":"in","Rept_Date":"2021-01-02 23"},"coordinates":[2377,4698]},{"type":"Point","properties":{"Station_ID":"WI-WK-55","Station_Nam":"HARTLAND 4.4 NNE, WI","Latitude":"43.15341","Longitude":"-88.30146","Snowdepth":"8.000","Units":"in","Rept_Date":"2021-01-02 13"},"coordinates":[2442,4738]},{"type":"Point","properties":{"Station_ID":"WI-WK-20","Station_Nam":"MUKWONAGO 0.5 N, WI","Latitude":"42.87385","Longitude":"-88.33180","Snowdepth":"8.000","Units":"in","Rept_Date":"2021-01-02 13"},"coordinates":[2434,4567]},{"type":"Point","properties":{"Station_ID":"WI-VL-9","Station_Nam":"LAND O' LAKES 11.7 W, WI","Latitude":"46.19023","Longitude":"-89.45790","Snowdepth":"8.000","Units":"in","Rept_Date":"2021-01-02 13"},"coordinates":[2126,6602]},{"type":"Point","properties":{"Station_ID":"WI-PR-6","Station_Nam":"PHILLIPS 1.3 S, WI","Latitude":"45.67677","Longitude":"-90.39543","Snowdepth":"8.000","Units":"in","Rept_Date":"2021-01-02 12"},"coordinates":[1870,6287]},{"type":"Point","properties":{"Station_ID":"WI-PK-4","Station_Nam":"DRESSER 6.1 ESE, WI","Latitude":"45.32436","Longitude":"-92.52080","Snowdepth":"8.000","Units":"in","Rept_Date":"2021-01-02 14"},"coordinates":[1289,6070]},{"type":"Point","properties":{"Station_ID":"WI-PC-5","Station_Nam":"RIVER FALLS 1.2 SSW, WI","Latitude":"44.84032","Longitude":"-92.63500","Snowdepth":"8.000","Units":"in","Rept_Date":"2021-01-02 13"},"coordinates":[1258,5773]},{"type":"Point","properties":{"Station_ID":"WI-MW-43","Station_Nam":"BROWN DEER 0.8 NW, WI","Latitude":"43.18438","Longitude":"-87.98401","Snowdepth":"8.000","Units":"in","Rept_Date":"2021-01-02 13"},"coordinates":[2529,4757]},{"type":"Point","properties":{"Station_ID":"WI-KN-18","Station_Nam":"TWIN LAKES 1.5 NE, WI","Latitude":"42.53541","Longitude":"-88.23863","Snowdepth":"8.000","Units":"in","Rept_Date":"2021-01-02 13"},"coordinates":[2459,4359]},{"type":"Point","properties":{"Station_ID":"WI-JF-22","Station_Nam":"SULLIVAN 2.6 SW, WI","Latitude":"42.98562","Longitude":"-88.62498","Snowdepth":"8.000","Units":"in","Rept_Date":"2021-01-02 15"},"coordinates":[2354,4635]},{"type":"Point","properties":{"Station_ID":"WHTM5","Station_Nam":"WHEATON,MN","Latitude":"45.80000","Longitude":"-96.48330","Snowdepth":"8.000","Units":"in","Rept_Date":"2021-01-02 14"},"coordinates":[206,6362]},{"type":"Point","properties":{"Station_ID":"WBRM4","Station_Nam":"WEST BRANCH 3SE","Latitude":"44.25410","Longitude":"-84.20110","Snowdepth":"8.000","Units":"in","Rept_Date":"2021-01-02 13"},"coordinates":[3562,5414]},{"type":"Point","properties":{"Station_ID":"VT-WS-7","Station_Nam":"MIDDLESEX 3.1 ENE, VT","Latitude":"44.31799","Longitude":"-72.62650","Snowdepth":"8.000","Units":"in","Rept_Date":"2021-01-02 14"},"coordinates":[6725,5453]},{"type":"Point","properties":{"Station_ID":"VT-WS-30","Station_Nam":"WOODBURY 3.4 NNW, VT","Latitude":"44.48825","Longitude":"-72.43258","Snowdepth":"8.000","Units":"in","Rept_Date":"2021-01-02 12"},"coordinates":[6778,5557]},{"type":"Point","properties":{"Station_ID":"SUAW3","Station_Nam":"SUAMICO","Latitude":"44.60190","Longitude":"-88.09780","Snowdepth":"8.000","Units":"in","Rept_Date":"2021-01-02 12"},"coordinates":[2498,5627]},{"type":"Point","properties":{"Station_ID":"SLRW3","Station_Nam":"SLINGER","Latitude":"43.33390","Longitude":"-88.29780","Snowdepth":"8.000","Units":"in","Rept_Date":"2021-01-02 13"},"coordinates":[2443,4849]},{"type":"Point","properties":{"Station_ID":"SGYI4","Station_Nam":"SIGOURNEY","Latitude":"41.33280","Longitude":"-92.19750","Snowdepth":"8.000","Units":"in","Rept_Date":"2021-01-02 14"},"coordinates":[1377,3621]},{"type":"Point","properties":{"Station_ID":"SAVW3","Station_Nam":"SAUKVILLE WWTP","Latitude":"43.37470","Longitude":"-87.93940","Snowdepth":"8.000","Units":"in","Rept_Date":"2021-01-02 12"},"coordinates":[2541,4874]},{"type":"Point","properties":{"Station_ID":"RLWM5","Station_Nam":"CAMP NORRIS DNR","Latitude":"48.61000","Longitude":"-95.18170","Snowdepth":"8.000","Units":"in","Rept_Date":"2021-01-02 15"},"coordinates":[562,8086]},{"type":"Point","properties":{"Station_ID":"RLKW3","Station_Nam":"REST LAKE","Latitude":"46.12220","Longitude":"-89.87720","Snowdepth":"8.000","Units":"in","Rept_Date":"2021-01-02 14"},"coordinates":[2011,6560]},{"type":"Point","properties":{"Station_ID":"QCAI2","Station_Nam":"MOLINE SNOW","Latitude":"41.39990","Longitude":"-90.54800","Snowdepth":"8.000","Units":"in","Rept_Date":"2021-01-03 00"},"coordinates":[1828,3662]},{"type":"Point","properties":{"Station_ID":"PDGM4","Station_Nam":"PAULDING","Latitude":"46.39760","Longitude":"-89.17940","Snowdepth":"8.000","Units":"in","Rept_Date":"2021-01-02 14"},"coordinates":[2202,6729]},{"type":"Point","properties":{"Station_ID":"NY-ES-11","Station_Nam":"VERMONTVILLE 2.8 S, NY","Latitude":"44.41205","Longitude":"-74.06760","Snowdepth":"8.000","Units":"in","Rept_Date":"2021-01-02 12"},"coordinates":[6331,5511]},{"type":"Point","properties":{"Station_ID":"NH-MR-60","Station_Nam":"SOUTH SUTTON 1.3 SE, NH","Latitude":"43.29531","Longitude":"-71.90238","Snowdepth":"8.000","Units":"in","Rept_Date":"2021-01-02 13"},"coordinates":[6923,4825]},{"type":"Point","properties":{"Station_ID":"ND-CS-45","Station_Nam":"FARGO 3.6 NNE, ND","Latitude":"46.92599","Longitude":"-96.79321","Snowdepth":"8.000","Units":"in","Rept_Date":"2021-01-02 13"},"coordinates":[122,7053]},{"type":"Point","properties":{"Station_ID":"MYOM4","Station_Nam":"MIO WWTP","Latitude":"44.64660","Longitude":"-84.11580","Snowdepth":"8.000","Units":"in","Rept_Date":"2021-01-02 13"},"coordinates":[3586,5655]},{"type":"Point","properties":{"Station_ID":"MN-MR-13","Station_Nam":"LITTLE FALLS 8.0 NE, MN","Latitude":"46.06785","Longitude":"-94.24789","Snowdepth":"8.000","Units":"in","Rept_Date":"2021-01-02 13"},"coordinates":[817,6527]},{"type":"Point","properties":{"Station_ID":"MN-IT-23","Station_Nam":"BOVEY 13.4 N, MN","Latitude":"47.48855","Longitude":"-93.43497","Snowdepth":"8.000","Units":"in","Rept_Date":"2021-01-02 13"},"coordinates":[1039,7398]},{"type":"Point","properties":{"Station_ID":"MN-HN-298","Station_Nam":"EXCELSIOR 1.8 W, MN","Latitude":"44.89722","Longitude":"-93.60286","Snowdepth":"8.000","Units":"in","Rept_Date":"2021-01-02 13"},"coordinates":[993,5808]},{"type":"Point","properties":{"Station_ID":"MN-AT-5","Station_Nam":"TAMARACK 1.4 SW, MN","Latitude":"46.63760","Longitude":"-93.14554","Snowdepth":"8.000","Units":"in","Rept_Date":"2021-01-02 13"},"coordinates":[1118,6876]},{"type":"Point","properties":{"Station_ID":"MLI","Station_Nam":"QUAD CITY INTL","Latitude":"41.44860","Longitude":"-90.50750","Snowdepth":"8.000","Units":"in","Rept_Date":"2021-01-03 00"},"coordinates":[1839,3692]},{"type":"Point","properties":{"Station_ID":"MI-OD-3","Station_Nam":"LUZERNE 2.4 NE, MI","Latitude":"44.64140","Longitude":"-84.23830","Snowdepth":"8.000","Units":"in","Rept_Date":"2021-01-02 12"},"coordinates":[3552,5651]},{"type":"Point","properties":{"Station_ID":"MI-MT-8","Station_Nam":"EDMORE 3.8 ESE, MI","Latitude":"43.37974","Longitude":"-84.97319","Snowdepth":"8.000","Units":"in","Rept_Date":"2021-01-02 15"},"coordinates":[3351,4877]},{"type":"Point","properties":{"Station_ID":"MI-AR-2","Station_Nam":"ALGER 2.4 ENE, MI","Latitude":"44.13373","Longitude":"-84.07430","Snowdepth":"8.000","Units":"in","Rept_Date":"2021-01-02 12"},"coordinates":[3597,5340]},{"type":"Point","properties":{"Station_ID":"LVDW3","Station_Nam":"LAC VIEUX DESERT","Latitude":"46.12110","Longitude":"-89.07580","Snowdepth":"8.000","Units":"in","Rept_Date":"2021-01-02 14"},"coordinates":[2230,6559]},{"type":"Point","properties":{"Station_ID":"LNOW3","Station_Nam":"LAND O LAKES","Latitude":"46.19000","Longitude":"-89.45700","Snowdepth":"8.000","Units":"in","Rept_Date":"2021-01-02 13"},"coordinates":[2126,6602]},{"type":"Point","properties":{"Station_ID":"KNXI4","Station_Nam":"KNOXVILLE,IA","Latitude":"41.31670","Longitude":"-93.13330","Snowdepth":"8.000","Units":"in","Rept_Date":"2021-01-02 14"},"coordinates":[1122,3611]},{"type":"Point","properties":{"Station_ID":"KMWN","Station_Nam":"MOUNT WASHINGTON","Latitude":"44.26666","Longitude":"-71.30000","Snowdepth":"8.000","Units":"in","Rept_Date":"2021-01-03 06"},"coordinates":[7087,5421]},{"type":"Point","properties":{"Station_ID":"JFNW3","Station_Nam":"JEFFERSON - WWTP","Latitude":"42.99470","Longitude":"-88.80390","Snowdepth":"8.000","Units":"in","Rept_Date":"2021-01-02 13"},"coordinates":[2305,4641]},{"type":"Point","properties":{"Station_ID":"JACW3","Station_Nam":"JACKSON","Latitude":"43.31940","Longitude":"-88.16810","Snowdepth":"8.000","Units":"in","Rept_Date":"2021-01-02 12"},"coordinates":[2478,4840]},{"type":"Point","properties":{"Station_ID":"ISEM5","Station_Nam":"ISLE 12N","Latitude":"46.31970","Longitude":"-93.50140","Snowdepth":"8.000","Units":"in","Rept_Date":"2021-01-02 14"},"coordinates":[1021,6681]},{"type":"Point","properties":{"Station_ID":"IL-HY-5","Station_Nam":"COAL VALLEY 1.9 SE, IL","Latitude":"41.43339","Longitude":"-90.41750","Snowdepth":"8.000","Units":"in","Rept_Date":"2021-01-02 13"},"coordinates":[1864,3683]},{"type":"Point","properties":{"Station_ID":"ICYI4","Station_Nam":"IOWA CITY","Latitude":"41.60930","Longitude":"-91.50510","Snowdepth":"8.000","Units":"in","Rept_Date":"2021-01-02 13"},"coordinates":[1567,3791]},{"type":"Point","properties":{"Station_ID":"IA-ST-1","Station_Nam":"LE CLAIRE 1.8 NNE, IA","Latitude":"41.62355","Longitude":"-90.35140","Snowdepth":"8.000","Units":"in","Rept_Date":"2021-01-02 16"},"coordinates":[1882,3800]},{"type":"Point","properties":{"Station_ID":"IA-JH-22","Station_Nam":"CORALVILLE 1.3 SE, IA","Latitude":"41.68066","Longitude":"-91.58000","Snowdepth":"8.000","Units":"in","Rept_Date":"2021-01-02 13"},"coordinates":[1546,3835]},{"type":"Point","properties":{"Station_ID":"IA-DV-8","Station_Nam":"BLOOMFIELD 6.5 E, IA","Latitude":"40.73552","Longitude":"-92.29492","Snowdepth":"8.000","Units":"in","Rept_Date":"2021-01-02 13"},"coordinates":[1351,3255]},{"type":"Point","properties":{"Station_ID":"HUBN3","Station_Nam":"HUBBARD BROOK","Latitude":"43.93330","Longitude":"-71.71670","Snowdepth":"8.000","Units":"in","Rept_Date":"2021-01-03 06"},"coordinates":[6973,5217]},{"type":"Point","properties":{"Station_ID":"FORM5","Station_Nam":"FOREST LAKE 5NE","Latitude":"45.33170","Longitude":"-92.89820","Snowdepth":"8.000","Units":"in","Rept_Date":"2021-01-02 13"},"coordinates":[1186,6075]},{"type":"Point","properties":{"Station_ID":"EZBI2","Station_Nam":"ELIZABETH","Latitude":"42.31620","Longitude":"-90.22690","Snowdepth":"8.000","Units":"in","Rept_Date":"2021-01-02 12"},"coordinates":[1916,4225]},{"type":"Point","properties":{"Station_ID":"DLHM5","Station_Nam":"DULUTH NWS","Latitude":"46.83680","Longitude":"-92.21080","Snowdepth":"8.000","Units":"in","Rept_Date":"2021-01-03 06"},"coordinates":[1374,6998]},{"type":"Point","properties":{"Station_ID":"DLH","Station_Nam":"DULUTH, MN","Latitude":"46.83690","Longitude":"-92.21030","Snowdepth":"8.000","Units":"in","Rept_Date":"2021-01-03 00"},"coordinates":[1374,6999]},{"type":"Point","properties":{"Station_ID":"DBQ","Station_Nam":"DUBUQUE REGIONAL AIRPORT","Latitude":"42.40310","Longitude":"-90.70920","Snowdepth":"8.000","Units":"in","Rept_Date":"2021-01-03 00"},"coordinates":[1784,4278]},{"type":"Point","properties":{"Station_ID":"DARW3","Station_Nam":"DARLINGTON","Latitude":"42.67780","Longitude":"-90.11860","Snowdepth":"8.000","Units":"in","Rept_Date":"2021-01-02 13"},"coordinates":[1945,4446]},{"type":"Point","properties":{"Station_ID":"COUW3","Station_Nam":"COUDERAY,WI","Latitude":"45.86670","Longitude":"-91.45000","Snowdepth":"8.000","Units":"in","Rept_Date":"2021-01-02 22"},"coordinates":[1582,6403]},{"type":"Point","properties":{"Station_ID":"CMKW3","Station_Nam":"CLAM LAKE 4W","Latitude":"46.16940","Longitude":"-90.98080","Snowdepth":"8.000","Units":"in","Rept_Date":"2021-01-02 13"},"coordinates":[1710,6589]},{"type":"Point","properties":{"Station_ID":"CLIW3","Station_Nam":"CLINTON,WI","Latitude":"42.60000","Longitude":"-88.88330","Snowdepth":"8.000","Units":"in","Rept_Date":"2021-01-02 16"},"coordinates":[2283,4399]},{"type":"Point","properties":{"Station_ID":"BRAM5","Station_Nam":"BRAINERD","Latitude":"46.34320","Longitude":"-94.20900","Snowdepth":"8.000","Units":"in","Rept_Date":"2021-01-02 13"},"coordinates":[828,6696]},{"type":"Point","properties":{"Station_ID":"BLVI4","Station_Nam":"MISSISSIPPI RIVER","Latitude":"42.26670","Longitude":"-90.41670","Snowdepth":"8.000","Units":"in","Rept_Date":"2021-01-02 12"},"coordinates":[1864,4194]},{"type":"Point","properties":{"Station_ID":"BLTW3","Station_Nam":"BELOIT,WI","Latitude":"42.50000","Longitude":"-89.03330","Snowdepth":"8.000","Units":"in","Rept_Date":"2021-01-02 12"},"coordinates":[2242,4337]},{"type":"Point","properties":{"Station_ID":"BKEM5","Station_Nam":"BRECKENRIDGE 4NE","Latitude":"46.30470","Longitude":"-96.52170","Snowdepth":"8.000","Units":"in","Rept_Date":"2021-01-02 11"},"coordinates":[196,6672]},{"type":"Point","properties":{"Station_ID":"AVLV1","Station_Nam":"AVERILL","Latitude":"45.00570","Longitude":"-71.69030","Snowdepth":"8.000","Units":"in","Rept_Date":"2021-01-02 13"},"coordinates":[6981,5875]},{"type":"Point","properties":{"Station_ID":"ANJM4","Station_Nam":"SNOW PAID OBSERVER FOR KANJ","Latitude":"46.48670","Longitude":"-84.40260","Snowdepth":"8.000","Units":"in","Rept_Date":"2021-01-02 18"},"coordinates":[3507,6784]},{"type":"Point","properties":{"Station_ID":"ANJ","Station_Nam":"SAULT STE MARIE","Latitude":"46.46670","Longitude":"-84.36670","Snowdepth":"8.000","Units":"in","Rept_Date":"2021-01-03 00"},"coordinates":[3517,6771]},{"type":"Point","properties":{"Station_ID":"AFTW3","Station_Nam":"ROCK RIVER","Latitude":"42.61670","Longitude":"-89.06670","Snowdepth":"8.000","Units":"in","Rept_Date":"2021-01-02 13"},"coordinates":[2233,4409]},{"type":"Point","properties":{"Station_ID":"CAN-QC-47","Station_Nam":"SAINTE-FOY 1.8 ENE, CAN","Latitude":"46.76934","Longitude":"-71.27124","Snowdepth":"7.700","Units":"in","Rept_Date":"2021-01-02 12"},"coordinates":[7095,6957]},{"type":"Point","properties":{"Station_ID":"FTHQ6","Station_Nam":"FORT HOPE","Latitude":"51.55820","Longitude":"-87.90510","Snowdepth":"7.680","Units":"in","Rept_Date":"2021-01-03 06"},"coordinates":[2550,9895]},{"type":"Point","properties":{"Station_ID":"MFU","Station_Nam":"MFU","Latitude":"51.52170","Longitude":"-66.91110","Snowdepth":"7.559","Units":"in","Rept_Date":"2021-01-02 12"},"coordinates":[8286,9873]},{"type":"Point","properties":{"Station_ID":"WI-WS-5","Station_Nam":"JACKSON 0.2 WSW, WI","Latitude":"43.32007","Longitude":"-88.16820","Snowdepth":"7.500","Units":"in","Rept_Date":"2021-01-02 12"},"coordinates":[2478,4841]},{"type":"Point","properties":{"Station_ID":"WI-JF-17","Station_Nam":"JOHNSON CREEK 2.7 SSW, WI","Latitude":"43.04559","Longitude":"-88.79925","Snowdepth":"7.500","Units":"in","Rept_Date":"2021-01-02 11"},"coordinates":[2306,4672]},{"type":"Point","properties":{"Station_ID":"WI-DA-99","Station_Nam":"FITCHBURG 1.1 NW, WI","Latitude":"42.99740","Longitude":"-89.44046","Snowdepth":"7.500","Units":"in","Rept_Date":"2021-01-02 13"},"coordinates":[2131,4643]},{"type":"Point","properties":{"Station_ID":"WI-DA-45","Station_Nam":"MADISON 6.1 W, WI","Latitude":"43.06948","Longitude":"-89.50788","Snowdepth":"7.500","Units":"in","Rept_Date":"2021-01-02 13"},"coordinates":[2112,4687]},{"type":"Point","properties":{"Station_ID":"VT-CL-14","Station_Nam":"LYNDONVILLE 1.1 W, VT","Latitude":"44.53582","Longitude":"-72.02867","Snowdepth":"7.500","Units":"in","Rept_Date":"2021-01-02 14"},"coordinates":[6888,5587]},{"type":"Point","properties":{"Station_ID":"NY-HR-18","Station_Nam":"SALISBURY CENTER 1.8 NW, NY","Latitude":"43.16260","Longitude":"-74.80880","Snowdepth":"7.500","Units":"in","Rept_Date":"2021-01-02 12"},"coordinates":[6129,4744]},{"type":"Point","properties":{"Station_ID":"NE-SY-11","Station_Nam":"LA VISTA 2.0 WSW, NE","Latitude":"41.17702","Longitude":"-96.07571","Snowdepth":"7.500","Units":"in","Rept_Date":"2021-01-02 13"},"coordinates":[318,3526]},{"type":"Point","properties":{"Station_ID":"MN-IT-17","Station_Nam":"GRAND RAPIDS 6.1 N, MN","Latitude":"47.31165","Longitude":"-93.55036","Snowdepth":"7.500","Units":"in","Rept_Date":"2021-01-02 13"},"coordinates":[1008,7290]},{"type":"Point","properties":{"Station_ID":"MN-HN-31","Station_Nam":"MAPLE GROVE 1.0 NNE, MN","Latitude":"45.12261","Longitude":"-93.45790","Snowdepth":"7.500","Units":"in","Rept_Date":"2021-01-02 16"},"coordinates":[1033,5947]},{"type":"Point","properties":{"Station_ID":"MN-BM-15","Station_Nam":"BEMIDJI 7.8 ENE, MN","Latitude":"47.52043","Longitude":"-94.72121","Snowdepth":"7.500","Units":"in","Rept_Date":"2021-01-02 13"},"coordinates":[688,7418]},{"type":"Point","properties":{"Station_ID":"IL-SP-26","Station_Nam":"FREEPORT 2.9 WSW, IL","Latitude":"42.26779","Longitude":"-89.68323","Snowdepth":"7.500","Units":"in","Rept_Date":"2021-01-02 14"},"coordinates":[2064,4195]},{"type":"Point","properties":{"Station_ID":"IA-AP-8","Station_Nam":"CENTERVILLE 5.6 NE, IA","Latitude":"40.79636","Longitude":"-92.81251","Snowdepth":"7.500","Units":"in","Rept_Date":"2021-01-02 13"},"coordinates":[1209,3292]},{"type":"Point","properties":{"Station_ID":"CAN-ON-757","Station_Nam":"SAULT STE. MARIE 2.8 ESE - GLFC, CAN","Latitude":"46.50300","Longitude":"-84.30300","Snowdepth":"7.400","Units":"in","Rept_Date":"2021-01-02 13"},"coordinates":[3534,6794]},{"type":"Point","properties":{"Station_ID":"MI-ME-11","Station_Nam":"BIG RAPIDS 5.4 S, MI","Latitude":"43.62630","Longitude":"-85.47600","Snowdepth":"7.300","Units":"in","Rept_Date":"2021-01-02 12"},"coordinates":[3214,5028]},{"type":"Point","properties":{"Station_ID":"MI-MD-10","Station_Nam":"MIDLAND 1.5 NNE, MI","Latitude":"43.64412","Longitude":"-84.21729","Snowdepth":"7.300","Units":"in","Rept_Date":"2021-01-02 11"},"coordinates":[3558,5039]},{"type":"Point","properties":{"Station_ID":"HPN02_MADIS","Station_Nam":"MAPLE GROVE","Latitude":"45.11820","Longitude":"-93.42830","Snowdepth":"7.300","Units":"in","Rept_Date":"2021-01-03 06"},"coordinates":[1041,5944]},{"type":"Point","properties":{"Station_ID":"QCX","Station_Nam":"QCX","Latitude":"51.32830","Longitude":"-70.08060","Snowdepth":"7.244","Units":"in","Rept_Date":"2021-01-02 12"},"coordinates":[7420,9754]},{"type":"Point","properties":{"Station_ID":"CAN-ON-771","Station_Nam":"KENORA 8.7 NNE - CANWARN, CAN","Latitude":"49.84171","Longitude":"-94.44386","Snowdepth":"7.200","Units":"in","Rept_Date":"2021-01-02 13"},"coordinates":[764,8842]},{"type":"Point","properties":{"Station_ID":"WI-RK-6","Station_Nam":"EVANSVILLE 0.4 E, WI","Latitude":"42.77913","Longitude":"-89.29020","Snowdepth":"7.100","Units":"in","Rept_Date":"2021-01-02 12"},"coordinates":[2172,4509]},{"type":"Point","properties":{"Station_ID":"WRUM5","Station_Nam":"WARROAD 4W","Latitude":"48.89600","Longitude":"-95.40700","Snowdepth":"7.000","Units":"in","Rept_Date":"2021-01-03 04"},"coordinates":[500,8262]},{"type":"Point","properties":{"Station_ID":"WNDP1","Station_Nam":"WINDBER COUNTY CLUB","Latitude":"40.28780","Longitude":"-78.77530","Snowdepth":"7.000","Units":"in","Rept_Date":"2021-01-02 12"},"coordinates":[5045,2980]},{"type":"Point","properties":{"Station_ID":"WLNM4","Station_Nam":"WELLSTON 1N","Latitude":"44.22940","Longitude":"-85.95690","Snowdepth":"7.000","Units":"in","Rept_Date":"2021-01-02 12"},"coordinates":[3083,5399]},{"type":"Point","properties":{"Station_ID":"WI-WW-13","Station_Nam":"MUKWONAGO 3.4 SW, WI","Latitude":"42.83734","Longitude":"-88.38534","Snowdepth":"7.000","Units":"in","Rept_Date":"2021-01-02 12"},"coordinates":[2419,4544]},{"type":"Point","properties":{"Station_ID":"WI-WS-27","Station_Nam":"RICHFIELD 2.8 WNW, WI","Latitude":"43.26840","Longitude":"-88.24890","Snowdepth":"7.000","Units":"in","Rept_Date":"2021-01-02 14"},"coordinates":[2456,4809]},{"type":"Point","properties":{"Station_ID":"WI-MW-23","Station_Nam":"GREENDALE 1.0 ENE, WI","Latitude":"42.94094","Longitude":"-87.98230","Snowdepth":"7.000","Units":"in","Rept_Date":"2021-01-02 13"},"coordinates":[2529,4608]},{"type":"Point","properties":{"Station_ID":"WI-AS-4","Station_Nam":"ASHLAND 0.5 WNW, WI","Latitude":"46.58240","Longitude":"-90.88390","Snowdepth":"7.000","Units":"in","Rept_Date":"2021-01-02 13"},"coordinates":[1736,6842]},{"type":"Point","properties":{"Station_ID":"VT-OL-12","Station_Nam":"GREENSBORO 3.9 NNE, VT","Latitude":"44.63100","Longitude":"-72.28000","Snowdepth":"7.000","Units":"in","Rept_Date":"2021-01-02 12"},"coordinates":[6820,5645]},{"type":"Point","properties":{"Station_ID":"VT-OL-1","Station_Nam":"WESTFIELD 0.7 WNW, VT","Latitude":"44.89160","Longitude":"-72.44350","Snowdepth":"7.000","Units":"in","Rept_Date":"2021-01-02 12"},"coordinates":[6775,5805]},{"type":"Point","properties":{"Station_ID":"VT-GI-3","Station_Nam":"ALBURGH 4.6 SSE, VT","Latitude":"44.91280","Longitude":"-73.26890","Snowdepth":"7.000","Units":"in","Rept_Date":"2021-01-02 14"},"coordinates":[6549,5818]},{"type":"Point","properties":{"Station_ID":"VT-CL-27","Station_Nam":"DANVILLE 0.4 N, VT","Latitude":"44.41769","Longitude":"-72.13936","Snowdepth":"7.000","Units":"in","Rept_Date":"2021-01-02 12"},"coordinates":[6858,5514]},{"type":"Point","properties":{"Station_ID":"VNTI4","Station_Nam":"VINTON","Latitude":"42.17020","Longitude":"-92.00770","Snowdepth":"7.000","Units":"in","Rept_Date":"2021-01-02 13"},"coordinates":[1429,4135]},{"type":"Point","properties":{"Station_ID":"TLDI4","Station_Nam":"TOLEDO,IA","Latitude":"41.98330","Longitude":"-92.58330","Snowdepth":"7.000","Units":"in","Rept_Date":"2021-01-02 13"},"coordinates":[1272,4020]},{"type":"Point","properties":{"Station_ID":"SWEI4","Station_Nam":"SWEA CITY,IA","Latitude":"43.38530","Longitude":"-94.25000","Snowdepth":"7.000","Units":"in","Rept_Date":"2021-01-02 12"},"coordinates":[817,4881]},{"type":"Point","properties":{"Station_ID":"STMM4","Station_Nam":"STAMBAUGH 2SSE","Latitude":"46.05550","Longitude":"-88.62780","Snowdepth":"7.000","Units":"in","Rept_Date":"2021-01-02 13"},"coordinates":[2353,6519]},{"type":"Point","properties":{"Station_ID":"STGW3","Station_Nam":"ST GERMAIN","Latitude":"45.91550","Longitude":"-89.48940","Snowdepth":"7.000","Units":"in","Rept_Date":"2021-01-02 12"},"coordinates":[2117,6433]},{"type":"Point","properties":{"Station_ID":"SPRI4","Station_Nam":"SPIRIT LAKE","Latitude":"43.42310","Longitude":"-95.10000","Snowdepth":"7.000","Units":"in","Rept_Date":"2021-01-02 13"},"coordinates":[584,4904]},{"type":"Point","properties":{"Station_ID":"SNYI4","Station_Nam":"STANLEY","Latitude":"42.63330","Longitude":"-91.86320","Snowdepth":"7.000","Units":"in","Rept_Date":"2021-01-02 13"},"coordinates":[1469,4419]},{"type":"Point","properties":{"Station_ID":"SJBV1","Station_Nam":"SAINT JOHNSBURY","Latitude":"44.42000","Longitude":"-72.01940","Snowdepth":"7.000","Units":"in","Rept_Date":"2021-01-02 21"},"coordinates":[6891,5515]},{"type":"Point","properties":{"Station_ID":"SEEW3","Station_Nam":"SOUTH MILWAUKEE WWTP","Latitude":"42.90110","Longitude":"-87.84940","Snowdepth":"7.000","Units":"in","Rept_Date":"2021-01-02 13"},"coordinates":[2565,4583]},{"type":"Point","properties":{"Station_ID":"SEBM5","Station_Nam":"SEBEKA","Latitude":"46.62540","Longitude":"-95.09670","Snowdepth":"7.000","Units":"in","Rept_Date":"2021-01-02 13"},"coordinates":[585,6869]},{"type":"Point","properties":{"Station_ID":"SCOM4","Station_Nam":"SCOTTVILLE 2 SE","Latitude":"43.93310","Longitude":"-86.24530","Snowdepth":"7.000","Units":"in","Rept_Date":"2021-01-02 12"},"coordinates":[3004,5217]},{"type":"Point","properties":{"Station_ID":"ROKI4","Station_Nam":"RED OAK,IA","Latitude":"41.00000","Longitude":"-95.23330","Snowdepth":"7.000","Units":"in","Rept_Date":"2021-01-02 13"},"coordinates":[548,3417]},{"type":"Point","properties":{"Station_ID":"ROCW3","Station_Nam":"ROCHESTER WWTP","Latitude":"42.72690","Longitude":"-88.22580","Snowdepth":"7.000","Units":"in","Rept_Date":"2021-01-02 15"},"coordinates":[2463,4477]},{"type":"Point","properties":{"Station_ID":"ROBW3","Station_Nam":"ROBERTS WWTP","Latitude":"44.97070","Longitude":"-92.56200","Snowdepth":"7.000","Units":"in","Rept_Date":"2021-01-02 14"},"coordinates":[1278,5853]},{"type":"Point","properties":{"Station_ID":"RANI4","Station_Nam":"RANDOLPH,IA","Latitude":"40.86670","Longitude":"-95.56670","Snowdepth":"7.000","Units":"in","Rept_Date":"2021-01-02 14"},"coordinates":[457,3335]},{"type":"Point","properties":{"Station_ID":"PORW3","Station_Nam":"PORTAGE,WI","Latitude":"43.53190","Longitude":"-89.43780","Snowdepth":"7.000","Units":"in","Rept_Date":"2021-01-02 14"},"coordinates":[2131,4971]},{"type":"Point","properties":{"Station_ID":"PBAN8","Station_Nam":"SITE 1-3MI.N","Latitude":"48.97420","Longitude":"-97.23860","Snowdepth":"7.000","Units":"in","Rept_Date":"2021-01-02 14"},"coordinates":[0,8310]},{"type":"Point","properties":{"Station_ID":"OTTM5","Station_Nam":"OTTERTAIL,MN","Latitude":"46.41670","Longitude":"-95.56670","Snowdepth":"7.000","Units":"in","Rept_Date":"2021-01-02 13"},"coordinates":[457,6741]},{"type":"Point","properties":{"Station_ID":"OLNI4","Station_Nam":"OELWEIN 1E","Latitude":"42.68010","Longitude":"-91.87510","Snowdepth":"7.000","Units":"in","Rept_Date":"2021-01-02 12"},"coordinates":[1465,4448]},{"type":"Point","properties":{"Station_ID":"NY-SR-22","Station_Nam":"GREENFIELD CENTER 1.6 W, NY","Latitude":"43.12684","Longitude":"-73.87860","Snowdepth":"7.000","Units":"in","Rept_Date":"2021-01-02 13"},"coordinates":[6383,4722]},{"type":"Point","properties":{"Station_ID":"NY-JF-30","Station_Nam":"WEST CARTHAGE 0.3 ENE, NY","Latitude":"43.97493","Longitude":"-75.61640","Snowdepth":"7.000","Units":"in","Rept_Date":"2021-01-02 12"},"coordinates":[5908,5242]},{"type":"Point","properties":{"Station_ID":"NY-CL-15","Station_Nam":"MORRISONVILLE 1.9 NNW, NY","Latitude":"44.71716","Longitude":"-73.55954","Snowdepth":"7.000","Units":"in","Rept_Date":"2021-01-02 15"},"coordinates":[6470,5698]},{"type":"Point","properties":{"Station_ID":"NY-CL-12","Station_Nam":"SARANAC 0.8 SSE, NY","Latitude":"44.63980","Longitude":"-73.73848","Snowdepth":"7.000","Units":"in","Rept_Date":"2021-01-02 12"},"coordinates":[6421,5650]},{"type":"Point","properties":{"Station_ID":"NUMM5","Station_Nam":"NEW ULM 3SE","Latitude":"44.29450","Longitude":"-94.40840","Snowdepth":"7.000","Units":"in","Rept_Date":"2021-01-02 12"},"coordinates":[773,5438]},{"type":"Point","properties":{"Station_ID":"NCBN6","Station_Nam":"NEWCOMB","Latitude":"43.97070","Longitude":"-74.22200","Snowdepth":"7.000","Units":"in","Rept_Date":"2021-01-02 14"},"coordinates":[6289,5240]},{"type":"Point","properties":{"Station_ID":"MWN","Station_Nam":"MOUNT WASHINGTON","Latitude":"44.26670","Longitude":"-71.30000","Snowdepth":"7.000","Units":"in","Rept_Date":"2021-01-02 12"},"coordinates":[7087,5421]},{"type":"Point","properties":{"Station_ID":"MSN","Station_Nam":"MADISON DANE COUNTY RGNL","Latitude":"43.13970","Longitude":"-89.33750","Snowdepth":"7.000","Units":"in","Rept_Date":"2021-01-03 00"},"coordinates":[2159,4730]},{"type":"Point","properties":{"Station_ID":"MPXM5","Station_Nam":"CHANHASSEN WSFO","Latitude":"44.84960","Longitude":"-93.56440","Snowdepth":"7.000","Units":"in","Rept_Date":"2021-01-03 06"},"coordinates":[1004,5779]},{"type":"Point","properties":{"Station_ID":"MN-TD-12","Station_Nam":"LONG PRAIRIE 2.1 NNE, MN","Latitude":"46.00588","Longitude":"-94.84649","Snowdepth":"7.000","Units":"in","Rept_Date":"2021-01-02 14"},"coordinates":[654,6489]},{"type":"Point","properties":{"Station_ID":"MN-SH-10","Station_Nam":"BIG LAKE 5.6 NNE, MN","Latitude":"45.41409","Longitude":"-93.69190","Snowdepth":"7.000","Units":"in","Rept_Date":"2021-01-02 13"},"coordinates":[969,6125]},{"type":"Point","properties":{"Station_ID":"MN-RM-15","Station_Nam":"ROSEVILLE 2.1 NW, MN","Latitude":"45.03502","Longitude":"-93.18620","Snowdepth":"7.000","Units":"in","Rept_Date":"2021-01-02 12"},"coordinates":[1107,5893]},{"type":"Point","properties":{"Station_ID":"MN-OT-36","Station_Nam":"BATTLE LAKE 3.3 SSE, MN","Latitude":"46.23918","Longitude":"-95.69718","Snowdepth":"7.000","Units":"in","Rept_Date":"2021-01-02 13"},"coordinates":[421,6632]},{"type":"Point","properties":{"Station_ID":"MN-MR-4","Station_Nam":"LITTLE FALLS 1.2 SW, MN","Latitude":"45.96886","Longitude":"-94.37720","Snowdepth":"7.000","Units":"in","Rept_Date":"2021-01-02 13"},"coordinates":[782,6466]},{"type":"Point","properties":{"Station_ID":"MN-KB-17","Station_Nam":"MORA 2.5 S, MN","Latitude":"45.84100","Longitude":"-93.29700","Snowdepth":"7.000","Units":"in","Rept_Date":"2021-01-02 13"},"coordinates":[1077,6387]},{"type":"Point","properties":{"Station_ID":"MN-HN-6","Station_Nam":"LONG LAKE 0.2 WSW, MN","Latitude":"44.98290","Longitude":"-93.57360","Snowdepth":"7.000","Units":"in","Rept_Date":"2021-01-02 13"},"coordinates":[1001,5861]},{"type":"Point","properties":{"Station_ID":"MN-GH-28","Station_Nam":"CANNON FALLS 0.5 SE, MN","Latitude":"44.50866","Longitude":"-92.89526","Snowdepth":"7.000","Units":"in","Rept_Date":"2021-01-02 14"},"coordinates":[1187,5570]},{"type":"Point","properties":{"Station_ID":"MN-DK-73","Station_Nam":"LAKEVILLE 2.6 NNE, MN","Latitude":"44.71250","Longitude":"-93.23043","Snowdepth":"7.000","Units":"in","Rept_Date":"2021-01-02 13"},"coordinates":[1095,5695]},{"type":"Point","properties":{"Station_ID":"MN-BK-10","Station_Nam":"DETROIT LAKES 5.7 N, MN","Latitude":"46.88666","Longitude":"-95.84444","Snowdepth":"7.000","Units":"in","Rept_Date":"2021-01-02 14"},"coordinates":[381,7029]},{"type":"Point","properties":{"Station_ID":"MLCM5","Station_Nam":"MILACA","Latitude":"45.75320","Longitude":"-93.66170","Snowdepth":"7.000","Units":"in","Rept_Date":"2021-01-02 13"},"coordinates":[977,6334]},{"type":"Point","properties":{"Station_ID":"MI-OT-16","Station_Nam":"GAYLORD 2.2 SSE, MI","Latitude":"44.99441","Longitude":"-84.65820","Snowdepth":"7.000","Units":"in","Rept_Date":"2021-01-02 11"},"coordinates":[3437,5868]},{"type":"Point","properties":{"Station_ID":"MI-MQ-19","Station_Nam":"ISHPEMING 7.2 SW, MI","Latitude":"46.40550","Longitude":"-87.75670","Snowdepth":"7.000","Units":"in","Rept_Date":"2021-01-02 11"},"coordinates":[2591,6734]},{"type":"Point","properties":{"Station_ID":"LPLN6","Station_Nam":"LAKE PLACID 2 S","Latitude":"44.30420","Longitude":"-73.98390","Snowdepth":"7.000","Units":"in","Rept_Date":"2021-01-02 13"},"coordinates":[6354,5444]},{"type":"Point","properties":{"Station_ID":"LNGM5","Station_Nam":"LONG PRAIRIE","Latitude":"45.96460","Longitude":"-94.88920","Snowdepth":"7.000","Units":"in","Rept_Date":"2021-01-02 12"},"coordinates":[642,6463]},{"type":"Point","properties":{"Station_ID":"LGRN8","Station_Nam":"LIDGERWOOD,ND","Latitude":"46.06670","Longitude":"-97.16670","Snowdepth":"7.000","Units":"in","Rept_Date":"2021-01-02 13"},"coordinates":[20,6526]},{"type":"Point","properties":{"Station_ID":"LGEW3","Station_Nam":"LAKE GENEVA, WI","Latitude":"42.60000","Longitude":"-88.43440","Snowdepth":"7.000","Units":"in","Rept_Date":"2021-01-02 13"},"coordinates":[2406,4399]},{"type":"Point","properties":{"Station_ID":"KSEM4","Station_Nam":"KALKASKA 11SE","Latitude":"44.58970","Longitude":"-85.04860","Snowdepth":"7.000","Units":"in","Rept_Date":"2021-01-02 13"},"coordinates":[3331,5620]},{"type":"Point","properties":{"Station_ID":"KMSN","Station_Nam":"MADISON DANE COUNTY RGNL","Latitude":"43.13333","Longitude":"-89.35000","Snowdepth":"7.000","Units":"in","Rept_Date":"2021-01-03 00"},"coordinates":[2155,4726]},{"type":"Point","properties":{"Station_ID":"KDSM","Station_Nam":"DES MOINES INTERNATIONAL","Latitude":"41.53333","Longitude":"-93.66666","Snowdepth":"7.000","Units":"in","Rept_Date":"2021-01-03 06"},"coordinates":[976,3744]},{"type":"Point","properties":{"Station_ID":"KBGR","Station_Nam":"BANGOR INTL AIRPORT","Latitude":"44.80000","Longitude":"-68.81666","Snowdepth":"7.000","Units":"in","Rept_Date":"2021-01-03 06"},"coordinates":[7766,5749]},{"type":"Point","properties":{"Station_ID":"JOHV1","Station_Nam":"JOHNSON 2 N","Latitude":"44.65790","Longitude":"-72.67850","Snowdepth":"7.000","Units":"in","Rept_Date":"2021-01-02 12"},"coordinates":[6711,5661]},{"type":"Point","properties":{"Station_ID":"IL-WN-26","Station_Nam":"ROCKFORD 1.5 ENE, IL","Latitude":"42.27775","Longitude":"-89.03590","Snowdepth":"7.000","Units":"in","Rept_Date":"2021-01-02 15"},"coordinates":[2241,4201]},{"type":"Point","properties":{"Station_ID":"IA-WR-5","Station_Nam":"HARTFORD 1.0 E, IA","Latitude":"41.46014","Longitude":"-93.38550","Snowdepth":"7.000","Units":"in","Rept_Date":"2021-01-02 14"},"coordinates":[1053,3699]},{"type":"Point","properties":{"Station_ID":"IA-ST-3","Station_Nam":"PARK VIEW 0.2 WSW, IA","Latitude":"41.68855","Longitude":"-90.54380","Snowdepth":"7.000","Units":"in","Rept_Date":"2021-01-02 13"},"coordinates":[1829,3839]},{"type":"Point","properties":{"Station_ID":"HPN11_MADIS","Station_Nam":"SAINT BONIFACIUS","Latitude":"44.89792","Longitude":"-93.73460","Snowdepth":"7.000","Units":"in","Rept_Date":"2021-01-03 06"},"coordinates":[957,5809]},{"type":"Point","properties":{"Station_ID":"HALM4","Station_Nam":"LOUD DAM","Latitude":"44.46250","Longitude":"-83.72190","Snowdepth":"7.000","Units":"in","Rept_Date":"2021-01-02 14"},"coordinates":[3693,5542]},{"type":"Point","properties":{"Station_ID":"GTTI4","Station_Nam":"LOCK & DAM 10","Latitude":"42.78580","Longitude":"-91.09970","Snowdepth":"7.000","Units":"in","Rept_Date":"2021-01-02 14"},"coordinates":[1677,4513]},{"type":"Point","properties":{"Station_ID":"FEEI2","Station_Nam":"PECATONICA RIVER","Latitude":"42.30000","Longitude":"-89.61670","Snowdepth":"7.000","Units":"in","Rept_Date":"2021-01-02 13"},"coordinates":[2083,4215]},{"type":"Point","properties":{"Station_ID":"DUBI4","Station_Nam":"DUBUQUE #3","Latitude":"42.40870","Longitude":"-90.73250","Snowdepth":"7.000","Units":"in","Rept_Date":"2021-01-02 18"},"coordinates":[1778,4281]},{"type":"Point","properties":{"Station_ID":"DSXI4","Station_Nam":"DES MOINES SNOW","Latitude":"41.54130","Longitude":"-93.65570","Snowdepth":"7.000","Units":"in","Rept_Date":"2021-01-03 06"},"coordinates":[979,3749]},{"type":"Point","properties":{"Station_ID":"DSM","Station_Nam":"DES MOINES INTERNATIONAL","Latitude":"41.53340","Longitude":"-93.66300","Snowdepth":"7.000","Units":"in","Rept_Date":"2021-01-03 00"},"coordinates":[977,3744]},{"type":"Point","properties":{"Station_ID":"DLDI4","Station_Nam":"MISSISSIPPI RIVER","Latitude":"42.51670","Longitude":"-90.65000","Snowdepth":"7.000","Units":"in","Rept_Date":"2021-01-02 12"},"coordinates":[1800,4348]},{"type":"Point","properties":{"Station_ID":"CRNI4","Station_Nam":"CORNING","Latitude":"40.98860","Longitude":"-94.74910","Snowdepth":"7.000","Units":"in","Rept_Date":"2021-01-02 13"},"coordinates":[680,3410]},{"type":"Point","properties":{"Station_ID":"CLUI4","Station_Nam":"CLUTIER,IA","Latitude":"42.08330","Longitude":"-92.40000","Snowdepth":"7.000","Units":"in","Rept_Date":"2021-01-02 13"},"coordinates":[1322,4082]},{"type":"Point","properties":{"Station_ID":"BGRM4","Station_Nam":"WATER WORKS","Latitude":"43.70000","Longitude":"-85.48330","Snowdepth":"7.000","Units":"in","Rept_Date":"2021-01-02 12"},"coordinates":[3212,5074]},{"type":"Point","properties":{"Station_ID":"BGRM1","Station_Nam":"BANGOR FSS","Latitude":"44.80440","Longitude":"-68.81330","Snowdepth":"7.000","Units":"in","Rept_Date":"2021-01-03 06"},"coordinates":[7767,5751]},{"type":"Point","properties":{"Station_ID":"BBDW3","Station_Nam":"BIG BEND","Latitude":"42.88140","Longitude":"-88.20670","Snowdepth":"7.000","Units":"in","Rept_Date":"2021-01-02 13"},"coordinates":[2468,4571]},{"type":"Point","properties":{"Station_ID":"AWXW3","Station_Nam":"ASHLAND","Latitude":"46.58240","Longitude":"-90.88390","Snowdepth":"7.000","Units":"in","Rept_Date":"2021-01-02 13"},"coordinates":[1736,6842]},{"type":"Point","properties":{"Station_ID":"AMOI4","Station_Nam":"ANAMOSA 3 SSW","Latitude":"42.07630","Longitude":"-91.30190","Snowdepth":"7.000","Units":"in","Rept_Date":"2021-01-02 13"},"coordinates":[1622,4077]},{"type":"Point","properties":{"Station_ID":"ALBM4","Station_Nam":"ALBERTA FORD FOR CEN","Latitude":"46.64480","Longitude":"-88.48120","Snowdepth":"7.000","Units":"in","Rept_Date":"2021-01-02 14"},"coordinates":[2393,6881]},{"type":"Point","properties":{"Station_ID":"WI-WS-33","Station_Nam":"ALLENTON 1.4 WSW, WI","Latitude":"43.41683","Longitude":"-88.36900","Snowdepth":"6.800","Units":"in","Rept_Date":"2021-01-02 12"},"coordinates":[2423,4900]},{"type":"Point","properties":{"Station_ID":"WI-MW-68","Station_Nam":"GREENFIELD 0.7 SW, WI","Latitude":"42.95589","Longitude":"-88.01510","Snowdepth":"6.800","Units":"in","Rept_Date":"2021-01-02 13"},"coordinates":[2520,4617]},{"type":"Point","properties":{"Station_ID":"QGA","Station_Nam":"QGA","Latitude":"47.25640","Longitude":"-73.73810","Snowdepth":"6.614","Units":"in","Rept_Date":"2021-01-02 12"},"coordinates":[6421,7256]},{"type":"Point","properties":{"Station_ID":"MI-MD-8","Station_Nam":"MIDLAND 2.9 SW, MI","Latitude":"43.59341","Longitude":"-84.26820","Snowdepth":"6.600","Units":"in","Rept_Date":"2021-01-02 14"},"coordinates":[3544,5008]},{"type":"Point","properties":{"Station_ID":"CAN-ON-491","Station_Nam":"MILVERTON 1.1 ESE- CANWARN, CAN","Latitude":"43.56074","Longitude":"-80.90887","Snowdepth":"6.600","Units":"in","Rept_Date":"2021-01-02 11"},"coordinates":[4462,4988]},{"type":"Point","properties":{"Station_ID":"WI-WW-2","Station_Nam":"LAKE GENEVA 0.6 ENE, WI","Latitude":"42.59169","Longitude":"-88.41770","Snowdepth":"6.500","Units":"in","Rept_Date":"2021-01-02 13"},"coordinates":[2410,4394]},{"type":"Point","properties":{"Station_ID":"WI-IW-3","Station_Nam":"MINERAL POINT 7.3 ENE, WI","Latitude":"42.91400","Longitude":"-90.05700","Snowdepth":"6.500","Units":"in","Rept_Date":"2021-01-02 13"},"coordinates":[1962,4591]},{"type":"Point","properties":{"Station_ID":"WI-DA-13","Station_Nam":"MADISON 3.7 WSW, WI","Latitude":"43.06230","Longitude":"-89.45650","Snowdepth":"6.500","Units":"in","Rept_Date":"2021-01-02 13"},"coordinates":[2126,4682]},{"type":"Point","properties":{"Station_ID":"WI-BR-17","Station_Nam":"CLAYTON 2.9 ENE, WI","Latitude":"45.34073","Longitude":"-92.11158","Snowdepth":"6.500","Units":"in","Rept_Date":"2021-01-02 13"},"coordinates":[1401,6080]},{"type":"Point","properties":{"Station_ID":"VT-ES-1","Station_Nam":"GRANBY 1.4 NW, VT","Latitude":"44.58330","Longitude":"-71.77870","Snowdepth":"6.500","Units":"in","Rept_Date":"2021-01-02 14"},"coordinates":[6956,5616]},{"type":"Point","properties":{"Station_ID":"NY-CR-5","Station_Nam":"MARATHON 1.0 NW, NY","Latitude":"42.45161","Longitude":"-76.04370","Snowdepth":"6.500","Units":"in","Rept_Date":"2021-01-02 12"},"coordinates":[5791,4308]},{"type":"Point","properties":{"Station_ID":"MN-RM-121","Station_Nam":"ROSEVILLE 0.4 ENE, MN","Latitude":"45.01701","Longitude":"-93.14711","Snowdepth":"6.500","Units":"in","Rept_Date":"2021-01-02 14"},"coordinates":[1118,5882]},{"type":"Point","properties":{"Station_ID":"MN-HN-267","Station_Nam":"MINNEAPOLIS 2.5 SE, MN","Latitude":"44.93331","Longitude":"-93.23680","Snowdepth":"6.500","Units":"in","Rept_Date":"2021-01-02 13"},"coordinates":[1093,5830]},{"type":"Point","properties":{"Station_ID":"MI-IC-6","Station_Nam":"NATIONAL CITY 4.5 NNE, MI","Latitude":"44.29330","Longitude":"-83.68410","Snowdepth":"6.500","Units":"in","Rept_Date":"2021-01-02 14"},"coordinates":[3704,5438]},{"type":"Point","properties":{"Station_ID":"MI-CP-14","Station_Nam":"SAULT STE. MARIE 2.2 E, MI","Latitude":"46.48933","Longitude":"-84.31971","Snowdepth":"6.500","Units":"in","Rept_Date":"2021-01-02 14"},"coordinates":[3530,6785]},{"type":"Point","properties":{"Station_ID":"IL-BN-19","Station_Nam":"BELVIDERE 5.0 NNW, IL","Latitude":"42.32071","Longitude":"-88.88282","Snowdepth":"6.500","Units":"in","Rept_Date":"2021-01-02 13"},"coordinates":[2283,4227]},{"type":"Point","properties":{"Station_ID":"IA-PK-73","Station_Nam":"DES MOINES 4.1 N, IA","Latitude":"41.63605","Longitude":"-93.60630","Snowdepth":"6.500","Units":"in","Rept_Date":"2021-01-02 13"},"coordinates":[992,3807]},{"type":"Point","properties":{"Station_ID":"IA-MC-13","Station_Nam":"MUSCATINE 2.1 N, IA","Latitude":"41.44808","Longitude":"-91.07428","Snowdepth":"6.500","Units":"in","Rept_Date":"2021-01-02 13"},"coordinates":[1684,3692]},{"type":"Point","properties":{"Station_ID":"IA-LS-5","Station_Nam":"WAPELLO 5.4 SE, IA","Latitude":"41.11441","Longitude":"-91.13017","Snowdepth":"6.500","Units":"in","Rept_Date":"2021-01-02 13"},"coordinates":[1669,3487]},{"type":"Point","properties":{"Station_ID":"IA-DV-1","Station_Nam":"BLOOMFIELD 9.4 NNE, IA","Latitude":"40.87464","Longitude":"-92.35238","Snowdepth":"6.400","Units":"in","Rept_Date":"2021-01-02 13"},"coordinates":[1335,3340]},{"type":"Point","properties":{"Station_ID":"CAN-ON-526","Station_Nam":"HILTON BEACH 0.7 SW - MNRF, CAN","Latitude":"46.25357","Longitude":"-83.90014","Snowdepth":"6.300","Units":"in","Rept_Date":"2021-01-02 12"},"coordinates":[3645,6641]},{"type":"Point","properties":{"Station_ID":"MO-DV-2","Station_Nam":"JAMESPORT 1.3 ESE, MO","Latitude":"39.96450","Longitude":"-93.78090","Snowdepth":"6.200","Units":"in","Rept_Date":"2021-01-02 13"},"coordinates":[945,2782]},{"type":"Point","properties":{"Station_ID":"QLP","Station_Nam":"QLP","Latitude":"48.13920","Longitude":"-72.63830","Snowdepth":"6.024","Units":"in","Rept_Date":"2021-01-02 12"},"coordinates":[6722,7798]},{"type":"Point","properties":{"Station_ID":"WYON6","Station_Nam":"WYOMING 3W","Latitude":"42.82020","Longitude":"-78.14780","Snowdepth":"6.000","Units":"in","Rept_Date":"2021-01-02 12"},"coordinates":[5216,4534]},{"type":"Point","properties":{"Station_ID":"WTRM4","Station_Nam":"WATERSMEET 12WSW","Latitude":"46.22310","Longitude":"-89.40850","Snowdepth":"6.000","Units":"in","Rept_Date":"2021-01-02 12"},"coordinates":[2139,6622]},{"type":"Point","properties":{"Station_ID":"WSHI4","Station_Nam":"WASHINGTON","Latitude":"41.28240","Longitude":"-91.70780","Snowdepth":"6.000","Units":"in","Rept_Date":"2021-01-02 13"},"coordinates":[1511,3590]},{"type":"Point","properties":{"Station_ID":"WSFW3","Station_Nam":"TOWN OF WESTFORD","Latitude":"43.47190","Longitude":"-88.88250","Snowdepth":"6.000","Units":"in","Rept_Date":"2021-01-02 13"},"coordinates":[2283,4934]},{"type":"Point","properties":{"Station_ID":"WRTS2","Station_Nam":"WATERTOWN,SD","Latitude":"44.90280","Longitude":"-97.11360","Snowdepth":"6.000","Units":"in","Rept_Date":"2021-01-02 15"},"coordinates":[34,5812]},{"type":"Point","properties":{"Station_ID":"WRNM5","Station_Nam":"WORTHINGTON,MN","Latitude":"43.65440","Longitude":"-95.57920","Snowdepth":"6.000","Units":"in","Rept_Date":"2021-01-02 13"},"coordinates":[453,5046]},{"type":"Point","properties":{"Station_ID":"WODI2","Station_Nam":"WOODSTOCK","Latitude":"42.36280","Longitude":"-88.53140","Snowdepth":"6.000","Units":"in","Rept_Date":"2021-01-02 13"},"coordinates":[2379,4253]},{"type":"Point","properties":{"Station_ID":"WI-VL-14","Station_Nam":"BOULDER JUNCTION 1.4 NE, WI","Latitude":"46.12840","Longitude":"-89.62470","Snowdepth":"6.000","Units":"in","Rept_Date":"2021-01-02 13"},"coordinates":[2080,6564]},{"type":"Point","properties":{"Station_ID":"WI-RS-1","Station_Nam":"LADYSMITH 2.8 WNW, WI","Latitude":"45.48180","Longitude":"-91.14680","Snowdepth":"6.000","Units":"in","Rept_Date":"2021-01-02 13"},"coordinates":[1664,6167]},{"type":"Point","properties":{"Station_ID":"WI-RC-3","Station_Nam":"RACINE 2.3 WSW, WI","Latitude":"42.71124","Longitude":"-87.84570","Snowdepth":"6.000","Units":"in","Rept_Date":"2021-01-02 13"},"coordinates":[2566,4467]},{"type":"Point","properties":{"Station_ID":"WI-PC-10","Station_Nam":"RIVER FALLS 1.4 S, WI","Latitude":"44.83580","Longitude":"-92.62100","Snowdepth":"6.000","Units":"in","Rept_Date":"2021-01-02 13"},"coordinates":[1262,5771]},{"type":"Point","properties":{"Station_ID":"WI-MW-46","Station_Nam":"WAUWATOSA 1.9 E, WI","Latitude":"43.05863","Longitude":"-87.99600","Snowdepth":"6.000","Units":"in","Rept_Date":"2021-01-02 13"},"coordinates":[2525,4680]},{"type":"Point","properties":{"Station_ID":"WI-JF-2","Station_Nam":"WATERTOWN 1.6 ESE, WI","Latitude":"43.17916","Longitude":"-88.69720","Snowdepth":"6.000","Units":"in","Rept_Date":"2021-01-02 14"},"coordinates":[2334,4754]},{"type":"Point","properties":{"Station_ID":"WI-DD-16","Station_Nam":"BEAVER DAM 2.4 WNW, WI","Latitude":"43.47210","Longitude":"-88.88280","Snowdepth":"6.000","Units":"in","Rept_Date":"2021-01-02 13"},"coordinates":[2283,4934]},{"type":"Point","properties":{"Station_ID":"WI-DA-39","Station_Nam":"MADISON 4.0 W, WI","Latitude":"43.07741","Longitude":"-89.46757","Snowdepth":"6.000","Units":"in","Rept_Date":"2021-01-02 13"},"coordinates":[2123,4692]},{"type":"Point","properties":{"Station_ID":"WI-BR-2","Station_Nam":"CHETEK 2.0 SE, WI","Latitude":"45.29427","Longitude":"-91.62470","Snowdepth":"6.000","Units":"in","Rept_Date":"2021-01-02 13"},"coordinates":[1534,6052]},{"type":"Point","properties":{"Station_ID":"WDOM5","Station_Nam":"WINDOM","Latitude":"43.87700","Longitude":"-95.11590","Snowdepth":"6.000","Units":"in","Rept_Date":"2021-01-02 14"},"coordinates":[580,5182]},{"type":"Point","properties":{"Station_ID":"VT-WS-23","Station_Nam":"CABOT 2.3 E, VT","Latitude":"44.39807","Longitude":"-72.26570","Snowdepth":"6.000","Units":"in","Rept_Date":"2021-01-02 12"},"coordinates":[6823,5502]},{"type":"Point","properties":{"Station_ID":"VT-OL-9","Station_Nam":"GREENSBORO 2.1 NNW, VT","Latitude":"44.60528","Longitude":"-72.30940","Snowdepth":"6.000","Units":"in","Rept_Date":"2021-01-02 12"},"coordinates":[6811,5629]},{"type":"Point","properties":{"Station_ID":"VT-OL-2","Station_Nam":"BARTON 3.0 ENE, VT","Latitude":"44.75863","Longitude":"-72.11680","Snowdepth":"6.000","Units":"in","Rept_Date":"2021-01-02 12"},"coordinates":[6864,5723]},{"type":"Point","properties":{"Station_ID":"VT-OG-10","Station_Nam":"BRAINTREE 2.8 SW, VT","Latitude":"43.93570","Longitude":"-72.74830","Snowdepth":"6.000","Units":"in","Rept_Date":"2021-01-02 14"},"coordinates":[6692,5218]},{"type":"Point","properties":{"Station_ID":"VT-CL-41","Station_Nam":"DANVILLE 4.0 SE, VT","Latitude":"44.36968","Longitude":"-72.08255","Snowdepth":"6.000","Units":"in","Rept_Date":"2021-01-02 16"},"coordinates":[6873,5485]},{"type":"Point","properties":{"Station_ID":"VOLI4","Station_Nam":"VOLGA 1NE","Latitude":"42.81150","Longitude":"-91.52300","Snowdepth":"6.000","Units":"in","Rept_Date":"2021-01-02 12"},"coordinates":[1562,4529]},{"type":"Point","properties":{"Station_ID":"TOPN6","Station_Nam":"TUPPER LAKE SUNMOUNT","Latitude":"44.23070","Longitude":"-74.43820","Snowdepth":"6.000","Units":"in","Rept_Date":"2021-01-02 12"},"coordinates":[6230,5399]},{"type":"Point","properties":{"Station_ID":"STAM4","Station_Nam":"STANDISH 4NE","Latitude":"44.01260","Longitude":"-83.89770","Snowdepth":"6.000","Units":"in","Rept_Date":"2021-01-02 13"},"coordinates":[3645,5266]},{"type":"Point","properties":{"Station_ID":"SPNN1","Station_Nam":"MAHA SCOUT CAMP","Latitude":"41.06390","Longitude":"-96.00690","Snowdepth":"6.000","Units":"in","Rept_Date":"2021-01-02 14"},"coordinates":[337,3456]},{"type":"Point","properties":{"Station_ID":"SHIW3","Station_Nam":"SHIOCTON","Latitude":"44.43890","Longitude":"-88.58390","Snowdepth":"6.000","Units":"in","Rept_Date":"2021-01-02 13"},"coordinates":[2365,5527]},{"type":"Point","properties":{"Station_ID":"SHHW3","Station_Nam":"SHAWANO 2SSW","Latitude":"44.76310","Longitude":"-88.61830","Snowdepth":"6.000","Units":"in","Rept_Date":"2021-01-02 14"},"coordinates":[2355,5726]},{"type":"Point","properties":{"Station_ID":"ROBM1","Station_Nam":"ROBBINSTON","Latitude":"45.08520","Longitude":"-67.12050","Snowdepth":"6.000","Units":"in","Rept_Date":"2021-01-03 05"},"coordinates":[8229,5924]},{"type":"Point","properties":{"Station_ID":"RGNM1","Station_Nam":"RANGELEY 2NW","Latitude":"44.98940","Longitude":"-70.67220","Snowdepth":"6.000","Units":"in","Rept_Date":"2021-01-02 13"},"coordinates":[7259,5865]},{"type":"Point","properties":{"Station_ID":"RDFN6","Station_Nam":"REDFIELD 8N","Latitude":"43.64130","Longitude":"-75.88400","Snowdepth":"6.000","Units":"in","Rept_Date":"2021-01-02 12"},"coordinates":[5835,5038]},{"type":"Point","properties":{"Station_ID":"RCKI2","Station_Nam":"MISSISSIPPI RIVER","Latitude":"41.51670","Longitude":"-90.56670","Snowdepth":"6.000","Units":"in","Rept_Date":"2021-01-03 06"},"coordinates":[1823,3734]},{"type":"Point","properties":{"Station_ID":"PELW3","Station_Nam":"PELLA 3SE","Latitude":"44.73580","Longitude":"-88.73780","Snowdepth":"6.000","Units":"in","Rept_Date":"2021-01-02 11"},"coordinates":[2323,5709]},{"type":"Point","properties":{"Station_ID":"OSGK1","Station_Nam":"OSAGE CITY","Latitude":"38.63610","Longitude":"-95.80300","Snowdepth":"6.000","Units":"in","Rept_Date":"2021-01-02 11"},"coordinates":[392,1966]},{"type":"Point","properties":{"Station_ID":"OILM4","Station_Nam":"OIL CITY 3E","Latitude":"43.61140","Longitude":"-84.52810","Snowdepth":"6.000","Units":"in","Rept_Date":"2021-01-02 12"},"coordinates":[3473,5019]},{"type":"Point","properties":{"Station_ID":"NY-HM-9","Station_Nam":"HOFFMEISTER 2.0 E, NY","Latitude":"43.38695","Longitude":"-74.67723","Snowdepth":"6.000","Units":"in","Rept_Date":"2021-01-02 13"},"coordinates":[6165,4882]},{"type":"Point","properties":{"Station_ID":"NPTV1","Station_Nam":"NEWPORT","Latitude":"44.94900","Longitude":"-72.19120","Snowdepth":"6.000","Units":"in","Rept_Date":"2021-01-02 14"},"coordinates":[6844,5840]},{"type":"Point","properties":{"Station_ID":"NH-MR-4","Station_Nam":"BOW 1.6 NW, NH","Latitude":"43.14994","Longitude":"-71.55650","Snowdepth":"6.000","Units":"in","Rept_Date":"2021-01-02 12"},"coordinates":[7017,4736]},{"type":"Point","properties":{"Station_ID":"NH-CR-46","Station_Nam":"NORTH CONWAY 1.8 SSE, NH","Latitude":"44.02955","Longitude":"-71.11664","Snowdepth":"6.000","Units":"in","Rept_Date":"2021-01-02 14"},"coordinates":[7137,5276]},{"type":"Point","properties":{"Station_ID":"NE-SY-25","Station_Nam":"GRETNA 2.9 NNE, NE","Latitude":"41.17831","Longitude":"-96.21984","Snowdepth":"6.000","Units":"in","Rept_Date":"2021-01-02 14"},"coordinates":[278,3526]},{"type":"Point","properties":{"Station_ID":"NCKN1","Station_Nam":"NICKERSON 3NE","Latitude":"41.56500","Longitude":"-96.44250","Snowdepth":"6.000","Units":"in","Rept_Date":"2021-01-02 13"},"coordinates":[218,3764]},{"type":"Point","properties":{"Station_ID":"MSTI4","Station_Nam":"MUSCATINE 2N","Latitude":"41.47130","Longitude":"-91.04630","Snowdepth":"6.000","Units":"in","Rept_Date":"2021-01-02 13"},"coordinates":[1692,3706]},{"type":"Point","properties":{"Station_ID":"MN-SV-4","Station_Nam":"DONNELLY 2.9 NW, MN","Latitude":"45.71649","Longitude":"-96.06043","Snowdepth":"6.000","Units":"in","Rept_Date":"2021-01-02 14"},"coordinates":[322,6311]},{"type":"Point","properties":{"Station_ID":"MN-SR-48","Station_Nam":"SAINT AUGUSTA 2.1 S, MN","Latitude":"45.41950","Longitude":"-94.19737","Snowdepth":"6.000","Units":"in","Rept_Date":"2021-01-02 13"},"coordinates":[831,6129]},{"type":"Point","properties":{"Station_ID":"MN-SE-2","Station_Nam":"OWATONNA 0.8 E, MN","Latitude":"44.09170","Longitude":"-93.21380","Snowdepth":"6.000","Units":"in","Rept_Date":"2021-01-02 13"},"coordinates":[1100,5314]},{"type":"Point","properties":{"Station_ID":"MN-RM-2","Station_Nam":"NORTH SAINT PAUL 1.0 NNW, MN","Latitude":"45.02629","Longitude":"-93.00790","Snowdepth":"6.000","Units":"in","Rept_Date":"2021-01-02 12"},"coordinates":[1156,5888]},{"type":"Point","properties":{"Station_ID":"MN-MK-11","Station_Nam":"DASSEL 0.4 S, MN","Latitude":"45.07765","Longitude":"-94.31567","Snowdepth":"6.000","Units":"in","Rept_Date":"2021-01-02 13"},"coordinates":[799,5919]},{"type":"Point","properties":{"Station_ID":"MN-HN-272","Station_Nam":"RICHFIELD 1.1 WSW, MN","Latitude":"44.87052","Longitude":"-93.30394","Snowdepth":"6.000","Units":"in","Rept_Date":"2021-01-02 13"},"coordinates":[1075,5792]},{"type":"Point","properties":{"Station_ID":"MN-HN-178","Station_Nam":"MINNEAPOLIS 4.5 SSE, MN","Latitude":"44.90650","Longitude":"-93.21993","Snowdepth":"6.000","Units":"in","Rept_Date":"2021-01-02 13"},"coordinates":[1098,5814]},{"type":"Point","properties":{"Station_ID":"MN-DK-53","Station_Nam":"LAKEVILLE 3.8 ENE, MN","Latitude":"44.70423","Longitude":"-93.18460","Snowdepth":"6.000","Units":"in","Rept_Date":"2021-01-02 14"},"coordinates":[1108,5690]},{"type":"Point","properties":{"Station_ID":"MN-BN-13","Station_Nam":"RICE 3.6 E, MN","Latitude":"45.74769","Longitude":"-94.15996","Snowdepth":"6.000","Units":"in","Rept_Date":"2021-01-02 13"},"coordinates":[841,6330]},{"type":"Point","properties":{"Station_ID":"MMPM7","Station_Nam":"MEMPHIS","Latitude":"40.45750","Longitude":"-92.18220","Snowdepth":"6.000","Units":"in","Rept_Date":"2021-01-02 12"},"coordinates":[1382,3084]},{"type":"Point","properties":{"Station_ID":"MI-OT-4","Station_Nam":"GAYLORD 1.7 WNW, MI","Latitude":"45.03280","Longitude":"-84.71090","Snowdepth":"6.000","Units":"in","Rept_Date":"2021-01-02 13"},"coordinates":[3423,5892]},{"type":"Point","properties":{"Station_ID":"MI-NW-8","Station_Nam":"WHITE CLOUD 7.5 ENE, MI","Latitude":"43.60630","Longitude":"-85.64190","Snowdepth":"6.000","Units":"in","Rept_Date":"2021-01-02 12"},"coordinates":[3169,5016]},{"type":"Point","properties":{"Station_ID":"MI-MQ-28","Station_Nam":"CARLSHEND, MI","Latitude":"46.31638","Longitude":"-87.19944","Snowdepth":"6.000","Units":"in","Rept_Date":"2021-01-02 13"},"coordinates":[2743,6679]},{"type":"Point","properties":{"Station_ID":"MI-MG-13","Station_Nam":"MUSKEGON 3.5 SSE, MI","Latitude":"43.17913","Longitude":"-86.23640","Snowdepth":"6.000","Units":"in","Rept_Date":"2021-01-02 14"},"coordinates":[3006,4754]},{"type":"Point","properties":{"Station_ID":"MI-BN-5","Station_Nam":"BUCHANAN 1.3 WNW, MI","Latitude":"41.83634","Longitude":"-86.38900","Snowdepth":"6.000","Units":"in","Rept_Date":"2021-01-02 12"},"coordinates":[2964,3930]},{"type":"Point","properties":{"Station_ID":"MI-AG-6","Station_Nam":"MUNISING 11.1 SSW, MI","Latitude":"46.27805","Longitude":"-86.75747","Snowdepth":"6.000","Units":"in","Rept_Date":"2021-01-02 12"},"coordinates":[2864,6656]},{"type":"Point","properties":{"Station_ID":"MHRI4","Station_Nam":"MANCHESTER #2","Latitude":"42.47320","Longitude":"-91.45160","Snowdepth":"6.000","Units":"in","Rept_Date":"2021-01-02 13"},"coordinates":[1581,4321]},{"type":"Point","properties":{"Station_ID":"ME-SM-17","Station_Nam":"HARMONY 3.0 SSE, ME","Latitude":"44.93256","Longitude":"-69.56080","Snowdepth":"6.000","Units":"in","Rept_Date":"2021-01-02 16"},"coordinates":[7562,5830]},{"type":"Point","properties":{"Station_ID":"MDLM4","Station_Nam":"MIDLAND,MI","Latitude":"43.61670","Longitude":"-84.21670","Snowdepth":"6.000","Units":"in","Rept_Date":"2021-01-03 05"},"coordinates":[3558,5023]},{"type":"Point","properties":{"Station_ID":"MDDW3","Station_Nam":"MIDDLETON,WI","Latitude":"43.09060","Longitude":"-89.51470","Snowdepth":"6.000","Units":"in","Rept_Date":"2021-01-02 13"},"coordinates":[2110,4700]},{"type":"Point","properties":{"Station_ID":"MAUW3","Station_Nam":"MAUSTON 1SE","Latitude":"43.78990","Longitude":"-90.05970","Snowdepth":"6.000","Units":"in","Rept_Date":"2021-01-02 14"},"coordinates":[1962,5129]},{"type":"Point","properties":{"Station_ID":"LODW3","Station_Nam":"LODI","Latitude":"43.32170","Longitude":"-89.53110","Snowdepth":"6.000","Units":"in","Rept_Date":"2021-01-02 13"},"coordinates":[2106,4842]},{"type":"Point","properties":{"Station_ID":"LBRM5","Station_Nam":"LAKE BRONSON DAM","Latitude":"48.72410","Longitude":"-96.62180","Snowdepth":"6.000","Units":"in","Rept_Date":"2021-01-02 14"},"coordinates":[169,8156]},{"type":"Point","properties":{"Station_ID":"LAFW3","Station_Nam":"LA FARGE","Latitude":"43.57340","Longitude":"-90.63200","Snowdepth":"6.000","Units":"in","Rept_Date":"2021-01-02 13"},"coordinates":[1805,4996]},{"type":"Point","properties":{"Station_ID":"KRFD","Station_Nam":"GREATER ROCKFORD AIRPORT","Latitude":"42.20000","Longitude":"-89.10000","Snowdepth":"6.000","Units":"in","Rept_Date":"2021-01-03 06"},"coordinates":[2224,4153]},{"type":"Point","properties":{"Station_ID":"KGTB","Station_Nam":"FORT DRUM / WHEELER-SACK U. S. ARMY AIRFIELD","Latitude":"44.05000","Longitude":"-75.73333","Snowdepth":"6.000","Units":"in","Rept_Date":"2021-01-03 06"},"coordinates":[5876,5288]},{"type":"Point","properties":{"Station_ID":"KBTV","Station_Nam":"BURLINGTON INTERNATIONAL","Latitude":"44.46666","Longitude":"-73.15000","Snowdepth":"6.000","Units":"in","Rept_Date":"2021-01-03 00"},"coordinates":[6582,5544]},{"type":"Point","properties":{"Station_ID":"ISLV1","Station_Nam":"ISLAND POND","Latitude":"44.81280","Longitude":"-71.89020","Snowdepth":"6.000","Units":"in","Rept_Date":"2021-01-02 14"},"coordinates":[6926,5757]},{"type":"Point","properties":{"Station_ID":"IL-MCH-13","Station_Nam":"BULL VALLEY 2.5 WNW, IL","Latitude":"42.32455","Longitude":"-88.39460","Snowdepth":"6.000","Units":"in","Rept_Date":"2021-01-02 14"},"coordinates":[2416,4230]},{"type":"Point","properties":{"Station_ID":"IA-WR-7","Station_Nam":"INDIANOLA 0.8 SSW, IA","Latitude":"41.35047","Longitude":"-93.57290","Snowdepth":"6.000","Units":"in","Rept_Date":"2021-01-02 13"},"coordinates":[1002,3632]},{"type":"Point","properties":{"Station_ID":"IA-ST-48","Station_Nam":"BETTENDORF 1.6 W, IA","Latitude":"41.56502","Longitude":"-90.50767","Snowdepth":"6.000","Units":"in","Rept_Date":"2021-01-02 13"},"coordinates":[1839,3764]},{"type":"Point","properties":{"Station_ID":"IA-PK-88","Station_Nam":"DES MOINES 5.4 WNW, IA","Latitude":"41.61721","Longitude":"-93.70573","Snowdepth":"6.000","Units":"in","Rept_Date":"2021-01-02 13"},"coordinates":[965,3796]},{"type":"Point","properties":{"Station_ID":"IA-LN-7","Station_Nam":"CENTRAL CITY 6.7 W, IA","Latitude":"42.19830","Longitude":"-91.65430","Snowdepth":"6.000","Units":"in","Rept_Date":"2021-01-02 13"},"coordinates":[1526,4152]},{"type":"Point","properties":{"Station_ID":"GLAM4","Station_Nam":"GLADWIN","Latitude":"43.97580","Longitude":"-84.49080","Snowdepth":"6.000","Units":"in","Rept_Date":"2021-01-02 12"},"coordinates":[3483,5243]},{"type":"Point","properties":{"Station_ID":"GAYM4","Station_Nam":"GAYLORD","Latitude":"45.03320","Longitude":"-84.71130","Snowdepth":"6.000","Units":"in","Rept_Date":"2021-01-02 13"},"coordinates":[3423,5892]},{"type":"Point","properties":{"Station_ID":"FREM4","Station_Nam":"FREMONT,MI","Latitude":"43.45000","Longitude":"-86.03330","Snowdepth":"6.000","Units":"in","Rept_Date":"2021-01-02 12"},"coordinates":[3062,4920]},{"type":"Point","properties":{"Station_ID":"FLAM4","Station_Nam":"FIFE LAKE 2WNW","Latitude":"44.58480","Longitude":"-85.36530","Snowdepth":"6.000","Units":"in","Rept_Date":"2021-01-02 12"},"coordinates":[3244,5617]},{"type":"Point","properties":{"Station_ID":"FCLN1","Station_Nam":"FT CALHOUN 4W","Latitude":"41.44670","Longitude":"-96.09190","Snowdepth":"6.000","Units":"in","Rept_Date":"2021-01-02 13"},"coordinates":[313,3691]},{"type":"Point","properties":{"Station_ID":"EVYI4","Station_Nam":"EVERLY,IA","Latitude":"43.18330","Longitude":"-95.36670","Snowdepth":"6.000","Units":"in","Rept_Date":"2021-01-02 13"},"coordinates":[511,4757]},{"type":"Point","properties":{"Station_ID":"EVRW3","Station_Nam":"EAGLE RIVER-4 E","Latitude":"45.91890","Longitude":"-89.15280","Snowdepth":"6.000","Units":"in","Rept_Date":"2021-01-02 13"},"coordinates":[2209,6435]},{"type":"Point","properties":{"Station_ID":"DTVM4","Station_Nam":"DETOUR VILLAGE","Latitude":"45.99830","Longitude":"-83.90130","Snowdepth":"6.000","Units":"in","Rept_Date":"2021-01-02 13"},"coordinates":[3644,6484]},{"type":"Point","properties":{"Station_ID":"DLNW3","Station_Nam":"WALWORTH COUNTYMETROPOLITAN SEWERAGE DISTRICT (DELEVAN)","Latitude":"42.63440","Longitude":"-88.66280","Snowdepth":"6.000","Units":"in","Rept_Date":"2021-01-02 13"},"coordinates":[2343,4420]},{"type":"Point","properties":{"Station_ID":"CRPI4","Station_Nam":"CEDAR RAPIDS NO 1","Latitude":"42.05000","Longitude":"-91.58810","Snowdepth":"6.000","Units":"in","Rept_Date":"2021-01-02 23"},"coordinates":[1544,4061]},{"type":"Point","properties":{"Station_ID":"COSW3","Station_Nam":"CITY OF SHEBOYGAN WWTP","Latitude":"43.71850","Longitude":"-87.70870","Snowdepth":"6.000","Units":"in","Rept_Date":"2021-01-02 13"},"coordinates":[2604,5085]},{"type":"Point","properties":{"Station_ID":"CLNI4","Station_Nam":"CLINTON NO 1","Latitude":"41.79470","Longitude":"-90.26390","Snowdepth":"6.000","Units":"in","Rept_Date":"2021-01-03 00"},"coordinates":[1906,3905]},{"type":"Point","properties":{"Station_ID":"CLGM5","Station_Nam":"COLLEGEVILLE ST JOHN","Latitude":"45.57940","Longitude":"-94.39200","Snowdepth":"6.000","Units":"in","Rept_Date":"2021-01-03 00"},"coordinates":[778,6227]},{"type":"Point","properties":{"Station_ID":"CHMW3","Station_Nam":"MADISON,WI","Latitude":"43.06030","Longitude":"-89.47810","Snowdepth":"6.000","Units":"in","Rept_Date":"2021-01-02 12"},"coordinates":[2120,4681]},{"type":"Point","properties":{"Station_ID":"BVUW3","Station_Nam":"GREEN BAY-EAST","Latitude":"44.49290","Longitude":"-87.92560","Snowdepth":"6.000","Units":"in","Rept_Date":"2021-01-03 00"},"coordinates":[2545,5560]},{"type":"Point","properties":{"Station_ID":"BTV","Station_Nam":"BURLINGTON, VT","Latitude":"44.47140","Longitude":"-73.15330","Snowdepth":"6.000","Units":"in","Rept_Date":"2021-01-03 01"},"coordinates":[6581,5547]},{"type":"Point","properties":{"Station_ID":"BRVM5","Station_Nam":"BROWNS VALLEY,MN","Latitude":"45.61670","Longitude":"-96.83330","Snowdepth":"6.000","Units":"in","Rept_Date":"2021-01-02 13"},"coordinates":[111,6250]},{"type":"Point","properties":{"Station_ID":"BGTW3","Station_Nam":"SEWAGE DISPOSAL PLANT","Latitude":"42.68330","Longitude":"-88.20000","Snowdepth":"6.000","Units":"in","Rept_Date":"2021-01-02 13"},"coordinates":[2470,4450]},{"type":"Point","properties":{"Station_ID":"AVTW3","Station_Nam":"ARBOR VITAE-JOHNSON LAKE","Latitude":"45.89940","Longitude":"-89.72670","Snowdepth":"6.000","Units":"in","Rept_Date":"2021-01-02 12"},"coordinates":[2053,6423]},{"type":"Point","properties":{"Station_ID":"AUBM4","Station_Nam":"AUBURN 2NE","Latitude":"43.62530","Longitude":"-84.01890","Snowdepth":"6.000","Units":"in","Rept_Date":"2021-01-02 11"},"coordinates":[3612,5028]},{"type":"Point","properties":{"Station_ID":"ATY","Station_Nam":"WATERTOWN MUNICIPAL AIRPORT","Latitude":"44.91420","Longitude":"-97.15440","Snowdepth":"6.000","Units":"in","Rept_Date":"2021-01-02 12"},"coordinates":[23,5819]},{"type":"Point","properties":{"Station_ID":"ALBI4","Station_Nam":"ALBIA,IA","Latitude":"41.06670","Longitude":"-92.78330","Snowdepth":"6.000","Units":"in","Rept_Date":"2021-01-02 13"},"coordinates":[1217,3458]},{"type":"Point","properties":{"Station_ID":"8D3","Station_Nam":"SISSETON MUNICIPAL AP","Latitude":"45.67080","Longitude":"-96.99610","Snowdepth":"6.000","Units":"in","Rept_Date":"2021-01-02 12"},"coordinates":[66,6283]},{"type":"Point","properties":{"Station_ID":"CAN-ON-342","Station_Nam":"LURGAN BEACH 1.4 NNE - LHCC, CAN","Latitude":"44.09777","Longitude":"-81.72765","Snowdepth":"5.900","Units":"in","Rept_Date":"2021-01-02 12"},"coordinates":[4238,5318]},{"type":"Point","properties":{"Station_ID":"CAN-MB-298","Station_Nam":"GARDENTON 4.2 W - SRRCD, CAN","Latitude":"49.09480","Longitude":"-96.75446","Snowdepth":"5.900","Units":"in","Rept_Date":"2021-01-02 14"},"coordinates":[132,8384]},{"type":"Point","properties":{"Station_ID":"WI-WW-12","Station_Nam":"ELKHORN 0.4 ESE, WI","Latitude":"42.66970","Longitude":"-88.53170","Snowdepth":"5.800","Units":"in","Rept_Date":"2021-01-02 11"},"coordinates":[2379,4442]},{"type":"Point","properties":{"Station_ID":"HPN09_MADIS","Station_Nam":"PLYMOUTH","Latitude":"44.98992","Longitude":"-93.47910","Snowdepth":"5.700","Units":"in","Rept_Date":"2021-01-03 06"},"coordinates":[1027,5865]},{"type":"Point","properties":{"Station_ID":"WI-DA-77","Station_Nam":"VERONA 3.9 WSW, WI","Latitude":"42.97286","Longitude":"-89.61041","Snowdepth":"5.600","Units":"in","Rept_Date":"2021-01-02 13"},"coordinates":[2084,4628]},{"type":"Point","properties":{"Station_ID":"IL-CK-288","Station_Nam":"ROSELLE 0.8 N, IL","Latitude":"41.99255","Longitude":"-88.08422","Snowdepth":"5.600","Units":"in","Rept_Date":"2021-01-02 10"},"coordinates":[2501,4026]},{"type":"Point","properties":{"Station_ID":"WI-VR-1","Station_Nam":"HILLSBORO 0.5 WSW, WI","Latitude":"43.65138","Longitude":"-90.34753","Snowdepth":"5.500","Units":"in","Rept_Date":"2021-01-02 14"},"coordinates":[1883,5044]},{"type":"Point","properties":{"Station_ID":"WI-PR-8","Station_Nam":"PHILLIPS 0.4 SSW, WI","Latitude":"45.69086","Longitude":"-90.40200","Snowdepth":"5.500","Units":"in","Rept_Date":"2021-01-02 13"},"coordinates":[1868,6295]},{"type":"Point","properties":{"Station_ID":"WI-DR-5","Station_Nam":"ELLISON BAY 2.2 E, WI","Latitude":"45.25750","Longitude":"-87.02670","Snowdepth":"5.500","Units":"in","Rept_Date":"2021-01-02 13"},"coordinates":[2790,6029]},{"type":"Point","properties":{"Station_ID":"NY-OD-2","Station_Nam":"POINT ROCK 0.6 SE, NY","Latitude":"43.37335","Longitude":"-75.53840","Snowdepth":"5.500","Units":"in","Rept_Date":"2021-01-02 13"},"coordinates":[5929,4873]},