{"type":"Topology","objects":{"snowdepth_geo":{"type":"GeometryCollection","name":"snowdepth","crs":{"type":"name","properties":{"name":"urn:ogc:def:crs:OGC:1.3:CRS84"}},"geometries":[{"type":"Point","properties":{"Station_ID":"PRKM4","Station_Nam":"MUNISING EAST","Latitude":"46.42580","Longitude":"-86.62000","Snowdepth":"76.500","Units":"in","Rept_Date":"2020-12-14 06"},"coordinates":[2482,6596]},{"type":"Point","properties":{"Station_ID":"CAN-NB-50","Station_Nam":"DOYLEVILLE 2.4 WNW, CAN","Latitude":"47.90803","Longitude":"-66.13279","Snowdepth":"22.000","Units":"in","Rept_Date":"2020-12-13 13"},"coordinates":[7297,7548]},{"type":"Point","properties":{"Station_ID":"QOU","Station_Nam":"QOU","Latitude":"50.79250","Longitude":"-69.67470","Snowdepth":"15.472","Units":"in","Rept_Date":"2020-12-13 12"},"coordinates":[6464,9399]},{"type":"Point","properties":{"Station_ID":"QGO","Station_Nam":"QGO","Latitude":"48.85500","Longitude":"-74.20640","Snowdepth":"15.079","Units":"in","Rept_Date":"2020-12-13 12"},"coordinates":[5400,8156]},{"type":"Point","properties":{"Station_ID":"HTLN3","Station_Nam":"HERMIT LAKE SNOWPLOT","Latitude":"44.26130","Longitude":"-71.28330","Snowdepth":"14.000","Units":"in","Rept_Date":"2020-12-13 10"},"coordinates":[6086,5207]},{"type":"Point","properties":{"Station_ID":"MLZ","Station_Nam":"MLZ","Latitude":"50.66170","Longitude":"-68.82360","Snowdepth":"13.740","Units":"in","Rept_Date":"2020-12-13 12"},"coordinates":[6664,9315]},{"type":"Point","properties":{"Station_ID":"QMA","Station_Nam":"QMA","Latitude":"50.10330","Longitude":"-70.47190","Snowdepth":"13.543","Units":"in","Rept_Date":"2020-12-13 12"},"coordinates":[6277,8957]},{"type":"Point","properties":{"Station_ID":"QCO","Station_Nam":"QCO","Latitude":"51.45280","Longitude":"-72.20110","Snowdepth":"13.346","Units":"in","Rept_Date":"2020-12-13 12"},"coordinates":[5871,9823]},{"type":"Point","properties":{"Station_ID":"QMD","Station_Nam":"QMD","Latitude":"49.29060","Longitude":"-75.84500","Snowdepth":"13.031","Units":"in","Rept_Date":"2020-12-13 12"},"coordinates":[5014,8435]},{"type":"Point","properties":{"Station_ID":"APN","Station_Nam":"PHELPS COLLINS FIELD","Latitude":"45.07810","Longitude":"-83.56030","Snowdepth":"13.000","Units":"in","Rept_Date":"2020-12-14 00"},"coordinates":[3201,5731]},{"type":"Point","properties":{"Station_ID":"ALPM4","Station_Nam":"SNOW PAID OBSERVER FOR KAPN","Latitude":"45.03110","Longitude":"-83.55970","Snowdepth":"13.000","Units":"in","Rept_Date":"2020-12-13 18"},"coordinates":[3202,5701]},{"type":"Point","properties":{"Station_ID":"QLB","Station_Nam":"QLB","Latitude":"50.72360","Longitude":"-75.10000","Snowdepth":"11.732","Units":"in","Rept_Date":"2020-12-13 12"},"coordinates":[5190,9355]},{"type":"Point","properties":{"Station_ID":"QLP","Station_Nam":"QLP","Latitude":"48.13920","Longitude":"-72.63830","Snowdepth":"11.102","Units":"in","Rept_Date":"2020-12-13 12"},"coordinates":[5768,7696]},{"type":"Point","properties":{"Station_ID":"ME-AR-18","Station_Nam":"NEW SWEDEN 4.9 NNW, ME","Latitude":"47.01080","Longitude":"-68.14390","Snowdepth":"11.000","Units":"in","Rept_Date":"2020-12-13 12"},"coordinates":[6824,6972]},{"type":"Point","properties":{"Station_ID":"CARM1","Station_Nam":"CARIBOU WFO","Latitude":"46.86810","Longitude":"-68.01250","Snowdepth":"11.000","Units":"in","Rept_Date":"2020-12-14 05"},"coordinates":[6855,6880]},{"type":"Point","properties":{"Station_ID":"CAR","Station_Nam":"CARIBOU, ME","Latitude":"46.86830","Longitude":"-68.01360","Snowdepth":"11.000","Units":"in","Rept_Date":"2020-12-13 12"},"coordinates":[6855,6880]},{"type":"Point","properties":{"Station_ID":"TRIQ6","Station_Nam":"TRIO LAKE","Latitude":"49.22880","Longitude":"-87.22920","Snowdepth":"10.980","Units":"in","Rept_Date":"2020-12-14 06"},"coordinates":[2339,8396]},{"type":"Point","properties":{"Station_ID":"QWE","Station_Nam":"QWE","Latitude":"47.84610","Longitude":"-73.80670","Snowdepth":"10.827","Units":"in","Rept_Date":"2020-12-13 12"},"coordinates":[5493,7508]},{"type":"Point","properties":{"Station_ID":"QCX","Station_Nam":"QCX","Latitude":"51.32830","Longitude":"-70.08060","Snowdepth":"10.118","Units":"in","Rept_Date":"2020-12-13 12"},"coordinates":[6369,9743]},{"type":"Point","properties":{"Station_ID":"RGNM1","Station_Nam":"RANGELEY 2NW","Latitude":"44.98940","Longitude":"-70.67220","Snowdepth":"10.000","Units":"in","Rept_Date":"2020-12-13 13"},"coordinates":[6230,5674]},{"type":"Point","properties":{"Station_ID":"RANM1","Station_Nam":"RANGELEY","Latitude":"44.98910","Longitude":"-70.67190","Snowdepth":"10.000","Units":"in","Rept_Date":"2020-12-13 12"},"coordinates":[6230,5674]},{"type":"Point","properties":{"Station_ID":"MDDW3","Station_Nam":"MIDDLETON,WI","Latitude":"43.09060","Longitude":"-89.51470","Snowdepth":"10.000","Units":"in","Rept_Date":"2020-12-13 13"},"coordinates":[1802,4456]},{"type":"Point","properties":{"Station_ID":"QTM","Station_Nam":"QTM","Latitude":"51.05780","Longitude":"-72.57190","Snowdepth":"9.921","Units":"in","Rept_Date":"2020-12-13 12"},"coordinates":[5784,9570]},{"type":"Point","properties":{"Station_ID":"PTLQ6","Station_Nam":"PORTAGE LAKE","Latitude":"49.06950","Longitude":"-86.65940","Snowdepth":"9.570","Units":"in","Rept_Date":"2020-12-14 06"},"coordinates":[2473,8293]},{"type":"Point","properties":{"Station_ID":"NH-CS-10","Station_Nam":"RANDOLPH 1.4 NE, NH","Latitude":"44.38824","Longitude":"-71.26950","Snowdepth":"9.500","Units":"in","Rept_Date":"2020-12-13 12"},"coordinates":[6090,5289]},{"type":"Point","properties":{"Station_ID":"WI-DA-45","Station_Nam":"MADISON 6.1 W, WI","Latitude":"43.06948","Longitude":"-89.50788","Snowdepth":"9.400","Units":"in","Rept_Date":"2020-12-13 13"},"coordinates":[1804,4442]},{"type":"Point","properties":{"Station_ID":"QTV","Station_Nam":"QTV","Latitude":"49.66000","Longitude":"-69.35690","Snowdepth":"9.331","Units":"in","Rept_Date":"2020-12-13 12"},"coordinates":[6539,8672]},{"type":"Point","properties":{"Station_ID":"HLSN3","Station_Nam":"HERMIT LAKE SNOTEL","Latitude":"44.26130","Longitude":"-71.28320","Snowdepth":"9.130","Units":"in","Rept_Date":"2020-12-14 06"},"coordinates":[6086,5207]},{"type":"Point","properties":{"Station_ID":"WI-LF-6","Station_Nam":"SOUTH WAYNE 3.9 SSW, WI","Latitude":"42.51173","Longitude":"-89.89555","Snowdepth":"9.000","Units":"in","Rept_Date":"2020-12-13 13"},"coordinates":[1713,4084]},{"type":"Point","properties":{"Station_ID":"VANM1","Station_Nam":"VAN BUREN","Latitude":"47.16600","Longitude":"-67.93900","Snowdepth":"9.000","Units":"in","Rept_Date":"2020-12-13 13"},"coordinates":[6872,7072]},{"type":"Point","properties":{"Station_ID":"MI-PI-1","Station_Nam":"ROGERS CITY 0.2 WSW, MI","Latitude":"45.41740","Longitude":"-83.81060","Snowdepth":"9.000","Units":"in","Rept_Date":"2020-12-13 13"},"coordinates":[3143,5949]},{"type":"Point","properties":{"Station_ID":"ME-AR-15","Station_Nam":"PRESQUE ISLE 1.3 WSW, ME","Latitude":"46.67960","Longitude":"-68.01270","Snowdepth":"9.000","Units":"in","Rept_Date":"2020-12-13 12"},"coordinates":[6855,6759]},{"type":"Point","properties":{"Station_ID":"QFT","Station_Nam":"QFT","Latitude":"50.83280","Longitude":"-74.40390","Snowdepth":"8.976","Units":"in","Rept_Date":"2020-12-13 12"},"coordinates":[5353,9425]},{"type":"Point","properties":{"Station_ID":"DVLQ6","Station_Nam":"DEVIOUS LAKE","Latitude":"49.19890","Longitude":"-87.76440","Snowdepth":"8.660","Units":"in","Rept_Date":"2020-12-14 06"},"coordinates":[2213,8376]},{"type":"Point","properties":{"Station_ID":"MI-CF-9","Station_Nam":"GRAYLING 15.8 NE, MI","Latitude":"44.80464","Longitude":"-84.46313","Snowdepth":"8.500","Units":"in","Rept_Date":"2020-12-13 12"},"coordinates":[2989,5556]},{"type":"Point","properties":{"Station_ID":"ME-SM-45","Station_Nam":"BRIGHTON PLANTATION 2.1 N, ME","Latitude":"45.07098","Longitude":"-69.69860","Snowdepth":"8.500","Units":"in","Rept_Date":"2020-12-13 12"},"coordinates":[6459,5727]},{"type":"Point","properties":{"Station_ID":"WI-DA-99","Station_Nam":"FITCHBURG 1.1 NW, WI","Latitude":"42.99740","Longitude":"-89.44046","Snowdepth":"8.000","Units":"in","Rept_Date":"2020-12-13 13"},"coordinates":[1820,4396]},{"type":"Point","properties":{"Station_ID":"WI-DA-46","Station_Nam":"MADISON 6.4 W, WI","Latitude":"43.08337","Longitude":"-89.51503","Snowdepth":"8.000","Units":"in","Rept_Date":"2020-12-13 13"},"coordinates":[1802,4451]},{"type":"Point","properties":{"Station_ID":"ONAM4","Station_Nam":"ONAWAY 4N","Latitude":"45.41080","Longitude":"-84.22330","Snowdepth":"8.000","Units":"in","Rept_Date":"2020-12-13 23"},"coordinates":[3046,5945]},{"type":"Point","properties":{"Station_ID":"MYOM4","Station_Nam":"MIO WWTP","Latitude":"44.64660","Longitude":"-84.11580","Snowdepth":"8.000","Units":"in","Rept_Date":"2020-12-13 13"},"coordinates":[3071,5454]},{"type":"Point","properties":{"Station_ID":"MWN","Station_Nam":"MOUNT WASHINGTON","Latitude":"44.26670","Longitude":"-71.30000","Snowdepth":"8.000","Units":"in","Rept_Date":"2020-12-13 12"},"coordinates":[6083,5211]},{"type":"Point","properties":{"Station_ID":"MI-OT-17","Station_Nam":"GAYLORD 4.1 S, MI","Latitude":"44.96388","Longitude":"-84.68467","Snowdepth":"8.000","Units":"in","Rept_Date":"2020-12-13 12"},"coordinates":[2937,5658]},{"type":"Point","properties":{"Station_ID":"MI-GT-21","Station_Nam":"KINGSLEY 2.7 ENE, MI","Latitude":"44.59871","Longitude":"-85.48426","Snowdepth":"8.000","Units":"in","Rept_Date":"2020-12-13 12"},"coordinates":[2749,5424]},{"type":"Point","properties":{"Station_ID":"MI-BZ-6","Station_Nam":"LAKE ANN 2.0 N, MI","Latitude":"44.75487","Longitude":"-85.84505","Snowdepth":"8.000","Units":"in","Rept_Date":"2020-12-13 13"},"coordinates":[2664,5524]},{"type":"Point","properties":{"Station_ID":"ME-FR-2","Station_Nam":"TEMPLE 1.8 W, ME","Latitude":"44.68329","Longitude":"-70.26420","Snowdepth":"8.000","Units":"in","Rept_Date":"2020-12-13 12"},"coordinates":[6326,5478]},{"type":"Point","properties":{"Station_ID":"KSEM4","Station_Nam":"KALKASKA 11SE","Latitude":"44.58970","Longitude":"-85.04860","Snowdepth":"8.000","Units":"in","Rept_Date":"2020-12-13 13"},"coordinates":[2852,5418]},{"type":"Point","properties":{"Station_ID":"KMWN","Station_Nam":"MOUNT WASHINGTON","Latitude":"44.26666","Longitude":"-71.30000","Snowdepth":"8.000","Units":"in","Rept_Date":"2020-12-14 06"},"coordinates":[6083,5211]},{"type":"Point","properties":{"Station_ID":"FLAM4","Station_Nam":"FIFE LAKE 2WNW","Latitude":"44.58480","Longitude":"-85.36530","Snowdepth":"8.000","Units":"in","Rept_Date":"2020-12-13 12"},"coordinates":[2777,5415]},{"type":"Point","properties":{"Station_ID":"FISM1","Station_Nam":"FORT KENT COOP","Latitude":"47.23850","Longitude":"-68.61240","Snowdepth":"8.000","Units":"in","Rept_Date":"2020-12-13 12"},"coordinates":[6714,7118]},{"type":"Point","properties":{"Station_ID":"QLM","Station_Nam":"QLM","Latitude":"48.92030","Longitude":"-70.25280","Snowdepth":"7.953","Units":"in","Rept_Date":"2020-12-13 12"},"coordinates":[6329,8198]},{"type":"Point","properties":{"Station_ID":"WI-DA-35","Station_Nam":"MADISON 5.5 N, WI","Latitude":"43.15858","Longitude":"-89.37280","Snowdepth":"7.900","Units":"in","Rept_Date":"2020-12-13 14"},"coordinates":[1835,4499]},{"type":"Point","properties":{"Station_ID":"CAN-ON-717","Station_Nam":"BLIND RIVER 0.2 NNE, CAN","Latitude":"46.18781","Longitude":"-82.95945","Snowdepth":"7.900","Units":"in","Rept_Date":"2020-12-13 12"},"coordinates":[3343,6444]},{"type":"Point","properties":{"Station_ID":"MI-GT-25","Station_Nam":"TRAVERSE CITY 4.7 ESE, MI","Latitude":"44.73370","Longitude":"-85.51189","Snowdepth":"7.500","Units":"in","Rept_Date":"2020-12-13 12"},"coordinates":[2743,5510]},{"type":"Point","properties":{"Station_ID":"MI-AT-6","Station_Nam":"MANCELONA 0.5 ESE, MI","Latitude":"44.89981","Longitude":"-85.05100","Snowdepth":"7.500","Units":"in","Rept_Date":"2020-12-13 13"},"coordinates":[2851,5617]},{"type":"Point","properties":{"Station_ID":"ME-SM-4","Station_Nam":"SOLON 3.9 ESE, ME","Latitude":"44.94705","Longitude":"-69.77790","Snowdepth":"7.500","Units":"in","Rept_Date":"2020-12-13 12"},"coordinates":[6440,5647]},{"type":"Point","properties":{"Station_ID":"AUDQ6","Station_Nam":"AUDEN","Latitude":"48.52600","Longitude":"-82.57570","Snowdepth":"7.400","Units":"in","Rept_Date":"2020-12-14 06"},"coordinates":[3433,7944]},{"type":"Point","properties":{"Station_ID":"QWG","Station_Nam":"QWG","Latitude":"48.48890","Longitude":"-73.45940","Snowdepth":"7.283","Units":"in","Rept_Date":"2020-12-13 12"},"coordinates":[5575,7921]},{"type":"Point","properties":{"Station_ID":"CAN-NB-105","Station_Nam":"SISSON BROOK 3.8 E, CAN","Latitude":"46.98305","Longitude":"-67.32532","Snowdepth":"7.100","Units":"in","Rept_Date":"2020-12-13 12"},"coordinates":[7017,6954]},{"type":"Point","properties":{"Station_ID":"MFU","Station_Nam":"MFU","Latitude":"51.52170","Longitude":"-66.91110","Snowdepth":"7.087","Units":"in","Rept_Date":"2020-12-13 12"},"coordinates":[7114,9867]},{"type":"Point","properties":{"Station_ID":"WI-IW-3","Station_Nam":"MINERAL POINT 7.3 ENE, WI","Latitude":"42.91400","Longitude":"-90.05700","Snowdepth":"7.000","Units":"in","Rept_Date":"2020-12-13 13"},"coordinates":[1675,4342]},{"type":"Point","properties":{"Station_ID":"WI-DA-78","Station_Nam":"SUN PRAIRIE 3.0 W, WI","Latitude":"43.17607","Longitude":"-89.29134","Snowdepth":"7.000","Units":"in","Rept_Date":"2020-12-13 13"},"coordinates":[1855,4511]},{"type":"Point","properties":{"Station_ID":"WI-DA-39","Station_Nam":"MADISON 4.0 W, WI","Latitude":"43.07741","Longitude":"-89.46757","Snowdepth":"7.000","Units":"in","Rept_Date":"2020-12-13 13"},"coordinates":[1813,4447]},{"type":"Point","properties":{"Station_ID":"WI-DA-33","Station_Nam":"OREGON 0.4 SSW, WI","Latitude":"42.92080","Longitude":"-89.38540","Snowdepth":"7.000","Units":"in","Rept_Date":"2020-12-13 13"},"coordinates":[1832,4347]},{"type":"Point","properties":{"Station_ID":"TCEM4","Station_Nam":"TRAVERSE CITY 5ESE","Latitude":"44.73370","Longitude":"-85.51180","Snowdepth":"7.000","Units":"in","Rept_Date":"2020-12-13 12"},"coordinates":[2743,5510]},{"type":"Point","properties":{"Station_ID":"POLM1","Station_Nam":"POLAND","Latitude":"44.00700","Longitude":"-70.36140","Snowdepth":"7.000","Units":"in","Rept_Date":"2020-12-13 12"},"coordinates":[6303,5044]},{"type":"Point","properties":{"Station_ID":"MONW3","Station_Nam":"MONROE,WI","Latitude":"42.60000","Longitude":"-89.66670","Snowdepth":"7.000","Units":"in","Rept_Date":"2020-12-13 13"},"coordinates":[1766,4141]},{"type":"Point","properties":{"Station_ID":"MMNV1","Station_Nam":"MT. MANSFIELD","Latitude":"44.52480","Longitude":"-72.81540","Snowdepth":"7.000","Units":"in","Rept_Date":"2020-12-13 21"},"coordinates":[5726,5376]},{"type":"Point","properties":{"Station_ID":"MI-OT-16","Station_Nam":"GAYLORD 2.2 SSE, MI","Latitude":"44.99441","Longitude":"-84.65820","Snowdepth":"7.000","Units":"in","Rept_Date":"2020-12-13 12"},"coordinates":[2943,5678]},{"type":"Point","properties":{"Station_ID":"HTLM4","Station_Nam":"SNOW PAID OBSERVER FOR KHTL","Latitude":"44.34470","Longitude":"-84.67730","Snowdepth":"7.000","Units":"in","Rept_Date":"2020-12-13 18"},"coordinates":[2939,5261]},{"type":"Point","properties":{"Station_ID":"HTL","Station_Nam":"ROSCOMMON COUNTY AIRPORT","Latitude":"44.35000","Longitude":"-84.66670","Snowdepth":"7.000","Units":"in","Rept_Date":"2020-12-14 00"},"coordinates":[2941,5264]},{"type":"Point","properties":{"Station_ID":"DUBI4","Station_Nam":"DUBUQUE #3","Latitude":"42.40870","Longitude":"-90.73250","Snowdepth":"7.000","Units":"in","Rept_Date":"2020-12-13 18"},"coordinates":[1516,4018]},{"type":"Point","properties":{"Station_ID":"DBQ","Station_Nam":"DUBUQUE REGIONAL AIRPORT","Latitude":"42.40310","Longitude":"-90.70920","Snowdepth":"7.000","Units":"in","Rept_Date":"2020-12-14 00"},"coordinates":[1521,4014]},{"type":"Point","properties":{"Station_ID":"CHMW3","Station_Nam":"MADISON,WI","Latitude":"43.06030","Longitude":"-89.47810","Snowdepth":"7.000","Units":"in","Rept_Date":"2020-12-13 13"},"coordinates":[1811,4436]},{"type":"Point","properties":{"Station_ID":"CDLM4","Station_Nam":"CADILLAC 9&10 NEWS","Latitude":"44.21130","Longitude":"-85.40860","Snowdepth":"7.000","Units":"in","Rept_Date":"2020-12-13 12"},"coordinates":[2767,5175]},{"type":"Point","properties":{"Station_ID":"BNWI4","Station_Nam":"BOONE,IA","Latitude":"42.05000","Longitude":"-93.93330","Snowdepth":"7.000","Units":"in","Rept_Date":"2020-12-13 15"},"coordinates":[764,3788]},{"type":"Point","properties":{"Station_ID":"QGA","Station_Nam":"QGA","Latitude":"47.25640","Longitude":"-73.73810","Snowdepth":"6.772","Units":"in","Rept_Date":"2020-12-13 12"},"coordinates":[5510,7130]},{"type":"Point","properties":{"Station_ID":"WI-IW-7","Station_Nam":"DODGEVILLE 2.7 NE, WI","Latitude":"42.99414","Longitude":"-90.09488","Snowdepth":"6.500","Units":"in","Rept_Date":"2020-12-13 13"},"coordinates":[1666,4394]},{"type":"Point","properties":{"Station_ID":"WI-DA-13","Station_Nam":"MADISON 3.7 WSW, WI","Latitude":"43.06230","Longitude":"-89.45650","Snowdepth":"6.500","Units":"in","Rept_Date":"2020-12-13 13"},"coordinates":[1816,4438]},{"type":"Point","properties":{"Station_ID":"SOCQ6","Station_Nam":"SOCKET LAKE","Latitude":"50.77870","Longitude":"-91.79300","Snowdepth":"6.500","Units":"in","Rept_Date":"2020-12-14 06"},"coordinates":[1267,9390]},{"type":"Point","properties":{"Station_ID":"IA-JH-20","Station_Nam":"CORALVILLE 1.4 S, IA","Latitude":"41.67016","Longitude":"-91.60296","Snowdepth":"6.500","Units":"in","Rept_Date":"2020-12-13 14"},"coordinates":[1311,3544]},{"type":"Point","properties":{"Station_ID":"CAN-NB-13","Station_Nam":"BATHURST 3.8 NW, CAN","Latitude":"47.64212","Longitude":"-65.68756","Snowdepth":"6.500","Units":"in","Rept_Date":"2020-12-13 11"},"coordinates":[7401,7377]},{"type":"Point","properties":{"Station_ID":"QLI","Station_Nam":"QLI","Latitude":"50.27080","Longitude":"-73.92280","Snowdepth":"6.457","Units":"in","Rept_Date":"2020-12-13 12"},"coordinates":[5466,9064]},{"type":"Point","properties":{"Station_ID":"FTHQ6","Station_Nam":"FORT HOPE","Latitude":"51.55820","Longitude":"-87.90510","Snowdepth":"6.180","Units":"in","Rept_Date":"2020-12-14 06"},"coordinates":[2180,9891]},{"type":"Point","properties":{"Station_ID":"WSFW3","Station_Nam":"TOWN OF WESTFORD","Latitude":"43.47190","Longitude":"-88.88250","Snowdepth":"6.000","Units":"in","Rept_Date":"2020-12-13 13"},"coordinates":[1951,4700]},{"type":"Point","properties":{"Station_ID":"WI-DD-14","Station_Nam":"THERESA 0.1 ESE, WI","Latitude":"43.51691","Longitude":"-88.45026","Snowdepth":"6.000","Units":"in","Rept_Date":"2020-12-13 13"},"coordinates":[2052,4729]},{"type":"Point","properties":{"Station_ID":"WI-DA-88","Station_Nam":"BLACK EARTH 3.1 SSE, WI","Latitude":"43.09290","Longitude":"-89.72889","Snowdepth":"6.000","Units":"in","Rept_Date":"2020-12-13 13"},"coordinates":[1752,4457]},{"type":"Point","properties":{"Station_ID":"WI-DA-82","Station_Nam":"MIDDLETON 1.9 NE, WI","Latitude":"43.12027","Longitude":"-89.47696","Snowdepth":"6.000","Units":"in","Rept_Date":"2020-12-13 13"},"coordinates":[1811,4475]},{"type":"Point","properties":{"Station_ID":"STOI2","Station_Nam":"STOCKTON 3 NNE","Latitude":"42.40050","Longitude":"-89.99580","Snowdepth":"6.000","Units":"in","Rept_Date":"2020-12-14 03"},"coordinates":[1689,4013]},{"type":"Point","properties":{"Station_ID":"SCOM4","Station_Nam":"SCOTTVILLE 2 SE","Latitude":"43.93310","Longitude":"-86.24530","Snowdepth":"6.000","Units":"in","Rept_Date":"2020-12-13 12"},"coordinates":[2570,4997]},{"type":"Point","properties":{"Station_ID":"NH-ST-31","Station_Nam":"STRAFFORD 2.9 N, NH","Latitude":"43.31175","Longitude":"-71.13510","Snowdepth":"6.000","Units":"in","Rept_Date":"2020-12-13 12"},"coordinates":[6121,4598]},{"type":"Point","properties":{"Station_ID":"MI-OT-4","Station_Nam":"GAYLORD 1.7 WNW, MI","Latitude":"45.03280","Longitude":"-84.71090","Snowdepth":"6.000","Units":"in","Rept_Date":"2020-12-13 13"},"coordinates":[2931,5702]},{"type":"Point","properties":{"Station_ID":"ME-OX-26","Station_Nam":"OXFORD 5.3 SW, ME","Latitude":"44.09787","Longitude":"-70.59612","Snowdepth":"6.000","Units":"in","Rept_Date":"2020-12-13 12"},"coordinates":[6248,5102]},{"type":"Point","properties":{"Station_ID":"ME-KB-53","Station_Nam":"READFIELD 2.0 NNE, ME","Latitude":"44.41620","Longitude":"-69.95190","Snowdepth":"6.000","Units":"in","Rept_Date":"2020-12-13 12"},"coordinates":[6399,5307]},{"type":"Point","properties":{"Station_ID":"LOOW3","Station_Nam":"WATERLOO","Latitude":"43.18830","Longitude":"-88.98440","Snowdepth":"6.000","Units":"in","Rept_Date":"2020-12-13 14"},"coordinates":[1927,4518]},{"type":"Point","properties":{"Station_ID":"LKMW3","Station_Nam":"LAKE MILLS,WI","Latitude":"43.06670","Longitude":"-88.91220","Snowdepth":"6.000","Units":"in","Rept_Date":"2020-12-13 12"},"coordinates":[1944,4440]},{"type":"Point","properties":{"Station_ID":"LILM1","Station_Nam":"LILLE","Latitude":"47.27770","Longitude":"-68.10520","Snowdepth":"6.000","Units":"in","Rept_Date":"2020-12-13 12"},"coordinates":[6833,7143]},{"type":"Point","properties":{"Station_ID":"KDSM","Station_Nam":"DES MOINES INTERNATIONAL","Latitude":"41.53333","Longitude":"-93.66666","Snowdepth":"6.000","Units":"in","Rept_Date":"2020-12-14 00"},"coordinates":[826,3456]},{"type":"Point","properties":{"Station_ID":"IA-PK-73","Station_Nam":"DES MOINES 4.1 N, IA","Latitude":"41.63605","Longitude":"-93.60630","Snowdepth":"6.000","Units":"in","Rept_Date":"2020-12-13 13"},"coordinates":[841,3522]},{"type":"Point","properties":{"Station_ID":"IA-DV-10","Station_Nam":"BLOOMFIELD 8.4 NNE, IA","Latitude":"40.85602","Longitude":"-92.34318","Snowdepth":"6.000","Units":"in","Rept_Date":"2020-12-13 13"},"coordinates":[1137,3021]},{"type":"Point","properties":{"Station_ID":"IA-DL-33","Station_Nam":"WAUKEE 1.6 N, IA","Latitude":"41.63119","Longitude":"-93.85778","Snowdepth":"6.000","Units":"in","Rept_Date":"2020-12-13 13"},"coordinates":[782,3519]},{"type":"Point","properties":{"Station_ID":"HMYM1","Station_Nam":"HARMONY","Latitude":"44.94660","Longitude":"-69.54560","Snowdepth":"6.000","Units":"in","Rept_Date":"2020-12-13 12"},"coordinates":[6495,5647]},{"type":"Point","properties":{"Station_ID":"GLNM4","Station_Nam":"GLENNIE 2SE","Latitude":"44.53580","Longitude":"-83.70220","Snowdepth":"6.000","Units":"in","Rept_Date":"2020-12-13 12"},"coordinates":[3168,5383]},{"type":"Point","properties":{"Station_ID":"GAYM4","Station_Nam":"GAYLORD","Latitude":"45.03320","Longitude":"-84.71130","Snowdepth":"6.000","Units":"in","Rept_Date":"2020-12-13 13"},"coordinates":[2931,5703]},{"type":"Point","properties":{"Station_ID":"DSXI4","Station_Nam":"DES MOINES SNOW","Latitude":"41.54130","Longitude":"-93.65570","Snowdepth":"6.000","Units":"in","Rept_Date":"2020-12-14 06"},"coordinates":[829,3461]},{"type":"Point","properties":{"Station_ID":"DSM","Station_Nam":"DES MOINES INTERNATIONAL","Latitude":"41.53340","Longitude":"-93.66300","Snowdepth":"6.000","Units":"in","Rept_Date":"2020-12-14 00"},"coordinates":[827,3456]},{"type":"Point","properties":{"Station_ID":"CUSW3","Station_Nam":"COLUMBUS","Latitude":"43.32610","Longitude":"-89.00810","Snowdepth":"6.000","Units":"in","Rept_Date":"2020-12-13 13"},"coordinates":[1921,4607]},{"type":"Point","properties":{"Station_ID":"CLUI4","Station_Nam":"CLUTIER,IA","Latitude":"42.08330","Longitude":"-92.40000","Snowdepth":"6.000","Units":"in","Rept_Date":"2020-12-13 13"},"coordinates":[1124,3809]},{"type":"Point","properties":{"Station_ID":"BRAM1","Station_Nam":"BRASSUA DAM","Latitude":"45.66020","Longitude":"-69.81190","Snowdepth":"6.000","Units":"in","Rept_Date":"2020-12-13 12"},"coordinates":[6432,6105]},{"type":"Point","properties":{"Station_ID":"BLVI4","Station_Nam":"MISSISSIPPI RIVER","Latitude":"42.26670","Longitude":"-90.41670","Snowdepth":"6.000","Units":"in","Rept_Date":"2020-12-13 12"},"coordinates":[1590,3927]},{"type":"Point","properties":{"Station_ID":"BDMW3","Station_Nam":"BEAVER DAM 1 N","Latitude":"43.46860","Longitude":"-88.83970","Snowdepth":"6.000","Units":"in","Rept_Date":"2020-12-13 17"},"coordinates":[1961,4698]},{"type":"Point","properties":{"Station_ID":"APXM4","Station_Nam":"GAYLORD 9SSW","Latitude":"44.90720","Longitude":"-84.71880","Snowdepth":"6.000","Units":"in","Rept_Date":"2020-12-14 06"},"coordinates":[2929,5622]},{"type":"Point","properties":{"Station_ID":"ABNM3","Station_Nam":"ASHBURNHAM NORTH","Latitude":"42.66170","Longitude":"-71.93590","Snowdepth":"6.000","Units":"in","Rept_Date":"2020-12-13 12"},"coordinates":[5933,4180]},{"type":"Point","properties":{"Station_ID":"MRL","Station_Nam":"MRL","Latitude":"51.28330","Longitude":"-68.84060","Snowdepth":"5.984","Units":"in","Rept_Date":"2020-12-13 12"},"coordinates":[6660,9714]},{"type":"Point","properties":{"Station_ID":"OGIQ6","Station_Nam":"OGOKI CAMP","Latitude":"50.76680","Longitude":"-87.85820","Snowdepth":"5.830","Units":"in","Rept_Date":"2020-12-14 06"},"coordinates":[2191,9383]},{"type":"Point","properties":{"Station_ID":"KABQ6","Station_Nam":"CAB LAKE","Latitude":"49.59950","Longitude":"-89.17990","Snowdepth":"5.710","Units":"in","Rept_Date":"2020-12-14 06"},"coordinates":[1881,8634]},{"type":"Point","properties":{"Station_ID":"CATQ6","Station_Nam":"CAT LAKE","Latitude":"51.72690","Longitude":"-91.82210","Snowdepth":"5.710","Units":"in","Rept_Date":"2020-12-14 06"},"coordinates":[1260,9999]},{"type":"Point","properties":{"Station_ID":"WI-DA-87","Station_Nam":"DUNKIRK 0.1 NW, WI","Latitude":"42.88356","Longitude":"-89.21056","Snowdepth":"5.500","Units":"in","Rept_Date":"2020-12-13 12"},"coordinates":[1874,4323]},{"type":"Point","properties":{"Station_ID":"WI-DA-75","Station_Nam":"COTTAGE GROVE 2.2 E, WI","Latitude":"43.08112","Longitude":"-89.15945","Snowdepth":"5.500","Units":"in","Rept_Date":"2020-12-13 13"},"coordinates":[1886,4450]},{"type":"Point","properties":{"Station_ID":"WI-DA-60","Station_Nam":"MIDDLETON 0.8 SSW, WI","Latitude":"43.09292","Longitude":"-89.51258","Snowdepth":"5.500","Units":"in","Rept_Date":"2020-12-13 15"},"coordinates":[1803,4457]},{"type":"Point","properties":{"Station_ID":"WI-DA-31","Station_Nam":"DEERFIELD 0.6 N, WI","Latitude":"43.05958","Longitude":"-89.07340","Snowdepth":"5.500","Units":"in","Rept_Date":"2020-12-13 13"},"coordinates":[1906,4436]},{"type":"Point","properties":{"Station_ID":"MI-CP-7","Station_Nam":"DRUMMOND 2.9 NE, MI","Latitude":"46.05329","Longitude":"-83.69060","Snowdepth":"5.500","Units":"in","Rept_Date":"2020-12-13 14"},"coordinates":[3171,6357]},{"type":"Point","properties":{"Station_ID":"IA-SR-17","Station_Nam":"AMES 0.9 ENE, IA","Latitude":"42.02886","Longitude":"-93.60950","Snowdepth":"5.500","Units":"in","Rept_Date":"2020-12-13 13"},"coordinates":[840,3774]},{"type":"Point","properties":{"Station_ID":"IA-PK-97","Station_Nam":"ANKENY 1.5 NNE, IA","Latitude":"41.74376","Longitude":"-93.59088","Snowdepth":"5.500","Units":"in","Rept_Date":"2020-12-13 13"},"coordinates":[844,3591]},{"type":"Point","properties":{"Station_ID":"IA-PK-83","Station_Nam":"ALTOONA 1.5 SSE, IA","Latitude":"41.63125","Longitude":"-93.46584","Snowdepth":"5.500","Units":"in","Rept_Date":"2020-12-13 13"},"coordinates":[874,3519]},{"type":"Point","properties":{"Station_ID":"WI-DD-19","Station_Nam":"IXONIA 5.0 NE, WI","Latitude":"43.20276","Longitude":"-88.53780","Snowdepth":"5.300","Units":"in","Rept_Date":"2020-12-13 14"},"coordinates":[2032,4528]},{"type":"Point","properties":{"Station_ID":"IA-PK-37","Station_Nam":"WINDSOR HEIGHTS 0.8 SE, IA","Latitude":"41.59810","Longitude":"-93.69950","Snowdepth":"5.200","Units":"in","Rept_Date":"2020-12-13 13"},"coordinates":[819,3498]},{"type":"Point","properties":{"Station_ID":"WVLM1","Station_Nam":"WATERVILLE TREATMENT PLT","Latitude":"44.52720","Longitude":"-69.65440","Snowdepth":"5.000","Units":"in","Rept_Date":"2020-12-13 12"},"coordinates":[6469,5378]},{"type":"Point","properties":{"Station_ID":"WI-JF-17","Station_Nam":"JOHNSON CREEK 2.7 SSW, WI","Latitude":"43.04559","Longitude":"-88.79925","Snowdepth":"5.000","Units":"in","Rept_Date":"2020-12-13 13"},"coordinates":[1970,4427]},{"type":"Point","properties":{"Station_ID":"WI-DD-5","Station_Nam":"THERESA 3.1 SE, WI","Latitude":"43.49201","Longitude":"-88.40165","Snowdepth":"5.000","Units":"in","Rept_Date":"2020-12-13 14"},"coordinates":[2064,4713]},{"type":"Point","properties":{"Station_ID":"WI-DA-72","Station_Nam":"MADISON 4.0 SW, WI","Latitude":"43.03801","Longitude":"-89.44355","Snowdepth":"5.000","Units":"in","Rept_Date":"2020-12-13 13"},"coordinates":[1819,4422]},{"type":"Point","properties":{"Station_ID":"WGCI4","Station_Nam":"WAVELAND","Latitude":"41.58330","Longitude":"-93.66670","Snowdepth":"5.000","Units":"in","Rept_Date":"2020-12-13 13"},"coordinates":[826,3488]},{"type":"Point","properties":{"Station_ID":"WATW3","Station_Nam":"WATERTOWN,WI","Latitude":"43.17500","Longitude":"-88.73530","Snowdepth":"5.000","Units":"in","Rept_Date":"2020-12-13 13"},"coordinates":[1985,4510]},{"type":"Point","properties":{"Station_ID":"RKWM1","Station_Nam":"MOOSEHEAD LAKE","Latitude":"45.58330","Longitude":"-69.71670","Snowdepth":"5.000","Units":"in","Rept_Date":"2020-12-13 12"},"coordinates":[6455,6056]},{"type":"Point","properties":{"Station_ID":"RCHW3","Station_Nam":"RICHRIELD,WI","Latitude":"43.21080","Longitude":"-88.20940","Snowdepth":"5.000","Units":"in","Rept_Date":"2020-12-13 12"},"coordinates":[2109,4533]},{"type":"Point","properties":{"Station_ID":"NH-CS-4","Station_Nam":"PITTSBURG 6.1 NE, NH","Latitude":"45.11060","Longitude":"-71.29760","Snowdepth":"5.000","Units":"in","Rept_Date":"2020-12-13 12"},"coordinates":[6083,5752]},{"type":"Point","properties":{"Station_ID":"NH-CS-19","Station_Nam":"CARROLL 4.6 NE, NH","Latitude":"44.33765","Longitude":"-71.46461","Snowdepth":"5.000","Units":"in","Rept_Date":"2020-12-13 12"},"coordinates":[6044,5256]},{"type":"Point","properties":{"Station_ID":"MSN","Station_Nam":"MADISON DANE COUNTY RGNL","Latitude":"43.13970","Longitude":"-89.33750","Snowdepth":"5.000","Units":"in","Rept_Date":"2020-12-14 00"},"coordinates":[1844,4487]},{"type":"Point","properties":{"Station_ID":"MRBW3","Station_Nam":"MT HOREB","Latitude":"42.98030","Longitude":"-89.73940","Snowdepth":"5.000","Units":"in","Rept_Date":"2020-12-13 13"},"coordinates":[1749,4385]},{"type":"Point","properties":{"Station_ID":"MI-OC-3","Station_Nam":"HART 3 WSW, MI","Latitude":"43.67470","Longitude":"-86.42250","Snowdepth":"5.000","Units":"in","Rept_Date":"2020-12-13 12"},"coordinates":[2529,4831]},{"type":"Point","properties":{"Station_ID":"MI-BZ-1","Station_Nam":"BENZONIA 5.3 S, MI","Latitude":"44.53976","Longitude":"-86.10650","Snowdepth":"5.000","Units":"in","Rept_Date":"2020-12-13 14"},"coordinates":[2603,5386]},{"type":"Point","properties":{"Station_ID":"MAPM4","Station_Nam":"MAPLE CITY 1E","Latitude":"44.85500","Longitude":"-85.83520","Snowdepth":"5.000","Units":"in","Rept_Date":"2020-12-13 23"},"coordinates":[2667,5588]},{"type":"Point","properties":{"Station_ID":"MA-WR-89","Station_Nam":"HOLDEN 0.9 SSE, MA","Latitude":"42.33809","Longitude":"-71.85686","Snowdepth":"5.000","Units":"in","Rept_Date":"2020-12-13 12"},"coordinates":[5952,3973]},{"type":"Point","properties":{"Station_ID":"LSXI4","Station_Nam":"LITTLE SIOUX,IA","Latitude":"41.81670","Longitude":"-96.01670","Snowdepth":"5.000","Units":"in","Rept_Date":"2020-12-13 13"},"coordinates":[274,3638]},{"type":"Point","properties":{"Station_ID":"LODW3","Station_Nam":"LODI","Latitude":"43.32170","Longitude":"-89.53110","Snowdepth":"5.000","Units":"in","Rept_Date":"2020-12-13 13"},"coordinates":[1798,4604]},{"type":"Point","properties":{"Station_ID":"KMSN","Station_Nam":"MADISON DANE COUNTY RGNL","Latitude":"43.13333","Longitude":"-89.35000","Snowdepth":"5.000","Units":"in","Rept_Date":"2020-12-14 06"},"coordinates":[1841,4483]},{"type":"Point","properties":{"Station_ID":"IA-SR-42","Station_Nam":"AMES 2.1 WNW, IA","Latitude":"42.03730","Longitude":"-93.66180","Snowdepth":"5.000","Units":"in","Rept_Date":"2020-12-13 15"},"coordinates":[828,3780]},{"type":"Point","properties":{"Station_ID":"IA-PK-89","Station_Nam":"ANKENY 3.7 NNE, IA","Latitude":"41.77305","Longitude":"-93.57635","Snowdepth":"5.000","Units":"in","Rept_Date":"2020-12-13 13"},"coordinates":[848,3610]},{"type":"Point","properties":{"Station_ID":"IA-PK-21","Station_Nam":"JOHNSTON 3.7 NNW, IA","Latitude":"41.73660","Longitude":"-93.72360","Snowdepth":"5.000","Units":"in","Rept_Date":"2020-12-13 13"},"coordinates":[813,3587]},{"type":"Point","properties":{"Station_ID":"IA-DV-2","Station_Nam":"MOULTON 3.6 ENE, IA","Latitude":"40.70487","Longitude":"-92.61551","Snowdepth":"5.000","Units":"in","Rept_Date":"2020-12-13 13"},"coordinates":[1073,2924]},{"type":"Point","properties":{"Station_ID":"HRTM4","Station_Nam":"HART,MI","Latitude":"43.70000","Longitude":"-86.36670","Snowdepth":"5.000","Units":"in","Rept_Date":"2020-12-13 12"},"coordinates":[2542,4847]},{"type":"Point","properties":{"Station_ID":"HRTM1","Station_Nam":"HARTFORD","Latitude":"44.37440","Longitude":"-70.31620","Snowdepth":"5.000","Units":"in","Rept_Date":"2020-12-13 12"},"coordinates":[6314,5280]},{"type":"Point","properties":{"Station_ID":"HORW3","Station_Nam":"HORICON WWTP","Latitude":"43.45000","Longitude":"-88.63330","Snowdepth":"5.000","Units":"in","Rept_Date":"2020-12-13 13"},"coordinates":[2009,4686]},{"type":"Point","properties":{"Station_ID":"GLAM4","Station_Nam":"GLADWIN","Latitude":"43.97580","Longitude":"-84.49080","Snowdepth":"5.000","Units":"in","Rept_Date":"2020-12-13 11"},"coordinates":[2983,5024]},{"type":"Point","properties":{"Station_ID":"GHMN3","Station_Nam":"PINKHAM NOTCH","Latitude":"44.25800","Longitude":"-71.25250","Snowdepth":"5.000","Units":"in","Rept_Date":"2020-12-13 10"},"coordinates":[6094,5205]},{"type":"Point","properties":{"Station_ID":"DMX","Station_Nam":"DES MOINES, IA","Latitude":"41.73610","Longitude":"-93.72330","Snowdepth":"5.000","Units":"in","Rept_Date":"2020-12-14 06"},"coordinates":[813,3586]},{"type":"Point","properties":{"Station_ID":"AMOI4","Station_Nam":"ANAMOSA 3 SSW","Latitude":"42.07630","Longitude":"-91.30190","Snowdepth":"5.000","Units":"in","Rept_Date":"2020-12-13 13"},"coordinates":[1382,3805]},{"type":"Point","properties":{"Station_ID":"ALLW3","Station_Nam":"ALLENTON","Latitude":"43.42360","Longitude":"-88.35110","Snowdepth":"5.000","Units":"in","Rept_Date":"2020-12-13 13"},"coordinates":[2076,4669]},{"type":"Point","properties":{"Station_ID":"SVBQ6","Station_Nam":"SAVANT BASE","Latitude":"50.28730","Longitude":"-90.65670","Snowdepth":"4.920","Units":"in","Rept_Date":"2020-12-14 06"},"coordinates":[1534,9075]},{"type":"Point","properties":{"Station_ID":"WI-RK-6","Station_Nam":"EVANSVILLE 0.4 E, WI","Latitude":"42.77913","Longitude":"-89.29020","Snowdepth":"4.800","Units":"in","Rept_Date":"2020-12-13 12"},"coordinates":[1855,4256]},{"type":"Point","properties":{"Station_ID":"WI-JF-19","Station_Nam":"WATERTOWN 0.8 S, WI","Latitude":"43.18063","Longitude":"-88.72399","Snowdepth":"4.800","Units":"in","Rept_Date":"2020-12-13 13"},"coordinates":[1988,4514]},{"type":"Point","properties":{"Station_ID":"OK-PY-9","Station_Nam":"GLENCOE 3.0 W, OK","Latitude":"36.22070","Longitude":"-96.98100","Snowdepth":"4.800","Units":"in","Rept_Date":"2020-12-13 17"},"coordinates":[48,46]},{"type":"Point","properties":{"Station_ID":"ME-KB-6","Station_Nam":"WINSLOW 1.2 SSE, ME","Latitude":"44.53579","Longitude":"-69.60290","Snowdepth":"4.500","Units":"in","Rept_Date":"2020-12-13 12"},"coordinates":[6481,5383]},{"type":"Point","properties":{"Station_ID":"ME-CM-125","Station_Nam":"GRAY 2.9 SSE, ME","Latitude":"43.84640","Longitude":"-70.31340","Snowdepth":"4.500","Units":"in","Rept_Date":"2020-12-13 12"},"coordinates":[6314,4941]},{"type":"Point","properties":{"Station_ID":"IA-WR-7","Station_Nam":"INDIANOLA 0.8 SSW, IA","Latitude":"41.35047","Longitude":"-93.57290","Snowdepth":"4.500","Units":"in","Rept_Date":"2020-12-13 13"},"coordinates":[848,3339]},{"type":"Point","properties":{"Station_ID":"IA-DL-31","Station_Nam":"DALLAS CENTER 1.5 E, IA","Latitude":"41.68151","Longitude":"-93.95534","Snowdepth":"4.500","Units":"in","Rept_Date":"2020-12-13 14"},"coordinates":[759,3551]},{"type":"Point","properties":{"Station_ID":"CAN-MB-32","Station_Nam":"PINAWA 1.0 SW, CA","Latitude":"50.14747","Longitude":"-95.89020","Snowdepth":"4.500","Units":"in","Rept_Date":"2020-12-13 13"},"coordinates":[304,8985]},{"type":"Point","properties":{"Station_ID":"WI-DD-15","Station_Nam":"COLUMBUS 4.8 ENE, WI","Latitude":"43.35742","Longitude":"-88.93819","Snowdepth":"4.300","Units":"in","Rept_Date":"2020-12-13 14"},"coordinates":[1938,4627]},{"type":"Point","properties":{"Station_ID":"WTBW3","Station_Nam":"WEST BEND PUBLIC WORKS","Latitude":"43.41110","Longitude":"-88.19380","Snowdepth":"4.000","Units":"in","Rept_Date":"2020-12-13 13"},"coordinates":[2113,4661]},{"type":"Point","properties":{"Station_ID":"WLNM4","Station_Nam":"WELLSTON 1N","Latitude":"44.22940","Longitude":"-85.95690","Snowdepth":"4.000","Units":"in","Rept_Date":"2020-12-13 12"},"coordinates":[2638,5187]},{"type":"Point","properties":{"Station_ID":"WLFM5","Station_Nam":"WOLF RIDGE ENVIRON LEARNING CENTER","Latitude":"47.38240","Longitude":"-91.19730","Snowdepth":"4.000","Units":"in","Rept_Date":"2020-12-13 13"},"coordinates":[1407,7210]},{"type":"Point","properties":{"Station_ID":"WI-WS-30","Station_Nam":"HARTFORD 2.9 ENE, WI","Latitude":"43.34256","Longitude":"-88.33687","Snowdepth":"4.000","Units":"in","Rept_Date":"2020-12-13 13"},"coordinates":[2079,4617]},{"type":"Point","properties":{"Station_ID":"WI-JF-2","Station_Nam":"WATERTOWN 1.6 ESE, WI","Latitude":"43.17916","Longitude":"-88.69720","Snowdepth":"4.000","Units":"in","Rept_Date":"2020-12-13 12"},"coordinates":[1994,4513]},{"type":"Point","properties":{"Station_ID":"WI-DD-4","Station_Nam":"BEAVER DAM 1.4 SSW, WI","Latitude":"43.44719","Longitude":"-88.85260","Snowdepth":"4.000","Units":"in","Rept_Date":"2020-12-13 14"},"coordinates":[1958,4685]},{"type":"Point","properties":{"Station_ID":"SPTI4","Station_Nam":"STRAWBERRY POINT","Latitude":"42.68530","Longitude":"-91.53300","Snowdepth":"4.000","Units":"in","Rept_Date":"2020-12-13 13"},"coordinates":[1328,4196]},{"type":"Point","properties":{"Station_ID":"SLRW3","Station_Nam":"SLINGER","Latitude":"43.33390","Longitude":"-88.29780","Snowdepth":"4.000","Units":"in","Rept_Date":"2020-12-13 13"},"coordinates":[2088,4612]},{"type":"Point","properties":{"Station_ID":"PTYM4","Station_Nam":"PETOSKEY NCMC","Latitude":"45.36120","Longitude":"-84.95110","Snowdepth":"4.000","Units":"in","Rept_Date":"2020-12-13 13"},"coordinates":[2875,5913]},{"type":"Point","properties":{"Station_ID":"PTBN3","Station_Nam":"PITTSBURG RESERVOIR","Latitude":"45.04690","Longitude":"-71.38300","Snowdepth":"4.000","Units":"in","Rept_Date":"2020-12-13 12"},"coordinates":[6063,5711]},{"type":"Point","properties":{"Station_ID":"OMA","Station_Nam":"EPPLEY AIRFIELD","Latitude":"41.30220","Longitude":"-95.89330","Snowdepth":"4.000","Units":"in","Rept_Date":"2020-12-14 00"},"coordinates":[303,3308]},{"type":"Point","properties":{"Station_ID":"NWSM1","Station_Nam":"NEW SHARON","Latitude":"44.63520","Longitude":"-70.00020","Snowdepth":"4.000","Units":"in","Rept_Date":"2020-12-13 12"},"coordinates":[6388,5447]},{"type":"Point","properties":{"Station_ID":"NH-RC-48","Station_Nam":"NORTHWOOD 2.9 WSW, NH","Latitude":"43.20114","Longitude":"-71.25750","Snowdepth":"4.000","Units":"in","Rept_Date":"2020-12-13 12"},"coordinates":[6093,4527]},{"type":"Point","properties":{"Station_ID":"NH-BK-2","Station_Nam":"BELMONT 1.7 SW, NH","Latitude":"43.43556","Longitude":"-71.50690","Snowdepth":"4.000","Units":"in","Rept_Date":"2020-12-13 12"},"coordinates":[6034,4677]},{"type":"Point","properties":{"Station_ID":"MWTM1","Station_Nam":"MILLINOCKET WWTP","Latitude":"45.64030","Longitude":"-68.67480","Snowdepth":"4.000","Units":"in","Rept_Date":"2020-12-13 12"},"coordinates":[6699,6092]},{"type":"Point","properties":{"Station_ID":"MKX","Station_Nam":"MILWAUKEE, WI","Latitude":"42.96810","Longitude":"-88.54920","Snowdepth":"4.000","Units":"in","Rept_Date":"2020-12-14 06"},"coordinates":[2029,4377]},{"type":"Point","properties":{"Station_ID":"MKTI4","Station_Nam":"MAQUOKETA","Latitude":"42.07710","Longitude":"-90.66470","Snowdepth":"4.000","Units":"in","Rept_Date":"2020-12-13 13"},"coordinates":[1532,3805]},{"type":"Point","properties":{"Station_ID":"ME-YK-3","Station_Nam":"HOLLIS CENTER 5.4 NW, ME","Latitude":"43.64750","Longitude":"-70.67510","Snowdepth":"4.000","Units":"in","Rept_Date":"2020-12-13 12"},"coordinates":[6229,4813]},{"type":"Point","properties":{"Station_ID":"ME-FR-4","Station_Nam":"NEW SHARON 2.0 NW, ME","Latitude":"44.66582","Longitude":"-70.02720","Snowdepth":"4.000","Units":"in","Rept_Date":"2020-12-13 12"},"coordinates":[6382,5467]},{"type":"Point","properties":{"Station_ID":"ME-AN-32","Station_Nam":"WINTHROP 9.4 W, ME","Latitude":"44.30476","Longitude":"-70.15835","Snowdepth":"4.000","Units":"in","Rept_Date":"2020-12-13 12"},"coordinates":[6351,5235]},{"type":"Point","properties":{"Station_ID":"MCLI4","Station_Nam":"MONTICELLO","Latitude":"42.24110","Longitude":"-91.17320","Snowdepth":"4.000","Units":"in","Rept_Date":"2020-12-13 14"},"coordinates":[1412,3910]},{"type":"Point","properties":{"Station_ID":"KTVC","Station_Nam":"CHERRY CAPITAL AIRPORT","Latitude":"44.73333","Longitude":"-85.56666","Snowdepth":"4.000","Units":"in","Rept_Date":"2020-12-14 00"},"coordinates":[2730,5510]},{"type":"Point","properties":{"Station_ID":"KTUL","Station_Nam":"TULSA INTERNATIONAL AIRPORT","Latitude":"36.20000","Longitude":"-95.88333","Snowdepth":"4.000","Units":"in","Rept_Date":"2020-12-14 06"},"coordinates":[306,33]},{"type":"Point","properties":{"Station_ID":"KOMA","Station_Nam":"OMAHA EPPLEY AIRFIELD","Latitude":"41.30000","Longitude":"-95.90000","Snowdepth":"4.000","Units":"in","Rept_Date":"2020-12-14 00"},"coordinates":[302,3306]},{"type":"Point","properties":{"Station_ID":"KINM1","Station_Nam":"KINGFIELD","Latitude":"44.95950","Longitude":"-70.17530","Snowdepth":"4.000","Units":"in","Rept_Date":"2020-12-13 13"},"coordinates":[6347,5655]},{"type":"Point","properties":{"Station_ID":"JKMM1","Station_Nam":"JACKMAN","Latitude":"45.62600","Longitude":"-70.24600","Snowdepth":"4.000","Units":"in","Rept_Date":"2020-12-13 12"},"coordinates":[6330,6083]},{"type":"Point","properties":{"Station_ID":"IL-SP-3","Station_Nam":"ORANGEVILLE 2.8 NW, IL","Latitude":"42.49607","Longitude":"-89.68430","Snowdepth":"4.000","Units":"in","Rept_Date":"2020-12-13 13"},"coordinates":[1762,4074]},{"type":"Point","properties":{"Station_ID":"IA-JH-1","Station_Nam":"SOLON 0.3 ESE, IA","Latitude":"41.80398","Longitude":"-91.48910","Snowdepth":"4.000","Units":"in","Rept_Date":"2020-12-13 13"},"coordinates":[1338,3630]},{"type":"Point","properties":{"Station_ID":"HOLM1","Station_Nam":"HOLLIS","Latitude":"43.64750","Longitude":"-70.67490","Snowdepth":"4.000","Units":"in","Rept_Date":"2020-12-13 12"},"coordinates":[6229,4813]},{"type":"Point","properties":{"Station_ID":"FRKM4","Station_Nam":"FRANKFORT 2NE","Latitude":"44.64800","Longitude":"-86.21000","Snowdepth":"4.000","Units":"in","Rept_Date":"2020-12-13 23"},"coordinates":[2579,5455]},{"type":"Point","properties":{"Station_ID":"EZBI2","Station_Nam":"ELIZABETH","Latitude":"42.31620","Longitude":"-90.22690","Snowdepth":"4.000","Units":"in","Rept_Date":"2020-12-13 12"},"coordinates":[1635,3959]},{"type":"Point","properties":{"Station_ID":"DOUG006","Station_Nam":"OMAHA 2.9 W, NE","Latitude":"41.26580","Longitude":"-95.99270","Snowdepth":"4.000","Units":"in","Rept_Date":"2020-12-13 13"},"coordinates":[280,3284]},{"type":"Point","properties":{"Station_ID":"DLHM5","Station_Nam":"DULUTH NWS","Latitude":"46.83680","Longitude":"-92.21080","Snowdepth":"4.000","Units":"in","Rept_Date":"2020-12-14 06"},"coordinates":[1169,6860]},{"type":"Point","properties":{"Station_ID":"DLH","Station_Nam":"DULUTH, MN","Latitude":"46.83690","Longitude":"-92.21030","Snowdepth":"4.000","Units":"in","Rept_Date":"2020-12-14 00"},"coordinates":[1169,6860]},{"type":"Point","properties":{"Station_ID":"DLDI4","Station_Nam":"MISSISSIPPI RIVER","Latitude":"42.51670","Longitude":"-90.65000","Snowdepth":"4.000","Units":"in","Rept_Date":"2020-12-13 12"},"coordinates":[1535,4087]},{"type":"Point","properties":{"Station_ID":"CORM1","Station_Nam":"CORINNA","Latitude":"44.91980","Longitude":"-69.24180","Snowdepth":"4.000","Units":"in","Rept_Date":"2020-12-13 12"},"coordinates":[6566,5630]},{"type":"Point","properties":{"Station_ID":"CAN-NB-11","Station_Nam":"MIRAMICHI 3.3 S, CAN","Latitude":"46.99343","Longitude":"-65.50690","Snowdepth":"4.000","Units":"in","Rept_Date":"2020-12-13 13"},"coordinates":[7444,6961]},{"type":"Point","properties":{"Station_ID":"BGRM4","Station_Nam":"WATER WORKS","Latitude":"43.70000","Longitude":"-85.48330","Snowdepth":"4.000","Units":"in","Rept_Date":"2020-12-13 12"},"coordinates":[2749,4847]},{"type":"Point","properties":{"Station_ID":"BEAW3","Station_Nam":"BEAVER DAM,WI","Latitude":"43.45000","Longitude":"-88.85000","Snowdepth":"4.000","Units":"in","Rept_Date":"2020-12-13 13"},"coordinates":[1958,4686]},{"type":"Point","properties":{"Station_ID":"AUDI4","Station_Nam":"AUDUBON,IA","Latitude":"41.71670","Longitude":"-94.93330","Snowdepth":"4.000","Units":"in","Rept_Date":"2020-12-13 14"},"coordinates":[529,3574]},{"type":"Point","properties":{"Station_ID":"CAN-ON-220","Station_Nam":"DEEP RIVER 1.5 SE - MNRF, CAN","Latitude":"46.09592","Longitude":"-77.47853","Snowdepth":"3.900","Units":"in","Rept_Date":"2020-12-13 13"},"coordinates":[4631,6385]},{"type":"Point","properties":{"Station_ID":"CAN-MB-368","Station_Nam":"WHITESHELL 1.3 NE, CAN","Latitude":"49.74405","Longitude":"-95.19123","Snowdepth":"3.900","Units":"in","Rept_Date":"2020-12-13 14"},"coordinates":[468,8726]},{"type":"Point","properties":{"Station_ID":"MI-ME-11","Station_Nam":"BIG RAPIDS 5.4 S, MI","Latitude":"43.62630","Longitude":"-85.47600","Snowdepth":"3.800","Units":"in","Rept_Date":"2020-12-13 12"},"coordinates":[2751,4800]},{"type":"Point","properties":{"Station_ID":"MI-BG-3","Station_Nam":"THREE LAKES, MI","Latitude":"46.55730","Longitude":"-88.20770","Snowdepth":"3.800","Units":"in","Rept_Date":"2020-12-13 13"},"coordinates":[2109,6681]},{"type":"Point","properties":{"Station_ID":"WI-CB-1","Station_Nam":"COLUMBUS 1.2 S, WI","Latitude":"43.31887","Longitude":"-89.02680","Snowdepth":"3.600","Units":"in","Rept_Date":"2020-12-13 13"},"coordinates":[1917,4602]},{"type":"Point","properties":{"Station_ID":"MI-OG-6","Station_Nam":"WEST BRANCH 2.1 SSW, MI","Latitude":"44.24814","Longitude":"-84.25089","Snowdepth":"3.600","Units":"in","Rept_Date":"2020-12-13 13"},"coordinates":[3039,5199]},{"type":"Point","properties":{"Station_ID":"WI-WK-61","Station_Nam":"HARTLAND 5.0 NNE, WI","Latitude":"43.16351","Longitude":"-88.30400","Snowdepth":"3.500","Units":"in","Rept_Date":"2020-12-13 13"},"coordinates":[2087,4503]},{"type":"Point","properties":{"Station_ID":"WI-OZ-17","Station_Nam":"WEST BEND 7.3 E, WI","Latitude":"43.42860","Longitude":"-88.03870","Snowdepth":"3.500","Units":"in","Rept_Date":"2020-12-13 13"},"coordinates":[2149,4673]},{"type":"Point","properties":{"Station_ID":"WI-DA-86","Station_Nam":"COTTAGE GROVE 3.6 SSW, WI","Latitude":"43.03516","Longitude":"-89.22080","Snowdepth":"3.500","Units":"in","Rept_Date":"2020-12-13 13"},"coordinates":[1871,4420]},{"type":"Point","properties":{"Station_ID":"NH-HL-48","Station_Nam":"GREENVILLE 1.1 ENE, NH","Latitude":"42.77674","Longitude":"-71.77990","Snowdepth":"3.500","Units":"in","Rept_Date":"2020-12-13 13"},"coordinates":[5970,4254]},{"type":"Point","properties":{"Station_ID":"NH-GR-56","Station_Nam":"EASTON 0.6 ESE, NH","Latitude":"44.14790","Longitude":"-71.78950","Snowdepth":"3.500","Units":"in","Rept_Date":"2020-12-13 13"},"coordinates":[5967,5134]},{"type":"Point","properties":{"Station_ID":"MI-NW-8","Station_Nam":"WHITE CLOUD 7.5 ENE, MI","Latitude":"43.60630","Longitude":"-85.64190","Snowdepth":"3.500","Units":"in","Rept_Date":"2020-12-13 12"},"coordinates":[2712,4787]},{"type":"Point","properties":{"Station_ID":"MI-ME-12","Station_Nam":"BIG RAPIDS 3.1 SE, MI","Latitude":"43.67722","Longitude":"-85.43519","Snowdepth":"3.500","Units":"in","Rept_Date":"2020-12-13 12"},"coordinates":[2761,4832]},{"type":"Point","properties":{"Station_ID":"MI-GT-27","Station_Nam":"TRAVERSE CITY 4.7 W, MI","Latitude":"44.75372","Longitude":"-85.69934","Snowdepth":"3.500","Units":"in","Rept_Date":"2020-12-13 13"},"coordinates":[2699,5523]},{"type":"Point","properties":{"Station_ID":"ME-OX-29","Station_Nam":"SUMNER 1.1 N, ME","Latitude":"44.40840","Longitude":"-70.44010","Snowdepth":"3.500","Units":"in","Rept_Date":"2020-12-13 12"},"coordinates":[6285,5302]},{"type":"Point","properties":{"Station_ID":"ME-AN-43","Station_Nam":"LISBON 0.6 S, ME","Latitude":"44.02320","Longitude":"-70.10550","Snowdepth":"3.500","Units":"in","Rept_Date":"2020-12-13 12"},"coordinates":[6363,5054]},{"type":"Point","properties":{"Station_ID":"LANC007","Station_Nam":"DAVEY 1.2 NNW, NE","Latitude":"41.00320","Longitude":"-96.67630","Snowdepth":"3.500","Units":"in","Rept_Date":"2020-12-13 13"},"coordinates":[119,3116]},{"type":"Point","properties":{"Station_ID":"IL-SP-25","Station_Nam":"FREEPORT 1.7 NW, IL","Latitude":"42.30427","Longitude":"-89.66285","Snowdepth":"3.500","Units":"in","Rept_Date":"2020-12-13 13"},"coordinates":[1767,3951]},{"type":"Point","properties":{"Station_ID":"IA-HR-16","Station_Nam":"LOGAN 0.8 WNW, IA","Latitude":"41.65000","Longitude":"-95.80577","Snowdepth":"3.500","Units":"in","Rept_Date":"2020-12-13 13"},"coordinates":[324,3531]},{"type":"Point","properties":{"Station_ID":"IA-GT-7","Station_Nam":"BAGLEY 0.2 W, IA","Latitude":"41.84592","Longitude":"-94.43346","Snowdepth":"3.500","Units":"in","Rept_Date":"2020-12-13 14"},"coordinates":[646,3657]},{"type":"Point","properties":{"Station_ID":"CAN-NL-82","Station_Nam":"GANDER 2.7 NW, CAN","Latitude":"48.97737","Longitude":"-54.63396","Snowdepth":"3.500","Units":"in","Rept_Date":"2020-12-13 10"},"coordinates":[9999,8234]},{"type":"Point","properties":{"Station_ID":"QIQ","Station_Nam":"QIQ","Latitude":"49.82390","Longitude":"-68.54310","Snowdepth":"3.346","Units":"in","Rept_Date":"2020-12-13 12"},"coordinates":[6730,8778]},{"type":"Point","properties":{"Station_ID":"WI-WS-22","Station_Nam":"JACKSON 3.2 SE, WI","Latitude":"43.29373","Longitude":"-88.11280","Snowdepth":"3.300","Units":"in","Rept_Date":"2020-12-13 15"},"coordinates":[2132,4586]},{"type":"Point","properties":{"Station_ID":"MI-MC-3","Station_Nam":"CEDARVILLE 3.2 ESE, MI","Latitude":"45.98938","Longitude":"-84.29780","Snowdepth":"3.300","Units":"in","Rept_Date":"2020-12-13 13"},"coordinates":[3028,6316]},{"type":"Point","properties":{"Station_ID":"WI-WK-73","Station_Nam":"MENOMONEE FALLS 3.2 NNW, WI","Latitude":"43.18817","Longitude":"-88.15555","Snowdepth":"3.200","Units":"in","Rept_Date":"2020-12-13 13"},"coordinates":[2122,4518]},{"type":"Point","properties":{"Station_ID":"MI-EM-5","Station_Nam":"HARBOR SPRINGS 0.7 ENE, MI","Latitude":"45.43450","Longitude":"-84.97540","Snowdepth":"3.200","Units":"in","Rept_Date":"2020-12-13 12"},"coordinates":[2869,5960]},{"type":"Point","properties":{"Station_ID":"ME-CM-54","Station_Nam":"WINDHAM 3.9 NW, ME","Latitude":"43.85787","Longitude":"-70.46200","Snowdepth":"3.100","Units":"in","Rept_Date":"2020-12-13 12"},"coordinates":[6279,4948]},{"type":"Point","properties":{"Station_ID":"WNDM1","Station_Nam":"WINDHAM 2NW","Latitude":"43.85670","Longitude":"-70.46630","Snowdepth":"3.000","Units":"in","Rept_Date":"2020-12-13 12"},"coordinates":[6278,4947]},{"type":"Point","properties":{"Station_ID":"WI-WS-5","Station_Nam":"JACKSON 0.2 WSW, WI","Latitude":"43.32007","Longitude":"-88.16820","Snowdepth":"3.000","Units":"in","Rept_Date":"2020-12-13 12"},"coordinates":[2119,4603]},{"type":"Point","properties":{"Station_ID":"WI-WS-4","Station_Nam":"KEWASKUM 1.8 WNW, WI","Latitude":"43.52880","Longitude":"-88.26570","Snowdepth":"3.000","Units":"in","Rept_Date":"2020-12-13 13"},"coordinates":[2096,4737]},{"type":"Point","properties":{"Station_ID":"WI-WK-30","Station_Nam":"SUSSEX 3.4 W, WI","Latitude":"43.14425","Longitude":"-88.28540","Snowdepth":"3.000","Units":"in","Rept_Date":"2020-12-13 14"},"coordinates":[2091,4490]},{"type":"Point","properties":{"Station_ID":"WI-MC-15","Station_Nam":"VALDERS 3.3 WSW, WI","Latitude":"44.03991","Longitude":"-87.94202","Snowdepth":"3.000","Units":"in","Rept_Date":"2020-12-13 13"},"coordinates":[2172,5065]},{"type":"Point","properties":{"Station_ID":"WI-LF-5","Station_Nam":"BENTON 0.3 WNW, WI","Latitude":"42.57194","Longitude":"-90.38755","Snowdepth":"3.000","Units":"in","Rept_Date":"2020-12-13 14"},"coordinates":[1597,4123]},{"type":"Point","properties":{"Station_ID":"WI-CB-4","Station_Nam":"PORTAGE 5.7 WSW, WI","Latitude":"43.51411","Longitude":"-89.56910","Snowdepth":"3.000","Units":"in","Rept_Date":"2020-12-13 12"},"coordinates":[1789,4728]},{"type":"Point","properties":{"Station_ID":"VT-ES-3","Station_Nam":"LUNENBURG 2.3 NNW, VT","Latitude":"44.49324","Longitude":"-71.70446","Snowdepth":"3.000","Units":"in","Rept_Date":"2020-12-13 12"},"coordinates":[5987,5356]},{"type":"Point","properties":{"Station_ID":"UNDI4","Station_Nam":"UNDERWOOD","Latitude":"41.38940","Longitude":"-95.68110","Snowdepth":"3.000","Units":"in","Rept_Date":"2020-12-13 13"},"coordinates":[353,3364]},{"type":"Point","properties":{"Station_ID":"TOPM1","Station_Nam":"TOPSFIELD","Latitude":"45.43470","Longitude":"-67.72020","Snowdepth":"3.000","Units":"in","Rept_Date":"2020-12-13 12"},"coordinates":[6924,5960]},{"type":"Point","properties":{"Station_ID":"TCMM4","Station_Nam":"TRAVERSE CITY MUNSON","Latitude":"44.76070","Longitude":"-85.64430","Snowdepth":"3.000","Units":"in","Rept_Date":"2020-12-13 11"},"coordinates":[2712,5528]},{"type":"Point","properties":{"Station_ID":"SWHI4","Station_Nam":"SWISHER #2","Latitude":"41.84970","Longitude":"-91.67650","Snowdepth":"3.000","Units":"in","Rept_Date":"2020-12-13 15"},"coordinates":[1294,3659]},{"type":"Point","properties":{"Station_ID":"STIM4","Station_Nam":"ST IGNACE","Latitude":"45.86080","Longitude":"-84.71960","Snowdepth":"3.000","Units":"in","Rept_Date":"2020-12-13 12"},"coordinates":[2929,6234]},{"type":"Point","properties":{"Station_ID":"OK-KY-7","Station_Nam":"NEWKIRK 0.3 W, OK","Latitude":"36.88200","Longitude":"-97.06130","Snowdepth":"3.000","Units":"in","Rept_Date":"2020-12-13 14"},"coordinates":[29,471]},{"type":"Point","properties":{"Station_ID":"NH-HL-49","Station_Nam":"MONT VERNON 1.3 SSW, NH","Latitude":"42.87616","Longitude":"-71.68280","Snowdepth":"3.000","Units":"in","Rept_Date":"2020-12-13 13"},"coordinates":[5993,4318]},{"type":"Point","properties":{"Station_ID":"NH-CR-16","Station_Nam":"WOLFEBORO 0.6 SW, NH","Latitude":"43.58464","Longitude":"-71.21760","Snowdepth":"3.000","Units":"in","Rept_Date":"2020-12-13 12"},"coordinates":[6102,4773]},{"type":"Point","properties":{"Station_ID":"NE-SY-11","Station_Nam":"LA VISTA 2.0 WSW, NE","Latitude":"41.17702","Longitude":"-96.07571","Snowdepth":"3.000","Units":"in","Rept_Date":"2020-12-13 13"},"coordinates":[260,3227]},{"type":"Point","properties":{"Station_ID":"NE-SW-7","Station_Nam":"SEWARD 0.5 NE, NE","Latitude":"40.91689","Longitude":"-97.08981","Snowdepth":"3.000","Units":"in","Rept_Date":"2020-12-13 13"},"coordinates":[22,3061]},{"type":"Point","properties":{"Station_ID":"NE-LA-52","Station_Nam":"LINCOLN 1.2 ENE, NE","Latitude":"40.82411","Longitude":"-96.66780","Snowdepth":"3.000","Units":"in","Rept_Date":"2020-12-13 13"},"coordinates":[121,3001]},{"type":"Point","properties":{"Station_ID":"NE-LA-41","Station_Nam":"MALCOLM 0.3 SSE, NE","Latitude":"40.90461","Longitude":"-96.86279","Snowdepth":"3.000","Units":"in","Rept_Date":"2020-12-13 15"},"coordinates":[75,3053]},{"type":"Point","properties":{"Station_ID":"NE-LA-38","Station_Nam":"LINCOLN 4.6 S, NE","Latitude":"40.74920","Longitude":"-96.68970","Snowdepth":"3.000","Units":"in","Rept_Date":"2020-12-13 13"},"coordinates":[116,2953]},{"type":"Point","properties":{"Station_ID":"NE-DG-8","Station_Nam":"OMAHA 7.0 W, NE","Latitude":"41.27451","Longitude":"-96.14630","Snowdepth":"3.000","Units":"in","Rept_Date":"2020-12-13 13"},"coordinates":[244,3290]},{"type":"Point","properties":{"Station_ID":"NE-DG-19","Station_Nam":"ELKHORN 0.7 ENE, NE","Latitude":"41.28780","Longitude":"-96.22450","Snowdepth":"3.000","Units":"in","Rept_Date":"2020-12-13 13"},"coordinates":[225,3299]},{"type":"Point","properties":{"Station_ID":"NAZW3","Station_Nam":"ST. NAZIANZ-2 W","Latitude":"44.00420","Longitude":"-87.96360","Snowdepth":"3.000","Units":"in","Rept_Date":"2020-12-13 13"},"coordinates":[2167,5042]},{"type":"Point","properties":{"Station_ID":"MSHI4","Station_Nam":"MARSHALLTOWN,IA","Latitude":"42.06670","Longitude":"-92.93330","Snowdepth":"3.000","Units":"in","Rept_Date":"2020-12-13 13"},"coordinates":[999,3799]},{"type":"Point","properties":{"Station_ID":"MN-CN-36","Station_Nam":"CLOQUET 3.4 ENE, MN","Latitude":"46.74146","Longitude":"-92.42698","Snowdepth":"3.000","Units":"in","Rept_Date":"2020-12-13 13"},"coordinates":[1118,6799]},{"type":"Point","properties":{"Station_ID":"MI-MC-4","Station_Nam":"ST. IGNACE 0.5SE, MI","Latitude":"45.86057","Longitude":"-84.71980","Snowdepth":"3.000","Units":"in","Rept_Date":"2020-12-13 12"},"coordinates":[2929,6234]},{"type":"Point","properties":{"Station_ID":"MI-CX-7","Station_Nam":"EAST JORDAN 2.1 NNW, MI","Latitude":"45.18639","Longitude":"-85.14750","Snowdepth":"3.000","Units":"in","Rept_Date":"2020-12-13 13"},"coordinates":[2828,5801]},{"type":"Point","properties":{"Station_ID":"MI-CX-4","Station_Nam":"CHARLEVOIX 4.3 SSE, MI","Latitude":"45.25720","Longitude":"-85.21650","Snowdepth":"3.000","Units":"in","Rept_Date":"2020-12-13 12"},"coordinates":[2812,5846]},{"type":"Point","properties":{"Station_ID":"ME-CM-137","Station_Nam":"GRAY 1.5 NE, ME","Latitude":"43.90034","Longitude":"-70.30883","Snowdepth":"3.000","Units":"in","Rept_Date":"2020-12-13 12"},"coordinates":[6315,4975]},{"type":"Point","properties":{"Station_ID":"MA-WR-54","Station_Nam":"BARRE 1.4 NNE, MA","Latitude":"42.44082","Longitude":"-72.09591","Snowdepth":"3.000","Units":"in","Rept_Date":"2020-12-13 12"},"coordinates":[5895,4039]},{"type":"Point","properties":{"Station_ID":"LOGI4","Station_Nam":"LOGAN,IA","Latitude":"41.63330","Longitude":"-95.81670","Snowdepth":"3.000","Units":"in","Rept_Date":"2020-12-13 13"},"coordinates":[321,3520]},{"type":"Point","properties":{"Station_ID":"LNCM1","Station_Nam":"LINCOLN WATER DISTRICT","Latitude":"45.32410","Longitude":"-68.58300","Snowdepth":"3.000","Units":"in","Rept_Date":"2020-12-13 13"},"coordinates":[6721,5889]},{"type":"Point","properties":{"Station_ID":"LEIM5","Station_Nam":"ORR 3E","Latitude":"48.05810","Longitude":"-92.75220","Snowdepth":"3.000","Units":"in","Rept_Date":"2020-12-13 12"},"coordinates":[1041,7644]},{"type":"Point","properties":{"Station_ID":"JFNW3","Station_Nam":"JEFFERSON - WWTP","Latitude":"42.99470","Longitude":"-88.80390","Snowdepth":"3.000","Units":"in","Rept_Date":"2020-12-13 13"},"coordinates":[1969,4394]},{"type":"Point","properties":{"Station_ID":"IL-SP-27","Station_Nam":"DAVIS 2.7 N, IL","Latitude":"42.46110","Longitude":"-89.40890","Snowdepth":"3.000","Units":"in","Rept_Date":"2020-12-13 13"},"coordinates":[1827,4052]},{"type":"Point","properties":{"Station_ID":"IL-JD-6","Station_Nam":"HANOVER 0.2 NW, IL","Latitude":"42.25640","Longitude":"-90.28109","Snowdepth":"3.000","Units":"in","Rept_Date":"2020-12-13 13"},"coordinates":[1622,3920]},{"type":"Point","properties":{"Station_ID":"IL-CR-12","Station_Nam":"MOUNT CARROLL 6.8 NNW, IL","Latitude":"42.18735","Longitude":"-90.02185","Snowdepth":"3.000","Units":"in","Rept_Date":"2020-12-13 13"},"coordinates":[1683,3876]},{"type":"Point","properties":{"Station_ID":"IA-WR-5","Station_Nam":"HARTFORD 1.0 E, IA","Latitude":"41.46014","Longitude":"-93.38550","Snowdepth":"3.000","Units":"in","Rept_Date":"2020-12-13 14"},"coordinates":[892,3409]},{"type":"Point","properties":{"Station_ID":"IA-PT-13","Station_Nam":"COUNCIL BLUFFS 2.1 SSE, IA","Latitude":"41.21159","Longitude":"-95.84800","Snowdepth":"3.000","Units":"in","Rept_Date":"2020-12-13 14"},"coordinates":[314,3250]},{"type":"Point","properties":{"Station_ID":"IA-LN-53","Station_Nam":"ROBINS 0.8 SE, IA","Latitude":"42.06960","Longitude":"-91.66042","Snowdepth":"3.000","Units":"in","Rept_Date":"2020-12-13 13"},"coordinates":[1298,3800]},{"type":"Point","properties":{"Station_ID":"IA-JH-14","Station_Nam":"SWISHER 0.4 NNE, IA","Latitude":"41.84830","Longitude":"-91.69210","Snowdepth":"3.000","Units":"in","Rept_Date":"2020-12-13 15"},"coordinates":[1290,3658]},{"type":"Point","properties":{"Station_ID":"IA-DV-7","Station_Nam":"BLOOMFIELD 4.2 WNW, IA","Latitude":"40.77675","Longitude":"-92.48850","Snowdepth":"3.000","Units":"in","Rept_Date":"2020-12-13 13"},"coordinates":[1103,2971]},{"type":"Point","properties":{"Station_ID":"IA-CL-4","Station_Nam":"MURRAY 1.7 W, IA","Latitude":"41.04128","Longitude":"-93.98046","Snowdepth":"3.000","Units":"in","Rept_Date":"2020-12-13 13"},"coordinates":[753,3140]},{"type":"Point","properties":{"Station_ID":"IA-BN-12","Station_Nam":"BOONE 4.5 WSW, IA","Latitude":"42.03152","Longitude":"-93.96190","Snowdepth":"3.000","Units":"in","Rept_Date":"2020-12-13 13"},"coordinates":[757,3776]},{"type":"Point","properties":{"Station_ID":"HRFI4","Station_Nam":"HARTFORD,IA","Latitude":"41.46670","Longitude":"-93.41670","Snowdepth":"3.000","Units":"in","Rept_Date":"2020-12-13 14"},"coordinates":[885,3413]},{"type":"Point","properties":{"Station_ID":"HARW3","Station_Nam":"HARTFORD,WI","Latitude":"43.31670","Longitude":"-88.40000","Snowdepth":"3.000","Units":"in","Rept_Date":"2020-12-13 15"},"coordinates":[2064,4601]},{"type":"Point","properties":{"Station_ID":"GYX","Station_Nam":"PORTLAND, ME","Latitude":"43.89250","Longitude":"-70.25500","Snowdepth":"3.000","Units":"in","Rept_Date":"2020-12-13 12"},"coordinates":[6328,4970]},{"type":"Point","properties":{"Station_ID":"GRAN1","Station_Nam":"GRETNA,NE","Latitude":"41.20000","Longitude":"-96.20000","Snowdepth":"3.000","Units":"in","Rept_Date":"2020-12-13 14"},"coordinates":[231,3242]},{"type":"Point","properties":{"Station_ID":"FREM4","Station_Nam":"FREMONT,MI","Latitude":"43.45000","Longitude":"-86.03330","Snowdepth":"3.000","Units":"in","Rept_Date":"2020-12-13 12"},"coordinates":[2620,4686]},{"type":"Point","properties":{"Station_ID":"FMTN1","Station_Nam":"FREMONT,NE","Latitude":"41.43330","Longitude":"-96.48330","Snowdepth":"3.000","Units":"in","Rept_Date":"2020-12-13 13"},"coordinates":[165,3392]},{"type":"Point","properties":{"Station_ID":"FDCW3","Station_Nam":"FOND DU LAC-MID","Latitude":"43.63330","Longitude":"-88.45000","Snowdepth":"3.000","Units":"in","Rept_Date":"2020-12-14 06"},"coordinates":[2052,4804]},{"type":"Point","properties":{"Station_ID":"FCLN1","Station_Nam":"FT CALHOUN 4W","Latitude":"41.44670","Longitude":"-96.09190","Snowdepth":"3.000","Units":"in","Rept_Date":"2020-12-13 13"},"coordinates":[256,3401]},{"type":"Point","properties":{"Station_ID":"FCDW3","Station_Nam":"FOND DU LAC-AM","Latitude":"43.76670","Longitude":"-88.46670","Snowdepth":"3.000","Units":"in","Rept_Date":"2020-12-13 13"},"coordinates":[2048,4890]},{"type":"Point","properties":{"Station_ID":"FATW3","Station_Nam":"FORT ATKINSON,WI","Latitude":"42.88330","Longitude":"-88.83330","Snowdepth":"3.000","Units":"in","Rept_Date":"2020-12-13 12"},"coordinates":[1962,4323]},{"type":"Point","properties":{"Station_ID":"FARM1","Station_Nam":"FARMINGTON","Latitude":"44.68930","Longitude":"-70.15640","Snowdepth":"3.000","Units":"in","Rept_Date":"2020-12-13 12"},"coordinates":[6351,5482]},{"type":"Point","properties":{"Station_ID":"EJNM4","Station_Nam":"EAST JORDAN 2NW","Latitude":"45.18630","Longitude":"-85.14770","Snowdepth":"3.000","Units":"in","Rept_Date":"2020-12-13 13"},"coordinates":[2828,5801]},{"type":"Point","properties":{"Station_ID":"DURM1","Station_Nam":"DURHAM","Latitude":"43.99960","Longitude":"-70.09630","Snowdepth":"3.000","Units":"in","Rept_Date":"2020-12-13 12"},"coordinates":[6365,5039]},{"type":"Point","properties":{"Station_ID":"DARW3","Station_Nam":"DARLINGTON","Latitude":"42.67780","Longitude":"-90.11860","Snowdepth":"3.000","Units":"in","Rept_Date":"2020-12-13 15"},"coordinates":[1660,4191]},{"type":"Point","properties":{"Station_ID":"CRPI4","Station_Nam":"CEDAR RAPIDS NO 1","Latitude":"42.05000","Longitude":"-91.58810","Snowdepth":"3.000","Units":"in","Rept_Date":"2020-12-13 23"},"coordinates":[1315,3788]},{"type":"Point","properties":{"Station_ID":"CRNI4","Station_Nam":"CORNING","Latitude":"40.98860","Longitude":"-94.74910","Snowdepth":"3.000","Units":"in","Rept_Date":"2020-12-13 13"},"coordinates":[572,3107]},{"type":"Point","properties":{"Station_ID":"CAN-ON-771","Station_Nam":"KENORA 8.7 NNE - CANWARN, CAN","Latitude":"49.84171","Longitude":"-94.44386","Snowdepth":"3.000","Units":"in","Rept_Date":"2020-12-13 13"},"coordinates":[644,8789]},{"type":"Point","properties":{"Station_ID":"CAN-ON-245","Station_Nam":"PHELPSTON 3.1 ESE, CAN","Latitude":"44.50564","Longitude":"-79.81035","Snowdepth":"3.000","Units":"in","Rept_Date":"2020-12-13 13"},"coordinates":[4083,5364]},{"type":"Point","properties":{"Station_ID":"BROW3","Station_Nam":"BRODHEAD,WI","Latitude":"42.61720","Longitude":"-89.38970","Snowdepth":"3.000","Units":"in","Rept_Date":"2020-12-13 12"},"coordinates":[1831,4152]},{"type":"Point","properties":{"Station_ID":"BEUM4","Station_Nam":"BEULAH 7SSW","Latitude":"44.53160","Longitude":"-86.13110","Snowdepth":"3.000","Units":"in","Rept_Date":"2020-12-13 13"},"coordinates":[2597,5381]},{"type":"Point","properties":{"Station_ID":"BETM1","Station_Nam":"BETHEL 6 SSE","Latitude":"44.32000","Longitude":"-70.75680","Snowdepth":"3.000","Units":"in","Rept_Date":"2020-12-13 12"},"coordinates":[6210,5245]},{"type":"Point","properties":{"Station_ID":"ASBM3","Station_Nam":"ASHBURNHAM","Latitude":"42.61780","Longitude":"-71.91590","Snowdepth":"3.000","Units":"in","Rept_Date":"2020-12-13 12"},"coordinates":[5938,4152]},{"type":"Point","properties":{"Station_ID":"AESI4","Station_Nam":"BLO SQUAW CK ON THE SOUTH SKUNK R.","Latitude":"41.96250","Longitude":"-93.56110","Snowdepth":"3.000","Units":"in","Rept_Date":"2020-12-13 12"},"coordinates":[851,3732]},{"type":"Point","properties":{"Station_ID":"MA-WR-88","Station_Nam":"LEICESTER 2.5 WSW, MA","Latitude":"42.23742","Longitude":"-71.94612","Snowdepth":"2.900","Units":"in","Rept_Date":"2020-12-13 12"},"coordinates":[5931,3908]},{"type":"Point","properties":{"Station_ID":"IA-CL-3","Station_Nam":"MURRAY 0.5 N, IA","Latitude":"41.04831","Longitude":"-93.94960","Snowdepth":"2.800","Units":"in","Rept_Date":"2020-12-13 13"},"coordinates":[760,3145]},{"type":"Point","properties":{"Station_ID":"IA-BT-12","Station_Nam":"FAIRFAX 4.0 NW, IA","Latitude":"41.96223","Longitude":"-91.83675","Snowdepth":"2.800","Units":"in","Rept_Date":"2020-12-13 13"},"coordinates":[1256,3731]},{"type":"Point","properties":{"Station_ID":"NE-LA-64","Station_Nam":"DAVEY 3.7 S, NE","Latitude":"40.92966","Longitude":"-96.65748","Snowdepth":"2.700","Units":"in","Rept_Date":"2020-12-13 13"},"coordinates":[124,3069]},{"type":"Point","properties":{"Station_ID":"MI-IC-6","Station_Nam":"NATIONAL CITY 4.5 NNE, MI","Latitude":"44.29330","Longitude":"-83.68410","Snowdepth":"2.600","Units":"in","Rept_Date":"2020-12-13 14"},"coordinates":[3172,5228]},{"type":"Point","properties":{"Station_ID":"WI-SK-2","Station_Nam":"ROCK SPRINGS 2.8 WSW, WI","Latitude":"43.45901","Longitude":"-89.96540","Snowdepth":"2.500","Units":"in","Rept_Date":"2020-12-13 13"},"coordinates":[1696,4692]},{"type":"Point","properties":{"Station_ID":"WI-RK-12","Station_Nam":"JANESVILLE 3.1 W, WI","Latitude":"42.67576","Longitude":"-89.07614","Snowdepth":"2.500","Units":"in","Rept_Date":"2020-12-13 13"},"coordinates":[1905,4189]},{"type":"Point","properties":{"Station_ID":"WI-DL-18","Station_Nam":"ELDORADO 2.3 S, WI","Latitude":"43.79206","Longitude":"-88.61655","Snowdepth":"2.500","Units":"in","Rept_Date":"2020-12-13 14"},"coordinates":[2013,4906]},{"type":"Point","properties":{"Station_ID":"NE-LA-19","Station_Nam":"LINCOLN 6.8 SE, NE","Latitude":"40.74944","Longitude":"-96.59280","Snowdepth":"2.500","Units":"in","Rept_Date":"2020-12-13 13"},"coordinates":[139,2953]},{"type":"Point","properties":{"Station_ID":"IL-HY-15","Station_Nam":"COAL VALLEY 2.6 E, IL","Latitude":"41.44513","Longitude":"-90.39730","Snowdepth":"2.500","Units":"in","Rept_Date":"2020-12-13 14"},"coordinates":[1595,3400]},{"type":"Point","properties":{"Station_ID":"IA-SH-6","Station_Nam":"KIRKMAN 1.0 SE, IA","Latitude":"41.71810","Longitude":"-95.25310","Snowdepth":"2.500","Units":"in","Rept_Date":"2020-12-13 13"},"coordinates":[454,3575]},{"type":"Point","properties":{"Station_ID":"CAN-ON-620","Station_Nam":"GOODERHAM 3.4 SSW, CAN","Latitude":"44.87690","Longitude":"-78.39265","Snowdepth":"2.500","Units":"in","Rept_Date":"2020-12-13 13"},"coordinates":[4416,5602]},{"type":"Point","properties":{"Station_ID":"WI-GL-4","Station_Nam":"GREEN LAKE 0.8 E, WI","Latitude":"43.84369","Longitude":"-88.94066","Snowdepth":"2.100","Units":"in","Rept_Date":"2020-12-13 13"},"coordinates":[1937,4939]},{"type":"Point","properties":{"Station_ID":"WRUM5","Station_Nam":"WARROAD 4W","Latitude":"48.89600","Longitude":"-95.40700","Snowdepth":"2.000","Units":"in","Rept_Date":"2020-12-14 04"},"coordinates":[417,8182]},{"type":"Point","properties":{"Station_ID":"WRSM5","Station_Nam":"WRENSHALL","Latitude":"46.61550","Longitude":"-92.38380","Snowdepth":"2.000","Units":"in","Rept_Date":"2020-12-13 14"},"coordinates":[1128,6718]},{"type":"Point","properties":{"Station_ID":"WI-WW-14","Station_Nam":"DARIEN 1.6 NNE, WI","Latitude":"42.62361","Longitude":"-88.70083","Snowdepth":"2.000","Units":"in","Rept_Date":"2020-12-13 13"},"coordinates":[1993,4156]},{"type":"Point","properties":{"Station_ID":"WI-WS-16","Station_Nam":"GERMANTOWN 1.3 NE, WI","Latitude":"43.23127","Longitude":"-88.10234","Snowdepth":"2.000","Units":"in","Rept_Date":"2020-12-13 12"},"coordinates":[2134,4546]},{"type":"Point","properties":{"Station_ID":"WI-SK-15","Station_Nam":"REEDSBURG 1.3 N, WI","Latitude":"43.55348","Longitude":"-89.99739","Snowdepth":"2.000","Units":"in","Rept_Date":"2020-12-13 13"},"coordinates":[1689,4753]},{"type":"Point","properties":{"Station_ID":"WI-RK-16","Station_Nam":"JANESVILLE 2.7 ENE, WI","Latitude":"42.69228","Longitude":"-88.96319","Snowdepth":"2.000","Units":"in","Rept_Date":"2020-12-13 14"},"coordinates":[1932,4200]},{"type":"Point","properties":{"Station_ID":"WI-OG-12","Station_Nam":"KAUKAUNA 1.5 SW, WI","Latitude":"44.26062","Longitude":"-88.28590","Snowdepth":"2.000","Units":"in","Rept_Date":"2020-12-13 10"},"coordinates":[2091,5207]},{"type":"Point","properties":{"Station_ID":"VT-OL-12","Station_Nam":"GREENSBORO 3.9 NNE, VT","Latitude":"44.63100","Longitude":"-72.28000","Snowdepth":"2.000","Units":"in","Rept_Date":"2020-12-13 13"},"coordinates":[5852,5444]},{"type":"Point","properties":{"Station_ID":"VOLI4","Station_Nam":"VOLGA 1NE","Latitude":"42.81150","Longitude":"-91.52300","Snowdepth":"2.000","Units":"in","Rept_Date":"2020-12-13 13"},"coordinates":[1330,4277]},{"type":"Point","properties":{"Station_ID":"VNTI4","Station_Nam":"VINTON","Latitude":"42.17020","Longitude":"-92.00770","Snowdepth":"2.000","Units":"in","Rept_Date":"2020-12-13 13"},"coordinates":[1216,3865]},{"type":"Point","properties":{"Station_ID":"TLDI4","Station_Nam":"TOLEDO,IA","Latitude":"41.98330","Longitude":"-92.58330","Snowdepth":"2.000","Units":"in","Rept_Date":"2020-12-13 13"},"coordinates":[1081,3745]},{"type":"Point","properties":{"Station_ID":"TCMN1","Station_Nam":"TECUMSEH,NE","Latitude":"40.36670","Longitude":"-96.18330","Snowdepth":"2.000","Units":"in","Rept_Date":"2020-12-13 14"},"coordinates":[235,2707]},{"type":"Point","properties":{"Station_ID":"SPNN1","Station_Nam":"MAHA SCOUT CAMP","Latitude":"41.06390","Longitude":"-96.00690","Snowdepth":"2.000","Units":"in","Rept_Date":"2020-12-13 14"},"coordinates":[276,3155]},{"type":"Point","properties":{"Station_ID":"SNYI4","Station_Nam":"STANLEY","Latitude":"42.63330","Longitude":"-91.86320","Snowdepth":"2.000","Units":"in","Rept_Date":"2020-12-13 13"},"coordinates":[1250,4162]},{"type":"Point","properties":{"Station_ID":"SFVC3","Station_Nam":"STAFFORDVILLE","Latitude":"41.99840","Longitude":"-72.26060","Snowdepth":"2.000","Units":"in","Rept_Date":"2020-12-13 10"},"coordinates":[5857,3755]},{"type":"Point","properties":{"Station_ID":"SDHI4","Station_Nam":"SHENANDOAH,IA","Latitude":"40.78330","Longitude":"-95.35000","Snowdepth":"2.000","Units":"in","Rept_Date":"2020-12-13 14"},"coordinates":[431,2975]},{"type":"Point","properties":{"Station_ID":"SBNW3","Station_Nam":"STEUBEN 4SE","Latitude":"43.13430","Longitude":"-90.83720","Snowdepth":"2.000","Units":"in","Rept_Date":"2020-12-13 14"},"coordinates":[1491,4484]},{"type":"Point","properties":{"Station_ID":"ROCW3","Station_Nam":"ROCHESTER WWTP","Latitude":"42.72690","Longitude":"-88.22580","Snowdepth":"2.000","Units":"in","Rept_Date":"2020-12-13 14"},"coordinates":[2105,4222]},{"type":"Point","properties":{"Station_ID":"RBGW3","Station_Nam":"REEDSBURG","Latitude":"43.52060","Longitude":"-89.99970","Snowdepth":"2.000","Units":"in","Rept_Date":"2020-12-13 13"},"coordinates":[1688,4732]},{"type":"Point","properties":{"Station_ID":"QCAI2","Station_Nam":"MOLINE SNOW","Latitude":"41.39990","Longitude":"-90.54800","Snowdepth":"2.000","Units":"in","Rept_Date":"2020-12-14 00"},"coordinates":[1559,3371]},{"type":"Point","properties":{"Station_ID":"PYRW3","Station_Nam":"PALMYRA WWTP","Latitude":"42.88720","Longitude":"-88.58310","Snowdepth":"2.000","Units":"in","Rept_Date":"2020-12-13 13"},"coordinates":[2021,4325]},{"type":"Point","properties":{"Station_ID":"PORW3","Station_Nam":"PORTAGE,WI","Latitude":"43.53190","Longitude":"-89.43780","Snowdepth":"2.000","Units":"in","Rept_Date":"2020-12-13 14"},"coordinates":[1820,4739]},{"type":"Point","properties":{"Station_ID":"PDLM4","Station_Nam":"PAINESDALE","Latitude":"47.04160","Longitude":"-88.67170","Snowdepth":"2.000","Units":"in","Rept_Date":"2020-12-13 13"},"coordinates":[2000,6992]},{"type":"Point","properties":{"Station_ID":"ONCW3","Station_Nam":"SOUTH","Latitude":"43.11170","Longitude":"-88.49970","Snowdepth":"2.000","Units":"in","Rept_Date":"2020-12-13 13"},"coordinates":[2041,4469]},{"type":"Point","properties":{"Station_ID":"OAX","Station_Nam":"OMAHA, NE","Latitude":"41.32000","Longitude":"-96.36670","Snowdepth":"2.000","Units":"in","Rept_Date":"2020-12-14 00"},"coordinates":[192,3319]},{"type":"Point","properties":{"Station_ID":"OAKI4","Station_Nam":"OAKLAND,IA","Latitude":"41.31330","Longitude":"-95.39060","Snowdepth":"2.000","Units":"in","Rept_Date":"2020-12-13 13"},"coordinates":[421,3315]},{"type":"Point","properties":{"Station_ID":"NUMN3","Station_Nam":"NORTHUMBERLAND","Latitude":"44.52830","Longitude":"-71.50440","Snowdepth":"2.000","Units":"in","Rept_Date":"2020-12-13 12"},"coordinates":[6034,5379]},{"type":"Point","properties":{"Station_ID":"NH-RC-79","Station_Nam":"NOTTINGHAM 1.2 S, NH","Latitude":"43.09778","Longitude":"-71.10256","Snowdepth":"2.000","Units":"in","Rept_Date":"2020-12-13 13"},"coordinates":[6129,4460]},{"type":"Point","properties":{"Station_ID":"NH-MR-45","Station_Nam":"NORTHFIELD 2.8 E, NH","Latitude":"43.43945","Longitude":"-71.53730","Snowdepth":"2.000","Units":"in","Rept_Date":"2020-12-13 12"},"coordinates":[6027,4680]},{"type":"Point","properties":{"Station_ID":"NH-MR-4","Station_Nam":"BOW 1.6 NW, NH","Latitude":"43.14994","Longitude":"-71.55650","Snowdepth":"2.000","Units":"in","Rept_Date":"2020-12-13 13"},"coordinates":[6022,4494]},{"type":"Point","properties":{"Station_ID":"NE-SY-18","Station_Nam":"PAPILLION 0.8 WSW, NE","Latitude":"41.15318","Longitude":"-96.05580","Snowdepth":"2.000","Units":"in","Rept_Date":"2020-12-13 13"},"coordinates":[265,3212]},{"type":"Point","properties":{"Station_ID":"NE-DD-3","Station_Nam":"FREMONT 0.6 S, NE","Latitude":"41.43141","Longitude":"-96.49210","Snowdepth":"2.000","Units":"in","Rept_Date":"2020-12-13 13"},"coordinates":[162,3391]},{"type":"Point","properties":{"Station_ID":"MNSM4","Station_Nam":"MUNISING","Latitude":"46.41210","Longitude":"-86.66250","Snowdepth":"2.000","Units":"in","Rept_Date":"2020-12-13 12"},"coordinates":[2472,6588]},{"type":"Point","properties":{"Station_ID":"MLI","Station_Nam":"QUAD CITY INTL","Latitude":"41.44860","Longitude":"-90.50750","Snowdepth":"2.000","Units":"in","Rept_Date":"2020-12-14 00"},"coordinates":[1569,3402]},{"type":"Point","properties":{"Station_ID":"MI-HG-20","Station_Nam":"CALUMET 1.1 SSW, MI","Latitude":"47.23165","Longitude":"-88.45823","Snowdepth":"2.000","Units":"in","Rept_Date":"2020-12-13 11"},"coordinates":[2050,7114]},{"type":"Point","properties":{"Station_ID":"MHT","Station_Nam":"MANCHESTER AIRPORT GRENIER INDSTRL ARPK","Latitude":"42.93440","Longitude":"-71.43690","Snowdepth":"2.000","Units":"in","Rept_Date":"2020-12-13 12"},"coordinates":[6050,4355]},{"type":"Point","properties":{"Station_ID":"ME-YK-67","Station_Nam":"CORNISH 5.6 ESE, ME","Latitude":"43.78308","Longitude":"-70.69539","Snowdepth":"2.000","Units":"in","Rept_Date":"2020-12-13 12"},"coordinates":[6225,4900]},{"type":"Point","properties":{"Station_ID":"ME-CM-86","Station_Nam":"POWNAL 4.1 S, ME","Latitude":"43.85370","Longitude":"-70.17210","Snowdepth":"2.000","Units":"in","Rept_Date":"2020-12-13 13"},"coordinates":[6348,4946]},{"type":"Point","properties":{"Station_ID":"ME-CM-3","Station_Nam":"NEW GLOUCESTER 3.0 SE, ME","Latitude":"43.92372","Longitude":"-70.25790","Snowdepth":"2.000","Units":"in","Rept_Date":"2020-12-13 12"},"coordinates":[6327,4990]},{"type":"Point","properties":{"Station_ID":"ME-AN-41","Station_Nam":"AUBURN 2.1 NNW, ME","Latitude":"44.11275","Longitude":"-70.26452","Snowdepth":"2.000","Units":"in","Rept_Date":"2020-12-13 12"},"coordinates":[6326,5112]},{"type":"Point","properties":{"Station_ID":"MA-WR-75","Station_Nam":"WARREN 2.4 WSW, MA","Latitude":"42.20400","Longitude":"-72.23540","Snowdepth":"2.000","Units":"in","Rept_Date":"2020-12-13 13"},"coordinates":[5863,3887]},{"type":"Point","properties":{"Station_ID":"MA-WR-58","Station_Nam":"LUNENBURG 0.6 NE, MA","Latitude":"42.60180","Longitude":"-71.71653","Snowdepth":"2.000","Units":"in","Rept_Date":"2020-12-13 13"},"coordinates":[5985,4142]},{"type":"Point","properties":{"Station_ID":"MA-WR-56","Station_Nam":"STERLING 4.3 NW, MA","Latitude":"42.47540","Longitude":"-71.81140","Snowdepth":"2.000","Units":"in","Rept_Date":"2020-12-13 12"},"coordinates":[5962,4061]},{"type":"Point","properties":{"Station_ID":"LVRM1","Station_Nam":"LIVERMORE FALLS 1 E","Latitude":"44.47160","Longitude":"-70.15940","Snowdepth":"2.000","Units":"in","Rept_Date":"2020-12-13 12"},"coordinates":[6351,5342]},{"type":"Point","properties":{"Station_ID":"LNK","Station_Nam":"LINCOLN MUNICIPAL AIRPORT","Latitude":"40.85080","Longitude":"-96.75920","Snowdepth":"2.000","Units":"in","Rept_Date":"2020-12-14 00"},"coordinates":[100,3018]},{"type":"Point","properties":{"Station_ID":"LGEW3","Station_Nam":"LAKE GENEVA, WI","Latitude":"42.60000","Longitude":"-88.43440","Snowdepth":"2.000","Units":"in","Rept_Date":"2020-12-13 13"},"coordinates":[2056,4141]},{"type":"Point","properties":{"Station_ID":"KNXI4","Station_Nam":"KNOXVILLE,IA","Latitude":"41.31670","Longitude":"-93.13330","Snowdepth":"2.000","Units":"in","Rept_Date":"2020-12-13 14"},"coordinates":[952,3317]},{"type":"Point","properties":{"Station_ID":"KISM4","Station_Nam":"K.I. SAWYER WWTP","Latitude":"46.33410","Longitude":"-87.37790","Snowdepth":"2.000","Units":"in","Rept_Date":"2020-12-13 13"},"coordinates":[2304,6538]},{"type":"Point","properties":{"Station_ID":"JAPN3","Station_Nam":"JAFFREY SILVER RANCH AIRPARK","Latitude":"42.80880","Longitude":"-72.00530","Snowdepth":"2.000","Units":"in","Rept_Date":"2020-12-13 12"},"coordinates":[5917,4275]},{"type":"Point","properties":{"Station_ID":"JACW3","Station_Nam":"JACKSON","Latitude":"43.31940","Longitude":"-88.16810","Snowdepth":"2.000","Units":"in","Rept_Date":"2020-12-13 12"},"coordinates":[2119,4603]},{"type":"Point","properties":{"Station_ID":"INL","Station_Nam":"FALLS INTERNATIONAL ARPT","Latitude":"48.56640","Longitude":"-93.40310","Snowdepth":"2.000","Units":"in","Rept_Date":"2020-12-14 00"},"coordinates":[888,7970]},{"type":"Point","properties":{"Station_ID":"IL-SP-26","Station_Nam":"FREEPORT 2.9 WSW, IL","Latitude":"42.26779","Longitude":"-89.68323","Snowdepth":"2.000","Units":"in","Rept_Date":"2020-12-13 14"},"coordinates":[1763,3928]},{"type":"Point","properties":{"Station_ID":"IFSM5","Station_Nam":"INTERNATIONAL FALLS SNOW","Latitude":"48.57780","Longitude":"-93.39640","Snowdepth":"2.000","Units":"in","Rept_Date":"2020-12-14 06"},"coordinates":[890,7978]},{"type":"Point","properties":{"Station_ID":"ICYI4","Station_Nam":"IOWA CITY","Latitude":"41.60930","Longitude":"-91.50510","Snowdepth":"2.000","Units":"in","Rept_Date":"2020-12-13 13"},"coordinates":[1334,3505]},{"type":"Point","properties":{"Station_ID":"IA-TY-2","Station_Nam":"NEW MARKET 4.7 N, IA","Latitude":"40.80060","Longitude":"-94.91020","Snowdepth":"2.000","Units":"in","Rept_Date":"2020-12-13 13"},"coordinates":[534,2986]},{"type":"Point","properties":{"Station_ID":"IA-BH-6","Station_Nam":"WATERLOO 1.9 SSE, IA","Latitude":"42.46500","Longitude":"-92.34100","Snowdepth":"2.000","Units":"in","Rept_Date":"2020-12-13 13"},"coordinates":[1138,4054]},{"type":"Point","properties":{"Station_ID":"IA-BH-17","Station_Nam":"GILBERTVILLE 1.0 NW, IA","Latitude":"42.43070","Longitude":"-92.22526","Snowdepth":"2.000","Units":"in","Rept_Date":"2020-12-13 14"},"coordinates":[1165,4032]},{"type":"Point","properties":{"Station_ID":"HUDN3","Station_Nam":"HUDSON 1 SSE","Latitude":"42.78300","Longitude":"-71.41480","Snowdepth":"2.000","Units":"in","Rept_Date":"2020-12-13 12"},"coordinates":[6056,4258]},{"type":"Point","properties":{"Station_ID":"HUBN3","Station_Nam":"HUBBARD BROOK","Latitude":"43.93330","Longitude":"-71.71670","Snowdepth":"2.000","Units":"in","Rept_Date":"2020-12-14 04"},"coordinates":[5985,4997]},{"type":"Point","properties":{"Station_ID":"HGHN6","Station_Nam":"HIGHMARKET","Latitude":"43.60510","Longitude":"-75.55430","Snowdepth":"2.000","Units":"in","Rept_Date":"2020-12-13 11"},"coordinates":[5083,4786]},{"type":"Point","properties":{"Station_ID":"HERM4","Station_Nam":"HERMAN,MI","Latitude":"46.65000","Longitude":"-88.33330","Snowdepth":"2.000","Units":"in","Rept_Date":"2020-12-13 13"},"coordinates":[2080,6740]},{"type":"Point","properties":{"Station_ID":"HEBI2","Station_Nam":"HEBRON","Latitude":"42.46750","Longitude":"-88.48060","Snowdepth":"2.000","Units":"in","Rept_Date":"2020-12-13 13"},"coordinates":[2045,4056]},{"type":"Point","properties":{"Station_ID":"DTVM4","Station_Nam":"DETOUR VILLAGE","Latitude":"45.99830","Longitude":"-83.90130","Snowdepth":"2.000","Units":"in","Rept_Date":"2020-12-13 13"},"coordinates":[3121,6322]},{"type":"Point","properties":{"Station_ID":"DENW3","Station_Nam":"DENMARK WWTP","Latitude":"44.35130","Longitude":"-87.81190","Snowdepth":"2.000","Units":"in","Rept_Date":"2020-12-13 13"},"coordinates":[2202,5265]},{"type":"Point","properties":{"Station_ID":"CT-TL-2","Station_Nam":"STAFFORDVILLE 0.4 NNW, CT","Latitude":"41.99874","Longitude":"-72.26100","Snowdepth":"2.000","Units":"in","Rept_Date":"2020-12-13 11"},"coordinates":[5857,3755]},{"type":"Point","properties":{"Station_ID":"COTM5","Station_Nam":"COTTON","Latitude":"47.16870","Longitude":"-92.46290","Snowdepth":"2.000","Units":"in","Rept_Date":"2020-12-13 12"},"coordinates":[1109,7073]},{"type":"Point","properties":{"Station_ID":"CON","Station_Nam":"CONCORD MUNI ARPT","Latitude":"43.20280","Longitude":"-71.50220","Snowdepth":"2.000","Units":"in","Rept_Date":"2020-12-13 12"},"coordinates":[6035,4528]},{"type":"Point","properties":{"Station_ID":"COKM5","Station_Nam":"COOK","Latitude":"47.85060","Longitude":"-92.69250","Snowdepth":"2.000","Units":"in","Rept_Date":"2020-12-13 12"},"coordinates":[1055,7511]},{"type":"Point","properties":{"Station_ID":"CHRM4","Station_Nam":"CHARLEVOIX","Latitude":"45.31720","Longitude":"-85.26720","Snowdepth":"2.000","Units":"in","Rept_Date":"2020-12-13 13"},"coordinates":[2800,5885]},{"type":"Point","properties":{"Station_ID":"CHIW3","Station_Nam":"CHILTON,WI","Latitude":"44.03330","Longitude":"-88.15000","Snowdepth":"2.000","Units":"in","Rept_Date":"2020-12-13 14"},"coordinates":[2123,5061]},{"type":"Point","properties":{"Station_ID":"CASS001","Station_Nam":"PLATTSMOUTH 1.4 SW, NE","Latitude":"40.99460","Longitude":"-95.89760","Snowdepth":"2.000","Units":"in","Rept_Date":"2020-12-13 13"},"coordinates":[302,3110]},{"type":"Point","properties":{"Station_ID":"CAN-NB-64","Station_Nam":"KESWICK RIDGE 4.0 SE, CAN","Latitude":"45.97014","Longitude":"-66.85538","Snowdepth":"2.000","Units":"in","Rept_Date":"2020-12-13 12"},"coordinates":[7127,6304]},{"type":"Point","properties":{"Station_ID":"BRLN3","Station_Nam":"BERLIN","Latitude":"44.45350","Longitude":"-71.18540","Snowdepth":"2.000","Units":"in","Rept_Date":"2020-12-13 12"},"coordinates":[6109,5331]},{"type":"Point","properties":{"Station_ID":"BABW3","Station_Nam":"BARABOO WWTP","Latitude":"43.48330","Longitude":"-89.63330","Snowdepth":"2.000","Units":"in","Rept_Date":"2020-12-13 17"},"coordinates":[1774,4708]},{"type":"Point","properties":{"Station_ID":"BABM5","Station_Nam":"BABBITT","Latitude":"47.71210","Longitude":"-91.95330","Snowdepth":"2.000","Units":"in","Rept_Date":"2020-12-13 13"},"coordinates":[1229,7422]},{"type":"Point","properties":{"Station_ID":"AVLV1","Station_Nam":"AVERILL","Latitude":"45.00570","Longitude":"-71.69030","Snowdepth":"2.000","Units":"in","Rept_Date":"2020-12-13 13"},"coordinates":[5991,5685]},{"type":"Point","properties":{"Station_ID":"ALXI4","Station_Nam":"WATERLOO SNOW","Latitude":"42.53130","Longitude":"-92.37550","Snowdepth":"2.000","Units":"in","Rept_Date":"2020-12-14 06"},"coordinates":[1130,4097]},{"type":"Point","properties":{"Station_ID":"ALO","Station_Nam":"WATERLOO MUNICIPAL AIRPORT","Latitude":"42.55690","Longitude":"-92.40000","Snowdepth":"2.000","Units":"in","Rept_Date":"2020-12-14 00"},"coordinates":[1124,4113]},{"type":"Point","properties":{"Station_ID":"ALBI4","Station_Nam":"ALBIA,IA","Latitude":"41.06670","Longitude":"-92.78330","Snowdepth":"2.000","Units":"in","Rept_Date":"2020-12-13 13"},"coordinates":[1034,3157]},{"type":"Point","properties":{"Station_ID":"VT-CL-3","Station_Nam":"GROTON 4.4 WSW, VT","Latitude":"44.19440","Longitude":"-72.28240","Snowdepth":"1.900","Units":"in","Rept_Date":"2020-12-13 11"},"coordinates":[5852,5164]},{"type":"Point","properties":{"Station_ID":"NE-CA-4","Station_Nam":"ELMWOOD 3.4 WSW, NE","Latitude":"40.81849","Longitude":"-96.35093","Snowdepth":"1.800","Units":"in","Rept_Date":"2020-12-13 14"},"coordinates":[196,2997]},{"type":"Point","properties":{"Station_ID":"IA-IA-13","Station_Nam":"PARNELL 0.1 SSW, IA","Latitude":"41.58238","Longitude":"-92.00541","Snowdepth":"1.800","Units":"in","Rept_Date":"2020-12-13 13"},"coordinates":[1217,3488]},{"type":"Point","properties":{"Station_ID":"QGT","Station_Nam":"QGT","Latitude":"49.64720","Longitude":"-67.62640","Snowdepth":"1.732","Units":"in","Rept_Date":"2020-12-13 12"},"coordinates":[6946,8664]},{"type":"Point","properties":{"Station_ID":"MA-MD-104","Station_Nam":"LITTLETON 2.8 NNW, MA","Latitude":"42.57170","Longitude":"-71.49910","Snowdepth":"1.700","Units":"in","Rept_Date":"2020-12-13 14"},"coordinates":[6036,4123]},{"type":"Point","properties":{"Station_ID":"IL-BN-19","Station_Nam":"BELVIDERE 5.0 NNW, IL","Latitude":"42.32071","Longitude":"-88.88282","Snowdepth":"1.600","Units":"in","Rept_Date":"2020-12-13 13"},"coordinates":[1951,3962]},{"type":"Point","properties":{"Station_ID":"CAN-NB-97","Station_Nam":"NEW MARYLAND 0.6 NW, CAN","Latitude":"45.90112","Longitude":"-66.68739","Snowdepth":"1.600","Units":"in","Rept_Date":"2020-12-13 12"},"coordinates":[7166,6260]},{"type":"Point","properties":{"Station_ID":"CAN-NB-96","Station_Nam":"SAINT-IGNACE 2.6 NE, CAN","Latitude":"46.71424","Longitude":"-65.05609","Snowdepth":"1.600","Units":"in","Rept_Date":"2020-12-13 11"},"coordinates":[7550,6782]},{"type":"Point","properties":{"Station_ID":"WI-WN-15","Station_Nam":"OSHKOSH 2.0 W, WI","Latitude":"44.01962","Longitude":"-88.59359","Snowdepth":"1.500","Units":"in","Rept_Date":"2020-12-13 13"},"coordinates":[2019,5052]},{"type":"Point","properties":{"Station_ID":"WI-WK-81","Station_Nam":"MENOMONEE FALLS 2.0 NE, WI","Latitude":"43.16814","Longitude":"-88.09832","Snowdepth":"1.500","Units":"in","Rept_Date":"2020-12-13 13"},"coordinates":[2135,4506]},{"type":"Point","properties":{"Station_ID":"WI-SB-18","Station_Nam":"PLYMOUTH 5.4 NE, WI","Latitude":"43.81185","Longitude":"-87.91054","Snowdepth":"1.500","Units":"in","Rept_Date":"2020-12-13 14"},"coordinates":[2179,4919]},{"type":"Point","properties":{"Station_ID":"VT-WS-23","Station_Nam":"CABOT 2.3 E, VT","Latitude":"44.39807","Longitude":"-72.26570","Snowdepth":"1.500","Units":"in","Rept_Date":"2020-12-13 13"},"coordinates":[5856,5295]},{"type":"Point","properties":{"Station_ID":"NH-MR-26","Station_Nam":"PITTSFIELD 0.2 SSW, NH","Latitude":"43.29880","Longitude":"-71.33450","Snowdepth":"1.500","Units":"in","Rept_Date":"2020-12-13 12"},"coordinates":[6074,4589]},{"type":"Point","properties":{"Station_ID":"NH-MR-25","Station_Nam":"CHICHESTER 2.7 SSW, NH","Latitude":"43.21150","Longitude":"-71.41430","Snowdepth":"1.500","Units":"in","Rept_Date":"2020-12-13 12"},"coordinates":[6056,4533]},{"type":"Point","properties":{"Station_ID":"NH-HL-25","Station_Nam":"AMHERST 3.7 NNE, NH","Latitude":"42.91409","Longitude":"-71.61020","Snowdepth":"1.500","Units":"in","Rept_Date":"2020-12-13 12"},"coordinates":[6010,4342]},{"type":"Point","properties":{"Station_ID":"NH-HL-19","Station_Nam":"BROOKLINE 2.1 SW, NH","Latitude":"42.71235","Longitude":"-71.69760","Snowdepth":"1.500","Units":"in","Rept_Date":"2020-12-13 16"},"coordinates":[5989,4213]},{"type":"Point","properties":{"Station_ID":"NE-SY-25","Station_Nam":"GRETNA 2.9 NNE, NE","Latitude":"41.17831","Longitude":"-96.21984","Snowdepth":"1.500","Units":"in","Rept_Date":"2020-12-13 14"},"coordinates":[226,3228]},{"type":"Point","properties":{"Station_ID":"MN-CK-18","Station_Nam":"GRAND MARAIS 4.4 WSW, MN","Latitude":"47.74462","Longitude":"-90.43796","Snowdepth":"1.500","Units":"in","Rept_Date":"2020-12-13 13"},"coordinates":[1585,7443]},{"type":"Point","properties":{"Station_ID":"MI-IS-7","Station_Nam":"MOUNT PLEASANT 3.8 ESE, MI","Latitude":"43.57860","Longitude":"-84.70720","Snowdepth":"1.500","Units":"in","Rept_Date":"2020-12-13 13"},"coordinates":[2932,4769]},{"type":"Point","properties":{"Station_ID":"MA-WR-69","Station_Nam":"NORTHBRIDGE 1.7 WNW, MA","Latitude":"42.16305","Longitude":"-71.67888","Snowdepth":"1.500","Units":"in","Rept_Date":"2020-12-13 12"},"coordinates":[5993,3860]},{"type":"Point","properties":{"Station_ID":"MA-WR-42","Station_Nam":"NORTHBOROUGH 2.3 N, MA","Latitude":"42.34535","Longitude":"-71.64390","Snowdepth":"1.500","Units":"in","Rept_Date":"2020-12-13 13"},"coordinates":[6002,3977]},{"type":"Point","properties":{"Station_ID":"MA-MD-115","Station_Nam":"HUDSON 1.4 NW, MA","Latitude":"42.40372","Longitude":"-71.58680","Snowdepth":"1.500","Units":"in","Rept_Date":"2020-12-13 12"},"coordinates":[6015,4015]},{"type":"Point","properties":{"Station_ID":"IL-SP-6","Station_Nam":"FREEPORT 2.0 NW, IL","Latitude":"42.30955","Longitude":"-89.66370","Snowdepth":"1.500","Units":"in","Rept_Date":"2020-12-13 13"},"coordinates":[1767,3954]},{"type":"Point","properties":{"Station_ID":"IL-HY-8","Station_Nam":"GENESEO 2.0 NW, IL","Latitude":"41.46726","Longitude":"-90.18180","Snowdepth":"1.500","Units":"in","Rept_Date":"2020-12-13 13"},"coordinates":[1645,3414]},{"type":"Point","properties":{"Station_ID":"IA-ST-1","Station_Nam":"LE CLAIRE 1.8 NNE, IA","Latitude":"41.62355","Longitude":"-90.35140","Snowdepth":"1.500","Units":"in","Rept_Date":"2020-12-13 13"},"coordinates":[1605,3514]},{"type":"Point","properties":{"Station_ID":"IA-DV-8","Station_Nam":"BLOOMFIELD 6.5 E, IA","Latitude":"40.73552","Longitude":"-92.29492","Snowdepth":"1.500","Units":"in","Rept_Date":"2020-12-13 13"},"coordinates":[1149,2944]},{"type":"Point","properties":{"Station_ID":"CAN-PE-3","Station_Nam":"WELLINGTON 1.6 NE, CA","Latitude":"46.46672","Longitude":"-63.98920","Snowdepth":"1.500","Units":"in","Rept_Date":"2020-12-13 11"},"coordinates":[7801,6623]},{"type":"Point","properties":{"Station_ID":"CAN-NS-74","Station_Nam":"BADDECK FORKS 2.5 E, CAN","Latitude":"46.18550","Longitude":"-60.73426","Snowdepth":"1.500","Units":"in","Rept_Date":"2020-12-13 11"},"coordinates":[8565,6442]},{"type":"Point","properties":{"Station_ID":"CAN-NB-16","Station_Nam":"DORCHESTER 1.0 SSE, CAN","Latitude":"45.89160","Longitude":"-64.51269","Snowdepth":"1.500","Units":"in","Rept_Date":"2020-12-13 11"},"coordinates":[7678,6254]},{"type":"Point","properties":{"Station_ID":"AR-WS-42","Station_Nam":"SPRINGDALE 2.3 S, AR","Latitude":"36.14865","Longitude":"-94.13939","Snowdepth":"1.500","Units":"in","Rept_Date":"2020-12-13 23"},"coordinates":[715,0]},{"type":"Point","properties":{"Station_ID":"KS-CL-18","Station_Nam":"WINFIELD 9.8 NE, KS","Latitude":"37.36886","Longitude":"-96.84310","Snowdepth":"1.300","Units":"in","Rept_Date":"2020-12-13 16"},"coordinates":[80,783]},{"type":"Point","properties":{"Station_ID":"WI-WW-2","Station_Nam":"LAKE GENEVA 0.6 ENE, WI","Latitude":"42.59169","Longitude":"-88.41770","Snowdepth":"1.200","Units":"in","Rept_Date":"2020-12-13 13"},"coordinates":[2060,4136]},{"type":"Point","properties":{"Station_ID":"WI-SR-1","Station_Nam":"HAYWARD 9.2 NNE, WI","Latitude":"46.13255","Longitude":"-91.40500","Snowdepth":"1.200","Units":"in","Rept_Date":"2020-12-13 12"},"coordinates":[1358,6408]},{"type":"Point","properties":{"Station_ID":"WI-MC-14","Station_Nam":"TWO RIVERS 4.1 WNW, WI","Latitude":"44.18960","Longitude":"-87.65083","Snowdepth":"1.200","Units":"in","Rept_Date":"2020-12-13 13"},"coordinates":[2240,5161]},{"type":"Point","properties":{"Station_ID":"CAN-ON-526","Station_Nam":"HILTON BEACH 0.7 SW - MNRF, CAN","Latitude":"46.25357","Longitude":"-83.90014","Snowdepth":"1.200","Units":"in","Rept_Date":"2020-12-13 12"},"coordinates":[3122,6486]},{"type":"Point","properties":{"Station_ID":"CAN-NB-1","Station_Nam":"FREDERICTON 4.0 SSE, CA","Latitude":"45.92897","Longitude":"-66.62830","Snowdepth":"1.200","Units":"in","Rept_Date":"2020-12-13 12"},"coordinates":[7180,6278]},{"type":"Point","properties":{"Station_ID":"ZBWN3","Station_Nam":"NASHUA CWSU","Latitude":"42.73440","Longitude":"-71.48030","Snowdepth":"1.000","Units":"in","Rept_Date":"2020-12-13 13"},"coordinates":[6040,4227]},{"type":"Point","properties":{"Station_ID":"WTNM4","Station_Nam":"WATTON 2WSW","Latitude":"46.52660","Longitude":"-88.64240","Snowdepth":"1.000","Units":"in","Rept_Date":"2020-12-13 13"},"coordinates":[2007,6661]},{"type":"Point","properties":{"Station_ID":"WSTW3","Station_Nam":"WEST BEND -FIRE","Latitude":"43.43138","Longitude":"-88.16111","Snowdepth":"1.000","Units":"in","Rept_Date":"2020-12-13 13"},"coordinates":[2120,4674]},{"type":"Point","properties":{"Station_ID":"WSHI4","Station_Nam":"WASHINGTON","Latitude":"41.28240","Longitude":"-91.70780","Snowdepth":"1.000","Units":"in","Rept_Date":"2020-12-13 13"},"coordinates":[1287,3295]},{"type":"Point","properties":{"Station_ID":"WOLN3","Station_Nam":"WOLFEBORO","Latitude":"43.59020","Longitude":"-71.20190","Snowdepth":"1.000","Units":"in","Rept_Date":"2020-12-13 12"},"coordinates":[6106,4776]},{"type":"Point","properties":{"Station_ID":"WI-WW-12","Station_Nam":"ELKHORN 0.4 ESE, WI","Latitude":"42.66970","Longitude":"-88.53170","Snowdepth":"1.000","Units":"in","Rept_Date":"2020-12-13 11"},"coordinates":[2033,4186]},{"type":"Point","properties":{"Station_ID":"WI-WN-9","Station_Nam":"NEENAH 1.1 ENE, WI","Latitude":"44.17370","Longitude":"-88.45130","Snowdepth":"1.000","Units":"in","Rept_Date":"2020-12-13 13"},"coordinates":[2052,5151]},{"type":"Point","properties":{"Station_ID":"WI-WN-7","Station_Nam":"OMRO 2.3 WSW, WI","Latitude":"44.02074","Longitude":"-88.77970","Snowdepth":"1.000","Units":"in","Rept_Date":"2020-12-13 13"},"coordinates":[1975,5053]},{"type":"Point","properties":{"Station_ID":"WI-WN-5","Station_Nam":"OSHKOSH 5.2 N, WI","Latitude":"44.09351","Longitude":"-88.55310","Snowdepth":"1.000","Units":"in","Rept_Date":"2020-12-13 13"},"coordinates":[2028,5099]},{"type":"Point","properties":{"Station_ID":"WI-WN-19","Station_Nam":"OSHKOSH 1.6 ESE, WI","Latitude":"44.01097","Longitude":"-88.52354","Snowdepth":"1.000","Units":"in","Rept_Date":"2020-12-13 13"},"coordinates":[2035,5046]},{"type":"Point","properties":{"Station_ID":"WI-WK-68","Station_Nam":"OCONOMOWOC 1.0 S, WI","Latitude":"43.09530","Longitude":"-88.48590","Snowdepth":"1.000","Units":"in","Rept_Date":"2020-12-13 13"},"coordinates":[2044,4459]},{"type":"Point","properties":{"Station_ID":"WI-WK-60","Station_Nam":"OCONOMOWOC 2.3 WSW, WI","Latitude":"43.08753","Longitude":"-88.53749","Snowdepth":"1.000","Units":"in","Rept_Date":"2020-12-13 23"},"coordinates":[2032,4454]},{"type":"Point","properties":{"Station_ID":"WI-WK-42","Station_Nam":"OCONOMOWOC 1.2 W, WI","Latitude":"43.10560","Longitude":"-88.52044","Snowdepth":"1.000","Units":"in","Rept_Date":"2020-12-13 13"},"coordinates":[2036,4465]},{"type":"Point","properties":{"Station_ID":"WI-VL-9","Station_Nam":"LAND O' LAKES 11.7 W, WI","Latitude":"46.19023","Longitude":"-89.45790","Snowdepth":"1.000","Units":"in","Rept_Date":"2020-12-13 13"},"coordinates":[1815,6445]},{"type":"Point","properties":{"Station_ID":"WI-SB-26","Station_Nam":"SHEBOYGAN 1.7 NNE, WI","Latitude":"43.76601","Longitude":"-87.71164","Snowdepth":"1.000","Units":"in","Rept_Date":"2020-12-13 13"},"coordinates":[2226,4889]},{"type":"Point","properties":{"Station_ID":"WI-SB-10","Station_Nam":"RANDOM LAKE 0.5 SSE, WI","Latitude":"43.54812","Longitude":"-87.95050","Snowdepth":"1.000","Units":"in","Rept_Date":"2020-12-13 13"},"coordinates":[2170,4749]},{"type":"Point","properties":{"Station_ID":"WI-MC-4","Station_Nam":"TWO RIVERS 1.4 N, WI","Latitude":"44.17617","Longitude":"-87.58330","Snowdepth":"1.000","Units":"in","Rept_Date":"2020-12-13 11"},"coordinates":[2256,5153]},{"type":"Point","properties":{"Station_ID":"WI-DG-20","Station_Nam":"SOLON SPRINGS 1.2 W, WI","Latitude":"46.35217","Longitude":"-91.84405","Snowdepth":"1.000","Units":"in","Rept_Date":"2020-12-13 13"},"coordinates":[1255,6549]},{"type":"Point","properties":{"Station_ID":"WI-CT-4","Station_Nam":"MENASHA 5.4 ESE, WI","Latitude":"44.19640","Longitude":"-88.33070","Snowdepth":"1.000","Units":"in","Rept_Date":"2020-12-13 13"},"coordinates":[2080,5166]},{"type":"Point","properties":{"Station_ID":"WI-CR-6","Station_Nam":"PRAIRIE DU CHIEN 1.4 N, WI","Latitude":"43.06280","Longitude":"-91.14369","Snowdepth":"1.000","Units":"in","Rept_Date":"2020-12-13 13"},"coordinates":[1419,4438]},{"type":"Point","properties":{"Station_ID":"WI-BN-22","Station_Nam":"WRIGHTSTOWN 0.4 ENE, WI","Latitude":"44.32735","Longitude":"-88.16669","Snowdepth":"1.000","Units":"in","Rept_Date":"2020-12-13 13"},"coordinates":[2119,5250]},{"type":"Point","properties":{"Station_ID":"WHTW3","Station_Nam":"WHITEWATER,WI","Latitude":"42.85670","Longitude":"-88.72940","Snowdepth":"1.000","Units":"in","Rept_Date":"2020-12-13 14"},"coordinates":[1987,4306]},{"type":"Point","properties":{"Station_ID":"VT-WH-30","Station_Nam":"MARLBORO 2.0 NNE, VT","Latitude":"42.88484","Longitude":"-72.70935","Snowdepth":"1.000","Units":"in","Rept_Date":"2020-12-13 13"},"coordinates":[5751,4324]},