{"type":"Topology","objects":{"snowdepth_geo":{"type":"GeometryCollection","name":"snowdepth","crs":{"type":"name","properties":{"name":"urn:ogc:def:crs:OGC:1.3:CRS84"}},"geometries":[{"type":"Point","properties":{"Station_ID":"PRKM4","Station_Nam":"MUNISING EAST","Latitude":"46.42580","Longitude":"-86.62000","Snowdepth":"76.500","Units":"in","Rept_Date":"2020-12-11 06"},"coordinates":[2458,6701]},{"type":"Point","properties":{"Station_ID":"HTLN3","Station_Nam":"HERMIT LAKE SNOWPLOT","Latitude":"44.26130","Longitude":"-71.28330","Snowdepth":"17.000","Units":"in","Rept_Date":"2020-12-10 12"},"coordinates":[6074,5354]},{"type":"Point","properties":{"Station_ID":"CAN-NB-50","Station_Nam":"DOYLEVILLE 2.4 WNW, CAN","Latitude":"47.90803","Longitude":"-66.13279","Snowdepth":"15.200","Units":"in","Rept_Date":"2020-12-10 13"},"coordinates":[7288,7623]},{"type":"Point","properties":{"Station_ID":"NH-CS-10","Station_Nam":"RANDOLPH 1.4 NE, NH","Latitude":"44.38824","Longitude":"-71.26950","Snowdepth":"15.000","Units":"in","Rept_Date":"2020-12-10 12"},"coordinates":[6077,5433]},{"type":"Point","properties":{"Station_ID":"QOU","Station_Nam":"QOU","Latitude":"50.79250","Longitude":"-69.67470","Snowdepth":"14.016","Units":"in","Rept_Date":"2020-12-10 12"},"coordinates":[6453,9418]},{"type":"Point","properties":{"Station_ID":"QCO","Station_Nam":"QCO","Latitude":"51.45280","Longitude":"-72.20110","Snowdepth":"11.496","Units":"in","Rept_Date":"2020-12-10 12"},"coordinates":[5858,9828]},{"type":"Point","properties":{"Station_ID":"MLZ","Station_Nam":"MLZ","Latitude":"50.66170","Longitude":"-68.82360","Snowdepth":"11.496","Units":"in","Rept_Date":"2020-12-10 12"},"coordinates":[6654,9336]},{"type":"Point","properties":{"Station_ID":"RANM1","Station_Nam":"RANGELEY","Latitude":"44.98910","Longitude":"-70.67190","Snowdepth":"11.000","Units":"in","Rept_Date":"2020-12-10 11"},"coordinates":[6218,5807]},{"type":"Point","properties":{"Station_ID":"MWN","Station_Nam":"MOUNT WASHINGTON","Latitude":"44.26670","Longitude":"-71.30000","Snowdepth":"11.000","Units":"in","Rept_Date":"2020-12-10 12"},"coordinates":[6070,5358]},{"type":"Point","properties":{"Station_ID":"KMWN","Station_Nam":"MOUNT WASHINGTON","Latitude":"44.26666","Longitude":"-71.30000","Snowdepth":"11.000","Units":"in","Rept_Date":"2020-12-11 06"},"coordinates":[6070,5358]},{"type":"Point","properties":{"Station_ID":"TRIQ6","Station_Nam":"TRIO LAKE","Latitude":"49.22880","Longitude":"-87.22920","Snowdepth":"10.240","Units":"in","Rept_Date":"2020-12-11 06"},"coordinates":[2315,8445]},{"type":"Point","properties":{"Station_ID":"RGNM1","Station_Nam":"RANGELEY 2NW","Latitude":"44.98940","Longitude":"-70.67220","Snowdepth":"10.000","Units":"in","Rept_Date":"2020-12-10 11"},"coordinates":[6218,5807]},{"type":"Point","properties":{"Station_ID":"ME-SM-45","Station_Nam":"BRIGHTON PLANTATION 2.1 N, ME","Latitude":"45.07098","Longitude":"-69.69860","Snowdepth":"10.000","Units":"in","Rept_Date":"2020-12-10 12"},"coordinates":[6448,5858]},{"type":"Point","properties":{"Station_ID":"ESGM1","Station_Nam":"EAST SANGERVILLE","Latitude":"45.13690","Longitude":"-69.28060","Snowdepth":"10.000","Units":"in","Rept_Date":"2020-12-10 12"},"coordinates":[6546,5899]},{"type":"Point","properties":{"Station_ID":"CARM1","Station_Nam":"CARIBOU WFO","Latitude":"46.86810","Longitude":"-68.01250","Snowdepth":"10.000","Units":"in","Rept_Date":"2020-12-11 05"},"coordinates":[6845,6976]},{"type":"Point","properties":{"Station_ID":"CAR","Station_Nam":"CARIBOU, ME","Latitude":"46.86830","Longitude":"-68.01360","Snowdepth":"10.000","Units":"in","Rept_Date":"2020-12-10 12"},"coordinates":[6845,6976]},{"type":"Point","properties":{"Station_ID":"AVLV1","Station_Nam":"AVERILL","Latitude":"45.00570","Longitude":"-71.69030","Snowdepth":"10.000","Units":"in","Rept_Date":"2020-12-10 13"},"coordinates":[5978,5817]},{"type":"Point","properties":{"Station_ID":"QGO","Station_Nam":"QGO","Latitude":"48.85500","Longitude":"-74.20640","Snowdepth":"9.961","Units":"in","Rept_Date":"2020-12-10 12"},"coordinates":[5385,8212]},{"type":"Point","properties":{"Station_ID":"QLB","Station_Nam":"QLB","Latitude":"50.72360","Longitude":"-75.10000","Snowdepth":"9.331","Units":"in","Rept_Date":"2020-12-10 12"},"coordinates":[5174,9375]},{"type":"Point","properties":{"Station_ID":"ME-SM-4","Station_Nam":"SOLON 3.9 ESE, ME","Latitude":"44.94705","Longitude":"-69.77790","Snowdepth":"9.000","Units":"in","Rept_Date":"2020-12-10 12"},"coordinates":[6429,5781]},{"type":"Point","properties":{"Station_ID":"ME-AR-18","Station_Nam":"NEW SWEDEN 4.9 NNW, ME","Latitude":"47.01080","Longitude":"-68.14390","Snowdepth":"9.000","Units":"in","Rept_Date":"2020-12-10 12"},"coordinates":[6814,7065]},{"type":"Point","properties":{"Station_ID":"QCX","Station_Nam":"QCX","Latitude":"51.32830","Longitude":"-70.08060","Snowdepth":"8.779","Units":"in","Rept_Date":"2020-12-10 12"},"coordinates":[6357,9751]},{"type":"Point","properties":{"Station_ID":"QMA","Station_Nam":"QMA","Latitude":"50.10330","Longitude":"-70.47190","Snowdepth":"8.661","Units":"in","Rept_Date":"2020-12-10 12"},"coordinates":[6265,8989]},{"type":"Point","properties":{"Station_ID":"NH-CS-19","Station_Nam":"CARROLL 4.6 NE, NH","Latitude":"44.33765","Longitude":"-71.46461","Snowdepth":"8.500","Units":"in","Rept_Date":"2020-12-10 12"},"coordinates":[6031,5402]},{"type":"Point","properties":{"Station_ID":"ME-FR-2","Station_Nam":"TEMPLE 1.8 W, ME","Latitude":"44.68329","Longitude":"-70.26420","Snowdepth":"8.500","Units":"in","Rept_Date":"2020-12-10 12"},"coordinates":[6314,5617]},{"type":"Point","properties":{"Station_ID":"QTM","Station_Nam":"QTM","Latitude":"51.05780","Longitude":"-72.57190","Snowdepth":"8.268","Units":"in","Rept_Date":"2020-12-10 12"},"coordinates":[5770,9583]},{"type":"Point","properties":{"Station_ID":"QMD","Station_Nam":"QMD","Latitude":"49.29060","Longitude":"-75.84500","Snowdepth":"8.150","Units":"in","Rept_Date":"2020-12-10 12"},"coordinates":[4999,8483]},{"type":"Point","properties":{"Station_ID":"QCU","Station_Nam":"QCU","Latitude":"47.82750","Longitude":"-76.59830","Snowdepth":"8.150","Units":"in","Rept_Date":"2020-12-10 12"},"coordinates":[4821,7573]},{"type":"Point","properties":{"Station_ID":"POLM1","Station_Nam":"POLAND","Latitude":"44.00700","Longitude":"-70.36140","Snowdepth":"8.000","Units":"in","Rept_Date":"2020-12-10 12"},"coordinates":[6291,5196]},{"type":"Point","properties":{"Station_ID":"NH-RC-48","Station_Nam":"NORTHWOOD 2.9 WSW, NH","Latitude":"43.20114","Longitude":"-71.25750","Snowdepth":"8.000","Units":"in","Rept_Date":"2020-12-10 12"},"coordinates":[6080,4695]},{"type":"Point","properties":{"Station_ID":"NH-HL-48","Station_Nam":"GREENVILLE 1.1 ENE, NH","Latitude":"42.77674","Longitude":"-71.77990","Snowdepth":"8.000","Units":"in","Rept_Date":"2020-12-10 13"},"coordinates":[5957,4431]},{"type":"Point","properties":{"Station_ID":"MMNV1","Station_Nam":"MT. MANSFIELD","Latitude":"44.52480","Longitude":"-72.81540","Snowdepth":"8.000","Units":"in","Rept_Date":"2020-12-10 21"},"coordinates":[5713,5518]},{"type":"Point","properties":{"Station_ID":"HMYM1","Station_Nam":"HARMONY","Latitude":"44.94660","Longitude":"-69.54560","Snowdepth":"8.000","Units":"in","Rept_Date":"2020-12-10 12"},"coordinates":[6484,5781]},{"type":"Point","properties":{"Station_ID":"BRAM1","Station_Nam":"BRASSUA DAM","Latitude":"45.66020","Longitude":"-69.81190","Snowdepth":"8.000","Units":"in","Rept_Date":"2020-12-10 12"},"coordinates":[6421,6225]},{"type":"Point","properties":{"Station_ID":"ABNM3","Station_Nam":"ASHBURNHAM NORTH","Latitude":"42.66170","Longitude":"-71.93590","Snowdepth":"8.000","Units":"in","Rept_Date":"2020-12-10 12"},"coordinates":[5920,4359]},{"type":"Point","properties":{"Station_ID":"DVLQ6","Station_Nam":"DEVIOUS LAKE","Latitude":"49.19890","Longitude":"-87.76440","Snowdepth":"7.950","Units":"in","Rept_Date":"2020-12-11 06"},"coordinates":[2189,8426]},{"type":"Point","properties":{"Station_ID":"PTLQ6","Station_Nam":"PORTAGE LAKE","Latitude":"49.06950","Longitude":"-86.65940","Snowdepth":"7.760","Units":"in","Rept_Date":"2020-12-11 06"},"coordinates":[2449,8346]},{"type":"Point","properties":{"Station_ID":"AUDQ6","Station_Nam":"AUDEN","Latitude":"48.52600","Longitude":"-82.57570","Snowdepth":"7.360","Units":"in","Rept_Date":"2020-12-11 06"},"coordinates":[3412,8008]},{"type":"Point","properties":{"Station_ID":"QGD","Station_Nam":"QGD","Latitude":"51.11140","Longitude":"-67.13940","Snowdepth":"7.205","Units":"in","Rept_Date":"2020-12-10 12"},"coordinates":[7051,9616]},{"type":"Point","properties":{"Station_ID":"RKWM1","Station_Nam":"MOOSEHEAD LAKE","Latitude":"45.58330","Longitude":"-69.71670","Snowdepth":"7.000","Units":"in","Rept_Date":"2020-12-10 12"},"coordinates":[6443,6177]},{"type":"Point","properties":{"Station_ID":"NH-ST-31","Station_Nam":"STRAFFORD 2.9 N, NH","Latitude":"43.31175","Longitude":"-71.13510","Snowdepth":"7.000","Units":"in","Rept_Date":"2020-12-10 13"},"coordinates":[6109,4764]},{"type":"Point","properties":{"Station_ID":"NH-GR-56","Station_Nam":"EASTON 0.6 ESE, NH","Latitude":"44.14790","Longitude":"-71.78950","Snowdepth":"7.000","Units":"in","Rept_Date":"2020-12-10 13"},"coordinates":[5955,5284]},{"type":"Point","properties":{"Station_ID":"MTLT1","Station_Nam":"GATLINBURG,TN","Latitude":"35.65500","Longitude":"-83.44110","Snowdepth":"7.000","Units":"in","Rept_Date":"2020-12-10 13"},"coordinates":[3208,0]},{"type":"Point","properties":{"Station_ID":"ME-OX-26","Station_Nam":"OXFORD 5.3 SW, ME","Latitude":"44.09787","Longitude":"-70.59612","Snowdepth":"7.000","Units":"in","Rept_Date":"2020-12-10 12"},"coordinates":[6236,5253]},{"type":"Point","properties":{"Station_ID":"ME-KB-53","Station_Nam":"READFIELD 2.0 NNE, ME","Latitude":"44.41620","Longitude":"-69.95190","Snowdepth":"7.000","Units":"in","Rept_Date":"2020-12-10 12"},"coordinates":[6388,5451]},{"type":"Point","properties":{"Station_ID":"ME-AR-15","Station_Nam":"PRESQUE ISLE 1.3 WSW, ME","Latitude":"46.67960","Longitude":"-68.01270","Snowdepth":"7.000","Units":"in","Rept_Date":"2020-12-10 12"},"coordinates":[6845,6859]},{"type":"Point","properties":{"Station_ID":"HGHN6","Station_Nam":"HIGHMARKET","Latitude":"43.60510","Longitude":"-75.55430","Snowdepth":"7.000","Units":"in","Rept_Date":"2020-12-10 11"},"coordinates":[5067,4946]},{"type":"Point","properties":{"Station_ID":"GHMN3","Station_Nam":"PINKHAM NOTCH","Latitude":"44.25800","Longitude":"-71.25250","Snowdepth":"7.000","Units":"in","Rept_Date":"2020-12-10 09"},"coordinates":[6081,5352]},{"type":"Point","properties":{"Station_ID":"CAN-NL-82","Station_Nam":"GANDER 2.7 NW, CAN","Latitude":"48.97737","Longitude":"-54.63396","Snowdepth":"6.700","Units":"in","Rept_Date":"2020-12-10 10"},"coordinates":[9999,8288]},{"type":"Point","properties":{"Station_ID":"QWG","Station_Nam":"QWG","Latitude":"48.48890","Longitude":"-73.45940","Snowdepth":"6.614","Units":"in","Rept_Date":"2020-12-10 12"},"coordinates":[5561,7985]},{"type":"Point","properties":{"Station_ID":"WVLM1","Station_Nam":"WATERVILLE TREATMENT PLT","Latitude":"44.52720","Longitude":"-69.65440","Snowdepth":"6.000","Units":"in","Rept_Date":"2020-12-10 13"},"coordinates":[6458,5520]},{"type":"Point","properties":{"Station_ID":"VANM1","Station_Nam":"VAN BUREN","Latitude":"47.16600","Longitude":"-67.93900","Snowdepth":"6.000","Units":"in","Rept_Date":"2020-12-10 13"},"coordinates":[6862,7161]},{"type":"Point","properties":{"Station_ID":"PTBN3","Station_Nam":"PITTSBURG RESERVOIR","Latitude":"45.04690","Longitude":"-71.38300","Snowdepth":"6.000","Units":"in","Rept_Date":"2020-12-10 12"},"coordinates":[6050,5843]},{"type":"Point","properties":{"Station_ID":"ME-KB-6","Station_Nam":"WINSLOW 1.2 SSE, ME","Latitude":"44.53579","Longitude":"-69.60290","Snowdepth":"6.000","Units":"in","Rept_Date":"2020-12-10 12"},"coordinates":[6470,5525]},{"type":"Point","properties":{"Station_ID":"ME-CM-125","Station_Nam":"GRAY 2.9 SSE, ME","Latitude":"43.84640","Longitude":"-70.31340","Snowdepth":"6.000","Units":"in","Rept_Date":"2020-12-10 12"},"coordinates":[6303,5096]},{"type":"Point","properties":{"Station_ID":"MA-WR-89","Station_Nam":"HOLDEN 0.9 SSE, MA","Latitude":"42.33809","Longitude":"-71.85686","Snowdepth":"6.000","Units":"in","Rept_Date":"2020-12-10 12"},"coordinates":[5939,4158]},{"type":"Point","properties":{"Station_ID":"JEFN3","Station_Nam":"JEFFERSON","Latitude":"44.41690","Longitude":"-71.50080","Snowdepth":"6.000","Units":"in","Rept_Date":"2020-12-10 12"},"coordinates":[6023,5451]},{"type":"Point","properties":{"Station_ID":"HRTM1","Station_Nam":"HARTFORD","Latitude":"44.37440","Longitude":"-70.31620","Snowdepth":"6.000","Units":"in","Rept_Date":"2020-12-10 12"},"coordinates":[6302,5425]},{"type":"Point","properties":{"Station_ID":"FISM1","Station_Nam":"FORT KENT COOP","Latitude":"47.23850","Longitude":"-68.61240","Snowdepth":"6.000","Units":"in","Rept_Date":"2020-12-10 12"},"coordinates":[6704,7207]},{"type":"Point","properties":{"Station_ID":"CLQM5","Station_Nam":"CLOQUET","Latitude":"46.70470","Longitude":"-92.52530","Snowdepth":"6.000","Units":"in","Rept_Date":"2020-12-10 14"},"coordinates":[1066,6874]},{"type":"Point","properties":{"Station_ID":"CAN-NB-105","Station_Nam":"SISSON BROOK 3.8 E, CAN","Latitude":"46.98305","Longitude":"-67.32532","Snowdepth":"5.900","Units":"in","Rept_Date":"2020-12-10 12"},"coordinates":[7007,7048]},{"type":"Point","properties":{"Station_ID":"MFU","Station_Nam":"MFU","Latitude":"51.52170","Longitude":"-66.91110","Snowdepth":"5.866","Units":"in","Rept_Date":"2020-12-10 12"},"coordinates":[7105,9871]},{"type":"Point","properties":{"Station_ID":"QTV","Station_Nam":"QTV","Latitude":"49.66000","Longitude":"-69.35690","Snowdepth":"5.787","Units":"in","Rept_Date":"2020-12-10 12"},"coordinates":[6528,8713]},{"type":"Point","properties":{"Station_ID":"FTHQ6","Station_Nam":"FORT HOPE","Latitude":"51.55820","Longitude":"-87.90510","Snowdepth":"5.670","Units":"in","Rept_Date":"2020-12-11 06"},"coordinates":[2155,9894]},{"type":"Point","properties":{"Station_ID":"QLM","Station_Nam":"QLM","Latitude":"48.92030","Longitude":"-70.25280","Snowdepth":"5.551","Units":"in","Rept_Date":"2020-12-10 12"},"coordinates":[6317,8253]},{"type":"Point","properties":{"Station_ID":"NH-BK-2","Station_Nam":"BELMONT 1.7 SW, NH","Latitude":"43.43556","Longitude":"-71.50690","Snowdepth":"5.500","Units":"in","Rept_Date":"2020-12-10 12"},"coordinates":[6021,4841]},{"type":"Point","properties":{"Station_ID":"ME-FR-22","Station_Nam":"FARMINGTON 4.8 NNW, ME","Latitude":"44.73396","Longitude":"-70.18007","Snowdepth":"5.500","Units":"in","Rept_Date":"2020-12-10 14"},"coordinates":[6334,5648]},{"type":"Point","properties":{"Station_ID":"QLP","Station_Nam":"QLP","Latitude":"48.13920","Longitude":"-72.63830","Snowdepth":"5.472","Units":"in","Rept_Date":"2020-12-10 12"},"coordinates":[5754,7767]},{"type":"Point","properties":{"Station_ID":"MRL","Station_Nam":"MRL","Latitude":"51.28330","Longitude":"-68.84060","Snowdepth":"5.394","Units":"in","Rept_Date":"2020-12-10 12"},"coordinates":[6650,9723]},{"type":"Point","properties":{"Station_ID":"OGIQ6","Station_Nam":"OGOKI CAMP","Latitude":"50.76680","Longitude":"-87.85820","Snowdepth":"5.390","Units":"in","Rept_Date":"2020-12-11 06"},"coordinates":[2166,9402]},{"type":"Point","properties":{"Station_ID":"KABQ6","Station_Nam":"CAB LAKE","Latitude":"49.59950","Longitude":"-89.17990","Snowdepth":"5.310","Units":"in","Rept_Date":"2020-12-11 06"},"coordinates":[1855,8675]},{"type":"Point","properties":{"Station_ID":"QWE","Station_Nam":"QWE","Latitude":"47.84610","Longitude":"-73.80670","Snowdepth":"5.236","Units":"in","Rept_Date":"2020-12-10 12"},"coordinates":[5479,7585]},{"type":"Point","properties":{"Station_ID":"CAN-ON-620","Station_Nam":"GOODERHAM 3.4 SSW, CAN","Latitude":"44.87690","Longitude":"-78.39265","Snowdepth":"5.200","Units":"in","Rept_Date":"2020-12-10 12"},"coordinates":[4398,5737]},{"type":"Point","properties":{"Station_ID":"VT-WS-23","Station_Nam":"CABOT 2.3 E, VT","Latitude":"44.39807","Longitude":"-72.26570","Snowdepth":"5.000","Units":"in","Rept_Date":"2020-12-10 13"},"coordinates":[5842,5439]},{"type":"Point","properties":{"Station_ID":"VT-OL-9","Station_Nam":"GREENSBORO 2.1 NNW, VT","Latitude":"44.60528","Longitude":"-72.30940","Snowdepth":"5.000","Units":"in","Rept_Date":"2020-12-10 13"},"coordinates":[5832,5568]},{"type":"Point","properties":{"Station_ID":"VT-OL-12","Station_Nam":"GREENSBORO 3.9 NNE, VT","Latitude":"44.63100","Longitude":"-72.28000","Snowdepth":"5.000","Units":"in","Rept_Date":"2020-12-10 13"},"coordinates":[5839,5584]},{"type":"Point","properties":{"Station_ID":"VT-ES-3","Station_Nam":"LUNENBURG 2.3 NNW, VT","Latitude":"44.49324","Longitude":"-71.70446","Snowdepth":"5.000","Units":"in","Rept_Date":"2020-12-10 12"},"coordinates":[5975,5499]},{"type":"Point","properties":{"Station_ID":"RDFN6","Station_Nam":"REDFIELD 8N","Latitude":"43.64130","Longitude":"-75.88400","Snowdepth":"5.000","Units":"in","Rept_Date":"2020-12-10 12"},"coordinates":[4989,4969]},{"type":"Point","properties":{"Station_ID":"OCON6","Station_Nam":"OSCEOLA","Latitude":"43.50370","Longitude":"-75.72170","Snowdepth":"5.000","Units":"in","Rept_Date":"2020-12-10 13"},"coordinates":[5028,4883]},{"type":"Point","properties":{"Station_ID":"NWSM1","Station_Nam":"NEW SHARON","Latitude":"44.63520","Longitude":"-70.00020","Snowdepth":"5.000","Units":"in","Rept_Date":"2020-12-10 12"},"coordinates":[6376,5587]},{"type":"Point","properties":{"Station_ID":"MWTM1","Station_Nam":"MILLINOCKET WWTP","Latitude":"45.64030","Longitude":"-68.67480","Snowdepth":"5.000","Units":"in","Rept_Date":"2020-12-10 11"},"coordinates":[6689,6212]},{"type":"Point","properties":{"Station_ID":"MA-WR-75","Station_Nam":"WARREN 2.4 WSW, MA","Latitude":"42.20400","Longitude":"-72.23540","Snowdepth":"5.000","Units":"in","Rept_Date":"2020-12-10 13"},"coordinates":[5849,4074]},{"type":"Point","properties":{"Station_ID":"JKMM1","Station_Nam":"JACKMAN","Latitude":"45.62600","Longitude":"-70.24600","Snowdepth":"5.000","Units":"in","Rept_Date":"2020-12-10 12"},"coordinates":[6318,6203]},{"type":"Point","properties":{"Station_ID":"JEFV1","Station_Nam":"JEFFERSONVILLE","Latitude":"44.58430","Longitude":"-72.78700","Snowdepth":"5.000","Units":"in","Rept_Date":"2020-12-10 12"},"coordinates":[5719,5555]},{"type":"Point","properties":{"Station_ID":"EHYM3","Station_Nam":"EAST HAWLEY","Latitude":"42.57410","Longitude":"-72.86790","Snowdepth":"5.000","Units":"in","Rept_Date":"2020-12-10 13"},"coordinates":[5700,4305]},{"type":"Point","properties":{"Station_ID":"DFXM1","Station_Nam":"DOVER-FOXCROFT","Latitude":"45.18720","Longitude":"-69.18350","Snowdepth":"5.000","Units":"in","Rept_Date":"2020-12-10 12"},"coordinates":[6569,5930]},{"type":"Point","properties":{"Station_ID":"CORM1","Station_Nam":"CORINNA","Latitude":"44.91980","Longitude":"-69.24180","Snowdepth":"5.000","Units":"in","Rept_Date":"2020-12-10 16"},"coordinates":[6555,5764]},{"type":"Point","properties":{"Station_ID":"CHRO1","Station_Nam":"CHARDON,OH","Latitude":"41.58330","Longitude":"-81.18330","Snowdepth":"5.000","Units":"in","Rept_Date":"2020-12-10 13"},"coordinates":[3740,3688]},{"type":"Point","properties":{"Station_ID":"CAN-ON-245","Station_Nam":"PHELPSTON 3.1 ESE, CAN","Latitude":"44.50564","Longitude":"-79.81035","Snowdepth":"5.000","Units":"in","Rept_Date":"2020-12-10 13"},"coordinates":[4064,5506]},{"type":"Point","properties":{"Station_ID":"BENN6","Station_Nam":"BENNETTS BRIDGE","Latitude":"43.53180","Longitude":"-75.95260","Snowdepth":"5.000","Units":"in","Rept_Date":"2020-12-10 12"},"coordinates":[4973,4900]},{"type":"Point","properties":{"Station_ID":"ASBM3","Station_Nam":"ASHBURNHAM","Latitude":"42.61780","Longitude":"-71.91590","Snowdepth":"5.000","Units":"in","Rept_Date":"2020-12-10 12"},"coordinates":[5925,4332]},{"type":"Point","properties":{"Station_ID":"MA-WR-88","Station_Nam":"LEICESTER 2.5 WSW, MA","Latitude":"42.23742","Longitude":"-71.94612","Snowdepth":"4.900","Units":"in","Rept_Date":"2020-12-10 12"},"coordinates":[5918,4095]},{"type":"Point","properties":{"Station_ID":"CAN-ON-452","Station_Nam":"CHATSWORTH 1.8 ENE - GSCA, CAN","Latitude":"44.46118","Longitude":"-80.87506","Snowdepth":"4.900","Units":"in","Rept_Date":"2020-12-10 12"},"coordinates":[3813,5479]},{"type":"Point","properties":{"Station_ID":"SOCQ6","Station_Nam":"SOCKET LAKE","Latitude":"50.77870","Longitude":"-91.79300","Snowdepth":"4.840","Units":"in","Rept_Date":"2020-12-11 06"},"coordinates":[1239,9409]},{"type":"Point","properties":{"Station_ID":"CATQ6","Station_Nam":"CAT LAKE","Latitude":"51.72690","Longitude":"-91.82210","Snowdepth":"4.720","Units":"in","Rept_Date":"2020-12-11 06"},"coordinates":[1232,9999]},{"type":"Point","properties":{"Station_ID":"VT-OL-24","Station_Nam":"DERBY LINE 1.9 W, VT","Latitude":"45.00454","Longitude":"-72.14170","Snowdepth":"4.500","Units":"in","Rept_Date":"2020-12-10 12"},"coordinates":[5872,5817]},{"type":"Point","properties":{"Station_ID":"ME-YK-3","Station_Nam":"HOLLIS CENTER 5.4 NW, ME","Latitude":"43.64750","Longitude":"-70.67510","Snowdepth":"4.500","Units":"in","Rept_Date":"2020-12-10 12"},"coordinates":[6217,4972]},{"type":"Point","properties":{"Station_ID":"ME-AN-32","Station_Nam":"WINTHROP 9.4 W, ME","Latitude":"44.30476","Longitude":"-70.15835","Snowdepth":"4.500","Units":"in","Rept_Date":"2020-12-10 12"},"coordinates":[6339,5381]},{"type":"Point","properties":{"Station_ID":"MA-WR-56","Station_Nam":"STERLING 4.3 NW, MA","Latitude":"42.47540","Longitude":"-71.81140","Snowdepth":"4.500","Units":"in","Rept_Date":"2020-12-10 12"},"coordinates":[5949,4243]},{"type":"Point","properties":{"Station_ID":"MA-WR-54","Station_Nam":"BARRE 1.4 NNE, MA","Latitude":"42.44082","Longitude":"-72.09591","Snowdepth":"4.500","Units":"in","Rept_Date":"2020-12-10 12"},"coordinates":[5882,4222]},{"type":"Point","properties":{"Station_ID":"ME-AN-43","Station_Nam":"LISBON 0.6 S, ME","Latitude":"44.02320","Longitude":"-70.10550","Snowdepth":"4.300","Units":"in","Rept_Date":"2020-12-10 12"},"coordinates":[6352,5206]},{"type":"Point","properties":{"Station_ID":"QLI","Station_Nam":"QLI","Latitude":"50.27080","Longitude":"-73.92280","Snowdepth":"4.252","Units":"in","Rept_Date":"2020-12-10 12"},"coordinates":[5452,9093]},{"type":"Point","properties":{"Station_ID":"SVBQ6","Station_Nam":"SAVANT BASE","Latitude":"50.28730","Longitude":"-90.65670","Snowdepth":"4.210","Units":"in","Rept_Date":"2020-12-11 06"},"coordinates":[1507,9103]},{"type":"Point","properties":{"Station_ID":"ME-CM-54","Station_Nam":"WINDHAM 3.9 NW, ME","Latitude":"43.85787","Longitude":"-70.46200","Snowdepth":"4.200","Units":"in","Rept_Date":"2020-12-10 12"},"coordinates":[6268,5103]},{"type":"Point","properties":{"Station_ID":"WTHM1","Station_Nam":"WINTHROP","Latitude":"44.30650","Longitude":"-69.97010","Snowdepth":"4.000","Units":"in","Rept_Date":"2020-12-10 13"},"coordinates":[6384,5382]},{"type":"Point","properties":{"Station_ID":"WNDM1","Station_Nam":"WINDHAM 2NW","Latitude":"43.85670","Longitude":"-70.46630","Snowdepth":"4.000","Units":"in","Rept_Date":"2020-12-10 12"},"coordinates":[6267,5103]},{"type":"Point","properties":{"Station_ID":"WLFM5","Station_Nam":"WOLF RIDGE ENVIRON LEARNING CENTER","Latitude":"47.38240","Longitude":"-91.19730","Snowdepth":"4.000","Units":"in","Rept_Date":"2020-12-10 13"},"coordinates":[1379,7296]},{"type":"Point","properties":{"Station_ID":"WALN6","Station_Nam":"WALTON 2","Latitude":"42.18470","Longitude":"-75.14550","Snowdepth":"4.000","Units":"in","Rept_Date":"2020-12-10 10"},"coordinates":[5163,4062]},{"type":"Point","properties":{"Station_ID":"VT-OL-2","Station_Nam":"BARTON 3.0 ENE, VT","Latitude":"44.75863","Longitude":"-72.11680","Snowdepth":"4.000","Units":"in","Rept_Date":"2020-12-10 12"},"coordinates":[5877,5664]},{"type":"Point","properties":{"Station_ID":"VT-OL-1","Station_Nam":"WESTFIELD 0.7 WNW, VT","Latitude":"44.89160","Longitude":"-72.44350","Snowdepth":"4.000","Units":"in","Rept_Date":"2020-12-10 12"},"coordinates":[5800,5746]},{"type":"Point","properties":{"Station_ID":"VT-ES-1","Station_Nam":"GRANBY 1.4 NW, VT","Latitude":"44.58330","Longitude":"-71.77870","Snowdepth":"4.000","Units":"in","Rept_Date":"2020-12-10 12"},"coordinates":[5957,5555]},{"type":"Point","properties":{"Station_ID":"VT-CH-7","Station_Nam":"HUNTINGTON 1.1 E, VT","Latitude":"44.32488","Longitude":"-72.96570","Snowdepth":"4.000","Units":"in","Rept_Date":"2020-12-10 12"},"coordinates":[5677,5394]},{"type":"Point","properties":{"Station_ID":"VT-CH-13","Station_Nam":"RICHMOND 3.4 SSE, VT","Latitude":"44.36084","Longitude":"-72.96400","Snowdepth":"4.000","Units":"in","Rept_Date":"2020-12-10 12"},"coordinates":[5678,5416]},{"type":"Point","properties":{"Station_ID":"VT-BN-12","Station_Nam":"STAMFORD 5.0 NNE, VT","Latitude":"42.82000","Longitude":"-73.02000","Snowdepth":"4.000","Units":"in","Rept_Date":"2020-12-10 21"},"coordinates":[5664,4458]},{"type":"Point","properties":{"Station_ID":"VRGV1","Station_Nam":"VERGENNES","Latitude":"44.17190","Longitude":"-73.24720","Snowdepth":"4.000","Units":"in","Rept_Date":"2020-12-10 09"},"coordinates":[5611,5299]},{"type":"Point","properties":{"Station_ID":"TURM1","Station_Nam":"TURNER","Latitude":"44.28220","Longitude":"-70.25610","Snowdepth":"4.000","Units":"in","Rept_Date":"2020-12-10 12"},"coordinates":[6316,5367]},{"type":"Point","properties":{"Station_ID":"TOPM1","Station_Nam":"TOPSFIELD","Latitude":"45.43470","Longitude":"-67.72020","Snowdepth":"4.000","Units":"in","Rept_Date":"2020-12-10 12"},"coordinates":[6914,6084]},{"type":"Point","properties":{"Station_ID":"SUTV1","Station_Nam":"SUTTON","Latitude":"44.61220","Longitude":"-72.04810","Snowdepth":"4.000","Units":"in","Rept_Date":"2020-12-10 13"},"coordinates":[5894,5573]},{"type":"Point","properties":{"Station_ID":"STRC3","Station_Nam":"STORRS","Latitude":"41.79510","Longitude":"-72.22850","Snowdepth":"4.000","Units":"in","Rept_Date":"2020-12-10 13"},"coordinates":[5851,3820]},{"type":"Point","properties":{"Station_ID":"SFVC3","Station_Nam":"STAFFORDVILLE","Latitude":"41.99840","Longitude":"-72.26060","Snowdepth":"4.000","Units":"in","Rept_Date":"2020-12-10 10"},"coordinates":[5844,3946]},{"type":"Point","properties":{"Station_ID":"NY-ES-11","Station_Nam":"VERMONTVILLE 2.8 S, NY","Latitude":"44.41205","Longitude":"-74.06760","Snowdepth":"4.000","Units":"in","Rept_Date":"2020-12-10 12"},"coordinates":[5418,5448]},{"type":"Point","properties":{"Station_ID":"NY-CY-31","Station_Nam":"SCIPIO CENTER 3.0 S, NY","Latitude":"42.74002","Longitude":"-76.55682","Snowdepth":"4.000","Units":"in","Rept_Date":"2020-12-10 12"},"coordinates":[4831,4408]},{"type":"Point","properties":{"Station_ID":"NVLV1","Station_Nam":"NASHVILLE","Latitude":"44.44970","Longitude":"-72.92640","Snowdepth":"4.000","Units":"in","Rept_Date":"2020-12-10 12"},"coordinates":[5687,5472]},{"type":"Point","properties":{"Station_ID":"NH-HL-49","Station_Nam":"MONT VERNON 1.3 SSW, NH","Latitude":"42.87616","Longitude":"-71.68280","Snowdepth":"4.000","Units":"in","Rept_Date":"2020-12-10 12"},"coordinates":[5980,4493]},{"type":"Point","properties":{"Station_ID":"MI-BG-3","Station_Nam":"THREE LAKES, MI","Latitude":"46.55730","Longitude":"-88.20770","Snowdepth":"4.000","Units":"in","Rept_Date":"2020-12-10 13"},"coordinates":[2084,6783]},{"type":"Point","properties":{"Station_ID":"MHT","Station_Nam":"MANCHESTER AIRPORT GRENIER INDSTRL ARPK","Latitude":"42.93440","Longitude":"-71.43690","Snowdepth":"4.000","Units":"in","Rept_Date":"2020-12-10 12"},"coordinates":[6038,4529]},{"type":"Point","properties":{"Station_ID":"ME-FR-4","Station_Nam":"NEW SHARON 2.0 NW, ME","Latitude":"44.66582","Longitude":"-70.02720","Snowdepth":"4.000","Units":"in","Rept_Date":"2020-12-10 12"},"coordinates":[6370,5606]},{"type":"Point","properties":{"Station_ID":"ME-CM-137","Station_Nam":"GRAY 1.5 NE, ME","Latitude":"43.90034","Longitude":"-70.30883","Snowdepth":"4.000","Units":"in","Rept_Date":"2020-12-10 12"},"coordinates":[6304,5130]},{"type":"Point","properties":{"Station_ID":"LPLN6","Station_Nam":"LAKE PLACID 2 S","Latitude":"44.30420","Longitude":"-73.98390","Snowdepth":"4.000","Units":"in","Rept_Date":"2020-12-10 12"},"coordinates":[5437,5381]},{"type":"Point","properties":{"Station_ID":"LNCM1","Station_Nam":"LINCOLN WATER DISTRICT","Latitude":"45.32410","Longitude":"-68.58300","Snowdepth":"4.000","Units":"in","Rept_Date":"2020-12-10 12"},"coordinates":[6711,6016]},{"type":"Point","properties":{"Station_ID":"LBKV1","Station_Nam":"LYE BROOK","Latitude":"43.05000","Longitude":"-73.03330","Snowdepth":"4.000","Units":"in","Rept_Date":"2020-12-11 06"},"coordinates":[5661,4601]},{"type":"Point","properties":{"Station_ID":"KINM1","Station_Nam":"KINGFIELD","Latitude":"44.95950","Longitude":"-70.17530","Snowdepth":"4.000","Units":"in","Rept_Date":"2020-12-10 13"},"coordinates":[6335,5789]},{"type":"Point","properties":{"Station_ID":"JAPN3","Station_Nam":"JAFFREY SILVER RANCH AIRPARK","Latitude":"42.80880","Longitude":"-72.00530","Snowdepth":"4.000","Units":"in","Rept_Date":"2020-12-10 12"},"coordinates":[5904,4451]},{"type":"Point","properties":{"Station_ID":"ISLV1","Station_Nam":"ISLAND POND","Latitude":"44.81280","Longitude":"-71.89020","Snowdepth":"4.000","Units":"in","Rept_Date":"2020-12-10 13"},"coordinates":[5931,5697]},{"type":"Point","properties":{"Station_ID":"HUDN3","Station_Nam":"HUDSON 1 SSE","Latitude":"42.78300","Longitude":"-71.41480","Snowdepth":"4.000","Units":"in","Rept_Date":"2020-12-10 12"},"coordinates":[6043,4435]},{"type":"Point","properties":{"Station_ID":"HUBN3","Station_Nam":"HUBBARD BROOK","Latitude":"43.93330","Longitude":"-71.71670","Snowdepth":"4.000","Units":"in","Rept_Date":"2020-12-11 05"},"coordinates":[5972,5150]},{"type":"Point","properties":{"Station_ID":"HOLM1","Station_Nam":"HOLLIS","Latitude":"43.64750","Longitude":"-70.67490","Snowdepth":"4.000","Units":"in","Rept_Date":"2020-12-10 11"},"coordinates":[6217,4972]},{"type":"Point","properties":{"Station_ID":"GYX","Station_Nam":"PORTLAND, ME","Latitude":"43.89250","Longitude":"-70.25500","Snowdepth":"4.000","Units":"in","Rept_Date":"2020-12-10 12"},"coordinates":[6316,5125]},{"type":"Point","properties":{"Station_ID":"FARM1","Station_Nam":"FARMINGTON","Latitude":"44.68930","Longitude":"-70.15640","Snowdepth":"4.000","Units":"in","Rept_Date":"2020-12-10 12"},"coordinates":[6340,5621]},{"type":"Point","properties":{"Station_ID":"EBRM3","Station_Nam":"EAST BRIMFIELD LAKE","Latitude":"42.11030","Longitude":"-72.12690","Snowdepth":"4.000","Units":"in","Rept_Date":"2020-12-10 12"},"coordinates":[5875,4016]},{"type":"Point","properties":{"Station_ID":"DURM1","Station_Nam":"DURHAM","Latitude":"43.99960","Longitude":"-70.09630","Snowdepth":"4.000","Units":"in","Rept_Date":"2020-12-10 12"},"coordinates":[6354,5192]},{"type":"Point","properties":{"Station_ID":"DHMM1","Station_Nam":"DEDHAM","Latitude":"44.67880","Longitude":"-68.63560","Snowdepth":"4.000","Units":"in","Rept_Date":"2020-12-10 13"},"coordinates":[6698,5614]},{"type":"Point","properties":{"Station_ID":"CT-TL-2","Station_Nam":"STAFFORDVILLE 0.4 NNW, CT","Latitude":"41.99874","Longitude":"-72.26100","Snowdepth":"4.000","Units":"in","Rept_Date":"2020-12-10 11"},"coordinates":[5843,3947]},{"type":"Point","properties":{"Station_ID":"CAN-ON-5","Station_Nam":"OWEN SOUND 1.5 NW - GSCA, CAN","Latitude":"44.57837","Longitude":"-80.95461","Snowdepth":"4.000","Units":"in","Rept_Date":"2020-12-10 13"},"coordinates":[3794,5552]},{"type":"Point","properties":{"Station_ID":"CAN-NB-13","Station_Nam":"BATHURST 3.8 NW, CAN","Latitude":"47.64212","Longitude":"-65.68756","Snowdepth":"4.000","Units":"in","Rept_Date":"2020-12-10 11"},"coordinates":[7393,7458]},{"type":"Point","properties":{"Station_ID":"BRLN3","Station_Nam":"BERLIN","Latitude":"44.45350","Longitude":"-71.18540","Snowdepth":"4.000","Units":"in","Rept_Date":"2020-12-10 12"},"coordinates":[6097,5474]},{"type":"Point","properties":{"Station_ID":"PA-LC-24","Station_Nam":"ARCHBALD 1.6 SW, PA","Latitude":"41.49106","Longitude":"-75.56380","Snowdepth":"3.700","Units":"in","Rept_Date":"2020-12-10 12"},"coordinates":[5065,3631]},{"type":"Point","properties":{"Station_ID":"VT-WS-30","Station_Nam":"WOODBURY 3.4 NNW, VT","Latitude":"44.48825","Longitude":"-72.43258","Snowdepth":"3.500","Units":"in","Rept_Date":"2020-12-10 12"},"coordinates":[5803,5496]},{"type":"Point","properties":{"Station_ID":"VT-WS-19","Station_Nam":"WATERBURY 3.0 NW, VT","Latitude":"44.36060","Longitude":"-72.80770","Snowdepth":"3.500","Units":"in","Rept_Date":"2020-12-10 11"},"coordinates":[5715,5416]},{"type":"Point","properties":{"Station_ID":"VT-WR-17","Station_Nam":"ROCHESTER 2.3 NE, VT","Latitude":"43.89418","Longitude":"-72.76992","Snowdepth":"3.500","Units":"in","Rept_Date":"2020-12-10 12"},"coordinates":[5723,5126]},{"type":"Point","properties":{"Station_ID":"VT-CL-18","Station_Nam":"WHEELOCK 1.6 S, VT","Latitude":"44.56491","Longitude":"-72.08830","Snowdepth":"3.500","Units":"in","Rept_Date":"2020-12-10 12"},"coordinates":[5884,5543]},{"type":"Point","properties":{"Station_ID":"VT-CH-4","Station_Nam":"UNDERHILL 4.4 NNE, VT","Latitude":"44.58774","Longitude":"-72.92250","Snowdepth":"3.500","Units":"in","Rept_Date":"2020-12-10 12"},"coordinates":[5687,5557]},{"type":"Point","properties":{"Station_ID":"NY-TM-45","Station_Nam":"NEWFIELD HAMLET 4.3 S, NY","Latitude":"42.29650","Longitude":"-76.60676","Snowdepth":"3.500","Units":"in","Rept_Date":"2020-12-10 14"},"coordinates":[4819,4132]},{"type":"Point","properties":{"Station_ID":"NY-TM-18","Station_Nam":"EAST ITHACA 4.7 E, NY","Latitude":"42.41910","Longitude":"-76.37330","Snowdepth":"3.500","Units":"in","Rept_Date":"2020-12-10 12"},"coordinates":[4874,4208]},{"type":"Point","properties":{"Station_ID":"NY-TG-15","Station_Nam":"BERKSHIRE 1.9 ENE, NY","Latitude":"42.31910","Longitude":"-76.21940","Snowdepth":"3.500","Units":"in","Rept_Date":"2020-12-10 13"},"coordinates":[4910,4146]},{"type":"Point","properties":{"Station_ID":"NY-FK-9","Station_Nam":"GABRIELS 1.3 SE, NY","Latitude":"44.41934","Longitude":"-74.16194","Snowdepth":"3.500","Units":"in","Rept_Date":"2020-12-10 12"},"coordinates":[5395,5453]},{"type":"Point","properties":{"Station_ID":"NH-RC-79","Station_Nam":"NOTTINGHAM 1.2 S, NH","Latitude":"43.09778","Longitude":"-71.10256","Snowdepth":"3.500","Units":"in","Rept_Date":"2020-12-10 12"},"coordinates":[6117,4630]},{"type":"Point","properties":{"Station_ID":"NH-MR-41","Station_Nam":"NEWBURY 1.6 NW, NH","Latitude":"43.33667","Longitude":"-72.06060","Snowdepth":"3.500","Units":"in","Rept_Date":"2020-12-10 12"},"coordinates":[5891,4779]},{"type":"Point","properties":{"Station_ID":"NH-MR-4","Station_Nam":"BOW 1.6 NW, NH","Latitude":"43.14994","Longitude":"-71.55650","Snowdepth":"3.500","Units":"in","Rept_Date":"2020-12-10 13"},"coordinates":[6010,4663]},{"type":"Point","properties":{"Station_ID":"NH-MR-25","Station_Nam":"CHICHESTER 2.7 SSW, NH","Latitude":"43.21150","Longitude":"-71.41430","Snowdepth":"3.500","Units":"in","Rept_Date":"2020-12-10 12"},"coordinates":[6043,4701]},{"type":"Point","properties":{"Station_ID":"MN-CN-36","Station_Nam":"CLOQUET 3.4 ENE, MN","Latitude":"46.74146","Longitude":"-92.42698","Snowdepth":"3.500","Units":"in","Rept_Date":"2020-12-10 13"},"coordinates":[1089,6897]},{"type":"Point","properties":{"Station_ID":"ME-PN-55","Station_Nam":"ORONO 1.1 SSW, ME","Latitude":"44.87005","Longitude":"-68.69446","Snowdepth":"3.500","Units":"in","Rept_Date":"2020-12-10 12"},"coordinates":[6684,5733]},{"type":"Point","properties":{"Station_ID":"ME-AN-41","Station_Nam":"AUBURN 2.1 NNW, ME","Latitude":"44.11275","Longitude":"-70.26452","Snowdepth":"3.500","Units":"in","Rept_Date":"2020-12-10 12"},"coordinates":[6314,5262]},{"type":"Point","properties":{"Station_ID":"CAN-QC-56","Station_Nam":"SUTTON 2.6 N, CAN","Latitude":"45.13119","Longitude":"-72.61218","Snowdepth":"3.300","Units":"in","Rept_Date":"2020-12-10 12"},"coordinates":[5761,5896]},{"type":"Point","properties":{"Station_ID":"CAN-MB-368","Station_Nam":"WHITESHELL 1.3 NE, CAN","Latitude":"49.74405","Longitude":"-95.19123","Snowdepth":"3.300","Units":"in","Rept_Date":"2020-12-10 14"},"coordinates":[438,8765]},{"type":"Point","properties":{"Station_ID":"QGA","Station_Nam":"QGA","Latitude":"47.25640","Longitude":"-73.73810","Snowdepth":"3.150","Units":"in","Rept_Date":"2020-12-10 12"},"coordinates":[5495,7218]},{"type":"Point","properties":{"Station_ID":"ZBWN3","Station_Nam":"NASHUA CWSU","Latitude":"42.73440","Longitude":"-71.48030","Snowdepth":"3.000","Units":"in","Rept_Date":"2020-12-10 13"},"coordinates":[6027,4404]},{"type":"Point","properties":{"Station_ID":"WYOP1","Station_Nam":"WYOMING COUNTY EOC","Latitude":"41.53940","Longitude":"-75.92690","Snowdepth":"3.000","Units":"in","Rept_Date":"2020-12-10 13"},"coordinates":[4979,3661]},{"type":"Point","properties":{"Station_ID":"WOLN3","Station_Nam":"WOLFEBORO","Latitude":"43.59020","Longitude":"-71.20190","Snowdepth":"3.000","Units":"in","Rept_Date":"2020-12-10 12"},"coordinates":[6093,4937]},{"type":"Point","properties":{"Station_ID":"VT-WH-30","Station_Nam":"MARLBORO 2.0 NNE, VT","Latitude":"42.88484","Longitude":"-72.70935","Snowdepth":"3.000","Units":"in","Rept_Date":"2020-12-10 13"},"coordinates":[5738,4498]},{"type":"Point","properties":{"Station_ID":"VT-CH-11","Station_Nam":"UNDERHILL 5.1 NNE, VT","Latitude":"44.59811","Longitude":"-72.91880","Snowdepth":"3.000","Units":"in","Rept_Date":"2020-12-10 13"},"coordinates":[5688,5564]},{"type":"Point","properties":{"Station_ID":"VT-AD-19","Station_Nam":"NEW HAVEN 2.4 SE, VT","Latitude":"44.10056","Longitude":"-73.11716","Snowdepth":"3.000","Units":"in","Rept_Date":"2020-12-10 13"},"coordinates":[5642,5254]},{"type":"Point","properties":{"Station_ID":"TOPN6","Station_Nam":"TUPPER LAKE SUNMOUNT","Latitude":"44.23070","Longitude":"-74.43820","Snowdepth":"3.000","Units":"in","Rept_Date":"2020-12-10 12"},"coordinates":[5330,5335]},{"type":"Point","properties":{"Station_ID":"SLNV1","Station_Nam":"SOUTH LINCOLN","Latitude":"44.07460","Longitude":"-72.97180","Snowdepth":"3.000","Units":"in","Rept_Date":"2020-12-10 12"},"coordinates":[5676,5238]},{"type":"Point","properties":{"Station_ID":"PLEP1","Station_Nam":"PLEASANT MOUNT 1 W","Latitude":"41.73940","Longitude":"-75.44650","Snowdepth":"3.000","Units":"in","Rept_Date":"2020-12-10 14"},"coordinates":[5092,3785]},{"type":"Point","properties":{"Station_ID":"PDLM4","Station_Nam":"PAINESDALE","Latitude":"47.04160","Longitude":"-88.67170","Snowdepth":"3.000","Units":"in","Rept_Date":"2020-12-10 13"},"coordinates":[1975,7084]},{"type":"Point","properties":{"Station_ID":"OTTN3","Station_Nam":"OTTER BROOK LAKE","Latitude":"42.95000","Longitude":"-72.23330","Snowdepth":"3.000","Units":"in","Rept_Date":"2020-12-10 12"},"coordinates":[5850,4539]},{"type":"Point","properties":{"Station_ID":"NY-OD-43","Station_Nam":"HOLLAND PATENT 1.1 WNW, NY","Latitude":"43.24707","Longitude":"-75.27750","Snowdepth":"3.000","Units":"in","Rept_Date":"2020-12-10 12"},"coordinates":[5132,4723]},{"type":"Point","properties":{"Station_ID":"NY-OD-2","Station_Nam":"POINT ROCK 0.6 SE, NY","Latitude":"43.37335","Longitude":"-75.53840","Snowdepth":"3.000","Units":"in","Rept_Date":"2020-12-10 13"},"coordinates":[5071,4802]},{"type":"Point","properties":{"Station_ID":"NY-FK-7","Station_Nam":"SARANAC LAKE 6.2 N, NY","Latitude":"44.41359","Longitude":"-74.15211","Snowdepth":"3.000","Units":"in","Rept_Date":"2020-12-10 12"},"coordinates":[5398,5449]},{"type":"Point","properties":{"Station_ID":"NY-DL-32","Station_Nam":"DELHI 6.6 WNW, NY","Latitude":"42.32118","Longitude":"-75.02991","Snowdepth":"3.000","Units":"in","Rept_Date":"2020-12-10 12"},"coordinates":[5191,4147]},{"type":"Point","properties":{"Station_ID":"NY-DL-28","Station_Nam":"FLEISCHMANNS 5.7 N, NY","Latitude":"42.23779","Longitude":"-74.52335","Snowdepth":"3.000","Units":"in","Rept_Date":"2020-12-10 12"},"coordinates":[5310,4095]},{"type":"Point","properties":{"Station_ID":"NUNV1","Station_Nam":"NORTH UNDERHILL","Latitude":"44.58760","Longitude":"-72.92150","Snowdepth":"3.000","Units":"in","Rept_Date":"2020-12-10 12"},"coordinates":[5688,5557]},{"type":"Point","properties":{"Station_ID":"NPTV1","Station_Nam":"NEWPORT","Latitude":"44.94900","Longitude":"-72.19120","Snowdepth":"3.000","Units":"in","Rept_Date":"2020-12-10 12"},"coordinates":[5860,5782]},{"type":"Point","properties":{"Station_ID":"NH-MR-45","Station_Nam":"NORTHFIELD 2.8 E, NH","Latitude":"43.43945","Longitude":"-71.53730","Snowdepth":"3.000","Units":"in","Rept_Date":"2020-12-10 12"},"coordinates":[6014,4843]},{"type":"Point","properties":{"Station_ID":"NH-MR-26","Station_Nam":"PITTSFIELD 0.2 SSW, NH","Latitude":"43.29880","Longitude":"-71.33450","Snowdepth":"3.000","Units":"in","Rept_Date":"2020-12-10 13"},"coordinates":[6062,4756]},{"type":"Point","properties":{"Station_ID":"NH-GR-47","Station_Nam":"LITTLETON 7.3 W, NH","Latitude":"44.31847","Longitude":"-71.91086","Snowdepth":"3.000","Units":"in","Rept_Date":"2020-12-10 13"},"coordinates":[5926,5390]},{"type":"Point","properties":{"Station_ID":"MRLV1","Station_Nam":"MARLBORO","Latitude":"42.86000","Longitude":"-72.72000","Snowdepth":"3.000","Units":"in","Rept_Date":"2020-12-10 12"},"coordinates":[5735,4483]},{"type":"Point","properties":{"Station_ID":"MI-HG-20","Station_Nam":"CALUMET 1.1 SSW, MI","Latitude":"47.23165","Longitude":"-88.45823","Snowdepth":"3.000","Units":"in","Rept_Date":"2020-12-10 11"},"coordinates":[2025,7202]},{"type":"Point","properties":{"Station_ID":"ME-YK-67","Station_Nam":"CORNISH 5.6 ESE, ME","Latitude":"43.78308","Longitude":"-70.69539","Snowdepth":"3.000","Units":"in","Rept_Date":"2020-12-10 12"},"coordinates":[6213,5057]},{"type":"Point","properties":{"Station_ID":"ME-KB-25","Station_Nam":"SIDNEY 2.6 NNW, ME","Latitude":"44.44985","Longitude":"-69.73840","Snowdepth":"3.000","Units":"in","Rept_Date":"2020-12-10 12"},"coordinates":[6438,5472]},{"type":"Point","properties":{"Station_ID":"ME-CM-86","Station_Nam":"POWNAL 4.1 S, ME","Latitude":"43.85370","Longitude":"-70.17210","Snowdepth":"3.000","Units":"in","Rept_Date":"2020-12-10 12"},"coordinates":[6336,5101]},{"type":"Point","properties":{"Station_ID":"ME-CM-3","Station_Nam":"NEW GLOUCESTER 3.0 SE, ME","Latitude":"43.92372","Longitude":"-70.25790","Snowdepth":"3.000","Units":"in","Rept_Date":"2020-12-10 12"},"coordinates":[6316,5144]},{"type":"Point","properties":{"Station_ID":"MA-WR-8","Station_Nam":"FITCHBURG 1.6 SSW, MA","Latitude":"42.56674","Longitude":"-71.82170","Snowdepth":"3.000","Units":"in","Rept_Date":"2020-12-10 11"},"coordinates":[5947,4300]},{"type":"Point","properties":{"Station_ID":"MA-WR-41","Station_Nam":"AUBURN 2.6 SW, MA","Latitude":"42.17336","Longitude":"-71.86869","Snowdepth":"3.000","Units":"in","Rept_Date":"2020-12-10 13"},"coordinates":[5936,4055]},{"type":"Point","properties":{"Station_ID":"MA-HS-14","Station_Nam":"PLAINFIELD 2.4 ESE, MA","Latitude":"42.49792","Longitude":"-72.87769","Snowdepth":"3.000","Units":"in","Rept_Date":"2020-12-10 12"},"coordinates":[5698,4257]},{"type":"Point","properties":{"Station_ID":"LVRM1","Station_Nam":"LIVERMORE FALLS 1 E","Latitude":"44.47160","Longitude":"-70.15940","Snowdepth":"3.000","Units":"in","Rept_Date":"2020-12-10 12"},"coordinates":[6339,5485]},{"type":"Point","properties":{"Station_ID":"LILM1","Station_Nam":"LILLE","Latitude":"47.27770","Longitude":"-68.10520","Snowdepth":"3.000","Units":"in","Rept_Date":"2020-12-10 12"},"coordinates":[6823,7231]},{"type":"Point","properties":{"Station_ID":"LEIM5","Station_Nam":"ORR 3E","Latitude":"48.05810","Longitude":"-92.75220","Snowdepth":"3.000","Units":"in","Rept_Date":"2020-12-10 12"},"coordinates":[1013,7716]},{"type":"Point","properties":{"Station_ID":"LAUP1","Station_Nam":"1.5MI S OF RT 30 ON SMIT (LAUREL RIDGE)","Latitude":"40.05000","Longitude":"-79.22060","Snowdepth":"3.000","Units":"in","Rept_Date":"2020-12-10 12"},"coordinates":[4203,2734]},{"type":"Point","properties":{"Station_ID":"KMHT","Station_Nam":"MANCHESTER AIRPORT","Latitude":"42.93333","Longitude":"-71.43333","Snowdepth":"3.000","Units":"in","Rept_Date":"2020-12-11 06"},"coordinates":[6039,4528]},{"type":"Point","properties":{"Station_ID":"KBTV","Station_Nam":"BURLINGTON INTERNATIONAL","Latitude":"44.46666","Longitude":"-73.15000","Snowdepth":"3.000","Units":"in","Rept_Date":"2020-12-10 12"},"coordinates":[5634,5482]},{"type":"Point","properties":{"Station_ID":"JOHV1","Station_Nam":"JOHNSON 2 N","Latitude":"44.65790","Longitude":"-72.67850","Snowdepth":"3.000","Units":"in","Rept_Date":"2020-12-10 12"},"coordinates":[5745,5601]},{"type":"Point","properties":{"Station_ID":"HVJP1","Station_Nam":"HIDDEN VALLEY COOP","Latitude":"40.04200","Longitude":"-79.25660","Snowdepth":"3.000","Units":"in","Rept_Date":"2020-12-10 13"},"coordinates":[4194,2729]},{"type":"Point","properties":{"Station_ID":"HERM4","Station_Nam":"HERMAN,MI","Latitude":"46.65000","Longitude":"-88.33330","Snowdepth":"3.000","Units":"in","Rept_Date":"2020-12-10 13"},"coordinates":[2054,6840]},{"type":"Point","properties":{"Station_ID":"GREN3","Station_Nam":"GREENVILLE 1 NNE","Latitude":"42.78270","Longitude":"-71.79850","Snowdepth":"3.000","Units":"in","Rept_Date":"2020-12-10 14"},"coordinates":[5952,4434]},{"type":"Point","properties":{"Station_ID":"FCHM3","Station_Nam":"FITCHBURG COOP","Latitude":"42.61680","Longitude":"-71.80170","Snowdepth":"3.000","Units":"in","Rept_Date":"2020-12-10 13"},"coordinates":[5952,4331]},{"type":"Point","properties":{"Station_ID":"ENFV1","Station_Nam":"ENOSBURG FALLS 2","Latitude":"44.90960","Longitude":"-72.81370","Snowdepth":"3.000","Units":"in","Rept_Date":"2020-12-10 10"},"coordinates":[5713,5758]},{"type":"Point","properties":{"Station_ID":"DLHM5","Station_Nam":"DULUTH NWS","Latitude":"46.83680","Longitude":"-92.21080","Snowdepth":"3.000","Units":"in","Rept_Date":"2020-12-11 06"},"coordinates":[1140,6957]},{"type":"Point","properties":{"Station_ID":"DLH","Station_Nam":"DULUTH, MN","Latitude":"46.83690","Longitude":"-92.21030","Snowdepth":"3.000","Units":"in","Rept_Date":"2020-12-11 00"},"coordinates":[1140,6957]},{"type":"Point","properties":{"Station_ID":"CORV1","Station_Nam":"CORINTH","Latitude":"44.00690","Longitude":"-72.31940","Snowdepth":"3.000","Units":"in","Rept_Date":"2020-12-10 12"},"coordinates":[5830,5196]},{"type":"Point","properties":{"Station_ID":"CON","Station_Nam":"CONCORD MUNI ARPT","Latitude":"43.20280","Longitude":"-71.50220","Snowdepth":"3.000","Units":"in","Rept_Date":"2020-12-10 12"},"coordinates":[6022,4696]},{"type":"Point","properties":{"Station_ID":"CAN-MB-32","Station_Nam":"PINAWA 1.0 SW, CA","Latitude":"50.14747","Longitude":"-95.89020","Snowdepth":"3.000","Units":"in","Rept_Date":"2020-12-10 13"},"coordinates":[273,9016]},{"type":"Point","properties":{"Station_ID":"BNDM5","Station_Nam":"ELY 25E","Latitude":"47.97190","Longitude":"-91.44860","Snowdepth":"3.000","Units":"in","Rept_Date":"2020-12-10 13"},"coordinates":[1320,7663]},{"type":"Point","properties":{"Station_ID":"BKBW2","Station_Nam":"DAVIS.","Latitude":"39.09830","Longitude":"-79.43190","Snowdepth":"3.000","Units":"in","Rept_Date":"2020-12-10 12"},"coordinates":[4153,2142]},{"type":"Point","properties":{"Station_ID":"BIRM3","Station_Nam":"BIRCH HILL DAM","Latitude":"42.63240","Longitude":"-72.12270","Snowdepth":"3.000","Units":"in","Rept_Date":"2020-12-10 12"},"coordinates":[5876,4341]},{"type":"Point","properties":{"Station_ID":"CAN-QC-16","Station_Nam":"SAINT-ARMAND 3.6 W, CAN","Latitude":"45.02631","Longitude":"-73.08795","Snowdepth":"2.900","Units":"in","Rept_Date":"2020-12-10 12"},"coordinates":[5648,5830]},{"type":"Point","properties":{"Station_ID":"MA-WR-58","Station_Nam":"LUNENBURG 0.6 NE, MA","Latitude":"42.60180","Longitude":"-71.71653","Snowdepth":"2.800","Units":"in","Rept_Date":"2020-12-10 13"},"coordinates":[5972,4322]},{"type":"Point","properties":{"Station_ID":"CAN-QC-57","Station_Nam":"ACTON VALE 1.3 N, CAN","Latitude":"45.65868","Longitude":"-72.56645","Snowdepth":"2.800","Units":"in","Rept_Date":"2020-12-10 13"},"coordinates":[5771,6224]},{"type":"Point","properties":{"Station_ID":"CAN-ON-771","Station_Nam":"KENORA 8.7 NNE - CANWARN, CAN","Latitude":"49.84171","Longitude":"-94.44386","Snowdepth":"2.800","Units":"in","Rept_Date":"2020-12-10 13"},"coordinates":[614,8826]},{"type":"Point","properties":{"Station_ID":"MA-MD-120","Station_Nam":"NATICK 1.9 NNE, MA","Latitude":"42.30872","Longitude":"-71.33579","Snowdepth":"2.700","Units":"in","Rept_Date":"2020-12-10 13"},"coordinates":[6062,4140]},{"type":"Point","properties":{"Station_ID":"OH-CY-58","Station_Nam":"SOUTH EUCLID 0.2 ESE, OH","Latitude":"41.52358","Longitude":"-81.52191","Snowdepth":"2.600","Units":"in","Rept_Date":"2020-12-10 13"},"coordinates":[3660,3651]},{"type":"Point","properties":{"Station_ID":"VT-RT-24","Station_Nam":"MIDDLETOWN SPRINGS 0.9 WNW, VT","Latitude":"43.49194","Longitude":"-73.13350","Snowdepth":"2.500","Units":"in","Rept_Date":"2020-12-10 12"},"coordinates":[5638,4876]},{"type":"Point","properties":{"Station_ID":"VT-FR-21","Station_Nam":"FAIRFAX 4.9 WNW, VT","Latitude":"44.68880","Longitude":"-73.10340","Snowdepth":"2.500","Units":"in","Rept_Date":"2020-12-10 14"},"coordinates":[5645,5620]},{"type":"Point","properties":{"Station_ID":"VT-CL-14","Station_Nam":"LYNDONVILLE 1.1 W, VT","Latitude":"44.53582","Longitude":"-72.02867","Snowdepth":"2.500","Units":"in","Rept_Date":"2020-12-10 12"},"coordinates":[5898,5525]},{"type":"Point","properties":{"Station_ID":"VT-BN-7","Station_Nam":"MANCHESTER 2.8 ENE, VT","Latitude":"43.17274","Longitude":"-73.01811","Snowdepth":"2.500","Units":"in","Rept_Date":"2020-12-10 12"},"coordinates":[5665,4677]},{"type":"Point","properties":{"Station_ID":"VT-AD-24","Station_Nam":"MIDDLEBURY 0.3 N, VT","Latitude":"44.01808","Longitude":"-73.16844","Snowdepth":"2.500","Units":"in","Rept_Date":"2020-12-10 10"},"coordinates":[5629,5203]},{"type":"Point","properties":{"Station_ID":"NY-TM-27","Station_Nam":"GROTON 3.2 SSW, NY","Latitude":"42.54725","Longitude":"-76.39960","Snowdepth":"2.500","Units":"in","Rept_Date":"2020-12-10 12"},"coordinates":[4868,4288]},{"type":"Point","properties":{"Station_ID":"NY-RN-29","Station_Nam":"AVERILL PARK 7.5 SE, NY","Latitude":"42.54687","Longitude":"-73.46809","Snowdepth":"2.500","Units":"in","Rept_Date":"2020-12-10 13"},"coordinates":[5559,4288]},{"type":"Point","properties":{"Station_ID":"NY-OT-11","Station_Nam":"HARTWICK, NY","Latitude":"42.65990","Longitude":"-75.05000","Snowdepth":"2.500","Units":"in","Rept_Date":"2020-12-10 16"},"coordinates":[5186,4358]},{"type":"Point","properties":{"Station_ID":"NY-MD-10","Station_Nam":"CAZENOVIA 2.9 SE, NY","Latitude":"42.90003","Longitude":"-75.81140","Snowdepth":"2.500","Units":"in","Rept_Date":"2020-12-10 12"},"coordinates":[5006,4507]},{"type":"Point","properties":{"Station_ID":"NY-JF-42","Station_Nam":"EVANS MILLS 0.5 W, NY","Latitude":"44.08778","Longitude":"-75.81738","Snowdepth":"2.500","Units":"in","Rept_Date":"2020-12-10 12"},"coordinates":[5005,5246]},{"type":"Point","properties":{"Station_ID":"NY-HR-18","Station_Nam":"SALISBURY CENTER 1.8 NW, NY","Latitude":"43.16260","Longitude":"-74.80880","Snowdepth":"2.500","Units":"in","Rept_Date":"2020-12-10 11"},"coordinates":[5243,4671]},{"type":"Point","properties":{"Station_ID":"NY-CR-5","Station_Nam":"MARATHON 1.0 NW, NY","Latitude":"42.45161","Longitude":"-76.04370","Snowdepth":"2.500","Units":"in","Rept_Date":"2020-12-10 12"},"coordinates":[4952,4228]},{"type":"Point","properties":{"Station_ID":"NY-BM-21","Station_Nam":"WINDSOR 8.0 SE, NY","Latitude":"42.00992","Longitude":"-75.51420","Snowdepth":"2.500","Units":"in","Rept_Date":"2020-12-10 12"},"coordinates":[5076,3954]},{"type":"Point","properties":{"Station_ID":"NH-CS-7","Station_Nam":"LANCASTER 0.5 N, NH","Latitude":"44.49611","Longitude":"-71.57640","Snowdepth":"2.500","Units":"in","Rept_Date":"2020-12-10 12"},"coordinates":[6005,5500]},{"type":"Point","properties":{"Station_ID":"ME-YK-5","Station_Nam":"KENNEBUNK 1.8 WNW, ME","Latitude":"43.39320","Longitude":"-70.58060","Snowdepth":"2.500","Units":"in","Rept_Date":"2020-12-10 12"},"coordinates":[6240,4814]},{"type":"Point","properties":{"Station_ID":"ME-KX-12","Station_Nam":"UNION 3.0 W, ME","Latitude":"44.21320","Longitude":"-69.34160","Snowdepth":"2.500","Units":"in","Rept_Date":"2020-12-10 12"},"coordinates":[6532,5324]},{"type":"Point","properties":{"Station_ID":"MA-MD-42","Station_Nam":"HOLLISTON 0.8 S, MA","Latitude":"42.18820","Longitude":"-71.43390","Snowdepth":"2.500","Units":"in","Rept_Date":"2020-12-10 12"},"coordinates":[6038,4065]},{"type":"Point","properties":{"Station_ID":"MA-MD-115","Station_Nam":"HUDSON 1.4 NW, MA","Latitude":"42.40372","Longitude":"-71.58680","Snowdepth":"2.500","Units":"in","Rept_Date":"2020-12-10 12"},"coordinates":[6002,4199]},{"type":"Point","properties":{"Station_ID":"MA-ES-48","Station_Nam":"ANDOVER 0.6 E, MA","Latitude":"42.65659","Longitude":"-71.13048","Snowdepth":"2.500","Units":"in","Rept_Date":"2020-12-10 10"},"coordinates":[6110,4356]},{"type":"Point","properties":{"Station_ID":"CAN-ON-451","Station_Nam":"OWEN SOUND 1.2 N - GSCA, CAN","Latitude":"44.58092","Longitude":"-80.93025","Snowdepth":"2.500","Units":"in","Rept_Date":"2020-12-10 13"},"coordinates":[3800,5553]},{"type":"Point","properties":{"Station_ID":"NY-ER-189","Station_Nam":"HAMBURG 2.0 N, NY","Latitude":"42.75337","Longitude":"-78.83452","Snowdepth":"2.400","Units":"in","Rept_Date":"2020-12-10 13"},"coordinates":[4294,4416]},{"type":"Point","properties":{"Station_ID":"CAN-ON-92","Station_Nam":"DUNROBIN 1.9 W - MVCA, CAN","Latitude":"45.42318","Longitude":"-76.04525","Snowdepth":"2.100","Units":"in","Rept_Date":"2020-12-10 12"},"coordinates":[4951,6077]},{"type":"Point","properties":{"Station_ID":"WRSN6","Station_Nam":"WARSAW 6SW","Latitude":"42.68550","Longitude":"-78.22020","Snowdepth":"2.000","Units":"in","Rept_Date":"2020-12-10 12"},"coordinates":[4439,4374]},{"type":"Point","properties":{"Station_ID":"WRSM5","Station_Nam":"WRENSHALL","Latitude":"46.61550","Longitude":"-92.38380","Snowdepth":"2.000","Units":"in","Rept_Date":"2020-12-10 14"},"coordinates":[1099,6819]},{"type":"Point","properties":{"Station_ID":"WORV1","Station_Nam":"WORCESTER 2 W","Latitude":"44.37470","Longitude":"-72.58220","Snowdepth":"2.000","Units":"in","Rept_Date":"2020-12-10 12"},"coordinates":[5768,5425]},{"type":"Point","properties":{"Station_ID":"WI-VL-9","Station_Nam":"LAND O' LAKES 11.7 W, WI","Latitude":"46.19023","Longitude":"-89.45790","Snowdepth":"2.000","Units":"in","Rept_Date":"2020-12-10 13"},"coordinates":[1789,6554]},{"type":"Point","properties":{"Station_ID":"WHPN3","Station_Nam":"HOPKINTON LAKE","Latitude":"43.18900","Longitude":"-71.74600","Snowdepth":"2.000","Units":"in","Rept_Date":"2020-12-10 12"},"coordinates":[5965,4687]},{"type":"Point","properties":{"Station_ID":"WHFN6","Station_Nam":"WILMINGTON 2W","Latitude":"44.39310","Longitude":"-73.85890","Snowdepth":"2.000","Units":"in","Rept_Date":"2020-12-10 13"},"coordinates":[5467,5436]},{"type":"Point","properties":{"Station_ID":"VT-WS-33","Station_Nam":"WAITSFIELD 3.5 WNW, VT","Latitude":"44.20052","Longitude":"-72.89421","Snowdepth":"2.000","Units":"in","Rept_Date":"2020-12-10 13"},"coordinates":[5694,5317]},{"type":"Point","properties":{"Station_ID":"VT-WS-15","Station_Nam":"EAST CALAIS 1.5 SW, VT","Latitude":"44.35523","Longitude":"-72.45540","Snowdepth":"2.000","Units":"in","Rept_Date":"2020-12-10 12"},"coordinates":[5798,5413]},{"type":"Point","properties":{"Station_ID":"VT-RT-7","Station_Nam":"RUTLAND 1.2 N, VT","Latitude":"43.62533","Longitude":"-72.97790","Snowdepth":"2.000","Units":"in","Rept_Date":"2020-12-10 12"},"coordinates":[5674,4959]},{"type":"Point","properties":{"Station_ID":"VT-LM-1","Station_Nam":"STOWE 0.2 SW, VT","Latitude":"44.46399","Longitude":"-72.69070","Snowdepth":"2.000","Units":"in","Rept_Date":"2020-12-10 12"},"coordinates":[5742,5480]},{"type":"Point","properties":{"Station_ID":"VT-CL-27","Station_Nam":"DANVILLE 0.4 N, VT","Latitude":"44.41769","Longitude":"-72.13936","Snowdepth":"2.000","Units":"in","Rept_Date":"2020-12-10 12"},"coordinates":[5872,5452]},{"type":"Point","properties":{"Station_ID":"VT-CH-47","Station_Nam":"SOUTH BURLINGTON 2.6 SSW, VT","Latitude":"44.42027","Longitude":"-73.19242","Snowdepth":"2.000","Units":"in","Rept_Date":"2020-12-10 13"},"coordinates":[5624,5453]},{"type":"Point","properties":{"Station_ID":"VT-CH-38","Station_Nam":"WILLISTON 0.2 WSW, VT","Latitude":"44.43669","Longitude":"-73.07154","Snowdepth":"2.000","Units":"in","Rept_Date":"2020-12-10 12"},"coordinates":[5652,5463]},{"type":"Point","properties":{"Station_ID":"VT-BN-3","Station_Nam":"LANDGROVE 1.1 NNE, VT","Latitude":"43.29092","Longitude":"-72.83260","Snowdepth":"2.000","Units":"in","Rept_Date":"2020-12-10 12"},"coordinates":[5709,4751]},{"type":"Point","properties":{"Station_ID":"TWOP1","Station_Nam":"TOWANDA 1 S","Latitude":"41.75110","Longitude":"-76.44300","Snowdepth":"2.000","Units":"in","Rept_Date":"2020-12-10 12"},"coordinates":[4858,3793]},{"type":"Point","properties":{"Station_ID":"SBRM3","Station_Nam":"SOUTHBRIDGE","Latitude":"42.05830","Longitude":"-72.07210","Snowdepth":"2.000","Units":"in","Rept_Date":"2020-12-10 12"},"coordinates":[5888,3984]},{"type":"Point","properties":{"Station_ID":"RUTV1","Station_Nam":"RUTLAND","Latitude":"43.62530","Longitude":"-72.97810","Snowdepth":"2.000","Units":"in","Rept_Date":"2020-12-10 12"},"coordinates":[5674,4959]},{"type":"Point","properties":{"Station_ID":"PERV1","Station_Nam":"PERU","Latitude":"43.26670","Longitude":"-72.90000","Snowdepth":"2.000","Units":"in","Rept_Date":"2020-12-10 12"},"coordinates":[5693,4736]},{"type":"Point","properties":{"Station_ID":"PEKN6","Station_Nam":"PECK LAKE","Latitude":"43.11500","Longitude":"-74.42360","Snowdepth":"2.000","Units":"in","Rept_Date":"2020-12-10 12"},"coordinates":[5334,4641]},{"type":"Point","properties":{"Station_ID":"PA-WN-2","Station_Nam":"MOSCOW 9.7 ESE, PA","Latitude":"41.29084","Longitude":"-75.35500","Snowdepth":"2.000","Units":"in","Rept_Date":"2020-12-10 12"},"coordinates":[5114,3506]},{"type":"Point","properties":{"Station_ID":"PA-PK-22","Station_Nam":"MILFORD 8.7 NW, PA","Latitude":"41.42018","Longitude":"-74.90953","Snowdepth":"2.000","Units":"in","Rept_Date":"2020-12-10 12"},"coordinates":[5219,3587]},{"type":"Point","properties":{"Station_ID":"PA-MN-7","Station_Nam":"STROUDSBURG 5.1 W, PA","Latitude":"40.98869","Longitude":"-75.29590","Snowdepth":"2.000","Units":"in","Rept_Date":"2020-12-10 13"},"coordinates":[5128,3318]},{"type":"Point","properties":{"Station_ID":"PA-MN-16","Station_Nam":"MOUNT POCONO 0.7 N, PA","Latitude":"41.13190","Longitude":"-75.35804","Snowdepth":"2.000","Units":"in","Rept_Date":"2020-12-10 12"},"coordinates":[5113,3407]},{"type":"Point","properties":{"Station_ID":"PA-MN-11","Station_Nam":"SAYLORSBURG 2.7 WNW, PA","Latitude":"40.90335","Longitude":"-75.37367","Snowdepth":"2.000","Units":"in","Rept_Date":"2020-12-10 14"},"coordinates":[5110,3265]},{"type":"Point","properties":{"Station_ID":"PA-LZ-15","Station_Nam":"DURYEA 0.3 SE, PA","Latitude":"41.34930","Longitude":"-75.77140","Snowdepth":"2.000","Units":"in","Rept_Date":"2020-12-10 12"},"coordinates":[5016,3543]},{"type":"Point","properties":{"Station_ID":"PA-CB-4","Station_Nam":"PALMERTON 5.8 ENE, PA","Latitude":"40.83902","Longitude":"-75.51850","Snowdepth":"2.000","Units":"in","Rept_Date":"2020-12-10 13"},"coordinates":[5075,3225]},{"type":"Point","properties":{"Station_ID":"OH-CY-54","Station_Nam":"SEVEN HILLS 0.6 NNE, OH","Latitude":"41.38811","Longitude":"-81.67098","Snowdepth":"2.000","Units":"in","Rept_Date":"2020-12-10 12"},"coordinates":[3625,3567]},{"type":"Point","properties":{"Station_ID":"OH-CY-42","Station_Nam":"STRONGSVILLE 1.3 SE, OH","Latitude":"41.29815","Longitude":"-81.81507","Snowdepth":"2.000","Units":"in","Rept_Date":"2020-12-10 13"},"coordinates":[3591,3511]},{"type":"Point","properties":{"Station_ID":"NY-WS-8","Station_Nam":"GRANVILLE 9.5 SW, NY","Latitude":"43.31163","Longitude":"-73.39613","Snowdepth":"2.000","Units":"in","Rept_Date":"2020-12-10 12"},"coordinates":[5576,4764]},{"type":"Point","properties":{"Station_ID":"NY-TM-5","Station_Nam":"FREEVILLE 1.5 NE, NY","Latitude":"42.52530","Longitude":"-76.32180","Snowdepth":"2.000","Units":"in","Rept_Date":"2020-12-10 12"},"coordinates":[4886,4274]},{"type":"Point","properties":{"Station_ID":"NY-TG-5","Station_Nam":"BERKSHIRE 2.0 N, NY","Latitude":"42.33463","Longitude":"-76.18990","Snowdepth":"2.000","Units":"in","Rept_Date":"2020-12-10 12"},"coordinates":[4917,4156]},{"type":"Point","properties":{"Station_ID":"NY-TG-20","Station_Nam":"CANDOR 1.8 N, NY","Latitude":"42.25308","Longitude":"-76.33780","Snowdepth":"2.000","Units":"in","Rept_Date":"2020-12-10 12"},"coordinates":[4882,4105]},{"type":"Point","properties":{"Station_ID":"NY-RN-20","Station_Nam":"TROY 2.1 NNE, NY","Latitude":"42.75930","Longitude":"-73.65283","Snowdepth":"2.000","Units":"in","Rept_Date":"2020-12-10 13"},"coordinates":[5515,4420]},{"type":"Point","properties":{"Station_ID":"NY-RN-1","Station_Nam":"AVERILL PARK 0.9 WNW, NY","Latitude":"42.63910","Longitude":"-73.56980","Snowdepth":"2.000","Units":"in","Rept_Date":"2020-12-10 13"},"coordinates":[5535,4345]},{"type":"Point","properties":{"Station_ID":"NY-ER-166","Station_Nam":"BOSTON 2.5 NE, NY","Latitude":"42.65480","Longitude":"-78.70300","Snowdepth":"2.000","Units":"in","Rept_Date":"2020-12-10 12"},"coordinates":[4325,4355]},{"type":"Point","properties":{"Station_ID":"NY-DL-23","Station_Nam":"LONG EDDY 6.5 NNE, NY","Latitude":"41.93510","Longitude":"-75.07840","Snowdepth":"2.000","Units":"in","Rept_Date":"2020-12-10 13"},"coordinates":[5179,3907]},{"type":"Point","properties":{"Station_ID":"NY-CR-1","Station_Nam":"FREETOWN 1.0 NE, NY","Latitude":"42.53299","Longitude":"-76.02111","Snowdepth":"2.000","Units":"in","Rept_Date":"2020-12-10 12"},"coordinates":[4957,4279]},{"type":"Point","properties":{"Station_ID":"NY-CB-9","Station_Nam":"HILLSDALE 5.8 S, NY","Latitude":"42.26165","Longitude":"-73.54160","Snowdepth":"2.000","Units":"in","Rept_Date":"2020-12-10 13"},"coordinates":[5542,4110]},{"type":"Point","properties":{"Station_ID":"NH-CR-15","Station_Nam":"JACKSON 3.7 NW, NH","Latitude":"44.19069","Longitude":"-71.22598","Snowdepth":"2.000","Units":"in","Rept_Date":"2020-12-10 12"},"coordinates":[6087,5310]},{"type":"Point","properties":{"Station_ID":"NH-BK-1","Station_Nam":"TILTON NORTHFIELD 3.3 NE, NH","Latitude":"43.48000","Longitude":"-71.55000","Snowdepth":"2.000","Units":"in","Rept_Date":"2020-12-10 12"},"coordinates":[6011,4868]},{"type":"Point","properties":{"Station_ID":"NFKC3","Station_Nam":"NORFOLK","Latitude":"41.97250","Longitude":"-73.22080","Snowdepth":"2.000","Units":"in","Rept_Date":"2020-12-10 13"},"coordinates":[5617,3930]},{"type":"Point","properties":{"Station_ID":"MN-CK-18","Station_Nam":"GRAND MARAIS 4.4 WSW, MN","Latitude":"47.74462","Longitude":"-90.43796","Snowdepth":"2.000","Units":"in","Rept_Date":"2020-12-10 13"},"coordinates":[1558,7521]},{"type":"Point","properties":{"Station_ID":"MMTN7","Station_Nam":"MOUNT MITCHELL STATE PARK","Latitude":"35.75940","Longitude":"-82.27110","Snowdepth":"2.000","Units":"in","Rept_Date":"2020-12-10 12"},"coordinates":[3484,65]},{"type":"Point","properties":{"Station_ID":"MECN6","Station_Nam":"MECKLENBURG 4 SW","Latitude":"42.44220","Longitude":"-76.75740","Snowdepth":"2.000","Units":"in","Rept_Date":"2020-12-10 12"},"coordinates":[4783,4223]},{"type":"Point","properties":{"Station_ID":"ME-YK-65","Station_Nam":"NORTH BERWICK 5.3 W, ME","Latitude":"43.29801","Longitude":"-70.83956","Snowdepth":"2.000","Units":"in","Rept_Date":"2020-12-10 13"},"coordinates":[6179,4755]},{"type":"Point","properties":{"Station_ID":"ME-YK-18","Station_Nam":"WELLS 3.5 SW, ME","Latitude":"43.30140","Longitude":"-70.64470","Snowdepth":"2.000","Units":"in","Rept_Date":"2020-12-10 12"},"coordinates":[6224,4757]},{"type":"Point","properties":{"Station_ID":"ME-LN-13","Station_Nam":"WALDOBORO 1.5 NNE, ME","Latitude":"44.11481","Longitude":"-69.36644","Snowdepth":"2.000","Units":"in","Rept_Date":"2020-12-10 13"},"coordinates":[6526,5263]},{"type":"Point","properties":{"Station_ID":"ME-KX-6","Station_Nam":"UNION 3.0 NW, ME","Latitude":"44.24435","Longitude":"-69.31540","Snowdepth":"2.000","Units":"in","Rept_Date":"2020-12-10 12"},"coordinates":[6538,5344]},{"type":"Point","properties":{"Station_ID":"ME-CM-143","Station_Nam":"PORTLAND 5.4 NW, ME","Latitude":"43.72010","Longitude":"-70.28710","Snowdepth":"2.000","Units":"in","Rept_Date":"2020-12-10 12"},"coordinates":[6309,5018]},{"type":"Point","properties":{"Station_ID":"MA-WR-69","Station_Nam":"NORTHBRIDGE 1.7 WNW, MA","Latitude":"42.16305","Longitude":"-71.67888","Snowdepth":"2.000","Units":"in","Rept_Date":"2020-12-10 12"},"coordinates":[5981,4049]},{"type":"Point","properties":{"Station_ID":"MA-WR-42","Station_Nam":"NORTHBOROUGH 2.3 N, MA","Latitude":"42.34535","Longitude":"-71.64390","Snowdepth":"2.000","Units":"in","Rept_Date":"2020-12-10 13"},"coordinates":[5989,4162]},{"type":"Point","properties":{"Station_ID":"MA-MD-12","Station_Nam":"ACTON 1.3 SW, MA","Latitude":"42.46746","Longitude":"-71.48200","Snowdepth":"2.000","Units":"in","Rept_Date":"2020-12-10 12"},"coordinates":[6027,4238]},{"type":"Point","properties":{"Station_ID":"MA-HS-7","Station_Nam":"PLAINFIELD 2.2 SW, MA","Latitude":"42.49272","Longitude":"-72.94540","Snowdepth":"2.000","Units":"in","Rept_Date":"2020-12-10 13"},"coordinates":[5682,4254]},{"type":"Point","properties":{"Station_ID":"MA-BE-3","Station_Nam":"STOCKBRIDGE .2 NNE, MA","Latitude":"42.28983","Longitude":"-73.31950","Snowdepth":"2.000","Units":"in","Rept_Date":"2020-12-10 11"},"coordinates":[5594,4128]},{"type":"Point","properties":{"Station_ID":"MA-BE-21","Station_Nam":"CHESHIRE 0.5 NNW, MA","Latitude":"42.56315","Longitude":"-73.15701","Snowdepth":"2.000","Units":"in","Rept_Date":"2020-12-10 12"},"coordinates":[5632,4298]},{"type":"Point","properties":{"Station_ID":"LNOW3","Station_Nam":"LAND O LAKES","Latitude":"46.19000","Longitude":"-89.45700","Snowdepth":"2.000","Units":"in","Rept_Date":"2020-12-10 13"},"coordinates":[1789,6554]},{"type":"Point","properties":{"Station_ID":"LGHP1","Station_Nam":"LEHIGHTON 1SSW","Latitude":"40.82230","Longitude":"-75.69620","Snowdepth":"2.000","Units":"in","Rept_Date":"2020-12-10 13"},"coordinates":[5034,3215]},{"type":"Point","properties":{"Station_ID":"LAPP1","Station_Nam":"LAPORTE,PA","Latitude":"41.42470","Longitude":"-76.49250","Snowdepth":"2.000","Units":"in","Rept_Date":"2020-12-10 11"},"coordinates":[4846,3590]},{"type":"Point","properties":{"Station_ID":"KEEN3","Station_Nam":"KEENE","Latitude":"42.93900","Longitude":"-72.32470","Snowdepth":"2.000","Units":"in","Rept_Date":"2020-12-10 11"},"coordinates":[5828,4532]},{"type":"Point","properties":{"Station_ID":"INL","Station_Nam":"FALLS INTERNATIONAL ARPT","Latitude":"48.56640","Longitude":"-93.40310","Snowdepth":"2.000","Units":"in","Rept_Date":"2020-12-11 00"},"coordinates":[859,8033]},{"type":"Point","properties":{"Station_ID":"INDM5","Station_Nam":"INDUS,MN","Latitude":"48.61670","Longitude":"-93.90000","Snowdepth":"2.000","Units":"in","Rept_Date":"2020-12-10 14"},"coordinates":[742,8064]},{"type":"Point","properties":{"Station_ID":"IFSM5","Station_Nam":"INTERNATIONAL FALLS SNOW","Latitude":"48.57780","Longitude":"-93.39640","Snowdepth":"2.000","Units":"in","Rept_Date":"2020-12-11 00"},"coordinates":[861,8040]},{"type":"Point","properties":{"Station_ID":"HRKM3","Station_Nam":"HARDWICK 2 ESE","Latitude":"42.34570","Longitude":"-72.15410","Snowdepth":"2.000","Units":"in","Rept_Date":"2020-12-10 13"},"coordinates":[5869,4163]},{"type":"Point","properties":{"Station_ID":"GOVN6","Station_Nam":"GOUVERNEUR 3 NW","Latitude":"44.35400","Longitude":"-75.51230","Snowdepth":"2.000","Units":"in","Rept_Date":"2020-12-10 12"},"coordinates":[5077,5412]},{"type":"Point","properties":{"Station_ID":"COKM5","Station_Nam":"COOK","Latitude":"47.85060","Longitude":"-92.69250","Snowdepth":"2.000","Units":"in","Rept_Date":"2020-12-10 12"},"coordinates":[1027,7587]},{"type":"Point","properties":{"Station_ID":"CAN-ON-86","Station_Nam":"GUELPH 5.1 S - CANWARN, CAN","Latitude":"43.49691","Longitude":"-80.24385","Snowdepth":"2.000","Units":"in","Rept_Date":"2020-12-10 12"},"coordinates":[3961,4879]},{"type":"Point","properties":{"Station_ID":"CAN-ON-836","Station_Nam":"ATIKOKAN 1.8 ENE, CAN","Latitude":"48.76260","Longitude":"-91.59821","Snowdepth":"2.000","Units":"in","Rept_Date":"2020-12-10 13"},"coordinates":[1285,8155]},{"type":"Point","properties":{"Station_ID":"CAN-ON-804","Station_Nam":"KEMBLE 1.6 S - GSCA, CAN","Latitude":"44.71013","Longitude":"-80.92735","Snowdepth":"2.000","Units":"in","Rept_Date":"2020-12-10 13"},"coordinates":[3800,5634]},{"type":"Point","properties":{"Station_ID":"CAN-NB-18","Station_Nam":"MCLEOD HILL 1.1 ENE, CA","Latitude":"46.02725","Longitude":"-66.67460","Snowdepth":"2.000","Units":"in","Rept_Date":"2020-12-10 12"},"coordinates":[7160,6453]},{"type":"Point","properties":{"Station_ID":"BRMM5","Station_Nam":"BRIMSON 2S","Latitude":"47.24720","Longitude":"-91.86240","Snowdepth":"2.000","Units":"in","Rept_Date":"2020-12-11 01"},"coordinates":[1222,7212]},{"type":"Point","properties":{"Station_ID":"PA-ER-15","Station_Nam":"NORTH EAST 2.0 S, PA","Latitude":"42.18390","Longitude":"-79.83230","Snowdepth":"1.900","Units":"in","Rept_Date":"2020-12-10 13"},"coordinates":[4058,4062]},{"type":"Point","properties":{"Station_ID":"VT-FR-19","Station_Nam":"SWANTON 0.5 NNE, VT","Latitude":"44.92590","Longitude":"-73.12145","Snowdepth":"1.800","Units":"in","Rept_Date":"2020-12-10 12"},"coordinates":[5641,5768]},{"type":"Point","properties":{"Station_ID":"CAN-QC-34","Station_Nam":"SAINT-JEAN-SUR-RICHELIEU 4.8 NNW, CAN","Latitude":"45.34868","Longitude":"-73.30298","Snowdepth":"1.800","Units":"in","Rept_Date":"2020-12-10 11"},"coordinates":[5598,6031]},{"type":"Point","properties":{"Station_ID":"VT-RT-1","Station_Nam":"WEST RUTLAND 1.2 N, VT","Latitude":"43.61068","Longitude":"-73.04660","Snowdepth":"1.700","Units":"in","Rept_Date":"2020-12-10 11"},"coordinates":[5658,4950]},{"type":"Point","properties":{"Station_ID":"ME-CM-138","Station_Nam":"FREEPORT 3.0 ENE, ME","Latitude":"43.87733","Longitude":"-70.04650","Snowdepth":"1.600","Units":"in","Rept_Date":"2020-12-10 12"},"coordinates":[6365,5115]},{"type":"Point","properties":{"Station_ID":"CAN-QC-51","Station_Nam":"BELOEIL 0.7 NW, CAN","Latitude":"45.58049","Longitude":"-73.21218","Snowdepth":"1.600","Units":"in","Rept_Date":"2020-12-10 12"},"coordinates":[5619,6175]},{"type":"Point","properties":{"Station_ID":"CAN-NB-64","Station_Nam":"KESWICK RIDGE 4.0 SE, CAN","Latitude":"45.97014","Longitude":"-66.85538","Snowdepth":"1.600","Units":"in","Rept_Date":"2020-12-10 12"},"coordinates":[7118,6417]},{"type":"Point","properties":{"Station_ID":"VT-WR-2","Station_Nam":"POMFRET 2.6 N, VT","Latitude":"43.74230","Longitude":"-72.52550","Snowdepth":"1.500","Units":"in","Rept_Date":"2020-12-10 12"},"coordinates":[5781,5031]},{"type":"Point","properties":{"Station_ID":"VT-OG-14","Station_Nam":"BRADFORD 2.2 NNW, VT","Latitude":"44.02268","Longitude":"-72.14756","Snowdepth":"1.500","Units":"in","Rept_Date":"2020-12-10 13"},"coordinates":[5870,5206]},{"type":"Point","properties":{"Station_ID":"VT-CL-23","Station_Nam":"RYEGATE 1.5 N, VT","Latitude":"44.23024","Longitude":"-72.10523","Snowdepth":"1.500","Units":"in","Rept_Date":"2020-12-10 12"},"coordinates":[5880,5335]},{"type":"Point","properties":{"Station_ID":"VT-AD-28","Station_Nam":"MONKTON 1.5 NE, VT","Latitude":"44.26760","Longitude":"-73.09940","Snowdepth":"1.500","Units":"in","Rept_Date":"2020-12-10 12"},"coordinates":[5646,5358]},{"type":"Point","properties":{"Station_ID":"RI-PR-51","Station_Nam":"NORTH SMITHFIELD 0.6 S, RI","Latitude":"41.95440","Longitude":"-71.54944","Snowdepth":"1.500","Units":"in","Rept_Date":"2020-12-10 11"},"coordinates":[6011,3919]},{"type":"Point","properties":{"Station_ID":"PA-SS-16","Station_Nam":"NEW MILFORD 1.6 SSE, PA","Latitude":"41.85540","Longitude":"-75.71110","Snowdepth":"1.500","Units":"in","Rept_Date":"2020-12-10 12"},"coordinates":[5030,3858]},{"type":"Point","properties":{"Station_ID":"PA-NH-8","Station_Nam":"MARTINS CREEK 0.2 E, PA","Latitude":"40.78285","Longitude":"-75.18270","Snowdepth":"1.500","Units":"in","Rept_Date":"2020-12-10 12"},"coordinates":[5155,3190]},{"type":"Point","properties":{"Station_ID":"PA-NH-15","Station_Nam":"PORTLAND 2.7 WNW, PA","Latitude":"40.93750","Longitude":"-75.14450","Snowdepth":"1.500","Units":"in","Rept_Date":"2020-12-10 12"},"coordinates":[5164,3286]},{"type":"Point","properties":{"Station_ID":"PA-CW-18","Station_Nam":"CONNEAUT LAKE 1.3 WNW, PA","Latitude":"41.60816","Longitude":"-80.33371","Snowdepth":"1.500","Units":"in","Rept_Date":"2020-12-10 12"},"coordinates":[3940,3704]},{"type":"Point","properties":{"Station_ID":"OH-LR-8","Station_Nam":"ELYRIA 0.4 SE, OH","Latitude":"41.37628","Longitude":"-82.09920","Snowdepth":"1.500","Units":"in","Rept_Date":"2020-12-10 13"},"coordinates":[3524,3559]},{"type":"Point","properties":{"Station_ID":"OH-GG-11","Station_Nam":"MADISON 4.2 S, OH","Latitude":"41.71238","Longitude":"-81.03871","Snowdepth":"1.500","Units":"in","Rept_Date":"2020-12-10 12"},"coordinates":[3774,3769]},{"type":"Point","properties":{"Station_ID":"NY-SY-1","Station_Nam":"SMITH VALLEY 1.9 SE, NY","Latitude":"42.39072","Longitude":"-76.71760","Snowdepth":"1.500","Units":"in","Rept_Date":"2020-12-10 12"},"coordinates":[4793,4191]},{"type":"Point","properties":{"Station_ID":"NY-RN-24","Station_Nam":"NASSAU 4.2 ESE, NY","Latitude":"42.49091","Longitude":"-73.53462","Snowdepth":"1.500","Units":"in","Rept_Date":"2020-12-10 13"},"coordinates":[5543,4253]},{"type":"Point","properties":{"Station_ID":"NY-OT-29","Station_Nam":"NEW BERLIN 1.5 NE, NY","Latitude":"42.63689","Longitude":"-75.31090","Snowdepth":"1.500","Units":"in","Rept_Date":"2020-12-10 13"},"coordinates":[5124,4344]},{"type":"Point","properties":{"Station_ID":"NY-ER-77","Station_Nam":"COLDEN 2.4 ENE, NY","Latitude":"42.65088","Longitude":"-78.61060","Snowdepth":"1.500","Units":"in","Rept_Date":"2020-12-10 13"},"coordinates":[4347,4352]},{"type":"Point","properties":{"Station_ID":"NY-DL-25","Station_Nam":"HOBART 4.8 ESE, NY","Latitude":"42.35230","Longitude":"-74.57830","Snowdepth":"1.500","Units":"in","Rept_Date":"2020-12-10 12"},"coordinates":[5297,4167]},{"type":"Point","properties":{"Station_ID":"NY-CN-9","Station_Nam":"NORWICH 5.4 W, NY","Latitude":"42.53356","Longitude":"-75.63060","Snowdepth":"1.500","Units":"in","Rept_Date":"2020-12-10 12"},"coordinates":[5049,4279]},{"type":"Point","properties":{"Station_ID":"NY-CB-16","Station_Nam":"VALATIE 2.9 N, NY","Latitude":"42.45655","Longitude":"-73.66812","Snowdepth":"1.500","Units":"in","Rept_Date":"2020-12-10 12"},"coordinates":[5512,4232]},{"type":"Point","properties":{"Station_ID":"NY-BM-4","Station_Nam":"ENDICOTT 5.2 SSE, NY","Latitude":"42.02958","Longitude":"-76.02130","Snowdepth":"1.500","Units":"in","Rept_Date":"2020-12-10 12"},"coordinates":[4957,3966]},{"type":"Point","properties":{"Station_ID":"NY-BM-14","Station_Nam":"WHITNEY POINT 1.7 SSE, NY","Latitude":"42.30837","Longitude":"-75.95690","Snowdepth":"1.500","Units":"in","Rept_Date":"2020-12-10 12"},"coordinates":[4972,4139]},{"type":"Point","properties":{"Station_ID":"NJ-MS-61","Station_Nam":"WASHINGTON TWP 3.6 W, NJ","Latitude":"40.78532","Longitude":"-74.86120","Snowdepth":"1.500","Units":"in","Rept_Date":"2020-12-10 12"},"coordinates":[5230,3192]},{"type":"Point","properties":{"Station_ID":"NJ-HN-12","Station_Nam":"HOLLAND TWP 2.6 NNE, NJ","Latitude":"40.63168","Longitude":"-75.10450","Snowdepth":"1.500","Units":"in","Rept_Date":"2020-12-10 11"},"coordinates":[5173,3096]},{"type":"Point","properties":{"Station_ID":"NH-MR-55","Station_Nam":"CANTERBURY 2.5 SSW, NH","Latitude":"43.30277","Longitude":"-71.57893","Snowdepth":"1.500","Units":"in","Rept_Date":"2020-12-10 12"},"coordinates":[6004,4758]},{"type":"Point","properties":{"Station_ID":"NH-CH-27","Station_Nam":"KEENE 1.3 SW, NH","Latitude":"42.93730","Longitude":"-72.31570","Snowdepth":"1.500","Units":"in","Rept_Date":"2020-12-10 12"},"coordinates":[5831,4531]},{"type":"Point","properties":{"Station_ID":"ME-WL-27","Station_Nam":"PROSPECT 2.6 W, ME","Latitude":"44.55719","Longitude":"-68.91732","Snowdepth":"1.500","Units":"in","Rept_Date":"2020-12-10 12"},"coordinates":[6632,5538]},{"type":"Point","properties":{"Station_ID":"ME-LN-1","Station_Nam":"NEWCASTLE 2.1 SW, ME","Latitude":"44.02767","Longitude":"-69.56860","Snowdepth":"1.500","Units":"in","Rept_Date":"2020-12-10 12"},"coordinates":[6478,5209]},{"type":"Point","properties":{"Station_ID":"MA-MD-51","Station_Nam":"MAYNARD 0.7 ESE, MA","Latitude":"42.42027","Longitude":"-71.44484","Snowdepth":"1.500","Units":"in","Rept_Date":"2020-12-10 12"},"coordinates":[6036,4209]},{"type":"Point","properties":{"Station_ID":"MA-MD-47","Station_Nam":"WEST TOWNSEND 0.5 W, MA","Latitude":"42.67623","Longitude":"-71.74983","Snowdepth":"1.500","Units":"in","Rept_Date":"2020-12-10 11"},"coordinates":[5964,4368]},{"type":"Point","properties":{"Station_ID":"MA-MD-158","Station_Nam":"SHERBORN 1.1 NW, MA","Latitude":"42.24460","Longitude":"-71.38130","Snowdepth":"1.500","Units":"in","Rept_Date":"2020-12-10 10"},"coordinates":[6051,4100]},{"type":"Point","properties":{"Station_ID":"MA-MD-107","Station_Nam":"FRAMINGHAM 1.7 E, MA","Latitude":"42.30516","Longitude":"-71.40471","Snowdepth":"1.500","Units":"in","Rept_Date":"2020-12-10 12"},"coordinates":[6045,4137]},{"type":"Point","properties":{"Station_ID":"MA-ES-58","Station_Nam":"MIDDLETON 1.4 SSW, MA","Latitude":"42.58133","Longitude":"-71.02707","Snowdepth":"1.500","Units":"in","Rept_Date":"2020-12-10 13"},"coordinates":[6134,4309]},{"type":"Point","properties":{"Station_ID":"WI-SR-1","Station_Nam":"HAYWARD 9.2 NNE, WI","Latitude":"46.13255","Longitude":"-91.40500","Snowdepth":"1.400","Units":"in","Rept_Date":"2020-12-10 12"},"coordinates":[1330,6519]},{"type":"Point","properties":{"Station_ID":"PA-BF-20","Station_Nam":"SAYRE 0.7 S, PA","Latitude":"41.97510","Longitude":"-76.52100","Snowdepth":"1.400","Units":"in","Rept_Date":"2020-12-10 14"},"coordinates":[4839,3932]},{"type":"Point","properties":{"Station_ID":"NY-OT-31","Station_Nam":"MARYLAND 1.8 W, NY","Latitude":"42.53310","Longitude":"-74.92090","Snowdepth":"1.400","Units":"in","Rept_Date":"2020-12-10 13"},"coordinates":[5216,4279]},{"type":"Point","properties":{"Station_ID":"CAN-QC-67","Station_Nam":"VERDUN 0.8 SSW - SAJESS, CAN","Latitude":"45.45096","Longitude":"-73.58327","Snowdepth":"1.400","Units":"in","Rept_Date":"2020-12-10 13"},"coordinates":[5532,6094]},{"type":"Point","properties":{"Station_ID":"VT-BN-14","Station_Nam":"SHAFTSBURY 0.4 WNW, VT","Latitude":"43.00650","Longitude":"-73.20214","Snowdepth":"1.300","Units":"in","Rept_Date":"2020-12-10 12"},"coordinates":[5622,4574]},{"type":"Point","properties":{"Station_ID":"NY-ES-6","Station_Nam":"OLMSTEDVILLE 4.6 NNE, NY","Latitude":"43.83350","Longitude":"-73.89780","Snowdepth":"1.300","Units":"in","Rept_Date":"2020-12-10 13"},"coordinates":[5458,5088]},{"type":"Point","properties":{"Station_ID":"NJ-WR-35","Station_Nam":"WASHINGTON TWP 1.8 SE, NJ","Latitude":"40.73847","Longitude":"-74.95790","Snowdepth":"1.300","Units":"in","Rept_Date":"2020-12-10 12"},"coordinates":[5208,3163]},{"type":"Point","properties":{"Station_ID":"ME-KX-10","Station_Nam":"UNION 2.1 NNE, ME","Latitude":"44.23693","Longitude":"-69.27170","Snowdepth":"1.300","Units":"in","Rept_Date":"2020-12-10 12"},"coordinates":[6548,5339]},{"type":"Point","properties":{"Station_ID":"PA-CB-16","Station_Nam":"JIM THORPE 1.1 NNE, PA","Latitude":"40.88582","Longitude":"-75.73320","Snowdepth":"1.200","Units":"in","Rept_Date":"2020-12-10 12"},"coordinates":[5025,3254]},{"type":"Point","properties":{"Station_ID":"NY-CM-24","Station_Nam":"CHEMUNG 5.7 N, NY","Latitude":"42.09130","Longitude":"-76.62810","Snowdepth":"1.200","Units":"in","Rept_Date":"2020-12-10 14"},"coordinates":[4814,4004]},{"type":"Point","properties":{"Station_ID":"NJ-SS-1","Station_Nam":"ANDOVER TWP 1.7 W, NJ","Latitude":"41.01974","Longitude":"-74.76110","Snowdepth":"1.200","Units":"in","Rept_Date":"2020-12-10 12"},"coordinates":[5254,3338]},{"type":"Point","properties":{"Station_ID":"NJ-MS-94","Station_Nam":"JEFFERSON TWP 4.4 SW, NJ","Latitude":"40.96404","Longitude":"-74.62162","Snowdepth":"1.200","Units":"in","Rept_Date":"2020-12-10 12"},"coordinates":[5287,3303]},{"type":"Point","properties":{"Station_ID":"MA-BA-83","Station_Nam":"MASHPEE 2.5 W, MA","Latitude":"41.64360","Longitude":"-70.53100","Snowdepth":"1.200","Units":"in","Rept_Date":"2020-12-10 11"},"coordinates":[6251,3726]},{"type":"Point","properties":{"Station_ID":"CAN-ON-784","Station_Nam":"KOMOKA 3.1 W, CAN","Latitude":"42.96000","Longitude":"-81.43805","Snowdepth":"1.200","Units":"in","Rept_Date":"2020-12-10 12"},"coordinates":[3680,4545]},{"type":"Point","properties":{"Station_ID":"QIQ","Station_Nam":"QIQ","Latitude":"49.82390","Longitude":"-68.54310","Snowdepth":"1.102","Units":"in","Rept_Date":"2020-12-10 12"},"coordinates":[6720,8815]},{"type":"Point","properties":{"Station_ID":"PA-LZ-24","Station_Nam":"FORTY FORT 0.4 NNE, PA","Latitude":"41.29491","Longitude":"-75.86820","Snowdepth":"1.100","Units":"in","Rept_Date":"2020-12-10 12"},"coordinates":[4993,3509]},{"type":"Point","properties":{"Station_ID":"NJ-WR-42","Station_Nam":"KNOWLTON TWP 1.7 S, NJ","Latitude":"40.90560","Longitude":"-75.05880","Snowdepth":"1.100","Units":"in","Rept_Date":"2020-12-10 13"},"coordinates":[5184,3267]},{"type":"Point","properties":{"Station_ID":"CAN-ON-791","Station_Nam":"METCALFE 4.4 NNW, CAN","Latitude":"45.27286","Longitude":"-75.48952","Snowdepth":"1.100","Units":"in","Rept_Date":"2020-12-10 11"},"coordinates":[5082,5984]},{"type":"Point","properties":{"Station_ID":"CAN-ON-491","Station_Nam":"MILVERTON 1.1 ESE- CANWARN, CAN","Latitude":"43.56074","Longitude":"-80.90887","Snowdepth":"1.100","Units":"in","Rept_Date":"2020-12-10 11"},"coordinates":[3805,4918]},{"type":"Point","properties":{"Station_ID":"WTNM4","Station_Nam":"WATTON 2WSW","Latitude":"46.52660","Longitude":"-88.64240","Snowdepth":"1.000","Units":"in","Rept_Date":"2020-12-10 13"},"coordinates":[1982,6764]},{"type":"Point","properties":{"Station_ID":"WSWN6","Station_Nam":"WARSAW","Latitude":"42.74220","Longitude":"-78.20850","Snowdepth":"1.000","Units":"in","Rept_Date":"2020-12-10 11"},"coordinates":[4441,4409]},{"type":"Point","properties":{"Station_ID":"WRUM5","Station_Nam":"WARROAD 4W","Latitude":"48.89600","Longitude":"-95.40700","Snowdepth":"1.000","Units":"in","Rept_Date":"2020-12-11 04"},"coordinates":[387,8238]},{"type":"Point","properties":{"Station_ID":"WNDP1","Station_Nam":"WINDBER COUNTY CLUB","Latitude":"40.28780","Longitude":"-78.77530","Snowdepth":"1.000","Units":"in","Rept_Date":"2020-12-10 12"},"coordinates":[4308,2882]},{"type":"Point","properties":{"Station_ID":"WI-IR-3","Station_Nam":"PENCE 0.1 E, WI","Latitude":"46.41555","Longitude":"-90.27013","Snowdepth":"1.000","Units":"in","Rept_Date":"2020-12-10 13"},"coordinates":[1598,6695]},{"type":"Point","properties":{"Station_ID":"WI-DG-20","Station_Nam":"SOLON SPRINGS 1.2 W, WI","Latitude":"46.35217","Longitude":"-91.84405","Snowdepth":"1.000","Units":"in","Rept_Date":"2020-12-10 13"},"coordinates":[1227,6655]},{"type":"Point","properties":{"Station_ID":"WALM3","Station_Nam":"WALPOLE 2","Latitude":"42.16090","Longitude":"-71.24610","Snowdepth":"1.000","Units":"in","Rept_Date":"2020-12-10 12"},"coordinates":[6083,4048]},{"type":"Point","properties":{"Station_ID":"WAIV1","Station_Nam":"WAITSFIELD","Latitude":"44.17560","Longitude":"-72.79610","Snowdepth":"1.000","Units":"in","Rept_Date":"2020-12-10 12"},"coordinates":[5717,5301]},{"type":"Point","properties":{"Station_ID":"VT-WS-11","Station_Nam":"WAITSFIELD 1.8 SE, VT","Latitude":"44.17551","Longitude":"-72.79540","Snowdepth":"1.000","Units":"in","Rept_Date":"2020-12-10 12"},"coordinates":[5717,5301]},{"type":"Point","properties":{"Station_ID":"VT-WS-10","Station_Nam":"NORTHFIELD 1.5 N, VT","Latitude":"44.16986","Longitude":"-72.65200","Snowdepth":"1.000","Units":"in","Rept_Date":"2020-12-10 12"},"coordinates":[5751,5297]},{"type":"Point","properties":{"Station_ID":"VT-WH-19","Station_Nam":"EAST DOVER 1.8 N, VT","Latitude":"42.97658","Longitude":"-72.77637","Snowdepth":"1.000","Units":"in","Rept_Date":"2020-12-10 11"},"coordinates":[5722,4555]},{"type":"Point","properties":{"Station_ID":"VT-RT-13","Station_Nam":"WEST RUTLAND 0.9 SSE, VT","Latitude":"43.58063","Longitude":"-73.04067","Snowdepth":"1.000","Units":"in","Rept_Date":"2020-12-10 13"},"coordinates":[5660,4931]},{"type":"Point","properties":{"Station_ID":"TOGM5","Station_Nam":"CELINA 2E","Latitude":"47.86630","Longitude":"-93.02660","Snowdepth":"1.000","Units":"in","Rept_Date":"2020-12-10 15"},"coordinates":[948,7597]},{"type":"Point","properties":{"Station_ID":"SURN3","Station_Nam":"SURRY MOUNTAIN LAKE","Latitude":"42.99630","Longitude":"-72.31310","Snowdepth":"1.000","Units":"in","Rept_Date":"2020-12-10 12"},"coordinates":[5831,4567]},{"type":"Point","properties":{"Station_ID":"SNOW2","Station_Nam":"SNOWSHOE","Latitude":"38.39900","Longitude":"-79.99490","Snowdepth":"1.000","Units":"in","Rept_Date":"2020-12-10 11"},"coordinates":[4020,1707]},{"type":"Point","properties":{"Station_ID":"SJBV1","Station_Nam":"SAINT JOHNSBURY","Latitude":"44.42000","Longitude":"-72.01940","Snowdepth":"1.000","Units":"in","Rept_Date":"2020-12-10 21"},"coordinates":[5900,5453]},{"type":"Point","properties":{"Station_ID":"SBOP1","Station_Nam":"SPRINGBORO","Latitude":"41.81660","Longitude":"-80.43330","Snowdepth":"1.000","Units":"in","Rept_Date":"2020-12-10 12"},"coordinates":[3917,3833]},{"type":"Point","properties":{"Station_ID":"ROWM3","Station_Nam":"ROWE 3NE","Latitude":"42.73500","Longitude":"-72.86920","Snowdepth":"1.000","Units":"in","Rept_Date":"2020-12-10 12"},"coordinates":[5700,4405]},{"type":"Point","properties":{"Station_ID":"RKHN6","Station_Nam":"ROCK HILL 3 SW","Latitude":"41.59170","Longitude":"-74.61410","Snowdepth":"1.000","Units":"in","Rept_Date":"2020-12-10 12"},"coordinates":[5289,3693]},{"type":"Point","properties":{"Station_ID":"RI-PR-50","Station_Nam":"HARRISVILLE 1.2 SSE, RI","Latitude":"41.95128","Longitude":"-71.67171","Snowdepth":"1.000","Units":"in","Rept_Date":"2020-12-10 12"},"coordinates":[5982,3917]},{"type":"Point","properties":{"Station_ID":"RI-PR-28","Station_Nam":"NORTH SMITHFIELD 0.7 SE, RI","Latitude":"41.95910","Longitude":"-71.54201","Snowdepth":"1.000","Units":"in","Rept_Date":"2020-12-10 12"},"coordinates":[6013,3922]},{"type":"Point","properties":{"Station_ID":"RI-KN-14","Station_Nam":"GREENE 1.4 E, RI","Latitude":"41.69155","Longitude":"-71.72380","Snowdepth":"1.000","Units":"in","Rept_Date":"2020-12-10 12"},"coordinates":[5970,3756]},{"type":"Point","properties":{"Station_ID":"PWM","Station_Nam":"RESIDUAL OFFICE TO PORTLAND WSFO (GYX)","Latitude":"43.64610","Longitude":"-70.30920","Snowdepth":"1.000","Units":"in","Rept_Date":"2020-12-10 12"},"coordinates":[6304,4972]},{"type":"Point","properties":{"Station_ID":"PSM","Station_Nam":"PEASE INTL TRADEPORT AP","Latitude":"43.07810","Longitude":"-70.82330","Snowdepth":"1.000","Units":"in","Rept_Date":"2020-12-10 12"},"coordinates":[6182,4618]},{"type":"Point","properties":{"Station_ID":"PLFV1","Station_Nam":"PLAINFIELD","Latitude":"44.27610","Longitude":"-72.41500","Snowdepth":"1.000","Units":"in","Rept_Date":"2020-12-10 12"},"coordinates":[5807,5364]},{"type":"Point","properties":{"Station_ID":"PHEW3","Station_Nam":"PHELPS","Latitude":"46.06630","Longitude":"-89.07520","Snowdepth":"1.000","Units":"in","Rept_Date":"2020-12-10 13"},"coordinates":[1879,6477]},{"type":"Point","properties":{"Station_ID":"PDGM4","Station_Nam":"PAULDING","Latitude":"46.39760","Longitude":"-89.17940","Snowdepth":"1.000","Units":"in","Rept_Date":"2020-12-10 15"},"coordinates":[1855,6683]},{"type":"Point","properties":{"Station_ID":"PA-CW-8","Station_Nam":"SPRINGBORO 3.0 WNW, PA","Latitude":"41.81654","Longitude":"-80.42540","Snowdepth":"1.000","Units":"in","Rept_Date":"2020-12-10 12"},"coordinates":[3919,3833]},{"type":"Point","properties":{"Station_ID":"OXFM3","Station_Nam":"BUFFUMVILLE LAKE","Latitude":"42.11630","Longitude":"-71.90740","Snowdepth":"1.000","Units":"in","Rept_Date":"2020-12-10 12"},"coordinates":[5927,4020]},{"type":"Point","properties":{"Station_ID":"OH-LR-25","Station_Nam":"NORTH RIDGEVILLE 2.5 NE, OH","Latitude":"41.41550","Longitude":"-81.98440","Snowdepth":"1.000","Units":"in","Rept_Date":"2020-12-10 12"},"coordinates":[3551,3584]},{"type":"Point","properties":{"Station_ID":"OH-CY-24","Station_Nam":"PARMA 1.9 NNW, OH","Latitude":"41.40881","Longitude":"-81.74480","Snowdepth":"1.000","Units":"in","Rept_Date":"2020-12-10 13"},"coordinates":[3608,3580]},{"type":"Point","properties":{"Station_ID":"NY-TM-4","Station_Nam":"GROTON 0.5 NW, NY","Latitude":"42.59127","Longitude":"-76.37200","Snowdepth":"1.000","Units":"in","Rept_Date":"2020-12-10 12"},"coordinates":[4874,4315]},{"type":"Point","properties":{"Station_ID":"NY-ST-45","Station_Nam":"CORNING 2.9 N, NY","Latitude":"42.18841","Longitude":"-77.06478","Snowdepth":"1.000","Units":"in","Rept_Date":"2020-12-10 12"},"coordinates":[4711,4065]},{"type":"Point","properties":{"Station_ID":"NY-ST-3","Station_Nam":"SOUTH CORNING 4.7 S, NY","Latitude":"42.05672","Longitude":"-77.04850","Snowdepth":"1.000","Units":"in","Rept_Date":"2020-12-10 14"},"coordinates":[4715,3983]},{"type":"Point","properties":{"Station_ID":"NY-SR-22","Station_Nam":"GREENFIELD CENTER 1.6 W, NY","Latitude":"43.12684","Longitude":"-73.87860","Snowdepth":"1.000","Units":"in","Rept_Date":"2020-12-10 13"},"coordinates":[5462,4649]},{"type":"Point","properties":{"Station_ID":"NY-OS-38","Station_Nam":"MEXICO COOP, NY","Latitude":"43.43830","Longitude":"-76.26570","Snowdepth":"1.000","Units":"in","Rept_Date":"2020-12-10 12"},"coordinates":[4899,4842]},{"type":"Point","properties":{"Station_ID":"NY-LW-12","Station_Nam":"CHASES LAKE COOP, NY","Latitude":"43.75924","Longitude":"-75.29982","Snowdepth":"1.000","Units":"in","Rept_Date":"2020-12-10 11"},"coordinates":[5127,5042]},{"type":"Point","properties":{"Station_ID":"NY-HM-10","Station_Nam":"LAKE PLEASANT 2.3 WSW, NY","Latitude":"43.45490","Longitude":"-74.45287","Snowdepth":"1.000","Units":"in","Rept_Date":"2020-12-10 12"},"coordinates":[5327,4853]},{"type":"Point","properties":{"Station_ID":"NY-CL-7","Station_Nam":"PERU 4.1 ESE, NY","Latitude":"44.56461","Longitude":"-73.45390","Snowdepth":"1.000","Units":"in","Rept_Date":"2020-12-10 11"},"coordinates":[5562,5543]},{"type":"Point","properties":{"Station_ID":"NY-CL-12","Station_Nam":"SARANAC 0.8 SSE, NY","Latitude":"44.63980","Longitude":"-73.73848","Snowdepth":"1.000","Units":"in","Rept_Date":"2020-12-10 12"},"coordinates":[5495,5590]},{"type":"Point","properties":{"Station_ID":"NY-AB-32","Station_Nam":"GLENMONT 2.5 SW, NY","Latitude":"42.57539","Longitude":"-73.79950","Snowdepth":"1.000","Units":"in","Rept_Date":"2020-12-10 12"},"coordinates":[5481,4305]},{"type":"Point","properties":{"Station_ID":"NRWN6","Station_Nam":"NORWICH","Latitude":"42.51170","Longitude":"-75.51970","Snowdepth":"1.000","Units":"in","Rept_Date":"2020-12-10 11"},"coordinates":[5075,4266]},{"type":"Point","properties":{"Station_ID":"NJ-WR-37","Station_Nam":"BLAIRSTOWN TWP 2.2 ESE, NJ","Latitude":"40.97150","Longitude":"-74.91980","Snowdepth":"1.000","Units":"in","Rept_Date":"2020-12-10 12"},"coordinates":[5217,3308]},{"type":"Point","properties":{"Station_ID":"NJ-WR-34","Station_Nam":"BLAIRSTOWN TWP 2.4 E, NJ","Latitude":"40.98140","Longitude":"-74.95230","Snowdepth":"1.000","Units":"in","Rept_Date":"2020-12-10 12"},"coordinates":[5209,3314]},{"type":"Point","properties":{"Station_ID":"NJ-SS-54","Station_Nam":"SPARTA TWP 3.6 SSW, NJ","Latitude":"41.00503","Longitude":"-74.66358","Snowdepth":"1.000","Units":"in","Rept_Date":"2020-12-10 12"},"coordinates":[5277,3328]},{"type":"Point","properties":{"Station_ID":"NJ-SM-5","Station_Nam":"BRIDGEWATER TWP 3.3 NW, NJ","Latitude":"40.62625","Longitude":"-74.65350","Snowdepth":"1.000","Units":"in","Rept_Date":"2020-12-10 12"},"coordinates":[5279,3093]},{"type":"Point","properties":{"Station_ID":"NJ-MS-98","Station_Nam":"HARDING TWP 2.4 W, NJ","Latitude":"40.74165","Longitude":"-74.54592","Snowdepth":"1.000","Units":"in","Rept_Date":"2020-12-10 12"},"coordinates":[5305,3165]},{"type":"Point","properties":{"Station_ID":"NJ-MS-71","Station_Nam":"DENVILLE TWP 1.5 ESE, NJ","Latitude":"40.88053","Longitude":"-74.46310","Snowdepth":"1.000","Units":"in","Rept_Date":"2020-12-10 12"},"coordinates":[5324,3251]},{"type":"Point","properties":{"Station_ID":"NJ-MS-42","Station_Nam":"RANDOLPH TWP 2.0 E, NJ","Latitude":"40.83980","Longitude":"-74.54320","Snowdepth":"1.000","Units":"in","Rept_Date":"2020-12-10 13"},"coordinates":[5305,3226]},{"type":"Point","properties":{"Station_ID":"NJ-MS-4","Station_Nam":"ROCKAWAY TWP 0.7 NE, NJ","Latitude":"40.96583","Longitude":"-74.48780","Snowdepth":"1.000","Units":"in","Rept_Date":"2020-12-10 13"},"coordinates":[5318,3304]},{"type":"Point","properties":{"Station_ID":"NJ-HN-7","Station_Nam":"BETHLEHEM TWP 0.6 S, NJ","Latitude":"40.65995","Longitude":"-75.00803","Snowdepth":"1.000","Units":"in","Rept_Date":"2020-12-10 11"},"coordinates":[5196,3114]},{"type":"Point","properties":{"Station_ID":"NJ-HN-21","Station_Nam":"LEBANON 2.8 N, NJ","Latitude":"40.68414","Longitude":"-74.83890","Snowdepth":"1.000","Units":"in","Rept_Date":"2020-12-10 11"},"coordinates":[5236,3129]},{"type":"Point","properties":{"Station_ID":"NJ-HN-18","Station_Nam":"CLINTON TWP 3.9 N, NJ","Latitude":"40.68717","Longitude":"-74.85750","Snowdepth":"1.000","Units":"in","Rept_Date":"2020-12-10 13"},"coordinates":[5231,3131]},{"type":"Point","properties":{"Station_ID":"NH-SL-3","Station_Nam":"WEST UNITY 0.7 WSW, NH","Latitude":"43.28652","Longitude":"-72.32970","Snowdepth":"1.000","Units":"in","Rept_Date":"2020-12-10 12"},"coordinates":[5827,4748]},{"type":"Point","properties":{"Station_ID":"NH-MR-63","Station_Nam":"SUTTON MILLS 0.1 ENE, NH","Latitude":"43.33522","Longitude":"-71.95126","Snowdepth":"1.000","Units":"in","Rept_Date":"2020-12-10 12"},"coordinates":[5916,4778]},{"type":"Point","properties":{"Station_ID":"NH-MR-60","Station_Nam":"SOUTH SUTTON 1.3 SE, NH","Latitude":"43.29531","Longitude":"-71.90238","Snowdepth":"1.000","Units":"in","Rept_Date":"2020-12-10 13"},"coordinates":[5928,4753]},{"type":"Point","properties":{"Station_ID":"NH-HL-25","Station_Nam":"AMHERST 3.7 NNE, NH","Latitude":"42.91409","Longitude":"-71.61020","Snowdepth":"1.000","Units":"in","Rept_Date":"2020-12-10 12"},"coordinates":[5997,4516]},{"type":"Point","properties":{"Station_ID":"NH-GR-46","Station_Nam":"ASHLAND 2.4 NNW, NH","Latitude":"43.72963","Longitude":"-71.64213","Snowdepth":"1.000","Units":"in","Rept_Date":"2020-12-10 12"},"coordinates":[5989,5024]},{"type":"Point","properties":{"Station_ID":"NH-CR-26","Station_Nam":"CENTER SANDWICH 4.9 E, NH","Latitude":"43.80976","Longitude":"-71.34150","Snowdepth":"1.000","Units":"in","Rept_Date":"2020-12-10 12"},"coordinates":[6060,5073]},{"type":"Point","properties":{"Station_ID":"NH-CH-21","Station_Nam":"KEENE 2.0 SE, NH","Latitude":"42.93133","Longitude":"-72.26822","Snowdepth":"1.000","Units":"in","Rept_Date":"2020-12-10 12"},"coordinates":[5842,4527]},{"type":"Point","properties":{"Station_ID":"NH-BK-18","Station_Nam":"NEW HAMPTON 4.1 N, NH","Latitude":"43.66397","Longitude":"-71.64270","Snowdepth":"1.000","Units":"in","Rept_Date":"2020-12-10 12"},"coordinates":[5989,4983]},{"type":"Point","properties":{"Station_ID":"NCKN6","Station_Nam":"NORTH CREEK 5 SE","Latitude":"43.66110","Longitude":"-73.89690","Snowdepth":"1.000","Units":"in","Rept_Date":"2020-12-10 12"},"coordinates":[5458,4981]},{"type":"Point","properties":{"Station_ID":"MXON6","Station_Nam":"MEXICO","Latitude":"43.43830","Longitude":"-76.26560","Snowdepth":"1.000","Units":"in","Rept_Date":"2020-12-10 12"},"coordinates":[4899,4842]},{"type":"Point","properties":{"Station_ID":"MQT","Station_Nam":"MARQUETTE, MI","Latitude":"46.53140","Longitude":"-87.54920","Snowdepth":"1.000","Units":"in","Rept_Date":"2020-12-11 06"},"coordinates":[2239,6767]},{"type":"Point","properties":{"Station_ID":"MN-SL-15","Station_Nam":"CHISHOLM 0.4 WSW, MN","Latitude":"47.48557","Longitude":"-92.88690","Snowdepth":"1.000","Units":"in","Rept_Date":"2020-12-10 13"},"coordinates":[981,7360]},{"type":"Point","properties":{"Station_ID":"MN-CK-6","Station_Nam":"GRAND MARAIS 4.4 W, MN","Latitude":"47.74865","Longitude":"-90.43760","Snowdepth":"1.000","Units":"in","Rept_Date":"2020-12-10 13"},"coordinates":[1558,7524]},{"type":"Point","properties":{"Station_ID":"MILM3","Station_Nam":"MILFORD","Latitude":"42.16330","Longitude":"-71.51190","Snowdepth":"1.000","Units":"in","Rept_Date":"2020-12-10 12"},"coordinates":[6020,4049]},{"type":"Point","properties":{"Station_ID":"MIEM4","Station_Nam":"MICHIGAMME 3WNW","Latitude":"46.54530","Longitude":"-88.18000","Snowdepth":"1.000","Units":"in","Rept_Date":"2020-12-10 13"},"coordinates":[2091,6775]},{"type":"Point","properties":{"Station_ID":"MIDM3","Station_Nam":"MIDDLETON","Latitude":"42.59340","Longitude":"-71.01870","Snowdepth":"1.000","Units":"in","Rept_Date":"2020-12-10 13"},"coordinates":[6136,4317]},{"type":"Point","properties":{"Station_ID":"ME-WL-8","Station_Nam":"WINTERPORT 2.9 N, ME","Latitude":"44.69369","Longitude":"-68.84800","Snowdepth":"1.000","Units":"in","Rept_Date":"2020-12-10 12"},"coordinates":[6648,5623]},{"type":"Point","properties":{"Station_ID":"ME-SG-1","Station_Nam":"BATH 1.1 WSW, ME","Latitude":"43.93063","Longitude":"-69.85730","Snowdepth":"1.000","Units":"in","Rept_Date":"2020-12-10 12"},"coordinates":[6410,5149]},{"type":"Point","properties":{"Station_ID":"ME-PN-47","Station_Nam":"MILFORD 0.8 SSW, ME","Latitude":"44.94108","Longitude":"-68.64154","Snowdepth":"1.000","Units":"in","Rept_Date":"2020-12-10 12"},"coordinates":[6697,5777]},{"type":"Point","properties":{"Station_ID":"ME-LN-26","Station_Nam":"TREVETT 0.3 NE, ME","Latitude":"43.88780","Longitude":"-69.66903","Snowdepth":"1.000","Units":"in","Rept_Date":"2020-12-10 12"},"coordinates":[6454,5122]},{"type":"Point","properties":{"Station_ID":"ME-CM-98","Station_Nam":"SEBAGO 2.4 ESE, ME","Latitude":"43.88000","Longitude":"-70.63000","Snowdepth":"1.000","Units":"in","Rept_Date":"2020-12-10 13"},"coordinates":[6228,5117]},{"type":"Point","properties":{"Station_ID":"ME-CM-18","Station_Nam":"PORTLAND 5.5 WNW, ME","Latitude":"43.70288","Longitude":"-70.30550","Snowdepth":"1.000","Units":"in","Rept_Date":"2020-12-10 12"},"coordinates":[6304,5007]},{"type":"Point","properties":{"Station_ID":"MCRW2","Station_Nam":"RUPERT 4N","Latitude":"38.01800","Longitude":"-80.68250","Snowdepth":"1.000","Units":"in","Rept_Date":"2020-12-10 12"},"coordinates":[3858,1470]},{"type":"Point","properties":{"Station_ID":"MBGM7","Station_Nam":"MISSOURI BOTANICAL GARDENS","Latitude":"38.61280","Longitude":"-90.26080","Snowdepth":"1.000","Units":"in","Rept_Date":"2020-12-11 06"},"coordinates":[1600,1840]},{"type":"Point","properties":{"Station_ID":"MAYP1","Station_Nam":"MAHANOY CITY,PA","Latitude":"40.83330","Longitude":"-76.13330","Snowdepth":"1.000","Units":"in","Rept_Date":"2020-12-10 12"},"coordinates":[4931,3222]},{"type":"Point","properties":{"Station_ID":"MALN6","Station_Nam":"MALONE","Latitude":"44.84180","Longitude":"-74.30600","Snowdepth":"1.000","Units":"in","Rept_Date":"2020-12-10 12"},"coordinates":[5361,5715]},