{"type":"Topology","objects":{"snowdepth_geo":{"type":"GeometryCollection","name":"snowdepth","crs":{"type":"name","properties":{"name":"urn:ogc:def:crs:OGC:1.3:CRS84"}},"geometries":[{"type":"Point","properties":{"Station_ID":"HPN11_MADIS","Station_Nam":"SAINT BONIFACIUS","Latitude":"44.89792","Longitude":"-93.73460","Snowdepth":"88.000","Units":"in","Rept_Date":"2021-01-19 05"},"coordinates":[907,5848]},{"type":"Point","properties":{"Station_ID":"PRKM4","Station_Nam":"MUNISING EAST","Latitude":"46.42580","Longitude":"-86.62000","Snowdepth":"76.500","Units":"in","Rept_Date":"2021-01-19 06"},"coordinates":[2749,6777]},{"type":"Point","properties":{"Station_ID":"CAN-ON-224","Station_Nam":"NAKINA 3.8 N - MNRF, CAN","Latitude":"50.21269","Longitude":"-86.70099","Snowdepth":"45.200","Units":"in","Rept_Date":"2021-01-18 15"},"coordinates":[2728,9079]},{"type":"Point","properties":{"Station_ID":"HTLN3","Station_Nam":"HERMIT LAKE SNOWPLOT","Latitude":"44.26130","Longitude":"-71.28330","Snowdepth":"31.000","Units":"in","Rept_Date":"2021-01-18 10"},"coordinates":[6720,5461]},{"type":"Point","properties":{"Station_ID":"MMNV1","Station_Nam":"MT. MANSFIELD","Latitude":"44.52480","Longitude":"-72.81540","Snowdepth":"29.000","Units":"in","Rept_Date":"2021-01-18 21"},"coordinates":[6323,5621]},{"type":"Point","properties":{"Station_ID":"HLSN3","Station_Nam":"HERMIT LAKE SNOTEL","Latitude":"44.26130","Longitude":"-71.28320","Snowdepth":"28.150","Units":"in","Rept_Date":"2021-01-19 06"},"coordinates":[6720,5461]},{"type":"Point","properties":{"Station_ID":"HGHN6","Station_Nam":"HIGHMARKET","Latitude":"43.60510","Longitude":"-75.55430","Snowdepth":"25.000","Units":"in","Rept_Date":"2021-01-18 11"},"coordinates":[5614,5062]},{"type":"Point","properties":{"Station_ID":"QCO","Station_Nam":"QCO","Latitude":"51.45280","Longitude":"-72.20110","Snowdepth":"23.622","Units":"in","Rept_Date":"2021-01-18 12"},"coordinates":[6482,9832]},{"type":"Point","properties":{"Station_ID":"VT-WR-17","Station_Nam":"ROCHESTER 2.3 NE, VT","Latitude":"43.89418","Longitude":"-72.76992","Snowdepth":"23.500","Units":"in","Rept_Date":"2021-01-18 12"},"coordinates":[6335,5238]},{"type":"Point","properties":{"Station_ID":"QLB","Station_Nam":"QLB","Latitude":"50.72360","Longitude":"-75.10000","Snowdepth":"21.614","Units":"in","Rept_Date":"2021-01-18 12"},"coordinates":[5732,9389]},{"type":"Point","properties":{"Station_ID":"VT-WS-7","Station_Nam":"MIDDLESEX 3.1 ENE, VT","Latitude":"44.31799","Longitude":"-72.62650","Snowdepth":"21.500","Units":"in","Rept_Date":"2021-01-18 14"},"coordinates":[6372,5496]},{"type":"Point","properties":{"Station_ID":"QGO","Station_Nam":"QGO","Latitude":"48.85500","Longitude":"-74.20640","Snowdepth":"21.063","Units":"in","Rept_Date":"2021-01-18 12"},"coordinates":[5963,8253]},{"type":"Point","properties":{"Station_ID":"RDFN6","Station_Nam":"REDFIELD 8N","Latitude":"43.64130","Longitude":"-75.88400","Snowdepth":"21.000","Units":"in","Rept_Date":"2021-01-18 12"},"coordinates":[5529,5084]},{"type":"Point","properties":{"Station_ID":"PERV1","Station_Nam":"PERU","Latitude":"43.26670","Longitude":"-72.90000","Snowdepth":"21.000","Units":"in","Rept_Date":"2021-01-18 12"},"coordinates":[6301,4857]},{"type":"Point","properties":{"Station_ID":"NY-HM-9","Station_Nam":"HOFFMEISTER 2.0 E, NY","Latitude":"43.38695","Longitude":"-74.67723","Snowdepth":"21.000","Units":"in","Rept_Date":"2021-01-18 13"},"coordinates":[5841,4930]},{"type":"Point","properties":{"Station_ID":"QCU","Station_Nam":"QCU","Latitude":"47.82750","Longitude":"-76.59830","Snowdepth":"20.866","Units":"in","Rept_Date":"2021-01-18 12"},"coordinates":[5344,7629]},{"type":"Point","properties":{"Station_ID":"VT-WS-5","Station_Nam":"BERLIN 4.3 WNW, VT","Latitude":"44.23360","Longitude":"-72.65610","Snowdepth":"20.500","Units":"in","Rept_Date":"2021-01-18 12"},"coordinates":[6365,5444]},{"type":"Point","properties":{"Station_ID":"VT-BN-12","Station_Nam":"STAMFORD 5.0 NNE, VT","Latitude":"42.82000","Longitude":"-73.02000","Snowdepth":"20.500","Units":"in","Rept_Date":"2021-01-18 21"},"coordinates":[6270,4585]},{"type":"Point","properties":{"Station_ID":"QOU","Station_Nam":"QOU","Latitude":"50.79250","Longitude":"-69.67470","Snowdepth":"20.276","Units":"in","Rept_Date":"2021-01-18 12"},"coordinates":[7136,9431]},{"type":"Point","properties":{"Station_ID":"QTM","Station_Nam":"QTM","Latitude":"51.05780","Longitude":"-72.57190","Snowdepth":"20.118","Units":"in","Rept_Date":"2021-01-18 12"},"coordinates":[6386,9592]},{"type":"Point","properties":{"Station_ID":"NH-CS-10","Station_Nam":"RANDOLPH 1.4 NE, NH","Latitude":"44.38824","Longitude":"-71.26950","Snowdepth":"20.000","Units":"in","Rept_Date":"2021-01-18 12"},"coordinates":[6724,5538]},{"type":"Point","properties":{"Station_ID":"TRIQ6","Station_Nam":"TRIO LAKE","Latitude":"49.22880","Longitude":"-87.22920","Snowdepth":"19.690","Units":"in","Rept_Date":"2021-01-19 06"},"coordinates":[2592,8481]},{"type":"Point","properties":{"Station_ID":"ROWM3","Station_Nam":"ROWE 3NE","Latitude":"42.73500","Longitude":"-72.86920","Snowdepth":"19.000","Units":"in","Rept_Date":"2021-01-18 14"},"coordinates":[6309,4533]},{"type":"Point","properties":{"Station_ID":"LBKV1","Station_Nam":"LYE BROOK","Latitude":"43.05000","Longitude":"-73.03330","Snowdepth":"19.000","Units":"in","Rept_Date":"2021-01-19 05"},"coordinates":[6267,4725]},{"type":"Point","properties":{"Station_ID":"PTLQ6","Station_Nam":"PORTAGE LAKE","Latitude":"49.06950","Longitude":"-86.65940","Snowdepth":"18.940","Units":"in","Rept_Date":"2021-01-19 06"},"coordinates":[2739,8384]},{"type":"Point","properties":{"Station_ID":"AUDQ6","Station_Nam":"AUDEN","Latitude":"48.52600","Longitude":"-82.57570","Snowdepth":"18.540","Units":"in","Rept_Date":"2021-01-19 06"},"coordinates":[3796,8053]},{"type":"Point","properties":{"Station_ID":"OCON6","Station_Nam":"OSCEOLA","Latitude":"43.50370","Longitude":"-75.72170","Snowdepth":"18.000","Units":"in","Rept_Date":"2021-01-18 13"},"coordinates":[5571,5001]},{"type":"Point","properties":{"Station_ID":"42.1173_079.8962","Station_Nam":"4 W Colt Station  Trained Spotter (CLE0298)","Latitude":"42.11734","Longitude":"-79.89615","Snowdepth":"18.000","Units":"in","Rept_Date":"2021-01-19 01"},"coordinates":[4490,4158]},{"type":"Point","properties":{"Station_ID":"QFT","Station_Nam":"QFT","Latitude":"50.83280","Longitude":"-74.40390","Snowdepth":"17.835","Units":"in","Rept_Date":"2021-01-18 12"},"coordinates":[5912,9456]},{"type":"Point","properties":{"Station_ID":"MLZ","Station_Nam":"MLZ","Latitude":"50.66170","Longitude":"-68.82360","Snowdepth":"17.480","Units":"in","Rept_Date":"2021-01-18 12"},"coordinates":[7357,9352]},{"type":"Point","properties":{"Station_ID":"WORV1","Station_Nam":"WORCESTER 2 W","Latitude":"44.37470","Longitude":"-72.58220","Snowdepth":"17.000","Units":"in","Rept_Date":"2021-01-18 12"},"coordinates":[6384,5530]},{"type":"Point","properties":{"Station_ID":"WAIV1","Station_Nam":"WAITSFIELD","Latitude":"44.17560","Longitude":"-72.79610","Snowdepth":"17.000","Units":"in","Rept_Date":"2021-01-18 12"},"coordinates":[6328,5409]},{"type":"Point","properties":{"Station_ID":"VT-WS-30","Station_Nam":"WOODBURY 3.4 NNW, VT","Latitude":"44.48825","Longitude":"-72.43258","Snowdepth":"17.000","Units":"in","Rept_Date":"2021-01-18 12"},"coordinates":[6422,5599]},{"type":"Point","properties":{"Station_ID":"VT-WS-11","Station_Nam":"WAITSFIELD 1.8 SE, VT","Latitude":"44.17551","Longitude":"-72.79540","Snowdepth":"17.000","Units":"in","Rept_Date":"2021-01-18 12"},"coordinates":[6329,5409]},{"type":"Point","properties":{"Station_ID":"MWN","Station_Nam":"MOUNT WASHINGTON","Latitude":"44.26670","Longitude":"-71.30000","Snowdepth":"17.000","Units":"in","Rept_Date":"2021-01-18 12"},"coordinates":[6716,5464]},{"type":"Point","properties":{"Station_ID":"KMWN","Station_Nam":"MOUNT WASHINGTON","Latitude":"44.26666","Longitude":"-71.30000","Snowdepth":"17.000","Units":"in","Rept_Date":"2021-01-19 06"},"coordinates":[6716,5464]},{"type":"Point","properties":{"Station_ID":"DVLQ6","Station_Nam":"DEVIOUS LAKE","Latitude":"49.19890","Longitude":"-87.76440","Snowdepth":"16.930","Units":"in","Rept_Date":"2021-01-19 06"},"coordinates":[2453,8462]},{"type":"Point","properties":{"Station_ID":"VT-OL-12","Station_Nam":"GREENSBORO 3.9 NNE, VT","Latitude":"44.63100","Longitude":"-72.28000","Snowdepth":"16.500","Units":"in","Rept_Date":"2021-01-18 11"},"coordinates":[6462,5686]},{"type":"Point","properties":{"Station_ID":"PDLM4","Station_Nam":"PAINESDALE","Latitude":"47.04160","Longitude":"-88.67170","Snowdepth":"16.000","Units":"in","Rept_Date":"2021-01-18 13"},"coordinates":[2218,7151]},{"type":"Point","properties":{"Station_ID":"NCBN6","Station_Nam":"NEWCOMB","Latitude":"43.97070","Longitude":"-74.22200","Snowdepth":"16.000","Units":"in","Rept_Date":"2021-01-18 13"},"coordinates":[5959,5285]},{"type":"Point","properties":{"Station_ID":"IWOM4","Station_Nam":"IRONWOOD#2","Latitude":"46.46520","Longitude":"-90.13820","Snowdepth":"16.000","Units":"in","Rept_Date":"2021-01-18 13"},"coordinates":[1838,6801]},{"type":"Point","properties":{"Station_ID":"HURW3","Station_Nam":"HURLEY","Latitude":"46.46250","Longitude":"-90.19550","Snowdepth":"16.000","Units":"in","Rept_Date":"2021-01-18 14"},"coordinates":[1824,6799]},{"type":"Point","properties":{"Station_ID":"BOON6","Station_Nam":"BOONVILLE 4 SSW","Latitude":"43.43610","Longitude":"-75.36970","Snowdepth":"16.000","Units":"in","Rept_Date":"2021-01-18 12"},"coordinates":[5662,4960]},{"type":"Point","properties":{"Station_ID":"42.0800_080.0143","Station_Nam":"ERIE 5SE  SNOW SPOTTER (X4210800)","Latitude":"42.08000","Longitude":"-80.01430","Snowdepth":"16.000","Units":"in","Rept_Date":"2021-01-19 00"},"coordinates":[4459,4135]},{"type":"Point","properties":{"Station_ID":"VT-WS-33","Station_Nam":"WAITSFIELD 3.5 WNW, VT","Latitude":"44.20052","Longitude":"-72.89421","Snowdepth":"15.500","Units":"in","Rept_Date":"2021-01-18 13"},"coordinates":[6303,5424]},{"type":"Point","properties":{"Station_ID":"VT-WR-2","Station_Nam":"POMFRET 2.6 N, VT","Latitude":"43.74230","Longitude":"-72.52550","Snowdepth":"15.500","Units":"in","Rept_Date":"2021-01-18 12"},"coordinates":[6398,5146]},{"type":"Point","properties":{"Station_ID":"WNDP1","Station_Nam":"WINDBER COUNTY CLUB","Latitude":"40.28780","Longitude":"-78.77530","Snowdepth":"15.000","Units":"in","Rept_Date":"2021-01-18 12"},"coordinates":[4780,3046]},{"type":"Point","properties":{"Station_ID":"VT-WS-10","Station_Nam":"NORTHFIELD 1.5 N, VT","Latitude":"44.16986","Longitude":"-72.65200","Snowdepth":"15.000","Units":"in","Rept_Date":"2021-01-18 12"},"coordinates":[6366,5406]},{"type":"Point","properties":{"Station_ID":"NY-LW-12","Station_Nam":"CHASES LAKE COOP, NY","Latitude":"43.75924","Longitude":"-75.29982","Snowdepth":"15.000","Units":"in","Rept_Date":"2021-01-18 11"},"coordinates":[5680,5156]},{"type":"Point","properties":{"Station_ID":"GFDN6","Station_Nam":"CHASES LAKE","Latitude":"43.75920","Longitude":"-75.29980","Snowdepth":"15.000","Units":"in","Rept_Date":"2021-01-18 11"},"coordinates":[5680,5156]},{"type":"Point","properties":{"Station_ID":"CAN-ON-245","Station_Nam":"PHELPSTON 3.1 ESE, CAN","Latitude":"44.50564","Longitude":"-79.81035","Snowdepth":"15.000","Units":"in","Rept_Date":"2021-01-18 13"},"coordinates":[4512,5610]},{"type":"Point","properties":{"Station_ID":"CAN-NB-13","Station_Nam":"BATHURST 3.8 NW, CAN","Latitude":"47.64212","Longitude":"-65.68756","Snowdepth":"15.000","Units":"in","Rept_Date":"2021-01-18 11"},"coordinates":[8169,7516]},{"type":"Point","properties":{"Station_ID":"42.1284_079.8945","Station_Nam":"NORTHEAST 6SW (CLE0249)","Latitude":"42.12840","Longitude":"-79.89450","Snowdepth":"15.000","Units":"in","Rept_Date":"2021-01-18 23"},"coordinates":[4491,4165]},{"type":"Point","properties":{"Station_ID":"QWE","Station_Nam":"QWE","Latitude":"47.84610","Longitude":"-73.80670","Snowdepth":"14.961","Units":"in","Rept_Date":"2021-01-18 12"},"coordinates":[6067,7640]},{"type":"Point","properties":{"Station_ID":"CAN-ON-335","Station_Nam":"NAKINA 1.6 NW - MNRF, CAN","Latitude":"50.18910","Longitude":"-86.72684","Snowdepth":"14.700","Units":"in","Rept_Date":"2021-01-18 13"},"coordinates":[2722,9064]},{"type":"Point","properties":{"Station_ID":"NY-OD-2","Station_Nam":"POINT ROCK 0.6 SE, NY","Latitude":"43.37335","Longitude":"-75.53840","Snowdepth":"14.500","Units":"in","Rept_Date":"2021-01-18 13"},"coordinates":[5618,4921]},{"type":"Point","properties":{"Station_ID":"NY-HR-18","Station_Nam":"SALISBURY CENTER 1.8 NW, NY","Latitude":"43.16260","Longitude":"-74.80880","Snowdepth":"14.500","Units":"in","Rept_Date":"2021-01-18 10"},"coordinates":[5807,4793]},{"type":"Point","properties":{"Station_ID":"VT-CH-13","Station_Nam":"RICHMOND 3.4 SSE, VT","Latitude":"44.36084","Longitude":"-72.96400","Snowdepth":"14.000","Units":"in","Rept_Date":"2021-01-18 12"},"coordinates":[6285,5522]},{"type":"Point","properties":{"Station_ID":"RANM1","Station_Nam":"RANGELEY","Latitude":"44.98910","Longitude":"-70.67190","Snowdepth":"14.000","Units":"in","Rept_Date":"2021-01-18 17"},"coordinates":[6878,5904]},{"type":"Point","properties":{"Station_ID":"MQT","Station_Nam":"MARQUETTE, MI","Latitude":"46.53140","Longitude":"-87.54920","Snowdepth":"14.000","Units":"in","Rept_Date":"2021-01-19 06"},"coordinates":[2509,6841]},{"type":"Point","properties":{"Station_ID":"JEFV1","Station_Nam":"JEFFERSONVILLE","Latitude":"44.58430","Longitude":"-72.78700","Snowdepth":"14.000","Units":"in","Rept_Date":"2021-01-18 12"},"coordinates":[6331,5658]},{"type":"Point","properties":{"Station_ID":"CAN-QC-37","Station_Nam":"LAVAL 3.8 SSW, CAN","Latitude":"45.55358","Longitude":"-73.76976","Snowdepth":"14.000","Units":"in","Rept_Date":"2021-01-18 13"},"coordinates":[6076,6247]},{"type":"Point","properties":{"Station_ID":"QCX","Station_Nam":"QCX","Latitude":"51.32830","Longitude":"-70.08060","Snowdepth":"13.819","Units":"in","Rept_Date":"2021-01-18 12"},"coordinates":[7031,9757]},{"type":"Point","properties":{"Station_ID":"MN-IT-7","Station_Nam":"GRAND RAPIDS 6.2 SSW, MN","Latitude":"47.13687","Longitude":"-93.56660","Snowdepth":"13.600","Units":"in","Rept_Date":"2021-01-18 12"},"coordinates":[951,7209]},{"type":"Point","properties":{"Station_ID":"NY-HM-10","Station_Nam":"LAKE PLEASANT 2.3 WSW, NY","Latitude":"43.45490","Longitude":"-74.45287","Snowdepth":"13.500","Units":"in","Rept_Date":"2021-01-18 12"},"coordinates":[5899,4971]},{"type":"Point","properties":{"Station_ID":"QTV","Station_Nam":"QTV","Latitude":"49.66000","Longitude":"-69.35690","Snowdepth":"13.465","Units":"in","Rept_Date":"2021-01-18 12"},"coordinates":[7219,8743]},{"type":"Point","properties":{"Station_ID":"QMD","Station_Nam":"QMD","Latitude":"49.29060","Longitude":"-75.84500","Snowdepth":"13.386","Units":"in","Rept_Date":"2021-01-18 12"},"coordinates":[5539,8518]},{"type":"Point","properties":{"Station_ID":"OGIQ6","Station_Nam":"OGOKI CAMP","Latitude":"50.76680","Longitude":"-87.85820","Snowdepth":"13.190","Units":"in","Rept_Date":"2021-01-19 06"},"coordinates":[2429,9415]},{"type":"Point","properties":{"Station_ID":"WLFM5","Station_Nam":"WOLF RIDGE ENVIRON LEARNING CENTER","Latitude":"47.38240","Longitude":"-91.19730","Snowdepth":"13.000","Units":"in","Rept_Date":"2021-01-18 13"},"coordinates":[1564,7358]},{"type":"Point","properties":{"Station_ID":"WI-BY-14","Station_Nam":"ASHLAND 9.8 W, WI","Latitude":"46.59742","Longitude":"-91.07856","Snowdepth":"13.000","Units":"in","Rept_Date":"2021-01-18 12"},"coordinates":[1595,6881]},{"type":"Point","properties":{"Station_ID":"VT-WS-19","Station_Nam":"WATERBURY 3.0 NW, VT","Latitude":"44.36060","Longitude":"-72.80770","Snowdepth":"13.000","Units":"in","Rept_Date":"2021-01-18 11"},"coordinates":[6325,5522]},{"type":"Point","properties":{"Station_ID":"VT-WH-19","Station_Nam":"EAST DOVER 1.8 N, VT","Latitude":"42.97658","Longitude":"-72.77637","Snowdepth":"13.000","Units":"in","Rept_Date":"2021-01-18 12"},"coordinates":[6333,4680]},{"type":"Point","properties":{"Station_ID":"SLNV1","Station_Nam":"SOUTH LINCOLN","Latitude":"44.07460","Longitude":"-72.97180","Snowdepth":"13.000","Units":"in","Rept_Date":"2021-01-18 12"},"coordinates":[6283,5348]},{"type":"Point","properties":{"Station_ID":"RGNM1","Station_Nam":"RANGELEY 2NW","Latitude":"44.98940","Longitude":"-70.67220","Snowdepth":"13.000","Units":"in","Rept_Date":"2021-01-18 17"},"coordinates":[6878,5904]},{"type":"Point","properties":{"Station_ID":"NY-ES-6","Station_Nam":"OLMSTEDVILLE 4.6 NNE, NY","Latitude":"43.83350","Longitude":"-73.89780","Snowdepth":"13.000","Units":"in","Rept_Date":"2021-01-18 13"},"coordinates":[6043,5201]},{"type":"Point","properties":{"Station_ID":"NOHM5","Station_Nam":"NORTHOME","Latitude":"47.83590","Longitude":"-94.25550","Snowdepth":"13.000","Units":"in","Rept_Date":"2021-01-18 13"},"coordinates":[772,7634]},{"type":"Point","properties":{"Station_ID":"LPLN6","Station_Nam":"LAKE PLACID 2 S","Latitude":"44.30420","Longitude":"-73.98390","Snowdepth":"13.000","Units":"in","Rept_Date":"2021-01-18 13"},"coordinates":[6021,5487]},{"type":"Point","properties":{"Station_ID":"LAUP1","Station_Nam":"1.5MI S OF RT 30 ON SMIT (LAUREL RIDGE)","Latitude":"40.05000","Longitude":"-79.22060","Snowdepth":"13.000","Units":"in","Rept_Date":"2021-01-18 12"},"coordinates":[4665,2901]},{"type":"Point","properties":{"Station_ID":"IRMM4","Station_Nam":"WWTP","Latitude":"46.46670","Longitude":"-90.18330","Snowdepth":"13.000","Units":"in","Rept_Date":"2021-01-18 13"},"coordinates":[1827,6802]},{"type":"Point","properties":{"Station_ID":"42.1154_080.1310","Station_Nam":"ERIE  SNOW SPOTTER (CLE0161)","Latitude":"42.11540","Longitude":"-80.13100","Snowdepth":"13.000","Units":"in","Rept_Date":"2021-01-18 23"},"coordinates":[4429,4157]},{"type":"Point","properties":{"Station_ID":"42.0816_080.1778","Station_Nam":"Erie Intl Airport  Trained Spotter (CLE0102)","Latitude":"42.08163","Longitude":"-80.17779","Snowdepth":"13.000","Units":"in","Rept_Date":"2021-01-19 00"},"coordinates":[4417,4136]},{"type":"Point","properties":{"Station_ID":"KABQ6","Station_Nam":"CAB LAKE","Latitude":"49.59950","Longitude":"-89.17990","Snowdepth":"12.990","Units":"in","Rept_Date":"2021-01-19 06"},"coordinates":[2086,8706]},{"type":"Point","properties":{"Station_ID":"CAN-QC-51","Station_Nam":"BELOEIL 0.7 NW, CAN","Latitude":"45.58049","Longitude":"-73.21218","Snowdepth":"12.800","Units":"in","Rept_Date":"2021-01-18 12"},"coordinates":[6221,6263]},{"type":"Point","properties":{"Station_ID":"VT-OL-1","Station_Nam":"WESTFIELD 0.7 WNW, VT","Latitude":"44.89160","Longitude":"-72.44350","Snowdepth":"12.500","Units":"in","Rept_Date":"2021-01-18 12"},"coordinates":[6420,5844]},{"type":"Point","properties":{"Station_ID":"NY-HM-6","Station_Nam":"LONG LAKE 0.1 SSE, NY","Latitude":"43.97155","Longitude":"-74.42000","Snowdepth":"12.500","Units":"in","Rept_Date":"2021-01-18 12"},"coordinates":[5908,5285]},{"type":"Point","properties":{"Station_ID":"NY-FK-9","Station_Nam":"GABRIELS 1.3 SE, NY","Latitude":"44.41934","Longitude":"-74.16194","Snowdepth":"12.500","Units":"in","Rept_Date":"2021-01-18 12"},"coordinates":[5975,5557]},{"type":"Point","properties":{"Station_ID":"NY-ER-195","Station_Nam":"SPRINGVILLE 0.4 NE, NY","Latitude":"42.51351","Longitude":"-78.66492","Snowdepth":"12.500","Units":"in","Rept_Date":"2021-01-19 05"},"coordinates":[4809,4399]},{"type":"Point","properties":{"Station_ID":"CAN-ON-791","Station_Nam":"METCALFE 4.4 NNW, CAN","Latitude":"45.27286","Longitude":"-75.48952","Snowdepth":"12.200","Units":"in","Rept_Date":"2021-01-18 11"},"coordinates":[5631,6076]},{"type":"Point","properties":{"Station_ID":"QLP","Station_Nam":"QLP","Latitude":"48.13920","Longitude":"-72.63830","Snowdepth":"12.008","Units":"in","Rept_Date":"2021-01-18 12"},"coordinates":[6369,7818]},{"type":"Point","properties":{"Station_ID":"WI-BY-2","Station_Nam":"MELLEN 18.6 SW, WI","Latitude":"46.16937","Longitude":"-90.98090","Snowdepth":"12.000","Units":"in","Rept_Date":"2021-01-18 13"},"coordinates":[1620,6621]},{"type":"Point","properties":{"Station_ID":"VT-WS-23","Station_Nam":"CABOT 2.3 E, VT","Latitude":"44.39807","Longitude":"-72.26570","Snowdepth":"12.000","Units":"in","Rept_Date":"2021-01-18 12"},"coordinates":[6466,5544]},{"type":"Point","properties":{"Station_ID":"VT-WH-30","Station_Nam":"MARLBORO 2.0 NNE, VT","Latitude":"42.88484","Longitude":"-72.70935","Snowdepth":"12.000","Units":"in","Rept_Date":"2021-01-18 13"},"coordinates":[6351,4625]},{"type":"Point","properties":{"Station_ID":"VT-CH-7","Station_Nam":"HUNTINGTON 1.1 E, VT","Latitude":"44.32488","Longitude":"-72.96570","Snowdepth":"12.000","Units":"in","Rept_Date":"2021-01-18 12"},"coordinates":[6284,5500]},{"type":"Point","properties":{"Station_ID":"SGVN6","Station_Nam":"SPRINGVILLE","Latitude":"42.54970","Longitude":"-78.57670","Snowdepth":"12.000","Units":"in","Rept_Date":"2021-01-19 00"},"coordinates":[4832,4421]},{"type":"Point","properties":{"Station_ID":"PTBN3","Station_Nam":"PITTSBURG RESERVOIR","Latitude":"45.04690","Longitude":"-71.38300","Snowdepth":"12.000","Units":"in","Rept_Date":"2021-01-18 12"},"coordinates":[6694,5939]},{"type":"Point","properties":{"Station_ID":"NY-SL-6","Station_Nam":"HANNAWA FALLS 0.1 SW, NY","Latitude":"44.61154","Longitude":"-74.97190","Snowdepth":"12.000","Units":"in","Rept_Date":"2021-01-18 12"},"coordinates":[5765,5674]},{"type":"Point","properties":{"Station_ID":"NUNV1","Station_Nam":"NORTH UNDERHILL","Latitude":"44.58760","Longitude":"-72.92150","Snowdepth":"12.000","Units":"in","Rept_Date":"2021-01-18 12"},"coordinates":[6296,5660]},{"type":"Point","properties":{"Station_ID":"MRLV1","Station_Nam":"MARLBORO","Latitude":"42.86000","Longitude":"-72.72000","Snowdepth":"12.000","Units":"in","Rept_Date":"2021-01-18 13"},"coordinates":[6348,4609]},{"type":"Point","properties":{"Station_ID":"MN-SL-15","Station_Nam":"CHISHOLM 0.4 WSW, MN","Latitude":"47.48557","Longitude":"-92.88690","Snowdepth":"12.000","Units":"in","Rept_Date":"2021-01-18 13"},"coordinates":[1127,7421]},{"type":"Point","properties":{"Station_ID":"MN-LK-4","Station_Nam":"TWO HARBORS 3.6 WNW, MN","Latitude":"47.04118","Longitude":"-91.75280","Snowdepth":"12.000","Units":"in","Rept_Date":"2021-01-18 13"},"coordinates":[1420,7151]},{"type":"Point","properties":{"Station_ID":"MN-IS-18","Station_Nam":"BRAHAM 0.7 SW, MN","Latitude":"45.71379","Longitude":"-93.18095","Snowdepth":"12.000","Units":"in","Rept_Date":"2021-01-18 14"},"coordinates":[1051,6344]},{"type":"Point","properties":{"Station_ID":"MI-KW-2","Station_Nam":"DELAWARE 5.2 SW, MI","Latitude":"47.36928","Longitude":"-88.17919","Snowdepth":"12.000","Units":"in","Rept_Date":"2021-01-18 09"},"coordinates":[2346,7350]},{"type":"Point","properties":{"Station_ID":"ME-FR-2","Station_Nam":"TEMPLE 1.8 W, ME","Latitude":"44.68329","Longitude":"-70.26420","Snowdepth":"12.000","Units":"in","Rept_Date":"2021-01-18 12"},"coordinates":[6984,5718]},{"type":"Point","properties":{"Station_ID":"KGTB","Station_Nam":"FORT DRUM / WHEELER-SACK U. S. ARMY AIRFIELD","Latitude":"44.05000","Longitude":"-75.73333","Snowdepth":"12.000","Units":"in","Rept_Date":"2021-01-19 06"},"coordinates":[5568,5333]},{"type":"Point","properties":{"Station_ID":"KABM5","Station_Nam":"KABETOGAMA LAKE VISITOR CTR","Latitude":"48.40880","Longitude":"-93.04840","Snowdepth":"12.000","Units":"in","Rept_Date":"2021-01-18 14"},"coordinates":[1085,7982]},{"type":"Point","properties":{"Station_ID":"JOHV1","Station_Nam":"JOHNSON 2 N","Latitude":"44.65790","Longitude":"-72.67850","Snowdepth":"12.000","Units":"in","Rept_Date":"2021-01-18 12"},"coordinates":[6359,5702]},{"type":"Point","properties":{"Station_ID":"INDM5","Station_Nam":"INDUS,MN","Latitude":"48.61670","Longitude":"-93.90000","Snowdepth":"12.000","Units":"in","Rept_Date":"2021-01-18 14"},"coordinates":[864,8109]},{"type":"Point","properties":{"Station_ID":"HUBN3","Station_Nam":"HUBBARD BROOK","Latitude":"43.93330","Longitude":"-71.71670","Snowdepth":"12.000","Units":"in","Rept_Date":"2021-01-19 06"},"coordinates":[6608,5262]},{"type":"Point","properties":{"Station_ID":"HERM4","Station_Nam":"HERMAN,MI","Latitude":"46.65000","Longitude":"-88.33330","Snowdepth":"12.000","Units":"in","Rept_Date":"2021-01-18 13"},"coordinates":[2306,6913]},{"type":"Point","properties":{"Station_ID":"FISM1","Station_Nam":"FORT KENT COOP","Latitude":"47.23850","Longitude":"-68.61240","Snowdepth":"12.000","Units":"in","Rept_Date":"2021-01-18 12"},"coordinates":[7412,7271]},{"type":"Point","properties":{"Station_ID":"EHYM3","Station_Nam":"EAST HAWLEY","Latitude":"42.57410","Longitude":"-72.86790","Snowdepth":"12.000","Units":"in","Rept_Date":"2021-01-18 14"},"coordinates":[6310,4436]},{"type":"Point","properties":{"Station_ID":"CMKW3","Station_Nam":"CLAM LAKE 4W","Latitude":"46.16940","Longitude":"-90.98080","Snowdepth":"12.000","Units":"in","Rept_Date":"2021-01-18 13"},"coordinates":[1620,6621]},{"type":"Point","properties":{"Station_ID":"CAN-QC-56","Station_Nam":"SUTTON 2.6 N, CAN","Latitude":"45.13119","Longitude":"-72.61218","Snowdepth":"12.000","Units":"in","Rept_Date":"2021-01-18 12"},"coordinates":[6376,5990]},{"type":"Point","properties":{"Station_ID":"42.0231_080.0856","Station_Nam":"3 ENE McKean  Trained Spotter (X4200801)","Latitude":"42.02314","Longitude":"-80.08558","Snowdepth":"12.000","Units":"in","Rept_Date":"2021-01-19 01"},"coordinates":[4441,4101]},{"type":"Point","properties":{"Station_ID":"SOCQ6","Station_Nam":"SOCKET LAKE","Latitude":"50.77870","Longitude":"-91.79300","Snowdepth":"11.970","Units":"in","Rept_Date":"2021-01-19 06"},"coordinates":[1410,9423]},{"type":"Point","properties":{"Station_ID":"QLI","Station_Nam":"QLI","Latitude":"50.27080","Longitude":"-73.92280","Snowdepth":"11.929","Units":"in","Rept_Date":"2021-01-18 12"},"coordinates":[6037,9114]},{"type":"Point","properties":{"Station_ID":"QIQ","Station_Nam":"QIQ","Latitude":"49.82390","Longitude":"-68.54310","Snowdepth":"11.811","Units":"in","Rept_Date":"2021-01-18 12"},"coordinates":[7429,8842]},{"type":"Point","properties":{"Station_ID":"CAN-ON-220","Station_Nam":"DEEP RIVER 1.5 SE - MNRF, CAN","Latitude":"46.09592","Longitude":"-77.47853","Snowdepth":"11.800","Units":"in","Rept_Date":"2021-01-18 15"},"coordinates":[5116,6576]},{"type":"Point","properties":{"Station_ID":"MI-BG-3","Station_Nam":"THREE LAKES, MI","Latitude":"46.55730","Longitude":"-88.20770","Snowdepth":"11.600","Units":"in","Rept_Date":"2021-01-18 13"},"coordinates":[2338,6857]},{"type":"Point","properties":{"Station_ID":"VT-CH-4","Station_Nam":"UNDERHILL 4.4 NNE, VT","Latitude":"44.58774","Longitude":"-72.92250","Snowdepth":"11.500","Units":"in","Rept_Date":"2021-01-18 12"},"coordinates":[6296,5660]},{"type":"Point","properties":{"Station_ID":"VT-CH-11","Station_Nam":"UNDERHILL 5.1 NNE, VT","Latitude":"44.59811","Longitude":"-72.91880","Snowdepth":"11.500","Units":"in","Rept_Date":"2021-01-18 13"},"coordinates":[6297,5666]},{"type":"Point","properties":{"Station_ID":"MN-SL-143","Station_Nam":"CANYON 4.6 NNE, MN","Latitude":"47.09800","Longitude":"-92.42170","Snowdepth":"11.500","Units":"in","Rept_Date":"2021-01-18 13"},"coordinates":[1247,7185]},{"type":"Point","properties":{"Station_ID":"QGA","Station_Nam":"QGA","Latitude":"47.25640","Longitude":"-73.73810","Snowdepth":"11.417","Units":"in","Rept_Date":"2021-01-18 12"},"coordinates":[6084,7282]},{"type":"Point","properties":{"Station_ID":"QMA","Station_Nam":"QMA","Latitude":"50.10330","Longitude":"-70.47190","Snowdepth":"11.220","Units":"in","Rept_Date":"2021-01-18 12"},"coordinates":[6930,9012]},{"type":"Point","properties":{"Station_ID":"SVBQ6","Station_Nam":"SAVANT BASE","Latitude":"50.28730","Longitude":"-90.65670","Snowdepth":"11.220","Units":"in","Rept_Date":"2021-01-19 06"},"coordinates":[1704,9124]},{"type":"Point","properties":{"Station_ID":"WRSM5","Station_Nam":"WRENSHALL","Latitude":"46.61550","Longitude":"-92.38380","Snowdepth":"11.000","Units":"in","Rept_Date":"2021-01-18 14"},"coordinates":[1257,6892]},{"type":"Point","properties":{"Station_ID":"WI-IR-3","Station_Nam":"PENCE 0.1 E, WI","Latitude":"46.41555","Longitude":"-90.27013","Snowdepth":"11.000","Units":"in","Rept_Date":"2021-01-18 13"},"coordinates":[1804,6771]},{"type":"Point","properties":{"Station_ID":"TOPN6","Station_Nam":"TUPPER LAKE SUNMOUNT","Latitude":"44.23070","Longitude":"-74.43820","Snowdepth":"11.000","Units":"in","Rept_Date":"2021-01-18 12"},"coordinates":[5903,5443]},{"type":"Point","properties":{"Station_ID":"SUAW3","Station_Nam":"SUAMICO","Latitude":"44.60190","Longitude":"-88.09780","Snowdepth":"11.000","Units":"in","Rept_Date":"2021-01-18 12"},"coordinates":[2367,5668]},{"type":"Point","properties":{"Station_ID":"QNCM4","Station_Nam":"QUINCY HILL","Latitude":"47.13640","Longitude":"-88.57950","Snowdepth":"11.000","Units":"in","Rept_Date":"2021-01-18 12"},"coordinates":[2242,7209]},{"type":"Point","properties":{"Station_ID":"PEKN6","Station_Nam":"PECK LAKE","Latitude":"43.11500","Longitude":"-74.42360","Snowdepth":"11.000","Units":"in","Rept_Date":"2021-01-18 12"},"coordinates":[5907,4764]},{"type":"Point","properties":{"Station_ID":"NY-ES-11","Station_Nam":"VERMONTVILLE 2.8 S, NY","Latitude":"44.41205","Longitude":"-74.06760","Snowdepth":"11.000","Units":"in","Rept_Date":"2021-01-18 12"},"coordinates":[5999,5553]},{"type":"Point","properties":{"Station_ID":"LOWN6","Station_Nam":"LOWVILLE","Latitude":"43.79280","Longitude":"-75.48290","Snowdepth":"11.000","Units":"in","Rept_Date":"2021-01-18 12"},"coordinates":[5633,5176]},{"type":"Point","properties":{"Station_ID":"LEIM5","Station_Nam":"ORR 3E","Latitude":"48.05810","Longitude":"-92.75220","Snowdepth":"11.000","Units":"in","Rept_Date":"2021-01-18 12"},"coordinates":[1162,7769]},{"type":"Point","properties":{"Station_ID":"KSGM4","Station_Nam":"KEARSARGE","Latitude":"47.27520","Longitude":"-88.41700","Snowdepth":"11.000","Units":"in","Rept_Date":"2021-01-18 13"},"coordinates":[2284,7293]},{"type":"Point","properties":{"Station_ID":"INL","Station_Nam":"FALLS INTERNATIONAL ARPT","Latitude":"48.56640","Longitude":"-93.40310","Snowdepth":"11.000","Units":"in","Rept_Date":"2021-01-19 00"},"coordinates":[993,8078]},{"type":"Point","properties":{"Station_ID":"INDN6","Station_Nam":"INDIAN LAKE","Latitude":"43.75500","Longitude":"-74.27560","Snowdepth":"11.000","Units":"in","Rept_Date":"2021-01-18 13"},"coordinates":[5945,5153]},{"type":"Point","properties":{"Station_ID":"IFSM5","Station_Nam":"INTERNATIONAL FALLS SNOW","Latitude":"48.57780","Longitude":"-93.39640","Snowdepth":"11.000","Units":"in","Rept_Date":"2021-01-18 18"},"coordinates":[995,8085]},{"type":"Point","properties":{"Station_ID":"HVJP1","Station_Nam":"HIDDEN VALLEY COOP","Latitude":"40.04200","Longitude":"-79.25660","Snowdepth":"11.000","Units":"in","Rept_Date":"2021-01-18 13"},"coordinates":[4656,2897]},{"type":"Point","properties":{"Station_ID":"GHMN3","Station_Nam":"PINKHAM NOTCH","Latitude":"44.25800","Longitude":"-71.25250","Snowdepth":"11.000","Units":"in","Rept_Date":"2021-01-18 11"},"coordinates":[6728,5459]},{"type":"Point","properties":{"Station_ID":"FLDM5","Station_Nam":"FLOODWOOD,MN","Latitude":"47.00000","Longitude":"-92.91670","Snowdepth":"11.000","Units":"in","Rept_Date":"2021-01-18 14"},"coordinates":[1119,7126]},{"type":"Point","properties":{"Station_ID":"CAN-QC-47","Station_Nam":"SAINTE-FOY 1.8 ENE, CAN","Latitude":"46.76934","Longitude":"-71.27124","Snowdepth":"11.000","Units":"in","Rept_Date":"2021-01-18 12"},"coordinates":[6723,6986]},{"type":"Point","properties":{"Station_ID":"BRUM5","Station_Nam":"BRUNO,MN","Latitude":"46.28330","Longitude":"-92.50000","Snowdepth":"11.000","Units":"in","Rept_Date":"2021-01-18 14"},"coordinates":[1227,6690]},{"type":"Point","properties":{"Station_ID":"BRAM1","Station_Nam":"BRASSUA DAM","Latitude":"45.66020","Longitude":"-69.81190","Snowdepth":"11.000","Units":"in","Rept_Date":"2021-01-18 12"},"coordinates":[7101,6311]},{"type":"Point","properties":{"Station_ID":"BNDM5","Station_Nam":"ELY 25E","Latitude":"47.97190","Longitude":"-91.44860","Snowdepth":"11.000","Units":"in","Rept_Date":"2021-01-18 13"},"coordinates":[1499,7717]},{"type":"Point","properties":{"Station_ID":"AVLV1","Station_Nam":"AVERILL","Latitude":"45.00570","Longitude":"-71.69030","Snowdepth":"11.000","Units":"in","Rept_Date":"2021-01-18 13"},"coordinates":[6615,5914]},{"type":"Point","properties":{"Station_ID":"42.2002_079.8021","Station_Nam":"2 ESE North East  Trained Spotter (CLE0183)","Latitude":"42.20018","Longitude":"-79.80210","Snowdepth":"11.000","Units":"in","Rept_Date":"2021-01-19 00"},"coordinates":[4514,4208]},{"type":"Point","properties":{"Station_ID":"QYR","Station_Nam":"QYR","Latitude":"48.87220","Longitude":"-75.61470","Snowdepth":"10.866","Units":"in","Rept_Date":"2021-01-18 12"},"coordinates":[5599,8264]},{"type":"Point","properties":{"Station_ID":"CAN-MB-368","Station_Nam":"WHITESHELL 1.3 NE, CAN","Latitude":"49.74405","Longitude":"-95.19123","Snowdepth":"10.800","Units":"in","Rept_Date":"2021-01-18 14"},"coordinates":[530,8794]},{"type":"Point","properties":{"Station_ID":"QLM","Station_Nam":"QLM","Latitude":"48.92030","Longitude":"-70.25280","Snowdepth":"10.591","Units":"in","Rept_Date":"2021-01-18 12"},"coordinates":[6987,8293]},{"type":"Point","properties":{"Station_ID":"WI-DG-20","Station_Nam":"SOLON SPRINGS 1.2 W, WI","Latitude":"46.35217","Longitude":"-91.84405","Snowdepth":"10.500","Units":"in","Rept_Date":"2021-01-18 13"},"coordinates":[1397,6732]},{"type":"Point","properties":{"Station_ID":"VT-WS-15","Station_Nam":"EAST CALAIS 1.5 SW, VT","Latitude":"44.35523","Longitude":"-72.45540","Snowdepth":"10.500","Units":"in","Rept_Date":"2021-01-18 12"},"coordinates":[6417,5518]},{"type":"Point","properties":{"Station_ID":"VT-OL-9","Station_Nam":"GREENSBORO 2.1 NNW, VT","Latitude":"44.60528","Longitude":"-72.30940","Snowdepth":"10.500","Units":"in","Rept_Date":"2021-01-18 12"},"coordinates":[6454,5670]},{"type":"Point","properties":{"Station_ID":"VT-CH-47","Station_Nam":"SOUTH BURLINGTON 2.6 SSW, VT","Latitude":"44.42027","Longitude":"-73.19242","Snowdepth":"10.500","Units":"in","Rept_Date":"2021-01-18 13"},"coordinates":[6226,5558]},{"type":"Point","properties":{"Station_ID":"NY-ER-166","Station_Nam":"BOSTON 2.5 NE, NY","Latitude":"42.65480","Longitude":"-78.70300","Snowdepth":"10.500","Units":"in","Rept_Date":"2021-01-18 12"},"coordinates":[4799,4485]},{"type":"Point","properties":{"Station_ID":"MN-SL-189","Station_Nam":"HIBBING 11.6 SSW, MN","Latitude":"47.24920","Longitude":"-93.06490","Snowdepth":"10.500","Units":"in","Rept_Date":"2021-01-18 13"},"coordinates":[1081,7277]},{"type":"Point","properties":{"Station_ID":"MN-IT-19","Station_Nam":"COHASSET 7.6 NNW, MN","Latitude":"47.34204","Longitude":"-93.69765","Snowdepth":"10.500","Units":"in","Rept_Date":"2021-01-18 13"},"coordinates":[917,7334]},{"type":"Point","properties":{"Station_ID":"MI-OG-6","Station_Nam":"WEST BRANCH 2.1 SSW, MI","Latitude":"44.24814","Longitude":"-84.25089","Snowdepth":"10.500","Units":"in","Rept_Date":"2021-01-18 14"},"coordinates":[3363,5453]},{"type":"Point","properties":{"Station_ID":"CAN-ON-42","Station_Nam":"VANKLEEK HILL 3.4 S, CA","Latitude":"45.48987","Longitude":"-74.64570","Snowdepth":"10.500","Units":"in","Rept_Date":"2021-01-18 12"},"coordinates":[5849,6208]},{"type":"Point","properties":{"Station_ID":"CAN-MB-32","Station_Nam":"PINAWA 1.0 SW, CA","Latitude":"50.14747","Longitude":"-95.89020","Snowdepth":"10.500","Units":"in","Rept_Date":"2021-01-18 13"},"coordinates":[349,9039]},{"type":"Point","properties":{"Station_ID":"CAN-ON-773","Station_Nam":"OSGOODE 0.5 WNW, CAN","Latitude":"45.14491","Longitude":"-75.61445","Snowdepth":"10.200","Units":"in","Rept_Date":"2021-01-18 12"},"coordinates":[5599,5998]},{"type":"Point","properties":{"Station_ID":"WI-WB-2","Station_Nam":"STONE LAKE 2.0 NW, WI","Latitude":"45.85960","Longitude":"-91.57710","Snowdepth":"10.000","Units":"in","Rept_Date":"2021-01-18 13"},"coordinates":[1466,6433]},{"type":"Point","properties":{"Station_ID":"WI-VL-9","Station_Nam":"LAND O' LAKES 11.7 W, WI","Latitude":"46.19023","Longitude":"-89.45790","Snowdepth":"10.000","Units":"in","Rept_Date":"2021-01-18 13"},"coordinates":[2014,6634]},{"type":"Point","properties":{"Station_ID":"WI-SR-1","Station_Nam":"HAYWARD 9.2 NNE, WI","Latitude":"46.13255","Longitude":"-91.40500","Snowdepth":"10.000","Units":"in","Rept_Date":"2021-01-18 12"},"coordinates":[1510,6599]},{"type":"Point","properties":{"Station_ID":"WI-PR-2","Station_Nam":"BUTTERNUT 5.9 SW, WI","Latitude":"45.96501","Longitude":"-90.59750","Snowdepth":"10.000","Units":"in","Rept_Date":"2021-01-18 12"},"coordinates":[1719,6497]},{"type":"Point","properties":{"Station_ID":"WI-IR-2","Station_Nam":"MERCER 2.0 SE, WI","Latitude":"46.14749","Longitude":"-90.03097","Snowdepth":"10.000","Units":"in","Rept_Date":"2021-01-18 13"},"coordinates":[1866,6608]},{"type":"Point","properties":{"Station_ID":"VT-OL-2","Station_Nam":"BARTON 3.0 ENE, VT","Latitude":"44.75863","Longitude":"-72.11680","Snowdepth":"10.000","Units":"in","Rept_Date":"2021-01-18 12"},"coordinates":[6504,5763]},{"type":"Point","properties":{"Station_ID":"VT-LM-1","Station_Nam":"STOWE 0.2 SW, VT","Latitude":"44.46399","Longitude":"-72.69070","Snowdepth":"10.000","Units":"in","Rept_Date":"2021-01-18 12"},"coordinates":[6356,5584]},{"type":"Point","properties":{"Station_ID":"VT-ES-3","Station_Nam":"LUNENBURG 2.3 NNW, VT","Latitude":"44.49324","Longitude":"-71.70446","Snowdepth":"10.000","Units":"in","Rept_Date":"2021-01-18 12"},"coordinates":[6611,5602]},{"type":"Point","properties":{"Station_ID":"VT-BN-7","Station_Nam":"MANCHESTER 2.8 ENE, VT","Latitude":"43.17274","Longitude":"-73.01811","Snowdepth":"10.000","Units":"in","Rept_Date":"2021-01-18 12"},"coordinates":[6271,4800]},{"type":"Point","properties":{"Station_ID":"STOI2","Station_Nam":"STOCKTON 3 NNE","Latitude":"42.40050","Longitude":"-89.99580","Snowdepth":"10.000","Units":"in","Rept_Date":"2021-01-19 03"},"coordinates":[1875,4330]},{"type":"Point","properties":{"Station_ID":"RLWM5","Station_Nam":"CAMP NORRIS DNR","Latitude":"48.61000","Longitude":"-95.18170","Snowdepth":"10.000","Units":"in","Rept_Date":"2021-01-18 15"},"coordinates":[533,8104]},{"type":"Point","properties":{"Station_ID":"NVLV1","Station_Nam":"NASHVILLE","Latitude":"44.44970","Longitude":"-72.92640","Snowdepth":"10.000","Units":"in","Rept_Date":"2021-01-18 12"},"coordinates":[6295,5576]},{"type":"Point","properties":{"Station_ID":"NUMN3","Station_Nam":"NORTHUMBERLAND","Latitude":"44.52830","Longitude":"-71.50440","Snowdepth":"10.000","Units":"in","Rept_Date":"2021-01-18 12"},"coordinates":[6663,5623]},{"type":"Point","properties":{"Station_ID":"NH-CR-26","Station_Nam":"CENTER SANDWICH 4.9 E, NH","Latitude":"43.80976","Longitude":"-71.34150","Snowdepth":"10.000","Units":"in","Rept_Date":"2021-01-18 12"},"coordinates":[6705,5187]},{"type":"Point","properties":{"Station_ID":"MTLT1","Station_Nam":"GATLINBURG,TN","Latitude":"35.65500","Longitude":"-83.44110","Snowdepth":"10.000","Units":"in","Rept_Date":"2021-01-18 13"},"coordinates":[3572,230]},{"type":"Point","properties":{"Station_ID":"MRAM5","Station_Nam":"MORA","Latitude":"45.87760","Longitude":"-93.31470","Snowdepth":"10.000","Units":"in","Rept_Date":"2021-01-18 13"},"coordinates":[1016,6444]},{"type":"Point","properties":{"Station_ID":"MN-SL-108","Station_Nam":"IRON JUNCTION 3.4 NNW, MN","Latitude":"47.46150","Longitude":"-92.63130","Snowdepth":"10.000","Units":"in","Rept_Date":"2021-01-18 13"},"coordinates":[1193,7406]},{"type":"Point","properties":{"Station_ID":"MALN6","Station_Nam":"MALONE","Latitude":"44.84180","Longitude":"-74.30600","Snowdepth":"10.000","Units":"in","Rept_Date":"2021-01-18 12"},"coordinates":[5937,5814]},{"type":"Point","properties":{"Station_ID":"LNOW3","Station_Nam":"LAND O LAKES","Latitude":"46.19000","Longitude":"-89.45700","Snowdepth":"10.000","Units":"in","Rept_Date":"2021-01-18 13"},"coordinates":[2015,6634]},{"type":"Point","properties":{"Station_ID":"KBTV","Station_Nam":"BURLINGTON INTERNATIONAL","Latitude":"44.46666","Longitude":"-73.15000","Snowdepth":"10.000","Units":"in","Rept_Date":"2021-01-19 00"},"coordinates":[6237,5586]},{"type":"Point","properties":{"Station_ID":"IL-JD-8","Station_Nam":"STOCKTON 3.4 NNE, IL","Latitude":"42.39960","Longitude":"-89.99020","Snowdepth":"10.000","Units":"in","Rept_Date":"2021-01-18 13"},"coordinates":[1877,4330]},{"type":"Point","properties":{"Station_ID":"ESDN3","Station_Nam":"EAST SANDWICH","Latitude":"43.80990","Longitude":"-71.34250","Snowdepth":"10.000","Units":"in","Rept_Date":"2021-01-18 11"},"coordinates":[6705,5187]},{"type":"Point","properties":{"Station_ID":"ELYM5","Station_Nam":"ELY","Latitude":"47.90560","Longitude":"-91.82830","Snowdepth":"10.000","Units":"in","Rept_Date":"2021-01-18 14"},"coordinates":[1401,7676]},{"type":"Point","properties":{"Station_ID":"COTM5","Station_Nam":"COTTON","Latitude":"47.16870","Longitude":"-92.46290","Snowdepth":"10.000","Units":"in","Rept_Date":"2021-01-18 13"},"coordinates":[1236,7228]},{"type":"Point","properties":{"Station_ID":"CAN-NB-11","Station_Nam":"MIRAMICHI 3.3 S, CAN","Latitude":"46.99343","Longitude":"-65.50690","Snowdepth":"10.000","Units":"in","Rept_Date":"2021-01-18 10"},"coordinates":[8216,7122]},{"type":"Point","properties":{"Station_ID":"BTV","Station_Nam":"BURLINGTON, VT","Latitude":"44.47140","Longitude":"-73.15330","Snowdepth":"10.000","Units":"in","Rept_Date":"2021-01-19 01"},"coordinates":[6236,5589]},{"type":"Point","properties":{"Station_ID":"BBEM4","Station_Nam":"BIG BAY 9SW","Latitude":"46.74620","Longitude":"-87.88160","Snowdepth":"10.000","Units":"in","Rept_Date":"2021-01-18 13"},"coordinates":[2423,6972]},{"type":"Point","properties":{"Station_ID":"VT-CH-38","Station_Nam":"WILLISTON 0.2 WSW, VT","Latitude":"44.43669","Longitude":"-73.07154","Snowdepth":"9.800","Units":"in","Rept_Date":"2021-01-18 12"},"coordinates":[6257,5568]},{"type":"Point","properties":{"Station_ID":"VT-AD-28","Station_Nam":"MONKTON 1.5 NE, VT","Latitude":"44.26760","Longitude":"-73.09940","Snowdepth":"9.700","Units":"in","Rept_Date":"2021-01-18 12"},"coordinates":[6250,5465]},{"type":"Point","properties":{"Station_ID":"WI-PK-33","Station_Nam":"FREDERIC 4.8 NE, WI","Latitude":"45.70970","Longitude":"-92.39950","Snowdepth":"9.500","Units":"in","Rept_Date":"2021-01-18 13"},"coordinates":[1253,6342]},{"type":"Point","properties":{"Station_ID":"WI-BY-29","Station_Nam":"BAYFIELD 5.1 NNW, WI","Latitude":"46.88063","Longitude":"-90.85854","Snowdepth":"9.500","Units":"in","Rept_Date":"2021-01-18 14"},"coordinates":[1652,7053]},{"type":"Point","properties":{"Station_ID":"VT-AD-20","Station_Nam":"HANCOCK 0.3 S, VT","Latitude":"43.92166","Longitude":"-72.84042","Snowdepth":"9.500","Units":"in","Rept_Date":"2021-01-18 12"},"coordinates":[6317,5255]},{"type":"Point","properties":{"Station_ID":"NY-CN-2","Station_Nam":"NORWICH 5.7 NE, NY","Latitude":"42.58333","Longitude":"-75.43330","Snowdepth":"9.500","Units":"in","Rept_Date":"2021-01-18 13"},"coordinates":[5646,4441]},{"type":"Point","properties":{"Station_ID":"MN-IS-22","Station_Nam":"PRINCETON 6.6 E, MN","Latitude":"45.55762","Longitude":"-93.44595","Snowdepth":"9.500","Units":"in","Rept_Date":"2021-01-18 15"},"coordinates":[982,6249]},{"type":"Point","properties":{"Station_ID":"CATQ6","Station_Nam":"CAT LAKE","Latitude":"51.72690","Longitude":"-91.82210","Snowdepth":"9.450","Units":"in","Rept_Date":"2021-01-19 06"},"coordinates":[1402,9999]},{"type":"Point","properties":{"Station_ID":"CAN-QC-57","Station_Nam":"ACTON VALE 1.3 N, CAN","Latitude":"45.65868","Longitude":"-72.56645","Snowdepth":"9.400","Units":"in","Rept_Date":"2021-01-18 13"},"coordinates":[6388,6311]},{"type":"Point","properties":{"Station_ID":"WTNM4","Station_Nam":"WATTON 2WSW","Latitude":"46.52660","Longitude":"-88.64240","Snowdepth":"9.000","Units":"in","Rept_Date":"2021-01-18 13"},"coordinates":[2226,6838]},{"type":"Point","properties":{"Station_ID":"WLDM5","Station_Nam":"WILD RIVER STATE PARK","Latitude":"45.52310","Longitude":"-92.74890","Snowdepth":"9.000","Units":"in","Rept_Date":"2021-01-18 14"},"coordinates":[1162,6228]},{"type":"Point","properties":{"Station_ID":"VT-WR-22","Station_Nam":"ROCHESTER 0.3 NE, VT","Latitude":"43.87816","Longitude":"-72.80459","Snowdepth":"9.000","Units":"in","Rept_Date":"2021-01-18 12"},"coordinates":[6326,5228]},{"type":"Point","properties":{"Station_ID":"VT-FR-21","Station_Nam":"FAIRFAX 4.9 WNW, VT","Latitude":"44.68880","Longitude":"-73.10340","Snowdepth":"9.000","Units":"in","Rept_Date":"2021-01-18 14"},"coordinates":[6249,5721]},{"type":"Point","properties":{"Station_ID":"VT-CL-18","Station_Nam":"WHEELOCK 1.6 S, VT","Latitude":"44.56491","Longitude":"-72.08830","Snowdepth":"9.000","Units":"in","Rept_Date":"2021-01-18 12"},"coordinates":[6512,5646]},{"type":"Point","properties":{"Station_ID":"TOGM5","Station_Nam":"CELINA 2E","Latitude":"47.86630","Longitude":"-93.02660","Snowdepth":"9.000","Units":"in","Rept_Date":"2021-01-18 15"},"coordinates":[1091,7652]},{"type":"Point","properties":{"Station_ID":"SWTW3","Station_Nam":"SUPERIOR WWTP","Latitude":"46.72700","Longitude":"-92.07200","Snowdepth":"9.000","Units":"in","Rept_Date":"2021-01-19 06"},"coordinates":[1338,6960]},{"type":"Point","properties":{"Station_ID":"SUTV1","Station_Nam":"SUTTON","Latitude":"44.61220","Longitude":"-72.04810","Snowdepth":"9.000","Units":"in","Rept_Date":"2021-01-18 14"},"coordinates":[6522,5674]},{"type":"Point","properties":{"Station_ID":"RLKW3","Station_Nam":"REST LAKE","Latitude":"46.12220","Longitude":"-89.87720","Snowdepth":"9.000","Units":"in","Rept_Date":"2021-01-18 14"},"coordinates":[1906,6592]},{"type":"Point","properties":{"Station_ID":"PDGM4","Station_Nam":"PAULDING","Latitude":"46.39760","Longitude":"-89.17940","Snowdepth":"9.000","Units":"in","Rept_Date":"2021-01-18 20"},"coordinates":[2087,6760]},{"type":"Point","properties":{"Station_ID":"NY-SR-22","Station_Nam":"GREENFIELD CENTER 1.6 W, NY","Latitude":"43.12684","Longitude":"-73.87860","Snowdepth":"9.000","Units":"in","Rept_Date":"2021-01-18 14"},"coordinates":[6048,4772]},{"type":"Point","properties":{"Station_ID":"NY-ES-7","Station_Nam":"KEESEVILLE 0.8 SE, NY","Latitude":"44.49504","Longitude":"-73.47109","Snowdepth":"9.000","Units":"in","Rept_Date":"2021-01-18 12"},"coordinates":[6154,5603]},{"type":"Point","properties":{"Station_ID":"NH-MR-60","Station_Nam":"SOUTH SUTTON 1.3 SE, NH","Latitude":"43.29531","Longitude":"-71.90238","Snowdepth":"9.000","Units":"in","Rept_Date":"2021-01-18 13"},"coordinates":[6560,4874]},{"type":"Point","properties":{"Station_ID":"NH-MR-41","Station_Nam":"NEWBURY 1.6 NW, NH","Latitude":"43.33667","Longitude":"-72.06060","Snowdepth":"9.000","Units":"in","Rept_Date":"2021-01-18 12"},"coordinates":[6519,4899]},{"type":"Point","properties":{"Station_ID":"MN-SE-2","Station_Nam":"OWATONNA 0.8 E, MN","Latitude":"44.09170","Longitude":"-93.21380","Snowdepth":"9.000","Units":"in","Rept_Date":"2021-01-18 13"},"coordinates":[1042,5358]},{"type":"Point","properties":{"Station_ID":"MN-IT-23","Station_Nam":"BOVEY 13.4 N, MN","Latitude":"47.48855","Longitude":"-93.43497","Snowdepth":"9.000","Units":"in","Rept_Date":"2021-01-18 13"},"coordinates":[985,7423]},{"type":"Point","properties":{"Station_ID":"MN-CW-8","Station_Nam":"BRAINERD 11.5 E, MN","Latitude":"46.38556","Longitude":"-93.95720","Snowdepth":"9.000","Units":"in","Rept_Date":"2021-01-18 14"},"coordinates":[850,6752]},{"type":"Point","properties":{"Station_ID":"MN-AA-85","Station_Nam":"LINO LAKES 1.8 W, MN","Latitude":"45.16640","Longitude":"-93.12063","Snowdepth":"9.000","Units":"in","Rept_Date":"2021-01-18 13"},"coordinates":[1066,6011]},{"type":"Point","properties":{"Station_ID":"MN-AA-76","Station_Nam":"NOWTHEN 2.9 SSE, MN","Latitude":"45.30360","Longitude":"-93.42620","Snowdepth":"9.000","Units":"in","Rept_Date":"2021-01-18 13"},"coordinates":[987,6095]},{"type":"Point","properties":{"Station_ID":"MI-AR-2","Station_Nam":"ALGER 2.4 ENE, MI","Latitude":"44.13373","Longitude":"-84.07430","Snowdepth":"9.000","Units":"in","Rept_Date":"2021-01-18 12"},"coordinates":[3408,5384]},{"type":"Point","properties":{"Station_ID":"ME-FR-4","Station_Nam":"NEW SHARON 2.0 NW, ME","Latitude":"44.66582","Longitude":"-70.02720","Snowdepth":"9.000","Units":"in","Rept_Date":"2021-01-18 12"},"coordinates":[7045,5707]},{"type":"Point","properties":{"Station_ID":"ME-FR-22","Station_Nam":"FARMINGTON 4.8 NNW, ME","Latitude":"44.73396","Longitude":"-70.18007","Snowdepth":"9.000","Units":"in","Rept_Date":"2021-01-18 14"},"coordinates":[7006,5748]},{"type":"Point","properties":{"Station_ID":"ME-AR-18","Station_Nam":"NEW SWEDEN 4.9 NNW, ME","Latitude":"47.01080","Longitude":"-68.14390","Snowdepth":"9.000","Units":"in","Rept_Date":"2021-01-18 12"},"coordinates":[7533,7132]},{"type":"Point","properties":{"Station_ID":"MA-HS-7","Station_Nam":"PLAINFIELD 2.2 SW, MA","Latitude":"42.49272","Longitude":"-72.94540","Snowdepth":"9.000","Units":"in","Rept_Date":"2021-01-18 14"},"coordinates":[6290,4386]},{"type":"Point","properties":{"Station_ID":"LUCW3","Station_Nam":"LUCK","Latitude":"45.57330","Longitude":"-92.48520","Snowdepth":"9.000","Units":"in","Rept_Date":"2021-01-18 22"},"coordinates":[1231,6259]},{"type":"Point","properties":{"Station_ID":"JKMM1","Station_Nam":"JACKMAN","Latitude":"45.62600","Longitude":"-70.24600","Snowdepth":"9.000","Units":"in","Rept_Date":"2021-01-18 12"},"coordinates":[6989,6291]},{"type":"Point","properties":{"Station_ID":"HTLM4","Station_Nam":"SNOW PAID OBSERVER FOR KHTL","Latitude":"44.34470","Longitude":"-84.67730","Snowdepth":"9.000","Units":"in","Rept_Date":"2021-01-19 06"},"coordinates":[3252,5512]},{"type":"Point","properties":{"Station_ID":"HTL","Station_Nam":"ROSCOMMON COUNTY AIRPORT","Latitude":"44.35000","Longitude":"-84.66670","Snowdepth":"9.000","Units":"in","Rept_Date":"2021-01-19 00"},"coordinates":[3255,5515]},{"type":"Point","properties":{"Station_ID":"EMBM5","Station_Nam":"EMBARASS,MN","Latitude":"47.65810","Longitude":"-92.19580","Snowdepth":"9.000","Units":"in","Rept_Date":"2021-01-18 12"},"coordinates":[1306,7526]},{"type":"Point","properties":{"Station_ID":"DGVW3","Station_Nam":"DODGEVILLE","Latitude":"42.96670","Longitude":"-90.11670","Snowdepth":"9.000","Units":"in","Rept_Date":"2021-01-18 13"},"coordinates":[1844,4674]},{"type":"Point","properties":{"Station_ID":"BABM5","Station_Nam":"BABBITT","Latitude":"47.71210","Longitude":"-91.95330","Snowdepth":"9.000","Units":"in","Rept_Date":"2021-01-18 13"},"coordinates":[1368,7559]},{"type":"Point","properties":{"Station_ID":"ANJ","Station_Nam":"SAULT STE MARIE","Latitude":"46.46670","Longitude":"-84.36670","Snowdepth":"9.000","Units":"in","Rept_Date":"2021-01-19 00"},"coordinates":[3333,6802]},{"type":"Point","properties":{"Station_ID":"42.0299_080.0884","Station_Nam":"SUMMIT TWP  SNOW SPOTTER (X4200801)","Latitude":"42.02990","Longitude":"-80.08840","Snowdepth":"9.000","Units":"in","Rept_Date":"2021-01-19 03"},"coordinates":[4440,4105]},{"type":"Point","properties":{"Station_ID":"VT-ES-1","Station_Nam":"GRANBY 1.4 NW, VT","Latitude":"44.58330","Longitude":"-71.77870","Snowdepth":"8.500","Units":"in","Rept_Date":"2021-01-18 14"},"coordinates":[6592,5657]},{"type":"Point","properties":{"Station_ID":"NY-ER-63","Station_Nam":"GLENWOOD 1.5 SE, NY","Latitude":"42.60195","Longitude":"-78.63910","Snowdepth":"8.500","Units":"in","Rept_Date":"2021-01-18 13"},"coordinates":[4816,4453]},{"type":"Point","properties":{"Station_ID":"NY-ER-194","Station_Nam":"GLENWOOD 1.0 SE, NY","Latitude":"42.60740","Longitude":"-78.64610","Snowdepth":"8.500","Units":"in","Rept_Date":"2021-01-18 12"},"coordinates":[4814,4456]},{"type":"Point","properties":{"Station_ID":"NH-CS-19","Station_Nam":"CARROLL 4.6 NE, NH","Latitude":"44.33765","Longitude":"-71.46461","Snowdepth":"8.500","Units":"in","Rept_Date":"2021-01-18 12"},"coordinates":[6673,5508]},{"type":"Point","properties":{"Station_ID":"MN-IT-17","Station_Nam":"GRAND RAPIDS 6.1 N, MN","Latitude":"47.31165","Longitude":"-93.55036","Snowdepth":"8.500","Units":"in","Rept_Date":"2021-01-18 13"},"coordinates":[955,7315]},{"type":"Point","properties":{"Station_ID":"MN-IT-1","Station_Nam":"GRAND RAPIDS 2.0 E, MN","Latitude":"47.22266","Longitude":"-93.49600","Snowdepth":"8.500","Units":"in","Rept_Date":"2021-01-18 14"},"coordinates":[969,7261]},{"type":"Point","properties":{"Station_ID":"MN-CW-44","Station_Nam":"CROSBY 1.1 SW, MN","Latitude":"46.47772","Longitude":"-93.97293","Snowdepth":"8.500","Units":"in","Rept_Date":"2021-01-18 13"},"coordinates":[846,6808]},{"type":"Point","properties":{"Station_ID":"MN-CW-22","Station_Nam":"FORT RIPLEY 0.8 N, MN","Latitude":"46.18089","Longitude":"-94.36510","Snowdepth":"8.500","Units":"in","Rept_Date":"2021-01-18 13"},"coordinates":[744,6628]},{"type":"Point","properties":{"Station_ID":"MN-CK-18","Station_Nam":"GRAND MARAIS 4.4 WSW, MN","Latitude":"47.74462","Longitude":"-90.43796","Snowdepth":"8.500","Units":"in","Rept_Date":"2021-01-18 13"},"coordinates":[1761,7578]},{"type":"Point","properties":{"Station_ID":"ME-SM-10","Station_Nam":"NORTH NEW PORTLAND 0.3 WSW, ME","Latitude":"44.92353","Longitude":"-70.02788","Snowdepth":"8.500","Units":"in","Rept_Date":"2021-01-18 12"},"coordinates":[7045,5864]},{"type":"Point","properties":{"Station_ID":"ME-OX-2","Station_Nam":"HARTFORD 1.4 N, ME","Latitude":"44.39318","Longitude":"-70.34760","Snowdepth":"8.500","Units":"in","Rept_Date":"2021-01-18 13"},"coordinates":[6962,5541]},{"type":"Point","properties":{"Station_ID":"IL-BN-19","Station_Nam":"BELVIDERE 5.0 NNW, IL","Latitude":"42.32071","Longitude":"-88.88282","Snowdepth":"8.500","Units":"in","Rept_Date":"2021-01-18 13"},"coordinates":[2163,4282]},{"type":"Point","properties":{"Station_ID":"CAN-ON-771","Station_Nam":"KENORA 8.7 NNE - CANWARN, CAN","Latitude":"49.84171","Longitude":"-94.44386","Snowdepth":"8.300","Units":"in","Rept_Date":"2021-01-18 13"},"coordinates":[724,8853]},{"type":"Point","properties":{"Station_ID":"CAN-NB-105","Station_Nam":"SISSON BROOK 3.8 E, CAN","Latitude":"46.98305","Longitude":"-67.32532","Snowdepth":"8.300","Units":"in","Rept_Date":"2021-01-18 12"},"coordinates":[7745,7116]},{"type":"Point","properties":{"Station_ID":"MN-BM-12","Station_Nam":"TURTLE RIVER 3.6 E, MN","Latitude":"47.57983","Longitude":"-94.68242","Snowdepth":"8.100","Units":"in","Rept_Date":"2021-01-18 13"},"coordinates":[662,7478]},{"type":"Point","properties":{"Station_ID":"NFGT1","Station_Nam":"NEW FOUND GAP","Latitude":"35.61080","Longitude":"-83.42890","Snowdepth":"8.030","Units":"in","Rept_Date":"2021-01-19 06"},"coordinates":[3575,203]},{"type":"Point","properties":{"Station_ID":"WI-PK-4","Station_Nam":"DRESSER 6.1 ESE, WI","Latitude":"45.32436","Longitude":"-92.52080","Snowdepth":"8.000","Units":"in","Rept_Date":"2021-01-18 14"},"coordinates":[1221,6107]},{"type":"Point","properties":{"Station_ID":"WI-BY-6","Station_Nam":"BARNES 2.2 S, WI","Latitude":"46.30264","Longitude":"-91.50320","Snowdepth":"8.000","Units":"in","Rept_Date":"2021-01-18 13"},"coordinates":[1485,6702]},{"type":"Point","properties":{"Station_ID":"WELM5","Station_Nam":"WELLS","Latitude":"43.74680","Longitude":"-93.73680","Snowdepth":"8.000","Units":"in","Rept_Date":"2021-01-18 14"},"coordinates":[907,5148]},{"type":"Point","properties":{"Station_ID":"VT-WH-9","Station_Nam":"WEST HALIFAX 0.2 SE, VT","Latitude":"42.78561","Longitude":"-72.76950","Snowdepth":"8.000","Units":"in","Rept_Date":"2021-01-18 13"},"coordinates":[6335,4564]},{"type":"Point","properties":{"Station_ID":"VT-OL-25","Station_Nam":"NEWPORT 1.5 WSW, VT","Latitude":"44.93059","Longitude":"-72.23731","Snowdepth":"8.000","Units":"in","Rept_Date":"2021-01-18 12"},"coordinates":[6473,5868]},{"type":"Point","properties":{"Station_ID":"VT-OL-24","Station_Nam":"DERBY LINE 1.9 W, VT","Latitude":"45.00454","Longitude":"-72.14170","Snowdepth":"8.000","Units":"in","Rept_Date":"2021-01-18 12"},"coordinates":[6498,5913]},{"type":"Point","properties":{"Station_ID":"VT-CL-14","Station_Nam":"LYNDONVILLE 1.1 W, VT","Latitude":"44.53582","Longitude":"-72.02867","Snowdepth":"8.000","Units":"in","Rept_Date":"2021-01-18 12"},"coordinates":[6527,5628]},{"type":"Point","properties":{"Station_ID":"RKWM1","Station_Nam":"MOOSEHEAD LAKE","Latitude":"45.58330","Longitude":"-69.71670","Snowdepth":"8.000","Units":"in","Rept_Date":"2021-01-18 12"},"coordinates":[7126,6265]},{"type":"Point","properties":{"Station_ID":"NY-DL-32","Station_Nam":"DELHI 6.6 WNW, NY","Latitude":"42.32118","Longitude":"-75.02991","Snowdepth":"8.000","Units":"in","Rept_Date":"2021-01-18 12"},"coordinates":[5750,4282]},{"type":"Point","properties":{"Station_ID":"NY-CQ-6","Station_Nam":"FORESTVILLE 2.1 SW, NY","Latitude":"42.44736","Longitude":"-79.20450","Snowdepth":"8.000","Units":"in","Rept_Date":"2021-01-18 14"},"coordinates":[4669,4359]},{"type":"Point","properties":{"Station_ID":"NY-BM-21","Station_Nam":"WINDSOR 8.0 SE, NY","Latitude":"42.00992","Longitude":"-75.51420","Snowdepth":"8.000","Units":"in","Rept_Date":"2021-01-18 12"},"coordinates":[5625,4093]},{"type":"Point","properties":{"Station_ID":"NPTV1","Station_Nam":"NEWPORT","Latitude":"44.94900","Longitude":"-72.19120","Snowdepth":"8.000","Units":"in","Rept_Date":"2021-01-18 12"},"coordinates":[6485,5879]},{"type":"Point","properties":{"Station_ID":"NGLW3","Station_Nam":"NEW GLARUS","Latitude":"42.83500","Longitude":"-89.62080","Snowdepth":"8.000","Units":"in","Rept_Date":"2021-01-18 13"},"coordinates":[1972,4594]},{"type":"Point","properties":{"Station_ID":"NCKN6","Station_Nam":"NORTH CREEK 5 SE","Latitude":"43.66110","Longitude":"-73.89690","Snowdepth":"8.000","Units":"in","Rept_Date":"2021-01-18 12"},"coordinates":[6043,5096]},{"type":"Point","properties":{"Station_ID":"MONW3","Station_Nam":"MONROE,WI","Latitude":"42.60000","Longitude":"-89.66670","Snowdepth":"8.000","Units":"in","Rept_Date":"2021-01-18 13"},"coordinates":[1960,4451]},{"type":"Point","properties":{"Station_ID":"MN-SE-3","Station_Nam":"ELLENDALE 0.3 SW, MN","Latitude":"43.87046","Longitude":"-93.30360","Snowdepth":"8.000","Units":"in","Rept_Date":"2021-01-18 13"},"coordinates":[1019,5224]},{"type":"Point","properties":{"Station_ID":"MN-MR-20","Station_Nam":"HILLMAN 8.3 N, MN","Latitude":"46.12692","Longitude":"-93.88661","Snowdepth":"8.000","Units":"in","Rept_Date":"2021-01-18 14"},"coordinates":[868,6595]},{"type":"Point","properties":{"Station_ID":"MN-HN-72","Station_Nam":"MAPLE GROVE 2.9 NE, MN","Latitude":"45.13953","Longitude":"-93.42070","Snowdepth":"8.000","Units":"in","Rept_Date":"2021-01-18 14"},"coordinates":[988,5995]},{"type":"Point","properties":{"Station_ID":"MN-HN-6","Station_Nam":"LONG LAKE 0.2 WSW, MN","Latitude":"44.98290","Longitude":"-93.57360","Snowdepth":"8.000","Units":"in","Rept_Date":"2021-01-18 13"},"coordinates":[949,5900]},{"type":"Point","properties":{"Station_ID":"MN-HN-134","Station_Nam":"BROOKLYN CENTER 1.1 E, MN","Latitude":"45.06744","Longitude":"-93.29334","Snowdepth":"8.000","Units":"in","Rept_Date":"2021-01-18 13"},"coordinates":[1021,5951]},{"type":"Point","properties":{"Station_ID":"MN-HB-12","Station_Nam":"LAPORTE 1.8 N, MN","Latitude":"47.24130","Longitude":"-94.75792","Snowdepth":"8.000","Units":"in","Rept_Date":"2021-01-18 13"},"coordinates":[642,7273]},{"type":"Point","properties":{"Station_ID":"MN-GH-28","Station_Nam":"CANNON FALLS 0.5 SE, MN","Latitude":"44.50866","Longitude":"-92.89526","Snowdepth":"8.000","Units":"in","Rept_Date":"2021-01-18 14"},"coordinates":[1125,5612]},{"type":"Point","properties":{"Station_ID":"MN-BM-15","Station_Nam":"BEMIDJI 7.8 ENE, MN","Latitude":"47.52043","Longitude":"-94.72121","Snowdepth":"8.000","Units":"in","Rept_Date":"2021-01-18 13"},"coordinates":[652,7442]},{"type":"Point","properties":{"Station_ID":"MN-AT-5","Station_Nam":"TAMARACK 1.4 SW, MN","Latitude":"46.63760","Longitude":"-93.14554","Snowdepth":"8.000","Units":"in","Rept_Date":"2021-01-18 13"},"coordinates":[1060,6906]},{"type":"Point","properties":{"Station_ID":"MIEM4","Station_Nam":"MICHIGAMME 3WNW","Latitude":"46.54530","Longitude":"-88.18000","Snowdepth":"8.000","Units":"in","Rept_Date":"2021-01-18 13"},"coordinates":[2345,6849]},{"type":"Point","properties":{"Station_ID":"MI-MQ-28","Station_Nam":"CARLSHEND, MI","Latitude":"46.31638","Longitude":"-87.19944","Snowdepth":"8.000","Units":"in","Rept_Date":"2021-01-18 13"},"coordinates":[2599,6710]},{"type":"Point","properties":{"Station_ID":"MI-MQ-19","Station_Nam":"ISHPEMING 7.2 SW, MI","Latitude":"46.40550","Longitude":"-87.75670","Snowdepth":"8.000","Units":"in","Rept_Date":"2021-01-18 11"},"coordinates":[2455,6765]},{"type":"Point","properties":{"Station_ID":"MI-AG-6","Station_Nam":"MUNISING 11.1 SSW, MI","Latitude":"46.27805","Longitude":"-86.75747","Snowdepth":"8.000","Units":"in","Rept_Date":"2021-01-18 12"},"coordinates":[2714,6687]},{"type":"Point","properties":{"Station_ID":"ME-SM-45","Station_Nam":"BRIGHTON PLANTATION 2.1 N, ME","Latitude":"45.07098","Longitude":"-69.69860","Snowdepth":"8.000","Units":"in","Rept_Date":"2021-01-18 12"},"coordinates":[7130,5953]},{"type":"Point","properties":{"Station_ID":"MCRW2","Station_Nam":"RUPERT 4N","Latitude":"38.01800","Longitude":"-80.68250","Snowdepth":"8.000","Units":"in","Rept_Date":"2021-01-18 12"},"coordinates":[4286,1666]},{"type":"Point","properties":{"Station_ID":"LVDW3","Station_Nam":"LAC VIEUX DESERT","Latitude":"46.12110","Longitude":"-89.07580","Snowdepth":"8.000","Units":"in","Rept_Date":"2021-01-18 15"},"coordinates":[2113,6592]},{"type":"Point","properties":{"Station_ID":"ISLV1","Station_Nam":"ISLAND POND","Latitude":"44.81280","Longitude":"-71.89020","Snowdepth":"8.000","Units":"in","Rept_Date":"2021-01-18 17"},"coordinates":[6563,5796]},{"type":"Point","properties":{"Station_ID":"ISEM5","Station_Nam":"ISLE 12N","Latitude":"46.31970","Longitude":"-93.50140","Snowdepth":"8.000","Units":"in","Rept_Date":"2021-01-18 13"},"coordinates":[968,6712]},{"type":"Point","properties":{"Station_ID":"IL-CR-12","Station_Nam":"MOUNT CARROLL 6.8 NNW, IL","Latitude":"42.18735","Longitude":"-90.02185","Snowdepth":"8.000","Units":"in","Rept_Date":"2021-01-18 13"},"coordinates":[1868,4201]},{"type":"Point","properties":{"Station_ID":"HRTM1","Station_Nam":"HARTFORD","Latitude":"44.37440","Longitude":"-70.31620","Snowdepth":"8.000","Units":"in","Rept_Date":"2021-01-18 12"},"coordinates":[6970,5530]},{"type":"Point","properties":{"Station_ID":"FORM5","Station_Nam":"FOREST LAKE 5NE","Latitude":"45.33170","Longitude":"-92.89820","Snowdepth":"8.000","Units":"in","Rept_Date":"2021-01-18 13"},"coordinates":[1124,6112]},{"type":"Point","properties":{"Station_ID":"EAHV1","Station_Nam":"EAST HAVEN","Latitude":"44.64250","Longitude":"-71.89120","Snowdepth":"8.000","Units":"in","Rept_Date":"2021-01-18 12"},"coordinates":[6563,5693]},{"type":"Point","properties":{"Station_ID":"DLHM5","Station_Nam":"DULUTH NWS","Latitude":"46.83680","Longitude":"-92.21080","Snowdepth":"8.000","Units":"in","Rept_Date":"2021-01-19 06"},"coordinates":[1302,7027]},{"type":"Point","properties":{"Station_ID":"DLH","Station_Nam":"DULUTH, MN","Latitude":"46.83690","Longitude":"-92.21030","Snowdepth":"8.000","Units":"in","Rept_Date":"2021-01-19 00"},"coordinates":[1302,7027]},{"type":"Point","properties":{"Station_ID":"CORV1","Station_Nam":"CORINTH","Latitude":"44.00690","Longitude":"-72.31940","Snowdepth":"8.000","Units":"in","Rept_Date":"2021-01-18 12"},"coordinates":[6452,5307]},{"type":"Point","properties":{"Station_ID":"COKM5","Station_Nam":"COOK","Latitude":"47.85060","Longitude":"-92.69250","Snowdepth":"8.000","Units":"in","Rept_Date":"2021-01-18 11"},"coordinates":[1177,7643]},{"type":"Point","properties":{"Station_ID":"CNRM1","Station_Nam":"CONNOR TWP","Latitude":"46.95830","Longitude":"-68.03330","Snowdepth":"8.000","Units":"in","Rept_Date":"2021-01-18 12"},"coordinates":[7561,7101]},{"type":"Point","properties":{"Station_ID":"CLTV1","Station_Nam":"CHARLOTTE","Latitude":"44.31060","Longitude":"-73.24950","Snowdepth":"8.000","Units":"in","Rept_Date":"2021-01-18 21"},"coordinates":[6211,5491]},{"type":"Point","properties":{"Station_ID":"CLKM4","Station_Nam":"CLARKSBURG","Latitude":"46.49910","Longitude":"-87.84500","Snowdepth":"8.000","Units":"in","Rept_Date":"2021-01-18 12"},"coordinates":[2432,6821]},{"type":"Point","properties":{"Station_ID":"CDLM4","Station_Nam":"CADILLAC 9&10 NEWS","Latitude":"44.21130","Longitude":"-85.40860","Snowdepth":"8.000","Units":"in","Rept_Date":"2021-01-18 12"},"coordinates":[3063,5431]},{"type":"Point","properties":{"Station_ID":"CARM1","Station_Nam":"CARIBOU WFO","Latitude":"46.86810","Longitude":"-68.01250","Snowdepth":"8.000","Units":"in","Rept_Date":"2021-01-19 05"},"coordinates":[7567,7046]},{"type":"Point","properties":{"Station_ID":"CAR","Station_Nam":"CARIBOU, ME","Latitude":"46.86830","Longitude":"-68.01360","Snowdepth":"8.000","Units":"in","Rept_Date":"2021-01-18 12"},"coordinates":[7567,7046]},{"type":"Point","properties":{"Station_ID":"CAAW2","Station_Nam":"CANAAN VALLEY","Latitude":"39.05890","Longitude":"-79.44030","Snowdepth":"8.000","Units":"in","Rept_Date":"2021-01-18 14"},"coordinates":[4608,2299]},{"type":"Point","properties":{"Station_ID":"BRLN3","Station_Nam":"BERLIN","Latitude":"44.45350","Longitude":"-71.18540","Snowdepth":"8.000","Units":"in","Rept_Date":"2021-01-18 15"},"coordinates":[6745,5578]},{"type":"Point","properties":{"Station_ID":"BKBW2","Station_Nam":"DAVIS.","Latitude":"39.09830","Longitude":"-79.43190","Snowdepth":"8.000","Units":"in","Rept_Date":"2021-01-18 12"},"coordinates":[4610,2323]},{"type":"Point","properties":{"Station_ID":"ANJM4","Station_Nam":"SNOW PAID OBSERVER FOR KANJ","Latitude":"46.48670","Longitude":"-84.40260","Snowdepth":"8.000","Units":"in","Rept_Date":"2021-01-19 06"},"coordinates":[3323,6814]},{"type":"Point","properties":{"Station_ID":"39.0983_079.4319","Station_Nam":"DAVIS (BKBW2)","Latitude":"39.09830","Longitude":"-79.43190","Snowdepth":"8.000","Units":"in","Rept_Date":"2021-01-18 12"},"coordinates":[4610,2323]},{"type":"Point","properties":{"Station_ID":"39.0589_079.4403","Station_Nam":"CANAAN VALLEY #2 (CAAW2)","Latitude":"39.05888","Longitude":"-79.44027","Snowdepth":"8.000","Units":"in","Rept_Date":"2021-01-18 14"},"coordinates":[4608,2299]},{"type":"Point","properties":{"Station_ID":"VT-CL-23","Station_Nam":"RYEGATE 1.5 N, VT","Latitude":"44.23024","Longitude":"-72.10523","Snowdepth":"7.800","Units":"in","Rept_Date":"2021-01-18 12"},"coordinates":[6507,5442]},{"type":"Point","properties":{"Station_ID":"WI-PR-6","Station_Nam":"PHILLIPS 1.3 S, WI","Latitude":"45.67677","Longitude":"-90.39543","Snowdepth":"7.500","Units":"in","Rept_Date":"2021-01-18 12"},"coordinates":[1772,6322]},{"type":"Point","properties":{"Station_ID":"WI-BY-1","Station_Nam":"BAYFIELD 8.8 N, WI","Latitude":"46.93855","Longitude":"-90.83490","Snowdepth":"7.500","Units":"in","Rept_Date":"2021-01-18 13"},"coordinates":[1658,7089]},{"type":"Point","properties":{"Station_ID":"WI-BT-14","Station_Nam":"OAKLAND 9.0 ENE, WI","Latitude":"45.95184","Longitude":"-92.21653","Snowdepth":"7.500","Units":"in","Rept_Date":"2021-01-18 13"},"coordinates":[1300,6489]},{"type":"Point","properties":{"Station_ID":"VT-RT-24","Station_Nam":"MIDDLETOWN SPRINGS 0.9 WNW, VT","Latitude":"43.49194","Longitude":"-73.13350","Snowdepth":"7.500","Units":"in","Rept_Date":"2021-01-18 14"},"coordinates":[6241,4994]},{"type":"Point","properties":{"Station_ID":"VT-CH-3","Station_Nam":"CHARLOTTE 2.9 NNE, VT","Latitude":"44.34919","Longitude":"-73.24440","Snowdepth":"7.500","Units":"in","Rept_Date":"2021-01-18 13"},"coordinates":[6212,5515]},{"type":"Point","properties":{"Station_ID":"NH-GR-47","Station_Nam":"LITTLETON 7.3 W, NH","Latitude":"44.31847","Longitude":"-71.91086","Snowdepth":"7.500","Units":"in","Rept_Date":"2021-01-18 13"},"coordinates":[6558,5496]},{"type":"Point","properties":{"Station_ID":"NH-CR-41","Station_Nam":"ALBANY 2.8 SW, NH","Latitude":"43.92648","Longitude":"-71.21556","Snowdepth":"7.500","Units":"in","Rept_Date":"2021-01-18 13"},"coordinates":[6738,5258]},{"type":"Point","properties":{"Station_ID":"MN-WG-74","Station_Nam":"OAKDALE 0.4 S, MN","Latitude":"44.98208","Longitude":"-92.96510","Snowdepth":"7.500","Units":"in","Rept_Date":"2021-01-18 13"},"coordinates":[1106,5899]},{"type":"Point","properties":{"Station_ID":"MN-SL-115","Station_Nam":"COTTON 5.7 ESE, MN","Latitude":"47.15142","Longitude":"-92.35772","Snowdepth":"7.500","Units":"in","Rept_Date":"2021-01-18 14"},"coordinates":[1264,7218]},{"type":"Point","properties":{"Station_ID":"MN-GH-4","Station_Nam":"NERSTRAND 4.2 E, MN","Latitude":"44.34247","Longitude":"-92.97920","Snowdepth":"7.500","Units":"in","Rept_Date":"2021-01-18 13"},"coordinates":[1103,5511]},{"type":"Point","properties":{"Station_ID":"MN-BK-6","Station_Nam":"LAKE PARK 6.0 S, MN","Latitude":"46.79850","Longitude":"-96.12180","Snowdepth":"7.500","Units":"in","Rept_Date":"2021-01-18 13"},"coordinates":[289,7003]},{"type":"Point","properties":{"Station_ID":"ME-SM-4","Station_Nam":"SOLON 3.9 ESE, ME","Latitude":"44.94705","Longitude":"-69.77790","Snowdepth":"7.500","Units":"in","Rept_Date":"2021-01-18 12"},"coordinates":[7110,5878]},{"type":"Point","properties":{"Station_ID":"ME-OX-29","Station_Nam":"SUMNER 1.1 N, ME","Latitude":"44.40840","Longitude":"-70.44010","Snowdepth":"7.500","Units":"in","Rept_Date":"2021-01-18 12"},"coordinates":[6938,5551]},{"type":"Point","properties":{"Station_ID":"IL-SP-6","Station_Nam":"FREEPORT 2.0 NW, IL","Latitude":"42.30955","Longitude":"-89.66370","Snowdepth":"7.500","Units":"in","Rept_Date":"2021-01-18 13"},"coordinates":[1961,4275]},{"type":"Point","properties":{"Station_ID":"IA-JH-20","Station_Nam":"CORALVILLE 1.4 S, IA","Latitude":"41.67016","Longitude":"-91.60296","Snowdepth":"7.500","Units":"in","Rept_Date":"2021-01-18 14"},"coordinates":[1459,3886]},{"type":"Point","properties":{"Station_ID":"CAN-ON-741","Station_Nam":"KIMBERLEY 2.7 WSW, CAN","Latitude":"44.37820","Longitude":"-80.56956","Snowdepth":"7.500","Units":"in","Rept_Date":"2021-01-18 15"},"coordinates":[4316,5532]},{"type":"Point","properties":{"Station_ID":"CAN-NS-103","Station_Nam":"TRAFALGAR 4.9 WSW, CAN","Latitude":"45.26217","Longitude":"-62.72285","Snowdepth":"7.500","Units":"in","Rept_Date":"2021-01-18 12"},"coordinates":[8936,6070]},{"type":"Point","properties":{"Station_ID":"HPN04_MADIS","Station_Nam":"HANOVER","Latitude":"45.16770","Longitude":"-93.63430","Snowdepth":"7.100","Units":"in","Rept_Date":"2021-01-19 06"},"coordinates":[933,6012]},{"type":"Point","properties":{"Station_ID":"WRTS2","Station_Nam":"WATERTOWN,SD","Latitude":"44.90280","Longitude":"-97.11360","Snowdepth":"7.000","Units":"in","Rept_Date":"2021-01-18 15"},"coordinates":[32,5851]},{"type":"Point","properties":{"Station_ID":"WRIM5","Station_Nam":"WRIGHT 3E","Latitude":"46.68040","Longitude":"-92.95420","Snowdepth":"7.000","Units":"in","Rept_Date":"2021-01-18 12"},"coordinates":[1109,6932]},{"type":"Point","properties":{"Station_ID":"WLBI4","Station_Nam":"WILLIAMSBURG 3 SE","Latitude":"41.64020","Longitude":"-91.97840","Snowdepth":"7.000","Units":"in","Rept_Date":"2021-01-18 14"},"coordinates":[1362,3868]},{"type":"Point","properties":{"Station_ID":"WI-VL-14","Station_Nam":"BOULDER JUNCTION 1.4 NE, WI","Latitude":"46.12840","Longitude":"-89.62470","Snowdepth":"7.000","Units":"in","Rept_Date":"2021-01-18 13"},"coordinates":[1971,6596]},{"type":"Point","properties":{"Station_ID":"WI-RK-12","Station_Nam":"JANESVILLE 3.1 W, WI","Latitude":"42.67576","Longitude":"-89.07614","Snowdepth":"7.000","Units":"in","Rept_Date":"2021-01-18 13"},"coordinates":[2113,4497]},{"type":"Point","properties":{"Station_ID":"WI-JF-10","Station_Nam":"PALMYRA 1.5 N, WI","Latitude":"42.90084","Longitude":"-88.58620","Snowdepth":"7.000","Units":"in","Rept_Date":"2021-01-18 13"},"coordinates":[2240,4634]},{"type":"Point","properties":{"Station_ID":"WDSV1","Station_Nam":"WOODSTOCK","Latitude":"43.63030","Longitude":"-72.50720","Snowdepth":"7.000","Units":"in","Rept_Date":"2021-01-18 13"},"coordinates":[6403,5078]},{"type":"Point","properties":{"Station_ID":"WDOM5","Station_Nam":"WINDOM","Latitude":"43.87700","Longitude":"-95.11590","Snowdepth":"7.000","Units":"in","Rept_Date":"2021-01-18 14"},"coordinates":[550,5228]},{"type":"Point","properties":{"Station_ID":"WBRM4","Station_Nam":"WEST BRANCH 3SE","Latitude":"44.25410","Longitude":"-84.20110","Snowdepth":"7.000","Units":"in","Rept_Date":"2021-01-18 13"},"coordinates":[3376,5457]},{"type":"Point","properties":{"Station_ID":"VRGV1","Station_Nam":"VERGENNES","Latitude":"44.17190","Longitude":"-73.24720","Snowdepth":"7.000","Units":"in","Rept_Date":"2021-01-18 11"},"coordinates":[6212,5407]},{"type":"Point","properties":{"Station_ID":"VQAW3","Station_Nam":"VIROQUA","Latitude":"43.55970","Longitude":"-90.87560","Snowdepth":"7.000","Units":"in","Rept_Date":"2021-01-18 13"},"coordinates":[1647,5035]},{"type":"Point","properties":{"Station_ID":"TMWN3","Station_Nam":"TAMWORTH 4","Latitude":"43.86390","Longitude":"-71.26610","Snowdepth":"7.000","Units":"in","Rept_Date":"2021-01-18 12"},"coordinates":[6724,5220]},{"type":"Point","properties":{"Station_ID":"STMM4","Station_Nam":"STAMBAUGH 2SSE","Latitude":"46.05550","Longitude":"-88.62780","Snowdepth":"7.000","Units":"in","Rept_Date":"2021-01-18 13"},"coordinates":[2229,6552]},{"type":"Point","properties":{"Station_ID":"SNBI4","Station_Nam":"SANBORN,IA","Latitude":"43.18170","Longitude":"-95.66030","Snowdepth":"7.000","Units":"in","Rept_Date":"2021-01-18 14"},"coordinates":[409,4805]},{"type":"Point","properties":{"Station_ID":"PRGN6","Station_Nam":"PERRYSBURG","Latitude":"42.46470","Longitude":"-79.00310","Snowdepth":"7.000","Units":"in","Rept_Date":"2021-01-18 12"},"coordinates":[4721,4369]},{"type":"Point","properties":{"Station_ID":"OLNI4","Station_Nam":"OELWEIN 1E","Latitude":"42.68010","Longitude":"-91.87510","Snowdepth":"7.000","Units":"in","Rept_Date":"2021-01-18 12"},"coordinates":[1389,4500]},{"type":"Point","properties":{"Station_ID":"NY-GR-14","Station_Nam":"LEXINGTON 1.5 N, NY","Latitude":"42.26024","Longitude":"-74.35875","Snowdepth":"7.000","Units":"in","Rept_Date":"2021-01-18 12"},"coordinates":[5924,4245]},{"type":"Point","properties":{"Station_ID":"NY-ER-56","Station_Nam":"COLDEN 1.4 NNW, NY","Latitude":"42.64740","Longitude":"-78.71120","Snowdepth":"7.000","Units":"in","Rept_Date":"2021-01-18 12"},"coordinates":[4797,4480]},{"type":"Point","properties":{"Station_ID":"NY-CQ-40","Station_Nam":"JAMESTOWN 1.4 WSW, NY","Latitude":"42.08809","Longitude":"-79.25944","Snowdepth":"7.000","Units":"in","Rept_Date":"2021-01-18 13"},"coordinates":[4655,4140]},{"type":"Point","properties":{"Station_ID":"NY-CL-7","Station_Nam":"PERU 4.1 ESE, NY","Latitude":"44.56461","Longitude":"-73.45390","Snowdepth":"7.000","Units":"in","Rept_Date":"2021-01-18 11"},"coordinates":[6158,5646]},{"type":"Point","properties":{"Station_ID":"NWSM1","Station_Nam":"NEW SHARON","Latitude":"44.63520","Longitude":"-70.00020","Snowdepth":"7.000","Units":"in","Rept_Date":"2021-01-18 12"},"coordinates":[7052,5688]},{"type":"Point","properties":{"Station_ID":"NH-CS-7","Station_Nam":"LANCASTER 0.5 N, NH","Latitude":"44.49611","Longitude":"-71.57640","Snowdepth":"7.000","Units":"in","Rept_Date":"2021-01-18 12"},"coordinates":[6644,5604]},{"type":"Point","properties":{"Station_ID":"MN-WR-25","Station_Nam":"SAINT MICHAEL 2.0 ENE, MN","Latitude":"45.20820","Longitude":"-93.65280","Snowdepth":"7.000","Units":"in","Rept_Date":"2021-01-18 12"},"coordinates":[928,6037]},{"type":"Point","properties":{"Station_ID":"MN-WG-16","Station_Nam":"WOODBURY 1.7 N, MN","Latitude":"44.93054","Longitude":"-92.92490","Snowdepth":"7.000","Units":"in","Rept_Date":"2021-01-18 13"},"coordinates":[1117,5868]},{"type":"Point","properties":{"Station_ID":"MN-SH-985","Station_Nam":"PRINCETON 3.3 WSW, MN","Latitude":"45.55211","Longitude":"-93.64481","Snowdepth":"7.000","Units":"in","Rept_Date":"2021-01-18 14"},"coordinates":[930,6246]},{"type":"Point","properties":{"Station_ID":"MN-RM-2","Station_Nam":"NORTH SAINT PAUL 1.0 NNW, MN","Latitude":"45.02629","Longitude":"-93.00790","Snowdepth":"7.000","Units":"in","Rept_Date":"2021-01-18 13"},"coordinates":[1095,5926]},{"type":"Point","properties":{"Station_ID":"MN-KB-17","Station_Nam":"MORA 2.5 S, MN","Latitude":"45.84100","Longitude":"-93.29700","Snowdepth":"7.000","Units":"in","Rept_Date":"2021-01-18 13"},"coordinates":[1021,6421]},{"type":"Point","properties":{"Station_ID":"MN-HN-31","Station_Nam":"MAPLE GROVE 1.0 NNE, MN","Latitude":"45.12261","Longitude":"-93.45790","Snowdepth":"7.000","Units":"in","Rept_Date":"2021-01-18 14"},"coordinates":[979,5985]},{"type":"Point","properties":{"Station_ID":"MN-HN-298","Station_Nam":"EXCELSIOR 1.8 W, MN","Latitude":"44.89722","Longitude":"-93.60286","Snowdepth":"7.000","Units":"in","Rept_Date":"2021-01-18 13"},"coordinates":[941,5848]},{"type":"Point","properties":{"Station_ID":"MN-CV-22","Station_Nam":"VICTORIA 1.6 WSW, MN","Latitude":"44.85670","Longitude":"-93.68640","Snowdepth":"7.000","Units":"in","Rept_Date":"2021-01-18 13"},"coordinates":[920,5823]},{"type":"Point","properties":{"Station_ID":"MLCM5","Station_Nam":"MILACA","Latitude":"45.75320","Longitude":"-93.66170","Snowdepth":"7.000","Units":"in","Rept_Date":"2021-01-18 13"},"coordinates":[926,6368]},{"type":"Point","properties":{"Station_ID":"MKTI4","Station_Nam":"MAQUOKETA","Latitude":"42.07710","Longitude":"-90.66470","Snowdepth":"7.000","Units":"in","Rept_Date":"2021-01-18 14"},"coordinates":[1702,4134]},{"type":"Point","properties":{"Station_ID":"MI-OT-17","Station_Nam":"GAYLORD 4.1 S, MI","Latitude":"44.96388","Longitude":"-84.68467","Snowdepth":"7.000","Units":"in","Rept_Date":"2021-01-18 12"},"coordinates":[3250,5888]},{"type":"Point","properties":{"Station_ID":"MI-IC-6","Station_Nam":"NATIONAL CITY 4.5 NNE, MI","Latitude":"44.29330","Longitude":"-83.68410","Snowdepth":"7.000","Units":"in","Rept_Date":"2021-01-18 14"},"coordinates":[3509,5481]},{"type":"Point","properties":{"Station_ID":"MI-HG-1","Station_Nam":"HOUGHTON 1.6 ESE, MI","Latitude":"47.10774","Longitude":"-88.52940","Snowdepth":"7.000","Units":"in","Rept_Date":"2021-01-18 13"},"coordinates":[2255,7191]},{"type":"Point","properties":{"Station_ID":"MA-BE-21","Station_Nam":"CHESHIRE 0.5 NNW, MA","Latitude":"42.56315","Longitude":"-73.15701","Snowdepth":"7.000","Units":"in","Rept_Date":"2021-01-18 12"},"coordinates":[6235,4429]},{"type":"Point","properties":{"Station_ID":"LMLI4","Station_Nam":"LAKE MILLS,IA","Latitude":"43.40000","Longitude":"-93.53330","Snowdepth":"7.000","Units":"in","Rept_Date":"2021-01-18 13"},"coordinates":[959,4938]},{"type":"Point","properties":{"Station_ID":"IL-SP-25","Station_Nam":"FREEPORT 1.7 NW, IL","Latitude":"42.30427","Longitude":"-89.66285","Snowdepth":"7.000","Units":"in","Rept_Date":"2021-01-18 13"},"coordinates":[1961,4272]},{"type":"Point","properties":{"Station_ID":"IL-MCH-13","Station_Nam":"BULL VALLEY 2.5 WNW, IL","Latitude":"42.32455","Longitude":"-88.39460","Snowdepth":"7.000","Units":"in","Rept_Date":"2021-01-18 14"},"coordinates":[2290,4284]},{"type":"Point","properties":{"Station_ID":"IA-ST-3","Station_Nam":"PARK VIEW 0.2 WSW, IA","Latitude":"41.68855","Longitude":"-90.54380","Snowdepth":"7.000","Units":"in","Rept_Date":"2021-01-18 13"},"coordinates":[1733,3897]},{"type":"Point","properties":{"Station_ID":"IA-PK-3","Station_Nam":"DES MOINES 4.5 WNW, IA","Latitude":"41.60663","Longitude":"-93.69560","Snowdepth":"7.000","Units":"in","Rept_Date":"2021-01-18 13"},"coordinates":[917,3848]},{"type":"Point","properties":{"Station_ID":"FARM1","Station_Nam":"FARMINGTON","Latitude":"44.68930","Longitude":"-70.15640","Snowdepth":"7.000","Units":"in","Rept_Date":"2021-01-18 12"},"coordinates":[7012,5721]},{"type":"Point","properties":{"Station_ID":"EVRW3","Station_Nam":"EAGLE RIVER-4 E","Latitude":"45.91890","Longitude":"-89.15280","Snowdepth":"7.000","Units":"in","Rept_Date":"2021-01-18 13"},"coordinates":[2093,6469]},{"type":"Point","properties":{"Station_ID":"CODN6","Station_Nam":"COLDEN","Latitude":"42.64720","Longitude":"-78.71110","Snowdepth":"7.000","Units":"in","Rept_Date":"2021-01-18 12"},"coordinates":[4797,4480]},{"type":"Point","properties":{"Station_ID":"CLNI4","Station_Nam":"CLINTON NO 1","Latitude":"41.79470","Longitude":"-90.26390","Snowdepth":"7.000","Units":"in","Rept_Date":"2021-01-19 00"},"coordinates":[1806,3962]},{"type":"Point","properties":{"Station_ID":"CLDM5","Station_Nam":"CALEDONIA","Latitude":"43.63090","Longitude":"-91.50270","Snowdepth":"7.000","Units":"in","Rept_Date":"2021-01-18 13"},"coordinates":[1485,5078]},{"type":"Point","properties":{"Station_ID":"CBLW3","Station_Nam":"CUMBERLAND","Latitude":"45.53310","Longitude":"-92.02260","Snowdepth":"7.000","Units":"in","Rept_Date":"2021-01-18 13"},"coordinates":[1350,6234]},{"type":"Point","properties":{"Station_ID":"CAN-NB-64","Station_Nam":"KESWICK RIDGE 4.0 SE, CAN","Latitude":"45.97014","Longitude":"-66.85538","Snowdepth":"7.000","Units":"in","Rept_Date":"2021-01-18 13"},"coordinates":[7866,6500]},{"type":"Point","properties":{"Station_ID":"CAN-NB-18","Station_Nam":"MCLEOD HILL 1.1 ENE, CA","Latitude":"46.02725","Longitude":"-66.67460","Snowdepth":"7.000","Units":"in","Rept_Date":"2021-01-18 12"},"coordinates":[7913,6535]},{"type":"Point","properties":{"Station_ID":"CAN-MB-56","Station_Nam":"WINNIPEG 7.6 ENE, CAN","Latitude":"49.93264","Longitude":"-97.04752","Snowdepth":"7.000","Units":"in","Rept_Date":"2021-01-18 14"},"coordinates":[49,8908]},{"type":"Point","properties":{"Station_ID":"BRAM5","Station_Nam":"BRAINERD","Latitude":"46.34320","Longitude":"-94.20900","Snowdepth":"7.000","Units":"in","Rept_Date":"2021-01-18 13"},"coordinates":[784,6727]},{"type":"Point","properties":{"Station_ID":"ATLI4","Station_Nam":"ATLANTIC,IA","Latitude":"41.41810","Longitude":"-95.00310","Snowdepth":"7.000","Units":"in","Rept_Date":"2021-01-18 13"},"coordinates":[579,3733]},{"type":"Point","properties":{"Station_ID":"AMAM4","Station_Nam":"AMASA 1W","Latitude":"46.23470","Longitude":"-88.45440","Snowdepth":"7.000","Units":"in","Rept_Date":"2021-01-18 14"},"coordinates":[2274,6661]},{"type":"Point","properties":{"Station_ID":"42.2168_079.8473","Station_Nam":"NORTH EAST  SNOW SPOTTER (X4220798)","Latitude":"42.21680","Longitude":"-79.84730","Snowdepth":"7.000","Units":"in","Rept_Date":"2021-01-19 01"},"coordinates":[4503,4218]},{"type":"Point","properties":{"Station_ID":"42.0452_080.3039","Station_Nam":"LAKE CITY  SNOW SPOTTER (CLE0157)","Latitude":"42.04520","Longitude":"-80.30390","Snowdepth":"7.000","Units":"in","Rept_Date":"2021-01-18 23"},"coordinates":[4385,4114]},{"type":"Point","properties":{"Station_ID":"MN-HN-14","Station_Nam":"MINNETRISTA 1.5 SSE, MN","Latitude":"44.91447","Longitude":"-93.69920","Snowdepth":"6.900","Units":"in","Rept_Date":"2021-01-18 13"},"coordinates":[916,5858]},{"type":"Point","properties":{"Station_ID":"CAN-NB-97","Station_Nam":"NEW MARYLAND 0.6 NW, CAN","Latitude":"45.90112","Longitude":"-66.68739","Snowdepth":"6.900","Units":"in","Rept_Date":"2021-01-18 12"},"coordinates":[7910,6458]},{"type":"Point","properties":{"Station_ID":"MFU","Station_Nam":"MFU","Latitude":"51.52170","Longitude":"-66.91110","Snowdepth":"6.890","Units":"in","Rept_Date":"2021-01-18 12"},"coordinates":[7852,9874]},{"type":"Point","properties":{"Station_ID":"NY-JF-30","Station_Nam":"WEST CARTHAGE 0.3 ENE, NY","Latitude":"43.97493","Longitude":"-75.61640","Snowdepth":"6.700","Units":"in","Rept_Date":"2021-01-18 12"},"coordinates":[5598,5287]},{"type":"Point","properties":{"Station_ID":"HPN02_MADIS","Station_Nam":"MAPLE GROVE","Latitude":"45.11820","Longitude":"-93.42830","Snowdepth":"6.700","Units":"in","Rept_Date":"2021-01-19 06"},"coordinates":[987,5982]},{"type":"Point","properties":{"Station_ID":"MRL","Station_Nam":"MRL","Latitude":"51.28330","Longitude":"-68.84060","Snowdepth":"6.575","Units":"in","Rept_Date":"2021-01-18 12"},"coordinates":[7352,9729]},{"type":"Point","properties":{"Station_ID":"WI-IW-3","Station_Nam":"MINERAL POINT 7.3 ENE, WI","Latitude":"42.91400","Longitude":"-90.05700","Snowdepth":"6.500","Units":"in","Rept_Date":"2021-01-18 13"},"coordinates":[1859,4642]},{"type":"Point","properties":{"Station_ID":"PA-PT-2","Station_Nam":"ROULETTE 1.8 NNE, PA","Latitude":"41.80759","Longitude":"-78.14140","Snowdepth":"6.500","Units":"in","Rept_Date":"2021-01-18 12"},"coordinates":[4944,3970]},{"type":"Point","properties":{"Station_ID":"NY-SC-30","Station_Nam":"AMSTERDAM 6.4 E, NY","Latitude":"42.93462","Longitude":"-74.06502","Snowdepth":"6.500","Units":"in","Rept_Date":"2021-01-18 14"},"coordinates":[6000,4655]},{"type":"Point","properties":{"Station_ID":"NH-CR-27","Station_Nam":"TAMWORTH 0.4 NNW, NH","Latitude":"43.86449","Longitude":"-71.26610","Snowdepth":"6.500","Units":"in","Rept_Date":"2021-01-18 12"},"coordinates":[6724,5220]},{"type":"Point","properties":{"Station_ID":"MN-RM-120","Station_Nam":"MAPLEWOOD 5.6 SSE, MN","Latitude":"44.90588","Longitude":"-92.99712","Snowdepth":"6.500","Units":"in","Rept_Date":"2021-01-18 15"},"coordinates":[1098,5853]},{"type":"Point","properties":{"Station_ID":"MN-MS-8","Station_Nam":"NEWFOLDEN 0.2 W, MN","Latitude":"48.35613","Longitude":"-96.33460","Snowdepth":"6.500","Units":"in","Rept_Date":"2021-01-18 14"},"coordinates":[234,7950]},{"type":"Point","properties":{"Station_ID":"MN-DK-73","Station_Nam":"LAKEVILLE 2.6 NNE, MN","Latitude":"44.71250","Longitude":"-93.23043","Snowdepth":"6.500","Units":"in","Rept_Date":"2021-01-18 13"},"coordinates":[1038,5735]},{"type":"Point","properties":{"Station_ID":"IA-ST-1","Station_Nam":"LE CLAIRE 1.8 NNE, IA","Latitude":"41.62355","Longitude":"-90.35140","Snowdepth":"6.500","Units":"in","Rept_Date":"2021-01-18 14"},"coordinates":[1783,3858]},{"type":"Point","properties":{"Station_ID":"HPN08_MADIS","Station_Nam":"ORONO","Latitude":"44.93630","Longitude":"-93.62000","Snowdepth":"6.500","Units":"in","Rept_Date":"2021-01-19 06"},"coordinates":[937,5871]},{"type":"Point","properties":{"Station_ID":"CAN-ON-92","Station_Nam":"DUNROBIN 1.9 W - MVCA, CAN","Latitude":"45.42318","Longitude":"-76.04525","Snowdepth":"6.500","Units":"in","Rept_Date":"2021-01-18 12"},"coordinates":[5487,6167]},{"type":"Point","properties":{"Station_ID":"NC-WT-68","Station_Nam":"VILAS 6.3 NNW, NC","Latitude":"36.33379","Longitude":"-81.82169","Snowdepth":"6.400","Units":"in","Rept_Date":"2021-01-18 13"},"coordinates":[3992,643]},{"type":"Point","properties":{"Station_ID":"MN-CW-29","Station_Nam":"BRAINERD 7.7 SSE, MN","Latitude":"46.24996","Longitude":"-94.14576","Snowdepth":"6.300","Units":"in","Rept_Date":"2021-01-18 13"},"coordinates":[801,6670]},{"type":"Point","properties":{"Station_ID":"HPN20_MADIS","Station_Nam":"HOPKINS","Latitude":"44.95556","Longitude":"-93.41140","Snowdepth":"6.300","Units":"in","Rept_Date":"2021-01-19 06"},"coordinates":[991,5883]},{"type":"Point","properties":{"Station_ID":"WTBW3","Station_Nam":"WEST BEND PUBLIC WORKS","Latitude":"43.41110","Longitude":"-88.19380","Snowdepth":"6.000","Units":"in","Rept_Date":"2021-01-18 15"},"coordinates":[2342,4944]},{"type":"Point","properties":{"Station_ID":"WSFW3","Station_Nam":"TOWN OF WESTFORD","Latitude":"43.47190","Longitude":"-88.88250","Snowdepth":"6.000","Units":"in","Rept_Date":"2021-01-18 13"},"coordinates":[2163,4981]},{"type":"Point","properties":{"Station_ID":"WRUM5","Station_Nam":"WARROAD 4W","Latitude":"48.89600","Longitude":"-95.40700","Snowdepth":"6.000","Units":"in","Rept_Date":"2021-01-19 04"},"coordinates":[474,8278]},{"type":"Point","properties":{"Station_ID":"WODI2","Station_Nam":"WOODSTOCK","Latitude":"42.36280","Longitude":"-88.53140","Snowdepth":"6.000","Units":"in","Rept_Date":"2021-01-18 13"},"coordinates":[2254,4307]},{"type":"Point","properties":{"Station_ID":"WNNM5","Station_Nam":"WINNEBAGO","Latitude":"43.76920","Longitude":"-94.18730","Snowdepth":"6.000","Units":"in","Rept_Date":"2021-01-18 13"},"coordinates":[790,5162]},{"type":"Point","properties":{"Station_ID":"WI-WK-61","Station_Nam":"HARTLAND 5.0 NNE, WI","Latitude":"43.16351","Longitude":"-88.30400","Snowdepth":"6.000","Units":"in","Rept_Date":"2021-01-18 12"},"coordinates":[2313,4794]},{"type":"Point","properties":{"Station_ID":"WI-PR-8","Station_Nam":"PHILLIPS 0.4 SSW, WI","Latitude":"45.69086","Longitude":"-90.40200","Snowdepth":"6.000","Units":"in","Rept_Date":"2021-01-18 13"},"coordinates":[1770,6330]},{"type":"Point","properties":{"Station_ID":"WI-PC-5","Station_Nam":"RIVER FALLS 1.2 SSW, WI","Latitude":"44.84032","Longitude":"-92.63500","Snowdepth":"6.000","Units":"in","Rept_Date":"2021-01-18 13"},"coordinates":[1192,5813]},{"type":"Point","properties":{"Station_ID":"WI-OZ-17","Station_Nam":"WEST BEND 7.3 E, WI","Latitude":"43.42860","Longitude":"-88.03870","Snowdepth":"6.000","Units":"in","Rept_Date":"2021-01-18 13"},"coordinates":[2382,4955]},{"type":"Point","properties":{"Station_ID":"WI-DD-16","Station_Nam":"BEAVER DAM 2.4 WNW, WI","Latitude":"43.47210","Longitude":"-88.88280","Snowdepth":"6.000","Units":"in","Rept_Date":"2021-01-18 13"},"coordinates":[2163,4981]},{"type":"Point","properties":{"Station_ID":"WI-DA-99","Station_Nam":"FITCHBURG 1.1 NW, WI","Latitude":"42.99740","Longitude":"-89.44046","Snowdepth":"6.000","Units":"in","Rept_Date":"2021-01-18 13"},"coordinates":[2019,4693]},{"type":"Point","properties":{"Station_ID":"WI-BR-2","Station_Nam":"CHETEK 2.0 SE, WI","Latitude":"45.29427","Longitude":"-91.62470","Snowdepth":"6.000","Units":"in","Rept_Date":"2021-01-18 13"},"coordinates":[1453,6089]},{"type":"Point","properties":{"Station_ID":"VANM1","Station_Nam":"VAN BUREN","Latitude":"47.16600","Longitude":"-67.93900","Snowdepth":"6.000","Units":"in","Rept_Date":"2021-01-18 13"},"coordinates":[7586,7227]},{"type":"Point","properties":{"Station_ID":"TRPI4","Station_Nam":"TRIPOLI,IA","Latitude":"42.81310","Longitude":"-92.25830","Snowdepth":"6.000","Units":"in","Rept_Date":"2021-01-18 13"},"coordinates":[1289,4581]},{"type":"Point","properties":{"Station_ID":"TOPM1","Station_Nam":"TOPSFIELD","Latitude":"45.43470","Longitude":"-67.72020","Snowdepth":"6.000","Units":"in","Rept_Date":"2021-01-18 12"},"coordinates":[7643,6174]},{"type":"Point","properties":{"Station_ID":"TAHW3","Station_Nam":"TAYCHEEDAH","Latitude":"43.83390","Longitude":"-88.34690","Snowdepth":"6.000","Units":"in","Rept_Date":"2021-01-18 13"},"coordinates":[2302,5201]},{"type":"Point","properties":{"Station_ID":"STOW3","Station_Nam":"STOUGHTON,WI","Latitude":"42.91670","Longitude":"-89.21670","Snowdepth":"6.000","Units":"in","Rept_Date":"2021-01-18 13"},"coordinates":[2077,4644]},{"type":"Point","properties":{"Station_ID":"STGW3","Station_Nam":"ST GERMAIN","Latitude":"45.91550","Longitude":"-89.48940","Snowdepth":"6.000","Units":"in","Rept_Date":"2021-01-18 12"},"coordinates":[2006,6467]},{"type":"Point","properties":{"Station_ID":"SPTI4","Station_Nam":"STRAWBERRY POINT","Latitude":"42.68530","Longitude":"-91.53300","Snowdepth":"6.000","Units":"in","Rept_Date":"2021-01-18 13"},"coordinates":[1477,4503]},{"type":"Point","properties":{"Station_ID":"SNYI4","Station_Nam":"STANLEY","Latitude":"42.63330","Longitude":"-91.86320","Snowdepth":"6.000","Units":"in","Rept_Date":"2021-01-18 13"},"coordinates":[1392,4472]},{"type":"Point","properties":{"Station_ID":"SNOW2","Station_Nam":"SNOWSHOE","Latitude":"38.39900","Longitude":"-79.99490","Snowdepth":"6.000","Units":"in","Rept_Date":"2021-01-18 11"},"coordinates":[4465,1898]},{"type":"Point","properties":{"Station_ID":"SLRW3","Station_Nam":"SLINGER","Latitude":"43.33390","Longitude":"-88.29780","Snowdepth":"6.000","Units":"in","Rept_Date":"2021-01-18 13"},"coordinates":[2315,4897]},{"type":"Point","properties":{"Station_ID":"SIBI4","Station_Nam":"SIBLEY","Latitude":"43.40470","Longitude":"-95.74830","Snowdepth":"6.000","Units":"in","Rept_Date":"2021-01-18 13"},"coordinates":[386,4941]},{"type":"Point","properties":{"Station_ID":"SACI4","Station_Nam":"SAC CITY,IA","Latitude":"42.42390","Longitude":"-94.99080","Snowdepth":"6.000","Units":"in","Rept_Date":"2021-01-18 12"},"coordinates":[582,4344]},{"type":"Point","properties":{"Station_ID":"RKWI4","Station_Nam":"ROCKWELL CITY,IA","Latitude":"42.40000","Longitude":"-94.61670","Snowdepth":"6.000","Units":"in","Rept_Date":"2021-01-18 13"},"coordinates":[679,4330]},{"type":"Point","properties":{"Station_ID":"RHIW3","Station_Nam":"RHINELANDER","Latitude":"45.59860","Longitude":"-89.45080","Snowdepth":"6.000","Units":"in","Rept_Date":"2021-01-18 13"},"coordinates":[2016,6274]},{"type":"Point","properties":{"Station_ID":"RFDM1","Station_Nam":"RUMFORD 7SW","Latitude":"44.49470","Longitude":"-70.65640","Snowdepth":"6.000","Units":"in","Rept_Date":"2021-01-18 14"},"coordinates":[6882,5603]},{"type":"Point","properties":{"Station_ID":"PA-ER-15","Station_Nam":"NORTH EAST 2.0 S, PA","Latitude":"42.18390","Longitude":"-79.83230","Snowdepth":"6.000","Units":"in","Rept_Date":"2021-01-18 13"},"coordinates":[4507,4198]},{"type":"Point","properties":{"Station_ID":"OWAM5","Station_Nam":"OWATONNA","Latitude":"44.09760","Longitude":"-93.23180","Snowdepth":"6.000","Units":"in","Rept_Date":"2021-01-18 14"},"coordinates":[1037,5362]},{"type":"Point","properties":{"Station_ID":"NY-OT-11","Station_Nam":"HARTWICK, NY","Latitude":"42.65990","Longitude":"-75.05000","Snowdepth":"6.000","Units":"in","Rept_Date":"2021-01-18 15"},"coordinates":[5745,4488]},{"type":"Point","properties":{"Station_ID":"NY-FL-7","Station_Nam":"BROADALBIN 4.7 ESE, NY","Latitude":"43.03940","Longitude":"-74.10845","Snowdepth":"6.000","Units":"in","Rept_Date":"2021-01-18 14"},"coordinates":[5989,4718]},{"type":"Point","properties":{"Station_ID":"NY-ER-65","Station_Nam":"BOSTON 1.5 NE, NY","Latitude":"42.65470","Longitude":"-78.72010","Snowdepth":"6.000","Units":"in","Rept_Date":"2021-01-18 12"},"coordinates":[4795,4485]},{"type":"Point","properties":{"Station_ID":"NY-CQ-27","Station_Nam":"SILVER CREEK 1.0 SSE, NY","Latitude":"42.53088","Longitude":"-79.15986","Snowdepth":"6.000","Units":"in","Rept_Date":"2021-01-18 11"},"coordinates":[4681,4409]},{"type":"Point","properties":{"Station_ID":"NY-CQ-22","Station_Nam":"FREDONIA 0.8 WNW, NY","Latitude":"42.44414","Longitude":"-79.34610","Snowdepth":"6.000","Units":"in","Rept_Date":"2021-01-18 10"},"coordinates":[4632,4357]},{"type":"Point","properties":{"Station_ID":"NY-CL-12","Station_Nam":"SARANAC 0.8 SSE, NY","Latitude":"44.63980","Longitude":"-73.73848","Snowdepth":"6.000","Units":"in","Rept_Date":"2021-01-18 12"},"coordinates":[6084,5691]},{"type":"Point","properties":{"Station_ID":"NY-BM-14","Station_Nam":"WHITNEY POINT 1.7 SSE, NY","Latitude":"42.30837","Longitude":"-75.95690","Snowdepth":"6.000","Units":"in","Rept_Date":"2021-01-18 12"},"coordinates":[5510,4274]},{"type":"Point","properties":{"Station_ID":"NH-GR-56","Station_Nam":"EASTON 0.6 ESE, NH","Latitude":"44.14790","Longitude":"-71.78950","Snowdepth":"6.000","Units":"in","Rept_Date":"2021-01-18 14"},"coordinates":[6589,5392]},{"type":"Point","properties":{"Station_ID":"NH-GR-46","Station_Nam":"ASHLAND 2.4 NNW, NH","Latitude":"43.72963","Longitude":"-71.64213","Snowdepth":"6.000","Units":"in","Rept_Date":"2021-01-18 12"},"coordinates":[6627,5138]},{"type":"Point","properties":{"Station_ID":"NH-CR-11","Station_Nam":"NORTH CONWAY 1.4 SSW, NH","Latitude":"44.03556","Longitude":"-71.14010","Snowdepth":"6.000","Units":"in","Rept_Date":"2021-01-18 12"},"coordinates":[6757,5324]},{"type":"Point","properties":{"Station_ID":"MYOM4","Station_Nam":"MIO WWTP","Latitude":"44.64660","Longitude":"-84.11580","Snowdepth":"6.000","Units":"in","Rept_Date":"2021-01-18 13"},"coordinates":[3398,5695]},{"type":"Point","properties":{"Station_ID":"MSTI4","Station_Nam":"MUSCATINE 2N","Latitude":"41.47130","Longitude":"-91.04630","Snowdepth":"6.000","Units":"in","Rept_Date":"2021-01-18 13"},"coordinates":[1603,3765]},{"type":"Point","properties":{"Station_ID":"MSRN3","Station_Nam":"MASCOMA RIVER","Latitude":"43.78330","Longitude":"-72.03330","Snowdepth":"6.000","Units":"in","Rept_Date":"2021-01-19 06"},"coordinates":[6526,5171]},{"type":"Point","properties":{"Station_ID":"MSP","Station_Nam":"MINNEAPOLIS-ST PAUL INTL AP","Latitude":"44.88310","Longitude":"-93.22890","Snowdepth":"6.000","Units":"in","Rept_Date":"2021-01-19 00"},"coordinates":[1038,5839]},{"type":"Point","properties":{"Station_ID":"MPXM5","Station_Nam":"CHANHASSEN WSFO","Latitude":"44.84960","Longitude":"-93.56440","Snowdepth":"6.000","Units":"in","Rept_Date":"2021-01-19 06"},"coordinates":[951,5819]},{"type":"Point","properties":{"Station_ID":"MPTI4","Station_Nam":"NO.2","Latitude":"42.16670","Longitude":"-95.78330","Snowdepth":"6.000","Units":"in","Rept_Date":"2021-01-18 13"},"coordinates":[377,4188]},{"type":"Point","properties":{"Station_ID":"MN-SV-4","Station_Nam":"DONNELLY 2.9 NW, MN","Latitude":"45.71649","Longitude":"-96.06043","Snowdepth":"6.000","Units":"in","Rept_Date":"2021-01-18 14"},"coordinates":[305,6346]},{"type":"Point","properties":{"Station_ID":"MN-SL-139","Station_Nam":"DULUTH 1.2 SE, MN","Latitude":"46.77000","Longitude":"-92.08826","Snowdepth":"6.000","Units":"in","Rept_Date":"2021-01-18 12"},"coordinates":[1333,6986]},{"type":"Point","properties":{"Station_ID":"MN-SH-10","Station_Nam":"BIG LAKE 5.6 NNE, MN","Latitude":"45.41409","Longitude":"-93.69190","Snowdepth":"6.000","Units":"in","Rept_Date":"2021-01-18 13"},"coordinates":[918,6162]},{"type":"Point","properties":{"Station_ID":"MN-RM-63","Station_Nam":"NORTH SAINT PAUL 1.0 NW, MN","Latitude":"45.02410","Longitude":"-93.01400","Snowdepth":"6.000","Units":"in","Rept_Date":"2021-01-18 13"},"coordinates":[1094,5925]},{"type":"Point","properties":{"Station_ID":"MN-RM-15","Station_Nam":"ROSEVILLE 2.1 NW, MN","Latitude":"45.03502","Longitude":"-93.18620","Snowdepth":"6.000","Units":"in","Rept_Date":"2021-01-18 12"},"coordinates":[1049,5931]},{"type":"Point","properties":{"Station_ID":"MN-RC-38","Station_Nam":"FARIBAULT 1.6 S, MN","Latitude":"44.27639","Longitude":"-93.27306","Snowdepth":"6.000","Units":"in","Rept_Date":"2021-01-18 13"},"coordinates":[1027,5470]},{"type":"Point","properties":{"Station_ID":"MN-MR-13","Station_Nam":"LITTLE FALLS 8.0 NE, MN","Latitude":"46.06785","Longitude":"-94.24789","Snowdepth":"6.000","Units":"in","Rept_Date":"2021-01-18 13"},"coordinates":[774,6559]},{"type":"Point","properties":{"Station_ID":"MN-IS-21","Station_Nam":"ISANTI 5.0 SW, MN","Latitude":"45.43360","Longitude":"-93.30200","Snowdepth":"6.000","Units":"in","Rept_Date":"2021-01-18 14"},"coordinates":[1019,6174]},{"type":"Point","properties":{"Station_ID":"MN-HN-267","Station_Nam":"MINNEAPOLIS 2.5 SE, MN","Latitude":"44.93331","Longitude":"-93.23680","Snowdepth":"6.000","Units":"in","Rept_Date":"2021-01-18 13"},"coordinates":[1036,5870]},{"type":"Point","properties":{"Station_ID":"MN-DK-70","Station_Nam":"EAGAN 2.0 NNW, MN","Latitude":"44.84322","Longitude":"-93.17899","Snowdepth":"6.000","Units":"in","Rept_Date":"2021-01-18 13"},"coordinates":[1051,5815]},{"type":"Point","properties":{"Station_ID":"MN-DK-53","Station_Nam":"LAKEVILLE 3.8 ENE, MN","Latitude":"44.70423","Longitude":"-93.18460","Snowdepth":"6.000","Units":"in","Rept_Date":"2021-01-18 13"},"coordinates":[1050,5730]},{"type":"Point","properties":{"Station_ID":"MN-DK-134","Station_Nam":"INVER GROVE HEIGHTS 1.0 S, MN","Latitude":"44.81010","Longitude":"-93.06196","Snowdepth":"6.000","Units":"in","Rept_Date":"2021-01-18 13"},"coordinates":[1081,5795]},{"type":"Point","properties":{"Station_ID":"MN-CV-1","Station_Nam":"CARVER 0.7 W, MN","Latitude":"44.75728","Longitude":"-93.64160","Snowdepth":"6.000","Units":"in","Rept_Date":"2021-01-18 13"},"coordinates":[931,5763]},{"type":"Point","properties":{"Station_ID":"MN-CK-3","Station_Nam":"TOFTE 4.9 NE, MN","Latitude":"47.62394","Longitude":"-90.76100","Snowdepth":"6.000","Units":"in","Rept_Date":"2021-01-18 13"},"coordinates":[1677,7505]},