{"type":"Topology","objects":{"snowdepth_geo":{"type":"GeometryCollection","name":"snowdepth","crs":{"type":"name","properties":{"name":"urn:ogc:def:crs:OGC:1.3:CRS84"}},"geometries":[{"type":"Point","properties":{"Station_ID":"HUBN3","Station_Nam":"HUBBARD BROOK","Latitude":"43.93330","Longitude":"-71.71670","Snowdepth":"272.999","Units":"in","Rept_Date":"2019-12-16 19"},"coordinates":[8088,4984]},{"type":"Point","properties":{"Station_ID":"MMSV1","Station_Nam":"MOUNT MANSFIELD","Latitude":"44.53330","Longitude":"-72.83330","Snowdepth":"89.000","Units":"in","Rept_Date":"2019-12-17 05"},"coordinates":[7734,5370]},{"type":"Point","properties":{"Station_ID":"PRKM4","Station_Nam":"MUNISING EAST","Latitude":"46.42580","Longitude":"-86.62000","Snowdepth":"76.500","Units":"in","Rept_Date":"2019-12-17 06"},"coordinates":[3365,6588]},{"type":"Point","properties":{"Station_ID":"OGIQ6","Station_Nam":"OGOKI CAMP","Latitude":"50.76680","Longitude":"-87.85820","Snowdepth":"61.100","Units":"in","Rept_Date":"2019-12-17 06"},"coordinates":[2973,9381]},{"type":"Point","properties":{"Station_ID":"AUDQ6","Station_Nam":"AUDEN","Latitude":"48.52600","Longitude":"-82.57570","Snowdepth":"47.640","Units":"in","Rept_Date":"2019-12-17 06"},"coordinates":[4647,7939]},{"type":"Point","properties":{"Station_ID":"DVLQ6","Station_Nam":"DEVIOUS LAKE","Latitude":"49.19890","Longitude":"-87.76440","Snowdepth":"43.460","Units":"in","Rept_Date":"2019-12-17 06"},"coordinates":[3003,8372]},{"type":"Point","properties":{"Station_ID":"OH-SH-20","Station_Nam":"SIDNEY 5.4 SW, OH","Latitude":"40.23707","Longitude":"-84.24076","Snowdepth":"36.000","Units":"in","Rept_Date":"2019-12-16 12"},"coordinates":[4119,2606]},{"type":"Point","properties":{"Station_ID":"HURW3","Station_Nam":"HURLEY","Latitude":"46.46250","Longitude":"-90.19550","Snowdepth":"36.000","Units":"in","Rept_Date":"2019-12-16 14"},"coordinates":[2232,6612]},{"type":"Point","properties":{"Station_ID":"IWOM4","Station_Nam":"IRONWOOD#2","Latitude":"46.46520","Longitude":"-90.13820","Snowdepth":"34.000","Units":"in","Rept_Date":"2019-12-16 13"},"coordinates":[2250,6613]},{"type":"Point","properties":{"Station_ID":"KSGM4","Station_Nam":"KEARSARGE","Latitude":"47.27520","Longitude":"-88.41700","Snowdepth":"33.000","Units":"in","Rept_Date":"2019-12-16 13"},"coordinates":[2796,7134]},{"type":"Point","properties":{"Station_ID":"VNWO1","Station_Nam":"UNKNOWN","Latitude":"40.87000","Longitude":"-84.58000","Snowdepth":"30.000","Units":"in","Rept_Date":"2019-12-16 13"},"coordinates":[4012,3013]},{"type":"Point","properties":{"Station_ID":"ISPM4","Station_Nam":"WWTP","Latitude":"46.50000","Longitude":"-87.68330","Snowdepth":"30.000","Units":"in","Rept_Date":"2019-12-16 13"},"coordinates":[3028,6636]},{"type":"Point","properties":{"Station_ID":"WI-IR-3","Station_Nam":"PENCE 0.1 E, WI","Latitude":"46.41555","Longitude":"-90.27013","Snowdepth":"29.000","Units":"in","Rept_Date":"2019-12-16 13"},"coordinates":[2208,6581]},{"type":"Point","properties":{"Station_ID":"QNCM4","Station_Nam":"QUINCY HILL","Latitude":"47.13640","Longitude":"-88.57950","Snowdepth":"29.000","Units":"in","Rept_Date":"2019-12-16 12"},"coordinates":[2744,7045]},{"type":"Point","properties":{"Station_ID":"MQT","Station_Nam":"MARQUETTE, MI","Latitude":"46.53140","Longitude":"-87.54920","Snowdepth":"28.000","Units":"in","Rept_Date":"2019-12-17 06"},"coordinates":[3071,6656]},{"type":"Point","properties":{"Station_ID":"ASXW3","Station_Nam":"ASHLAND,WI","Latitude":"46.55220","Longitude":"-90.91610","Snowdepth":"28.000","Units":"in","Rept_Date":"2019-12-16 14"},"coordinates":[2004,6669]},{"type":"Point","properties":{"Station_ID":"QGO","Station_Nam":"QGO","Latitude":"48.85500","Longitude":"-74.20640","Snowdepth":"27.913","Units":"in","Rept_Date":"2019-12-16 12"},"coordinates":[7299,8151]},{"type":"Point","properties":{"Station_ID":"WI-BY-1","Station_Nam":"BAYFIELD 8.8 N, WI","Latitude":"46.93855","Longitude":"-90.83490","Snowdepth":"27.000","Units":"in","Rept_Date":"2019-12-16 13"},"coordinates":[2029,6918]},{"type":"Point","properties":{"Station_ID":"IBLM5","Station_Nam":"ISABELLA 14W","Latitude":"47.59360","Longitude":"-91.65140","Snowdepth":"27.000","Units":"in","Rept_Date":"2019-12-16 15"},"coordinates":[1771,7339]},{"type":"Point","properties":{"Station_ID":"MI-BG-3","Station_Nam":"L'ANSE 17.8 SE, MI","Latitude":"46.55730","Longitude":"-88.20770","Snowdepth":"26.300","Units":"in","Rept_Date":"2019-12-16 13"},"coordinates":[2862,6673]},{"type":"Point","properties":{"Station_ID":"QMD","Station_Nam":"QMD","Latitude":"49.29060","Longitude":"-75.84500","Snowdepth":"26.260","Units":"in","Rept_Date":"2019-12-16 12"},"coordinates":[6780,8431]},{"type":"Point","properties":{"Station_ID":"WRSM5","Station_Nam":"WRENSHALL","Latitude":"46.61550","Longitude":"-92.38380","Snowdepth":"26.000","Units":"in","Rept_Date":"2019-12-16 14"},"coordinates":[1539,6710]},{"type":"Point","properties":{"Station_ID":"PDGM4","Station_Nam":"PAULDING","Latitude":"46.39760","Longitude":"-89.17940","Snowdepth":"26.000","Units":"in","Rept_Date":"2019-12-16 13"},"coordinates":[2554,6570]},{"type":"Point","properties":{"Station_ID":"FLNW3","Station_Nam":"FLORENCE","Latitude":"45.93360","Longitude":"-88.25830","Snowdepth":"26.000","Units":"in","Rept_Date":"2019-12-16 13"},"coordinates":[2846,6271]},{"type":"Point","properties":{"Station_ID":"QLB","Station_Nam":"QLB","Latitude":"50.72360","Longitude":"-75.10000","Snowdepth":"25.394","Units":"in","Rept_Date":"2019-12-16 12"},"coordinates":[7016,9353]},{"type":"Point","properties":{"Station_ID":"QOU","Station_Nam":"QOU","Latitude":"50.79250","Longitude":"-69.67470","Snowdepth":"25.118","Units":"in","Rept_Date":"2019-12-16 12"},"coordinates":[8735,9398]},{"type":"Point","properties":{"Station_ID":"NWCM4","Station_Nam":"NEWBERRY CITY","Latitude":"46.35720","Longitude":"-85.51780","Snowdepth":"25.000","Units":"in","Rept_Date":"2019-12-16 12"},"coordinates":[3715,6544]},{"type":"Point","properties":{"Station_ID":"MOLW3","Station_Nam":"MOLE LAKE","Latitude":"45.48470","Longitude":"-88.96500","Snowdepth":"25.000","Units":"in","Rept_Date":"2019-12-16 14"},"coordinates":[2622,5982]},{"type":"Point","properties":{"Station_ID":"MAIW3","Station_Nam":"MADELINE ISLAND","Latitude":"46.78330","Longitude":"-90.76670","Snowdepth":"25.000","Units":"in","Rept_Date":"2019-12-16 14"},"coordinates":[2051,6818]},{"type":"Point","properties":{"Station_ID":"QCU","Station_Nam":"QCU","Latitude":"47.82750","Longitude":"-76.59830","Snowdepth":"24.803","Units":"in","Rept_Date":"2019-12-16 12"},"coordinates":[6541,7490]},{"type":"Point","properties":{"Station_ID":"WTRM4","Station_Nam":"WATERSMEET 12WSW","Latitude":"46.22310","Longitude":"-89.40850","Snowdepth":"24.000","Units":"in","Rept_Date":"2019-12-16 12"},"coordinates":[2481,6457]},{"type":"Point","properties":{"Station_ID":"WRPW3","Station_Nam":"WATER PURIFICATION PLANT","Latitude":"44.38800","Longitude":"-89.80550","Snowdepth":"24.000","Units":"in","Rept_Date":"2019-12-16 12"},"coordinates":[2356,5277]},{"type":"Point","properties":{"Station_ID":"WI-VL-10","Station_Nam":"LAND O LAKES 4.3 WNW, WI","Latitude":"46.17440","Longitude":"-89.30380","Snowdepth":"24.000","Units":"in","Rept_Date":"2019-12-16 13"},"coordinates":[2515,6426]},{"type":"Point","properties":{"Station_ID":"MI-MQ-25","Station_Nam":"ISHPEMING 6.3 NW, MI","Latitude":"46.54140","Longitude":"-87.77153","Snowdepth":"24.000","Units":"in","Rept_Date":"2019-12-16 13"},"coordinates":[3000,6662]},{"type":"Point","properties":{"Station_ID":"WI-VL-9","Station_Nam":"LAND O' LAKES 11.7 W, WI","Latitude":"46.19023","Longitude":"-89.45790","Snowdepth":"23.000","Units":"in","Rept_Date":"2019-12-16 13"},"coordinates":[2466,6436]},{"type":"Point","properties":{"Station_ID":"WI-DG-20","Station_Nam":"SOLON SPRINGS 1.2 W, WI","Latitude":"46.35217","Longitude":"-91.84405","Snowdepth":"23.000","Units":"in","Rept_Date":"2019-12-16 13"},"coordinates":[1710,6541]},{"type":"Point","properties":{"Station_ID":"WI-BY-14","Station_Nam":"ASHLAND 9.8 W, WI","Latitude":"46.59742","Longitude":"-91.07856","Snowdepth":"23.000","Units":"in","Rept_Date":"2019-12-16 12"},"coordinates":[1952,6698]},{"type":"Point","properties":{"Station_ID":"MI-GG-4","Station_Nam":"WATERSMEET 5.0 SE, MI","Latitude":"46.20333","Longitude":"-89.13170","Snowdepth":"23.000","Units":"in","Rept_Date":"2019-12-16 14"},"coordinates":[2569,6445]},{"type":"Point","properties":{"Station_ID":"LNOW3","Station_Nam":"LAND O LAKES","Latitude":"46.19000","Longitude":"-89.45700","Snowdepth":"23.000","Units":"in","Rept_Date":"2019-12-16 13"},"coordinates":[2466,6436]},{"type":"Point","properties":{"Station_ID":"HERM4","Station_Nam":"HERMAN,MI","Latitude":"46.65000","Longitude":"-88.33330","Snowdepth":"23.000","Units":"in","Rept_Date":"2019-12-16 13"},"coordinates":[2822,6732]},{"type":"Point","properties":{"Station_ID":"WI-BY-2","Station_Nam":"MELLEN 18.6 SW, WI","Latitude":"46.16937","Longitude":"-90.98090","Snowdepth":"22.400","Units":"in","Rept_Date":"2019-12-16 13"},"coordinates":[1983,6423]},{"type":"Point","properties":{"Station_ID":"WI-WB-2","Station_Nam":"STONE LAKE 2.0 NW, WI","Latitude":"45.85960","Longitude":"-91.57710","Snowdepth":"22.000","Units":"in","Rept_Date":"2019-12-16 13"},"coordinates":[1794,6224]},{"type":"Point","properties":{"Station_ID":"STGW3","Station_Nam":"ST GERMAIN","Latitude":"45.91550","Longitude":"-89.48940","Snowdepth":"22.000","Units":"in","Rept_Date":"2019-12-16 12"},"coordinates":[2456,6260]},{"type":"Point","properties":{"Station_ID":"MN4DC1DW","Station_Nam":"FOUR CORNERS 3.6 E","Latitude":"46.84373","Longitude":"-92.20633","Snowdepth":"22.000","Units":"in","Rept_Date":"2019-12-16 12"},"coordinates":[1595,6857]},{"type":"Point","properties":{"Station_ID":"IRMM4","Station_Nam":"WWTP","Latitude":"46.46670","Longitude":"-90.18330","Snowdepth":"22.000","Units":"in","Rept_Date":"2019-12-16 13"},"coordinates":[2236,6614]},{"type":"Point","properties":{"Station_ID":"ILIM5","Station_Nam":"ISLAND LAKE","Latitude":"47.02400","Longitude":"-92.07000","Snowdepth":"22.000","Units":"in","Rept_Date":"2019-12-16 15"},"coordinates":[1638,6973]},{"type":"Point","properties":{"Station_ID":"HRVM4","Station_Nam":"HARVEY","Latitude":"46.49080","Longitude":"-87.35470","Snowdepth":"22.000","Units":"in","Rept_Date":"2019-12-16 12"},"coordinates":[3132,6630]},{"type":"Point","properties":{"Station_ID":"DLHM5","Station_Nam":"DULUTH NWS","Latitude":"46.83680","Longitude":"-92.21080","Snowdepth":"22.000","Units":"in","Rept_Date":"2019-12-17 06"},"coordinates":[1593,6852]},{"type":"Point","properties":{"Station_ID":"DLH","Station_Nam":"DULUTH, MN","Latitude":"46.83690","Longitude":"-92.21030","Snowdepth":"22.000","Units":"in","Rept_Date":"2019-12-17 00"},"coordinates":[1594,6852]},{"type":"Point","properties":{"Station_ID":"CMKW3","Station_Nam":"CLAM LAKE 4W","Latitude":"46.16940","Longitude":"-90.98080","Snowdepth":"22.000","Units":"in","Rept_Date":"2019-12-16 13"},"coordinates":[1983,6423]},{"type":"Point","properties":{"Station_ID":"AURW3","Station_Nam":"AURORA","Latitude":"45.77000","Longitude":"-88.11810","Snowdepth":"22.000","Units":"in","Rept_Date":"2019-12-16 13"},"coordinates":[2890,6166]},{"type":"Point","properties":{"Station_ID":"AROM4","Station_Nam":"ARNOLD,MI","Latitude":"46.06670","Longitude":"-87.48330","Snowdepth":"22.000","Units":"in","Rept_Date":"2019-12-16 13"},"coordinates":[3092,6357]},{"type":"Point","properties":{"Station_ID":"WI-DG-16","Station_Nam":"POPLAR 2.0 E, WI","Latitude":"46.58390","Longitude":"-91.74620","Snowdepth":"21.500","Units":"in","Rept_Date":"2019-12-16 13"},"coordinates":[1741,6690]},{"type":"Point","properties":{"Station_ID":"WI-AS-4","Station_Nam":"ASHLAND 0.5 WNW, WI","Latitude":"46.58240","Longitude":"-90.88390","Snowdepth":"21.500","Units":"in","Rept_Date":"2019-12-16 13"},"coordinates":[2014,6689]},{"type":"Point","properties":{"Station_ID":"MLZ","Station_Nam":"MLZ","Latitude":"50.66170","Longitude":"-68.82360","Snowdepth":"21.496","Units":"in","Rept_Date":"2019-12-16 12"},"coordinates":[9005,9314]},{"type":"Point","properties":{"Station_ID":"QGD","Station_Nam":"QGD","Latitude":"51.11140","Longitude":"-67.13940","Snowdepth":"21.299","Units":"in","Rept_Date":"2019-12-16 12"},"coordinates":[9539,9603]},{"type":"Point","properties":{"Station_ID":"TWOM5","Station_Nam":"TWO HARBORS,MN","Latitude":"47.12580","Longitude":"-91.70750","Snowdepth":"21.000","Units":"in","Rept_Date":"2019-12-17 01"},"coordinates":[1753,7038]},{"type":"Point","properties":{"Station_ID":"SUAW3","Station_Nam":"SUAMICO","Latitude":"44.60190","Longitude":"-88.09780","Snowdepth":"21.000","Units":"in","Rept_Date":"2019-12-16 12"},"coordinates":[2897,5414]},{"type":"Point","properties":{"Station_ID":"PRDM4","Station_Nam":"PARADISE","Latitude":"46.60380","Longitude":"-85.03960","Snowdepth":"21.000","Units":"in","Rept_Date":"2019-12-16 11"},"coordinates":[3866,6702]},{"type":"Point","properties":{"Station_ID":"MNSM4","Station_Nam":"MUNISING","Latitude":"46.41210","Longitude":"-86.66250","Snowdepth":"21.000","Units":"in","Rept_Date":"2019-12-16 11"},"coordinates":[3352,6579]},{"type":"Point","properties":{"Station_ID":"MI-HG-6","Station_Nam":"CALUMET 5.8 ENE, MI","Latitude":"47.27200","Longitude":"-88.33400","Snowdepth":"21.000","Units":"in","Rept_Date":"2019-12-16 11"},"coordinates":[2822,7132]},{"type":"Point","properties":{"Station_ID":"MI-HG-1","Station_Nam":"HOUGHTON 1.6 ESE, MI","Latitude":"47.10774","Longitude":"-88.52940","Snowdepth":"21.000","Units":"in","Rept_Date":"2019-12-16 13"},"coordinates":[2760,7027]},{"type":"Point","properties":{"Station_ID":"HTLN3","Station_Nam":"HERMIT LAKE SNOWPLOT","Latitude":"44.26130","Longitude":"-71.28330","Snowdepth":"21.000","Units":"in","Rept_Date":"2019-12-16 10"},"coordinates":[8226,5195]},{"type":"Point","properties":{"Station_ID":"GGRM4","Station_Nam":"GREEN GARDEN NO.2","Latitude":"46.45330","Longitude":"-87.30380","Snowdepth":"21.000","Units":"in","Rept_Date":"2019-12-16 11"},"coordinates":[3148,6606]},{"type":"Point","properties":{"Station_ID":"EVRW3","Station_Nam":"EAGLE RIVER-4 E","Latitude":"45.91890","Longitude":"-89.15280","Snowdepth":"21.000","Units":"in","Rept_Date":"2019-12-16 12"},"coordinates":[2563,6262]},{"type":"Point","properties":{"Station_ID":"AWXW3","Station_Nam":"ASHLAND","Latitude":"46.58240","Longitude":"-90.88390","Snowdepth":"21.000","Units":"in","Rept_Date":"2019-12-16 13"},"coordinates":[2014,6689]},{"type":"Point","properties":{"Station_ID":"ASTW3","Station_Nam":"ATHELSTANE","Latitude":"45.42500","Longitude":"-88.05750","Snowdepth":"21.000","Units":"in","Rept_Date":"2019-12-16 12"},"coordinates":[2910,5944]},{"type":"Point","properties":{"Station_ID":"WI-VL-14","Station_Nam":"BOULDER JUNCTION 1.4 NE, WI","Latitude":"46.12840","Longitude":"-89.62470","Snowdepth":"20.000","Units":"in","Rept_Date":"2019-12-16 13"},"coordinates":[2413,6397]},{"type":"Point","properties":{"Station_ID":"WI-BY-6","Station_Nam":"BARNES 2.2 S, WI","Latitude":"46.30264","Longitude":"-91.50320","Snowdepth":"20.000","Units":"in","Rept_Date":"2019-12-16 13"},"coordinates":[1818,6509]},{"type":"Point","properties":{"Station_ID":"GLDM4","Station_Nam":"GLADSTONE NO. 2","Latitude":"45.84330","Longitude":"-87.03910","Snowdepth":"20.000","Units":"in","Rept_Date":"2019-12-16 12"},"coordinates":[3232,6213]},{"type":"Point","properties":{"Station_ID":"EGRW3","Station_Nam":"EAGLE RIVER-SOUTH","Latitude":"45.91360","Longitude":"-89.24360","Snowdepth":"20.000","Units":"in","Rept_Date":"2019-12-16 13"},"coordinates":[2534,6258]},{"type":"Point","properties":{"Station_ID":"BRUM5","Station_Nam":"BRUNO,MN","Latitude":"46.28330","Longitude":"-92.50000","Snowdepth":"20.000","Units":"in","Rept_Date":"2019-12-16 14"},"coordinates":[1502,6496]},{"type":"Point","properties":{"Station_ID":"BFHW3","Station_Nam":"BAYFIELD FISH HATCHERY","Latitude":"46.78670","Longitude":"-90.86420","Snowdepth":"20.000","Units":"in","Rept_Date":"2019-12-16 14"},"coordinates":[2020,6820]},{"type":"Point","properties":{"Station_ID":"STMM4","Station_Nam":"STAMBAUGH 2SSE","Latitude":"46.05550","Longitude":"-88.62780","Snowdepth":"19.000","Units":"in","Rept_Date":"2019-12-16 13"},"coordinates":[2729,6350]},{"type":"Point","properties":{"Station_ID":"MN6ZK0BT","Station_Nam":"BABBITT 0.4 ESE","Latitude":"47.70874","Longitude":"-91.93886","Snowdepth":"19.000","Units":"in","Rept_Date":"2019-12-16 13"},"coordinates":[1680,7413]},{"type":"Point","properties":{"Station_ID":"LTMW3","Station_Nam":"LAKE TOMAHAWK 2 SE","Latitude":"45.80750","Longitude":"-89.55830","Snowdepth":"19.000","Units":"in","Rept_Date":"2019-12-16 12"},"coordinates":[2434,6190]},{"type":"Point","properties":{"Station_ID":"GNLM4","Station_Nam":"GREENLAND 6N","Latitude":"46.87360","Longitude":"-89.10060","Snowdepth":"19.000","Units":"in","Rept_Date":"2019-12-16 13"},"coordinates":[2579,6876]},{"type":"Point","properties":{"Station_ID":"COUW3","Station_Nam":"COUDERAY,WI","Latitude":"45.86670","Longitude":"-91.45000","Snowdepth":"19.000","Units":"in","Rept_Date":"2019-12-16 22"},"coordinates":[1834,6228]},{"type":"Point","properties":{"Station_ID":"CNNW3","Station_Nam":"CRANDON","Latitude":"45.55110","Longitude":"-88.89830","Snowdepth":"19.000","Units":"in","Rept_Date":"2019-12-16 12"},"coordinates":[2643,6025]},{"type":"Point","properties":{"Station_ID":"BBEM4","Station_Nam":"BIG BAY 9SW","Latitude":"46.74620","Longitude":"-87.88160","Snowdepth":"19.000","Units":"in","Rept_Date":"2019-12-16 13"},"coordinates":[2965,6794]},{"type":"Point","properties":{"Station_ID":"BABM5","Station_Nam":"BABBITT","Latitude":"47.71210","Longitude":"-91.95330","Snowdepth":"19.000","Units":"in","Rept_Date":"2019-12-16 13"},"coordinates":[1675,7416]},{"type":"Point","properties":{"Station_ID":"ABGW3","Station_Nam":"AMBERG 9 E","Latitude":"45.48250","Longitude":"-87.81190","Snowdepth":"19.000","Units":"in","Rept_Date":"2019-12-16 12"},"coordinates":[2987,5981]},{"type":"Point","properties":{"Station_ID":"MN-SL-105","Station_Nam":"DULUTH 11.8 NNE, MN","Latitude":"46.94680","Longitude":"-92.03925","Snowdepth":"18.500","Units":"in","Rept_Date":"2019-12-16 13"},"coordinates":[1648,6923]},{"type":"Point","properties":{"Station_ID":"WI-PR-2","Station_Nam":"BUTTERNUT 5.9 SW, WI","Latitude":"45.96501","Longitude":"-90.59750","Snowdepth":"18.000","Units":"in","Rept_Date":"2019-12-16 12"},"coordinates":[2105,6291]},{"type":"Point","properties":{"Station_ID":"RLKW3","Station_Nam":"REST LAKE","Latitude":"46.12220","Longitude":"-89.87720","Snowdepth":"18.000","Units":"in","Rept_Date":"2019-12-16 15"},"coordinates":[2333,6393]},{"type":"Point","properties":{"Station_ID":"RHIW3","Station_Nam":"RHINELANDER","Latitude":"45.59860","Longitude":"-89.45080","Snowdepth":"18.000","Units":"in","Rept_Date":"2019-12-16 13"},"coordinates":[2468,6056]},{"type":"Point","properties":{"Station_ID":"MN8JKXE2","Station_Nam":"PRAIRIE PORTAGE 5.2 SSW","Latitude":"47.97663","Longitude":"-91.46744","Snowdepth":"18.000","Units":"in","Rept_Date":"2019-12-16 13"},"coordinates":[1829,7586]},{"type":"Point","properties":{"Station_ID":"MN-SL-15","Station_Nam":"CHISHOLM 0.4 WSW, MN","Latitude":"47.48557","Longitude":"-92.88690","Snowdepth":"18.000","Units":"in","Rept_Date":"2019-12-16 13"},"coordinates":[1379,7270]},{"type":"Point","properties":{"Station_ID":"CLKM4","Station_Nam":"CLARKSBURG","Latitude":"46.49910","Longitude":"-87.84500","Snowdepth":"18.000","Units":"in","Rept_Date":"2019-12-16 12"},"coordinates":[2977,6635]},{"type":"Point","properties":{"Station_ID":"CLGM5","Station_Nam":"COLLEGEVILLE ST JOHN","Latitude":"45.57940","Longitude":"-94.39200","Snowdepth":"18.000","Units":"in","Rept_Date":"2019-12-17 00"},"coordinates":[902,6043]},{"type":"Point","properties":{"Station_ID":"BNDM5","Station_Nam":"ELY 25E","Latitude":"47.97190","Longitude":"-91.44860","Snowdepth":"18.000","Units":"in","Rept_Date":"2019-12-16 13"},"coordinates":[1835,7583]},{"type":"Point","properties":{"Station_ID":"ANTW3","Station_Nam":"ANTIGO,WI","Latitude":"45.13330","Longitude":"-89.15000","Snowdepth":"18.000","Units":"in","Rept_Date":"2019-12-16 14"},"coordinates":[2563,5756]},{"type":"Point","properties":{"Station_ID":"QCX","Station_Nam":"QCX","Latitude":"51.32830","Longitude":"-70.08060","Snowdepth":"17.953","Units":"in","Rept_Date":"2019-12-16 12"},"coordinates":[8607,9743]},{"type":"Point","properties":{"Station_ID":"QFT","Station_Nam":"QFT","Latitude":"50.83280","Longitude":"-74.40390","Snowdepth":"17.874","Units":"in","Rept_Date":"2019-12-16 12"},"coordinates":[7237,9424]},{"type":"Point","properties":{"Station_ID":"WRIM5","Station_Nam":"WRIGHT 3E","Latitude":"46.68040","Longitude":"-92.95420","Snowdepth":"17.000","Units":"in","Rept_Date":"2019-12-16 12"},"coordinates":[1358,6752]},{"type":"Point","properties":{"Station_ID":"WI-SR-5","Station_Nam":"HAYWARD 9.7 NE, WI","Latitude":"46.12030","Longitude":"-91.35370","Snowdepth":"17.000","Units":"in","Rept_Date":"2019-12-16 14"},"coordinates":[1865,6391]},{"type":"Point","properties":{"Station_ID":"PRNW3","Station_Nam":"PRENTICE,WI","Latitude":"45.54780","Longitude":"-90.30000","Snowdepth":"17.000","Units":"in","Rept_Date":"2019-12-16 14"},"coordinates":[2199,6023]},{"type":"Point","properties":{"Station_ID":"MN49YOQ4","Station_Nam":"WRIGHT 3.9 NW","Latitude":"46.70182","Longitude":"-93.07461","Snowdepth":"17.000","Units":"in","Rept_Date":"2019-12-16 12"},"coordinates":[1320,6765]},{"type":"Point","properties":{"Station_ID":"ESAM4","Station_Nam":"ESCANABA","Latitude":"45.74380","Longitude":"-87.04060","Snowdepth":"17.000","Units":"in","Rept_Date":"2019-12-16 12"},"coordinates":[3232,6149]},{"type":"Point","properties":{"Station_ID":"CRVW3","Station_Nam":"CRIVITZ HIGH FALLS","Latitude":"45.35750","Longitude":"-88.19190","Snowdepth":"17.000","Units":"in","Rept_Date":"2019-12-16 13"},"coordinates":[2867,5900]},{"type":"Point","properties":{"Station_ID":"CEFM4","Station_Nam":"EXPERIMENT FARM #2","Latitude":"46.33330","Longitude":"-86.91670","Snowdepth":"17.000","Units":"in","Rept_Date":"2019-12-16 13"},"coordinates":[3271,6528]},{"type":"Point","properties":{"Station_ID":"WI-BT-14","Station_Nam":"OAKLAND 9.0 ENE, WI","Latitude":"45.95184","Longitude":"-92.21653","Snowdepth":"16.500","Units":"in","Rept_Date":"2019-12-16 13"},"coordinates":[1592,6283]},{"type":"Point","properties":{"Station_ID":"QYR","Station_Nam":"QYR","Latitude":"48.87220","Longitude":"-75.61470","Snowdepth":"16.378","Units":"in","Rept_Date":"2019-12-16 12"},"coordinates":[6853,8162]},{"type":"Point","properties":{"Station_ID":"WILW3","Station_Nam":"RESERVOIR","Latitude":"45.70000","Longitude":"-89.83330","Snowdepth":"16.000","Units":"in","Rept_Date":"2019-12-16 12"},"coordinates":[2347,6121]},{"type":"Point","properties":{"Station_ID":"WI-TY-2","Station_Nam":"SHELDON 8.1 ENE, WI","Latitude":"45.35598","Longitude":"-90.80296","Snowdepth":"16.000","Units":"in","Rept_Date":"2019-12-16 13"},"coordinates":[2040,5899]},{"type":"Point","properties":{"Station_ID":"WI-RS-1","Station_Nam":"LADYSMITH 2.8 WNW, WI","Latitude":"45.48180","Longitude":"-91.14680","Snowdepth":"16.000","Units":"in","Rept_Date":"2019-12-16 13"},"coordinates":[1931,5980]},{"type":"Point","properties":{"Station_ID":"WI-PR-8","Station_Nam":"PHILLIPS 0.4 SSW, WI","Latitude":"45.69086","Longitude":"-90.40200","Snowdepth":"16.000","Units":"in","Rept_Date":"2019-12-16 14"},"coordinates":[2167,6115]},{"type":"Point","properties":{"Station_ID":"MRAM5","Station_Nam":"MORA","Latitude":"45.87760","Longitude":"-93.31470","Snowdepth":"16.000","Units":"in","Rept_Date":"2019-12-16 13"},"coordinates":[1244,6235]},{"type":"Point","properties":{"Station_ID":"MOUW3","Station_Nam":"MOUNTAIN 1 SW","Latitude":"45.17220","Longitude":"-88.49390","Snowdepth":"16.000","Units":"in","Rept_Date":"2019-12-16 17"},"coordinates":[2771,5781]},{"type":"Point","properties":{"Station_ID":"MN70GOES","Station_Nam":"EMBARRASS 0.6 SSE","Latitude":"47.65101","Longitude":"-92.19222","Snowdepth":"16.000","Units":"in","Rept_Date":"2019-12-16 12"},"coordinates":[1599,7376]},{"type":"Point","properties":{"Station_ID":"MN-SL-139","Station_Nam":"DULUTH 1.2 SE, MN","Latitude":"46.77000","Longitude":"-92.08826","Snowdepth":"16.000","Units":"in","Rept_Date":"2019-12-16 12"},"coordinates":[1632,6809]},{"type":"Point","properties":{"Station_ID":"MMNV1","Station_Nam":"MT. MANSFIELD","Latitude":"44.52480","Longitude":"-72.81540","Snowdepth":"16.000","Units":"in","Rept_Date":"2019-12-16 21"},"coordinates":[7740,5365]},{"type":"Point","properties":{"Station_ID":"JMPW3","Station_Nam":"JUMP RIVER 1 NW","Latitude":"45.35610","Longitude":"-90.80250","Snowdepth":"16.000","Units":"in","Rept_Date":"2019-12-16 13"},"coordinates":[2040,5900]},{"type":"Point","properties":{"Station_ID":"JCBM4","Station_Nam":"JACOBSVILLE","Latitude":"47.00830","Longitude":"-88.43180","Snowdepth":"16.000","Units":"in","Rept_Date":"2019-12-16 12"},"coordinates":[2791,6963]},{"type":"Point","properties":{"Station_ID":"IMNM4","Station_Nam":"IRON MOUTAIN 5N","Latitude":"45.87580","Longitude":"-88.04030","Snowdepth":"16.000","Units":"in","Rept_Date":"2019-12-17 01"},"coordinates":[2915,6234]},{"type":"Point","properties":{"Station_ID":"ENGM4","Station_Nam":"ENGADINE MDOT","Latitude":"46.12800","Longitude":"-85.56960","Snowdepth":"16.000","Units":"in","Rept_Date":"2019-12-16 12"},"coordinates":[3698,6396]},{"type":"Point","properties":{"Station_ID":"EMBM5","Station_Nam":"EMBARASS,MN","Latitude":"47.65810","Longitude":"-92.19580","Snowdepth":"16.000","Units":"in","Rept_Date":"2019-12-16 12"},"coordinates":[1598,7381]},{"type":"Point","properties":{"Station_ID":"ELYM5","Station_Nam":"ELY","Latitude":"47.90560","Longitude":"-91.82830","Snowdepth":"16.000","Units":"in","Rept_Date":"2019-12-16 14"},"coordinates":[1715,7540]},{"type":"Point","properties":{"Station_ID":"AVTW3","Station_Nam":"ARBOR VITAE-JOHNSON LAKE","Latitude":"45.89940","Longitude":"-89.72670","Snowdepth":"16.000","Units":"in","Rept_Date":"2019-12-16 12"},"coordinates":[2381,6249]},{"type":"Point","properties":{"Station_ID":"AGNW3","Station_Nam":"ARGONNE-1.5 NW","Latitude":"45.67360","Longitude":"-88.90380","Snowdepth":"16.000","Units":"in","Rept_Date":"2019-12-16 13"},"coordinates":[2641,6104]},{"type":"Point","properties":{"Station_ID":"MN-IT-23","Station_Nam":"BOVEY 13.4 N, MN","Latitude":"47.48855","Longitude":"-93.43497","Snowdepth":"15.500","Units":"in","Rept_Date":"2019-12-16 13"},"coordinates":[1205,7272]},{"type":"Point","properties":{"Station_ID":"MN-AT-5","Station_Nam":"TAMARACK 1.4 SW, MN","Latitude":"46.63760","Longitude":"-93.14554","Snowdepth":"15.500","Units":"in","Rept_Date":"2019-12-16 11"},"coordinates":[1297,6724]},{"type":"Point","properties":{"Station_ID":"MFU","Station_Nam":"MFU","Latitude":"51.52170","Longitude":"-66.91110","Snowdepth":"15.079","Units":"in","Rept_Date":"2019-12-16 12"},"coordinates":[9611,9867]},{"type":"Point","properties":{"Station_ID":"ZNOM4","Station_Nam":"NORWAY","Latitude":"45.77810","Longitude":"-87.89560","Snowdepth":"15.000","Units":"in","Rept_Date":"2019-12-17 01"},"coordinates":[2961,6171]},{"type":"Point","properties":{"Station_ID":"WTNM4","Station_Nam":"WATTON 2WSW","Latitude":"46.52660","Longitude":"-88.64240","Snowdepth":"15.000","Units":"in","Rept_Date":"2019-12-16 13"},"coordinates":[2724,6653]},{"type":"Point","properties":{"Station_ID":"TOHM5","Station_Nam":"TWO HARBORS WWTP","Latitude":"47.01760","Longitude":"-91.66480","Snowdepth":"15.000","Units":"in","Rept_Date":"2019-12-16 13"},"coordinates":[1766,6969]},{"type":"Point","properties":{"Station_ID":"TOGM5","Station_Nam":"CELINA 2E","Latitude":"47.86630","Longitude":"-93.02660","Snowdepth":"15.000","Units":"in","Rept_Date":"2019-12-16 14"},"coordinates":[1335,7515]},{"type":"Point","properties":{"Station_ID":"TAKW3","Station_Nam":"RICE RESERVOIR NO. 2","Latitude":"45.53770","Longitude":"-89.73220","Snowdepth":"15.000","Units":"in","Rept_Date":"2019-12-16 13"},"coordinates":[2379,6016]},{"type":"Point","properties":{"Station_ID":"RHLW3","Station_Nam":"RHINELANDER 4NE","Latitude":"45.65270","Longitude":"-89.30740","Snowdepth":"15.000","Units":"in","Rept_Date":"2019-12-16 12"},"coordinates":[2514,6090]},{"type":"Point","properties":{"Station_ID":"PKFW3","Station_Nam":"PARK FALLS,WI","Latitude":"45.93360","Longitude":"-90.45060","Snowdepth":"15.000","Units":"in","Rept_Date":"2019-12-16 14"},"coordinates":[2151,6271]},{"type":"Point","properties":{"Station_ID":"MQRW3","Station_Nam":"MINOCQUA","Latitude":"45.88630","Longitude":"-89.73220","Snowdepth":"15.000","Units":"in","Rept_Date":"2019-12-16 12"},"coordinates":[2379,6241]},{"type":"Point","properties":{"Station_ID":"MN4QO5TH","Station_Nam":"TWO HARBORS 0.7 ESE","Latitude":"47.03297","Longitude":"-91.65673","Snowdepth":"15.000","Units":"in","Rept_Date":"2019-12-16 13"},"coordinates":[1769,6979]},{"type":"Point","properties":{"Station_ID":"MN-SL-143","Station_Nam":"CANYON 4.6 NNE, MN","Latitude":"47.09800","Longitude":"-92.42170","Snowdepth":"15.000","Units":"in","Rept_Date":"2019-12-16 14"},"coordinates":[1527,7020]},{"type":"Point","properties":{"Station_ID":"BALW3","Station_Nam":"BALDWIN","Latitude":"44.96330","Longitude":"-92.39050","Snowdepth":"15.000","Units":"in","Rept_Date":"2019-12-16 13"},"coordinates":[1536,5647]},{"type":"Point","properties":{"Station_ID":"AMAM4","Station_Nam":"AMASA 1W","Latitude":"46.23470","Longitude":"-88.45440","Snowdepth":"15.000","Units":"in","Rept_Date":"2019-12-16 14"},"coordinates":[2784,6465]},{"type":"Point","properties":{"Station_ID":"QTV","Station_Nam":"QTV","Latitude":"49.66000","Longitude":"-69.35690","Snowdepth":"14.842","Units":"in","Rept_Date":"2019-12-16 12"},"coordinates":[8836,8669]},{"type":"Point","properties":{"Station_ID":"WLKW3","Station_Nam":"WHITE LAKE 1 SE","Latitude":"45.14520","Longitude":"-88.74160","Snowdepth":"14.000","Units":"in","Rept_Date":"2019-12-16 14"},"coordinates":[2693,5764]},{"type":"Point","properties":{"Station_ID":"WI-LN-2","Station_Nam":"MERRILL 7.0 W, WI","Latitude":"45.17746","Longitude":"-89.84820","Snowdepth":"14.000","Units":"in","Rept_Date":"2019-12-16 12"},"coordinates":[2342,5785]},{"type":"Point","properties":{"Station_ID":"WI-CH-3","Station_Nam":"CORNELL 4.1 W, WI","Latitude":"45.17024","Longitude":"-91.23610","Snowdepth":"14.000","Units":"in","Rept_Date":"2019-12-16 14"},"coordinates":[1902,5780]},{"type":"Point","properties":{"Station_ID":"WASW3","Station_Nam":"WASHINGTON IS","Latitude":"45.35800","Longitude":"-86.89110","Snowdepth":"14.000","Units":"in","Rept_Date":"2019-12-16 13"},"coordinates":[3279,5901]},{"type":"Point","properties":{"Station_ID":"SBEW3","Station_Nam":"EXP. FARM","Latitude":"44.86670","Longitude":"-87.33330","Snowdepth":"14.000","Units":"in","Rept_Date":"2019-12-16 13"},"coordinates":[3139,5585]},{"type":"Point","properties":{"Station_ID":"SAUW3","Station_Nam":"WAUSAU WSAW TV","Latitude":"44.94630","Longitude":"-89.62220","Snowdepth":"14.000","Units":"in","Rept_Date":"2019-12-17 03"},"coordinates":[2414,5636]},{"type":"Point","properties":{"Station_ID":"NYMM5","Station_Nam":"NEW YORK MILLS","Latitude":"46.50920","Longitude":"-95.37990","Snowdepth":"14.000","Units":"in","Rept_Date":"2019-12-16 13"},"coordinates":[589,6642]},{"type":"Point","properties":{"Station_ID":"MNMZK7NS","Station_Nam":"NEW YORK MILLS 0.2 NNE","Latitude":"46.52057","Longitude":"-95.37394","Snowdepth":"14.000","Units":"in","Rept_Date":"2019-12-16 13"},"coordinates":[591,6649]},{"type":"Point","properties":{"Station_ID":"MLLW3","Station_Nam":"MERRILL 8W","Latitude":"45.17810","Longitude":"-89.84810","Snowdepth":"14.000","Units":"in","Rept_Date":"2019-12-16 12"},"coordinates":[2342,5785]},{"type":"Point","properties":{"Station_ID":"CRLM5","Station_Nam":"CROSS LAKE DAM","Latitude":"46.66930","Longitude":"-94.11060","Snowdepth":"14.000","Units":"in","Rept_Date":"2019-12-16 14"},"coordinates":[991,6745]},{"type":"Point","properties":{"Station_ID":"AUW","Station_Nam":"WAUSAU MUNICIPAL AIRPORT","Latitude":"44.92580","Longitude":"-89.62560","Snowdepth":"14.000","Units":"in","Rept_Date":"2019-12-17 00"},"coordinates":[2413,5623]},{"type":"Point","properties":{"Station_ID":"QMA","Station_Nam":"QMA","Latitude":"50.10330","Longitude":"-70.47190","Snowdepth":"13.701","Units":"in","Rept_Date":"2019-12-16 12"},"coordinates":[8483,8954]},{"type":"Point","properties":{"Station_ID":"SVBQ6","Station_Nam":"SAVANT BASE","Latitude":"50.28730","Longitude":"-90.65670","Snowdepth":"13.580","Units":"in","Rept_Date":"2019-12-17 06"},"coordinates":[2086,9073]},{"type":"Point","properties":{"Station_ID":"QLM","Station_Nam":"QLM","Latitude":"48.92030","Longitude":"-70.25280","Snowdepth":"13.543","Units":"in","Rept_Date":"2019-12-16 12"},"coordinates":[8552,8193]},{"type":"Point","properties":{"Station_ID":"MN-SL-108","Station_Nam":"IRON JUNCTION 3.4 NNW, MN","Latitude":"47.46150","Longitude":"-92.63130","Snowdepth":"13.500","Units":"in","Rept_Date":"2019-12-16 13"},"coordinates":[1460,7254]},{"type":"Point","properties":{"Station_ID":"MN-CK-6","Station_Nam":"GRAND MARAIS 4.4 W, MN","Latitude":"47.74865","Longitude":"-90.43760","Snowdepth":"13.500","Units":"in","Rept_Date":"2019-12-16 13"},"coordinates":[2155,7439]},{"type":"Point","properties":{"Station_ID":"CAN-NB-50","Station_Nam":"DOYLEVILLE 2.4 WNW, CAN","Latitude":"47.90803","Longitude":"-66.13279","Snowdepth":"13.400","Units":"in","Rept_Date":"2019-12-16 13"},"coordinates":[9858,7542]},{"type":"Point","properties":{"Station_ID":"WUNW3","Station_Nam":"WAUSAU-NORTHEAST","Latitude":"44.97310","Longitude":"-89.61690","Snowdepth":"13.000","Units":"in","Rept_Date":"2019-12-16 12"},"coordinates":[2415,5653]},{"type":"Point","properties":{"Station_ID":"WSKW3","Station_Nam":"WAUSAUKEE","Latitude":"45.38020","Longitude":"-87.95660","Snowdepth":"13.000","Units":"in","Rept_Date":"2019-12-16 14"},"coordinates":[2942,5915]},{"type":"Point","properties":{"Station_ID":"WNBM5","Station_Nam":"DAM","Latitude":"47.43060","Longitude":"-94.05000","Snowdepth":"13.000","Units":"in","Rept_Date":"2019-12-16 14"},"coordinates":[1011,7234]},{"type":"Point","properties":{"Station_ID":"SULW3","Station_Nam":"SUMMIT LAKE","Latitude":"45.37880","Longitude":"-89.19410","Snowdepth":"13.000","Units":"in","Rept_Date":"2019-12-16 11"},"coordinates":[2549,5914]},{"type":"Point","properties":{"Station_ID":"STRW3","Station_Nam":"STRATFORD 1NW","Latitude":"44.81750","Longitude":"-90.08990","Snowdepth":"13.000","Units":"in","Rept_Date":"2019-12-16 13"},"coordinates":[2266,5553]},{"type":"Point","properties":{"Station_ID":"SPOW3","Station_Nam":"SPOONER,WI","Latitude":"45.82360","Longitude":"-91.70000","Snowdepth":"13.000","Units":"in","Rept_Date":"2019-12-16 14"},"coordinates":[1755,6200]},{"type":"Point","properties":{"Station_ID":"SDYM5","Station_Nam":"DAM","Latitude":"46.81670","Longitude":"-93.36670","Snowdepth":"13.000","Units":"in","Rept_Date":"2019-12-16 14"},"coordinates":[1227,6839]},{"type":"Point","properties":{"Station_ID":"RHI","Station_Nam":"RHINELANDER-ONEIDA COUNTY AIRPORT","Latitude":"45.63080","Longitude":"-89.46530","Snowdepth":"13.000","Units":"in","Rept_Date":"2019-12-17 00"},"coordinates":[2463,6076]},{"type":"Point","properties":{"Station_ID":"PKGM5","Station_Nam":"POKEGANA LK DAM","Latitude":"47.25080","Longitude":"-93.58610","Snowdepth":"13.000","Units":"in","Rept_Date":"2019-12-16 14"},"coordinates":[1158,7119]},{"type":"Point","properties":{"Station_ID":"MN3LTZND","Station_Nam":"BRAINERD 1.4 S","Latitude":"46.33224","Longitude":"-94.20905","Snowdepth":"13.000","Units":"in","Rept_Date":"2019-12-16 13"},"coordinates":[960,6528]},{"type":"Point","properties":{"Station_ID":"MN-IT-21","Station_Nam":"BOVEY 15.9 N, MN","Latitude":"47.52679","Longitude":"-93.40270","Snowdepth":"13.000","Units":"in","Rept_Date":"2019-12-16 13"},"coordinates":[1216,7296]},{"type":"Point","properties":{"Station_ID":"MIEM4","Station_Nam":"MICHIGAMME 3WNW","Latitude":"46.54530","Longitude":"-88.18000","Snowdepth":"13.000","Units":"in","Rept_Date":"2019-12-16 13"},"coordinates":[2871,6665]},{"type":"Point","properties":{"Station_ID":"MI-DL-4","Station_Nam":"GLADSTONE 2.1 SW, MI","Latitude":"45.83218","Longitude":"-87.05727","Snowdepth":"13.000","Units":"in","Rept_Date":"2019-12-16 12"},"coordinates":[3227,6206]},{"type":"Point","properties":{"Station_ID":"MI-DL-1","Station_Nam":"GARDEN CORNERS 0.8 NW, MI","Latitude":"45.89815","Longitude":"-86.54850","Snowdepth":"13.000","Units":"in","Rept_Date":"2019-12-16 13"},"coordinates":[3388,6248]},{"type":"Point","properties":{"Station_ID":"MCLN8","Station_Nam":"MC LEOD,ND","Latitude":"46.40250","Longitude":"-97.23810","Snowdepth":"13.000","Units":"in","Rept_Date":"2019-12-16 13"},"coordinates":[0,6573]},{"type":"Point","properties":{"Station_ID":"ISEM5","Station_Nam":"ISLE 12N","Latitude":"46.31970","Longitude":"-93.50140","Snowdepth":"13.000","Units":"in","Rept_Date":"2019-12-16 14"},"coordinates":[1184,6520]},{"type":"Point","properties":{"Station_ID":"HOLW3","Station_Nam":"HOLCOMBE","Latitude":"45.22370","Longitude":"-91.12700","Snowdepth":"13.000","Units":"in","Rept_Date":"2019-12-16 13"},"coordinates":[1937,5814]},{"type":"Point","properties":{"Station_ID":"GFK","Station_Nam":"GRAND FORKS INTERNATIONAL AIRPORT","Latitude":"47.94920","Longitude":"-97.17610","Snowdepth":"13.000","Units":"in","Rept_Date":"2019-12-17 00"},"coordinates":[20,7568]},{"type":"Point","properties":{"Station_ID":"GDCM4","Station_Nam":"GARDEN CORNERS","Latitude":"45.89830","Longitude":"-86.54850","Snowdepth":"13.000","Units":"in","Rept_Date":"2019-12-16 13"},"coordinates":[3388,6248]},{"type":"Point","properties":{"Station_ID":"BRAM5","Station_Nam":"BRAINERD","Latitude":"46.34320","Longitude":"-94.20900","Snowdepth":"13.000","Units":"in","Rept_Date":"2019-12-16 13"},"coordinates":[960,6535]},{"type":"Point","properties":{"Station_ID":"PTLQ6","Station_Nam":"PORTAGE LAKE","Latitude":"49.06950","Longitude":"-86.65940","Snowdepth":"12.990","Units":"in","Rept_Date":"2019-12-17 06"},"coordinates":[3353,8289]},{"type":"Point","properties":{"Station_ID":"QWE","Station_Nam":"QWE","Latitude":"47.84610","Longitude":"-73.80670","Snowdepth":"12.716","Units":"in","Rept_Date":"2019-12-16 12"},"coordinates":[7426,7502]},{"type":"Point","properties":{"Station_ID":"QLI","Station_Nam":"QLI","Latitude":"50.27080","Longitude":"-73.92280","Snowdepth":"12.716","Units":"in","Rept_Date":"2019-12-16 12"},"coordinates":[7389,9062]},{"type":"Point","properties":{"Station_ID":"WI-BR-2","Station_Nam":"CHETEK 2.0 SE, WI","Latitude":"45.29427","Longitude":"-91.62470","Snowdepth":"12.000","Units":"in","Rept_Date":"2019-12-16 13"},"coordinates":[1779,5860]},{"type":"Point","properties":{"Station_ID":"RRLW3","Station_Nam":"MERRILL,WI","Latitude":"45.17860","Longitude":"-89.66170","Snowdepth":"12.000","Units":"in","Rept_Date":"2019-12-16 14"},"coordinates":[2401,5785]},{"type":"Point","properties":{"Station_ID":"RHRW3","Station_Nam":"RHINELANDER WJFW TV-12","Latitude":"45.62220","Longitude":"-89.41000","Snowdepth":"12.000","Units":"in","Rept_Date":"2019-12-17 04"},"coordinates":[2481,6071]},{"type":"Point","properties":{"Station_ID":"MRAM4","Station_Nam":"MORAN","Latitude":"45.99030","Longitude":"-84.83610","Snowdepth":"12.000","Units":"in","Rept_Date":"2019-12-16 13"},"coordinates":[3931,6308]},{"type":"Point","properties":{"Station_ID":"MN8O09O3","Station_Nam":"ORR 3.6 E","Latitude":"48.04403","Longitude":"-92.75427","Snowdepth":"12.000","Units":"in","Rept_Date":"2019-12-16 12"},"coordinates":[1421,7629]},{"type":"Point","properties":{"Station_ID":"MN20GPME","Station_Nam":"MILACA 0.7 W","Latitude":"45.75695","Longitude":"-93.66835","Snowdepth":"12.000","Units":"in","Rept_Date":"2019-12-16 13"},"coordinates":[1131,6158]},{"type":"Point","properties":{"Station_ID":"MN1867TA","Station_Nam":"LAKE FREMONT 0.9 NW","Latitude":"45.45049","Longitude":"-93.60337","Snowdepth":"12.000","Units":"in","Rept_Date":"2019-12-16 13"},"coordinates":[1152,5960]},{"type":"Point","properties":{"Station_ID":"MN-IT-1","Station_Nam":"GRAND RAPIDS 2.0 E, MN","Latitude":"47.22266","Longitude":"-93.49600","Snowdepth":"12.000","Units":"in","Rept_Date":"2019-12-16 12"},"coordinates":[1186,7101]},{"type":"Point","properties":{"Station_ID":"MN-CW-22","Station_Nam":"FORT RIPLEY 0.8 N, MN","Latitude":"46.18089","Longitude":"-94.36510","Snowdepth":"12.000","Units":"in","Rept_Date":"2019-12-16 13"},"coordinates":[911,6430]},{"type":"Point","properties":{"Station_ID":"MN-CK-18","Station_Nam":"GRAND MARAIS 4.4 WSW, MN","Latitude":"47.74462","Longitude":"-90.43796","Snowdepth":"12.000","Units":"in","Rept_Date":"2019-12-16 13"},"coordinates":[2155,7437]},{"type":"Point","properties":{"Station_ID":"MN-BM-15","Station_Nam":"BEMIDJI 7.8 ENE, MN","Latitude":"47.52043","Longitude":"-94.72121","Snowdepth":"12.000","Units":"in","Rept_Date":"2019-12-16 13"},"coordinates":[798,7292]},{"type":"Point","properties":{"Station_ID":"MLCM5","Station_Nam":"MILACA","Latitude":"45.75320","Longitude":"-93.66170","Snowdepth":"12.000","Units":"in","Rept_Date":"2019-12-16 13"},"coordinates":[1134,6155]},{"type":"Point","properties":{"Station_ID":"LUCW3","Station_Nam":"LUCK","Latitude":"45.57330","Longitude":"-92.48520","Snowdepth":"12.000","Units":"in","Rept_Date":"2019-12-16 22"},"coordinates":[1506,6039]},{"type":"Point","properties":{"Station_ID":"LEIM5","Station_Nam":"ORR 3E","Latitude":"48.05810","Longitude":"-92.75220","Snowdepth":"12.000","Units":"in","Rept_Date":"2019-12-16 12"},"coordinates":[1422,7638]},{"type":"Point","properties":{"Station_ID":"LADW3","Station_Nam":"LADYSMITH WTP","Latitude":"45.44290","Longitude":"-91.08970","Snowdepth":"12.000","Units":"in","Rept_Date":"2019-12-16 13"},"coordinates":[1949,5955]},{"type":"Point","properties":{"Station_ID":"KGFK","Station_Nam":"GRAND FORKS INTERNATIONAL","Latitude":"47.95000","Longitude":"-97.18333","Snowdepth":"12.000","Units":"in","Rept_Date":"2019-12-17 06"},"coordinates":[18,7569]},{"type":"Point","properties":{"Station_ID":"HDNW3","Station_Nam":"HUDSON 4 E","Latitude":"44.98970","Longitude":"-92.66530","Snowdepth":"12.000","Units":"in","Rept_Date":"2019-12-16 14"},"coordinates":[1449,5664]},{"type":"Point","properties":{"Station_ID":"GRBM5","Station_Nam":"GRAND RAPIDS 12N","Latitude":"47.39800","Longitude":"-93.51330","Snowdepth":"12.000","Units":"in","Rept_Date":"2019-12-16 13"},"coordinates":[1181,7213]},{"type":"Point","properties":{"Station_ID":"EPTW3","Station_Nam":"EAU PLEINE TENDER","Latitude":"44.77220","Longitude":"-89.76720","Snowdepth":"12.000","Units":"in","Rept_Date":"2019-12-16 13"},"coordinates":[2368,5524]},{"type":"Point","properties":{"Station_ID":"DTVM4","Station_Nam":"DETOUR VILLAGE","Latitude":"45.99830","Longitude":"-83.90130","Snowdepth":"12.000","Units":"in","Rept_Date":"2019-12-16 13"},"coordinates":[4227,6313]},{"type":"Point","properties":{"Station_ID":"COTM5","Station_Nam":"COTTON","Latitude":"47.16870","Longitude":"-92.46290","Snowdepth":"12.000","Units":"in","Rept_Date":"2019-12-16 12"},"coordinates":[1513,7066]},{"type":"Point","properties":{"Station_ID":"CBLW3","Station_Nam":"CUMBERLAND","Latitude":"45.53310","Longitude":"-92.02260","Snowdepth":"12.000","Units":"in","Rept_Date":"2019-12-16 13"},"coordinates":[1653,6013]},{"type":"Point","properties":{"Station_ID":"SOCQ6","Station_Nam":"SOCKET LAKE","Latitude":"50.77870","Longitude":"-91.79300","Snowdepth":"11.650","Units":"in","Rept_Date":"2019-12-17 06"},"coordinates":[1726,9389]},{"type":"Point","properties":{"Station_ID":"TRIQ6","Station_Nam":"TRIO LAKE","Latitude":"49.22880","Longitude":"-87.22920","Snowdepth":"11.500","Units":"in","Rept_Date":"2019-12-17 06"},"coordinates":[3172,8392]},{"type":"Point","properties":{"Station_ID":"WLDM5","Station_Nam":"WILD RIVER STATE PARK","Latitude":"45.52310","Longitude":"-92.74890","Snowdepth":"11.000","Units":"in","Rept_Date":"2019-12-16 14"},"coordinates":[1423,6007]},{"type":"Point","properties":{"Station_ID":"WI-EC-23","Station_Nam":"EAU CLAIRE 3.7 S, WI","Latitude":"44.76858","Longitude":"-91.49898","Snowdepth":"11.000","Units":"in","Rept_Date":"2019-12-16 14"},"coordinates":[1819,5522]},{"type":"Point","properties":{"Station_ID":"STIM4","Station_Nam":"ST IGNACE","Latitude":"45.86080","Longitude":"-84.71960","Snowdepth":"11.000","Units":"in","Rept_Date":"2019-12-16 12"},"coordinates":[3967,6224]},{"type":"Point","properties":{"Station_ID":"SSMM4","Station_Nam":"SAULT STE MARIE","Latitude":"46.48660","Longitude":"-84.40250","Snowdepth":"11.000","Units":"in","Rept_Date":"2019-12-16 13"},"coordinates":[4068,6627]},{"type":"Point","properties":{"Station_ID":"OTTM5","Station_Nam":"OTTERTAIL,MN","Latitude":"46.41670","Longitude":"-95.56670","Snowdepth":"11.000","Units":"in","Rept_Date":"2019-12-16 13"},"coordinates":[530,6582]},{"type":"Point","properties":{"Station_ID":"NOHM5","Station_Nam":"NORTHOME","Latitude":"47.83590","Longitude":"-94.25550","Snowdepth":"11.000","Units":"in","Rept_Date":"2019-12-16 13"},"coordinates":[945,7495]},{"type":"Point","properties":{"Station_ID":"MNMQO9OI","Station_Nam":"OTTERTAIL 1.5 WNW","Latitude":"46.43378","Longitude":"-95.58416","Snowdepth":"11.000","Units":"in","Rept_Date":"2019-12-16 13"},"coordinates":[524,6593]},{"type":"Point","properties":{"Station_ID":"MN-SR-29","Station_Nam":"ALBANY 3.8 S, MN","Latitude":"45.57441","Longitude":"-94.55543","Snowdepth":"11.000","Units":"in","Rept_Date":"2019-12-16 13"},"coordinates":[850,6040]},{"type":"Point","properties":{"Station_ID":"MN-IT-17","Station_Nam":"GRAND RAPIDS 6.1 N, MN","Latitude":"47.31165","Longitude":"-93.55036","Snowdepth":"11.000","Units":"in","Rept_Date":"2019-12-16 13"},"coordinates":[1169,7158]},{"type":"Point","properties":{"Station_ID":"MI-MC-4","Station_Nam":"ST. IGNACE 0.5SE, MI","Latitude":"45.86057","Longitude":"-84.71980","Snowdepth":"11.000","Units":"in","Rept_Date":"2019-12-16 12"},"coordinates":[3967,6224]},{"type":"Point","properties":{"Station_ID":"FLDM5","Station_Nam":"FLOODWOOD,MN","Latitude":"47.00000","Longitude":"-92.91670","Snowdepth":"11.000","Units":"in","Rept_Date":"2019-12-16 14"},"coordinates":[1370,6957]},{"type":"Point","properties":{"Station_ID":"FEDM5","Station_Nam":"LEECH LAKE DAM","Latitude":"47.24670","Longitude":"-94.22280","Snowdepth":"11.000","Units":"in","Rept_Date":"2019-12-16 14"},"coordinates":[956,7116]},{"type":"Point","properties":{"Station_ID":"ECAW3","Station_Nam":"EAU CLAIRE 5 SE - HWY DEPT","Latitude":"44.76220","Longitude":"-91.41390","Snowdepth":"11.000","Units":"in","Rept_Date":"2019-12-16 14"},"coordinates":[1846,5517]},{"type":"Point","properties":{"Station_ID":"CRNM5","Station_Nam":"NW EXPERIMENT STN","Latitude":"47.80360","Longitude":"-96.61670","Snowdepth":"11.000","Units":"in","Rept_Date":"2019-12-16 14"},"coordinates":[197,7474]},{"type":"Point","properties":{"Station_ID":"CMBM5","Station_Nam":"CAMBRIDGE","Latitude":"45.55640","Longitude":"-93.23480","Snowdepth":"11.000","Units":"in","Rept_Date":"2019-12-16 14"},"coordinates":[1269,6028]},{"type":"Point","properties":{"Station_ID":"BREW3","Station_Nam":"SURING","Latitude":"44.99580","Longitude":"-88.37860","Snowdepth":"11.000","Units":"in","Rept_Date":"2019-12-16 13"},"coordinates":[2808,5668]},{"type":"Point","properties":{"Station_ID":"AGSW3","Station_Nam":"AUGUSTA RANGER STATION","Latitude":"44.68250","Longitude":"-91.13570","Snowdepth":"11.000","Units":"in","Rept_Date":"2019-12-16 14"},"coordinates":[1934,5466]},{"type":"Point","properties":{"Station_ID":"MN-IT-7","Station_Nam":"GRAND RAPIDS 6.2 SSW, MN","Latitude":"47.13687","Longitude":"-93.56660","Snowdepth":"10.900","Units":"in","Rept_Date":"2019-12-16 12"},"coordinates":[1164,7045]},{"type":"Point","properties":{"Station_ID":"QIQ","Station_Nam":"QIQ","Latitude":"49.82390","Longitude":"-68.54310","Snowdepth":"10.118","Units":"in","Rept_Date":"2019-12-16 12"},"coordinates":[9094,8774]},{"type":"Point","properties":{"Station_ID":"QCO","Station_Nam":"QCO","Latitude":"51.45280","Longitude":"-72.20110","Snowdepth":"10.118","Units":"in","Rept_Date":"2019-12-16 12"},"coordinates":[7935,9823]},{"type":"Point","properties":{"Station_ID":"SPCW3","Station_Nam":"SPENCER-WWTP","Latitude":"44.75390","Longitude":"-90.28920","Snowdepth":"10.000","Units":"in","Rept_Date":"2019-12-16 13"},"coordinates":[2202,5512]},{"type":"Point","properties":{"Station_ID":"OWEW3","Station_Nam":"OWEN 2N","Latitude":"44.98010","Longitude":"-90.55440","Snowdepth":"10.000","Units":"in","Rept_Date":"2019-12-16 13"},"coordinates":[2118,5658]},{"type":"Point","properties":{"Station_ID":"NY-ER-77","Station_Nam":"COLDEN 2.4 ENE, NY","Latitude":"42.65088","Longitude":"-78.61060","Snowdepth":"10.000","Units":"in","Rept_Date":"2019-12-16 13"},"coordinates":[5903,4159]},{"type":"Point","properties":{"Station_ID":"MNOW3","Station_Nam":"CEDAR FALLS HYDRO PLANT","Latitude":"44.93550","Longitude":"-91.88850","Snowdepth":"10.000","Units":"in","Rept_Date":"2019-12-16 13"},"coordinates":[1696,5629]},{"type":"Point","properties":{"Station_ID":"MN9UO3KA","Station_Nam":"GAPPAS LANDING CG 3.8 N","Latitude":"48.49307","Longitude":"-93.03634","Snowdepth":"10.000","Units":"in","Rept_Date":"2019-12-16 13"},"coordinates":[1332,7918]},{"type":"Point","properties":{"Station_ID":"MN7TCHCK","Station_Nam":"COOK 0.2 ENE","Latitude":"47.85225","Longitude":"-92.68378","Snowdepth":"10.000","Units":"in","Rept_Date":"2019-12-16 12"},"coordinates":[1443,7506]},{"type":"Point","properties":{"Station_ID":"MN-SH-10","Station_Nam":"BIG LAKE 5.6 NNE, MN","Latitude":"45.41409","Longitude":"-93.69190","Snowdepth":"10.000","Units":"in","Rept_Date":"2019-12-16 13"},"coordinates":[1124,5937]},{"type":"Point","properties":{"Station_ID":"MEDW3","Station_Nam":"MEDFORD","Latitude":"45.13080","Longitude":"-90.34390","Snowdepth":"10.000","Units":"in","Rept_Date":"2019-12-16 14"},"coordinates":[2185,5755]},{"type":"Point","properties":{"Station_ID":"KABM5","Station_Nam":"KABETOGAMA LAKE VISITOR CTR","Latitude":"48.40880","Longitude":"-93.04840","Snowdepth":"10.000","Units":"in","Rept_Date":"2019-12-16 13"},"coordinates":[1328,7864]},{"type":"Point","properties":{"Station_ID":"JIMW3","Station_Nam":"JIM FALLS 3NW","Latitude":"45.08270","Longitude":"-91.33130","Snowdepth":"10.000","Units":"in","Rept_Date":"2019-12-16 12"},"coordinates":[1872,5724]},{"type":"Point","properties":{"Station_ID":"ITAM5","Station_Nam":"UNIV. OF MINN.","Latitude":"47.21670","Longitude":"-95.20000","Snowdepth":"10.000","Units":"in","Rept_Date":"2019-12-16 13"},"coordinates":[646,7097]},{"type":"Point","properties":{"Station_ID":"EAU","Station_Nam":"CHIPPEWA VALLEY REGIONAL AIRPORT","Latitude":"44.86650","Longitude":"-91.48790","Snowdepth":"10.000","Units":"in","Rept_Date":"2019-12-17 00"},"coordinates":[1822,5585]},{"type":"Point","properties":{"Station_ID":"CVZW3","Station_Nam":"WISCONSIN PUBLIC SERVICE","Latitude":"45.23530","Longitude":"-88.01360","Snowdepth":"10.000","Units":"in","Rept_Date":"2019-12-16 12"},"coordinates":[2924,5822]},{"type":"Point","properties":{"Station_ID":"COKM5","Station_Nam":"COOK","Latitude":"47.85060","Longitude":"-92.69250","Snowdepth":"10.000","Units":"in","Rept_Date":"2019-12-16 12"},"coordinates":[1441,7505]},{"type":"Point","properties":{"Station_ID":"CHPW3","Station_Nam":"CHIPPEWA FALLS","Latitude":"44.92770","Longitude":"-91.40810","Snowdepth":"10.000","Units":"in","Rept_Date":"2019-12-16 14"},"coordinates":[1848,5624]},{"type":"Point","properties":{"Station_ID":"ANJM4","Station_Nam":"SNOW PAID OBSERVER FOR KANJ","Latitude":"46.48670","Longitude":"-84.40260","Snowdepth":"10.000","Units":"in","Rept_Date":"2019-12-17 00"},"coordinates":[4068,6627]},{"type":"Point","properties":{"Station_ID":"ANJ","Station_Nam":"SAULT STE MARIE","Latitude":"46.46670","Longitude":"-84.36670","Snowdepth":"10.000","Units":"in","Rept_Date":"2019-12-17 00"},"coordinates":[4079,6614]},{"type":"Point","properties":{"Station_ID":"WI-CH-10","Station_Nam":"CHIPPEWA FALLS 0.6 SSE, WI","Latitude":"44.92452","Longitude":"-91.38623","Snowdepth":"9.500","Units":"in","Rept_Date":"2019-12-16 13"},"coordinates":[1855,5622]},{"type":"Point","properties":{"Station_ID":"MN-MR-13","Station_Nam":"LITTLE FALLS 8.0 NE, MN","Latitude":"46.06785","Longitude":"-94.24789","Snowdepth":"9.500","Units":"in","Rept_Date":"2019-12-16 13"},"coordinates":[948,6358]},{"type":"Point","properties":{"Station_ID":"CAN-ON-757","Station_Nam":"SAULT STE. MARIE 2.8 ESE - GLFC, CAN","Latitude":"46.50300","Longitude":"-84.30300","Snowdepth":"9.500","Units":"in","Rept_Date":"2019-12-16 13"},"coordinates":[4099,6638]},{"type":"Point","properties":{"Station_ID":"CATQ6","Station_Nam":"CAT LAKE","Latitude":"51.72690","Longitude":"-91.82210","Snowdepth":"9.210","Units":"in","Rept_Date":"2019-12-17 06"},"coordinates":[1717,9999]},{"type":"Point","properties":{"Station_ID":"CAN-ON-335","Station_Nam":"NAKINA 1.6 NW - MNRF, CAN","Latitude":"50.18910","Longitude":"-86.72684","Snowdepth":"9.200","Units":"in","Rept_Date":"2019-12-16 13"},"coordinates":[3331,9009]},{"type":"Point","properties":{"Station_ID":"QWG","Station_Nam":"QWG","Latitude":"48.48890","Longitude":"-73.45940","Snowdepth":"9.134","Units":"in","Rept_Date":"2019-12-16 12"},"coordinates":[7536,7915]},{"type":"Point","properties":{"Station_ID":"QTM","Station_Nam":"QTM","Latitude":"51.05780","Longitude":"-72.57190","Snowdepth":"9.134","Units":"in","Rept_Date":"2019-12-16 12"},"coordinates":[7817,9568]},{"type":"Point","properties":{"Station_ID":"QGA","Station_Nam":"QGA","Latitude":"47.25640","Longitude":"-73.73810","Snowdepth":"9.055","Units":"in","Rept_Date":"2019-12-16 12"},"coordinates":[7448,7122]},{"type":"Point","properties":{"Station_ID":"WI-PC-5","Station_Nam":"RIVER FALLS 1.2 SSW, WI","Latitude":"44.84032","Longitude":"-92.63500","Snowdepth":"9.000","Units":"in","Rept_Date":"2019-12-16 13"},"coordinates":[1459,5568]},{"type":"Point","properties":{"Station_ID":"WI-DR-5","Station_Nam":"ELLISON BAY 2.2 E, WI","Latitude":"45.25750","Longitude":"-87.02670","Snowdepth":"9.000","Units":"in","Rept_Date":"2019-12-16 13"},"coordinates":[3236,5836]},{"type":"Point","properties":{"Station_ID":"WAMK1","Station_Nam":"WAMEGO 4W","Latitude":"39.21410","Longitude":"-96.37000","Snowdepth":"9.000","Units":"in","Rept_Date":"2019-12-16 13"},"coordinates":[275,1947]},{"type":"Point","properties":{"Station_ID":"SIBI4","Station_Nam":"SIBLEY","Latitude":"43.40470","Longitude":"-95.74830","Snowdepth":"9.000","Units":"in","Rept_Date":"2019-12-16 13"},"coordinates":[472,4644]},{"type":"Point","properties":{"Station_ID":"SHHW3","Station_Nam":"SHAWANO 2SSW","Latitude":"44.76310","Longitude":"-88.61830","Snowdepth":"9.000","Units":"in","Rept_Date":"2019-12-16 14"},"coordinates":[2732,5518]},{"type":"Point","properties":{"Station_ID":"RSTW3","Station_Nam":"ROSHOLT","Latitude":"44.62710","Longitude":"-89.30600","Snowdepth":"9.000","Units":"in","Rept_Date":"2019-12-16 13"},"coordinates":[2514,5430]},{"type":"Point","properties":{"Station_ID":"RCEM5","Station_Nam":"RICE","Latitude":"45.75760","Longitude":"-94.20720","Snowdepth":"9.000","Units":"in","Rept_Date":"2019-12-16 13"},"coordinates":[961,6158]},{"type":"Point","properties":{"Station_ID":"PSHW3","Station_Nam":"PESHTIGO","Latitude":"45.02810","Longitude":"-87.73560","Snowdepth":"9.000","Units":"in","Rept_Date":"2019-12-16 13"},"coordinates":[3012,5689]},{"type":"Point","properties":{"Station_ID":"PARM4","Station_Nam":"PARENT BAY","Latitude":"45.79610","Longitude":"-86.40110","Snowdepth":"9.000","Units":"in","Rept_Date":"2019-12-16 15"},"coordinates":[3435,6183]},{"type":"Point","properties":{"Station_ID":"MRIW3","Station_Nam":"MARINETTE","Latitude":"45.09830","Longitude":"-87.62360","Snowdepth":"9.000","Units":"in","Rept_Date":"2019-12-16 13"},"coordinates":[3047,5734]},{"type":"Point","properties":{"Station_ID":"MNLGGILP","Station_Nam":"LONG PRAIRIE 1.1 WSW","Latitude":"45.96913","Longitude":"-94.88686","Snowdepth":"9.000","Units":"in","Rept_Date":"2019-12-16 12"},"coordinates":[745,6294]},{"type":"Point","properties":{"Station_ID":"MN228YHJ","Station_Nam":"RICE 2.8 ESE","Latitude":"45.73609","Longitude":"-94.17230","Snowdepth":"9.000","Units":"in","Rept_Date":"2019-12-16 13"},"coordinates":[972,6144]},{"type":"Point","properties":{"Station_ID":"MN228RRE","Station_Nam":"RICE 0.8 ENE","Latitude":"45.75724","Longitude":"-94.20638","Snowdepth":"9.000","Units":"in","Rept_Date":"2019-12-16 13"},"coordinates":[961,6158]},{"type":"Point","properties":{"Station_ID":"MN11SWER","Station_Nam":"ELK RIVER 0.8 WNW","Latitude":"45.30624","Longitude":"-93.58158","Snowdepth":"9.000","Units":"in","Rept_Date":"2019-12-16 13"},"coordinates":[1159,5867]},{"type":"Point","properties":{"Station_ID":"MN-MR-4","Station_Nam":"LITTLE FALLS 1.2 SW, MN","Latitude":"45.96886","Longitude":"-94.37720","Snowdepth":"9.000","Units":"in","Rept_Date":"2019-12-16 13"},"coordinates":[907,6294]},{"type":"Point","properties":{"Station_ID":"MN-DK-73","Station_Nam":"LAKEVILLE 2.6 NNE, MN","Latitude":"44.71250","Longitude":"-93.23043","Snowdepth":"9.000","Units":"in","Rept_Date":"2019-12-16 13"},"coordinates":[1270,5485]},{"type":"Point","properties":{"Station_ID":"MN-AA-76","Station_Nam":"NOWTHEN 2.9 SSE, MN","Latitude":"45.30360","Longitude":"-93.42620","Snowdepth":"9.000","Units":"in","Rept_Date":"2019-12-16 12"},"coordinates":[1208,5866]},{"type":"Point","properties":{"Station_ID":"MI-AT-6","Station_Nam":"MANCELONA 0.5 ESE, MI","Latitude":"44.89981","Longitude":"-85.05100","Snowdepth":"9.000","Units":"in","Rept_Date":"2019-12-16 13"},"coordinates":[3862,5606]},{"type":"Point","properties":{"Station_ID":"MFDW3","Station_Nam":"MARSHFIELD EXP FARM","Latitude":"44.64110","Longitude":"-90.13330","Snowdepth":"9.000","Units":"in","Rept_Date":"2019-12-16 13"},"coordinates":[2252,5439]},{"type":"Point","properties":{"Station_ID":"MENM4","Station_Nam":"MENOMINEE NO.2","Latitude":"45.11100","Longitude":"-87.61170","Snowdepth":"9.000","Units":"in","Rept_Date":"2019-12-16 14"},"coordinates":[3051,5742]},{"type":"Point","properties":{"Station_ID":"MEMW3","Station_Nam":"MENOMONIE","Latitude":"44.87430","Longitude":"-91.93640","Snowdepth":"9.000","Units":"in","Rept_Date":"2019-12-16 13"},"coordinates":[1680,5590]},{"type":"Point","properties":{"Station_ID":"ME-AR-23","Station_Nam":"MADAWASKA 2.5 E, ME","Latitude":"47.34933","Longitude":"-68.28141","Snowdepth":"9.000","Units":"in","Rept_Date":"2019-12-16 11"},"coordinates":[9177,7182]},{"type":"Point","properties":{"Station_ID":"LNGM5","Station_Nam":"LONG PRAIRIE","Latitude":"45.96460","Longitude":"-94.88920","Snowdepth":"9.000","Units":"in","Rept_Date":"2019-12-16 12"},"coordinates":[745,6291]},{"type":"Point","properties":{"Station_ID":"INL","Station_Nam":"FALLS INTERNATIONAL ARPT","Latitude":"48.56640","Longitude":"-93.40310","Snowdepth":"9.000","Units":"in","Rept_Date":"2019-12-17 00"},"coordinates":[1216,7965]},{"type":"Point","properties":{"Station_ID":"IFSM5","Station_Nam":"INTERNATIONAL FALLS SNOW","Latitude":"48.57780","Longitude":"-93.39640","Snowdepth":"9.000","Units":"in","Rept_Date":"2019-12-17 06"},"coordinates":[1218,7973]},{"type":"Point","properties":{"Station_ID":"FORM5","Station_Nam":"FOREST LAKE 5NE","Latitude":"45.33170","Longitude":"-92.89820","Snowdepth":"9.000","Units":"in","Rept_Date":"2019-12-16 13"},"coordinates":[1376,5884]},{"type":"Point","properties":{"Station_ID":"EPMW3","Station_Nam":"EPHRAIM-1 NE WWTP","Latitude":"45.17080","Longitude":"-87.15360","Snowdepth":"9.000","Units":"in","Rept_Date":"2019-12-16 13"},"coordinates":[3196,5780]},{"type":"Point","properties":{"Station_ID":"ELKM5","Station_Nam":"ELK RIVER","Latitude":"45.30470","Longitude":"-93.58420","Snowdepth":"9.000","Units":"in","Rept_Date":"2019-12-16 13"},"coordinates":[1158,5866]},{"type":"Point","properties":{"Station_ID":"BMRW3","Station_Nam":"BLOOMER","Latitude":"45.09070","Longitude":"-91.48640","Snowdepth":"9.000","Units":"in","Rept_Date":"2019-12-16 14"},"coordinates":[1823,5729]},{"type":"Point","properties":{"Station_ID":"KABQ6","Station_Nam":"CAB LAKE","Latitude":"49.59950","Longitude":"-89.17990","Snowdepth":"8.940","Units":"in","Rept_Date":"2019-12-17 06"},"coordinates":[2554,8630]},{"type":"Point","properties":{"Station_ID":"KS-DK-47","Station_Nam":"ABILENE 10.3 S, KS","Latitude":"38.77095","Longitude":"-97.22497","Snowdepth":"8.800","Units":"in","Rept_Date":"2019-12-16 13"},"coordinates":[4,1662]},{"type":"Point","properties":{"Station_ID":"KS-WB-4","Station_Nam":"ALMA 6.1 NW, KS","Latitude":"39.06740","Longitude":"-96.38000","Snowdepth":"8.600","Units":"in","Rept_Date":"2019-12-16 12"},"coordinates":[272,1853]},{"type":"Point","properties":{"Station_ID":"VT-BN-12","Station_Nam":"STAMFORD 5.0 NNE, VT","Latitude":"42.82000","Longitude":"-73.02000","Snowdepth":"8.500","Units":"in","Rept_Date":"2019-12-16 21"},"coordinates":[7675,4268]},{"type":"Point","properties":{"Station_ID":"NY-OD-2","Station_Nam":"POINT ROCK 0.6 SE, NY","Latitude":"43.37335","Longitude":"-75.53840","Snowdepth":"8.500","Units":"in","Rept_Date":"2019-12-16 13"},"coordinates":[6877,4624]},{"type":"Point","properties":{"Station_ID":"MN-BK-10","Station_Nam":"DETROIT LAKES 5.7 N, MN","Latitude":"46.88666","Longitude":"-95.84444","Snowdepth":"8.500","Units":"in","Rept_Date":"2019-12-16 10"},"coordinates":[442,6884]},{"type":"Point","properties":{"Station_ID":"MN-AA-85","Station_Nam":"LINO LAKES 1.8 W, MN","Latitude":"45.16640","Longitude":"-93.12063","Snowdepth":"8.500","Units":"in","Rept_Date":"2019-12-16 13"},"coordinates":[1305,5777]},{"type":"Point","properties":{"Station_ID":"MI-OT-17","Station_Nam":"GAYLORD 4.1 S, MI","Latitude":"44.96388","Longitude":"-84.68467","Snowdepth":"8.500","Units":"in","Rept_Date":"2019-12-16 12"},"coordinates":[3979,5647]},{"type":"Point","properties":{"Station_ID":"KS-WB-3","Station_Nam":"MCFARLAND 0.1 SE, KS","Latitude":"39.05350","Longitude":"-96.23710","Snowdepth":"8.500","Units":"in","Rept_Date":"2019-12-16 13"},"coordinates":[317,1844]},{"type":"Point","properties":{"Station_ID":"MN-DK-53","Station_Nam":"LAKEVILLE 3.8 ENE, MN","Latitude":"44.70423","Longitude":"-93.18460","Snowdepth":"8.300","Units":"in","Rept_Date":"2019-12-16 12"},"coordinates":[1285,5480]},{"type":"Point","properties":{"Station_ID":"WTCK1","Station_Nam":"WHITE CITY","Latitude":"38.79750","Longitude":"-96.72870","Snowdepth":"8.000","Units":"in","Rept_Date":"2019-12-16 13"},"coordinates":[162,1679]},{"type":"Point","properties":{"Station_ID":"WMRM5","Station_Nam":"WILLMAR 5N","Latitude":"45.19010","Longitude":"-95.05860","Snowdepth":"8.000","Units":"in","Rept_Date":"2019-12-16 12"},"coordinates":[691,5793]},{"type":"Point","properties":{"Station_ID":"WI-PT-8","Station_Nam":"RUDOLPH 2.1 NNE, WI","Latitude":"44.52553","Longitude":"-89.78677","Snowdepth":"8.000","Units":"in","Rept_Date":"2019-12-16 11"},"coordinates":[2362,5365]},{"type":"Point","properties":{"Station_ID":"WI-PC-10","Station_Nam":"RIVER FALLS 1.4 S, WI","Latitude":"44.83580","Longitude":"-92.62100","Snowdepth":"8.000","Units":"in","Rept_Date":"2019-12-16 13"},"coordinates":[1463,5565]},{"type":"Point","properties":{"Station_ID":"WI-DN-5","Station_Nam":"ELK MOUND 1.3 NE, WI","Latitude":"44.88627","Longitude":"-91.66680","Snowdepth":"8.000","Units":"in","Rept_Date":"2019-12-16 13"},"coordinates":[1766,5597]},{"type":"Point","properties":{"Station_ID":"WABM5","Station_Nam":"WABASHA","Latitude":"44.38500","Longitude":"-92.04860","Snowdepth":"8.000","Units":"in","Rept_Date":"2019-12-16 13"},"coordinates":[1645,5275]},{"type":"Point","properties":{"Station_ID":"SCRW3","Station_Nam":"ST CROIX FALLS","Latitude":"45.41170","Longitude":"-92.64660","Snowdepth":"8.000","Units":"in","Rept_Date":"2019-12-16 13"},"coordinates":[1455,5935]},{"type":"Point","properties":{"Station_ID":"SBNM5","Station_Nam":"SABIN","Latitude":"46.77690","Longitude":"-96.65610","Snowdepth":"8.000","Units":"in","Rept_Date":"2019-12-16 14"},"coordinates":[185,6814]},{"type":"Point","properties":{"Station_ID":"RLWM5","Station_Nam":"CAMP NORRIS DNR","Latitude":"48.61000","Longitude":"-95.18170","Snowdepth":"8.000","Units":"in","Rept_Date":"2019-12-16 13"},"coordinates":[652,7993]},{"type":"Point","properties":{"Station_ID":"NELW3","Station_Nam":"NEILLSVILLE 3ESE","Latitude":"44.53780","Longitude":"-90.53500","Snowdepth":"8.000","Units":"in","Rept_Date":"2019-12-16 13"},"coordinates":[2124,5373]},{"type":"Point","properties":{"Station_ID":"MO-CS-16","Station_Nam":"PLEASANT HILL 1.0 NNW, MO","Latitude":"38.80900","Longitude":"-94.27530","Snowdepth":"8.000","Units":"in","Rept_Date":"2019-12-16 13"},"coordinates":[939,1687]},{"type":"Point","properties":{"Station_ID":"MNJ3AYM2","Station_Nam":"WILLMAR 2.8 NNE","Latitude":"45.16114","Longitude":"-95.03260","Snowdepth":"8.000","Units":"in","Rept_Date":"2019-12-16 12"},"coordinates":[699,5774]},{"type":"Point","properties":{"Station_ID":"MNFF4VWA","Station_Nam":"WABASHA 0.8 SSW","Latitude":"44.37265","Longitude":"-92.04459","Snowdepth":"8.000","Units":"in","Rept_Date":"2019-12-16 13"},"coordinates":[1646,5267]},{"type":"Point","properties":{"Station_ID":"MNEY8CTB","Station_Nam":"MIDLAND JUNCTION 2.2 ENE","Latitude":"44.33041","Longitude":"-91.95891","Snowdepth":"8.000","Units":"in","Rept_Date":"2019-12-16 14"},"coordinates":[1673,5240]},{"type":"Point","properties":{"Station_ID":"MN0GWSNW","Station_Nam":"LAKE ELMO 2.9 SE","Latitude":"44.97220","Longitude":"-92.83065","Snowdepth":"8.000","Units":"in","Rept_Date":"2019-12-16 13"},"coordinates":[1397,5653]},{"type":"Point","properties":{"Station_ID":"MN-MK-12","Station_Nam":"WATKINS 3.2 WSW, MN","Latitude":"45.30107","Longitude":"-94.47460","Snowdepth":"8.000","Units":"in","Rept_Date":"2019-12-16 15"},"coordinates":[876,5864]},{"type":"Point","properties":{"Station_ID":"MN-HN-181","Station_Nam":"MINNEAPOLIS 0.4 NE, MN","Latitude":"44.96708","Longitude":"-93.26222","Snowdepth":"8.000","Units":"in","Rept_Date":"2019-12-16 13"},"coordinates":[1260,5649]},{"type":"Point","properties":{"Station_ID":"MN-CY-1","Station_Nam":"MOORHEAD 2.0 N, MN","Latitude":"46.88766","Longitude":"-96.74800","Snowdepth":"8.000","Units":"in","Rept_Date":"2019-12-16 13"},"coordinates":[155,6885]},{"type":"Point","properties":{"Station_ID":"MN-CG-16","Station_Nam":"NORTH BRANCH 1.3 NNW, MN","Latitude":"45.53121","Longitude":"-92.97110","Snowdepth":"8.000","Units":"in","Rept_Date":"2019-12-16 12"},"coordinates":[1352,6012]},{"type":"Point","properties":{"Station_ID":"MCFK1","Station_Nam":"MCFARLAND","Latitude":"39.05410","Longitude":"-96.23660","Snowdepth":"8.000","Units":"in","Rept_Date":"2019-12-16 13"},"coordinates":[318,1844]},{"type":"Point","properties":{"Station_ID":"LGRN8","Station_Nam":"LIDGERWOOD,ND","Latitude":"46.06670","Longitude":"-97.16670","Snowdepth":"8.000","Units":"in","Rept_Date":"2019-12-16 13"},"coordinates":[23,6357]},{"type":"Point","properties":{"Station_ID":"JUDW3","Station_Nam":"FISH CREEK 3S - JUDDVILLE","Latitude":"45.08920","Longitude":"-87.25890","Snowdepth":"8.000","Units":"in","Rept_Date":"2019-12-16 14"},"coordinates":[3163,5728]},{"type":"Point","properties":{"Station_ID":"GRFN8","Station_Nam":"UNIVERSITY","Latitude":"47.93330","Longitude":"-97.08330","Snowdepth":"8.000","Units":"in","Rept_Date":"2019-12-17 06"},"coordinates":[49,7558]},{"type":"Point","properties":{"Station_ID":"FDRN8","Station_Nam":"FARGO 3S","Latitude":"46.82930","Longitude":"-96.79620","Snowdepth":"8.000","Units":"in","Rept_Date":"2019-12-17 00"},"coordinates":[140,6848]},{"type":"Point","properties":{"Station_ID":"FAR","Station_Nam":"HECTOR INTERNATIONAL ARPT","Latitude":"46.91560","Longitude":"-96.81440","Snowdepth":"8.000","Units":"in","Rept_Date":"2019-12-17 00"},"coordinates":[134,6903]},{"type":"Point","properties":{"Station_ID":"ETTW3","Station_Nam":"ETTRICK 4WNW","Latitude":"44.19000","Longitude":"-91.34240","Snowdepth":"8.000","Units":"in","Rept_Date":"2019-12-16 13"},"coordinates":[1869,5149]},{"type":"Point","properties":{"Station_ID":"DRDW3","Station_Nam":"DURAND","Latitude":"44.61970","Longitude":"-91.97950","Snowdepth":"8.000","Units":"in","Rept_Date":"2019-12-16 14"},"coordinates":[1667,5426]},{"type":"Point","properties":{"Station_ID":"BFSW3","Station_Nam":"BIG FALLS-5 NW","Latitude":"44.63980","Longitude":"-89.11330","Snowdepth":"8.000","Units":"in","Rept_Date":"2019-12-16 13"},"coordinates":[2575,5439]},{"type":"Point","properties":{"Station_ID":"QLP","Station_Nam":"QLP","Latitude":"48.13920","Longitude":"-72.63830","Snowdepth":"7.520","Units":"in","Rept_Date":"2019-12-16 12"},"coordinates":[7796,7690]},{"type":"Point","properties":{"Station_ID":"WI-EC-18","Station_Nam":"EAU CLAIRE 2.3 W, WI","Latitude":"44.82657","Longitude":"-91.53788","Snowdepth":"7.500","Units":"in","Rept_Date":"2019-12-16 11"},"coordinates":[1807,5559]},{"type":"Point","properties":{"Station_ID":"PA-SM-1","Station_Nam":"HIDDEN VALLEY 0.3 ENE, PA","Latitude":"40.05844","Longitude":"-79.26156","Snowdepth":"7.500","Units":"in","Rept_Date":"2019-12-16 10"},"coordinates":[5697,2491]},{"type":"Point","properties":{"Station_ID":"NY-HR-18","Station_Nam":"SALISBURY CENTER 1.8 NW, NY","Latitude":"43.16260","Longitude":"-74.80880","Snowdepth":"7.500","Units":"in","Rept_Date":"2019-12-16 11"},"coordinates":[7108,4488]},{"type":"Point","properties":{"Station_ID":"NY-CQ-39","Station_Nam":"GERRY 0.8 N, NY","Latitude":"42.20500","Longitude":"-79.24700","Snowdepth":"7.500","Units":"in","Rept_Date":"2019-12-16 13"},"coordinates":[5702,3872]},{"type":"Point","properties":{"Station_ID":"CAN-MB-368","Station_Nam":"WHITESHELL 1.3 NE, CAN","Latitude":"49.74405","Longitude":"-95.19123","Snowdepth":"7.500","Units":"in","Rept_Date":"2019-12-16 14"},"coordinates":[649,8723]},{"type":"Point","properties":{"Station_ID":"KS-JO-42","Station_Nam":"OLATHE 4.9 NW, KS","Latitude":"38.93155","Longitude":"-94.88650","Snowdepth":"7.400","Units":"in","Rept_Date":"2019-12-16 13"},"coordinates":[745,1766]},{"type":"Point","properties":{"Station_ID":"FTHQ6","Station_Nam":"FORT HOPE","Latitude":"51.55820","Longitude":"-87.90510","Snowdepth":"7.400","Units":"in","Rept_Date":"2019-12-17 06"},"coordinates":[2958,9890]},{"type":"Point","properties":{"Station_ID":"WRSN6","Station_Nam":"WARSAW 6SW","Latitude":"42.68550","Longitude":"-78.22020","Snowdepth":"7.000","Units":"in","Rept_Date":"2019-12-16 12"},"coordinates":[6027,4181]},{"type":"Point","properties":{"Station_ID":"STPW3","Station_Nam":"STEVENS POINT","Latitude":"44.51130","Longitude":"-89.58550","Snowdepth":"7.000","Units":"in","Rept_Date":"2019-12-16 13"},"coordinates":[2425,5356]},{"type":"Point","properties":{"Station_ID":"ROBW3","Station_Nam":"ROBERTS WWTP","Latitude":"44.97070","Longitude":"-92.56200","Snowdepth":"7.000","Units":"in","Rept_Date":"2019-12-16 14"},"coordinates":[1482,5652]},{"type":"Point","properties":{"Station_ID":"RFDM5","Station_Nam":"ROCKFORD","Latitude":"45.08960","Longitude":"-93.73990","Snowdepth":"7.000","Units":"in","Rept_Date":"2019-12-16 13"},"coordinates":[1109,5728]},{"type":"Point","properties":{"Station_ID":"PELW3","Station_Nam":"PELLA 3SE","Latitude":"44.73580","Longitude":"-88.73780","Snowdepth":"7.000","Units":"in","Rept_Date":"2019-12-16 11"},"coordinates":[2694,5500]},{"type":"Point","properties":{"Station_ID":"NY-ER-65","Station_Nam":"BOSTON 1.5 NE, NY","Latitude":"42.65470","Longitude":"-78.72010","Snowdepth":"7.000","Units":"in","Rept_Date":"2019-12-16 12"},"coordinates":[5869,4161]},{"type":"Point","properties":{"Station_ID":"NALN6","Station_Nam":"CATTARAUGUS","Latitude":"42.32450","Longitude":"-78.86700","Snowdepth":"7.000","Units":"in","Rept_Date":"2019-12-16 13"},"coordinates":[5822,3949]},{"type":"Point","properties":{"Station_ID":"MTQM4","Station_Nam":"MANISTIQUE WWTP","Latitude":"45.95120","Longitude":"-86.25130","Snowdepth":"7.000","Units":"in","Rept_Date":"2019-12-16 12"},"coordinates":[3482,6282]},{"type":"Point","properties":{"Station_ID":"MSP","Station_Nam":"MINNEAPOLIS-ST PAUL INTL AP","Latitude":"44.88310","Longitude":"-93.22890","Snowdepth":"7.000","Units":"in","Rept_Date":"2019-12-17 00"},"coordinates":[1271,5595]},{"type":"Point","properties":{"Station_ID":"MNJLCQKL","Station_Nam":"KIMBALL 2.6 NNW","Latitude":"45.34917","Longitude":"-94.31303","Snowdepth":"7.000","Units":"in","Rept_Date":"2019-12-16 12"},"coordinates":[927,5895]},{"type":"Point","properties":{"Station_ID":"MNIMTS5D","Station_Nam":"ROCKFORD 0.2 SW","Latitude":"45.07964","Longitude":"-93.74464","Snowdepth":"7.000","Units":"in","Rept_Date":"2019-12-16 13"},"coordinates":[1107,5722]},{"type":"Point","properties":{"Station_ID":"MNDI83EN","Station_Nam":"ELGIN 2.2 SSW","Latitude":"44.10044","Longitude":"-92.26947","Snowdepth":"7.000","Units":"in","Rept_Date":"2019-12-16 13"},"coordinates":[1575,5092]},{"type":"Point","properties":{"Station_ID":"MNBNKQLL","Station_Nam":"LAKEFIELD 1.9 NE","Latitude":"43.69634","Longitude":"-95.14496","Snowdepth":"7.000","Units":"in","Rept_Date":"2019-12-16 13"},"coordinates":[664,4832]},{"type":"Point","properties":{"Station_ID":"MN-RM-2","Station_Nam":"NORTH SAINT PAUL 1.0 NNW, MN","Latitude":"45.02629","Longitude":"-93.00790","Snowdepth":"7.000","Units":"in","Rept_Date":"2019-12-16 12"},"coordinates":[1341,5687]},{"type":"Point","properties":{"Station_ID":"MN-PK-15","Station_Nam":"MENTOR 2.5 SSW, MN","Latitude":"47.66625","Longitude":"-96.17328","Snowdepth":"7.000","Units":"in","Rept_Date":"2019-12-16 13"},"coordinates":[338,7386]},{"type":"Point","properties":{"Station_ID":"MN-HN-72","Station_Nam":"MAPLE GROVE 2.9 NE, MN","Latitude":"45.13953","Longitude":"-93.42070","Snowdepth":"7.000","Units":"in","Rept_Date":"2019-12-16 14"},"coordinates":[1210,5760]},{"type":"Point","properties":{"Station_ID":"MN-DK-70","Station_Nam":"EAGAN 2.0 NNW, MN","Latitude":"44.84322","Longitude":"-93.17899","Snowdepth":"7.000","Units":"in","Rept_Date":"2019-12-16 14"},"coordinates":[1287,5570]},{"type":"Point","properties":{"Station_ID":"MI-BN-5","Station_Nam":"BUCHANAN 1.3 WNW, MI","Latitude":"41.83634","Longitude":"-86.38900","Snowdepth":"7.000","Units":"in","Rept_Date":"2019-12-16 13"},"coordinates":[3438,3635]},{"type":"Point","properties":{"Station_ID":"MA-MD-47","Station_Nam":"WEST TOWNSEND 0.5 W, MA","Latitude":"42.67623","Longitude":"-71.74983","Snowdepth":"7.000","Units":"in","Rept_Date":"2019-12-16 11"},"coordinates":[8078,4175]},{"type":"Point","properties":{"Station_ID":"LKFM5","Station_Nam":"LAKEFIELD,MN","Latitude":"43.68330","Longitude":"-95.18330","Snowdepth":"7.000","Units":"in","Rept_Date":"2019-12-16 13"},"coordinates":[651,4823]},{"type":"Point","properties":{"Station_ID":"KMSP","Station_Nam":"MINNEAPOLIS-ST PAUL INTERNATIONAL","Latitude":"44.86666","Longitude":"-93.21666","Snowdepth":"7.000","Units":"in","Rept_Date":"2019-12-17 06"},"coordinates":[1275,5585]},{"type":"Point","properties":{"Station_ID":"KLKM4","Station_Nam":"KALKASKA","Latitude":"44.72800","Longitude":"-85.17270","Snowdepth":"7.000","Units":"in","Rept_Date":"2019-12-16 13"},"coordinates":[3824,5495]},{"type":"Point","properties":{"Station_ID":"KIMM5","Station_Nam":"KIMBALL 3N","Latitude":"45.35330","Longitude":"-94.30560","Snowdepth":"7.000","Units":"in","Rept_Date":"2019-12-16 12"},"coordinates":[930,5898]},{"type":"Point","properties":{"Station_ID":"INDM5","Station_Nam":"INDUS,MN","Latitude":"48.61670","Longitude":"-93.90000","Snowdepth":"7.000","Units":"in","Rept_Date":"2019-12-16 14"},"coordinates":[1058,7998]},{"type":"Point","properties":{"Station_ID":"ILEW3","Station_Nam":"STILES 1S","Latitude":"44.84190","Longitude":"-88.05420","Snowdepth":"7.000","Units":"in","Rept_Date":"2019-12-16 13"},"coordinates":[2911,5569]},{"type":"Point","properties":{"Station_ID":"HSTM5","Station_Nam":"HASTINGS DAM 2","Latitude":"44.75970","Longitude":"-92.86890","Snowdepth":"7.000","Units":"in","Rept_Date":"2019-12-16 14"},"coordinates":[1385,5516]},{"type":"Point","properties":{"Station_ID":"ELWW3","Station_Nam":"ELLSWORTH 1E","Latitude":"44.73030","Longitude":"-92.45860","Snowdepth":"7.000","Units":"in","Rept_Date":"2019-12-16 13"},"coordinates":[1515,5497]},{"type":"Point","properties":{"Station_ID":"EJNM4","Station_Nam":"EAST JORDAN 2NW","Latitude":"45.18630","Longitude":"-85.14770","Snowdepth":"7.000","Units":"in","Rept_Date":"2019-12-16 13"},"coordinates":[3832,5790]},{"type":"Point","properties":{"Station_ID":"EGNM5","Station_Nam":"ELGIN 2SSW","Latitude":"44.09700","Longitude":"-92.27010","Snowdepth":"7.000","Units":"in","Rept_Date":"2019-12-16 13"},"coordinates":[1575,5089]},{"type":"Point","properties":{"Station_ID":"CODN6","Station_Nam":"COLDEN","Latitude":"42.64720","Longitude":"-78.71110","Snowdepth":"7.000","Units":"in","Rept_Date":"2019-12-16 12"},"coordinates":[5872,4156]},{"type":"Point","properties":{"Station_ID":"CBVM1","Station_Nam":"CARRABASSETT VALLEY","Latitude":"45.08040","Longitude":"-70.30310","Snowdepth":"7.000","Units":"in","Rept_Date":"2019-12-16 12"},"coordinates":[8536,5722]},{"type":"Point","properties":{"Station_ID":"CAN-MB-32","Station_Nam":"PINAWA 1.0 SW, CA","Latitude":"50.14747","Longitude":"-95.89020","Snowdepth":"7.000","Units":"in","Rept_Date":"2019-12-16 13"},"coordinates":[427,8983]},{"type":"Point","properties":{"Station_ID":"ALVK1","Station_Nam":"ALTA VISTA","Latitude":"38.86630","Longitude":"-96.48920","Snowdepth":"7.000","Units":"in","Rept_Date":"2019-12-16 13"},"coordinates":[238,1724]},{"type":"Point","properties":{"Station_ID":"MN-SR-24","Station_Nam":"PAYNESVILLE 1.9 SSW, MN","Latitude":"45.35170","Longitude":"-94.73120","Snowdepth":"6.500","Units":"in","Rept_Date":"2019-12-16 13"},"coordinates":[795,5897]},{"type":"Point","properties":{"Station_ID":"MN-MK-11","Station_Nam":"DASSEL 0.4 S, MN","Latitude":"45.07765","Longitude":"-94.31567","Snowdepth":"6.500","Units":"in","Rept_Date":"2019-12-16 13"},"coordinates":[926,5720]},{"type":"Point","properties":{"Station_ID":"MN-GH-28","Station_Nam":"CANNON FALLS 0.5 SE, MN","Latitude":"44.50866","Longitude":"-92.89526","Snowdepth":"6.500","Units":"in","Rept_Date":"2019-12-16 14"},"coordinates":[1376,5354]},{"type":"Point","properties":{"Station_ID":"MI-OT-16","Station_Nam":"GAYLORD 2.2 SSE, MI","Latitude":"44.99441","Longitude":"-84.65820","Snowdepth":"6.500","Units":"in","Rept_Date":"2019-12-16 12"},"coordinates":[3987,5667]},{"type":"Point","properties":{"Station_ID":"MI-CX-7","Station_Nam":"EAST JORDAN 2.1 NNW, MI","Latitude":"45.18639","Longitude":"-85.14750","Snowdepth":"6.500","Units":"in","Rept_Date":"2019-12-16 13"},"coordinates":[3832,5790]},{"type":"Point","properties":{"Station_ID":"KS-RL-51","Station_Nam":"MANHATTAN 7.0 WNW, KS","Latitude":"39.23548","Longitude":"-96.70729","Snowdepth":"6.500","Units":"in","Rept_Date":"2019-12-16 14"},"coordinates":[168,1961]},{"type":"Point","properties":{"Station_ID":"KS-DK-51","Station_Nam":"ENTERPRISE 2.1 SW, KS","Latitude":"38.88527","Longitude":"-97.14800","Snowdepth":"6.500","Units":"in","Rept_Date":"2019-12-16 13"},"coordinates":[29,1736]},{"type":"Point","properties":{"Station_ID":"KS-DG-65","Station_Nam":"BALDWIN CITY 7.5 WSW, KS","Latitude":"38.75030","Longitude":"-95.32086","Snowdepth":"6.500","Units":"in","Rept_Date":"2019-12-16 13"},"coordinates":[608,1649]},{"type":"Point","properties":{"Station_ID":"KS-WB-2","Station_Nam":"ESKRIDGE 0.1 SW, KS","Latitude":"38.85910","Longitude":"-96.10520","Snowdepth":"6.300","Units":"in","Rept_Date":"2019-12-16 13"},"coordinates":[359,1719]},{"type":"Point","properties":{"Station_ID":"WYON6","Station_Nam":"WYOMING 3W","Latitude":"42.82060","Longitude":"-78.14810","Snowdepth":"6.000","Units":"in","Rept_Date":"2019-12-16 12"},"coordinates":[6050,4268]},{"type":"Point","properties":{"Station_ID":"WRNM5","Station_Nam":"WORTHINGTON,MN","Latitude":"43.65440","Longitude":"-95.57920","Snowdepth":"6.000","Units":"in","Rept_Date":"2019-12-16 13"},"coordinates":[526,4805]},{"type":"Point","properties":{"Station_ID":"WLKM5","Station_Nam":"AH-GWAH-CHING","Latitude":"47.15000","Longitude":"-94.65000","Snowdepth":"6.000","Units":"in","Rept_Date":"2019-12-16 12"},"coordinates":[820,7054]},{"type":"Point","properties":{"Station_ID":"WI-PK-4","Station_Nam":"DRESSER 6.1 ESE, WI","Latitude":"45.32436","Longitude":"-92.52080","Snowdepth":"6.000","Units":"in","Rept_Date":"2019-12-16 14"},"coordinates":[1495,5879]},{"type":"Point","properties":{"Station_ID":"WI-DR-6","Station_Nam":"SISTER BAY 1.3 NNE, WI","Latitude":"45.20296","Longitude":"-87.11326","Snowdepth":"6.000","Units":"in","Rept_Date":"2019-12-16 13"},"coordinates":[3209,5801]},{"type":"Point","properties":{"Station_ID":"WI-BN-6","Station_Nam":"SUAMICO 4.4 WNW, WI","Latitude":"44.66111","Longitude":"-88.11780","Snowdepth":"6.000","Units":"in","Rept_Date":"2019-12-16 13"},"coordinates":[2891,5452]},{"type":"Point","properties":{"Station_ID":"WDOM5","Station_Nam":"WINDOM","Latitude":"43.87700","Longitude":"-95.11590","Snowdepth":"6.000","Units":"in","Rept_Date":"2019-12-16 14"},"coordinates":[673,4948]},{"type":"Point","properties":{"Station_ID":"UMNM5","Station_Nam":"UNIVERSITY OF MN ST. PAUL","Latitude":"44.99020","Longitude":"-93.17990","Snowdepth":"6.000","Units":"in","Rept_Date":"2019-12-16 14"},"coordinates":[1286,5664]},{"type":"Point","properties":{"Station_ID":"SVSN6","Station_Nam":"SILVER SPRINGS 3N","Latitude":"42.70580","Longitude":"-78.09370","Snowdepth":"6.000","Units":"in","Rept_Date":"2019-12-16 12"},"coordinates":[6067,4194]},{"type":"Point","properties":{"Station_ID":"STIM5","Station_Nam":"STILLWATER 2SW","Latitude":"45.04540","Longitude":"-92.85220","Snowdepth":"6.000","Units":"in","Rept_Date":"2019-12-16 14"},"coordinates":[1390,5700]},{"type":"Point","properties":{"Station_ID":"SILI2","Station_Nam":"SULLIVAN","Latitude":"39.56080","Longitude":"-88.60670","Snowdepth":"6.000","Units":"in","Rept_Date":"2019-12-16 13"},"coordinates":[2736,2170]},{"type":"Point","properties":{"Station_ID":"RWGM5","Station_Nam":"RED WING","Latitude":"44.57120","Longitude":"-92.52830","Snowdepth":"6.000","Units":"in","Rept_Date":"2019-12-16 14"},"coordinates":[1493,5395]},{"type":"Point","properties":{"Station_ID":"RGNM1","Station_Nam":"RANGELEY 2NW","Latitude":"44.98940","Longitude":"-70.67220","Snowdepth":"6.000","Units":"in","Rept_Date":"2019-12-16 11"},"coordinates":[8419,5664]},{"type":"Point","properties":{"Station_ID":"RDFN6","Station_Nam":"REDFIELD 8N","Latitude":"43.64130","Longitude":"-75.88400","Snowdepth":"6.000","Units":"in","Rept_Date":"2019-12-16 12"},"coordinates":[6768,4796]},{"type":"Point","properties":{"Station_ID":"RATM7","Station_Nam":"NO.2","Latitude":"38.97440","Longitude":"-94.48170","Snowdepth":"6.000","Units":"in","Rept_Date":"2019-12-16 13"},"coordinates":[874,1793]},{"type":"Point","properties":{"Station_ID":"PLHM7","Station_Nam":"PLEASANT HILL WFO","Latitude":"38.81000","Longitude":"-94.26470","Snowdepth":"6.000","Units":"in","Rept_Date":"2019-12-17 06"},"coordinates":[942,1687]},{"type":"Point","properties":{"Station_ID":"PBAN8","Station_Nam":"SITE 1-3MI.N","Latitude":"48.97420","Longitude":"-97.23860","Snowdepth":"6.000","Units":"in","Rept_Date":"2019-12-16 12"},"coordinates":[0,8228]},{"type":"Point","properties":{"Station_ID":"OVRK1","Station_Nam":"OVERBROOK 5 SE","Latitude":"38.71720","Longitude":"-95.51920","Snowdepth":"6.000","Units":"in","Rept_Date":"2019-12-16 14"},"coordinates":[545,1628]},{"type":"Point","properties":{"Station_ID":"OONW3","Station_Nam":"OCONTO-1 NW-HWY. DEPT.","Latitude":"44.89470","Longitude":"-87.88030","Snowdepth":"6.000","Units":"in","Rept_Date":"2019-12-16 13"},"coordinates":[2966,5603]},{"type":"Point","properties":{"Station_ID":"OCON6","Station_Nam":"OSCEOLA","Latitude":"43.49910","Longitude":"-75.71210","Snowdepth":"6.000","Units":"in","Rept_Date":"2019-12-16 12"},"coordinates":[6822,4705]},{"type":"Point","properties":{"Station_ID":"NY-WY-11","Station_Nam":"SILVER SPRINGS COOP, NY","Latitude":"42.70580","Longitude":"-78.09370","Snowdepth":"6.000","Units":"in","Rept_Date":"2019-12-16 12"},"coordinates":[6067,4194]},{"type":"Point","properties":{"Station_ID":"NY-WY-10","Station_Nam":"WYOMING COOP, NY","Latitude":"42.82060","Longitude":"-78.14810","Snowdepth":"6.000","Units":"in","Rept_Date":"2019-12-16 12"},"coordinates":[6050,4268]},{"type":"Point","properties":{"Station_ID":"NY-FK-7","Station_Nam":"SARANAC LAKE 6.2 N, NY","Latitude":"44.41359","Longitude":"-74.15211","Snowdepth":"6.000","Units":"in","Rept_Date":"2019-12-16 12"},"coordinates":[7316,5293]},{"type":"Point","properties":{"Station_ID":"NY-CQ-34","Station_Nam":"KENNEDY 2.6 SE, NY","Latitude":"42.12567","Longitude":"-79.07235","Snowdepth":"6.000","Units":"in","Rept_Date":"2019-12-16 13"},"coordinates":[5757,3821]},{"type":"Point","properties":{"Station_ID":"MPXM5","Station_Nam":"CHANHASSEN WSFO","Latitude":"44.84960","Longitude":"-93.56440","Snowdepth":"6.000","Units":"in","Rept_Date":"2019-12-17 06"},"coordinates":[1164,5574]},{"type":"Point","properties":{"Station_ID":"MNP0GYWA","Station_Nam":"WALKER 2.0 SSE","Latitude":"47.07505","Longitude":"-94.56757","Snowdepth":"6.000","Units":"in","Rept_Date":"2019-12-16 11"},"coordinates":[846,7006]},{"type":"Point","properties":{"Station_ID":"MNMC0BBE","Station_Nam":"BRECKENRIDGE 3.1 E","Latitude":"46.25468","Longitude":"-96.52093","Snowdepth":"6.000","Units":"in","Rept_Date":"2019-12-16 11"},"coordinates":[227,6478]},{"type":"Point","properties":{"Station_ID":"MNHMOECS","Station_Nam":"HAZELTINE 1.9 NE","Latitude":"44.85545","Longitude":"-93.57125","Snowdepth":"6.000","Units":"in","Rept_Date":"2019-12-16 12"},"coordinates":[1162,5577]},{"type":"Point","properties":{"Station_ID":"MNG0GYSN","Station_Nam":"LONSDALE 1.1 SSW","Latitude":"44.46445","Longitude":"-93.43293","Snowdepth":"6.000","Units":"in","Rept_Date":"2019-12-16 12"},"coordinates":[1206,5326]},{"type":"Point","properties":{"Station_ID":"MNCR4NWM","Station_Nam":"WINDOM 1.3 NNE","Latitude":"43.87817","Longitude":"-95.12003","Snowdepth":"6.000","Units":"in","Rept_Date":"2019-12-16 14"},"coordinates":[671,4949]},{"type":"Point","properties":{"Station_ID":"MN76ACVS","Station_Nam":"GRAND MARAIS 3.0 WNW","Latitude":"47.76602","Longitude":"-90.26427","Snowdepth":"6.000","Units":"in","Rept_Date":"2019-12-16 13"},"coordinates":[2210,7450]},{"type":"Point","properties":{"Station_ID":"MN-WG-16","Station_Nam":"WOODBURY 1.7 N, MN","Latitude":"44.93054","Longitude":"-92.92490","Snowdepth":"6.000","Units":"in","Rept_Date":"2019-12-16 13"},"coordinates":[1367,5626]},{"type":"Point","properties":{"Station_ID":"MN-SV-4","Station_Nam":"DONNELLY 2.9 NW, MN","Latitude":"45.71649","Longitude":"-96.06043","Snowdepth":"6.000","Units":"in","Rept_Date":"2019-12-16 13"},"coordinates":[373,6131]},{"type":"Point","properties":{"Station_ID":"MN-SC-2","Station_Nam":"PRIOR LAKE 2.0 W, MN","Latitude":"44.71250","Longitude":"-93.46360","Snowdepth":"6.000","Units":"in","Rept_Date":"2019-12-16 13"},"coordinates":[1196,5485]},{"type":"Point","properties":{"Station_ID":"MN-RC-1","Station_Nam":"MONTGOMERY 3.2 ENE, MN","Latitude":"44.46400","Longitude":"-93.51980","Snowdepth":"6.000","Units":"in","Rept_Date":"2019-12-16 11"},"coordinates":[1179,5326]},{"type":"Point","properties":{"Station_ID":"MN-HN-78","Station_Nam":"RICHFIELD 1.9 WNW, MN","Latitude":"44.89129","Longitude":"-93.31410","Snowdepth":"6.000","Units":"in","Rept_Date":"2019-12-16 11"},"coordinates":[1244,5600]},{"type":"Point","properties":{"Station_ID":"MN-HN-31","Station_Nam":"MAPLE GROVE 1.0 NNE, MN","Latitude":"45.12261","Longitude":"-93.45790","Snowdepth":"6.000","Units":"in","Rept_Date":"2019-12-16 14"},"coordinates":[1198,5749]},{"type":"Point","properties":{"Station_ID":"MN-HN-110","Station_Nam":"EDINA 1.9 SSE, MN","Latitude":"44.86875","Longitude":"-93.33940","Snowdepth":"6.000","Units":"in","Rept_Date":"2019-12-16 13"},"coordinates":[1236,5586]},{"type":"Point","properties":{"Station_ID":"MLRM5","Station_Nam":"MELROSE","Latitude":"45.67710","Longitude":"-94.80200","Snowdepth":"6.000","Units":"in","Rept_Date":"2019-12-16 13"},"coordinates":[772,6106]},{"type":"Point","properties":{"Station_ID":"LSX","Station_Nam":"ST LOUIS, MO","Latitude":"38.69890","Longitude":"-90.68280","Snowdepth":"6.000","Units":"in","Rept_Date":"2019-12-17 06"},"coordinates":[2078,1616]},{"type":"Point","properties":{"Station_ID":"LSTM5","Station_Nam":"LESTER PRAIRIE 2S","Latitude":"44.85930","Longitude":"-94.05030","Snowdepth":"6.000","Units":"in","Rept_Date":"2019-12-16 13"},"coordinates":[1010,5580]},{"type":"Point","properties":{"Station_ID":"LOVI2","Station_Nam":"LOVINGTON","Latitude":"39.71220","Longitude":"-88.63000","Snowdepth":"6.000","Units":"in","Rept_Date":"2019-12-16 13"},"coordinates":[2728,2268]},{"type":"Point","properties":{"Station_ID":"LOAI2","Station_Nam":"LOAMI,IL","Latitude":"39.63710","Longitude":"-89.88200","Snowdepth":"6.000","Units":"in","Rept_Date":"2019-12-16 12"},"coordinates":[2331,2220]},{"type":"Point","properties":{"Station_ID":"LBRM5","Station_Nam":"LAKE BRONSON DAM","Latitude":"48.72410","Longitude":"-96.62180","Snowdepth":"6.000","Units":"in","Rept_Date":"2019-12-16 14"},"coordinates":[195,8067]},{"type":"Point","properties":{"Station_ID":"KS-SN-37","Station_Nam":"TOPEKA 3.2 SW, KS","Latitude":"39.00676","Longitude":"-95.73667","Snowdepth":"6.000","Units":"in","Rept_Date":"2019-12-16 14"},"coordinates":[476,1814]},{"type":"Point","properties":{"Station_ID":"KS-JO-61","Station_Nam":"OVERLAND PARK 4.0 S, KS","Latitude":"38.85700","Longitude":"-94.68000","Snowdepth":"6.000","Units":"in","Rept_Date":"2019-12-16 13"},"coordinates":[811,1718]},{"type":"Point","properties":{"Station_ID":"KS-DK-19","Station_Nam":"HOPE 0.3 S, KS","Latitude":"38.68681","Longitude":"-97.07520","Snowdepth":"6.000","Units":"in","Rept_Date":"2019-12-16 13"},"coordinates":[52,1608]},{"type":"Point","properties":{"Station_ID":"KS-DG-63","Station_Nam":"BALDWIN CITY 10.1 WSW, KS","Latitude":"38.74788","Longitude":"-95.36909","Snowdepth":"6.000","Units":"in","Rept_Date":"2019-12-16 14"},"coordinates":[592,1647]},{"type":"Point","properties":{"Station_ID":"KIND","Station_Nam":"INDIANAPOLIS INTERNATIONAL  AIRPORT","Latitude":"39.71666","Longitude":"-86.28333","Snowdepth":"6.000","Units":"in","Rept_Date":"2019-12-17 06"},"coordinates":[3472,2271]},{"type":"Point","properties":{"Station_ID":"IND","Station_Nam":"INDIANAPOLIS, IN","Latitude":"39.71720","Longitude":"-86.29420","Snowdepth":"6.000","Units":"in","Rept_Date":"2019-12-17 00"},"coordinates":[3468,2271]},{"type":"Point","properties":{"Station_ID":"IN-MR-3","Station_Nam":"CASTLETON 1.7 S, IN","Latitude":"39.88021","Longitude":"-86.05170","Snowdepth":"6.000","Units":"in","Rept_Date":"2019-12-17 05"},"coordinates":[3545,2376]},{"type":"Point","properties":{"Station_ID":"IN-GR-34","Station_Nam":"UPLAND 1.5 NE, IN","Latitude":"40.47499","Longitude":"-85.48953","Snowdepth":"6.000","Units":"in","Rept_Date":"2019-12-16 12"},"coordinates":[3723,2759]},{"type":"Point","properties":{"Station_ID":"IN-BN-2","Station_Nam":"NEW ROSS 2.0 E, IN","Latitude":"39.96088","Longitude":"-86.67620","Snowdepth":"6.000","Units":"in","Rept_Date":"2019-12-16 12"},"coordinates":[3347,2428]},{"type":"Point","properties":{"Station_ID":"HVJP1","Station_Nam":"HIDDEN VALLEY COOP","Latitude":"40.04200","Longitude":"-79.25660","Snowdepth":"6.000","Units":"in","Rept_Date":"2019-12-16 13"},"coordinates":[5699,2480]},{"type":"Point","properties":{"Station_ID":"HILK1","Station_Nam":"HILLSDALE LAKE","Latitude":"38.66450","Longitude":"-94.89010","Snowdepth":"6.000","Units":"in","Rept_Date":"2019-12-16 13"},"coordinates":[744,1594]},{"type":"Point","properties":{"Station_ID":"GHMN3","Station_Nam":"PINKHAM NOTCH","Latitude":"44.25800","Longitude":"-71.25250","Snowdepth":"6.000","Units":"in","Rept_Date":"2019-12-16 09"},"coordinates":[8235,5193]},{"type":"Point","properties":{"Station_ID":"FRYK1","Station_Nam":"FT RILEY","Latitude":"39.05720","Longitude":"-96.76510","Snowdepth":"6.000","Units":"in","Rept_Date":"2019-12-16 14"},"coordinates":[150,1846]},{"type":"Point","properties":{"Station_ID":"ESKK1","Station_Nam":"ESKRIDGE","Latitude":"38.85920","Longitude":"-96.10580","Snowdepth":"6.000","Units":"in","Rept_Date":"2019-12-16 13"},"coordinates":[359,1719]},{"type":"Point","properties":{"Station_ID":"CNTW3","Station_Nam":"CLINTONVILLE","Latitude":"44.62270","Longitude":"-88.74830","Snowdepth":"6.000","Units":"in","Rept_Date":"2019-12-16 13"},"coordinates":[2691,5428]},{"type":"Point","properties":{"Station_ID":"CNGK1","Station_Nam":"COUNCIL GROVE LAKE-NEOSHO R","Latitude":"38.67580","Longitude":"-96.50970","Snowdepth":"6.000","Units":"in","Rept_Date":"2019-12-16 13"},"coordinates":[231,1601]},{"type":"Point","properties":{"Station_ID":"CAN-NB-13","Station_Nam":"BATHURST 3.8 NW, CAN","Latitude":"47.64212","Longitude":"-65.68756","Snowdepth":"6.000","Units":"in","Rept_Date":"2019-12-16 11"},"coordinates":[9999,7371]},{"type":"Point","properties":{"Station_ID":"BOON6","Station_Nam":"BOONVILLE 4 SSW","Latitude":"43.43610","Longitude":"-75.36970","Snowdepth":"6.000","Units":"in","Rept_Date":"2019-12-16 12"},"coordinates":[6931,4664]},{"type":"Point","properties":{"Station_ID":"BMCI3","Station_Nam":"CASTLETON 2S","Latitude":"39.88010","Longitude":"-86.05140","Snowdepth":"6.000","Units":"in","Rept_Date":"2019-12-17 05"},"coordinates":[3545,2376]},{"type":"Point","properties":{"Station_ID":"BKEM5","Station_Nam":"BRECKENRIDGE 4NE","Latitude":"46.30470","Longitude":"-96.52170","Snowdepth":"6.000","Units":"in","Rept_Date":"2019-12-16 11"},"coordinates":[227,6510]},{"type":"Point","properties":{"Station_ID":"ATHK1","Station_Nam":"ATCHISON","Latitude":"39.57560","Longitude":"-95.11080","Snowdepth":"6.000","Units":"in","Rept_Date":"2019-12-16 13"},"coordinates":[674,2180]},{"type":"Point","properties":{"Station_ID":"APXM4","Station_Nam":"GAYLORD 9SSW","Latitude":"44.90720","Longitude":"-84.71880","Snowdepth":"6.000","Units":"in","Rept_Date":"2019-12-17 06"},"coordinates":[3968,5611]},{"type":"Point","properties":{"Station_ID":"ANDM1","Station_Nam":"ANDOVER 2","Latitude":"44.65300","Longitude":"-70.79410","Snowdepth":"6.000","Units":"in","Rept_Date":"2019-12-16 12"},"coordinates":[8381,5447]},{"type":"Point","properties":{"Station_ID":"ALMW3","Station_Nam":"ALMA DAM 4","Latitude":"44.32710","Longitude":"-91.91940","Snowdepth":"6.000","Units":"in","Rept_Date":"2019-12-16 14"},"coordinates":[1686,5237]},{"type":"Point","properties":{"Station_ID":"IN-HS-44","Station_Nam":"PLAINFIELD 2.0 W, IN","Latitude":"39.69850","Longitude":"-86.42633","Snowdepth":"5.800","Units":"in","Rept_Date":"2019-12-16 14"},"coordinates":[3427,2259]},{"type":"Point","properties":{"Station_ID":"NY-CT-22","Station_Nam":"FRANKLINVILLE 0.5 NNE, NY","Latitude":"42.34166","Longitude":"-78.45280","Snowdepth":"5.500","Units":"in","Rept_Date":"2019-12-16 12"},"coordinates":[5954,3960]},{"type":"Point","properties":{"Station_ID":"MO-MY-2","Station_Nam":"MIDDLETOWN 3.5 SW, MO","Latitude":"39.09223","Longitude":"-91.46130","Snowdepth":"5.500","Units":"in","Rept_Date":"2019-12-16 13"},"coordinates":[1831,1869]},{"type":"Point","properties":{"Station_ID":"MO-BN-50","Station_Nam":"COLUMBIA 0.6 W, MO","Latitude":"38.95385","Longitude":"-92.33810","Snowdepth":"5.500","Units":"in","Rept_Date":"2019-12-17 06"},"coordinates":[1553,1780]},{"type":"Point","properties":{"Station_ID":"MO-BN-20","Station_Nam":"HARRISBURG 5.9 SSE, MO","Latitude":"39.05886","Longitude":"-92.43700","Snowdepth":"5.500","Units":"in","Rept_Date":"2019-12-16 13"},"coordinates":[1522,1847]},{"type":"Point","properties":{"Station_ID":"MN-MC-5","Station_Nam":"GLENCOE 0.3 WSW, MN","Latitude":"44.76834","Longitude":"-94.15580","Snowdepth":"5.500","Units":"in","Rept_Date":"2019-12-16 14"},"coordinates":[977,5521]},{"type":"Point","properties":{"Station_ID":"MA-HS-7","Station_Nam":"PLAINFIELD 2.2 SW, MA","Latitude":"42.49272","Longitude":"-72.94540","Snowdepth":"5.500","Units":"in","Rept_Date":"2019-12-16 13"},"coordinates":[7699,4057]},{"type":"Point","properties":{"Station_ID":"KS-PT-36","Station_Nam":"OLSBURG 4.0 SW, KS","Latitude":"39.39030","Longitude":"-96.66691","Snowdepth":"5.500","Units":"in","Rept_Date":"2019-12-16 13"},"coordinates":[181,2061]},{"type":"Point","properties":{"Station_ID":"KS-JA-1","Station_Nam":"MAYETTA 5.5 WSW, KS","Latitude":"39.30324","Longitude":"-95.81410","Snowdepth":"5.500","Units":"in","Rept_Date":"2019-12-16 13"},"coordinates":[451,2005]},{"type":"Point","properties":{"Station_ID":"KS-DG-61","Station_Nam":"BALDWIN CITY 0.6 W, KS","Latitude":"38.77669","Longitude":"-95.19597","Snowdepth":"5.500","Units":"in","Rept_Date":"2019-12-16 12"},"coordinates":[647,1666]},{"type":"Point","properties":{"Station_ID":"IL-MY-1","Station_Nam":"NOKOMIS 4.5 NW, IL","Latitude":"39.34698","Longitude":"-89.34550","Snowdepth":"5.500","Units":"in","Rept_Date":"2019-12-16 13"},"coordinates":[2501,2033]},{"type":"Point","properties":{"Station_ID":"KS-JO-53","Station_Nam":"OVERLAND PARK 3.3 S, KS","Latitude":"38.86693","Longitude":"-94.69233","Snowdepth":"5.300","Units":"in","Rept_Date":"2019-12-16 13"},"coordinates":[807,1724]},{"type":"Point","properties":{"Station_ID":"MN-FM-10","Station_Nam":"WYKOFF 3.1 NW, MN","Latitude":"43.74340","Longitude":"-92.30650","Snowdepth":"5.200","Units":"in","Rept_Date":"2019-12-16 13"},"coordinates":[1563,4862]},{"type":"Point","properties":{"Station_ID":"IN-HM-67","Station_Nam":"FISHERS 4.3 ENE, IN","Latitude":"39.96656","Longitude":"-85.94314","Snowdepth":"5.100","Units":"in","Rept_Date":"2019-12-16 12"},"coordinates":[3580,2432]},{"type":"Point","properties":{"Station_ID":"CAN-ON-132","Station_Nam":"ORANGEVILLE 5.1 SSW - CANWARN, CAN","Latitude":"43.87372","Longitude":"-80.13428","Snowdepth":"5.100","Units":"in","Rept_Date":"2019-12-16 14"},"coordinates":[5421,4946]},{"type":"Point","properties":{"Station_ID":"CAN-MB-298","Station_Nam":"GARDENTON 4.2 W - SRRCD, CAN","Latitude":"49.09480","Longitude":"-96.75446","Snowdepth":"5.100","Units":"in","Rept_Date":"2019-12-16 14"},"coordinates":[153,8305]},{"type":"Point","properties":{"Station_ID":"WRUM5","Station_Nam":"WARROAD 4W","Latitude":"48.89600","Longitude":"-95.40700","Snowdepth":"5.000","Units":"in","Rept_Date":"2019-12-17 04"},"coordinates":[580,8177]},{"type":"Point","properties":{"Station_ID":"WNNM5","Station_Nam":"WINNEBAGO","Latitude":"43.76920","Longitude":"-94.18730","Snowdepth":"5.000","Units":"in","Rept_Date":"2019-12-16 14"},"coordinates":[967,4878]},{"type":"Point","properties":{"Station_ID":"WKEK1","Station_Nam":"WAKEFIELD 4W","Latitude":"39.23020","Longitude":"-97.08950","Snowdepth":"5.000","Units":"in","Rept_Date":"2019-12-16 13"},"coordinates":[47,1958]},{"type":"Point","properties":{"Station_ID":"WISI2","Station_Nam":"WINDSOR","Latitude":"39.44590","Longitude":"-88.59620","Snowdepth":"5.000","Units":"in","Rept_Date":"2019-12-16 12"},"coordinates":[2739,2097]},{"type":"Point","properties":{"Station_ID":"WIPW3","Station_Nam":"WISCONSIN RAPIDS-SOUTHEAST","Latitude":"44.38190","Longitude":"-89.80470","Snowdepth":"5.000","Units":"in","Rept_Date":"2019-12-16 12"},"coordinates":[2356,5273]},{"type":"Point","properties":{"Station_ID":"WILK1","Station_Nam":"WILSEY","Latitude":"38.63070","Longitude":"-96.67160","Snowdepth":"5.000","Units":"in","Rept_Date":"2019-12-16 14"},"coordinates":[180,1572]},{"type":"Point","properties":{"Station_ID":"WELM5","Station_Nam":"WELLS","Latitude":"43.74680","Longitude":"-93.73680","Snowdepth":"5.000","Units":"in","Rept_Date":"2019-12-16 14"},"coordinates":[1110,4864]},{"type":"Point","properties":{"Station_ID":"WAVM7","Station_Nam":"WAVERLY 3W","Latitude":"39.21060","Longitude":"-93.52110","Snowdepth":"5.000","Units":"in","Rept_Date":"2019-12-16 13"},"coordinates":[1178,1945]},{"type":"Point","properties":{"Station_ID":"WAAM5","Station_Nam":"WARREN WSD","Latitude":"48.19530","Longitude":"-96.77590","Snowdepth":"5.000","Units":"in","Rept_Date":"2019-12-16 14"},"coordinates":[147,7727]},{"type":"Point","properties":{"Station_ID":"VNDM7","Station_Nam":"VANDALIA,MO","Latitude":"39.31670","Longitude":"-91.48330","Snowdepth":"5.000","Units":"in","Rept_Date":"2019-12-16 11"},"coordinates":[1824,2013]},