{"type":"Topology","objects":{"snowdepth_geo":{"type":"GeometryCollection","name":"snowdepth","crs":{"type":"name","properties":{"name":"urn:ogc:def:crs:OGC:1.3:CRS84"}},"geometries":[{"type":"Point","properties":{"Station_ID":"PRKM4","Station_Nam":"MUNISING EAST","Latitude":"46.42580","Longitude":"-86.62000","Snowdepth":"76.500","Units":"in","Rept_Date":"2020-12-20 06"},"coordinates":[2492,6588]},{"type":"Point","properties":{"Station_ID":"NH-MR-6","Station_Nam":"DANBURY 2.2 ESE, NH","Latitude":"43.52000","Longitude":"-71.81900","Snowdepth":"48.500","Units":"in","Rept_Date":"2020-12-19 13"},"coordinates":[5966,4718]},{"type":"Point","properties":{"Station_ID":"LKPN3","Station_Nam":"LAKEPORT 2","Latitude":"43.54910","Longitude":"-71.46450","Snowdepth":"36.000","Units":"in","Rept_Date":"2020-12-19 14"},"coordinates":[6049,4737]},{"type":"Point","properties":{"Station_ID":"NH-BK-29","Station_Nam":"SANBORNTON 2.3 WNW, NH","Latitude":"43.49730","Longitude":"-71.62800","Snowdepth":"34.000","Units":"in","Rept_Date":"2020-12-19 12"},"coordinates":[6011,4703]},{"type":"Point","properties":{"Station_ID":"VT-BN-3","Station_Nam":"LANDGROVE 1.1 NNE, VT","Latitude":"43.29092","Longitude":"-72.83260","Snowdepth":"33.000","Units":"in","Rept_Date":"2020-12-19 13"},"coordinates":[5728,4571]},{"type":"Point","properties":{"Station_ID":"NY-SC-2","Station_Nam":"SCOTIA 1.1 NW, NY","Latitude":"42.84473","Longitude":"-73.97480","Snowdepth":"30.700","Units":"in","Rept_Date":"2020-12-19 11"},"coordinates":[5460,4284]},{"type":"Point","properties":{"Station_ID":"NY-OT-11","Station_Nam":"HARTWICK, NY","Latitude":"42.65990","Longitude":"-75.05000","Snowdepth":"29.000","Units":"in","Rept_Date":"2020-12-19 13"},"coordinates":[5208,4165]},{"type":"Point","properties":{"Station_ID":"DLSN6","Station_Nam":"DELANSON 2NE","Latitude":"42.76720","Longitude":"-74.17110","Snowdepth":"29.000","Units":"in","Rept_Date":"2020-12-19 12"},"coordinates":[5414,4234]},{"type":"Point","properties":{"Station_ID":"BGMN6","Station_Nam":"BINGHAMTON WFO","Latitude":"42.21160","Longitude":"-75.98580","Snowdepth":"29.000","Units":"in","Rept_Date":"2020-12-20 05"},"coordinates":[4988,3876]},{"type":"Point","properties":{"Station_ID":"NY-DL-32","Station_Nam":"DELHI 6.6 WNW, NY","Latitude":"42.32118","Longitude":"-75.02991","Snowdepth":"28.000","Units":"in","Rept_Date":"2020-12-19 12"},"coordinates":[5212,3947]},{"type":"Point","properties":{"Station_ID":"COVP1","Station_Nam":"COVINGTON 2WSW","Latitude":"41.73330","Longitude":"-77.11670","Snowdepth":"28.000","Units":"in","Rept_Date":"2020-12-19 12"},"coordinates":[4722,3568]},{"type":"Point","properties":{"Station_ID":"TWOP1","Station_Nam":"TOWANDA 1 S","Latitude":"41.75110","Longitude":"-76.44300","Snowdepth":"27.000","Units":"in","Rept_Date":"2020-12-19 12"},"coordinates":[4881,3580]},{"type":"Point","properties":{"Station_ID":"NY-BM-7","Station_Nam":"VESTAL 2.8 SSE, NY","Latitude":"42.04930","Longitude":"-76.02880","Snowdepth":"27.000","Units":"in","Rept_Date":"2020-12-19 14"},"coordinates":[4978,3772]},{"type":"Point","properties":{"Station_ID":"SHHN6","Station_Nam":"SCHOHARIE VILLAGE","Latitude":"42.66500","Longitude":"-74.30360","Snowdepth":"26.000","Units":"in","Rept_Date":"2020-12-19 12"},"coordinates":[5383,4168]},{"type":"Point","properties":{"Station_ID":"PERV1","Station_Nam":"PERU","Latitude":"43.26670","Longitude":"-72.90000","Snowdepth":"26.000","Units":"in","Rept_Date":"2020-12-19 12"},"coordinates":[5712,4555]},{"type":"Point","properties":{"Station_ID":"NY-SR-16","Station_Nam":"BALLSTON SPA 2.9 ESE, NY","Latitude":"42.99000","Longitude":"-73.80000","Snowdepth":"25.000","Units":"in","Rept_Date":"2020-12-19 13"},"coordinates":[5501,4377]},{"type":"Point","properties":{"Station_ID":"NY-BM-1","Station_Nam":"CHENANGO FORKS 3.0 SE, NY","Latitude":"42.19300","Longitude":"-75.84800","Snowdepth":"25.000","Units":"in","Rept_Date":"2020-12-19 13"},"coordinates":[5020,3864]},{"type":"Point","properties":{"Station_ID":"NH-SL-3","Station_Nam":"WEST UNITY 0.7 WSW, NH","Latitude":"43.28652","Longitude":"-72.32970","Snowdepth":"25.000","Units":"in","Rept_Date":"2020-12-19 12"},"coordinates":[5846,4568]},{"type":"Point","properties":{"Station_ID":"VT-WH-19","Station_Nam":"EAST DOVER 1.8 N, VT","Latitude":"42.97658","Longitude":"-72.77637","Snowdepth":"24.000","Units":"in","Rept_Date":"2020-12-19 13"},"coordinates":[5741,4368]},{"type":"Point","properties":{"Station_ID":"NY-SR-4","Station_Nam":"SARATOGA SPRINGS 0.5 S, NY","Latitude":"43.06032","Longitude":"-73.78010","Snowdepth":"24.000","Units":"in","Rept_Date":"2020-12-19 11"},"coordinates":[5506,4422]},{"type":"Point","properties":{"Station_ID":"NY-SC-16","Station_Nam":"NISKAYUNA 2.0 N, NY","Latitude":"42.84645","Longitude":"-73.89920","Snowdepth":"24.000","Units":"in","Rept_Date":"2020-12-19 12"},"coordinates":[5478,4285]},{"type":"Point","properties":{"Station_ID":"NH-BK-7","Station_Nam":"LACONIA 7.9 E, NH","Latitude":"43.55415","Longitude":"-71.32310","Snowdepth":"24.000","Units":"in","Rept_Date":"2020-12-19 12"},"coordinates":[6082,4740]},{"type":"Point","properties":{"Station_ID":"CNTP1","Station_Nam":"CANTON","Latitude":"41.65160","Longitude":"-76.84630","Snowdepth":"24.000","Units":"in","Rept_Date":"2020-12-19 13"},"coordinates":[4786,3516]},{"type":"Point","properties":{"Station_ID":"NH-MR-41","Station_Nam":"NEWBURY 1.6 NW, NH","Latitude":"43.33667","Longitude":"-72.06060","Snowdepth":"23.400","Units":"in","Rept_Date":"2020-12-19 12"},"coordinates":[5909,4600]},{"type":"Point","properties":{"Station_ID":"VT-WR-16","Station_Nam":"HARTLAND 1.6 NW, VT","Latitude":"43.55472","Longitude":"-72.42371","Snowdepth":"23.000","Units":"in","Rept_Date":"2020-12-19 12"},"coordinates":[5824,4740]},{"type":"Point","properties":{"Station_ID":"STVP1","Station_Nam":"GEO B STEVENSON LAKE","Latitude":"41.40000","Longitude":"-78.01670","Snowdepth":"23.000","Units":"in","Rept_Date":"2020-12-19 12"},"coordinates":[4511,3354]},{"type":"Point","properties":{"Station_ID":"PA-BF-20","Station_Nam":"SAYRE 0.7 S, PA","Latitude":"41.97510","Longitude":"-76.52100","Snowdepth":"23.000","Units":"in","Rept_Date":"2020-12-19 14"},"coordinates":[4862,3724]},{"type":"Point","properties":{"Station_ID":"NY-TG-15","Station_Nam":"BERKSHIRE 1.9 ENE, NY","Latitude":"42.31910","Longitude":"-76.21940","Snowdepth":"23.000","Units":"in","Rept_Date":"2020-12-19 13"},"coordinates":[4933,3945]},{"type":"Point","properties":{"Station_ID":"NY-SC-20","Station_Nam":"ROTTERDAM 0.9 NW, NY","Latitude":"42.78862","Longitude":"-73.96671","Snowdepth":"23.000","Units":"in","Rept_Date":"2020-12-19 11"},"coordinates":[5462,4247]},{"type":"Point","properties":{"Station_ID":"NY-SC-11","Station_Nam":"SCHENECTADY 3.3 E, NY","Latitude":"42.79382","Longitude":"-73.86390","Snowdepth":"23.000","Units":"in","Rept_Date":"2020-12-19 14"},"coordinates":[5486,4251]},{"type":"Point","properties":{"Station_ID":"NH-BK-1","Station_Nam":"TILTON NORTHFIELD 3.3 NE, NH","Latitude":"43.48000","Longitude":"-71.55000","Snowdepth":"23.000","Units":"in","Rept_Date":"2020-12-19 12"},"coordinates":[6029,4692]},{"type":"Point","properties":{"Station_ID":"GNEN6","Station_Nam":"GREENE","Latitude":"42.32440","Longitude":"-75.77170","Snowdepth":"23.000","Units":"in","Rept_Date":"2020-12-19 11"},"coordinates":[5038,3949]},{"type":"Point","properties":{"Station_ID":"ESDN6","Station_Nam":"EAST SIDNEY","Latitude":"42.33290","Longitude":"-75.22960","Snowdepth":"23.000","Units":"in","Rept_Date":"2020-12-19 14"},"coordinates":[5165,3954]},{"type":"Point","properties":{"Station_ID":"WITN6","Station_Nam":"WHITNEY POINT DAM","Latitude":"42.34180","Longitude":"-75.96530","Snowdepth":"22.000","Units":"in","Rept_Date":"2020-12-19 12"},"coordinates":[4993,3960]},{"type":"Point","properties":{"Station_ID":"NY-GR-14","Station_Nam":"LEXINGTON 1.5 N, NY","Latitude":"42.26024","Longitude":"-74.35875","Snowdepth":"22.000","Units":"in","Rept_Date":"2020-12-19 12"},"coordinates":[5370,3907]},{"type":"Point","properties":{"Station_ID":"NH-GR-1","Station_Nam":"BRISTOL 0.4 SSE, NH","Latitude":"43.59490","Longitude":"-71.74140","Snowdepth":"22.000","Units":"in","Rept_Date":"2020-12-19 12"},"coordinates":[5984,4766]},{"type":"Point","properties":{"Station_ID":"NH-BK-2","Station_Nam":"BELMONT 1.7 SW, NH","Latitude":"43.43556","Longitude":"-71.50690","Snowdepth":"22.000","Units":"in","Rept_Date":"2020-12-19 12"},"coordinates":[6039,4664]},{"type":"Point","properties":{"Station_ID":"MA-BE-21","Station_Nam":"CHESHIRE 0.5 NNW, MA","Latitude":"42.56315","Longitude":"-73.15701","Snowdepth":"22.000","Units":"in","Rept_Date":"2020-12-19 12"},"coordinates":[5652,4102]},{"type":"Point","properties":{"Station_ID":"NH-MR-60","Station_Nam":"SOUTH SUTTON 1.3 SE, NH","Latitude":"43.29531","Longitude":"-71.90238","Snowdepth":"21.500","Units":"in","Rept_Date":"2020-12-19 13"},"coordinates":[5946,4573]},{"type":"Point","properties":{"Station_ID":"WALN6","Station_Nam":"WALTON 2","Latitude":"42.18470","Longitude":"-75.14550","Snowdepth":"21.000","Units":"in","Rept_Date":"2020-12-19 10"},"coordinates":[5185,3859]},{"type":"Point","properties":{"Station_ID":"NY-GR-7","Station_Nam":"GREENVILLE 0.7 E, NY","Latitude":"42.41400","Longitude":"-74.00900","Snowdepth":"21.000","Units":"in","Rept_Date":"2020-12-19 12"},"coordinates":[5452,4006]},{"type":"Point","properties":{"Station_ID":"NRWN6","Station_Nam":"NORWICH","Latitude":"42.51170","Longitude":"-75.51970","Snowdepth":"21.000","Units":"in","Rept_Date":"2020-12-19 10"},"coordinates":[5097,4069]},{"type":"Point","properties":{"Station_ID":"ME-YK-3","Station_Nam":"HOLLIS CENTER 5.4 NW, ME","Latitude":"43.64750","Longitude":"-70.67510","Snowdepth":"21.000","Units":"in","Rept_Date":"2020-12-19 12"},"coordinates":[6234,4800]},{"type":"Point","properties":{"Station_ID":"HOLM1","Station_Nam":"HOLLIS","Latitude":"43.64750","Longitude":"-70.67490","Snowdepth":"21.000","Units":"in","Rept_Date":"2020-12-19 12"},"coordinates":[6234,4800]},{"type":"Point","properties":{"Station_ID":"COBN6","Station_Nam":"COBLESKILL 2ESE","Latitude":"42.66710","Longitude":"-74.44230","Snowdepth":"21.000","Units":"in","Rept_Date":"2020-12-19 13"},"coordinates":[5350,4169]},{"type":"Point","properties":{"Station_ID":"VT-RT-25","Station_Nam":"WALLINGFORD 2.7 SSW, VT","Latitude":"43.43371","Longitude":"-72.99031","Snowdepth":"20.800","Units":"in","Rept_Date":"2020-12-19 12"},"coordinates":[5691,4663]},{"type":"Point","properties":{"Station_ID":"VT-RT-24","Station_Nam":"MIDDLETOWN SPRINGS 0.9 WNW, VT","Latitude":"43.49194","Longitude":"-73.13350","Snowdepth":"20.000","Units":"in","Rept_Date":"2020-12-19 12"},"coordinates":[5657,4700]},{"type":"Point","properties":{"Station_ID":"VT-BN-7","Station_Nam":"MANCHESTER 2.8 ENE, VT","Latitude":"43.17274","Longitude":"-73.01811","Snowdepth":"20.000","Units":"in","Rept_Date":"2020-12-19 12"},"coordinates":[5684,4495]},{"type":"Point","properties":{"Station_ID":"RVOP1","Station_Nam":"RENOVO,PA","Latitude":"41.33330","Longitude":"-77.73330","Snowdepth":"20.000","Units":"in","Rept_Date":"2020-12-19 12"},"coordinates":[4578,3311]},{"type":"Point","properties":{"Station_ID":"NY-TG-5","Station_Nam":"BERKSHIRE 2.0 N, NY","Latitude":"42.33463","Longitude":"-76.18990","Snowdepth":"20.000","Units":"in","Rept_Date":"2020-12-19 12"},"coordinates":[4940,3955]},{"type":"Point","properties":{"Station_ID":"NY-TG-26","Station_Nam":"CANDOR 0.7 NW, NY","Latitude":"42.23428","Longitude":"-76.34758","Snowdepth":"20.000","Units":"in","Rept_Date":"2020-12-19 12"},"coordinates":[4903,3891]},{"type":"Point","properties":{"Station_ID":"NY-TG-20","Station_Nam":"CANDOR 1.8 N, NY","Latitude":"42.25308","Longitude":"-76.33780","Snowdepth":"20.000","Units":"in","Rept_Date":"2020-12-19 12"},"coordinates":[4905,3903]},{"type":"Point","properties":{"Station_ID":"NY-MG-5","Station_Nam":"AMSTERDAM 1.0 NNW, NY","Latitude":"42.95467","Longitude":"-74.20085","Snowdepth":"20.000","Units":"in","Rept_Date":"2020-12-19 13"},"coordinates":[5407,4354]},{"type":"Point","properties":{"Station_ID":"NH-MR-55","Station_Nam":"CANTERBURY 2.5 SSW, NH","Latitude":"43.30277","Longitude":"-71.57893","Snowdepth":"19.600","Units":"in","Rept_Date":"2020-12-19 13"},"coordinates":[6022,4578]},{"type":"Point","properties":{"Station_ID":"QOU","Station_Nam":"QOU","Latitude":"50.79250","Longitude":"-69.67470","Snowdepth":"19.094","Units":"in","Rept_Date":"2020-12-19 12"},"coordinates":[6469,9398]},{"type":"Point","properties":{"Station_ID":"NY-AB-23","Station_Nam":"ALBANY 0.7 SW, NY","Latitude":"42.66019","Longitude":"-73.81030","Snowdepth":"19.000","Units":"in","Rept_Date":"2020-12-19 12"},"coordinates":[5498,4165]},{"type":"Point","properties":{"Station_ID":"CON","Station_Nam":"CONCORD MUNI ARPT","Latitude":"43.20280","Longitude":"-71.50220","Snowdepth":"19.000","Units":"in","Rept_Date":"2020-12-19 12"},"coordinates":[6040,4514]},{"type":"Point","properties":{"Station_ID":"BSKN6","Station_Nam":"BUSKIRK","Latitude":"42.93610","Longitude":"-73.43250","Snowdepth":"19.000","Units":"in","Rept_Date":"2020-12-19 13"},"coordinates":[5587,4342]},{"type":"Point","properties":{"Station_ID":"NY-CR-5","Station_Nam":"MARATHON 1.0 NW, NY","Latitude":"42.45161","Longitude":"-76.04370","Snowdepth":"18.500","Units":"in","Rept_Date":"2020-12-19 12"},"coordinates":[4974,4031]},{"type":"Point","properties":{"Station_ID":"NY-AB-59","Station_Nam":"ALBANY 2.4 W, NY","Latitude":"42.66840","Longitude":"-73.84706","Snowdepth":"18.200","Units":"in","Rept_Date":"2020-12-19 13"},"coordinates":[5490,4170]},{"type":"Point","properties":{"Station_ID":"WLLP1","Station_Nam":"WELLSBORO 4 SW","Latitude":"41.70030","Longitude":"-77.38940","Snowdepth":"18.000","Units":"in","Rept_Date":"2020-12-19 12"},"coordinates":[4658,3547]},{"type":"Point","properties":{"Station_ID":"VT-WH-17","Station_Nam":"ROCKINGHAM 1.1 NNE, VT","Latitude":"43.20388","Longitude":"-72.48222","Snowdepth":"18.000","Units":"in","Rept_Date":"2020-12-19 12"},"coordinates":[5810,4515]},{"type":"Point","properties":{"Station_ID":"NY-RN-20","Station_Nam":"TROY 2.1 NNE, NY","Latitude":"42.75930","Longitude":"-73.65283","Snowdepth":"18.000","Units":"in","Rept_Date":"2020-12-19 12"},"coordinates":[5535,4229]},{"type":"Point","properties":{"Station_ID":"NY-DL-25","Station_Nam":"HOBART 4.8 ESE, NY","Latitude":"42.35230","Longitude":"-74.57830","Snowdepth":"18.000","Units":"in","Rept_Date":"2020-12-19 12"},"coordinates":[5318,3967]},{"type":"Point","properties":{"Station_ID":"NY-DL-24","Station_Nam":"WALTON 6.5 W, NY","Latitude":"42.16534","Longitude":"-75.25850","Snowdepth":"18.000","Units":"in","Rept_Date":"2020-12-19 12"},"coordinates":[5159,3846]},{"type":"Point","properties":{"Station_ID":"NY-CN-9","Station_Nam":"NORWICH 5.4 W, NY","Latitude":"42.53356","Longitude":"-75.63060","Snowdepth":"18.000","Units":"in","Rept_Date":"2020-12-19 12"},"coordinates":[5071,4083]},{"type":"Point","properties":{"Station_ID":"NH-RC-48","Station_Nam":"NORTHWOOD 2.9 WSW, NH","Latitude":"43.20114","Longitude":"-71.25750","Snowdepth":"18.000","Units":"in","Rept_Date":"2020-12-19 12"},"coordinates":[6098,4513]},{"type":"Point","properties":{"Station_ID":"NH-MR-4","Station_Nam":"BOW 1.6 NW, NH","Latitude":"43.14994","Longitude":"-71.55650","Snowdepth":"18.000","Units":"in","Rept_Date":"2020-12-19 12"},"coordinates":[6027,4480]},{"type":"Point","properties":{"Station_ID":"LAPP1","Station_Nam":"LAPORTE,PA","Latitude":"41.42470","Longitude":"-76.49250","Snowdepth":"18.000","Units":"in","Rept_Date":"2020-12-19 12"},"coordinates":[4869,3370]},{"type":"Point","properties":{"Station_ID":"HTLN3","Station_Nam":"HERMIT LAKE SNOWPLOT","Latitude":"44.26130","Longitude":"-71.28330","Snowdepth":"18.000","Units":"in","Rept_Date":"2020-12-19 09"},"coordinates":[6092,5195]},{"type":"Point","properties":{"Station_ID":"ALB","Station_Nam":"ALBANY INTL AP","Latitude":"42.74920","Longitude":"-73.80190","Snowdepth":"18.000","Units":"in","Rept_Date":"2020-12-20 00"},"coordinates":[5500,4222]},{"type":"Point","properties":{"Station_ID":"VT-WR-2","Station_Nam":"POMFRET 2.6 N, VT","Latitude":"43.74230","Longitude":"-72.52550","Snowdepth":"17.500","Units":"in","Rept_Date":"2020-12-19 12"},"coordinates":[5800,4861]},{"type":"Point","properties":{"Station_ID":"NH-RC-18","Station_Nam":"DEERFIELD 3.2 WSW, NH","Latitude":"43.13350","Longitude":"-71.27940","Snowdepth":"17.500","Units":"in","Rept_Date":"2020-12-19 12"},"coordinates":[6092,4469]},{"type":"Point","properties":{"Station_ID":"NH-MR-45","Station_Nam":"NORTHFIELD 2.8 E, NH","Latitude":"43.43945","Longitude":"-71.53730","Snowdepth":"17.500","Units":"in","Rept_Date":"2020-12-19 12"},"coordinates":[6032,4666]},{"type":"Point","properties":{"Station_ID":"MLZ","Station_Nam":"MLZ","Latitude":"50.66170","Longitude":"-68.82360","Snowdepth":"17.283","Units":"in","Rept_Date":"2020-12-19 12"},"coordinates":[6669,9314]},{"type":"Point","properties":{"Station_ID":"VT-BN-12","Station_Nam":"STAMFORD 5.0 NNE, VT","Latitude":"42.82000","Longitude":"-73.02000","Snowdepth":"17.000","Units":"in","Rept_Date":"2020-12-19 21"},"coordinates":[5684,4268]},{"type":"Point","properties":{"Station_ID":"PA-EL-1","Station_Nam":"ST. MARYS 1.7 SE, PA","Latitude":"41.41069","Longitude":"-78.53480","Snowdepth":"17.000","Units":"in","Rept_Date":"2020-12-19 11"},"coordinates":[4390,3361]},{"type":"Point","properties":{"Station_ID":"NH-ST-31","Station_Nam":"STRAFFORD 2.9 N, NH","Latitude":"43.31175","Longitude":"-71.13510","Snowdepth":"17.000","Units":"in","Rept_Date":"2020-12-19 12"},"coordinates":[6126,4584]},{"type":"Point","properties":{"Station_ID":"MDT","Station_Nam":"HARRISBURG INTERNATIONAL AIRPORT","Latitude":"40.19330","Longitude":"-76.76360","Snowdepth":"17.000","Units":"in","Rept_Date":"2020-12-19 12"},"coordinates":[4805,2577]},{"type":"Point","properties":{"Station_ID":"KALB","Station_Nam":"ALBANY INTERNATIONAL AIRPORT","Latitude":"42.75000","Longitude":"-73.80000","Snowdepth":"17.000","Units":"in","Rept_Date":"2020-12-20 06"},"coordinates":[5501,4223]},{"type":"Point","properties":{"Station_ID":"NY-CR-1","Station_Nam":"FREETOWN 1.0 NE, NY","Latitude":"42.53299","Longitude":"-76.02111","Snowdepth":"16.500","Units":"in","Rept_Date":"2020-12-19 12"},"coordinates":[4980,4083]},{"type":"Point","properties":{"Station_ID":"NY-CM-24","Station_Nam":"CHEMUNG 5.7 N, NY","Latitude":"42.09130","Longitude":"-76.62810","Snowdepth":"16.500","Units":"in","Rept_Date":"2020-12-19 14"},"coordinates":[4837,3799]},{"type":"Point","properties":{"Station_ID":"PTLQ6","Station_Nam":"PORTAGE LAKE","Latitude":"49.06950","Longitude":"-86.65940","Snowdepth":"16.020","Units":"in","Rept_Date":"2020-12-20 06"},"coordinates":[2483,8289]},{"type":"Point","properties":{"Station_ID":"WNDM1","Station_Nam":"WINDHAM 2NW","Latitude":"43.85670","Longitude":"-70.46630","Snowdepth":"16.000","Units":"in","Rept_Date":"2020-12-19 12"},"coordinates":[6283,4935]},{"type":"Point","properties":{"Station_ID":"VT-RT-7","Station_Nam":"RUTLAND 1.2 N, VT","Latitude":"43.62533","Longitude":"-72.97790","Snowdepth":"16.000","Units":"in","Rept_Date":"2020-12-19 12"},"coordinates":[5694,4786]},{"type":"Point","properties":{"Station_ID":"RUTV1","Station_Nam":"RUTLAND","Latitude":"43.62530","Longitude":"-72.97810","Snowdepth":"16.000","Units":"in","Rept_Date":"2020-12-19 12"},"coordinates":[5694,4786]},{"type":"Point","properties":{"Station_ID":"PA-SS-16","Station_Nam":"NEW MILFORD 1.6 SSE, PA","Latitude":"41.85540","Longitude":"-75.71110","Snowdepth":"16.000","Units":"in","Rept_Date":"2020-12-19 13"},"coordinates":[5052,3647]},{"type":"Point","properties":{"Station_ID":"NY-AB-21","Station_Nam":"NWS ALBANY, NY","Latitude":"42.69180","Longitude":"-73.83110","Snowdepth":"16.000","Units":"in","Rept_Date":"2020-12-19 12"},"coordinates":[5494,4185]},{"type":"Point","properties":{"Station_ID":"NH-GR-46","Station_Nam":"ASHLAND 2.4 NNW, NH","Latitude":"43.72963","Longitude":"-71.64213","Snowdepth":"16.000","Units":"in","Rept_Date":"2020-12-19 12"},"coordinates":[6007,4853]},{"type":"Point","properties":{"Station_ID":"ME-CM-54","Station_Nam":"WINDHAM 3.9 NW, ME","Latitude":"43.85787","Longitude":"-70.46200","Snowdepth":"16.000","Units":"in","Rept_Date":"2020-12-19 12"},"coordinates":[6284,4935]},{"type":"Point","properties":{"Station_ID":"ME-CM-125","Station_Nam":"GRAY 2.9 SSE, ME","Latitude":"43.84640","Longitude":"-70.31340","Snowdepth":"16.000","Units":"in","Rept_Date":"2020-12-19 12"},"coordinates":[6319,4928]},{"type":"Point","properties":{"Station_ID":"DELN6","Station_Nam":"DELHI 2 SE","Latitude":"42.25580","Longitude":"-74.91270","Snowdepth":"16.000","Units":"in","Rept_Date":"2020-12-19 13"},"coordinates":[5240,3905]},{"type":"Point","properties":{"Station_ID":"VT-WR-23","Station_Nam":"HARTFORD 1.0 NNW, VT","Latitude":"43.67809","Longitude":"-72.37554","Snowdepth":"15.800","Units":"in","Rept_Date":"2020-12-19 13"},"coordinates":[5835,4820]},{"type":"Point","properties":{"Station_ID":"QGO","Station_Nam":"QGO","Latitude":"48.85500","Longitude":"-74.20640","Snowdepth":"15.551","Units":"in","Rept_Date":"2020-12-19 12"},"coordinates":[5405,8151]},{"type":"Point","properties":{"Station_ID":"PA-LY-7","Station_Nam":"JERSEY SHORE 0.9 S, PA","Latitude":"41.18707","Longitude":"-77.26568","Snowdepth":"15.500","Units":"in","Rept_Date":"2020-12-19 12"},"coordinates":[4688,3217]},{"type":"Point","properties":{"Station_ID":"NY-DL-28","Station_Nam":"FLEISCHMANNS 5.7 N, NY","Latitude":"42.23779","Longitude":"-74.52335","Snowdepth":"15.500","Units":"in","Rept_Date":"2020-12-19 12"},"coordinates":[5331,3893]},{"type":"Point","properties":{"Station_ID":"NH-MR-26","Station_Nam":"PITTSFIELD 0.2 SSW, NH","Latitude":"43.29880","Longitude":"-71.33450","Snowdepth":"15.500","Units":"in","Rept_Date":"2020-12-19 13"},"coordinates":[6080,4576]},{"type":"Point","properties":{"Station_ID":"TGRP1","Station_Nam":"TIOGA RIVER AT TIOGA","Latitude":"41.90830","Longitude":"-77.12920","Snowdepth":"15.000","Units":"in","Rept_Date":"2020-12-19 12"},"coordinates":[4720,3681]},{"type":"Point","properties":{"Station_ID":"SHBN6","Station_Nam":"SHERBURNE","Latitude":"42.67730","Longitude":"-75.50660","Snowdepth":"15.000","Units":"in","Rept_Date":"2020-12-19 12"},"coordinates":[5100,4176]},{"type":"Point","properties":{"Station_ID":"PHON6","Station_Nam":"PHOENICIA 2SW","Latitude":"42.06420","Longitude":"-74.34080","Snowdepth":"15.000","Units":"in","Rept_Date":"2020-12-19 11"},"coordinates":[5374,3781]},{"type":"Point","properties":{"Station_ID":"NY-RN-1","Station_Nam":"AVERILL PARK 0.9 WNW, NY","Latitude":"42.63910","Longitude":"-73.56980","Snowdepth":"15.000","Units":"in","Rept_Date":"2020-12-19 13"},"coordinates":[5555,4151]},{"type":"Point","properties":{"Station_ID":"NH-CR-26","Station_Nam":"CENTER SANDWICH 4.9 E, NH","Latitude":"43.80976","Longitude":"-71.34150","Snowdepth":"15.000","Units":"in","Rept_Date":"2020-12-19 12"},"coordinates":[6078,4905]},{"type":"Point","properties":{"Station_ID":"ME-SG-1","Station_Nam":"BATH 1.1 WSW, ME","Latitude":"43.93063","Longitude":"-69.85730","Snowdepth":"15.000","Units":"in","Rept_Date":"2020-12-19 12"},"coordinates":[6426,4982]},{"type":"Point","properties":{"Station_ID":"GLTP1","Station_Nam":"GALETON,PA","Latitude":"41.73330","Longitude":"-77.63330","Snowdepth":"15.000","Units":"in","Rept_Date":"2020-12-19 13"},"coordinates":[4601,3568]},{"type":"Point","properties":{"Station_ID":"ESDN3","Station_Nam":"EAST SANDWICH","Latitude":"43.80990","Longitude":"-71.34250","Snowdepth":"15.000","Units":"in","Rept_Date":"2020-12-19 11"},"coordinates":[6078,4905]},{"type":"Point","properties":{"Station_ID":"CT-LT-29","Station_Nam":"GOSHEN 0.5 NW, CT","Latitude":"41.83707","Longitude":"-73.23003","Snowdepth":"15.000","Units":"in","Rept_Date":"2020-12-19 11"},"coordinates":[5635,3635]},{"type":"Point","properties":{"Station_ID":"CJRP1","Station_Nam":"COUDERSPORT 7SE","Latitude":"41.73920","Longitude":"-77.97110","Snowdepth":"15.000","Units":"in","Rept_Date":"2020-12-19 12"},"coordinates":[4522,3572]},{"type":"Point","properties":{"Station_ID":"BTHM1","Station_Nam":"BATH","Latitude":"43.93160","Longitude":"-69.85640","Snowdepth":"15.000","Units":"in","Rept_Date":"2020-12-19 11"},"coordinates":[6426,4983]},{"type":"Point","properties":{"Station_ID":"BDDN3","Station_Nam":"BRADFORD 2","Latitude":"43.25880","Longitude":"-72.00210","Snowdepth":"15.000","Units":"in","Rept_Date":"2020-12-19 14"},"coordinates":[5923,4550]},{"type":"Point","properties":{"Station_ID":"ME-CM-143","Station_Nam":"PORTLAND 5.4 NW, ME","Latitude":"43.72010","Longitude":"-70.28710","Snowdepth":"14.500","Units":"in","Rept_Date":"2020-12-19 12"},"coordinates":[6325,4847]},{"type":"Point","properties":{"Station_ID":"ME-AN-43","Station_Nam":"LISBON 0.6 S, ME","Latitude":"44.02320","Longitude":"-70.10550","Snowdepth":"14.500","Units":"in","Rept_Date":"2020-12-19 12"},"coordinates":[6368,5042]},{"type":"Point","properties":{"Station_ID":"MA-HS-7","Station_Nam":"PLAINFIELD 2.2 SW, MA","Latitude":"42.49272","Longitude":"-72.94540","Snowdepth":"14.500","Units":"in","Rept_Date":"2020-12-19 13"},"coordinates":[5701,4057]},{"type":"Point","properties":{"Station_ID":"QCU","Station_Nam":"QCU","Latitude":"47.82750","Longitude":"-76.59830","Snowdepth":"14.016","Units":"in","Rept_Date":"2020-12-19 12"},"coordinates":[4844,7490]},{"type":"Point","properties":{"Station_ID":"ROWM3","Station_Nam":"ROWE 3NE","Latitude":"42.73500","Longitude":"-72.86920","Snowdepth":"14.000","Units":"in","Rept_Date":"2020-12-19 12"},"coordinates":[5719,4213]},{"type":"Point","properties":{"Station_ID":"PA-LC-27","Station_Nam":"RICHMONDALE 0.1 NE, PA","Latitude":"41.63767","Longitude":"-75.48170","Snowdepth":"14.000","Units":"in","Rept_Date":"2020-12-19 12"},"coordinates":[5106,3507]},{"type":"Point","properties":{"Station_ID":"PA-CN-31","Station_Nam":"STATE COLLEGE 2.4 WNW, PA","Latitude":"40.80639","Longitude":"-77.89776","Snowdepth":"14.000","Units":"in","Rept_Date":"2020-12-19 12"},"coordinates":[4539,2972]},{"type":"Point","properties":{"Station_ID":"NY-UL-23","Station_Nam":"WEST HURLEY 0.1 S, NY","Latitude":"42.00455","Longitude":"-74.11094","Snowdepth":"14.000","Units":"in","Rept_Date":"2020-12-19 12"},"coordinates":[5428,3743]},{"type":"Point","properties":{"Station_ID":"ME-CM-18","Station_Nam":"PORTLAND 5.5 WNW, ME","Latitude":"43.70288","Longitude":"-70.30550","Snowdepth":"14.000","Units":"in","Rept_Date":"2020-12-19 12"},"coordinates":[6321,4836]},{"type":"Point","properties":{"Station_ID":"LAUP1","Station_Nam":"1.5MI S OF RT 30 ON SMIT (LAUREL RIDGE)","Latitude":"40.05000","Longitude":"-79.22060","Snowdepth":"14.000","Units":"in","Rept_Date":"2020-12-19 12"},"coordinates":[4229,2485]},{"type":"Point","properties":{"Station_ID":"HGHN4","Station_Nam":"HIGHLAND LAKES 1SW","Latitude":"41.16330","Longitude":"-74.45930","Snowdepth":"14.000","Units":"in","Rept_Date":"2020-12-19 11"},"coordinates":[5346,3202]},{"type":"Point","properties":{"Station_ID":"EMRN6","Station_Nam":"ELMIRA","Latitude":"42.09970","Longitude":"-76.83580","Snowdepth":"14.000","Units":"in","Rept_Date":"2020-12-19 12"},"coordinates":[4788,3804]},{"type":"Point","properties":{"Station_ID":"EHYM3","Station_Nam":"EAST HAWLEY","Latitude":"42.57410","Longitude":"-72.86790","Snowdepth":"14.000","Units":"in","Rept_Date":"2020-12-19 13"},"coordinates":[5720,4109]},{"type":"Point","properties":{"Station_ID":"HLSN3","Station_Nam":"HERMIT LAKE SNOTEL","Latitude":"44.26130","Longitude":"-71.28320","Snowdepth":"13.900","Units":"in","Rept_Date":"2020-12-20 06"},"coordinates":[6092,5195]},{"type":"Point","properties":{"Station_ID":"QLB","Station_Nam":"QLB","Latitude":"50.72360","Longitude":"-75.10000","Snowdepth":"13.622","Units":"in","Rept_Date":"2020-12-19 12"},"coordinates":[5196,9353]},{"type":"Point","properties":{"Station_ID":"VT-WR-17","Station_Nam":"ROCHESTER 2.3 NE, VT","Latitude":"43.89418","Longitude":"-72.76992","Snowdepth":"13.500","Units":"in","Rept_Date":"2020-12-19 12"},"coordinates":[5743,4959]},{"type":"Point","properties":{"Station_ID":"NY-ST-3","Station_Nam":"SOUTH CORNING 4.7 S, NY","Latitude":"42.05672","Longitude":"-77.04850","Snowdepth":"13.500","Units":"in","Rept_Date":"2020-12-19 14"},"coordinates":[4738,3776]},{"type":"Point","properties":{"Station_ID":"NY-DT-34","Station_Nam":"HOPEWELL JUNCTION 2.8 NE, NY","Latitude":"41.61016","Longitude":"-73.75855","Snowdepth":"13.500","Units":"in","Rept_Date":"2020-12-19 11"},"coordinates":[5511,3489]},{"type":"Point","properties":{"Station_ID":"WNDP1","Station_Nam":"WINDBER COUNTY CLUB","Latitude":"40.28780","Longitude":"-78.77530","Snowdepth":"13.000","Units":"in","Rept_Date":"2020-12-19 12"},"coordinates":[4333,2638]},{"type":"Point","properties":{"Station_ID":"VT-WH-29","Station_Nam":"BRATTLEBORO 0.7 S, VT","Latitude":"42.84030","Longitude":"-72.55580","Snowdepth":"13.000","Units":"in","Rept_Date":"2020-12-19 12"},"coordinates":[5793,4281]},{"type":"Point","properties":{"Station_ID":"SNOW2","Station_Nam":"SNOWSHOE","Latitude":"38.39900","Longitude":"-79.99490","Snowdepth":"13.000","Units":"in","Rept_Date":"2020-12-19 11"},"coordinates":[4047,1423]},{"type":"Point","properties":{"Station_ID":"SAYP1","Station_Nam":"SAYLORSBURG,PA","Latitude":"40.91670","Longitude":"-75.33330","Snowdepth":"13.000","Units":"in","Rept_Date":"2020-12-19 13"},"coordinates":[5141,3043]},{"type":"Point","properties":{"Station_ID":"RKHN6","Station_Nam":"ROCK HILL 3 SW","Latitude":"41.59170","Longitude":"-74.61410","Snowdepth":"13.000","Units":"in","Rept_Date":"2020-12-19 12"},"coordinates":[5310,3477]},{"type":"Point","properties":{"Station_ID":"NY-CB-8","Station_Nam":"LIVINGSTON 0.7 SSW, NY","Latitude":"42.13308","Longitude":"-73.78540","Snowdepth":"13.000","Units":"in","Rept_Date":"2020-12-19 13"},"coordinates":[5504,3826]},{"type":"Point","properties":{"Station_ID":"MA-FR-13","Station_Nam":"CONWAY 2.9 NW, MA","Latitude":"42.54419","Longitude":"-72.72743","Snowdepth":"13.000","Units":"in","Rept_Date":"2020-12-19 13"},"coordinates":[5753,4090]},{"type":"Point","properties":{"Station_ID":"MA-ES-48","Station_Nam":"ANDOVER 0.6 E, MA","Latitude":"42.65659","Longitude":"-71.13048","Snowdepth":"13.000","Units":"in","Rept_Date":"2020-12-19 10"},"coordinates":[6127,4163]},{"type":"Point","properties":{"Station_ID":"JPBM3","Station_Nam":"JAMAICA PLAIN","Latitude":"42.30310","Longitude":"-71.12400","Snowdepth":"13.000","Units":"in","Rept_Date":"2020-12-19 13"},"coordinates":[6129,3935]},{"type":"Point","properties":{"Station_ID":"DURM1","Station_Nam":"DURHAM","Latitude":"43.99960","Longitude":"-70.09630","Snowdepth":"13.000","Units":"in","Rept_Date":"2020-12-19 12"},"coordinates":[6370,5027]},{"type":"Point","properties":{"Station_ID":"CT-NH-72","Station_Nam":"NORTHFORD 0.8 SW, CT","Latitude":"41.38554","Longitude":"-72.80240","Snowdepth":"13.000","Units":"in","Rept_Date":"2020-12-19 12"},"coordinates":[5735,3345]},{"type":"Point","properties":{"Station_ID":"ACEP1","Station_Nam":"DONEGAL 2 NW","Latitude":"40.13470","Longitude":"-79.40720","Snowdepth":"13.000","Units":"in","Rept_Date":"2020-12-19 12"},"coordinates":[4185,2540]},{"type":"Point","properties":{"Station_ID":"38.3990_079.9949","Station_Nam":"SNOWSHOE  CO-OP OBSERVER (X3840800)","Latitude":"38.39900","Longitude":"-79.99490","Snowdepth":"13.000","Units":"in","Rept_Date":"2020-12-19 11"},"coordinates":[4047,1423]},{"type":"Point","properties":{"Station_ID":"DVLQ6","Station_Nam":"DEVIOUS LAKE","Latitude":"49.19890","Longitude":"-87.76440","Snowdepth":"12.870","Units":"in","Rept_Date":"2020-12-20 06"},"coordinates":[2224,8372]},{"type":"Point","properties":{"Station_ID":"PA-CR-1","Station_Nam":"EMPORIUM 2.6 S, PA","Latitude":"41.47342","Longitude":"-78.24330","Snowdepth":"12.600","Units":"in","Rept_Date":"2020-12-19 13"},"coordinates":[4458,3401]},{"type":"Point","properties":{"Station_ID":"PA-NM-3","Station_Nam":"MUNCY 4.7 SSE, PA","Latitude":"41.13610","Longitude":"-76.76508","Snowdepth":"12.500","Units":"in","Rept_Date":"2020-12-19 12"},"coordinates":[4805,3184]},{"type":"Point","properties":{"Station_ID":"NH-HL-48","Station_Nam":"GREENVILLE 1.1 ENE, NH","Latitude":"42.77674","Longitude":"-71.77990","Snowdepth":"12.500","Units":"in","Rept_Date":"2020-12-19 12"},"coordinates":[5975,4240]},{"type":"Point","properties":{"Station_ID":"NH-GR-49","Station_Nam":"PLYMOUTH 3.7 N, NH","Latitude":"43.79048","Longitude":"-71.68413","Snowdepth":"12.500","Units":"in","Rept_Date":"2020-12-19 12"},"coordinates":[5997,4892]},{"type":"Point","properties":{"Station_ID":"MA-WR-56","Station_Nam":"STERLING 4.3 NW, MA","Latitude":"42.47540","Longitude":"-71.81140","Snowdepth":"12.500","Units":"in","Rept_Date":"2020-12-19 12"},"coordinates":[5968,4046]},{"type":"Point","properties":{"Station_ID":"MA-FR-17","Station_Nam":"BUCKLAND 1.8 ESE, MA","Latitude":"42.58900","Longitude":"-72.75110","Snowdepth":"12.500","Units":"in","Rept_Date":"2020-12-19 13"},"coordinates":[5747,4119]},{"type":"Point","properties":{"Station_ID":"MA-BE-11","Station_Nam":"GREAT BARRINGTON 3.0 N, MA","Latitude":"42.23790","Longitude":"-73.35030","Snowdepth":"12.500","Units":"in","Rept_Date":"2020-12-19 12"},"coordinates":[5606,3893]},{"type":"Point","properties":{"Station_ID":"CT-HR-88","Station_Nam":"SUFFIELD DEPOT 6.0 WNW, CT","Latitude":"42.02629","Longitude":"-72.75082","Snowdepth":"12.500","Units":"in","Rept_Date":"2020-12-19 12"},"coordinates":[5747,3757]},{"type":"Point","properties":{"Station_ID":"TRIQ6","Station_Nam":"TRIO LAKE","Latitude":"49.22880","Longitude":"-87.22920","Snowdepth":"12.050","Units":"in","Rept_Date":"2020-12-20 06"},"coordinates":[2349,8392]},{"type":"Point","properties":{"Station_ID":"TYRP1","Station_Nam":"TYRONE,PA","Latitude":"40.66670","Longitude":"-78.23330","Snowdepth":"12.000","Units":"in","Rept_Date":"2020-12-19 12"},"coordinates":[4460,2882]},{"type":"Point","properties":{"Station_ID":"POLM1","Station_Nam":"POLAND","Latitude":"44.00700","Longitude":"-70.36140","Snowdepth":"12.000","Units":"in","Rept_Date":"2020-12-19 12"},"coordinates":[6308,5031]},{"type":"Point","properties":{"Station_ID":"PLBP1","Station_Nam":"PHILIPSBURG,PA","Latitude":"40.87220","Longitude":"-78.21530","Snowdepth":"12.000","Units":"in","Rept_Date":"2020-12-19 12"},"coordinates":[4465,3014]},{"type":"Point","properties":{"Station_ID":"PA-LC-24","Station_Nam":"ARCHBALD 1.6 SW, PA","Latitude":"41.49106","Longitude":"-75.56380","Snowdepth":"12.000","Units":"in","Rept_Date":"2020-12-19 13"},"coordinates":[5087,3413]},{"type":"Point","properties":{"Station_ID":"PA-CN-18","Station_Nam":"PORT MATILDA 2.2 ESE, PA","Latitude":"40.79117","Longitude":"-78.01180","Snowdepth":"12.000","Units":"in","Rept_Date":"2020-12-19 12"},"coordinates":[4512,2962]},{"type":"Point","properties":{"Station_ID":"NY-HM-1","Station_Nam":"SPECULATOR 10.0 SSW, NY","Latitude":"43.45133","Longitude":"-74.47120","Snowdepth":"12.000","Units":"in","Rept_Date":"2020-12-19 12"},"coordinates":[5343,4674]},{"type":"Point","properties":{"Station_ID":"NH-MR-25","Station_Nam":"CHICHESTER 2.7 SSW, NH","Latitude":"43.21150","Longitude":"-71.41430","Snowdepth":"12.000","Units":"in","Rept_Date":"2020-12-19 12"},"coordinates":[6061,4520]},{"type":"Point","properties":{"Station_ID":"NH-HL-25","Station_Nam":"AMHERST 3.7 NNE, NH","Latitude":"42.91409","Longitude":"-71.61020","Snowdepth":"12.000","Units":"in","Rept_Date":"2020-12-19 12"},"coordinates":[6015,4328]},{"type":"Point","properties":{"Station_ID":"NFKC3","Station_Nam":"NORFOLK","Latitude":"41.97250","Longitude":"-73.22080","Snowdepth":"12.000","Units":"in","Rept_Date":"2020-12-19 13"},"coordinates":[5637,3722]},{"type":"Point","properties":{"Station_ID":"MLLP1","Station_Nam":"MILLHEIM,PA","Latitude":"40.88330","Longitude":"-77.48330","Snowdepth":"12.000","Units":"in","Rept_Date":"2020-12-19 12"},"coordinates":[4636,3021]},{"type":"Point","properties":{"Station_ID":"ME-LN-26","Station_Nam":"TREVETT 0.3 NE, ME","Latitude":"43.88780","Longitude":"-69.66903","Snowdepth":"12.000","Units":"in","Rept_Date":"2020-12-19 12"},"coordinates":[6470,4955]},{"type":"Point","properties":{"Station_ID":"MA-ES-12","Station_Nam":"BOXFORD 2.4 S, MA","Latitude":"42.63970","Longitude":"-70.97970","Snowdepth":"12.000","Units":"in","Rept_Date":"2020-12-19 12"},"coordinates":[6163,4152]},{"type":"Point","properties":{"Station_ID":"LBGP1","Station_Nam":"LEWISBURG,PA","Latitude":"40.94860","Longitude":"-76.87830","Snowdepth":"12.000","Units":"in","Rept_Date":"2020-12-19 12"},"coordinates":[4778,3063]},{"type":"Point","properties":{"Station_ID":"JAPN3","Station_Nam":"JAFFREY SILVER RANCH AIRPARK","Latitude":"42.80880","Longitude":"-72.00530","Snowdepth":"12.000","Units":"in","Rept_Date":"2020-12-19 12"},"coordinates":[5922,4260]},{"type":"Point","properties":{"Station_ID":"CORN6","Station_Nam":"CORNING","Latitude":"42.13410","Longitude":"-77.06910","Snowdepth":"12.000","Units":"in","Rept_Date":"2020-12-19 12"},"coordinates":[4734,3826]},{"type":"Point","properties":{"Station_ID":"QCX","Station_Nam":"QCX","Latitude":"51.32830","Longitude":"-70.08060","Snowdepth":"11.968","Units":"in","Rept_Date":"2020-12-19 12"},"coordinates":[6374,9743]},{"type":"Point","properties":{"Station_ID":"QMD","Station_Nam":"QMD","Latitude":"49.29060","Longitude":"-75.84500","Snowdepth":"11.850","Units":"in","Rept_Date":"2020-12-19 12"},"coordinates":[5021,8431]},{"type":"Point","properties":{"Station_ID":"NY-TM-45","Station_Nam":"NEWFIELD HAMLET 4.3 S, NY","Latitude":"42.29650","Longitude":"-76.60676","Snowdepth":"11.800","Units":"in","Rept_Date":"2020-12-19 14"},"coordinates":[4842,3931]},{"type":"Point","properties":{"Station_ID":"PA-CN-33","Station_Nam":"PLEASANT GAP 0.7 NW, PA","Latitude":"40.87265","Longitude":"-77.74660","Snowdepth":"11.700","Units":"in","Rept_Date":"2020-12-19 12"},"coordinates":[4575,3015]},{"type":"Point","properties":{"Station_ID":"NY-HR-16","Station_Nam":"ILION 0.7 WSW, NY","Latitude":"43.00880","Longitude":"-75.05390","Snowdepth":"11.500","Units":"in","Rept_Date":"2020-12-19 12"},"coordinates":[5207,4389]},{"type":"Point","properties":{"Station_ID":"NY-DT-24","Station_Nam":"RED HOOK 1.2 NNE, NY","Latitude":"42.00967","Longitude":"-73.86419","Snowdepth":"11.500","Units":"in","Rept_Date":"2020-12-19 12"},"coordinates":[5486,3746]},{"type":"Point","properties":{"Station_ID":"NY-CB-9","Station_Nam":"HILLSDALE 5.8 S, NY","Latitude":"42.26165","Longitude":"-73.54160","Snowdepth":"11.500","Units":"in","Rept_Date":"2020-12-19 13"},"coordinates":[5562,3908]},{"type":"Point","properties":{"Station_ID":"MA-MD-7","Station_Nam":"WINCHESTER 0.7 SE, MA","Latitude":"42.44594","Longitude":"-71.13580","Snowdepth":"11.500","Units":"in","Rept_Date":"2020-12-19 12"},"coordinates":[6126,4027]},{"type":"Point","properties":{"Station_ID":"MA-MD-151","Station_Nam":"CAMBRIDGE 0.9 SSE, MA","Latitude":"42.36436","Longitude":"-71.10871","Snowdepth":"11.500","Units":"in","Rept_Date":"2020-12-19 12"},"coordinates":[6133,3974]},{"type":"Point","properties":{"Station_ID":"MA-MD-126","Station_Nam":"MELROSE 0.5 NE, MA","Latitude":"42.46055","Longitude":"-71.05396","Snowdepth":"11.500","Units":"in","Rept_Date":"2020-12-19 12"},"coordinates":[6145,4036]},{"type":"Point","properties":{"Station_ID":"MA-ES-41","Station_Nam":"DANVERS 0.8 ESE, MA","Latitude":"42.56849","Longitude":"-70.93526","Snowdepth":"11.500","Units":"in","Rept_Date":"2020-12-19 13"},"coordinates":[6173,4106]},{"type":"Point","properties":{"Station_ID":"QMA","Station_Nam":"QMA","Latitude":"50.10330","Longitude":"-70.47190","Snowdepth":"11.220","Units":"in","Rept_Date":"2020-12-19 12"},"coordinates":[6282,8954]},{"type":"Point","properties":{"Station_ID":"QFT","Station_Nam":"QFT","Latitude":"50.83280","Longitude":"-74.40390","Snowdepth":"11.220","Units":"in","Rept_Date":"2020-12-19 12"},"coordinates":[5359,9424]},{"type":"Point","properties":{"Station_ID":"NY-MG-3","Station_Nam":"HESSVILLE 1.8 WSW, NY","Latitude":"42.86430","Longitude":"-74.72140","Snowdepth":"11.200","Units":"in","Rept_Date":"2020-12-19 13"},"coordinates":[5285,4296]},{"type":"Point","properties":{"Station_ID":"NY-UL-19","Station_Nam":"WOODSTOCK 0.8 ENE, NY","Latitude":"42.04097","Longitude":"-74.09588","Snowdepth":"11.000","Units":"in","Rept_Date":"2020-12-19 12"},"coordinates":[5431,3766]},{"type":"Point","properties":{"Station_ID":"NY-TM-18","Station_Nam":"EAST ITHACA 4.7 E, NY","Latitude":"42.41910","Longitude":"-76.37330","Snowdepth":"11.000","Units":"in","Rept_Date":"2020-12-19 12"},"coordinates":[4897,4010]},{"type":"Point","properties":{"Station_ID":"NY-OR-18","Station_Nam":"WALDEN 1.3 S, NY","Latitude":"41.54102","Longitude":"-74.18790","Snowdepth":"11.000","Units":"in","Rept_Date":"2020-12-19 12"},"coordinates":[5410,3445]},{"type":"Point","properties":{"Station_ID":"NY-HR-18","Station_Nam":"SALISBURY CENTER 1.8 NW, NY","Latitude":"43.16260","Longitude":"-74.80880","Snowdepth":"11.000","Units":"in","Rept_Date":"2020-12-19 10"},"coordinates":[5264,4488]},{"type":"Point","properties":{"Station_ID":"NY-DT-37","Station_Nam":"RHINEBECK 3.4 N, NY","Latitude":"41.97735","Longitude":"-73.90559","Snowdepth":"11.000","Units":"in","Rept_Date":"2020-12-19 12"},"coordinates":[5476,3725]},{"type":"Point","properties":{"Station_ID":"NY-DT-12","Station_Nam":"LAGRANGEVILLE 3.4 NE, NY","Latitude":"41.68460","Longitude":"-73.72050","Snowdepth":"11.000","Units":"in","Rept_Date":"2020-12-19 12"},"coordinates":[5520,3537]},{"type":"Point","properties":{"Station_ID":"NY-CB-15","Station_Nam":"ANCRAMDALE 0.2 N, NY","Latitude":"42.02078","Longitude":"-73.59253","Snowdepth":"11.000","Units":"in","Rept_Date":"2020-12-19 12"},"coordinates":[5550,3753]},{"type":"Point","properties":{"Station_ID":"MSRN3","Station_Nam":"MASCOMA RIVER","Latitude":"43.78330","Longitude":"-72.03330","Snowdepth":"11.000","Units":"in","Rept_Date":"2020-12-20 06"},"coordinates":[5916,4888]},{"type":"Point","properties":{"Station_ID":"ME-YK-28","Station_Nam":"BIDDEFORD 1.5 NNE, ME","Latitude":"43.48679","Longitude":"-70.43470","Snowdepth":"11.000","Units":"in","Rept_Date":"2020-12-19 12"},"coordinates":[6291,4697]},{"type":"Point","properties":{"Station_ID":"ME-CM-86","Station_Nam":"POWNAL 4.1 S, ME","Latitude":"43.85370","Longitude":"-70.17210","Snowdepth":"11.000","Units":"in","Rept_Date":"2020-12-19 12"},"coordinates":[6352,4933]},{"type":"Point","properties":{"Station_ID":"ME-CM-138","Station_Nam":"FREEPORT 3.0 ENE, ME","Latitude":"43.87733","Longitude":"-70.04650","Snowdepth":"11.000","Units":"in","Rept_Date":"2020-12-19 12"},"coordinates":[6382,4948]},{"type":"Point","properties":{"Station_ID":"MA-WR-89","Station_Nam":"HOLDEN 0.9 SSE, MA","Latitude":"42.33809","Longitude":"-71.85686","Snowdepth":"11.000","Units":"in","Rept_Date":"2020-12-19 12"},"coordinates":[5957,3958]},{"type":"Point","properties":{"Station_ID":"MA-NF-1","Station_Nam":"NORWOOD 1.3 NW, MA","Latitude":"42.19738","Longitude":"-71.21526","Snowdepth":"11.000","Units":"in","Rept_Date":"2020-12-19 12"},"coordinates":[6107,3867]},{"type":"Point","properties":{"Station_ID":"MA-MD-44","Station_Nam":"MEDFORD 1.2 W, MA","Latitude":"42.42276","Longitude":"-71.13180","Snowdepth":"11.000","Units":"in","Rept_Date":"2020-12-19 10"},"coordinates":[6127,4012]},{"type":"Point","properties":{"Station_ID":"MA-MD-170","Station_Nam":"SOMERVILLE 0.5 W, MA","Latitude":"42.39184","Longitude":"-71.11230","Snowdepth":"11.000","Units":"in","Rept_Date":"2020-12-19 12"},"coordinates":[6132,3992]},{"type":"Point","properties":{"Station_ID":"MA-MD-125","Station_Nam":"TEWKSBURY 3.6 SSE, MA","Latitude":"42.57083","Longitude":"-71.19813","Snowdepth":"11.000","Units":"in","Rept_Date":"2020-12-19 12"},"coordinates":[6112,4107]},{"type":"Point","properties":{"Station_ID":"MA-ES-58","Station_Nam":"MIDDLETON 1.4 SSW, MA","Latitude":"42.58133","Longitude":"-71.02707","Snowdepth":"11.000","Units":"in","Rept_Date":"2020-12-19 13"},"coordinates":[6152,4114]},{"type":"Point","properties":{"Station_ID":"MA-BE-20","Station_Nam":"LEE 3.7 SE, MA","Latitude":"42.27242","Longitude":"-73.19763","Snowdepth":"11.000","Units":"in","Rept_Date":"2020-12-19 12"},"coordinates":[5642,3915]},{"type":"Point","properties":{"Station_ID":"KEEN3","Station_Nam":"KEENE","Latitude":"42.93900","Longitude":"-72.32470","Snowdepth":"11.000","Units":"in","Rept_Date":"2020-12-19 11"},"coordinates":[5847,4344]},{"type":"Point","properties":{"Station_ID":"INDP1","Station_Nam":"INDIANA","Latitude":"40.59670","Longitude":"-79.11780","Snowdepth":"11.000","Units":"in","Rept_Date":"2020-12-19 12"},"coordinates":[4253,2837]},{"type":"Point","properties":{"Station_ID":"GRFM3","Station_Nam":"GREENFIELD NO. 3","Latitude":"42.57190","Longitude":"-72.59750","Snowdepth":"11.000","Units":"in","Rept_Date":"2020-12-19 10"},"coordinates":[5783,4108]},{"type":"Point","properties":{"Station_ID":"CT-LT-15","Station_Nam":"COLEBROOK 1.0 NE, CT","Latitude":"42.00200","Longitude":"-73.08250","Snowdepth":"11.000","Units":"in","Rept_Date":"2020-12-19 12"},"coordinates":[5669,3741]},{"type":"Point","properties":{"Station_ID":"CT-HR-57","Station_Nam":"SUFFIELD DEPOT 3.3 NNE, CT","Latitude":"42.02743","Longitude":"-72.63149","Snowdepth":"11.000","Units":"in","Rept_Date":"2020-12-19 11"},"coordinates":[5775,3758]},{"type":"Point","properties":{"Station_ID":"CT-FR-58","Station_Nam":"RIDGEFIELD 3.6 N, CT","Latitude":"41.32589","Longitude":"-73.48902","Snowdepth":"11.000","Units":"in","Rept_Date":"2020-12-19 11"},"coordinates":[5574,3306]},{"type":"Point","properties":{"Station_ID":"ABNM3","Station_Nam":"ASHBURNHAM NORTH","Latitude":"42.66170","Longitude":"-71.93590","Snowdepth":"11.000","Units":"in","Rept_Date":"2020-12-19 12"},"coordinates":[5938,4166]},{"type":"Point","properties":{"Station_ID":"QTV","Station_Nam":"QTV","Latitude":"49.66000","Longitude":"-69.35690","Snowdepth":"10.512","Units":"in","Rept_Date":"2020-12-19 12"},"coordinates":[6544,8669]},{"type":"Point","properties":{"Station_ID":"RI-PR-50","Station_Nam":"HARRISVILLE 1.2 SSE, RI","Latitude":"41.95128","Longitude":"-71.67171","Snowdepth":"10.500","Units":"in","Rept_Date":"2020-12-19 12"},"coordinates":[6000,3709]},{"type":"Point","properties":{"Station_ID":"PA-CB-33","Station_Nam":"LAKE HARMONY 2.4 WNW, PA","Latitude":"41.07333","Longitude":"-75.63317","Snowdepth":"10.500","Units":"in","Rept_Date":"2020-12-19 12"},"coordinates":[5071,3144]},{"type":"Point","properties":{"Station_ID":"NY-TM-42","Station_Nam":"ITHACA 6.4 E, NY","Latitude":"42.43350","Longitude":"-76.37860","Snowdepth":"10.500","Units":"in","Rept_Date":"2020-12-19 12"},"coordinates":[4896,4019]},{"type":"Point","properties":{"Station_ID":"NY-HM-10","Station_Nam":"LAKE PLEASANT 2.3 WSW, NY","Latitude":"43.45490","Longitude":"-74.45287","Snowdepth":"10.500","Units":"in","Rept_Date":"2020-12-19 12"},"coordinates":[5348,4676]},{"type":"Point","properties":{"Station_ID":"ME-CM-128","Station_Nam":"SOUTH PORTLAND 1.6 S, ME","Latitude":"43.60900","Longitude":"-70.28600","Snowdepth":"10.500","Units":"in","Rept_Date":"2020-12-19 12"},"coordinates":[6326,4775]},{"type":"Point","properties":{"Station_ID":"ME-AR-18","Station_Nam":"NEW SWEDEN 4.9 NNW, ME","Latitude":"47.01080","Longitude":"-68.14390","Snowdepth":"10.500","Units":"in","Rept_Date":"2020-12-19 12"},"coordinates":[6828,6964]},{"type":"Point","properties":{"Station_ID":"MA-WR-58","Station_Nam":"LUNENBURG 0.6 NE, MA","Latitude":"42.60180","Longitude":"-71.71653","Snowdepth":"10.500","Units":"in","Rept_Date":"2020-12-19 13"},"coordinates":[5990,4127]},{"type":"Point","properties":{"Station_ID":"CT-WN-8","Station_Nam":"MOOSUP 1.7 NE, CT","Latitude":"41.73180","Longitude":"-71.84667","Snowdepth":"10.500","Units":"in","Rept_Date":"2020-12-19 11"},"coordinates":[5959,3567]},{"type":"Point","properties":{"Station_ID":"MA-FR-12","Station_Nam":"SUNDERLAND 1.3 SE, MA","Latitude":"42.45217","Longitude":"-72.56610","Snowdepth":"10.400","Units":"in","Rept_Date":"2020-12-19 12"},"coordinates":[5790,4031]},{"type":"Point","properties":{"Station_ID":"QWE","Station_Nam":"QWE","Latitude":"47.84610","Longitude":"-73.80670","Snowdepth":"10.354","Units":"in","Rept_Date":"2020-12-19 12"},"coordinates":[5499,7502]},{"type":"Point","properties":{"Station_ID":"MA-WR-88","Station_Nam":"LEICESTER 2.5 WSW, MA","Latitude":"42.23742","Longitude":"-71.94612","Snowdepth":"10.200","Units":"in","Rept_Date":"2020-12-19 11"},"coordinates":[5936,3893]},{"type":"Point","properties":{"Station_ID":"WALM3","Station_Nam":"WALPOLE 2","Latitude":"42.16090","Longitude":"-71.24610","Snowdepth":"10.000","Units":"in","Rept_Date":"2020-12-19 12"},"coordinates":[6100,3844]},{"type":"Point","properties":{"Station_ID":"SUNP1","Station_Nam":"SUNBURY","Latitude":"40.85440","Longitude":"-76.79250","Snowdepth":"10.000","Units":"in","Rept_Date":"2020-12-19 12"},"coordinates":[4799,3003]},{"type":"Point","properties":{"Station_ID":"STCP1","Station_Nam":"STATE COLLEGE,PA","Latitude":"40.80000","Longitude":"-77.86670","Snowdepth":"10.000","Units":"in","Rept_Date":"2020-12-19 12"},"coordinates":[4546,2968]},{"type":"Point","properties":{"Station_ID":"SDLM3","Station_Nam":"SUNDERLAND","Latitude":"42.44480","Longitude":"-72.55290","Snowdepth":"10.000","Units":"in","Rept_Date":"2020-12-19 12"},"coordinates":[5794,4026]},{"type":"Point","properties":{"Station_ID":"SBRM3","Station_Nam":"SOUTHBRIDGE","Latitude":"42.05830","Longitude":"-72.07210","Snowdepth":"10.000","Units":"in","Rept_Date":"2020-12-19 12"},"coordinates":[5906,3778]},{"type":"Point","properties":{"Station_ID":"RI-PR-51","Station_Nam":"NORTH SMITHFIELD 0.6 S, RI","Latitude":"41.95440","Longitude":"-71.54944","Snowdepth":"10.000","Units":"in","Rept_Date":"2020-12-19 11"},"coordinates":[6029,3711]},{"type":"Point","properties":{"Station_ID":"RI-PR-33","Station_Nam":"GREENVILLE 0.7 NNW, RI","Latitude":"41.88890","Longitude":"-71.56030","Snowdepth":"10.000","Units":"in","Rept_Date":"2020-12-19 12"},"coordinates":[6027,3669]},{"type":"Point","properties":{"Station_ID":"RI-PR-28","Station_Nam":"NORTH SMITHFIELD 0.7 SE, RI","Latitude":"41.95910","Longitude":"-71.54201","Snowdepth":"10.000","Units":"in","Rept_Date":"2020-12-19 12"},"coordinates":[6031,3714]},{"type":"Point","properties":{"Station_ID":"PWM","Station_Nam":"RESIDUAL OFFICE TO PORTLAND WSFO (GYX)","Latitude":"43.64610","Longitude":"-70.30920","Snowdepth":"10.000","Units":"in","Rept_Date":"2020-12-19 12"},"coordinates":[6320,4799]},{"type":"Point","properties":{"Station_ID":"PGLP1","Station_Nam":"GLENDALE LAKE","Latitude":"40.65000","Longitude":"-78.55000","Snowdepth":"10.000","Units":"in","Rept_Date":"2020-12-19 13"},"coordinates":[4386,2871]},{"type":"Point","properties":{"Station_ID":"PEKN6","Station_Nam":"PECK LAKE","Latitude":"43.11500","Longitude":"-74.42360","Snowdepth":"10.000","Units":"in","Rept_Date":"2020-12-19 12"},"coordinates":[5355,4457]},{"type":"Point","properties":{"Station_ID":"PA-PK-22","Station_Nam":"MILFORD 8.7 NW, PA","Latitude":"41.42018","Longitude":"-74.90953","Snowdepth":"10.000","Units":"in","Rept_Date":"2020-12-19 12"},"coordinates":[5240,3367]},{"type":"Point","properties":{"Station_ID":"PA-CN-3","Station_Nam":"STATE COLLEGE 2.4 ENE, PA","Latitude":"40.80670","Longitude":"-77.81670","Snowdepth":"10.000","Units":"in","Rept_Date":"2020-12-19 14"},"coordinates":[4558,2972]},{"type":"Point","properties":{"Station_ID":"PA-CM-9","Station_Nam":"PATTON 5.1 ENE, PA","Latitude":"40.65150","Longitude":"-78.55500","Snowdepth":"10.000","Units":"in","Rept_Date":"2020-12-19 13"},"coordinates":[4385,2872]},{"type":"Point","properties":{"Station_ID":"NY-WR-10","Station_Nam":"WARRENSBURG 2.1 WNW, NY","Latitude":"43.51784","Longitude":"-73.81069","Snowdepth":"10.000","Units":"in","Rept_Date":"2020-12-19 13"},"coordinates":[5498,4717]},{"type":"Point","properties":{"Station_ID":"NY-ST-33","Station_Nam":"BATH 4.2 E, NY","Latitude":"42.33968","Longitude":"-77.23666","Snowdepth":"10.000","Units":"in","Rept_Date":"2020-12-19 12"},"coordinates":[4694,3959]},{"type":"Point","properties":{"Station_ID":"NJ-HN-7","Station_Nam":"BETHLEHEM TWP 0.6 S, NJ","Latitude":"40.65995","Longitude":"-75.00803","Snowdepth":"10.000","Units":"in","Rept_Date":"2020-12-19 11"},"coordinates":[5217,2878]},{"type":"Point","properties":{"Station_ID":"NH-HL-49","Station_Nam":"MONT VERNON 1.3 SSW, NH","Latitude":"42.87616","Longitude":"-71.68280","Snowdepth":"10.000","Units":"in","Rept_Date":"2020-12-19 12"},"coordinates":[5998,4304]},{"type":"Point","properties":{"Station_ID":"MWN","Station_Nam":"MOUNT WASHINGTON","Latitude":"44.26670","Longitude":"-71.30000","Snowdepth":"10.000","Units":"in","Rept_Date":"2020-12-19 12"},"coordinates":[6088,5199]},{"type":"Point","properties":{"Station_ID":"MMNV1","Station_Nam":"MT. MANSFIELD","Latitude":"44.52480","Longitude":"-72.81540","Snowdepth":"10.000","Units":"in","Rept_Date":"2020-12-19 21"},"coordinates":[5732,5365]},{"type":"Point","properties":{"Station_ID":"MILM3","Station_Nam":"MILFORD","Latitude":"42.16330","Longitude":"-71.51190","Snowdepth":"10.000","Units":"in","Rept_Date":"2020-12-19 12"},"coordinates":[6038,3845]},{"type":"Point","properties":{"Station_ID":"ME-YK-5","Station_Nam":"KENNEBUNK 1.8 WNW, ME","Latitude":"43.39320","Longitude":"-70.58060","Snowdepth":"10.000","Units":"in","Rept_Date":"2020-12-19 12"},"coordinates":[6256,4636]},{"type":"Point","properties":{"Station_ID":"ME-KX-18","Station_Nam":"ROCKLAND 1.4 E, ME","Latitude":"44.12540","Longitude":"-69.10280","Snowdepth":"10.000","Units":"in","Rept_Date":"2020-12-19 12"},"coordinates":[6603,5108]},{"type":"Point","properties":{"Station_ID":"ME-CM-137","Station_Nam":"GRAY 1.5 NE, ME","Latitude":"43.90034","Longitude":"-70.30883","Snowdepth":"10.000","Units":"in","Rept_Date":"2020-12-19 12"},"coordinates":[6320,4963]},{"type":"Point","properties":{"Station_ID":"MA-WR-8","Station_Nam":"FITCHBURG 1.6 SSW, MA","Latitude":"42.56674","Longitude":"-71.82170","Snowdepth":"10.000","Units":"in","Rept_Date":"2020-12-19 11"},"coordinates":[5965,4105]},{"type":"Point","properties":{"Station_ID":"MA-MD-158","Station_Nam":"SHERBORN 1.1 NW, MA","Latitude":"42.24460","Longitude":"-71.38130","Snowdepth":"10.000","Units":"in","Rept_Date":"2020-12-19 11"},"coordinates":[6069,3897]},{"type":"Point","properties":{"Station_ID":"MA-HS-2","Station_Nam":"WESTHAMPTON 1.8 SW, MA","Latitude":"42.27943","Longitude":"-72.78700","Snowdepth":"10.000","Units":"in","Rept_Date":"2020-12-19 13"},"coordinates":[5739,3920]},{"type":"Point","properties":{"Station_ID":"MA-FR-10","Station_Nam":"CONWAY 0.9 SW, MA","Latitude":"42.50879","Longitude":"-72.69730","Snowdepth":"10.000","Units":"in","Rept_Date":"2020-12-19 13"},"coordinates":[5760,4067]},{"type":"Point","properties":{"Station_ID":"MA-ES-66","Station_Nam":"NORTH ANDOVER 0.3 NW, MA","Latitude":"42.70375","Longitude":"-71.12029","Snowdepth":"10.000","Units":"in","Rept_Date":"2020-12-19 13"},"coordinates":[6130,4193]},{"type":"Point","properties":{"Station_ID":"MA-BE-3","Station_Nam":"STOCKBRIDGE .2 NNE, MA","Latitude":"42.28983","Longitude":"-73.31950","Snowdepth":"10.000","Units":"in","Rept_Date":"2020-12-19 11"},"coordinates":[5614,3926]},{"type":"Point","properties":{"Station_ID":"LBKV1","Station_Nam":"LYE BROOK","Latitude":"43.05000","Longitude":"-73.03330","Snowdepth":"10.000","Units":"in","Rept_Date":"2020-12-20 06"},"coordinates":[5681,4416]},{"type":"Point","properties":{"Station_ID":"KMWN","Station_Nam":"MOUNT WASHINGTON","Latitude":"44.26666","Longitude":"-71.30000","Snowdepth":"10.000","Units":"in","Rept_Date":"2020-12-20 06"},"coordinates":[6088,5199]},{"type":"Point","properties":{"Station_ID":"HUBN3","Station_Nam":"HUBBARD BROOK","Latitude":"43.93330","Longitude":"-71.71670","Snowdepth":"10.000","Units":"in","Rept_Date":"2020-12-20 06"},"coordinates":[5990,4984]},{"type":"Point","properties":{"Station_ID":"HRLN6","Station_Nam":"HORNELL ALMOND DAM","Latitude":"42.34880","Longitude":"-77.70440","Snowdepth":"10.000","Units":"in","Rept_Date":"2020-12-19 12"},"coordinates":[4585,3964]},{"type":"Point","properties":{"Station_ID":"CT-MD-27","Station_Nam":"CLINTON 3.7 N, CT","Latitude":"41.32916","Longitude":"-72.51750","Snowdepth":"10.000","Units":"in","Rept_Date":"2020-12-19 12"},"coordinates":[5802,3308]},{"type":"Point","properties":{"Station_ID":"CT-MD-23","Station_Nam":"HIGGANUM 0.7 N, CT","Latitude":"41.50106","Longitude":"-72.55595","Snowdepth":"10.000","Units":"in","Rept_Date":"2020-12-19 13"},"coordinates":[5793,3419]},{"type":"Point","properties":{"Station_ID":"CT-LT-9","Station_Nam":"NEW HARTFORD CENTER 3.2 SW, CT","Latitude":"41.84170","Longitude":"-73.00920","Snowdepth":"10.000","Units":"in","Rept_Date":"2020-12-19 12"},"coordinates":[5686,3638]},{"type":"Point","properties":{"Station_ID":"CT-LT-20","Station_Nam":"WARREN 2.4 WNW, CT","Latitude":"41.75488","Longitude":"-73.39284","Snowdepth":"10.000","Units":"in","Rept_Date":"2020-12-19 12"},"coordinates":[5596,3582]},{"type":"Point","properties":{"Station_ID":"CSBP1","Station_Nam":"COOKSBURG","Latitude":"41.35750","Longitude":"-79.21720","Snowdepth":"10.000","Units":"in","Rept_Date":"2020-12-19 12"},"coordinates":[4229,3327]},{"type":"Point","properties":{"Station_ID":"CNRM1","Station_Nam":"CONNOR TWP","Latitude":"46.95830","Longitude":"-68.03330","Snowdepth":"10.000","Units":"in","Rept_Date":"2020-12-19 12"},"coordinates":[6854,6931]},{"type":"Point","properties":{"Station_ID":"CNDP1","Station_Nam":"CANADENSIS","Latitude":"41.18980","Longitude":"-75.23830","Snowdepth":"10.000","Units":"in","Rept_Date":"2020-12-19 12"},"coordinates":[5163,3219]},{"type":"Point","properties":{"Station_ID":"CAN-NL-82","Station_Nam":"GANDER 2.7 NW, CAN","Latitude":"48.97737","Longitude":"-54.63396","Snowdepth":"10.000","Units":"in","Rept_Date":"2020-12-19 10"},"coordinates":[9999,8230]},{"type":"Point","properties":{"Station_ID":"BLHM3","Station_Nam":"BLUE HILL COOP","Latitude":"42.21230","Longitude":"-71.11370","Snowdepth":"10.000","Units":"in","Rept_Date":"2020-12-19 12"},"coordinates":[6131,3877]},{"type":"Point","properties":{"Station_ID":"BAKC3","Station_Nam":"BAKERSVILLE","Latitude":"41.84180","Longitude":"-73.00850","Snowdepth":"10.000","Units":"in","Rept_Date":"2020-12-19 12"},"coordinates":[5687,3638]},{"type":"Point","properties":{"Station_ID":"AUDQ6","Station_Nam":"AUDEN","Latitude":"48.52600","Longitude":"-82.57570","Snowdepth":"10.000","Units":"in","Rept_Date":"2020-12-20 06"},"coordinates":[3441,7939]},{"type":"Point","properties":{"Station_ID":"ASBM3","Station_Nam":"ASHBURNHAM","Latitude":"42.61780","Longitude":"-71.91590","Snowdepth":"10.000","Units":"in","Rept_Date":"2020-12-19 12"},"coordinates":[5943,4138]},{"type":"Point","properties":{"Station_ID":"APN","Station_Nam":"PHELPS COLLINS FIELD","Latitude":"45.07810","Longitude":"-83.56030","Snowdepth":"10.000","Units":"in","Rept_Date":"2020-12-20 00"},"coordinates":[3210,5721]},{"type":"Point","properties":{"Station_ID":"ALPM4","Station_Nam":"SNOW PAID OBSERVER FOR KAPN","Latitude":"45.03110","Longitude":"-83.55970","Snowdepth":"10.000","Units":"in","Rept_Date":"2020-12-19 18"},"coordinates":[3210,5690]},{"type":"Point","properties":{"Station_ID":"QTM","Station_Nam":"QTM","Latitude":"51.05780","Longitude":"-72.57190","Snowdepth":"9.961","Units":"in","Rept_Date":"2020-12-19 12"},"coordinates":[5789,9568]},{"type":"Point","properties":{"Station_ID":"QGD","Station_Nam":"QGD","Latitude":"51.11140","Longitude":"-67.13940","Snowdepth":"9.724","Units":"in","Rept_Date":"2020-12-19 12"},"coordinates":[7064,9603]},{"type":"Point","properties":{"Station_ID":"PA-CB-16","Station_Nam":"JIM THORPE 1.1 NNE, PA","Latitude":"40.88582","Longitude":"-75.73320","Snowdepth":"9.700","Units":"in","Rept_Date":"2020-12-19 12"},"coordinates":[5047,3023]},{"type":"Point","properties":{"Station_ID":"QLP","Station_Nam":"QLP","Latitude":"48.13920","Longitude":"-72.63830","Snowdepth":"9.606","Units":"in","Rept_Date":"2020-12-19 12"},"coordinates":[5774,7690]},{"type":"Point","properties":{"Station_ID":"MA-MD-175","Station_Nam":"ARLINGTON 0.4 WNW, MA","Latitude":"42.42088","Longitude":"-71.17195","Snowdepth":"9.600","Units":"in","Rept_Date":"2020-12-19 12"},"coordinates":[6118,4011]},{"type":"Point","properties":{"Station_ID":"PA-YR-20","Station_Nam":"MOUNT WOLF 1.0 SE, PA","Latitude":"40.04881","Longitude":"-76.69480","Snowdepth":"9.500","Units":"in","Rept_Date":"2020-12-19 12"},"coordinates":[4821,2484]},{"type":"Point","properties":{"Station_ID":"PA-SN-2","Station_Nam":"SELINSGROVE 2.6 WNW, PA","Latitude":"40.81731","Longitude":"-76.90970","Snowdepth":"9.500","Units":"in","Rept_Date":"2020-12-19 12"},"coordinates":[4771,2979]},{"type":"Point","properties":{"Station_ID":"PA-PT-2","Station_Nam":"ROULETTE 1.8 NNE, PA","Latitude":"41.80759","Longitude":"-78.14140","Snowdepth":"9.500","Units":"in","Rept_Date":"2020-12-19 12"},"coordinates":[4482,3616]},{"type":"Point","properties":{"Station_ID":"PA-MN-16","Station_Nam":"MOUNT POCONO 0.7 N, PA","Latitude":"41.13190","Longitude":"-75.35804","Snowdepth":"9.500","Units":"in","Rept_Date":"2020-12-19 12"},"coordinates":[5135,3181]},{"type":"Point","properties":{"Station_ID":"MA-PL-23","Station_Nam":"PEMBROKE 2.8 SW, MA","Latitude":"42.03841","Longitude":"-70.83937","Snowdepth":"9.500","Units":"in","Rept_Date":"2020-12-19 13"},"coordinates":[6196,3765]},{"type":"Point","properties":{"Station_ID":"MA-MD-89","Station_Nam":"SUDBURY 3.6 W, MA","Latitude":"42.36394","Longitude":"-71.47012","Snowdepth":"9.500","Units":"in","Rept_Date":"2020-12-19 12"},"coordinates":[6048,3974]},{"type":"Point","properties":{"Station_ID":"MA-MD-160","Station_Nam":"READING 1.2 N, MA","Latitude":"42.55319","Longitude":"-71.10330","Snowdepth":"9.500","Units":"in","Rept_Date":"2020-12-19 11"},"coordinates":[6134,4096]},{"type":"Point","properties":{"Station_ID":"MA-ES-22","Station_Nam":"ROCKPORT 1.0 E, MA","Latitude":"42.64483","Longitude":"-70.59913","Snowdepth":"9.500","Units":"in","Rept_Date":"2020-12-19 12"},"coordinates":[6252,4155]},{"type":"Point","properties":{"Station_ID":"CT-NL-5","Station_Nam":"OAKDALE 2.6 WNW, CT","Latitude":"41.47524","Longitude":"-72.20550","Snowdepth":"9.500","Units":"in","Rept_Date":"2020-12-19 12"},"coordinates":[5875,3402]},{"type":"Point","properties":{"Station_ID":"MA-MD-156","Station_Nam":"MARLBOROUGH 2.8 ENE, MA","Latitude":"42.37021","Longitude":"-71.50011","Snowdepth":"9.300","Units":"in","Rept_Date":"2020-12-19 11"},"coordinates":[6041,3978]},{"type":"Point","properties":{"Station_ID":"WV-PR-10","Station_Nam":"TERRA ALTA 4.9 NNE, WV","Latitude":"39.51024","Longitude":"-79.51024","Snowdepth":"9.000","Units":"in","Rept_Date":"2020-12-19 13"},"coordinates":[4161,2138]},{"type":"Point","properties":{"Station_ID":"WENN3","Station_Nam":"P.O. BOX 197 WENTWORTH, NH","Latitude":"43.95190","Longitude":"-71.91560","Snowdepth":"9.000","Units":"in","Rept_Date":"2020-12-19 12"},"coordinates":[5943,4996]},{"type":"Point","properties":{"Station_ID":"TMWN3","Station_Nam":"TAMWORTH 4","Latitude":"43.86390","Longitude":"-71.26610","Snowdepth":"9.000","Units":"in","Rept_Date":"2020-12-19 12"},"coordinates":[6096,4939]},{"type":"Point","properties":{"Station_ID":"SPRP1","Station_Nam":"SPRINGTOWN 1 NNE","Latitude":"40.57110","Longitude":"-75.27810","Snowdepth":"9.000","Units":"in","Rept_Date":"2020-12-19 12"},"coordinates":[5154,2821]},{"type":"Point","properties":{"Station_ID":"SMTP1","Station_Nam":"SOUTH MOUNTAIN,PA","Latitude":"39.85000","Longitude":"-77.50000","Snowdepth":"9.000","Units":"in","Rept_Date":"2020-12-19 12"},"coordinates":[4633,2357]},{"type":"Point","properties":{"Station_ID":"SFVC3","Station_Nam":"STAFFORDVILLE","Latitude":"41.99840","Longitude":"-72.26060","Snowdepth":"9.000","Units":"in","Rept_Date":"2020-12-19 10"},"coordinates":[5862,3739]},{"type":"Point","properties":{"Station_ID":"RGNM1","Station_Nam":"RANGELEY 2NW","Latitude":"44.98940","Longitude":"-70.67220","Snowdepth":"9.000","Units":"in","Rept_Date":"2020-12-19 15"},"coordinates":[6235,5664]},{"type":"Point","properties":{"Station_ID":"RDWP1","Station_Nam":"RIDGWAY,PA","Latitude":"41.41670","Longitude":"-78.75000","Snowdepth":"9.000","Units":"in","Rept_Date":"2020-12-19 12"},"coordinates":[4339,3365]},{"type":"Point","properties":{"Station_ID":"PA-LZ-24","Station_Nam":"FORTY FORT 0.4 NNE, PA","Latitude":"41.29491","Longitude":"-75.86820","Snowdepth":"9.000","Units":"in","Rept_Date":"2020-12-19 12"},"coordinates":[5015,3286]},{"type":"Point","properties":{"Station_ID":"PA-BT-24","Station_Nam":"CABOT 0.3 N, PA","Latitude":"40.76870","Longitude":"-79.76690","Snowdepth":"9.000","Units":"in","Rept_Date":"2020-12-19 12"},"coordinates":[4100,2948]},{"type":"Point","properties":{"Station_ID":"NY-UL-16","Station_Nam":"ROSENDALE VILLAGE 1.8 WNW, NY","Latitude":"41.86083","Longitude":"-74.10750","Snowdepth":"9.000","Units":"in","Rept_Date":"2020-12-19 12"},"coordinates":[5429,3650]},{"type":"Point","properties":{"Station_ID":"NY-TM-3","Station_Nam":"ITHACA 1.1 SE, NY","Latitude":"42.43173","Longitude":"-76.48860","Snowdepth":"9.000","Units":"in","Rept_Date":"2020-12-19 12"},"coordinates":[4870,4018]},{"type":"Point","properties":{"Station_ID":"NY-SY-1","Station_Nam":"SMITH VALLEY 1.9 SE, NY","Latitude":"42.39072","Longitude":"-76.71760","Snowdepth":"9.000","Units":"in","Rept_Date":"2020-12-19 12"},"coordinates":[4816,3991]},{"type":"Point","properties":{"Station_ID":"NY-PT-2","Station_Nam":"BEACON 4.2 ESE, NY","Latitude":"41.48070","Longitude":"-73.89110","Snowdepth":"9.000","Units":"in","Rept_Date":"2020-12-19 12"},"coordinates":[5479,3406]},{"type":"Point","properties":{"Station_ID":"NY-OR-19","Station_Nam":"GREENWOOD LAKE 3.0 SW, NY","Latitude":"41.18900","Longitude":"-74.32650","Snowdepth":"9.000","Units":"in","Rept_Date":"2020-12-19 13"},"coordinates":[5377,3218]},{"type":"Point","properties":{"Station_ID":"NRNM3","Station_Nam":"NORTON WEST","Latitude":"41.99280","Longitude":"-71.16660","Snowdepth":"9.000","Units":"in","Rept_Date":"2020-12-19 12"},"coordinates":[6119,3735]},{"type":"Point","properties":{"Station_ID":"NJ-SS-57","Station_Nam":"SPARTA TWP 3.3 NW, NJ","Latitude":"41.08217","Longitude":"-74.67110","Snowdepth":"9.000","Units":"in","Rept_Date":"2020-12-19 13"},"coordinates":[5296,3149]},{"type":"Point","properties":{"Station_ID":"NJ-SS-54","Station_Nam":"SPARTA TWP 3.6 SSW, NJ","Latitude":"41.00503","Longitude":"-74.66358","Snowdepth":"9.000","Units":"in","Rept_Date":"2020-12-19 12"},"coordinates":[5298,3100]},{"type":"Point","properties":{"Station_ID":"NH-CS-10","Station_Nam":"RANDOLPH 1.4 NE, NH","Latitude":"44.38824","Longitude":"-71.26950","Snowdepth":"9.000","Units":"in","Rept_Date":"2020-12-19 12"},"coordinates":[6095,5277]},{"type":"Point","properties":{"Station_ID":"NH-CR-27","Station_Nam":"TAMWORTH 0.4 NNW, NH","Latitude":"43.86449","Longitude":"-71.26610","Snowdepth":"9.000","Units":"in","Rept_Date":"2020-12-19 12"},"coordinates":[6096,4940]},{"type":"Point","properties":{"Station_ID":"NCKN6","Station_Nam":"NORTH CREEK 5 SE","Latitude":"43.66110","Longitude":"-73.89690","Snowdepth":"9.000","Units":"in","Rept_Date":"2020-12-19 12"},"coordinates":[5478,4809]},{"type":"Point","properties":{"Station_ID":"MHT","Station_Nam":"MANCHESTER AIRPORT GRENIER INDSTRL ARPK","Latitude":"42.93440","Longitude":"-71.43690","Snowdepth":"9.000","Units":"in","Rept_Date":"2020-12-19 12"},"coordinates":[6055,4341]},{"type":"Point","properties":{"Station_ID":"MECN6","Station_Nam":"MECKLENBURG 4 SW","Latitude":"42.44220","Longitude":"-76.75740","Snowdepth":"9.000","Units":"in","Rept_Date":"2020-12-19 12"},"coordinates":[4807,4025]},{"type":"Point","properties":{"Station_ID":"ME-YK-65","Station_Nam":"NORTH BERWICK 5.3 W, ME","Latitude":"43.29801","Longitude":"-70.83956","Snowdepth":"9.000","Units":"in","Rept_Date":"2020-12-19 13"},"coordinates":[6196,4575]},{"type":"Point","properties":{"Station_ID":"ME-OX-26","Station_Nam":"OXFORD 5.3 SW, ME","Latitude":"44.09787","Longitude":"-70.59612","Snowdepth":"9.000","Units":"in","Rept_Date":"2020-12-19 12"},"coordinates":[6253,5090]},{"type":"Point","properties":{"Station_ID":"ME-CM-3","Station_Nam":"NEW GLOUCESTER 3.0 SE, ME","Latitude":"43.92372","Longitude":"-70.25790","Snowdepth":"9.000","Units":"in","Rept_Date":"2020-12-19 12"},"coordinates":[6332,4978]},{"type":"Point","properties":{"Station_ID":"MA-PL-31","Station_Nam":"BRIDGEWATER 1.8 SE, MA","Latitude":"41.97174","Longitude":"-70.94377","Snowdepth":"9.000","Units":"in","Rept_Date":"2020-12-19 12"},"coordinates":[6171,3722]},{"type":"Point","properties":{"Station_ID":"MA-NF-11","Station_Nam":"MILLIS 2.0 SW, MA","Latitude":"42.14602","Longitude":"-71.37940","Snowdepth":"9.000","Units":"in","Rept_Date":"2020-12-19 13"},"coordinates":[6069,3834]},{"type":"Point","properties":{"Station_ID":"MA-MD-47","Station_Nam":"WEST TOWNSEND 0.5 W, MA","Latitude":"42.67623","Longitude":"-71.74983","Snowdepth":"9.000","Units":"in","Rept_Date":"2020-12-19 11"},"coordinates":[5982,4175]},{"type":"Point","properties":{"Station_ID":"MA-MD-12","Station_Nam":"ACTON 1.3 SW, MA","Latitude":"42.46746","Longitude":"-71.48200","Snowdepth":"9.000","Units":"in","Rept_Date":"2020-12-19 12"},"coordinates":[6045,4041]},{"type":"Point","properties":{"Station_ID":"MA-BR-3","Station_Nam":"NORTON 1.8 NNE, MA","Latitude":"41.99270","Longitude":"-71.16660","Snowdepth":"9.000","Units":"in","Rept_Date":"2020-12-19 12"},"coordinates":[6119,3735]},{"type":"Point","properties":{"Station_ID":"LGHP1","Station_Nam":"LEHIGHTON 1SSW","Latitude":"40.82230","Longitude":"-75.69620","Snowdepth":"9.000","Units":"in","Rept_Date":"2020-12-19 13"},"coordinates":[5056,2982]},{"type":"Point","properties":{"Station_ID":"IPT","Station_Nam":"WILLIAMSPORT RGNL","Latitude":"41.24190","Longitude":"-76.92110","Snowdepth":"9.000","Units":"in","Rept_Date":"2020-12-19 12"},"coordinates":[4768,3252]},{"type":"Point","properties":{"Station_ID":"HVJP1","Station_Nam":"HIDDEN VALLEY COOP","Latitude":"40.04200","Longitude":"-79.25660","Snowdepth":"9.000","Units":"in","Rept_Date":"2020-12-19 13"},"coordinates":[4220,2480]},{"type":"Point","properties":{"Station_ID":"HRKM3","Station_Nam":"HARDWICK 2 ESE","Latitude":"42.34570","Longitude":"-72.15410","Snowdepth":"9.000","Units":"in","Rept_Date":"2020-12-19 13"},"coordinates":[5887,3962]},{"type":"Point","properties":{"Station_ID":"GYX","Station_Nam":"PORTLAND, ME","Latitude":"43.89250","Longitude":"-70.25500","Snowdepth":"9.000","Units":"in","Rept_Date":"2020-12-19 12"},"coordinates":[6333,4958]},{"type":"Point","properties":{"Station_ID":"GHMN3","Station_Nam":"PINKHAM NOTCH","Latitude":"44.25800","Longitude":"-71.25250","Snowdepth":"9.000","Units":"in","Rept_Date":"2020-12-19 10"},"coordinates":[6099,5193]},{"type":"Point","properties":{"Station_ID":"FCHM3","Station_Nam":"FITCHBURG COOP","Latitude":"42.61680","Longitude":"-71.80170","Snowdepth":"9.000","Units":"in","Rept_Date":"2020-12-19 13"},"coordinates":[5970,4137]},{"type":"Point","properties":{"Station_ID":"DJBP1","Station_Nam":"DUBOIS 2S","Latitude":"41.09470","Longitude":"-78.75550","Snowdepth":"9.000","Units":"in","Rept_Date":"2020-12-19 14"},"coordinates":[4338,3157]},{"type":"Point","properties":{"Station_ID":"CT-WN-2","Station_Nam":"NORTH GROSVENOR DALE 1.7 SSE, CT","Latitude":"41.96227","Longitude":"-71.88700","Snowdepth":"9.000","Units":"in","Rept_Date":"2020-12-19 12"},"coordinates":[5950,3716]},{"type":"Point","properties":{"Station_ID":"CT-TL-2","Station_Nam":"STAFFORDVILLE 0.4 NNW, CT","Latitude":"41.99874","Longitude":"-72.26100","Snowdepth":"9.000","Units":"in","Rept_Date":"2020-12-19 11"},"coordinates":[5862,3739]},{"type":"Point","properties":{"Station_ID":"CT-NH-47","Station_Nam":"SEYMOUR 1.5 NE, CT","Latitude":"41.40313","Longitude":"-73.04835","Snowdepth":"9.000","Units":"in","Rept_Date":"2020-12-19 12"},"coordinates":[5677,3356]},{"type":"Point","properties":{"Station_ID":"CT-NH-22","Station_Nam":"PROSPECT 0.5 SW, CT","Latitude":"41.49734","Longitude":"-72.98605","Snowdepth":"9.000","Units":"in","Rept_Date":"2020-12-19 13"},"coordinates":[5692,3417]},{"type":"Point","properties":{"Station_ID":"CT-MD-21","Station_Nam":"KILLINGWORTH 2.6 ESE, CT","Latitude":"41.34499","Longitude":"-72.51757","Snowdepth":"9.000","Units":"in","Rept_Date":"2020-12-19 12"},"coordinates":[5802,3319]},{"type":"Point","properties":{"Station_ID":"CT-HR-82","Station_Nam":"SUFFIELD 0.5 NNE, CT","Latitude":"41.99783","Longitude":"-72.69896","Snowdepth":"9.000","Units":"in","Rept_Date":"2020-12-19 12"},"coordinates":[5759,3739]},{"type":"Point","properties":{"Station_ID":"CT-HR-8","Station_Nam":"NORTH GRANBY 1.3 ENE, CT","Latitude":"42.02440","Longitude":"-72.82070","Snowdepth":"9.000","Units":"in","Rept_Date":"2020-12-19 12"},"coordinates":[5731,3756]},{"type":"Point","properties":{"Station_ID":"CT-HR-22","Station_Nam":"EAST HARTFORD 1.3 E, CT","Latitude":"41.75716","Longitude":"-72.59160","Snowdepth":"9.000","Units":"in","Rept_Date":"2020-12-19 13"},"coordinates":[5784,3584]},{"type":"Point","properties":{"Station_ID":"CT-HR-15","Station_Nam":"SOUTHINGTON 3.0 E, CT","Latitude":"41.60798","Longitude":"-72.82220","Snowdepth":"9.000","Units":"in","Rept_Date":"2020-12-19 12"},"coordinates":[5730,3488]},{"type":"Point","properties":{"Station_ID":"CT-FR-85","Station_Nam":"DANBURY 3.0 W, CT","Latitude":"41.39710","Longitude":"-73.52960","Snowdepth":"9.000","Units":"in","Rept_Date":"2020-12-19 13"},"coordinates":[5564,3352]},{"type":"Point","properties":{"Station_ID":"CT-FR-41","Station_Nam":"BETHEL 3.5 NNE, CT","Latitude":"41.42154","Longitude":"-73.39820","Snowdepth":"9.000","Units":"in","Rept_Date":"2020-12-19 14"},"coordinates":[5595,3368]},{"type":"Point","properties":{"Station_ID":"CORV1","Station_Nam":"CORINTH","Latitude":"44.00690","Longitude":"-72.31940","Snowdepth":"9.000","Units":"in","Rept_Date":"2020-12-19 12"},"coordinates":[5848,5031]},{"type":"Point","properties":{"Station_ID":"CARM1","Station_Nam":"CARIBOU WFO","Latitude":"46.86810","Longitude":"-68.01250","Snowdepth":"9.000","Units":"in","Rept_Date":"2020-12-20 05"},"coordinates":[6859,6872]},{"type":"Point","properties":{"Station_ID":"CAR","Station_Nam":"CARIBOU, ME","Latitude":"46.86830","Longitude":"-68.01360","Snowdepth":"9.000","Units":"in","Rept_Date":"2020-12-19 12"},"coordinates":[6859,6873]},{"type":"Point","properties":{"Station_ID":"BKBW2","Station_Nam":"DAVIS.","Latitude":"39.09830","Longitude":"-79.43190","Snowdepth":"9.000","Units":"in","Rept_Date":"2020-12-19 12"},"coordinates":[4179,1873]},{"type":"Point","properties":{"Station_ID":"BEVM3","Station_Nam":"BEVERLY","Latitude":"42.58800","Longitude":"-70.83710","Snowdepth":"9.000","Units":"in","Rept_Date":"2020-12-19 12"},"coordinates":[6196,4118]},{"type":"Point","properties":{"Station_ID":"BDR","Station_Nam":"SIKORSKY MEMORIAL AIRPORT","Latitude":"41.16330","Longitude":"-73.12670","Snowdepth":"9.000","Units":"in","Rept_Date":"2020-12-19 12"},"coordinates":[5659,3202]},{"type":"Point","properties":{"Station_ID":"QLM","Station_Nam":"QLM","Latitude":"48.92030","Longitude":"-70.25280","Snowdepth":"8.976","Units":"in","Rept_Date":"2020-12-19 12"},"coordinates":[6333,8193]},{"type":"Point","properties":{"Station_ID":"VT-OG-14","Station_Nam":"BRADFORD 2.2 NNW, VT","Latitude":"44.02268","Longitude":"-72.14756","Snowdepth":"8.500","Units":"in","Rept_Date":"2020-12-19 13"},"coordinates":[5889,5042]},{"type":"Point","properties":{"Station_ID":"PA-LC-28","Station_Nam":"CLARKS GREEN 0.5 N, PA","Latitude":"41.50670","Longitude":"-75.69530","Snowdepth":"8.500","Units":"in","Rept_Date":"2020-12-19 14"},"coordinates":[5056,3423]},{"type":"Point","properties":{"Station_ID":"PA-CD-19","Station_Nam":"CARLISLE 7.2 SSW, PA","Latitude":"40.11250","Longitude":"-77.27740","Snowdepth":"8.500","Units":"in","Rept_Date":"2020-12-19 13"},"coordinates":[4685,2525]},{"type":"Point","properties":{"Station_ID":"NY-WC-6","Station_Nam":"SOUTH SALEM 2.1 NW, NY","Latitude":"41.30030","Longitude":"-73.57000","Snowdepth":"8.500","Units":"in","Rept_Date":"2020-12-19 12"},"coordinates":[5555,3290]},{"type":"Point","properties":{"Station_ID":"NJ-SS-7","Station_Nam":"HARDYSTON TWP 3.2 SE, NJ","Latitude":"41.08903","Longitude":"-74.53990","Snowdepth":"8.500","Units":"in","Rept_Date":"2020-12-19 13"},"coordinates":[5327,3154]},{"type":"Point","properties":{"Station_ID":"NJ-SS-1","Station_Nam":"ANDOVER TWP 1.7 W, NJ","Latitude":"41.01974","Longitude":"-74.76110","Snowdepth":"8.500","Units":"in","Rept_Date":"2020-12-19 12"},"coordinates":[5275,3109]},{"type":"Point","properties":{"Station_ID":"NH-GR-56","Station_Nam":"EASTON 0.6 ESE, NH","Latitude":"44.14790","Longitude":"-71.78950","Snowdepth":"8.500","Units":"in","Rept_Date":"2020-12-19 13"},"coordinates":[5973,5122]},{"type":"Point","properties":{"Station_ID":"NH-BK-26","Station_Nam":"MEREDITH 3.3 NNE, NH","Latitude":"43.69844","Longitude":"-71.46930","Snowdepth":"8.500","Units":"in","Rept_Date":"2020-12-19 13"},"coordinates":[6048,4833]},{"type":"Point","properties":{"Station_ID":"ME-LN-1","Station_Nam":"NEWCASTLE 2.1 SW, ME","Latitude":"44.02767","Longitude":"-69.56860","Snowdepth":"8.500","Units":"in","Rept_Date":"2020-12-19 12"},"coordinates":[6494,5045]},{"type":"Point","properties":{"Station_ID":"MA-PL-15","Station_Nam":"ABINGTON 1.2 NNE, MA","Latitude":"42.13426","Longitude":"-70.95208","Snowdepth":"8.500","Units":"in","Rept_Date":"2020-12-19 12"},"coordinates":[6169,3826]},{"type":"Point","properties":{"Station_ID":"MA-HD-28","Station_Nam":"WESTFIELD 2.8 SE, MA","Latitude":"42.10685","Longitude":"-72.72148","Snowdepth":"8.500","Units":"in","Rept_Date":"2020-12-19 11"},"coordinates":[5754,3809]},{"type":"Point","properties":{"Station_ID":"MA-BR-30","Station_Nam":"TAUNTON 3.9 N, MA","Latitude":"41.95813","Longitude":"-71.08211","Snowdepth":"8.500","Units":"in","Rept_Date":"2020-12-19 12"},"coordinates":[6139,3713]},{"type":"Point","properties":{"Station_ID":"CT-NH-45","Station_Nam":"NAUGATUCK 1.7 NNE, CT","Latitude":"41.51100","Longitude":"-73.03695","Snowdepth":"8.500","Units":"in","Rept_Date":"2020-12-19 12"},"coordinates":[5680,3425]},{"type":"Point","properties":{"Station_ID":"CT-NH-43","Station_Nam":"WALLINGFORD CENTER 3.3 NNW, CT","Latitude":"41.49109","Longitude":"-72.85065","Snowdepth":"8.500","Units":"in","Rept_Date":"2020-12-19 12"},"coordinates":[5724,3413]},{"type":"Point","properties":{"Station_ID":"CT-MD-25","Station_Nam":"MIDDLEFIELD 0.6 SE, CT","Latitude":"41.51030","Longitude":"-72.70500","Snowdepth":"8.500","Units":"in","Rept_Date":"2020-12-19 12"},"coordinates":[5758,3425]},{"type":"Point","properties":{"Station_ID":"CT-LT-37","Station_Nam":"NEW MILFORD 3.1 WNW, CT","Latitude":"41.59784","Longitude":"-73.46574","Snowdepth":"8.500","Units":"in","Rept_Date":"2020-12-19 12"},"coordinates":[5579,3481]},{"type":"Point","properties":{"Station_ID":"CT-LT-34","Station_Nam":"WOODBURY CENTER 1.5 SSW, CT","Latitude":"41.52870","Longitude":"-73.22250","Snowdepth":"8.500","Units":"in","Rept_Date":"2020-12-19 12"},"coordinates":[5636,3437]},{"type":"Point","properties":{"Station_ID":"CT-LT-22","Station_Nam":"NEW MILFORD 5.3 SSW, CT","Latitude":"41.51472","Longitude":"-73.43604","Snowdepth":"8.500","Units":"in","Rept_Date":"2020-12-19 13"},"coordinates":[5586,3428]},{"type":"Point","properties":{"Station_ID":"CT-HR-65","Station_Nam":"NEWINGTON 1.9 SSW, CT","Latitude":"41.66021","Longitude":"-72.74087","Snowdepth":"8.500","Units":"in","Rept_Date":"2020-12-19 12"},"coordinates":[5749,3521]},{"type":"Point","properties":{"Station_ID":"VT-WR-22","Station_Nam":"ROCHESTER 0.3 NE, VT","Latitude":"43.87816","Longitude":"-72.80459","Snowdepth":"8.300","Units":"in","Rept_Date":"2020-12-19 12"},"coordinates":[5734,4949]},{"type":"Point","properties":{"Station_ID":"NY-TM-36","Station_Nam":"ITHACA 2.0 ESE, NY","Latitude":"42.42932","Longitude":"-76.46871","Snowdepth":"8.300","Units":"in","Rept_Date":"2020-12-19 17"},"coordinates":[4875,4016]},{"type":"Point","properties":{"Station_ID":"NJ-SS-39","Station_Nam":"WANTAGE TWP 1.6 SE, NJ","Latitude":"41.22830","Longitude":"-74.60330","Snowdepth":"8.300","Units":"in","Rept_Date":"2020-12-19 12"},"coordinates":[5312,3243]},{"type":"Point","properties":{"Station_ID":"NJ-SS-52","Station_Nam":"NEWTON 0.9 S, NJ","Latitude":"41.04186","Longitude":"-74.75164","Snowdepth":"8.200","Units":"in","Rept_Date":"2020-12-19 12"},"coordinates":[5278,3123]},{"type":"Point","properties":{"Station_ID":"WSTN6","Station_Nam":"WESTMORELAND 4 N","Latitude":"43.15950","Longitude":"-75.46110","Snowdepth":"8.000","Units":"in","Rept_Date":"2020-12-19 12"},"coordinates":[5111,4486]},{"type":"Point","properties":{"Station_ID":"WHTN6","Station_Nam":"WHITESVILLE","Latitude":"42.05980","Longitude":"-77.75530","Snowdepth":"8.000","Units":"in","Rept_Date":"2020-12-19 12"},"coordinates":[4573,3778]},{"type":"Point","properties":{"Station_ID":"SMRP1","Station_Nam":"SOMERSET,PA","Latitude":"40.00000","Longitude":"-79.08330","Snowdepth":"8.000","Units":"in","Rept_Date":"2020-12-19 13"},"coordinates":[4261,2453]},{"type":"Point","properties":{"Station_ID":"SCHP1","Station_Nam":"FREEPORT DAM","Latitude":"40.68420","Longitude":"-79.66810","Snowdepth":"8.000","Units":"in","Rept_Date":"2020-12-19 12"},"coordinates":[4124,2893]},{"type":"Point","properties":{"Station_ID":"RI-PR-82","Station_Nam":"PROVIDENCE 1.6 NNW, RI","Latitude":"41.84110","Longitude":"-71.43575","Snowdepth":"8.000","Units":"in","Rept_Date":"2020-12-19 12"},"coordinates":[6056,3638]},{"type":"Point","properties":{"Station_ID":"RI-KN-2","Station_Nam":"EAST GREENWICH 2.3 ESE, RI","Latitude":"41.66251","Longitude":"-71.41590","Snowdepth":"8.000","Units":"in","Rept_Date":"2020-12-19 12"},"coordinates":[6060,3523]},{"type":"Point","properties":{"Station_ID":"PSM","Station_Nam":"PEASE INTL TRADEPORT AP","Latitude":"43.07810","Longitude":"-70.82330","Snowdepth":"8.000","Units":"in","Rept_Date":"2020-12-19 12"},"coordinates":[6199,4434]},{"type":"Point","properties":{"Station_ID":"PA-WT-22","Station_Nam":"IRWIN 0.2 W, PA","Latitude":"40.32629","Longitude":"-79.70293","Snowdepth":"8.000","Units":"in","Rept_Date":"2020-12-19 11"},"coordinates":[4115,2663]},{"type":"Point","properties":{"Station_ID":"PA-WS-5","Station_Nam":"MCMURRAY 0.2 NE, PA","Latitude":"40.28311","Longitude":"-80.08570","Snowdepth":"8.000","Units":"in","Rept_Date":"2020-12-19 12"},"coordinates":[4026,2635]},{"type":"Point","properties":{"Station_ID":"PA-FR-2","Station_Nam":"MARIENVILLE 5.3 W, PA","Latitude":"41.45710","Longitude":"-79.18150","Snowdepth":"8.000","Units":"in","Rept_Date":"2020-12-19 11"},"coordinates":[4238,3391]},{"type":"Point","properties":{"Station_ID":"PA-FR-1","Station_Nam":"TIONESTA 7.3 SSE, PA","Latitude":"41.39404","Longitude":"-79.41310","Snowdepth":"8.000","Units":"in","Rept_Date":"2020-12-19 12"},"coordinates":[4184,3350]},{"type":"Point","properties":{"Station_ID":"PA-BT-40","Station_Nam":"CABOT 1.6 WNW, PA","Latitude":"40.77250","Longitude":"-79.79560","Snowdepth":"8.000","Units":"in","Rept_Date":"2020-12-19 12"},"coordinates":[4094,2950]},{"type":"Point","properties":{"Station_ID":"PA-BR-21","Station_Nam":"ALBURTIS 4.7 SW, PA","Latitude":"40.46515","Longitude":"-75.66820","Snowdepth":"8.000","Units":"in","Rept_Date":"2020-12-19 12"},"coordinates":[5062,2752]},{"type":"Point","properties":{"Station_ID":"PA-AL-92","Station_Nam":"ASPINWALL 0.0 NW, PA","Latitude":"40.49283","Longitude":"-79.90432","Snowdepth":"8.000","Units":"in","Rept_Date":"2020-12-19 12"},"coordinates":[4068,2770]},{"type":"Point","properties":{"Station_ID":"PA-AL-64","Station_Nam":"MCCANDLESS TOWNSHIP 1.9 S, PA","Latitude":"40.55691","Longitude":"-80.03662","Snowdepth":"8.000","Units":"in","Rept_Date":"2020-12-19 12"},"coordinates":[4037,2811]},{"type":"Point","properties":{"Station_ID":"PA-AL-1","Station_Nam":"BRIDGEVILLE 1.4 SW, PA","Latitude":"40.34174","Longitude":"-80.12290","Snowdepth":"8.000","Units":"in","Rept_Date":"2020-12-19 12"},"coordinates":[4017,2673]},{"type":"Point","properties":{"Station_ID":"ONAM4","Station_Nam":"ONAWAY 4N","Latitude":"45.41080","Longitude":"-84.22330","Snowdepth":"8.000","Units":"in","Rept_Date":"2020-12-19 23"},"coordinates":[3055,5935]},{"type":"Point","properties":{"Station_ID":"NY-WC-22","Station_Nam":"SOUTH SALEM 0.8 N, NY","Latitude":"41.28479","Longitude":"-73.55279","Snowdepth":"8.000","Units":"in","Rept_Date":"2020-12-19 13"},"coordinates":[5559,3280]},{"type":"Point","properties":{"Station_ID":"NY-TM-4","Station_Nam":"GROTON 0.5 NW, NY","Latitude":"42.59127","Longitude":"-76.37200","Snowdepth":"8.000","Units":"in","Rept_Date":"2020-12-19 12"},"coordinates":[4897,4120]},{"type":"Point","properties":{"Station_ID":"NY-SY-14","Station_Nam":"MECKLENBURG 1.2 SE, NY","Latitude":"42.44944","Longitude":"-76.69046","Snowdepth":"8.000","Units":"in","Rept_Date":"2020-12-19 11"},"coordinates":[4823,4029]},{"type":"Point","properties":{"Station_ID":"NY-OD-21","Station_Nam":"ROME 4.8 SSE, NY","Latitude":"43.16000","Longitude":"-75.46000","Snowdepth":"8.000","Units":"in","Rept_Date":"2020-12-19 12"},"coordinates":[5111,4486]},{"type":"Point","properties":{"Station_ID":"NY-MD-10","Station_Nam":"CAZENOVIA 2.9 SE, NY","Latitude":"42.90003","Longitude":"-75.81140","Snowdepth":"8.000","Units":"in","Rept_Date":"2020-12-19 12"},"coordinates":[5029,4319]},{"type":"Point","properties":{"Station_ID":"NTHM3","Station_Nam":"NORTHBRIDGE 2","Latitude":"42.11500","Longitude":"-71.67600","Snowdepth":"8.000","Units":"in","Rept_Date":"2020-12-19 13"},"coordinates":[5999,3814]},{"type":"Point","properties":{"Station_ID":"NRWC3","Station_Nam":"NORWICH PUBLIC UTILITY PLANT","Latitude":"41.52690","Longitude":"-72.06420","Snowdepth":"8.000","Units":"in","Rept_Date":"2020-12-19 12"},"coordinates":[5908,3436]},{"type":"Point","properties":{"Station_ID":"NJ-WR-37","Station_Nam":"BLAIRSTOWN TWP 2.2 ESE, NJ","Latitude":"40.97150","Longitude":"-74.91980","Snowdepth":"8.000","Units":"in","Rept_Date":"2020-12-19 12"},"coordinates":[5238,3078]},{"type":"Point","properties":{"Station_ID":"MYOM4","Station_Nam":"MIO WWTP","Latitude":"44.64660","Longitude":"-84.11580","Snowdepth":"8.000","Units":"in","Rept_Date":"2020-12-19 13"},"coordinates":[3080,5443]},{"type":"Point","properties":{"Station_ID":"MI-OT-17","Station_Nam":"GAYLORD 4.1 S, MI","Latitude":"44.96388","Longitude":"-84.68467","Snowdepth":"8.000","Units":"in","Rept_Date":"2020-12-19 13"},"coordinates":[2946,5647]},{"type":"Point","properties":{"Station_ID":"ME-KX-12","Station_Nam":"UNION 3.0 W, ME","Latitude":"44.21320","Longitude":"-69.34160","Snowdepth":"8.000","Units":"in","Rept_Date":"2020-12-19 12"},"coordinates":[6547,5164]},{"type":"Point","properties":{"Station_ID":"ME-KX-10","Station_Nam":"UNION 2.1 NNE, ME","Latitude":"44.23693","Longitude":"-69.27170","Snowdepth":"8.000","Units":"in","Rept_Date":"2020-12-19 12"},"coordinates":[6564,5179]},{"type":"Point","properties":{"Station_ID":"ME-AR-15","Station_Nam":"PRESQUE ISLE 1.3 WSW, ME","Latitude":"46.67960","Longitude":"-68.01270","Snowdepth":"8.000","Units":"in","Rept_Date":"2020-12-19 12"},"coordinates":[6859,6751]},{"type":"Point","properties":{"Station_ID":"MA-WR-55","Station_Nam":"HARVARD 2.1 S, MA","Latitude":"42.46891","Longitude":"-71.58360","Snowdepth":"8.000","Units":"in","Rept_Date":"2020-12-19 12"},"coordinates":[6021,4042]},{"type":"Point","properties":{"Station_ID":"MA-WR-54","Station_Nam":"BARRE 1.4 NNE, MA","Latitude":"42.44082","Longitude":"-72.09591","Snowdepth":"8.000","Units":"in","Rept_Date":"2020-12-19 12"},"coordinates":[5901,4024]},{"type":"Point","properties":{"Station_ID":"MA-WR-41","Station_Nam":"AUBURN 2.6 SW, MA","Latitude":"42.17336","Longitude":"-71.86869","Snowdepth":"8.000","Units":"in","Rept_Date":"2020-12-19 13"},"coordinates":[5954,3852]},{"type":"Point","properties":{"Station_ID":"MA-WR-18","Station_Nam":"NORTHBOROUGH 0.6 SSE, MA","Latitude":"42.30367","Longitude":"-71.64620","Snowdepth":"8.000","Units":"in","Rept_Date":"2020-12-19 13"},"coordinates":[6006,3935]},{"type":"Point","properties":{"Station_ID":"MA-PL-36","Station_Nam":"HINGHAM 0.8 ESE, MA","Latitude":"42.23093","Longitude":"-70.87448","Snowdepth":"8.000","Units":"in","Rept_Date":"2020-12-19 12"},"coordinates":[6187,3889]},{"type":"Point","properties":{"Station_ID":"MA-PL-22","Station_Nam":"EAST BRIDGEWATER 0.3 WSW, MA","Latitude":"42.03202","Longitude":"-70.95479","Snowdepth":"8.000","Units":"in","Rept_Date":"2020-12-19 12"},"coordinates":[6169,3761]},{"type":"Point","properties":{"Station_ID":"MA-MD-52","Station_Nam":"LEXINGTON 0.6 SW, MA","Latitude":"42.43983","Longitude":"-71.24047","Snowdepth":"8.000","Units":"in","Rept_Date":"2020-12-19 12"},"coordinates":[6102,4023]},{"type":"Point","properties":{"Station_ID":"MA-MD-51","Station_Nam":"MAYNARD 0.7 ESE, MA","Latitude":"42.42027","Longitude":"-71.44484","Snowdepth":"8.000","Units":"in","Rept_Date":"2020-12-19 12"},"coordinates":[6054,4010]},{"type":"Point","properties":{"Station_ID":"MA-MD-42","Station_Nam":"HOLLISTON 0.8 S, MA","Latitude":"42.18820","Longitude":"-71.43390","Snowdepth":"8.000","Units":"in","Rept_Date":"2020-12-19 12"},"coordinates":[6056,3861]},{"type":"Point","properties":{"Station_ID":"MA-ES-70","Station_Nam":"NEWBURYPORT 0.6 N, MA","Latitude":"42.82278","Longitude":"-70.88940","Snowdepth":"8.000","Units":"in","Rept_Date":"2020-12-19 12"},"coordinates":[6184,4269]},{"type":"Point","properties":{"Station_ID":"MA-BR-61","Station_Nam":"MANSFIELD 2.4 ENE, MA","Latitude":"42.03591","Longitude":"-71.17473","Snowdepth":"8.000","Units":"in","Rept_Date":"2020-12-19 12"},"coordinates":[6117,3763]},{"type":"Point","properties":{"Station_ID":"LWMM3","Station_Nam":"LAWRENCE","Latitude":"42.69930","Longitude":"-71.16590","Snowdepth":"8.000","Units":"in","Rept_Date":"2020-12-19 12"},"coordinates":[6119,4190]},{"type":"Point","properties":{"Station_ID":"KBDL","Station_Nam":"BRADLEY INTERNATIONAL AIRPORT","Latitude":"41.93333","Longitude":"-72.68333","Snowdepth":"8.000","Units":"in","Rept_Date":"2020-12-20 06"},"coordinates":[5763,3697]},{"type":"Point","properties":{"Station_ID":"HTLM4","Station_Nam":"SNOW PAID OBSERVER FOR KHTL","Latitude":"44.34470","Longitude":"-84.67730","Snowdepth":"8.000","Units":"in","Rept_Date":"2020-12-19 18"},"coordinates":[2948,5249]},{"type":"Point","properties":{"Station_ID":"HINM3","Station_Nam":"HINGHAM","Latitude":"42.22690","Longitude":"-70.91250","Snowdepth":"8.000","Units":"in","Rept_Date":"2020-12-20 00"},"coordinates":[6179,3886]},{"type":"Point","properties":{"Station_ID":"HERM4","Station_Nam":"HERMAN,MI","Latitude":"46.65000","Longitude":"-88.33330","Snowdepth":"8.000","Units":"in","Rept_Date":"2020-12-19 13"},"coordinates":[2090,6732]},{"type":"Point","properties":{"Station_ID":"GULC3","Station_Nam":"GUILFORD","Latitude":"41.28590","Longitude":"-72.67140","Snowdepth":"8.000","Units":"in","Rept_Date":"2020-12-19 12"},"coordinates":[5766,3280]},{"type":"Point","properties":{"Station_ID":"GREN3","Station_Nam":"GREENVILLE 1 NNE","Latitude":"42.78270","Longitude":"-71.79850","Snowdepth":"8.000","Units":"in","Rept_Date":"2020-12-19 13"},"coordinates":[5971,4244]},{"type":"Point","properties":{"Station_ID":"FISM1","Station_Nam":"FORT KENT COOP","Latitude":"47.23850","Longitude":"-68.61240","Snowdepth":"8.000","Units":"in","Rept_Date":"2020-12-19 12"},"coordinates":[6718,7111]},{"type":"Point","properties":{"Station_ID":"CT-WN-4","Station_Nam":"EAST KILLINGLY 1.3 SW, CT","Latitude":"41.83813","Longitude":"-71.83910","Snowdepth":"8.000","Units":"in","Rept_Date":"2020-12-19 10"},"coordinates":[5961,3636]},{"type":"Point","properties":{"Station_ID":"CSLP1","Station_Nam":"CARLISLE WATER PLANT","Latitude":"40.22580","Longitude":"-77.18940","Snowdepth":"8.000","Units":"in","Rept_Date":"2020-12-19 12"},"coordinates":[4705,2598]},{"type":"Point","properties":{"Station_ID":"CARN6","Station_Nam":"CARMEL 4N","Latitude":"41.47250","Longitude":"-73.65500","Snowdepth":"8.000","Units":"in","Rept_Date":"2020-12-19 13"},"coordinates":[5535,3401]},{"type":"Point","properties":{"Station_ID":"CAAW2","Station_Nam":"CANAAN VALLEY","Latitude":"39.05890","Longitude":"-79.44030","Snowdepth":"8.000","Units":"in","Rept_Date":"2020-12-19 14"},"coordinates":[4177,1847]},{"type":"Point","properties":{"Station_ID":"ALOP1","Station_Nam":"ALTOONA 2","Latitude":"40.52670","Longitude":"-78.36940","Snowdepth":"8.000","Units":"in","Rept_Date":"2020-12-20 05"},"coordinates":[4428,2792]},{"type":"Point","properties":{"Station_ID":"QWG","Station_Nam":"QWG","Latitude":"48.48890","Longitude":"-73.45940","Snowdepth":"7.953","Units":"in","Rept_Date":"2020-12-19 12"},"coordinates":[5581,7915]},{"type":"Point","properties":{"Station_ID":"QLI","Station_Nam":"QLI","Latitude":"50.27080","Longitude":"-73.92280","Snowdepth":"7.913","Units":"in","Rept_Date":"2020-12-19 12"},"coordinates":[5472,9062]},{"type":"Point","properties":{"Station_ID":"PA-WT-9","Station_Nam":"GREENSBURG 0.6 WNW, PA","Latitude":"40.31358","Longitude":"-79.55432","Snowdepth":"7.900","Units":"in","Rept_Date":"2020-12-19 12"},"coordinates":[4150,2655]},{"type":"Point","properties":{"Station_ID":"MA-MD-104","Station_Nam":"LITTLETON 2.8 NNW, MA","Latitude":"42.57170","Longitude":"-71.49910","Snowdepth":"7.900","Units":"in","Rept_Date":"2020-12-19 13"},"coordinates":[6041,4108]},{"type":"Point","properties":{"Station_ID":"PA-NH-15","Station_Nam":"PORTLAND 2.7 WNW, PA","Latitude":"40.93750","Longitude":"-75.14450","Snowdepth":"7.700","Units":"in","Rept_Date":"2020-12-19 12"},"coordinates":[5185,3056]},{"type":"Point","properties":{"Station_ID":"OGIQ6","Station_Nam":"OGOKI CAMP","Latitude":"50.76680","Longitude":"-87.85820","Snowdepth":"7.600","Units":"in","Rept_Date":"2020-12-20 06"},"coordinates":[2202,9381]},{"type":"Point","properties":{"Station_ID":"KABQ6","Station_Nam":"CAB LAKE","Latitude":"49.59950","Longitude":"-89.17990","Snowdepth":"7.600","Units":"in","Rept_Date":"2020-12-20 06"},"coordinates":[1891,8630]},{"type":"Point","properties":{"Station_ID":"SOCQ6","Station_Nam":"SOCKET LAKE","Latitude":"50.77870","Longitude":"-91.79300","Snowdepth":"7.520","Units":"in","Rept_Date":"2020-12-20 06"},"coordinates":[1278,9389]},{"type":"Point","properties":{"Station_ID":"RI-WS-66","Station_Nam":"NARRAGANSETT 2.9 N, RI","Latitude":"41.49263","Longitude":"-71.44605","Snowdepth":"7.500","Units":"in","Rept_Date":"2020-12-19 12"},"coordinates":[6053,3414]},{"type":"Point","properties":{"Station_ID":"RI-KN-14","Station_Nam":"GREENE 1.4 E, RI","Latitude":"41.69155","Longitude":"-71.72380","Snowdepth":"7.500","Units":"in","Rept_Date":"2020-12-19 12"},"coordinates":[5988,3542]},{"type":"Point","properties":{"Station_ID":"PA-YR-2","Station_Nam":"DOVER 4.2 WSW, PA","Latitude":"39.97336","Longitude":"-76.91780","Snowdepth":"7.500","Units":"in","Rept_Date":"2020-12-19 10"},"coordinates":[4769,2436]},{"type":"Point","properties":{"Station_ID":"PA-WT-19","Station_Nam":"LEECHBURG 1.4 SW, PA","Latitude":"40.61529","Longitude":"-79.62137","Snowdepth":"7.500","Units":"in","Rept_Date":"2020-12-19 13"},"coordinates":[4135,2849]},{"type":"Point","properties":{"Station_ID":"PA-CB-12","Station_Nam":"BOWMANSTOWN 3.0 WSW, PA","Latitude":"40.77897","Longitude":"-75.71130","Snowdepth":"7.500","Units":"in","Rept_Date":"2020-12-19 17"},"coordinates":[5052,2954]},{"type":"Point","properties":{"Station_ID":"PA-BD-11","Station_Nam":"EVERETT 3.9 W, PA","Latitude":"40.02210","Longitude":"-78.43810","Snowdepth":"7.500","Units":"in","Rept_Date":"2020-12-19 12"},"coordinates":[4412,2467]},{"type":"Point","properties":{"Station_ID":"PA-AR-7","Station_Nam":"KITTANNING 1.3 SSW, PA","Latitude":"40.80945","Longitude":"-79.53059","Snowdepth":"7.500","Units":"in","Rept_Date":"2020-12-19 12"},"coordinates":[4156,2974]},{"type":"Point","properties":{"Station_ID":"PA-AL-69","Station_Nam":"GIBSONIA 1.2 NE, PA","Latitude":"40.64052","Longitude":"-79.95061","Snowdepth":"7.500","Units":"in","Rept_Date":"2020-12-19 10"},"coordinates":[4057,2865]},{"type":"Point","properties":{"Station_ID":"NY-WC-18","Station_Nam":"ARMONK 0.3 SE, NY","Latitude":"41.12996","Longitude":"-73.70816","Snowdepth":"7.500","Units":"in","Rept_Date":"2020-12-19 13"},"coordinates":[5522,3180]},{"type":"Point","properties":{"Station_ID":"NJ-MS-94","Station_Nam":"JEFFERSON TWP 4.4 SW, NJ","Latitude":"40.96404","Longitude":"-74.62162","Snowdepth":"7.500","Units":"in","Rept_Date":"2020-12-19 13"},"coordinates":[5308,3073]},{"type":"Point","properties":{"Station_ID":"NJ-MS-4","Station_Nam":"ROCKAWAY TWP 0.7 NE, NJ","Latitude":"40.96583","Longitude":"-74.48780","Snowdepth":"7.500","Units":"in","Rept_Date":"2020-12-19 14"},"coordinates":[5339,3075]},{"type":"Point","properties":{"Station_ID":"NJ-HN-12","Station_Nam":"HOLLAND TWP 2.6 NNE, NJ","Latitude":"40.63168","Longitude":"-75.10450","Snowdepth":"7.500","Units":"in","Rept_Date":"2020-12-19 11"},"coordinates":[5195,2860]},{"type":"Point","properties":{"Station_ID":"NJ-BG-18","Station_Nam":"PALISADES PARK 0.2 WNW, NJ","Latitude":"40.84809","Longitude":"-74.00020","Snowdepth":"7.500","Units":"in","Rept_Date":"2020-12-19 20"},"coordinates":[5454,2999]},{"type":"Point","properties":{"Station_ID":"ME-LN-13","Station_Nam":"WALDOBORO 1.5 NNE, ME","Latitude":"44.11481","Longitude":"-69.36644","Snowdepth":"7.500","Units":"in","Rept_Date":"2020-12-19 13"},"coordinates":[6541,5101]},{"type":"Point","properties":{"Station_ID":"MA-WR-69","Station_Nam":"NORTHBRIDGE 1.7 WNW, MA","Latitude":"42.16305","Longitude":"-71.67888","Snowdepth":"7.500","Units":"in","Rept_Date":"2020-12-19 12"},"coordinates":[5999,3845]},{"type":"Point","properties":{"Station_ID":"MA-MD-45","Station_Nam":"WILMINGTON 1.5 NE, MA","Latitude":"42.57302","Longitude":"-71.14417","Snowdepth":"7.500","Units":"in","Rept_Date":"2020-12-19 12"},"coordinates":[6124,4109]},{"type":"Point","properties":{"Station_ID":"CT-TL-33","Station_Nam":"TOLLAND 3.6 NNE, CT","Latitude":"41.91859","Longitude":"-72.33910","Snowdepth":"7.500","Units":"in","Rept_Date":"2020-12-19 12"},"coordinates":[5844,3688]},{"type":"Point","properties":{"Station_ID":"CT-HR-68","Station_Nam":"ROCKY HILL 1.3 E, CT","Latitude":"41.65916","Longitude":"-72.64144","Snowdepth":"7.500","Units":"in","Rept_Date":"2020-12-19 13"},"coordinates":[5773,3521]},{"type":"Point","properties":{"Station_ID":"CAN-NS-68","Station_Nam":"RAWDON GOLD MINES 3.4 N, CA","Latitude":"45.08535","Longitude":"-63.76840","Snowdepth":"7.500","Units":"in","Rept_Date":"2020-12-19 12"},"coordinates":[7855,5725]},{"type":"Point","properties":{"Station_ID":"RI-PR-84","Station_Nam":"PROVIDENCE 2.7 NNE, RI","Latitude":"41.85571","Longitude":"-71.39328","Snowdepth":"7.300","Units":"in","Rept_Date":"2020-12-19 12"},"coordinates":[6066,3647]},{"type":"Point","properties":{"Station_ID":"MFU","Station_Nam":"MFU","Latitude":"51.52170","Longitude":"-66.91110","Snowdepth":"7.283","Units":"in","Rept_Date":"2020-12-19 12"},"coordinates":[7118,9867]},{"type":"Point","properties":{"Station_ID":"SVBQ6","Station_Nam":"SAVANT BASE","Latitude":"50.28730","Longitude":"-90.65670","Snowdepth":"7.240","Units":"in","Rept_Date":"2020-12-20 06"},"coordinates":[1545,9073]},{"type":"Point","properties":{"Station_ID":"MRL","Station_Nam":"MRL","Latitude":"51.28330","Longitude":"-68.84060","Snowdepth":"7.126","Units":"in","Rept_Date":"2020-12-19 12"},"coordinates":[6665,9714]},{"type":"Point","properties":{"Station_ID":"PA-AL-3","Station_Nam":"SOUTH FAYETTE 2 SE, PA","Latitude":"40.33810","Longitude":"-80.11590","Snowdepth":"7.100","Units":"in","Rept_Date":"2020-12-19 12"},"coordinates":[4019,2671]},{"type":"Point","properties":{"Station_ID":"CAN-NS-6","Station_Nam":"DUNCANS COVE 0.4 ESE, CAN","Latitude":"44.49914","Longitude":"-63.52640","Snowdepth":"7.100","Units":"in","Rept_Date":"2020-12-19 11"},"coordinates":[7912,5348]},{"type":"Point","properties":{"Station_ID":"CAN-NS-142","Station_Nam":"MAHONE BAY 0.5 NE, CAN","Latitude":"44.45141","Longitude":"-64.37532","Snowdepth":"7.100","Units":"in","Rept_Date":"2020-12-19 12"},"coordinates":[7713,5317]},{"type":"Point","properties":{"Station_ID":"WV-PR-19","Station_Nam":"TERRA ALTA 3.3 ENE, WV","Latitude":"39.45929","Longitude":"-79.48470","Snowdepth":"7.000","Units":"in","Rept_Date":"2020-12-19 12"},