{"type":"Topology","objects":{"snowdepth_geo":{"type":"GeometryCollection","name":"snowdepth","crs":{"type":"name","properties":{"name":"urn:ogc:def:crs:OGC:1.3:CRS84"}},"geometries":[{"type":"Point","properties":{"Station_ID":"PRKM4","Station_Nam":"MUNISING EAST","Latitude":"46.42580","Longitude":"-86.62000","Snowdepth":"76.500","Units":"in","Rept_Date":"2020-12-02 06"},"coordinates":[3422,6933]},{"type":"Point","properties":{"Station_ID":"41.5183_081.4792","Station_Nam":"1 ENE Lyndhurst  Trained Spotter (CLE1177)","Latitude":"41.51834","Longitude":"-81.47919","Snowdepth":"22.000","Units":"in","Rept_Date":"2020-12-02 02"},"coordinates":[5157,4094]},{"type":"Point","properties":{"Station_ID":"41.6413_081.0131","Station_Nam":"2 ESE South Thompson  Trained Spotter (X4160810)","Latitude":"41.64127","Longitude":"-81.01313","Snowdepth":"21.000","Units":"in","Rept_Date":"2020-12-02 02"},"coordinates":[5315,4165]},{"type":"Point","properties":{"Station_ID":"QOU","Station_Nam":"QOU","Latitude":"50.79250","Longitude":"-69.67470","Snowdepth":"20.945","Units":"in","Rept_Date":"2020-12-01 12"},"coordinates":[9143,9459]},{"type":"Point","properties":{"Station_ID":"41.4329_081.3246","Station_Nam":"South Russell  Trained Spotter (CLE1339)","Latitude":"41.43291","Longitude":"-81.32455","Snowdepth":"19.000","Units":"in","Rept_Date":"2020-12-02 00"},"coordinates":[5210,4045]},{"type":"Point","properties":{"Station_ID":"41.7260_080.9910","Station_Nam":"3 E South Madison  Trained Spotter (CLE1474)","Latitude":"41.72602","Longitude":"-80.99102","Snowdepth":"18.000","Units":"in","Rept_Date":"2020-12-01 22"},"coordinates":[5322,4214]},{"type":"Point","properties":{"Station_ID":"41.5847_081.2519","Station_Nam":"CHARDON 2N  SNOW SPOTTER (X4160813)","Latitude":"41.58470","Longitude":"-81.25190","Snowdepth":"18.000","Units":"in","Rept_Date":"2020-12-01 23"},"coordinates":[5234,4132]},{"type":"Point","properties":{"Station_ID":"41.4992_081.4887","Station_Nam":"1 S Lyndhurst  Trained Spotter (CLE1189)","Latitude":"41.49917","Longitude":"-81.48868","Snowdepth":"18.000","Units":"in","Rept_Date":"2020-12-01 22"},"coordinates":[5154,4083]},{"type":"Point","properties":{"Station_ID":"41.4330_081.4097","Station_Nam":"CHAGRIN FALLS  SNOW SPOTTER (CLE1172)","Latitude":"41.43300","Longitude":"-81.40970","Snowdepth":"18.000","Units":"in","Rept_Date":"2020-12-02 02"},"coordinates":[5181,4045]},{"type":"Point","properties":{"Station_ID":"41.4082_081.6940","Station_Nam":"2 WSW Brooklyn Heights  Trained Spotter (X4140817)","Latitude":"41.40823","Longitude":"-81.69404","Snowdepth":"18.000","Units":"in","Rept_Date":"2020-12-02 01"},"coordinates":[5085,4030]},{"type":"Point","properties":{"Station_ID":"41.6972_080.9056","Station_Nam":"3 ENE Trumbull  Trained Spotter (CLE1480)","Latitude":"41.69720","Longitude":"-80.90557","Snowdepth":"17.000","Units":"in","Rept_Date":"2020-12-01 20"},"coordinates":[5351,4197]},{"type":"Point","properties":{"Station_ID":"41.5363_080.8353","Station_Nam":"ORWELL 1E  SNOW SPOTTER (CLE1445)","Latitude":"41.53630","Longitude":"-80.83530","Snowdepth":"17.000","Units":"in","Rept_Date":"2020-12-02 02"},"coordinates":[5375,4104]},{"type":"Point","properties":{"Station_ID":"41.3691_081.4520","Station_Nam":"SOLON (CLE1123)","Latitude":"41.36910","Longitude":"-81.45200","Snowdepth":"17.000","Units":"in","Rept_Date":"2020-12-02 01"},"coordinates":[5167,4008]},{"type":"Point","properties":{"Station_ID":"41.6613_081.2084","Station_Nam":"1 SE Concord  Trained Spotter (X4170812)","Latitude":"41.66133","Longitude":"-81.20838","Snowdepth":"16.000","Units":"in","Rept_Date":"2020-12-02 01"},"coordinates":[5249,4177]},{"type":"Point","properties":{"Station_ID":"41.6346_080.6614","Station_Nam":"1 E DORSET  SNOW SPOTTER (CLE1453)","Latitude":"41.63460","Longitude":"-80.66140","Snowdepth":"16.000","Units":"in","Rept_Date":"2020-12-01 22"},"coordinates":[5434,4161]},{"type":"Point","properties":{"Station_ID":"41.5909_081.0473","Station_Nam":"MONTVILLE (CLE1322)","Latitude":"41.59090","Longitude":"-81.04730","Snowdepth":"16.000","Units":"in","Rept_Date":"2020-12-01 23"},"coordinates":[5303,4136]},{"type":"Point","properties":{"Station_ID":"41.4746_081.5687","Station_Nam":"1 W Shaker Heights  Trained Spotter (CLE1179)","Latitude":"41.47460","Longitude":"-81.56872","Snowdepth":"16.000","Units":"in","Rept_Date":"2020-12-02 01"},"coordinates":[5127,4069]},{"type":"Point","properties":{"Station_ID":"41.3790_081.6698","Station_Nam":"Seven Hills  Trained Spotter (CLE1191)","Latitude":"41.37895","Longitude":"-81.66984","Snowdepth":"16.000","Units":"in","Rept_Date":"2020-12-01 22"},"coordinates":[5093,4013]},{"type":"Point","properties":{"Station_ID":"41.3151_081.1434","Station_Nam":"HIRAM (CLE2220)","Latitude":"41.31510","Longitude":"-81.14340","Snowdepth":"16.000","Units":"in","Rept_Date":"2020-12-02 02"},"coordinates":[5271,3976]},{"type":"Point","properties":{"Station_ID":"MLZ","Station_Nam":"MLZ","Latitude":"50.66170","Longitude":"-68.82360","Snowdepth":"15.905","Units":"in","Rept_Date":"2020-12-01 12"},"coordinates":[9430,9383]},{"type":"Point","properties":{"Station_ID":"41.7413_080.7594","Station_Nam":"JEFFERSON  SNOW SPOTTER (X4170808)","Latitude":"41.74130","Longitude":"-80.75940","Snowdepth":"15.000","Units":"in","Rept_Date":"2020-12-02 00"},"coordinates":[5400,4223]},{"type":"Point","properties":{"Station_ID":"41.5236_081.5219","Station_Nam":"South Euclid  Trained Spotter (CLE1186)","Latitude":"41.52356","Longitude":"-81.52192","Snowdepth":"15.000","Units":"in","Rept_Date":"2020-12-02 01"},"coordinates":[5143,4097]},{"type":"Point","properties":{"Station_ID":"41.5186_080.2187","Station_Nam":"6 E Atlantic  Trained Spotter (CLE0352)","Latitude":"41.51859","Longitude":"-80.21871","Snowdepth":"15.000","Units":"in","Rept_Date":"2020-12-02 02"},"coordinates":[5583,4094]},{"type":"Point","properties":{"Station_ID":"41.4716_081.1803","Station_Nam":"BURTON (CLE1314)","Latitude":"41.47160","Longitude":"-81.18030","Snowdepth":"15.000","Units":"in","Rept_Date":"2020-12-02 01"},"coordinates":[5258,4067]},{"type":"Point","properties":{"Station_ID":"41.3881_081.6711","Station_Nam":"1 NNE Seven Hills  Trained Spotter (CLE1173)","Latitude":"41.38810","Longitude":"-81.67106","Snowdepth":"15.000","Units":"in","Rept_Date":"2020-12-02 00"},"coordinates":[5093,4019]},{"type":"Point","properties":{"Station_ID":"41.2817_081.7774","Station_Nam":"NORTH ROYALTON  TRAINED SPOTTER (CLE1155)","Latitude":"41.28170","Longitude":"-81.77740","Snowdepth":"15.000","Units":"in","Rept_Date":"2020-12-02 02"},"coordinates":[5057,3957]},{"type":"Point","properties":{"Station_ID":"QCO","Station_Nam":"QCO","Latitude":"51.45280","Longitude":"-72.20110","Snowdepth":"14.016","Units":"in","Rept_Date":"2020-12-01 12"},"coordinates":[8290,9840]},{"type":"Point","properties":{"Station_ID":"41.9034_079.6523","Station_Nam":"CORRY (CLE0230)","Latitude":"41.90340","Longitude":"-79.65230","Snowdepth":"14.000","Units":"in","Rept_Date":"2020-12-01 23"},"coordinates":[5774,4317]},{"type":"Point","properties":{"Station_ID":"41.8222_080.1028","Station_Nam":"CAMBRIDGE SPRINGS  SNOW SPOTTER (CLE0344)","Latitude":"41.82220","Longitude":"-80.10280","Snowdepth":"14.000","Units":"in","Rept_Date":"2020-12-02 02"},"coordinates":[5622,4270]},{"type":"Point","properties":{"Station_ID":"41.7115_081.0271","Station_Nam":"SOUTH MADISON (CLE1233)","Latitude":"41.71150","Longitude":"-81.02710","Snowdepth":"14.000","Units":"in","Rept_Date":"2020-12-01 22"},"coordinates":[5310,4206]},{"type":"Point","properties":{"Station_ID":"41.5904_081.3914","Station_Nam":"1 S Waite Hill  Trained Spotter (CLE1261)","Latitude":"41.59042","Longitude":"-81.39139","Snowdepth":"14.000","Units":"in","Rept_Date":"2020-12-02 02"},"coordinates":[5187,4136]},{"type":"Point","properties":{"Station_ID":"41.4976_080.5746","Station_Nam":"2 S Williamsfield  Trained Spotter (CLE2331)","Latitude":"41.49761","Longitude":"-80.57464","Snowdepth":"14.000","Units":"in","Rept_Date":"2020-12-02 00"},"coordinates":[5463,4082]},{"type":"Point","properties":{"Station_ID":"41.4948_081.5867","Station_Nam":"2 SW Cleveland Heights  Trained Spotter (CLE1181)","Latitude":"41.49481","Longitude":"-81.58671","Snowdepth":"14.000","Units":"in","Rept_Date":"2020-12-01 23"},"coordinates":[5121,4080]},{"type":"Point","properties":{"Station_ID":"41.4727_081.1835","Station_Nam":"2 W Burton  Trained Spotter (CLE1337)","Latitude":"41.47271","Longitude":"-81.18346","Snowdepth":"14.000","Units":"in","Rept_Date":"2020-12-01 22"},"coordinates":[5257,4068]},{"type":"Point","properties":{"Station_ID":"QGD","Station_Nam":"QGD","Latitude":"51.11140","Longitude":"-67.13940","Snowdepth":"13.465","Units":"in","Rept_Date":"2020-12-01 12"},"coordinates":[9999,9643]},{"type":"Point","properties":{"Station_ID":"41.7396_080.5416","Station_Nam":"PIERPONT 2SE (CLE1412)","Latitude":"41.73960","Longitude":"-80.54160","Snowdepth":"13.000","Units":"in","Rept_Date":"2020-12-02 01"},"coordinates":[5474,4222]},{"type":"Point","properties":{"Station_ID":"41.6533_080.1440","Station_Nam":"MEADVILLE  SNOW SPOTTER (X4170801)","Latitude":"41.65330","Longitude":"-80.14400","Snowdepth":"13.000","Units":"in","Rept_Date":"2020-12-02 02"},"coordinates":[5608,4172]},{"type":"Point","properties":{"Station_ID":"41.4479_081.9326","Station_Nam":"WESTLAKE  SNOW SPOTTER (CLE1174)","Latitude":"41.44790","Longitude":"-81.93260","Snowdepth":"13.000","Units":"in","Rept_Date":"2020-12-02 01"},"coordinates":[5004,4053]},{"type":"Point","properties":{"Station_ID":"41.3041_081.5599","Station_Nam":"SAGAMORE HILLS (CLE2123)","Latitude":"41.30410","Longitude":"-81.55990","Snowdepth":"13.000","Units":"in","Rept_Date":"2020-12-02 01"},"coordinates":[5130,3970]},{"type":"Point","properties":{"Station_ID":"QTV","Station_Nam":"QTV","Latitude":"49.66000","Longitude":"-69.35690","Snowdepth":"12.677","Units":"in","Rept_Date":"2020-12-01 12"},"coordinates":[9250,8803]},{"type":"Point","properties":{"Station_ID":"QCX","Station_Nam":"QCX","Latitude":"51.32830","Longitude":"-70.08060","Snowdepth":"12.402","Units":"in","Rept_Date":"2020-12-01 12"},"coordinates":[9006,9768]},{"type":"Point","properties":{"Station_ID":"TN-GY-2","Station_Nam":"BEERSHEBA SPRINGS 2.1 ENE, TN","Latitude":"35.47030","Longitude":"-85.63710","Snowdepth":"12.000","Units":"in","Rept_Date":"2020-12-01 13"},"coordinates":[3754,596]},{"type":"Point","properties":{"Station_ID":"41.7135_081.1910","Station_Nam":"PERRY TOWNSHIP (CLE1219)","Latitude":"41.71350","Longitude":"-81.19100","Snowdepth":"12.000","Units":"in","Rept_Date":"2020-12-01 23"},"coordinates":[5255,4207]},{"type":"Point","properties":{"Station_ID":"41.6825_081.2331","Station_Nam":"1 NW Concord  Trained Spotter (CLE1259)","Latitude":"41.68248","Longitude":"-81.23310","Snowdepth":"12.000","Units":"in","Rept_Date":"2020-12-02 01"},"coordinates":[5241,4189]},{"type":"Point","properties":{"Station_ID":"41.6807_081.2654","Station_Nam":"2 WNW Concord  Trained Spotter (CLE1255)","Latitude":"41.68070","Longitude":"-81.26535","Snowdepth":"12.000","Units":"in","Rept_Date":"2020-12-02 02"},"coordinates":[5230,4188]},{"type":"Point","properties":{"Station_ID":"41.6544_080.1373","Station_Nam":"MEADVILLE  SNOW SPOTTER (CLE0342)","Latitude":"41.65440","Longitude":"-80.13730","Snowdepth":"12.000","Units":"in","Rept_Date":"2020-12-02 01"},"coordinates":[5610,4173]},{"type":"Point","properties":{"Station_ID":"41.6216_081.4916","Station_Nam":"EUCLID (CLE1130)","Latitude":"41.62160","Longitude":"-81.49160","Snowdepth":"12.000","Units":"in","Rept_Date":"2020-12-01 23"},"coordinates":[5153,4154]},{"type":"Point","properties":{"Station_ID":"41.5020_081.5839","Station_Nam":"1 WSW Cleveland Heights  Trained Spotter (CLE1190)","Latitude":"41.50201","Longitude":"-81.58393","Snowdepth":"12.000","Units":"in","Rept_Date":"2020-12-02 00"},"coordinates":[5122,4085]},{"type":"Point","properties":{"Station_ID":"41.4667_081.8111","Station_Nam":"1 NNE CLEVELAND-KAMMS CORNER  SNOW SPOTTER (X4150818)","Latitude":"41.46670","Longitude":"-81.81110","Snowdepth":"12.000","Units":"in","Rept_Date":"2020-12-02 01"},"coordinates":[5045,4064]},{"type":"Point","properties":{"Station_ID":"41.4159_081.9847","Station_Nam":"N RIDGEVILLE (CLE1009)","Latitude":"41.41590","Longitude":"-81.98470","Snowdepth":"12.000","Units":"in","Rept_Date":"2020-12-01 23"},"coordinates":[4987,4035]},{"type":"Point","properties":{"Station_ID":"41.3763_082.0992","Station_Nam":"Elyria  Trained Spotter (CLE1010)","Latitude":"41.37628","Longitude":"-82.09918","Snowdepth":"12.000","Units":"in","Rept_Date":"2020-12-01 23"},"coordinates":[4948,4012]},{"type":"Point","properties":{"Station_ID":"41.3397_080.9647","Station_Nam":"2 NNW Southington  Trained Spotter (X4130810)","Latitude":"41.33970","Longitude":"-80.96471","Snowdepth":"12.000","Units":"in","Rept_Date":"2020-12-01 22"},"coordinates":[5331,3991]},{"type":"Point","properties":{"Station_ID":"41.2982_081.8151","Station_Nam":"1 SE Strongsville  Trained Spotter (CLE1180)","Latitude":"41.29818","Longitude":"-81.81507","Snowdepth":"12.000","Units":"in","Rept_Date":"2020-12-02 01"},"coordinates":[5044,3967]},{"type":"Point","properties":{"Station_ID":"CAN-ON-5","Station_Nam":"OWEN SOUND 1.5 NW - GSCA, CAN","Latitude":"44.57837","Longitude":"-80.95461","Snowdepth":"11.500","Units":"in","Rept_Date":"2020-12-01 13"},"coordinates":[5335,5864]},{"type":"Point","properties":{"Station_ID":"MTLT1","Station_Nam":"GATLINBURG,TN","Latitude":"35.65500","Longitude":"-83.44110","Snowdepth":"11.000","Units":"in","Rept_Date":"2020-12-01 13"},"coordinates":[4495,702]},{"type":"Point","properties":{"Station_ID":"42.0231_080.0856","Station_Nam":"3 ENE McKean  Trained Spotter (X4200801)","Latitude":"42.02314","Longitude":"-80.08558","Snowdepth":"11.000","Units":"in","Rept_Date":"2020-12-02 00"},"coordinates":[5628,4386]},{"type":"Point","properties":{"Station_ID":"41.9996_080.1669","Station_Nam":"MCKEAN  SNOW SPOTTER (X4200802)","Latitude":"41.99960","Longitude":"-80.16690","Snowdepth":"11.000","Units":"in","Rept_Date":"2020-12-02 00"},"coordinates":[5601,4372]},{"type":"Point","properties":{"Station_ID":"41.8966_080.1567","Station_Nam":"2 NW EDINBORO  SNOW SPOTTER (CLE0251)","Latitude":"41.89660","Longitude":"-80.15670","Snowdepth":"11.000","Units":"in","Rept_Date":"2020-12-01 22"},"coordinates":[5604,4313]},{"type":"Point","properties":{"Station_ID":"41.8717_080.0850","Station_Nam":"EDINBORO 2E  SNOW SPOTTER (X4190801)","Latitude":"41.87170","Longitude":"-80.08500","Snowdepth":"11.000","Units":"in","Rept_Date":"2020-12-02 00"},"coordinates":[5628,4298]},{"type":"Point","properties":{"Station_ID":"41.2688_081.5174","Station_Nam":"2 N CLE AIRPORT  TRAINED SPOTTER (CLE2141)","Latitude":"41.26880","Longitude":"-81.51740","Snowdepth":"11.000","Units":"in","Rept_Date":"2020-12-01 23"},"coordinates":[5145,3950]},{"type":"Point","properties":{"Station_ID":"41.2499_081.8127","Station_Nam":"BRUNSWICK (CLE2007)","Latitude":"41.24990","Longitude":"-81.81270","Snowdepth":"11.000","Units":"in","Rept_Date":"2020-12-02 01"},"coordinates":[5045,3939]},{"type":"Point","properties":{"Station_ID":"41.2288_081.7159","Station_Nam":"HINCKLEY  TRAINED SPOTTER (CLE2006)","Latitude":"41.22880","Longitude":"-81.71590","Snowdepth":"11.000","Units":"in","Rept_Date":"2020-12-02 00"},"coordinates":[5078,3927]},{"type":"Point","properties":{"Station_ID":"MRL","Station_Nam":"MRL","Latitude":"51.28330","Longitude":"-68.84060","Snowdepth":"10.630","Units":"in","Rept_Date":"2020-12-01 12"},"coordinates":[9425,9742]},{"type":"Point","properties":{"Station_ID":"OBEO1","Station_Nam":"OBERLIN,OH","Latitude":"41.26670","Longitude":"-82.21670","Snowdepth":"10.000","Units":"in","Rept_Date":"2020-12-01 13"},"coordinates":[4908,3948]},{"type":"Point","properties":{"Station_ID":"42.1284_079.8945","Station_Nam":"NORTHEAST 6SW (CLE0249)","Latitude":"42.12840","Longitude":"-79.89450","Snowdepth":"10.000","Units":"in","Rept_Date":"2020-12-01 23"},"coordinates":[5692,4447]},{"type":"Point","properties":{"Station_ID":"41.8275_080.5321","Station_Nam":"MONROE TWP  SNOW SPOTTER (X4180805)","Latitude":"41.82750","Longitude":"-80.53210","Snowdepth":"10.000","Units":"in","Rept_Date":"2020-12-01 22"},"coordinates":[5477,4273]},{"type":"Point","properties":{"Station_ID":"41.7300_080.9476","Station_Nam":"GENEVA 7S  SNOW SPOTTER (X4170809)","Latitude":"41.73000","Longitude":"-80.94760","Snowdepth":"10.000","Units":"in","Rept_Date":"2020-12-02 02"},"coordinates":[5337,4216]},{"type":"Point","properties":{"Station_ID":"41.6333_080.1432","Station_Nam":"1 S Meadville  Trained Spotter (CLE0350)","Latitude":"41.63328","Longitude":"-80.14322","Snowdepth":"10.000","Units":"in","Rept_Date":"2020-12-02 02"},"coordinates":[5608,4161]},{"type":"Point","properties":{"Station_ID":"41.4295_081.7112","Station_Nam":"CLEVELAND-OLD BROOKLYN (CLE1126)","Latitude":"41.42950","Longitude":"-81.71120","Snowdepth":"10.000","Units":"in","Rept_Date":"2020-12-01 23"},"coordinates":[5079,4043]},{"type":"Point","properties":{"Station_ID":"41.3476_082.0754","Station_Nam":"3 SE Elyria  Trained Spotter (X4130821)","Latitude":"41.34759","Longitude":"-82.07538","Snowdepth":"10.000","Units":"in","Rept_Date":"2020-12-02 01"},"coordinates":[4956,3995]},{"type":"Point","properties":{"Station_ID":"41.3292_080.7272","Station_Nam":"Cortland  Trained Spotter (X4130807)","Latitude":"41.32922","Longitude":"-80.72719","Snowdepth":"10.000","Units":"in","Rept_Date":"2020-12-02 00"},"coordinates":[5411,3985]},{"type":"Point","properties":{"Station_ID":"TRIQ6","Station_Nam":"TRIO LAKE","Latitude":"49.22880","Longitude":"-87.22920","Snowdepth":"9.650","Units":"in","Rept_Date":"2020-12-02 06"},"coordinates":[3216,8554]},{"type":"Point","properties":{"Station_ID":"QMA","Station_Nam":"QMA","Latitude":"50.10330","Longitude":"-70.47190","Snowdepth":"9.646","Units":"in","Rept_Date":"2020-12-01 12"},"coordinates":[8874,9060]},{"type":"Point","properties":{"Station_ID":"QLB","Station_Nam":"QLB","Latitude":"50.72360","Longitude":"-75.10000","Snowdepth":"9.606","Units":"in","Rept_Date":"2020-12-01 12"},"coordinates":[7311,9419]},{"type":"Point","properties":{"Station_ID":"CAN-ON-491","Station_Nam":"MILVERTON 1.1 ESE- CANWARN, CAN","Latitude":"43.56074","Longitude":"-80.90887","Snowdepth":"9.300","Units":"in","Rept_Date":"2020-12-01 11"},"coordinates":[5350,5275]},{"type":"Point","properties":{"Station_ID":"QTM","Station_Nam":"QTM","Latitude":"51.05780","Longitude":"-72.57190","Snowdepth":"9.055","Units":"in","Rept_Date":"2020-12-01 12"},"coordinates":[8165,9612]},{"type":"Point","properties":{"Station_ID":"WHRM3","Station_Nam":"WEST HARWICH","Latitude":"41.66330","Longitude":"-70.11610","Snowdepth":"9.000","Units":"in","Rept_Date":"2020-12-01 13"},"coordinates":[8994,4178]},{"type":"Point","properties":{"Station_ID":"OH-ER-5","Station_Nam":"WAKEMAN 4.6 NNE, OH","Latitude":"41.31902","Longitude":"-82.37730","Snowdepth":"9.000","Units":"in","Rept_Date":"2020-12-01 13"},"coordinates":[4854,3979]},{"type":"Point","properties":{"Station_ID":"OH-CY-54","Station_Nam":"SEVEN HILLS 0.6 NNE, OH","Latitude":"41.38811","Longitude":"-81.67098","Snowdepth":"9.000","Units":"in","Rept_Date":"2020-12-01 12"},"coordinates":[5093,4019]},{"type":"Point","properties":{"Station_ID":"OH-CY-14","Station_Nam":"CLEVELAND 7.0 SW, OH","Latitude":"41.45224","Longitude":"-81.81475","Snowdepth":"9.000","Units":"in","Rept_Date":"2020-12-02 03"},"coordinates":[5044,4056]},{"type":"Point","properties":{"Station_ID":"KCLE","Station_Nam":"CLEVELAND-HOPKINS INTERNATIONAL","Latitude":"41.40000","Longitude":"-81.85000","Snowdepth":"9.000","Units":"in","Rept_Date":"2020-12-02 06"},"coordinates":[5032,4026]},{"type":"Point","properties":{"Station_ID":"ELYO1","Station_Nam":"ELYRIA,OH","Latitude":"41.30000","Longitude":"-82.11670","Snowdepth":"9.000","Units":"in","Rept_Date":"2020-12-01 12"},"coordinates":[4942,3968]},{"type":"Point","properties":{"Station_ID":"CHRO1","Station_Nam":"CHARDON,OH","Latitude":"41.58330","Longitude":"-81.18330","Snowdepth":"9.000","Units":"in","Rept_Date":"2020-12-01 13"},"coordinates":[5257,4132]},{"type":"Point","properties":{"Station_ID":"42.1806_079.7860","Station_Nam":"3 SE North East  Trained Spotter (CLE0288)","Latitude":"42.18055","Longitude":"-79.78595","Snowdepth":"9.000","Units":"in","Rept_Date":"2020-12-01 21"},"coordinates":[5729,4477]},{"type":"Point","properties":{"Station_ID":"42.1173_079.8962","Station_Nam":"4 W Colt Station  Trained Spotter (CLE0298)","Latitude":"42.11734","Longitude":"-79.89615","Snowdepth":"9.000","Units":"in","Rept_Date":"2020-12-02 01"},"coordinates":[5692,4440]},{"type":"Point","properties":{"Station_ID":"41.9933_080.1440","Station_Nam":"MCKEAN  SNOW SPOTTER (CLE0284)","Latitude":"41.99330","Longitude":"-80.14400","Snowdepth":"9.000","Units":"in","Rept_Date":"2020-12-01 21"},"coordinates":[5608,4369]},{"type":"Point","properties":{"Station_ID":"41.9488_079.7786","Station_Nam":"3 NW Elgin  Trained Spotter (CLE0299)","Latitude":"41.94884","Longitude":"-79.77856","Snowdepth":"9.000","Units":"in","Rept_Date":"2020-12-01 23"},"coordinates":[5732,4343]},{"type":"Point","properties":{"Station_ID":"41.8495_080.3016","Station_Nam":"4 WNW Crossingville  Trained Spotter (X4180803)","Latitude":"41.84946","Longitude":"-80.30159","Snowdepth":"9.000","Units":"in","Rept_Date":"2020-12-02 01"},"coordinates":[5555,4286]},{"type":"Point","properties":{"Station_ID":"41.8478_080.6111","Station_Nam":"4 SSW CONNEAUT I-90  TRAINED SPOTTER (CLE1457)","Latitude":"41.84780","Longitude":"-80.61110","Snowdepth":"9.000","Units":"in","Rept_Date":"2020-12-02 00"},"coordinates":[5451,4285]},{"type":"Point","properties":{"Station_ID":"41.6898_081.3089","Station_Nam":"1 E Mentor  Trained Spotter (CLE1214)","Latitude":"41.68981","Longitude":"-81.30887","Snowdepth":"9.000","Units":"in","Rept_Date":"2020-12-02 01"},"coordinates":[5215,4193]},{"type":"Point","properties":{"Station_ID":"41.6522_081.3097","Station_Nam":"1 NNE Kirtland Hills  Trained Spotter (X4170813)","Latitude":"41.65218","Longitude":"-81.30974","Snowdepth":"9.000","Units":"in","Rept_Date":"2020-12-01 23"},"coordinates":[5215,4171]},{"type":"Point","properties":{"Station_ID":"41.5833_081.1833","Station_Nam":"1 NE CHARDON  CO-OP OBSERVER (CHRO1)","Latitude":"41.58330","Longitude":"-81.18330","Snowdepth":"9.000","Units":"in","Rept_Date":"2020-12-01 13"},"coordinates":[5257,4132]},{"type":"Point","properties":{"Station_ID":"41.1978_081.6324","Station_Nam":"BATH TWP  TRAINED SPOTTER (CLE2135)","Latitude":"41.19780","Longitude":"-81.63240","Snowdepth":"9.000","Units":"in","Rept_Date":"2020-12-02 00"},"coordinates":[5106,3909]},{"type":"Point","properties":{"Station_ID":"CAN-ON-452","Station_Nam":"CHATSWORTH 1.8 ENE - GSCA, CAN","Latitude":"44.46118","Longitude":"-80.87506","Snowdepth":"8.900","Units":"in","Rept_Date":"2020-12-01 13"},"coordinates":[5361,5796]},{"type":"Point","properties":{"Station_ID":"QLI","Station_Nam":"QLI","Latitude":"50.27080","Longitude":"-73.92280","Snowdepth":"8.386","Units":"in","Rept_Date":"2020-12-01 12"},"coordinates":[7709,9157]},{"type":"Point","properties":{"Station_ID":"QLM","Station_Nam":"QLM","Latitude":"48.92030","Longitude":"-70.25280","Snowdepth":"8.346","Units":"in","Rept_Date":"2020-12-01 12"},"coordinates":[8948,8376]},{"type":"Point","properties":{"Station_ID":"QGO","Station_Nam":"QGO","Latitude":"48.85500","Longitude":"-74.20640","Snowdepth":"8.268","Units":"in","Rept_Date":"2020-12-01 12"},"coordinates":[7613,8338]},{"type":"Point","properties":{"Station_ID":"CLE","Station_Nam":"CLEVELAND, OH","Latitude":"41.41170","Longitude":"-81.84970","Snowdepth":"8.000","Units":"in","Rept_Date":"2020-12-02 00"},"coordinates":[5032,4032]},{"type":"Point","properties":{"Station_ID":"41.2019_081.6342","Station_Nam":"1 N Bath  Trained Spotter (CLE2148)","Latitude":"41.20192","Longitude":"-81.63420","Snowdepth":"8.000","Units":"in","Rept_Date":"2020-12-02 00"},"coordinates":[5105,3911]},{"type":"Point","properties":{"Station_ID":"41.1403_081.4956","Station_Nam":"CUYAHOGA FALLS (CLE2128)","Latitude":"41.14030","Longitude":"-81.49560","Snowdepth":"8.000","Units":"in","Rept_Date":"2020-12-02 01"},"coordinates":[5152,3875]},{"type":"Point","properties":{"Station_ID":"38.1991_080.8506","Station_Nam":"Mount Nebo  Broadcast Media (X3820809)","Latitude":"38.19910","Longitude":"-80.85060","Snowdepth":"8.000","Units":"in","Rept_Date":"2020-12-01 23"},"coordinates":[5370,2174]},{"type":"Point","properties":{"Station_ID":"DVLQ6","Station_Nam":"DEVIOUS LAKE","Latitude":"49.19890","Longitude":"-87.76440","Snowdepth":"7.910","Units":"in","Rept_Date":"2020-12-02 06"},"coordinates":[3035,8537]},{"type":"Point","properties":{"Station_ID":"AUDQ6","Station_Nam":"AUDEN","Latitude":"48.52600","Longitude":"-82.57570","Snowdepth":"7.640","Units":"in","Rept_Date":"2020-12-02 06"},"coordinates":[4787,8147]},{"type":"Point","properties":{"Station_ID":"OH-LR-25","Station_Nam":"NORTH RIDGEVILLE 2.5 NE, OH","Latitude":"41.41550","Longitude":"-81.98440","Snowdepth":"7.500","Units":"in","Rept_Date":"2020-12-01 12"},"coordinates":[4987,4035]},{"type":"Point","properties":{"Station_ID":"PTLQ6","Station_Nam":"PORTAGE LAKE","Latitude":"49.06950","Longitude":"-86.65940","Snowdepth":"7.050","Units":"in","Rept_Date":"2020-12-02 06"},"coordinates":[3408,8462]},{"type":"Point","properties":{"Station_ID":"YNG","Station_Nam":"YOUNGSTOWN-WARREN REG AIRPRT","Latitude":"41.25890","Longitude":"-80.67610","Snowdepth":"7.000","Units":"in","Rept_Date":"2020-12-02 00"},"coordinates":[5429,3944]},{"type":"Point","properties":{"Station_ID":"OH-MD-2","Station_Nam":"BRUNSWICK 0.5 NE, OH","Latitude":"41.24980","Longitude":"-81.81330","Snowdepth":"7.000","Units":"in","Rept_Date":"2020-12-01 12"},"coordinates":[5045,3939]},{"type":"Point","properties":{"Station_ID":"OH-HR-11","Station_Nam":"NORWALK 1.2 E, OH","Latitude":"41.24454","Longitude":"-82.58828","Snowdepth":"7.000","Units":"in","Rept_Date":"2020-12-01 14"},"coordinates":[4783,3936]},{"type":"Point","properties":{"Station_ID":"KYNG","Station_Nam":"YOUNGSTOWN-WARREN REG AIRPRT","Latitude":"41.25000","Longitude":"-80.66666","Snowdepth":"7.000","Units":"in","Rept_Date":"2020-12-02 06"},"coordinates":[5432,3939]},{"type":"Point","properties":{"Station_ID":"42.2002_079.8021","Station_Nam":"2 ESE North East  Trained Spotter (CLE0183)","Latitude":"42.20018","Longitude":"-79.80210","Snowdepth":"7.000","Units":"in","Rept_Date":"2020-12-02 00"},"coordinates":[5724,4488]},{"type":"Point","properties":{"Station_ID":"41.6801_081.3287","Station_Nam":"MENTOR (CLE1240)","Latitude":"41.68010","Longitude":"-81.32870","Snowdepth":"7.000","Units":"in","Rept_Date":"2020-12-02 02"},"coordinates":[5208,4188]},{"type":"Point","properties":{"Station_ID":"41.6151_081.4459","Station_Nam":"3 SW Willoughby  CoCoRaHS (OH-LK-9)","Latitude":"41.61510","Longitude":"-81.44590","Snowdepth":"7.000","Units":"in","Rept_Date":"2020-12-01 18"},"coordinates":[5169,4150]},{"type":"Point","properties":{"Station_ID":"41.4019_081.8479","Station_Nam":"Cleveland Hopkins Airport  Trained Spotter (CLE1104)","Latitude":"41.40193","Longitude":"-81.84787","Snowdepth":"7.000","Units":"in","Rept_Date":"2020-12-01 18"},"coordinates":[5033,4027]},{"type":"Point","properties":{"Station_ID":"41.3981_082.5700","Station_Nam":"HURON  SNOW SPOTTER (X4140826)","Latitude":"41.39810","Longitude":"-82.57000","Snowdepth":"7.000","Units":"in","Rept_Date":"2020-12-01 22"},"coordinates":[4789,4024]},{"type":"Point","properties":{"Station_ID":"41.1886_081.6336","Station_Nam":"Bath  Trained Spotter (CLE2146)","Latitude":"41.18861","Longitude":"-81.63361","Snowdepth":"7.000","Units":"in","Rept_Date":"2020-12-02 01"},"coordinates":[5105,3903]},{"type":"Point","properties":{"Station_ID":"41.1475_081.3235","Station_Nam":"KENT (CLE2202)","Latitude":"41.14750","Longitude":"-81.32350","Snowdepth":"7.000","Units":"in","Rept_Date":"2020-12-02 00"},"coordinates":[5210,3880]},{"type":"Point","properties":{"Station_ID":"41.1091_082.4398","Station_Nam":"3 NW New London  Trained Spotter (CLE1905)","Latitude":"41.10907","Longitude":"-82.43975","Snowdepth":"7.000","Units":"in","Rept_Date":"2020-12-01 22"},"coordinates":[4833,3857]},{"type":"Point","properties":{"Station_ID":"40.7301_082.8116","Station_Nam":"GALION (CLE2801)","Latitude":"40.73010","Longitude":"-82.81160","Snowdepth":"7.000","Units":"in","Rept_Date":"2020-12-01 23"},"coordinates":[4708,3638]},{"type":"Point","properties":{"Station_ID":"OH-CY-39","Station_Nam":"WESTLAKE 0.5 SSW, OH","Latitude":"41.44795","Longitude":"-81.93260","Snowdepth":"6.800","Units":"in","Rept_Date":"2020-12-01 13"},"coordinates":[5004,4053]},{"type":"Point","properties":{"Station_ID":"OH-GG-11","Station_Nam":"MADISON 4.2 S, OH","Latitude":"41.71238","Longitude":"-81.03871","Snowdepth":"6.500","Units":"in","Rept_Date":"2020-12-01 12"},"coordinates":[5306,4206]},{"type":"Point","properties":{"Station_ID":"OH-CY-42","Station_Nam":"STRONGSVILLE 1.3 SE, OH","Latitude":"41.29815","Longitude":"-81.81507","Snowdepth":"6.500","Units":"in","Rept_Date":"2020-12-01 13"},"coordinates":[5044,3967]},{"type":"Point","properties":{"Station_ID":"OH-GG-4","Station_Nam":"MONTVILLE 1.2 SSE, OH","Latitude":"41.59030","Longitude":"-81.04800","Snowdepth":"6.000","Units":"in","Rept_Date":"2020-12-01 12"},"coordinates":[5303,4136]},{"type":"Point","properties":{"Station_ID":"OH-CY-24","Station_Nam":"PARMA 1.9 NNW, OH","Latitude":"41.40881","Longitude":"-81.74480","Snowdepth":"6.000","Units":"in","Rept_Date":"2020-12-01 13"},"coordinates":[5068,4031]},{"type":"Point","properties":{"Station_ID":"OH-CW-1","Station_Nam":"GALION 1.1 W, OH","Latitude":"40.73024","Longitude":"-82.81170","Snowdepth":"6.000","Units":"in","Rept_Date":"2020-12-01 12"},"coordinates":[4708,3638]},{"type":"Point","properties":{"Station_ID":"NC-ML-15","Station_Nam":"BULADEAN 1.3 ESE, NC","Latitude":"36.10222","Longitude":"-82.17261","Snowdepth":"6.000","Units":"in","Rept_Date":"2020-12-01 14"},"coordinates":[4923,961]},{"type":"Point","properties":{"Station_ID":"CLQM5","Station_Nam":"CLOQUET","Latitude":"46.70470","Longitude":"-92.52530","Snowdepth":"6.000","Units":"in","Rept_Date":"2020-12-01 14"},"coordinates":[1428,7094]},{"type":"Point","properties":{"Station_ID":"CLCO1","Station_Nam":"CHILLICOTHE 6 NW","Latitude":"39.38350","Longitude":"-83.07730","Snowdepth":"6.000","Units":"in","Rept_Date":"2020-12-01 12"},"coordinates":[4618,2859]},{"type":"Point","properties":{"Station_ID":"CAN-ON-668","Station_Nam":"SCOTLAND 2.1 ENE - BSCIA02, CAN","Latitude":"43.02846","Longitude":"-80.34917","Snowdepth":"6.000","Units":"in","Rept_Date":"2020-12-01 12"},"coordinates":[5539,4968]},{"type":"Point","properties":{"Station_ID":"41.8034_080.9389","Station_Nam":"GENEVA  SNOW SPOTTER (CLE1467)","Latitude":"41.80340","Longitude":"-80.93890","Snowdepth":"6.000","Units":"in","Rept_Date":"2020-12-01 22"},"coordinates":[5340,4259]},{"type":"Point","properties":{"Station_ID":"41.5903_081.0480","Station_Nam":"1 SSE Montville  CoCoRaHS (OH-GG-4)","Latitude":"41.59030","Longitude":"-81.04800","Snowdepth":"6.000","Units":"in","Rept_Date":"2020-12-01 11"},"coordinates":[5303,4136]},{"type":"Point","properties":{"Station_ID":"41.4088_081.7448","Station_Nam":"2 NNW Parma  CoCoRaHS (OH-CY-24)","Latitude":"41.40880","Longitude":"-81.74480","Snowdepth":"6.000","Units":"in","Rept_Date":"2020-12-01 13"},"coordinates":[5068,4031]},{"type":"Point","properties":{"Station_ID":"41.2446_081.3327","Station_Nam":"1 ENE Streetsboro  Trained Spotter (X4120813)","Latitude":"41.24461","Longitude":"-81.33273","Snowdepth":"6.000","Units":"in","Rept_Date":"2020-12-02 01"},"coordinates":[5207,3936]},{"type":"Point","properties":{"Station_ID":"41.2418_080.8767","Station_Nam":"Leavittsburg  Trained Spotter (X4120809)","Latitude":"41.24184","Longitude":"-80.87668","Snowdepth":"6.000","Units":"in","Rept_Date":"2020-12-02 00"},"coordinates":[5361,3934]},{"type":"Point","properties":{"Station_ID":"41.1229_081.6252","Station_Nam":"FAIRLAWN  SNOW SPOTTER (X4110816)","Latitude":"41.12290","Longitude":"-81.62520","Snowdepth":"6.000","Units":"in","Rept_Date":"2020-12-02 01"},"coordinates":[5108,3865]},{"type":"Point","properties":{"Station_ID":"41.1184_081.4397","Station_Nam":"TALLMADGE (CLE2118)","Latitude":"41.11840","Longitude":"-81.43970","Snowdepth":"6.000","Units":"in","Rept_Date":"2020-12-02 01"},"coordinates":[5171,3863]},{"type":"Point","properties":{"Station_ID":"41.0648_082.0192","Station_Nam":"LODI  SNOW SPOTTER (X4110820)","Latitude":"41.06480","Longitude":"-82.01920","Snowdepth":"6.000","Units":"in","Rept_Date":"2020-12-02 02"},"coordinates":[4975,3832]},{"type":"Point","properties":{"Station_ID":"41.0288_083.6492","Station_Nam":"1 SSW Findlay  Trained Spotter (CLE1708)","Latitude":"41.02877","Longitude":"-83.64925","Snowdepth":"6.000","Units":"in","Rept_Date":"2020-12-01 13"},"coordinates":[4425,3811]},{"type":"Point","properties":{"Station_ID":"40.8973_082.8221","Station_Nam":"NEW WASHINGTON 5S (CLE2804)","Latitude":"40.89730","Longitude":"-82.82210","Snowdepth":"6.000","Units":"in","Rept_Date":"2020-12-01 12"},"coordinates":[4704,3735]},{"type":"Point","properties":{"Station_ID":"40.8774_081.5067","Station_Nam":"4 ESE Canal Fulton  Trained Spotter (CLE3233)","Latitude":"40.87736","Longitude":"-81.50673","Snowdepth":"6.000","Units":"in","Rept_Date":"2020-12-02 01"},"coordinates":[5148,3723]},{"type":"Point","properties":{"Station_ID":"40.8187_082.4287","Station_Nam":"MANSFIELD 7NE  SNOW SPOTTER (X4080824)","Latitude":"40.81870","Longitude":"-82.42870","Snowdepth":"6.000","Units":"in","Rept_Date":"2020-12-02 01"},"coordinates":[4837,3689]},{"type":"Point","properties":{"Station_ID":"40.7610_082.5426","Station_Nam":"MANSFIELD  SNOW SPOTTER (CLE2918)","Latitude":"40.76100","Longitude":"-82.54260","Snowdepth":"6.000","Units":"in","Rept_Date":"2020-12-02 00"},"coordinates":[4798,3656]},{"type":"Point","properties":{"Station_ID":"40.7302_082.8117","Station_Nam":"1 W Galion  CoCoRaHS (OH-CW-1)","Latitude":"40.73020","Longitude":"-82.81170","Snowdepth":"6.000","Units":"in","Rept_Date":"2020-12-01 12"},"coordinates":[4708,3638]},{"type":"Point","properties":{"Station_ID":"38.9770_080.0134","Station_Nam":"Talbott  Broadcast Media (X3900800)","Latitude":"38.97705","Longitude":"-80.01341","Snowdepth":"6.000","Units":"in","Rept_Date":"2020-12-02 01"},"coordinates":[5652,2624]},{"type":"Point","properties":{"Station_ID":"TN-CT-2","Station_Nam":"ROAN MOUNTAIN 7.1 W, TN","Latitude":"36.19353","Longitude":"-82.20080","Snowdepth":"5.900","Units":"in","Rept_Date":"2020-12-01 14"},"coordinates":[4914,1014]},{"type":"Point","properties":{"Station_ID":"CAN-ON-784","Station_Nam":"KOMOKA 3.1 W, CAN","Latitude":"42.96000","Longitude":"-81.43805","Snowdepth":"5.900","Units":"in","Rept_Date":"2020-12-01 13"},"coordinates":[5171,4928]},{"type":"Point","properties":{"Station_ID":"QMD","Station_Nam":"QMD","Latitude":"49.29060","Longitude":"-75.84500","Snowdepth":"5.512","Units":"in","Rept_Date":"2020-12-01 12"},"coordinates":[7060,8590]},{"type":"Point","properties":{"Station_ID":"OH-RS-8","Station_Nam":"CHILLICOTHE 5.8 NW, OH","Latitude":"39.38350","Longitude":"-83.07710","Snowdepth":"5.500","Units":"in","Rept_Date":"2020-12-01 12"},"coordinates":[4618,2859]},{"type":"Point","properties":{"Station_ID":"OH-RC-9","Station_Nam":"MANSFIELD 5.1 WSW, OH","Latitude":"40.73834","Longitude":"-82.61833","Snowdepth":"5.500","Units":"in","Rept_Date":"2020-12-01 14"},"coordinates":[4773,3643]},{"type":"Point","properties":{"Station_ID":"OH-LR-8","Station_Nam":"ELYRIA 0.4 SE, OH","Latitude":"41.37628","Longitude":"-82.09920","Snowdepth":"5.500","Units":"in","Rept_Date":"2020-12-01 12"},"coordinates":[4948,4012]},{"type":"Point","properties":{"Station_ID":"OH-AS-5","Station_Nam":"SULLIVAN 1.1 NNE, OH","Latitude":"41.04200","Longitude":"-82.21260","Snowdepth":"5.500","Units":"in","Rept_Date":"2020-12-01 12"},"coordinates":[4910,3818]},{"type":"Point","properties":{"Station_ID":"NC-ML-1","Station_Nam":"BAKERSVILLE 5.4 N, NC","Latitude":"36.09200","Longitude":"-82.17500","Snowdepth":"5.500","Units":"in","Rept_Date":"2020-12-01 13"},"coordinates":[4923,955]},{"type":"Point","properties":{"Station_ID":"CAN-ON-245","Station_Nam":"PHELPSTON 3.1 ESE, CAN","Latitude":"44.50564","Longitude":"-79.81035","Snowdepth":"5.500","Units":"in","Rept_Date":"2020-12-01 12"},"coordinates":[5721,5822]},{"type":"Point","properties":{"Station_ID":"41.0420_082.2126","Station_Nam":"1 NNE Sullivan  CoCoRaHS (OH-AS-5)","Latitude":"41.04200","Longitude":"-82.21260","Snowdepth":"5.500","Units":"in","Rept_Date":"2020-12-01 12"},"coordinates":[4910,3818]},{"type":"Point","properties":{"Station_ID":"OGIQ6","Station_Nam":"OGOKI CAMP","Latitude":"50.76680","Longitude":"-87.85820","Snowdepth":"5.470","Units":"in","Rept_Date":"2020-12-02 06"},"coordinates":[3004,9444]},{"type":"Point","properties":{"Station_ID":"FTHQ6","Station_Nam":"FORT HOPE","Latitude":"51.55820","Longitude":"-87.90510","Snowdepth":"5.390","Units":"in","Rept_Date":"2020-12-02 06"},"coordinates":[2988,9901]},{"type":"Point","properties":{"Station_ID":"KABQ6","Station_Nam":"CAB LAKE","Latitude":"49.59950","Longitude":"-89.17990","Snowdepth":"5.280","Units":"in","Rept_Date":"2020-12-02 06"},"coordinates":[2557,8768]},{"type":"Point","properties":{"Station_ID":"SOCQ6","Station_Nam":"SOCKET LAKE","Latitude":"50.77870","Longitude":"-91.79300","Snowdepth":"5.240","Units":"in","Rept_Date":"2020-12-02 06"},"coordinates":[1675,9451]},{"type":"Point","properties":{"Station_ID":"OH-AL-5","Station_Nam":"LIMA 2.7 NE, OH","Latitude":"40.77390","Longitude":"-84.08000","Snowdepth":"5.200","Units":"in","Rept_Date":"2020-12-01 12"},"coordinates":[4279,3663]},{"type":"Point","properties":{"Station_ID":"QGT","Station_Nam":"QGT","Latitude":"49.64720","Longitude":"-67.62640","Snowdepth":"5.118","Units":"in","Rept_Date":"2020-12-01 12"},"coordinates":[9835,8796]},{"type":"Point","properties":{"Station_ID":"CAN-ON-525","Station_Nam":"WOODSTOCK 1.2 ENE, CAN","Latitude":"43.13734","Longitude":"-80.73688","Snowdepth":"5.100","Units":"in","Rept_Date":"2020-12-01 13"},"coordinates":[5408,5031]},{"type":"Point","properties":{"Station_ID":"WV-WT-1","Station_Nam":"NEW MARTINSVILLE 6.5 E, WV","Latitude":"39.64898","Longitude":"-80.73820","Snowdepth":"5.000","Units":"in","Rept_Date":"2020-12-01 13"},"coordinates":[5408,3013]},{"type":"Point","properties":{"Station_ID":"RNMT1","Station_Nam":"ROAN MOUNTAIN 2SE","Latitude":"36.18470","Longitude":"-83.04670","Snowdepth":"5.000","Units":"in","Rept_Date":"2020-12-01 13"},"coordinates":[4628,1009]},{"type":"Point","properties":{"Station_ID":"OH-SD-2","Station_Nam":"FREMONT 2.2 ENE, OH","Latitude":"41.36582","Longitude":"-83.07538","Snowdepth":"5.000","Units":"in","Rept_Date":"2020-12-01 13"},"coordinates":[4619,4006]},{"type":"Point","properties":{"Station_ID":"OH-CY-41","Station_Nam":"LAKEWOOD 1.3 SSW, OH","Latitude":"41.46666","Longitude":"-81.81116","Snowdepth":"5.000","Units":"in","Rept_Date":"2020-12-01 12"},"coordinates":[5045,4064]},{"type":"Point","properties":{"Station_ID":"NC-MS-19","Station_Nam":"MARSHALL 15.1 NNE, NC","Latitude":"36.00835","Longitude":"-82.61821","Snowdepth":"5.000","Units":"in","Rept_Date":"2020-12-01 12"},"coordinates":[4773,907]},{"type":"Point","properties":{"Station_ID":"HVAW2","Station_Nam":"HACKER VALLEY","Latitude":"38.61950","Longitude":"-80.38210","Snowdepth":"5.000","Units":"in","Rept_Date":"2020-12-01 12"},"coordinates":[5528,2417]},{"type":"Point","properties":{"Station_ID":"CLUM4","Station_Nam":"CALUMET-TAMARACK","Latitude":"47.24550","Longitude":"-88.46790","Snowdepth":"5.000","Units":"in","Rept_Date":"2020-12-01 14"},"coordinates":[2798,7407]},{"type":"Point","properties":{"Station_ID":"ACEP1","Station_Nam":"DONEGAL 2 NW","Latitude":"40.13470","Longitude":"-79.40720","Snowdepth":"5.000","Units":"in","Rept_Date":"2020-12-01 12"},"coordinates":[5857,3294]},{"type":"Point","properties":{"Station_ID":"41.9986_080.3138","Station_Nam":"GIRARD  SNOW SPOTTER (X4200803)","Latitude":"41.99860","Longitude":"-80.31380","Snowdepth":"5.000","Units":"in","Rept_Date":"2020-12-01 23"},"coordinates":[5551,4372]},{"type":"Point","properties":{"Station_ID":"41.4901_082.0871","Station_Nam":"SHEFFIELD LAKE (CLE1015)","Latitude":"41.49010","Longitude":"-82.08710","Snowdepth":"5.000","Units":"in","Rept_Date":"2020-12-01 13"},"coordinates":[4952,4078]},{"type":"Point","properties":{"Station_ID":"41.3658_083.0754","Station_Nam":"2 ENE Fremont  CoCoRaHS (OH-SD-2)","Latitude":"41.36580","Longitude":"-83.07540","Snowdepth":"5.000","Units":"in","Rept_Date":"2020-12-01 13"},"coordinates":[4618,4006]},{"type":"Point","properties":{"Station_ID":"41.2282_080.8472","Station_Nam":"WARREN (CLE2324)","Latitude":"41.22820","Longitude":"-80.84720","Snowdepth":"5.000","Units":"in","Rept_Date":"2020-12-02 00"},"coordinates":[5371,3926]},{"type":"Point","properties":{"Station_ID":"41.1970_080.9871","Station_Nam":"NEWTON FALLS (CLE2322)","Latitude":"41.19700","Longitude":"-80.98710","Snowdepth":"5.000","Units":"in","Rept_Date":"2020-12-02 00"},"coordinates":[5324,3908]},{"type":"Point","properties":{"Station_ID":"41.1112_081.5823","Station_Nam":"2 ESE Fairlawn  Trained Spotter (CLE2145)","Latitude":"41.11120","Longitude":"-81.58229","Snowdepth":"5.000","Units":"in","Rept_Date":"2020-12-02 01"},"coordinates":[5123,3859]},{"type":"Point","properties":{"Station_ID":"40.9877_081.6532","Station_Nam":"3 ENE Doylestown  Trained Spotter (CLE3106)","Latitude":"40.98769","Longitude":"-81.65317","Snowdepth":"5.000","Units":"in","Rept_Date":"2020-12-02 01"},"coordinates":[5099,3787]},{"type":"Point","properties":{"Station_ID":"40.7621_082.3071","Station_Nam":"3 WSW Hayesville  Trained Spotter (CLE3007)","Latitude":"40.76208","Longitude":"-82.30712","Snowdepth":"5.000","Units":"in","Rept_Date":"2020-12-02 02"},"coordinates":[4878,3657]},{"type":"Point","properties":{"Station_ID":"39.0325_080.1287","Station_Nam":"2 SSE Murphy  Broadcast Media (X3900801)","Latitude":"39.03250","Longitude":"-80.12870","Snowdepth":"5.000","Units":"in","Rept_Date":"2020-12-02 01"},"coordinates":[5613,2656]},{"type":"Point","properties":{"Station_ID":"38.6195_080.3821","Station_Nam":"4.0 SW Holly River State  Co-Op Observer (HVAW2)","Latitude":"38.61950","Longitude":"-80.38210","Snowdepth":"5.000","Units":"in","Rept_Date":"2020-12-01 12"},"coordinates":[5528,2417]},{"type":"Point","properties":{"Station_ID":"QIQ","Station_Nam":"QIQ","Latitude":"49.82390","Longitude":"-68.54310","Snowdepth":"4.842","Units":"in","Rept_Date":"2020-12-01 12"},"coordinates":[9525,8898]},{"type":"Point","properties":{"Station_ID":"WV-PR-10","Station_Nam":"TERRA ALTA 4.9 NNE, WV","Latitude":"39.51024","Longitude":"-79.51024","Snowdepth":"4.700","Units":"in","Rept_Date":"2020-12-01 12"},"coordinates":[5822,2932]},{"type":"Point","properties":{"Station_ID":"CATQ6","Station_Nam":"CAT LAKE","Latitude":"51.72690","Longitude":"-91.82210","Snowdepth":"4.650","Units":"in","Rept_Date":"2020-12-02 06"},"coordinates":[1665,9999]},{"type":"Point","properties":{"Station_ID":"WV-WD-18","Station_Nam":"WALKER 2.1 SW, WV","Latitude":"39.15838","Longitude":"-81.41237","Snowdepth":"4.600","Units":"in","Rept_Date":"2020-12-01 12"},"coordinates":[5180,2729]},{"type":"Point","properties":{"Station_ID":"39.1584_081.4124","Station_Nam":"WV WOOD WALKER 2.1 SW COCORAHS (X3910814)","Latitude":"39.15840","Longitude":"-81.41240","Snowdepth":"4.600","Units":"in","Rept_Date":"2020-12-01 12"},"coordinates":[5180,2729]},{"type":"Point","properties":{"Station_ID":"WV-RT-2","Station_Nam":"PENNSBORO 1.2 ESE, WV","Latitude":"39.27361","Longitude":"-80.95578","Snowdepth":"4.500","Units":"in","Rept_Date":"2020-12-01 12"},"coordinates":[5334,2796]},{"type":"Point","properties":{"Station_ID":"OH-PT-9","Station_Nam":"HIRAM 0.4 N, OH","Latitude":"41.31595","Longitude":"-81.14340","Snowdepth":"4.500","Units":"in","Rept_Date":"2020-12-01 13"},"coordinates":[5271,3977]},{"type":"Point","properties":{"Station_ID":"OH-PT-15","Station_Nam":"AURORA 2.0 W, OH","Latitude":"41.31224","Longitude":"-81.38221","Snowdepth":"4.500","Units":"in","Rept_Date":"2020-12-01 13"},"coordinates":[5190,3975]},{"type":"Point","properties":{"Station_ID":"OH-MW-4","Station_Nam":"MOUNT GILEAD 4.9 ESE, OH","Latitude":"40.51426","Longitude":"-82.75561","Snowdepth":"4.500","Units":"in","Rept_Date":"2020-12-01 12"},"coordinates":[4726,3513]},{"type":"Point","properties":{"Station_ID":"OH-HR-2","Station_Nam":"BELLEVUE 0.6 N, OH","Latitude":"41.28386","Longitude":"-82.84080","Snowdepth":"4.500","Units":"in","Rept_Date":"2020-12-01 12"},"coordinates":[4698,3958]},{"type":"Point","properties":{"Station_ID":"OH-CW-3","Station_Nam":"BUCYRUS 1.0 NW, OH","Latitude":"40.81455","Longitude":"-82.98480","Snowdepth":"4.500","Units":"in","Rept_Date":"2020-12-01 12"},"coordinates":[4649,3687]},{"type":"Point","properties":{"Station_ID":"MI-HG-20","Station_Nam":"CALUMET 1.1 SSW, MI","Latitude":"47.23165","Longitude":"-88.45823","Snowdepth":"4.500","Units":"in","Rept_Date":"2020-12-01 11"},"coordinates":[2801,7399]},{"type":"Point","properties":{"Station_ID":"MI-BG-3","Station_Nam":"THREE LAKES, MI","Latitude":"46.55730","Longitude":"-88.20770","Snowdepth":"4.500","Units":"in","Rept_Date":"2020-12-01 13"},"coordinates":[2886,7009]},{"type":"Point","properties":{"Station_ID":"CAN-ON-187","Station_Nam":"WATERLOO 1.9 E - UOFW, CAN","Latitude":"43.47024","Longitude":"-80.50634","Snowdepth":"4.500","Units":"in","Rept_Date":"2020-12-01 13"},"coordinates":[5486,5223]},{"type":"Point","properties":{"Station_ID":"41.3160_081.1434","Station_Nam":"N Hiram  CoCoRaHS (OH-PT-9)","Latitude":"41.31600","Longitude":"-81.14340","Snowdepth":"4.500","Units":"in","Rept_Date":"2020-12-01 13"},"coordinates":[5271,3977]},{"type":"Point","properties":{"Station_ID":"41.3123_081.3822","Station_Nam":"2 W Aurora  CoCoRaHS (OH-PT-15)","Latitude":"41.31230","Longitude":"-81.38220","Snowdepth":"4.500","Units":"in","Rept_Date":"2020-12-01 13"},"coordinates":[5190,3975]},{"type":"Point","properties":{"Station_ID":"41.2839_082.8408","Station_Nam":"1 N Bellevue  CoCoRaHS (OH-HR-2)","Latitude":"41.28390","Longitude":"-82.84080","Snowdepth":"4.500","Units":"in","Rept_Date":"2020-12-01 10"},"coordinates":[4698,3958]},{"type":"Point","properties":{"Station_ID":"40.8146_082.9848","Station_Nam":"1 NW Bucyrus  CoCoRaHS (OH-CW-3)","Latitude":"40.81460","Longitude":"-82.98480","Snowdepth":"4.500","Units":"in","Rept_Date":"2020-12-01 12"},"coordinates":[4649,3687]},{"type":"Point","properties":{"Station_ID":"40.5143_082.7556","Station_Nam":"5 ESE Mount Gilead  CoCoRaHS (OH-MW-4)","Latitude":"40.51430","Longitude":"-82.75560","Snowdepth":"4.500","Units":"in","Rept_Date":"2020-12-01 11"},"coordinates":[4726,3513]},{"type":"Point","properties":{"Station_ID":"39.2736_080.9558","Station_Nam":"1 ESE Pennsboro  CoCoRaHS (WV-RT-2)","Latitude":"39.27360","Longitude":"-80.95580","Snowdepth":"4.500","Units":"in","Rept_Date":"2020-12-01 12"},"coordinates":[5334,2796]},{"type":"Point","properties":{"Station_ID":"38.4498_081.2323","Station_Nam":"Bomont  Public (X3840812)","Latitude":"38.44982","Longitude":"-81.23234","Snowdepth":"4.500","Units":"in","Rept_Date":"2020-12-01 15"},"coordinates":[5241,2319]},{"type":"Point","properties":{"Station_ID":"QWG","Station_Nam":"QWG","Latitude":"48.48890","Longitude":"-73.45940","Snowdepth":"4.291","Units":"in","Rept_Date":"2020-12-01 12"},"coordinates":[7865,8126]},{"type":"Point","properties":{"Station_ID":"SVBQ6","Station_Nam":"SAVANT BASE","Latitude":"50.28730","Longitude":"-90.65670","Snowdepth":"4.210","Units":"in","Rept_Date":"2020-12-02 06"},"coordinates":[2059,9166]},{"type":"Point","properties":{"Station_ID":"WV-NC-4","Station_Nam":"CRAIGSVILLE 0.6 NE, WV","Latitude":"38.33698","Longitude":"-80.64520","Snowdepth":"4.200","Units":"in","Rept_Date":"2020-12-01 12"},"coordinates":[5439,2254]},{"type":"Point","properties":{"Station_ID":"TN-PM-45","Station_Nam":"MONTEREY 5.6 S, TN","Latitude":"36.05190","Longitude":"-85.25000","Snowdepth":"4.200","Units":"in","Rept_Date":"2020-12-01 13"},"coordinates":[3884,932]},{"type":"Point","properties":{"Station_ID":"CAN-ON-646","Station_Nam":"MISSISSAUGA 6.4 SSE - CANWARN, CAN","Latitude":"43.53417","Longitude":"-79.62089","Snowdepth":"4.200","Units":"in","Rept_Date":"2020-12-01 14"},"coordinates":[5785,5260]},{"type":"Point","properties":{"Station_ID":"38.3370_080.6452","Station_Nam":"1 NE Craigsville  CoCoRaHS (WV-NC-4)","Latitude":"38.33700","Longitude":"-80.64520","Snowdepth":"4.200","Units":"in","Rept_Date":"2020-12-01 12"},"coordinates":[5439,2254]},{"type":"Point","properties":{"Station_ID":"OH-AT-3","Station_Nam":"STEWART 4.6 NNE, OH","Latitude":"39.37182","Longitude":"-81.86620","Snowdepth":"4.100","Units":"in","Rept_Date":"2020-12-01 12"},"coordinates":[5027,2852]},{"type":"Point","properties":{"Station_ID":"CAN-ON-707","Station_Nam":"HARROW 5.6 WSW, CAN","Latitude":"42.00895","Longitude":"-82.97658","Snowdepth":"4.100","Units":"in","Rept_Date":"2020-12-01 18"},"coordinates":[4652,4378]},{"type":"Point","properties":{"Station_ID":"CAN-ON-342","Station_Nam":"LURGAN BEACH 1.4 NNE - LHCC, CAN","Latitude":"44.09777","Longitude":"-81.72765","Snowdepth":"4.100","Units":"in","Rept_Date":"2020-12-01 12"},"coordinates":[5074,5586]},{"type":"Point","properties":{"Station_ID":"WRNK2","Station_Nam":"WARNOCK 2","Latitude":"38.49460","Longitude":"-83.01830","Snowdepth":"4.000","Units":"in","Rept_Date":"2020-12-01 11"},"coordinates":[4638,2345]},{"type":"Point","properties":{"Station_ID":"RCVW2","Station_Nam":"ROCK CAVE 2NE","Latitude":"38.85610","Longitude":"-80.30740","Snowdepth":"4.000","Units":"in","Rept_Date":"2020-12-01 13"},"coordinates":[5553,2554]},{"type":"Point","properties":{"Station_ID":"PDLM4","Station_Nam":"PAINESDALE","Latitude":"47.04160","Longitude":"-88.67170","Snowdepth":"4.000","Units":"in","Rept_Date":"2020-12-01 13"},"coordinates":[2729,7289]},{"type":"Point","properties":{"Station_ID":"PA-WS-8","Station_Nam":"VENETIA 0.7 WNW, PA","Latitude":"40.25222","Longitude":"-80.05390","Snowdepth":"4.000","Units":"in","Rept_Date":"2020-12-01 17"},"coordinates":[5639,3362]},{"type":"Point","properties":{"Station_ID":"OH-WD-23","Station_Nam":"BOWLING GREEN 0.8 W, OH","Latitude":"41.37570","Longitude":"-83.66406","Snowdepth":"4.000","Units":"in","Rept_Date":"2020-12-01 12"},"coordinates":[4420,4012]},{"type":"Point","properties":{"Station_ID":"OH-PT-21","Station_Nam":"AURORA 1.6 WNW, OH","Latitude":"41.31840","Longitude":"-81.37449","Snowdepth":"4.000","Units":"in","Rept_Date":"2020-12-01 12"},"coordinates":[5193,3978]},{"type":"Point","properties":{"Station_ID":"OH-OT-9","Station_Nam":"PORT CLINTON 6.8 W, OH","Latitude":"41.52388","Longitude":"-83.06833","Snowdepth":"4.000","Units":"in","Rept_Date":"2020-12-01 13"},"coordinates":[4621,4097]},{"type":"Point","properties":{"Station_ID":"OH-LC-29","Station_Nam":"PATASKALA 0.2 E, OH","Latitude":"40.00081","Longitude":"-82.66960","Snowdepth":"4.000","Units":"in","Rept_Date":"2020-12-01 13"},"coordinates":[4756,3216]},{"type":"Point","properties":{"Station_ID":"OH-LC-26","Station_Nam":"KIRKERSVILLE 3.3 N, OH","Latitude":"39.99803","Longitude":"-82.59864","Snowdepth":"4.000","Units":"in","Rept_Date":"2020-12-01 12"},"coordinates":[4779,3215]},{"type":"Point","properties":{"Station_ID":"OH-LC-1","Station_Nam":"ALEXANDRIA 2.1 NNW, OH","Latitude":"40.11817","Longitude":"-82.62647","Snowdepth":"4.000","Units":"in","Rept_Date":"2020-12-01 12"},"coordinates":[4770,3284]},{"type":"Point","properties":{"Station_ID":"OH-FR-8","Station_Nam":"NEW ALBANY 2.8 SSE, OH","Latitude":"40.04029","Longitude":"-82.79800","Snowdepth":"4.000","Units":"in","Rept_Date":"2020-12-01 12"},"coordinates":[4712,3239]},{"type":"Point","properties":{"Station_ID":"OH-CY-53","Station_Nam":"BEREA 1.1 NW, OH","Latitude":"41.38213","Longitude":"-81.87579","Snowdepth":"4.000","Units":"in","Rept_Date":"2020-12-01 12"},"coordinates":[5024,4015]},{"type":"Point","properties":{"Station_ID":"OH-CN-6","Station_Nam":"WILMINGTON 3.6 W, OH","Latitude":"39.44200","Longitude":"-83.89880","Snowdepth":"4.000","Units":"in","Rept_Date":"2020-12-02 00"},"coordinates":[4340,2893]},{"type":"Point","properties":{"Station_ID":"OH-CN-14","Station_Nam":"WILMINGTON 7.4 NNW, OH","Latitude":"39.54607","Longitude":"-83.87280","Snowdepth":"4.000","Units":"in","Rept_Date":"2020-12-01 12"},"coordinates":[4349,2953]},{"type":"Point","properties":{"Station_ID":"OH-CN-10","Station_Nam":"WILMINGTON 2.2 N, OH","Latitude":"39.47452","Longitude":"-83.83610","Snowdepth":"4.000","Units":"in","Rept_Date":"2020-12-01 12"},"coordinates":[4362,2912]},{"type":"Point","properties":{"Station_ID":"OH-AL-8","Station_Nam":"DELPHOS 2.3 ESE, OH","Latitude":"40.83350","Longitude":"-84.29820","Snowdepth":"4.000","Units":"in","Rept_Date":"2020-12-01 12"},"coordinates":[4206,3698]},{"type":"Point","properties":{"Station_ID":"OH-AL-10","Station_Nam":"LIMA 3.0 SSE, OH","Latitude":"40.70090","Longitude":"-84.09660","Snowdepth":"4.000","Units":"in","Rept_Date":"2020-12-01 12"},"coordinates":[4274,3621]},{"type":"Point","properties":{"Station_ID":"NWLO1","Station_Nam":"NEW LEXINGTON 2 NW","Latitude":"39.73320","Longitude":"-82.21560","Snowdepth":"4.000","Units":"in","Rept_Date":"2020-12-01 12"},"coordinates":[4909,3061]},{"type":"Point","properties":{"Station_ID":"NC-YN-7","Station_Nam":"BALD CREEK 1.2 NW, NC","Latitude":"35.92320","Longitude":"-82.43880","Snowdepth":"4.000","Units":"in","Rept_Date":"2020-12-01 13"},"coordinates":[4833,858]},{"type":"Point","properties":{"Station_ID":"NC-MS-7","Station_Nam":"HOT SPRINGS 8.4 SSW, NC","Latitude":"35.78343","Longitude":"-82.89470","Snowdepth":"4.000","Units":"in","Rept_Date":"2020-12-01 14"},"coordinates":[4680,777]},{"type":"Point","properties":{"Station_ID":"NC-MS-5","Station_Nam":"MARSHALL 13.6 NNW, NC","Latitude":"35.98208","Longitude":"-82.76720","Snowdepth":"4.000","Units":"in","Rept_Date":"2020-12-01 13"},"coordinates":[4723,892]},{"type":"Point","properties":{"Station_ID":"MYVO1","Station_Nam":"MARYSVILLE","Latitude":"40.19380","Longitude":"-83.26750","Snowdepth":"4.000","Units":"in","Rept_Date":"2020-12-01 12"},"coordinates":[4554,3328]},{"type":"Point","properties":{"Station_ID":"MFD","Station_Nam":"LAHM MUNICIPAL AIRPORT","Latitude":"40.82140","Longitude":"-82.51640","Snowdepth":"4.000","Units":"in","Rept_Date":"2020-12-02 00"},"coordinates":[4807,3691]},{"type":"Point","properties":{"Station_ID":"LNVP1","Station_Nam":"PA FISH COMMISSION HATCHERY","Latitude":"41.65000","Longitude":"-80.43330","Snowdepth":"4.000","Units":"in","Rept_Date":"2020-12-01 12"},"coordinates":[5511,4170]},{"type":"Point","properties":{"Station_ID":"LEIM5","Station_Nam":"ORR 3E","Latitude":"48.05810","Longitude":"-92.75220","Snowdepth":"4.000","Units":"in","Rept_Date":"2020-12-01 12"},"coordinates":[1351,7877]},{"type":"Point","properties":{"Station_ID":"JAMT1","Station_Nam":"JAMESTOWN,TN","Latitude":"36.43220","Longitude":"-84.94280","Snowdepth":"4.000","Units":"in","Rept_Date":"2020-12-01 13"},"coordinates":[3988,1152]},{"type":"Point","properties":{"Station_ID":"HVJP1","Station_Nam":"HIDDEN VALLEY COOP","Latitude":"40.04200","Longitude":"-79.25660","Snowdepth":"4.000","Units":"in","Rept_Date":"2020-12-01 13"},"coordinates":[5908,3240]},{"type":"Point","properties":{"Station_ID":"GEST1","Station_Nam":"GREENEVILLE,TN","Latitude":"36.10560","Longitude":"-82.84360","Snowdepth":"4.000","Units":"in","Rept_Date":"2020-12-01 15"},"coordinates":[4697,963]},{"type":"Point","properties":{"Station_ID":"CTRO1","Station_Nam":"CENTERBURG,OH","Latitude":"40.30000","Longitude":"-82.65000","Snowdepth":"4.000","Units":"in","Rept_Date":"2020-12-01 13"},"coordinates":[4762,3389]},{"type":"Point","properties":{"Station_ID":"CAN-ON-324","Station_Nam":"AMHERSTBURG 4.0 NNE, CAN","Latitude":"42.13151","Longitude":"-83.08810","Snowdepth":"4.000","Units":"in","Rept_Date":"2020-12-01 12"},"coordinates":[4614,4449]},{"type":"Point","properties":{"Station_ID":"CAN-ON-322","Station_Nam":"WINDSOR 4.0 NE, CAN","Latitude":"42.31785","Longitude":"-83.01522","Snowdepth":"4.000","Units":"in","Rept_Date":"2020-12-01 12"},"coordinates":[4639,4556]},{"type":"Point","properties":{"Station_ID":"ALXO1","Station_Nam":"ALEXANDRIA 2 NNW","Latitude":"40.11810","Longitude":"-82.62640","Snowdepth":"4.000","Units":"in","Rept_Date":"2020-12-01 12"},"coordinates":[4770,3284]},{"type":"Point","properties":{"Station_ID":"42.2168_079.8473","Station_Nam":"NORTH EAST  SNOW SPOTTER (X4220798)","Latitude":"42.21680","Longitude":"-79.84730","Snowdepth":"4.000","Units":"in","Rept_Date":"2020-12-02 00"},"coordinates":[5708,4498]},{"type":"Point","properties":{"Station_ID":"42.0299_080.0884","Station_Nam":"SUMMIT TWP  SNOW SPOTTER (X4200801)","Latitude":"42.02990","Longitude":"-80.08840","Snowdepth":"4.000","Units":"in","Rept_Date":"2020-12-02 02"},"coordinates":[5627,4390]},{"type":"Point","properties":{"Station_ID":"42.0131_080.3276","Station_Nam":"1 NNW Girard  Trained Spotter (CLE0196)","Latitude":"42.01312","Longitude":"-80.32758","Snowdepth":"4.000","Units":"in","Rept_Date":"2020-12-01 23"},"coordinates":[5546,4380]},{"type":"Point","properties":{"Station_ID":"41.8723_080.7363","Station_Nam":"Edgewood  Trained Spotter (X4190807)","Latitude":"41.87235","Longitude":"-80.73632","Snowdepth":"4.000","Units":"in","Rept_Date":"2020-12-02 03"},"coordinates":[5408,4299]},{"type":"Point","properties":{"Station_ID":"41.8605_080.7684","Station_Nam":"ASHTABULA  SNOW SPOTTER (CLE1449)","Latitude":"41.86050","Longitude":"-80.76840","Snowdepth":"4.000","Units":"in","Rept_Date":"2020-12-01 22"},"coordinates":[5397,4292]},{"type":"Point","properties":{"Station_ID":"41.6500_080.4333","Station_Nam":"PA FISH COMMISSION HATCHERY  CO-OP OBSERVER (LNVP1)","Latitude":"41.65000","Longitude":"-80.43330","Snowdepth":"4.000","Units":"in","Rept_Date":"2020-12-01 12"},"coordinates":[5511,4170]},{"type":"Point","properties":{"Station_ID":"41.5239_083.0683","Station_Nam":"7 W Port Clinton  CoCoRaHS (OH-OT-9)","Latitude":"41.52390","Longitude":"-83.06830","Snowdepth":"4.000","Units":"in","Rept_Date":"2020-12-01 13"},"coordinates":[4621,4097]},{"type":"Point","properties":{"Station_ID":"41.1008_080.7488","Station_Nam":"AUSTINTOWN (CLE3303)","Latitude":"41.10080","Longitude":"-80.74880","Snowdepth":"4.000","Units":"in","Rept_Date":"2020-12-02 01"},"coordinates":[5404,3852]},{"type":"Point","properties":{"Station_ID":"41.0525_081.3883","Station_Nam":"1 ENE Mogadore  Trained Spotter (CLE2227)","Latitude":"41.05249","Longitude":"-81.38832","Snowdepth":"4.000","Units":"in","Rept_Date":"2020-12-02 00"},"coordinates":[5188,3825]},{"type":"Point","properties":{"Station_ID":"41.0211_083.2042","Station_Nam":"2 NNW Mexico  Trained Spotter (CLE1803)","Latitude":"41.02114","Longitude":"-83.20421","Snowdepth":"4.000","Units":"in","Rept_Date":"2020-12-01 14"},"coordinates":[4575,3806]},{"type":"Point","properties":{"Station_ID":"40.9055_081.0990","Station_Nam":"1 ESE Alliance  Trained Spotter (CLE3238)","Latitude":"40.90545","Longitude":"-81.09899","Snowdepth":"4.000","Units":"in","Rept_Date":"2020-12-02 00"},"coordinates":[5286,3740]},{"type":"Point","properties":{"Station_ID":"40.8570_081.1246","Station_Nam":"ALLIANCE  SNOW SPOTTER (CLE3201)","Latitude":"40.85700","Longitude":"-81.12460","Snowdepth":"4.000","Units":"in","Rept_Date":"2020-12-02 00"},"coordinates":[5277,3711]},{"type":"Point","properties":{"Station_ID":"40.8143_081.3903","Station_Nam":"CANTON  SNOW SPOTTER (X4080814)","Latitude":"40.81430","Longitude":"-81.39030","Snowdepth":"4.000","Units":"in","Rept_Date":"2020-12-02 00"},"coordinates":[5187,3687]},{"type":"Point","properties":{"Station_ID":"40.8130_082.5161","Station_Nam":"Mansfield Lahm Airport  Trained Spotter (CLE2901)","Latitude":"40.81299","Longitude":"-82.51614","Snowdepth":"4.000","Units":"in","Rept_Date":"2020-12-01 18"},"coordinates":[4807,3686]},{"type":"Point","properties":{"Station_ID":"40.8100_082.5200","Station_Nam":"MANSFLD ARPT (CLE290)","Latitude":"40.81000","Longitude":"-82.52000","Snowdepth":"4.000","Units":"in","Rept_Date":"2020-12-01 12"},"coordinates":[4806,3684]},{"type":"Point","properties":{"Station_ID":"40.6548_082.3112","Station_Nam":"Perrysville  Trained Spotter (X4070823)","Latitude":"40.65480","Longitude":"-82.31123","Snowdepth":"4.000","Units":"in","Rept_Date":"2020-12-01 10"},"coordinates":[4877,3595]},{"type":"Point","properties":{"Station_ID":"39.7332_082.2156","Station_Nam":"2 NW NEW LEXINGTON  CO-OP OBSERVER (X3970822)","Latitude":"39.73320","Longitude":"-82.21560","Snowdepth":"4.000","Units":"in","Rept_Date":"2020-12-01 12"},"coordinates":[4909,3061]},{"type":"Point","properties":{"Station_ID":"39.2489_080.3052","Station_Nam":"Stonewood  Public (X3920803)","Latitude":"39.24890","Longitude":"-80.30520","Snowdepth":"4.000","Units":"in","Rept_Date":"2020-12-01 23"},"coordinates":[5554,2781]},{"type":"Point","properties":{"Station_ID":"38.8561_080.3074","Station_Nam":"2 NE ROCK CAVE  CO-OP OBSERVER (RCVW2)","Latitude":"38.85610","Longitude":"-80.30740","Snowdepth":"4.000","Units":"in","Rept_Date":"2020-12-01 13"},"coordinates":[5553,2554]},{"type":"Point","properties":{"Station_ID":"38.4946_083.0183","Station_Nam":"1 W WARNOCK  CO-OP OBSERVER (X3850830)","Latitude":"38.49460","Longitude":"-83.01830","Snowdepth":"4.000","Units":"in","Rept_Date":"2020-12-01 11"},"coordinates":[4638,2345]},{"type":"Point","properties":{"Station_ID":"38.3340_081.1751","Station_Nam":"Lizemores  Public (X3830812)","Latitude":"38.33399","Longitude":"-81.17511","Snowdepth":"4.000","Units":"in","Rept_Date":"2020-12-01 16"},"coordinates":[5260,2252]},{"type":"Point","properties":{"Station_ID":"CAN-ON-86","Station_Nam":"GUELPH 5.1 S - CANWARN, CAN","Latitude":"43.49691","Longitude":"-80.24385","Snowdepth":"3.900","Units":"in","Rept_Date":"2020-12-01 12"},"coordinates":[5575,5238]},{"type":"Point","properties":{"Station_ID":"CAN-ON-593","Station_Nam":"KITCHENER 4.5 E, CAN","Latitude":"43.45147","Longitude":"-80.43180","Snowdepth":"3.900","Units":"in","Rept_Date":"2020-12-01 14"},"coordinates":[5511,5212]},{"type":"Point","properties":{"Station_ID":"CAN-ON-248","Station_Nam":"WINDSOR 6.5 SE, CAN","Latitude":"42.24941","Longitude":"-82.99996","Snowdepth":"3.900","Units":"in","Rept_Date":"2020-12-01 12"},"coordinates":[4644,4517]},{"type":"Point","properties":{"Station_ID":"PA-BT-6","Station_Nam":"BUTLER 6.6 SW, PA","Latitude":"40.77069","Longitude":"-79.93850","Snowdepth":"3.800","Units":"in","Rept_Date":"2020-12-01 12"},"coordinates":[5678,3662]},{"type":"Point","properties":{"Station_ID":"OH-PT-13","Station_Nam":"MANTUA 1.0 NNW, OH","Latitude":"41.29421","Longitude":"-81.23160","Snowdepth":"3.800","Units":"in","Rept_Date":"2020-12-01 12"},"coordinates":[5241,3964]},{"type":"Point","properties":{"Station_ID":"39.6541_081.8444","Station_Nam":"MCCONNELSVILLE (X3970818)","Latitude":"39.65410","Longitude":"-81.84440","Snowdepth":"3.800","Units":"in","Rept_Date":"2020-12-01 15"},"coordinates":[5034,3016]},{"type":"Point","properties":{"Station_ID":"CAN-ON-719","Station_Nam":"HAGERSVILLE 6.0 ESE, CAN","Latitude":"42.93833","Longitude":"-79.98528","Snowdepth":"3.700","Units":"in","Rept_Date":"2020-12-02 05"},"coordinates":[5662,4915]},{"type":"Point","properties":{"Station_ID":"QLP","Station_Nam":"QLP","Latitude":"48.13920","Longitude":"-72.63830","Snowdepth":"3.661","Units":"in","Rept_Date":"2020-12-01 12"},"coordinates":[8142,7924]},{"type":"Point","properties":{"Station_ID":"OH-DL-10","Station_Nam":"SUNBURY 5.7 ESE, OH","Latitude":"40.20014","Longitude":"-82.77320","Snowdepth":"3.600","Units":"in","Rept_Date":"2020-12-01 12"},"coordinates":[4721,3332]},{"type":"Point","properties":{"Station_ID":"QWE","Station_Nam":"QWE","Latitude":"47.84610","Longitude":"-73.80670","Snowdepth":"3.583","Units":"in","Rept_Date":"2020-12-01 12"},"coordinates":[7748,7754]},{"type":"Point","properties":{"Station_ID":"WV-WD-1","Station_Nam":"DAVISVILLE 3.8 NE, WV","Latitude":"39.23353","Longitude":"-81.44080","Snowdepth":"3.500","Units":"in","Rept_Date":"2020-12-01 12"},"coordinates":[5170,2772]},{"type":"Point","properties":{"Station_ID":"WV-KN-38","Station_Nam":"ELKVIEW 3.4 N, WV","Latitude":"38.48300","Longitude":"-81.46474","Snowdepth":"3.500","Units":"in","Rept_Date":"2020-12-01 16"},"coordinates":[5162,2338]},{"type":"Point","properties":{"Station_ID":"WV-GL-4","Station_Nam":"GLENVILLE 5.9 W, WV","Latitude":"38.95326","Longitude":"-80.94213","Snowdepth":"3.500","Units":"in","Rept_Date":"2020-12-01 12"},"coordinates":[5339,2610]},{"type":"Point","properties":{"Station_ID":"WV-DD-1","Station_Nam":"CENTER POINT 2.2 NNW, WV","Latitude":"39.41954","Longitude":"-80.65610","Snowdepth":"3.500","Units":"in","Rept_Date":"2020-12-01 12"},"coordinates":[5435,2880]},{"type":"Point","properties":{"Station_ID":"PA-FY-18","Station_Nam":"HOPWOOD 1.2 NE, PA","Latitude":"39.88854","Longitude":"-79.68346","Snowdepth":"3.500","Units":"in","Rept_Date":"2020-12-01 12"},"coordinates":[5764,3151]},{"type":"Point","properties":{"Station_ID":"OH-PT-10","Station_Nam":"KENT 3.6 NE, OH","Latitude":"41.20083","Longitude":"-81.33890","Snowdepth":"3.500","Units":"in","Rept_Date":"2020-12-01 13"},"coordinates":[5205,3910]},{"type":"Point","properties":{"Station_ID":"OH-MD-1","Station_Nam":"WADSWORTH 4.7 WNW, OH","Latitude":"41.04276","Longitude":"-81.81930","Snowdepth":"3.500","Units":"in","Rept_Date":"2020-12-01 10"},"coordinates":[5043,3819]},{"type":"Point","properties":{"Station_ID":"OH-LC-10","Station_Nam":"GRANVILLE 4.0 N, OH","Latitude":"40.12820","Longitude":"-82.51580","Snowdepth":"3.500","Units":"in","Rept_Date":"2020-12-01 12"},"coordinates":[4807,3290]},{"type":"Point","properties":{"Station_ID":"OH-FR-58","Station_Nam":"COLUMBUS 5.4 NW, OH","Latitude":"40.04632","Longitude":"-83.05594","Snowdepth":"3.500","Units":"in","Rept_Date":"2020-12-01 13"},"coordinates":[4625,3243]},{"type":"Point","properties":{"Station_ID":"OH-FR-2","Station_Nam":"DUBLIN 3.2 ENE, OH","Latitude":"40.12990","Longitude":"-83.07420","Snowdepth":"3.500","Units":"in","Rept_Date":"2020-12-01 12"},"coordinates":[4619,3291]},{"type":"Point","properties":{"Station_ID":"OH-AT-16","Station_Nam":"ATHENS 2.3 SSE, OH","Latitude":"39.29397","Longitude":"-82.07930","Snowdepth":"3.500","Units":"in","Rept_Date":"2020-12-01 12"},"coordinates":[4955,2807]},{"type":"Point","properties":{"Station_ID":"MN-CN-36","Station_Nam":"CLOQUET 3.4 ENE, MN","Latitude":"46.74146","Longitude":"-92.42698","Snowdepth":"3.500","Units":"in","Rept_Date":"2020-12-01 13"},"coordinates":[1461,7115]},{"type":"Point","properties":{"Station_ID":"MI-HR-1","Station_Nam":"BAD AXE 6.3 SSW, MI","Latitude":"43.72262","Longitude":"-83.05730","Snowdepth":"3.500","Units":"in","Rept_Date":"2020-12-01 16"},"coordinates":[4625,5369]},{"type":"Point","properties":{"Station_ID":"CAN-ON-9","Station_Nam":"WINDSOR 1.7 SE, CAN","Latitude":"42.28448","Longitude":"-83.03456","Snowdepth":"3.500","Units":"in","Rept_Date":"2020-12-01 12"},"coordinates":[4632,4537]},{"type":"Point","properties":{"Station_ID":"CAN-ON-477","Station_Nam":"CALEDONIA 0.3 NW - GRCA, CAN","Latitude":"43.07135","Longitude":"-79.95667","Snowdepth":"3.500","Units":"in","Rept_Date":"2020-12-01 12"},"coordinates":[5671,4992]},{"type":"Point","properties":{"Station_ID":"41.2008_081.3389","Station_Nam":"4 NE Kent  CoCoRaHS (OH-PT-10)","Latitude":"41.20080","Longitude":"-81.33890","Snowdepth":"3.500","Units":"in","Rept_Date":"2020-12-01 13"},"coordinates":[5205,3910]},{"type":"Point","properties":{"Station_ID":"39.4195_080.6561","Station_Nam":"2 NNW Center Point  CoCoRaHS (WV-DD-1)","Latitude":"39.41950","Longitude":"-80.65610","Snowdepth":"3.500","Units":"in","Rept_Date":"2020-12-01 12"},"coordinates":[5435,2880]},{"type":"Point","properties":{"Station_ID":"39.2940_082.0793","Station_Nam":"2 SSE Athens  CoCoRaHS (OH-AT-16)","Latitude":"39.29400","Longitude":"-82.07930","Snowdepth":"3.500","Units":"in","Rept_Date":"2020-12-01 12"},"coordinates":[4955,2807]},{"type":"Point","properties":{"Station_ID":"39.2335_081.4408","Station_Nam":"WV WOOD DAVISVILLE 3.8 NE COCORAHS (X3920814)","Latitude":"39.23350","Longitude":"-81.44080","Snowdepth":"3.500","Units":"in","Rept_Date":"2020-12-01 12"},"coordinates":[5170,2772]},{"type":"Point","properties":{"Station_ID":"38.9533_080.9421","Station_Nam":"6 W Glenville  CoCoRaHS (WV-GL-4)","Latitude":"38.95330","Longitude":"-80.94210","Snowdepth":"3.500","Units":"in","Rept_Date":"2020-12-01 12"},"coordinates":[5339,2610]},{"type":"Point","properties":{"Station_ID":"IN-LP-73","Station_Nam":"MILL CREEK 1.9 NNE, IN","Latitude":"41.60739","Longitude":"-86.52419","Snowdepth":"3.400","Units":"in","Rept_Date":"2020-12-01 13"},"coordinates":[3454,4146]},{"type":"Point","properties":{"Station_ID":"PA-WT-22","Station_Nam":"IRWIN 0.2 W, PA","Latitude":"40.32629","Longitude":"-79.70293","Snowdepth":"3.300","Units":"in","Rept_Date":"2020-12-01 14"},"coordinates":[5757,3404]},{"type":"Point","properties":{"Station_ID":"PA-WS-31","Station_Nam":"MCMURRAY 1.9 NNW, PA","Latitude":"40.30623","Longitude":"-80.10239","Snowdepth":"3.300","Units":"in","Rept_Date":"2020-12-01 15"},"coordinates":[5622,3393]},{"type":"Point","properties":{"Station_ID":"KY-LW-3","Station_Nam":"RIBOLT 3.0 S, KY","Latitude":"38.52722","Longitude":"-83.51629","Snowdepth":"3.300","Units":"in","Rept_Date":"2020-12-01 12"},"coordinates":[4470,2364]},{"type":"Point","properties":{"Station_ID":"WV-OH-6","Station_Nam":"VALLEY GROVE 3.5 NNE, WV","Latitude":"40.13800","Longitude":"-80.54350","Snowdepth":"3.200","Units":"in","Rept_Date":"2020-12-01 12"},"coordinates":[5473,3296]},{"type":"Point","properties":{"Station_ID":"WV-KN-35","Station_Nam":"SOUTH CHARLESTON 2.0 ESE, WV","Latitude":"38.35080","Longitude":"-81.67140","Snowdepth":"3.200","Units":"in","Rept_Date":"2020-12-01 13"},"coordinates":[5093,2262]},{"type":"Point","properties":{"Station_ID":"PA-ER-2","Station_Nam":"ERIE 5.6 SW, PA","Latitude":"42.06086","Longitude":"-80.15260","Snowdepth":"3.200","Units":"in","Rept_Date":"2020-12-01 12"},"coordinates":[5605,4408]},{"type":"Point","properties":{"Station_ID":"NC-MS-26","Station_Nam":"WALNUT 3.9 NE, NC","Latitude":"35.90059","Longitude":"-82.70573","Snowdepth":"3.200","Units":"in","Rept_Date":"2020-12-01 13"},"coordinates":[4743,845]},{"type":"Point","properties":{"Station_ID":"38.3508_081.6714","Station_Nam":"WV KANAWHA SOUTH CHARLESTON 2.0 ESE COCORAHS (X3830816)","Latitude":"38.35080","Longitude":"-81.67140","Snowdepth":"3.200","Units":"in","Rept_Date":"2020-12-01 13"},"coordinates":[5093,2262]},{"type":"Point","properties":{"Station_ID":"PA-WT-55","Station_Nam":"LIGONIER 1.2 E, PA","Latitude":"40.24683","Longitude":"-79.21537","Snowdepth":"3.100","Units":"in","Rept_Date":"2020-12-01 12"},"coordinates":[5922,3359]},{"type":"Point","properties":{"Station_ID":"OH-FR-83","Station_Nam":"WESTERVILLE 0.7 N, OH","Latitude":"40.13056","Longitude":"-82.91999","Snowdepth":"3.100","Units":"in","Rept_Date":"2020-12-01 12"},"coordinates":[4671,3291]},{"type":"Point","properties":{"Station_ID":"CAN-ON-771","Station_Nam":"KENORA 8.7 NNE - CANWARN, CAN","Latitude":"49.84171","Longitude":"-94.44386","Snowdepth":"3.100","Units":"in","Rept_Date":"2020-12-01 13"},"coordinates":[780,8909]},{"type":"Point","properties":{"Station_ID":"CAN-ON-285","Station_Nam":"LEAMINGTON 3.0 N, CAN","Latitude":"42.07693","Longitude":"-82.59744","Snowdepth":"3.100","Units":"in","Rept_Date":"2020-12-01 11"},"coordinates":[4780,4417]},{"type":"Point","properties":{"Station_ID":"YALM4","Station_Nam":"YALE,MI","Latitude":"43.15000","Longitude":"-82.80000","Snowdepth":"3.000","Units":"in","Rept_Date":"2020-12-01 12"},"coordinates":[4711,5038]},{"type":"Point","properties":{"Station_ID":"WYTM4","Station_Nam":"WYANDOTTE","Latitude":"42.20110","Longitude":"-83.16830","Snowdepth":"3.000","Units":"in","Rept_Date":"2020-12-01 13"},"coordinates":[4587,4489]},{"type":"Point","properties":{"Station_ID":"WV-KN-33","Station_Nam":"CHARLESTON 2.6 W, WV","Latitude":"38.34419","Longitude":"-81.67852","Snowdepth":"3.000","Units":"in","Rept_Date":"2020-12-01 12"},"coordinates":[5090,2258]},{"type":"Point","properties":{"Station_ID":"WV-KN-31","Station_Nam":"CHARLESTON 2.3 W, WV","Latitude":"38.34941","Longitude":"-81.67339","Snowdepth":"3.000","Units":"in","Rept_Date":"2020-12-01 12"},"coordinates":[5092,2261]},{"type":"Point","properties":{"Station_ID":"WV-KN-21","Station_Nam":"CHARLESTON 3.9 WSW, WV","Latitude":"38.33350","Longitude":"-81.69870","Snowdepth":"3.000","Units":"in","Rept_Date":"2020-12-01 12"},"coordinates":[5083,2252]},{"type":"Point","properties":{"Station_ID":"WV-DD-9","Station_Nam":"WEST UNION 2.9 SE, WV","Latitude":"39.27224","Longitude":"-80.73230","Snowdepth":"3.000","Units":"in","Rept_Date":"2020-12-01 12"},"coordinates":[5410,2795]},{"type":"Point","properties":{"Station_ID":"WASO1","Station_Nam":"WASHINGTON COURT HOUSE","Latitude":"39.53530","Longitude":"-83.42390","Snowdepth":"3.000","Units":"in","Rept_Date":"2020-12-01 12"},"coordinates":[4501,2947]},{"type":"Point","properties":{"Station_ID":"TN-WS-12","Station_Nam":"JONESBOROUGH 2.5 SSW, TN","Latitude":"36.26054","Longitude":"-82.49800","Snowdepth":"3.000","Units":"in","Rept_Date":"2020-12-01 12"},"coordinates":[4813,1053]},{"type":"Point","properties":{"Station_ID":"SUMW2","Station_Nam":"SUMMERSVILLE LAKE","Latitude":"38.22010","Longitude":"-80.89380","Snowdepth":"3.000","Units":"in","Rept_Date":"2020-12-01 12"},"coordinates":[5355,2186]},{"type":"Point","properties":{"Station_ID":"STWO1","Station_Nam":"MONROE FALLS","Latitude":"41.13110","Longitude":"-81.40000","Snowdepth":"3.000","Units":"in","Rept_Date":"2020-12-01 12"},"coordinates":[5184,3870]},{"type":"Point","properties":{"Station_ID":"STRK2","Station_Nam":"STEARNS,KY","Latitude":"36.66670","Longitude":"-84.48330","Snowdepth":"3.000","Units":"in","Rept_Date":"2020-12-01 12"},"coordinates":[4143,1288]},{"type":"Point","properties":{"Station_ID":"STPO1","Station_Nam":"ST. PARIS 2 NE","Latitude":"40.13910","Longitude":"-83.92880","Snowdepth":"3.000","Units":"in","Rept_Date":"2020-12-01 12"},"coordinates":[4330,3296]},{"type":"Point","properties":{"Station_ID":"SKLK2","Station_Nam":"SKYLINE,KY","Latitude":"37.06670","Longitude":"-82.96670","Snowdepth":"3.000","Units":"in","Rept_Date":"2020-12-01 12"},"coordinates":[4655,1519]},{"type":"Point","properties":{"Station_ID":"SBOP1","Station_Nam":"SPRINGBORO","Latitude":"41.81660","Longitude":"-80.43330","Snowdepth":"3.000","Units":"in","Rept_Date":"2020-12-01 12"},"coordinates":[5511,4267]},{"type":"Point","properties":{"Station_ID":"RRFP1","Station_Nam":"LAUGHLINTOWN 1SW","Latitude":"40.20390","Longitude":"-79.21710","Snowdepth":"3.000","Units":"in","Rept_Date":"2020-12-01 13"},"coordinates":[5921,3334]},{"type":"Point","properties":{"Station_ID":"RLXW2","Station_Nam":"RLX WEATHER SERVICE FORECAST OFFICE","Latitude":"38.31390","Longitude":"-81.71860","Snowdepth":"3.000","Units":"in","Rept_Date":"2020-12-01 12"},"coordinates":[5077,2240]},{"type":"Point","properties":{"Station_ID":"PA-SM-1","Station_Nam":"HIDDEN VALLEY 0.3 ENE, PA","Latitude":"40.05844","Longitude":"-79.26156","Snowdepth":"3.000","Units":"in","Rept_Date":"2020-12-01 10"},"coordinates":[5906,3250]},{"type":"Point","properties":{"Station_ID":"PA-CW-8","Station_Nam":"SPRINGBORO 3.0 WNW, PA","Latitude":"41.81654","Longitude":"-80.42540","Snowdepth":"3.000","Units":"in","Rept_Date":"2020-12-01 12"},"coordinates":[5513,4267]},{"type":"Point","properties":{"Station_ID":"PA-CW-18","Station_Nam":"CONNEAUT LAKE 1.3 WNW, PA","Latitude":"41.60816","Longitude":"-80.33371","Snowdepth":"3.000","Units":"in","Rept_Date":"2020-12-01 12"},"coordinates":[5544,4146]},{"type":"Point","properties":{"Station_ID":"PA-CM-4","Station_Nam":"BELMONT 0.1 NE, PA","Latitude":"40.28347","Longitude":"-78.89010","Snowdepth":"3.000","Units":"in","Rept_Date":"2020-12-01 13"},"coordinates":[6032,3380]},{"type":"Point","properties":{"Station_ID":"OH-WD-14","Station_Nam":"PERRYSBURG 1.6 WSW, OH","Latitude":"41.54114","Longitude":"-83.64970","Snowdepth":"3.000","Units":"in","Rept_Date":"2020-12-01 12"},"coordinates":[4425,4107]},{"type":"Point","properties":{"Station_ID":"OH-VN-3","Station_Nam":"ALBANY 4.5 WNW, OH","Latitude":"39.25121","Longitude":"-82.27471","Snowdepth":"3.000","Units":"in","Rept_Date":"2020-12-01 12"},"coordinates":[4889,2783]},{"type":"Point","properties":{"Station_ID":"OH-MY-62","Station_Nam":"CENTERVILLE 2.8 W, OH","Latitude":"39.64030","Longitude":"-84.19310","Snowdepth":"3.000","Units":"in","Rept_Date":"2020-12-01 13"},"coordinates":[4241,3008]},{"type":"Point","properties":{"Station_ID":"OH-MY-39","Station_Nam":"CENTERVILLE 3.9 S, OH","Latitude":"39.58542","Longitude":"-84.14954","Snowdepth":"3.000","Units":"in","Rept_Date":"2020-12-01 14"},"coordinates":[4256,2976]},{"type":"Point","properties":{"Station_ID":"OH-JF-9","Station_Nam":"MOUNT PLEASANT 1.4 WSW, OH","Latitude":"40.16496","Longitude":"-80.82290","Snowdepth":"3.000","Units":"in","Rept_Date":"2020-12-01 12"},"coordinates":[5379,3311]},{"type":"Point","properties":{"Station_ID":"OH-HC-12","Station_Nam":"FINDLAY 0.4 WSW, OH","Latitude":"41.04010","Longitude":"-83.64919","Snowdepth":"3.000","Units":"in","Rept_Date":"2020-12-01 15"},"coordinates":[4425,3817]},{"type":"Point","properties":{"Station_ID":"OH-FR-23","Station_Nam":"HARRISBURG 3.7 WNW, OH","Latitude":"39.83784","Longitude":"-83.23210","Snowdepth":"3.000","Units":"in","Rept_Date":"2020-12-01 12"},"coordinates":[4566,3122]},{"type":"Point","properties":{"Station_ID":"OH-FF-29","Station_Nam":"PICKERINGTON 2.4 N, OH","Latitude":"39.92527","Longitude":"-82.76738","Snowdepth":"3.000","Units":"in","Rept_Date":"2020-12-01 13"},"coordinates":[4722,3173]},{"type":"Point","properties":{"Station_ID":"OH-DR-31","Station_Nam":"ARCANUM 4.0 NE, OH","Latitude":"40.02750","Longitude":"-84.49360","Snowdepth":"3.000","Units":"in","Rept_Date":"2020-12-01 12"},"coordinates":[4140,3232]},{"type":"Point","properties":{"Station_ID":"OH-CC-1","Station_Nam":"COSHOCTON 5.5 WSW, OH","Latitude":"40.22007","Longitude":"-81.93650","Snowdepth":"3.000","Units":"in","Rept_Date":"2020-12-01 12"},"coordinates":[5003,3343]},{"type":"Point","properties":{"Station_ID":"OH-AT-5","Station_Nam":"AMESVILLE 2.6 SE, OH","Latitude":"39.37222","Longitude":"-81.92310","Snowdepth":"3.000","Units":"in","Rept_Date":"2020-12-01 12"},"coordinates":[5008,2853]},{"type":"Point","properties":{"Station_ID":"OH-AS-2","Station_Nam":"ASHLAND 3.9 SW, OH","Latitude":"40.83260","Longitude":"-82.37630","Snowdepth":"3.000","Units":"in","Rept_Date":"2020-12-01 12"},"coordinates":[4855,3697]},{"type":"Point","properties":{"Station_ID":"OH-AL-12","Station_Nam":"LIMA 2.6 WNW, OH","Latitude":"40.76010","Longitude":"-84.15530","Snowdepth":"3.000","Units":"in","Rept_Date":"2020-12-01 12"},"coordinates":[4254,3655]},{"type":"Point","properties":{"Station_ID":"NEWO1","Station_Nam":"NEWPORT","Latitude":"39.39330","Longitude":"-81.21930","Snowdepth":"3.000","Units":"in","Rept_Date":"2020-12-01 14"},"coordinates":[5245,2865]},{"type":"Point","properties":{"Station_ID":"NC-MS-21","Station_Nam":"HOT SPRINGS 5.6 SSW, NC","Latitude":"35.81531","Longitude":"-82.86098","Snowdepth":"3.000","Units":"in","Rept_Date":"2020-12-01 20"},"coordinates":[4691,795]},{"type":"Point","properties":{"Station_ID":"NC-HW-2","Station_Nam":"MAGGIE VALLEY 2.9 ENE, NC","Latitude":"35.53890","Longitude":"-83.04670","Snowdepth":"3.000","Units":"in","Rept_Date":"2020-12-01 12"},"coordinates":[4628,635]},{"type":"Point","properties":{"Station_ID":"NC-AV-1","Station_Nam":"FLAT SPRINGS 1.2 E, NC","Latitude":"36.25250","Longitude":"-81.91330","Snowdepth":"3.000","Units":"in","Rept_Date":"2020-12-01 12"},"coordinates":[5011,1048]},{"type":"Point","properties":{"Station_ID":"NC-AS-12","Station_Nam":"LANSING 5.9 NW, NC","Latitude":"36.56280","Longitude":"-81.58240","Snowdepth":"3.000","Units":"in","Rept_Date":"2020-12-01 14"},"coordinates":[5123,1228]},{"type":"Point","properties":{"Station_ID":"MN-CK-18","Station_Nam":"GRAND MARAIS 4.4 WSW, MN","Latitude":"47.74462","Longitude":"-90.43796","Snowdepth":"3.000","Units":"in","Rept_Date":"2020-12-01 13"},"coordinates":[2133,7696]},{"type":"Point","properties":{"Station_ID":"MMTN7","Station_Nam":"MOUNT MITCHELL STATE PARK","Latitude":"35.75940","Longitude":"-82.27110","Snowdepth":"3.000","Units":"in","Rept_Date":"2020-12-01 12"},"coordinates":[4890,763]},{"type":"Point","properties":{"Station_ID":"MI-MB-9","Station_Nam":"NEW BALTIMORE 0.4 SSE, MI","Latitude":"42.67702","Longitude":"-82.73570","Snowdepth":"3.000","Units":"in","Rept_Date":"2020-12-01 13"},"coordinates":[4733,4764]},{"type":"Point","properties":{"Station_ID":"LPTN6","Station_Nam":"LOCKPORT","Latitude":"43.18760","Longitude":"-78.60910","Snowdepth":"3.000","Units":"in","Rept_Date":"2020-12-02 00"},"coordinates":[6126,5060]},{"type":"Point","properties":{"Station_ID":"LNDO1","Station_Nam":"LONDON STATE FISH HATCHERY","Latitude":"39.89720","Longitude":"-83.50960","Snowdepth":"3.000","Units":"in","Rept_Date":"2020-12-01 12"},"coordinates":[4472,3156]},{"type":"Point","properties":{"Station_ID":"LIMO1","Station_Nam":"LIMA","Latitude":"40.71670","Longitude":"-84.13330","Snowdepth":"3.000","Units":"in","Rept_Date":"2020-12-01 12"},"coordinates":[4261,3630]},{"type":"Point","properties":{"Station_ID":"LAUO1","Station_Nam":"LAURELVILLE","Latitude":"39.47060","Longitude":"-82.73440","Snowdepth":"3.000","Units":"in","Rept_Date":"2020-12-01 12"},"coordinates":[4734,2910]},{"type":"Point","properties":{"Station_ID":"KY-WH-5","Station_Nam":"CORBIN 7.3 SW, KY","Latitude":"36.86805","Longitude":"-84.20722","Snowdepth":"3.000","Units":"in","Rept_Date":"2020-12-01 12"},"coordinates":[4236,1404]},{"type":"Point","properties":{"Station_ID":"KNXI3","Station_Nam":"KNOX WWTP","Latitude":"41.30530","Longitude":"-86.62850","Snowdepth":"3.000","Units":"in","Rept_Date":"2020-12-01 13"},"coordinates":[3419,3971]},{"type":"Point","properties":{"Station_ID":"KIMO1","Station_Nam":"KINGS MILLS","Latitude":"39.35310","Longitude":"-84.26020","Snowdepth":"3.000","Units":"in","Rept_Date":"2020-12-01 12"},"coordinates":[4218,2842]},{"type":"Point","properties":{"Station_ID":"ILNO1","Station_Nam":"WFO WILMINGTON","Latitude":"39.42150","Longitude":"-83.82220","Snowdepth":"3.000","Units":"in","Rept_Date":"2020-12-02 05"},"coordinates":[4366,2881]},{"type":"Point","properties":{"Station_ID":"HUNO1","Station_Nam":"HUNTSVILLE 3 N","Latitude":"40.47990","Longitude":"-83.81270","Snowdepth":"3.000","Units":"in","Rept_Date":"2020-12-01 12"},"coordinates":[4370,3493]},{"type":"Point","properties":{"Station_ID":"HRRW2","Station_Nam":"HARRISVILLE","Latitude":"39.21900","Longitude":"-81.04860","Snowdepth":"3.000","Units":"in","Rept_Date":"2020-12-01 16"},"coordinates":[5303,2764]},{"type":"Point","properties":{"Station_ID":"HERM4","Station_Nam":"HERMAN,MI","Latitude":"46.65000","Longitude":"-88.33330","Snowdepth":"3.000","Units":"in","Rept_Date":"2020-12-01 13"},"coordinates":[2843,7062]},{"type":"Point","properties":{"Station_ID":"FTSN7","Station_Nam":"FLAT SPRINGS 1E","Latitude":"36.25270","Longitude":"-81.91360","Snowdepth":"3.000","Units":"in","Rept_Date":"2020-12-01 12"},"coordinates":[5011,1048]},{"type":"Point","properties":{"Station_ID":"FREO1","Station_Nam":"FREMONT,OH","Latitude":"41.33330","Longitude":"-83.11670","Snowdepth":"3.000","Units":"in","Rept_Date":"2020-12-01 13"},"coordinates":[4605,3987]},{"type":"Point","properties":{"Station_ID":"FLMO1","Station_Nam":"FORT LORAMIE","Latitude":"40.35680","Longitude":"-84.37340","Snowdepth":"3.000","Units":"in","Rept_Date":"2020-12-01 12"},"coordinates":[4180,3422]},{"type":"Point","properties":{"Station_ID":"DTW","Station_Nam":"DETROIT METROPOLITAN","Latitude":"42.21220","Longitude":"-83.35330","Snowdepth":"3.000","Units":"in","Rept_Date":"2020-12-02 06"},"coordinates":[4525,4495]},{"type":"Point","properties":{"Station_ID":"DLHM5","Station_Nam":"DULUTH NWS","Latitude":"46.83680","Longitude":"-92.21080","Snowdepth":"3.000","Units":"in","Rept_Date":"2020-12-02 06"},"coordinates":[1534,7170]},{"type":"Point","properties":{"Station_ID":"DLH","Station_Nam":"DULUTH, MN","Latitude":"46.83690","Longitude":"-92.21030","Snowdepth":"3.000","Units":"in","Rept_Date":"2020-12-02 00"},"coordinates":[1534,7170]},{"type":"Point","properties":{"Station_ID":"CRLK2","Station_Nam":"CAVE RUN LAKE","Latitude":"38.12280","Longitude":"-83.53280","Snowdepth":"3.000","Units":"in","Rept_Date":"2020-12-01 11"},"coordinates":[4464,2130]},{"type":"Point","properties":{"Station_ID":"COKM5","Station_Nam":"COOK","Latitude":"47.85060","Longitude":"-92.69250","Snowdepth":"3.000","Units":"in","Rept_Date":"2020-12-01 12"},"coordinates":[1371,7757]},{"type":"Point","properties":{"Station_ID":"CLWV2","Station_Nam":"CLINTWOOD,VA","Latitude":"37.15000","Longitude":"-82.46670","Snowdepth":"3.000","Units":"in","Rept_Date":"2020-12-01 12"},"coordinates":[4824,1567]},{"type":"Point","properties":{"Station_ID":"CAVK2","Station_Nam":"CLOVER BOTTOM 1 WSW","Latitude":"37.49170","Longitude":"-84.17090","Snowdepth":"3.000","Units":"in","Rept_Date":"2020-12-01 13"},"coordinates":[4249,1765]},{"type":"Point","properties":{"Station_ID":"CAN-ON-613","Station_Nam":"WINDSOR 6.5 E, CAN","Latitude":"42.29988","Longitude":"-82.97274","Snowdepth":"3.000","Units":"in","Rept_Date":"2020-12-01 13"},"coordinates":[4653,4546]},{"type":"Point","properties":{"Station_ID":"BYSO1","Station_Nam":"BUCYRUS,OH","Latitude":"40.81280","Longitude":"-82.96670","Snowdepth":"3.000","Units":"in","Rept_Date":"2020-12-01 12"},"coordinates":[4655,3686]},{"type":"Point","properties":{"Station_ID":"BNDM5","Station_Nam":"ELY 25E","Latitude":"47.97190","Longitude":"-91.44860","Snowdepth":"3.000","Units":"in","Rept_Date":"2020-12-01 13"},"coordinates":[1791,7827]},{"type":"Point","properties":{"Station_ID":"BKNW2","Station_Nam":"BUCKHANNON","Latitude":"38.98030","Longitude":"-80.22010","Snowdepth":"3.000","Units":"in","Rept_Date":"2020-12-01 12"},"coordinates":[5583,2626]},{"type":"Point","properties":{"Station_ID":"BDAM4","Station_Nam":"BAD AXE,MI","Latitude":"43.81670","Longitude":"-83.00000","Snowdepth":"3.000","Units":"in","Rept_Date":"2020-12-01 12"},"coordinates":[4644,5423]},{"type":"Point","properties":{"Station_ID":"BCHN7","Station_Nam":"BEECH MOUNTAIN","Latitude":"36.18780","Longitude":"-81.87360","Snowdepth":"3.000","Units":"in","Rept_Date":"2020-12-01 12"},"coordinates":[5024,1011]},{"type":"Point","properties":{"Station_ID":"42.1154_080.1310","Station_Nam":"ERIE  SNOW SPOTTER (CLE0161)","Latitude":"42.11540","Longitude":"-80.13100","Snowdepth":"3.000","Units":"in","Rept_Date":"2020-12-01 23"},"coordinates":[5613,4439]},{"type":"Point","properties":{"Station_ID":"41.8166_080.4333","Station_Nam":"3 WNW Springboro  Co-Op Observer (SBOP1)","Latitude":"41.81660","Longitude":"-80.43330","Snowdepth":"3.000","Units":"in","Rept_Date":"2020-12-01 12"},"coordinates":[5511,4267]},{"type":"Point","properties":{"Station_ID":"41.8165_080.4254","Station_Nam":"3 WNW Springboro  CoCoRaHS (PA-CW-8)","Latitude":"41.81650","Longitude":"-80.42540","Snowdepth":"3.000","Units":"in","Rept_Date":"2020-12-01 12"},"coordinates":[5513,4266]},{"type":"Point","properties":{"Station_ID":"41.6612_080.1377","Station_Nam":"MEADVILLE (CLE0332)","Latitude":"41.66120","Longitude":"-80.13770","Snowdepth":"3.000","Units":"in","Rept_Date":"2020-12-01 13"},"coordinates":[5610,4177]},{"type":"Point","properties":{"Station_ID":"41.6082_080.3337","Station_Nam":"1 WNW Conneaut Lake  CoCoRaHS (PA-CW-18)","Latitude":"41.60820","Longitude":"-80.33370","Snowdepth":"3.000","Units":"in","Rept_Date":"2020-12-01 12"},"coordinates":[5544,4146]},{"type":"Point","properties":{"Station_ID":"41.3667_083.6502","Station_Nam":"1 S Bowling Green  Trained Spotter (CLE0611)","Latitude":"41.36669","Longitude":"-83.65018","Snowdepth":"3.000","Units":"in","Rept_Date":"2020-12-01 16"},"coordinates":[4424,4006]},{"type":"Point","properties":{"Station_ID":"41.1311_081.4000","Station_Nam":"MONROE FALLS  CO-OP OBSERVER (STWO1)","Latitude":"41.13110","Longitude":"-81.40000","Snowdepth":"3.000","Units":"in","Rept_Date":"2020-12-01 12"},"coordinates":[5184,3870]},{"type":"Point","properties":{"Station_ID":"41.0405_083.6499","Station_Nam":"FINDLAY (CLE1704)","Latitude":"41.04050","Longitude":"-83.64990","Snowdepth":"3.000","Units":"in","Rept_Date":"2020-12-01 15"},"coordinates":[4425,3818]},{"type":"Point","properties":{"Station_ID":"40.9723_081.6189","Station_Nam":"CLINTON  SNOW SPOTTER (X4100816)","Latitude":"40.97230","Longitude":"-81.61890","Snowdepth":"3.000","Units":"in","Rept_Date":"2020-12-01 23"},"coordinates":[5110,3778]},{"type":"Point","properties":{"Station_ID":"40.8128_082.9667","Station_Nam":"BUCYRUS  CO-OP OBSERVER (BYSO1)","Latitude":"40.81280","Longitude":"-82.96670","Snowdepth":"3.000","Units":"in","Rept_Date":"2020-12-01 12"},"coordinates":[4655,3686]},{"type":"Point","properties":{"Station_ID":"40.7020_081.2929","Station_Nam":"WAYNESBURG  SNOW SPOTTER (X4070813)","Latitude":"40.70200","Longitude":"-81.29290","Snowdepth":"3.000","Units":"in","Rept_Date":"2020-12-01 22"},"coordinates":[5220,3622]},{"type":"Point","properties":{"Station_ID":"40.5312_083.0873","Station_Nam":"MARION (CLE3601)","Latitude":"40.53120","Longitude":"-83.08730","Snowdepth":"3.000","Units":"in","Rept_Date":"2020-12-01 12"},"coordinates":[4614,3523]},{"type":"Point","properties":{"Station_ID":"39.3933_081.2193","Station_Nam":"NEWPORT  CO-OP OBSERVER (NEWO1)","Latitude":"39.39330","Longitude":"-81.21930","Snowdepth":"3.000","Units":"in","Rept_Date":"2020-12-01 14"},"coordinates":[5245,2865]},{"type":"Point","properties":{"Station_ID":"39.2190_081.0486","Station_Nam":"Harrisville  Co-Op Observer (HRRW2)","Latitude":"39.21900","Longitude":"-81.04860","Snowdepth":"3.000","Units":"in","Rept_Date":"2020-12-01 16"},"coordinates":[5303,2764]},{"type":"Point","properties":{"Station_ID":"38.9251_079.8536","Station_Nam":"ELKINS (X3890799)","Latitude":"38.92510","Longitude":"-79.85360","Snowdepth":"3.000","Units":"in","Rept_Date":"2020-12-02 00"},"coordinates":[5706,2594]},{"type":"Point","properties":{"Station_ID":"38.5008_081.1293","Station_Nam":"1 NE Varneytown  Public (X3850811)","Latitude":"38.50080","Longitude":"-81.12930","Snowdepth":"3.000","Units":"in","Rept_Date":"2020-12-01 15"},"coordinates":[5276,2349]},{"type":"Point","properties":{"Station_ID":"38.3494_081.6734","Station_Nam":"Weberwood  NWS Employee (X3830817)","Latitude":"38.34941","Longitude":"-81.67339","Snowdepth":"3.000","Units":"in","Rept_Date":"2020-12-01 12"},"coordinates":[5092,2261]},{"type":"Point","properties":{"Station_ID":"38.3335_081.6987","Station_Nam":"WV KANAWHA CHARLESTON 3.9 WSW COCORAHS (X3830816)","Latitude":"38.33350","Longitude":"-81.69870","Snowdepth":"3.000","Units":"in","Rept_Date":"2020-12-01 12"},"coordinates":[5083,2252]},{"type":"Point","properties":{"Station_ID":"38.3139_081.7186","Station_Nam":"5 SW WFO CHARLESTON (RLXW2)","Latitude":"38.31388","Longitude":"-81.71861","Snowdepth":"3.000","Units":"in","Rept_Date":"2020-12-01 12"},"coordinates":[5077,2240]},{"type":"Point","properties":{"Station_ID":"37.7843_081.1131","Station_Nam":"3 SE Stanaford  Official NWS Obs (X3780811)","Latitude":"37.78428","Longitude":"-81.11313","Snowdepth":"3.000","Units":"in","Rept_Date":"2020-12-02 00"},"coordinates":[5281,1934]},{"type":"Point","properties":{"Station_ID":"OH-MR-3","Station_Nam":"MARION 4.2 SSE, OH","Latitude":"40.53124","Longitude":"-83.08850","Snowdepth":"2.900","Units":"in","Rept_Date":"2020-12-01 12"},"coordinates":[4614,3523]},{"type":"Point","properties":{"Station_ID":"OH-MM-1","Station_Nam":"PIQUA 0.8 SSE, OH","Latitude":"40.13584","Longitude":"-84.24760","Snowdepth":"2.900","Units":"in","Rept_Date":"2020-12-01 12"},"coordinates":[4223,3294]},{"type":"Point","properties":{"Station_ID":"OH-DL-31","Station_Nam":"DELAWARE 1.9 ESE, OH","Latitude":"40.28862","Longitude":"-83.04854","Snowdepth":"2.900","Units":"in","Rept_Date":"2020-12-01 12"},"coordinates":[4628,3383]},{"type":"Point","properties":{"Station_ID":"OH-DL-30","Station_Nam":"GALENA 1.0 NNW, OH","Latitude":"40.23429","Longitude":"-82.88857","Snowdepth":"2.900","Units":"in","Rept_Date":"2020-12-02 00"},"coordinates":[4682,3351]},{"type":"Point","properties":{"Station_ID":"WV-MS-1","Station_Nam":"POINT PLEASANT 5.8 E, WV","Latitude":"38.86111","Longitude":"-82.02250","Snowdepth":"2.700","Units":"in","Rept_Date":"2020-12-01 13"},"coordinates":[4974,2557]},{"type":"Point","properties":{"Station_ID":"TN-OV-9","Station_Nam":"RICKMAN 3.8 ESE, TN","Latitude":"36.24279","Longitude":"-85.31246","Snowdepth":"2.700","Units":"in","Rept_Date":"2020-12-01 13"},"coordinates":[3863,1042]},{"type":"Point","properties":{"Station_ID":"NC-YN-6","Station_Nam":"BURNSVILLE 7.0 W, NC","Latitude":"35.91260","Longitude":"-82.42300","Snowdepth":"2.700","Units":"in","Rept_Date":"2020-12-01 13"},"coordinates":[4839,851]},{"type":"Point","properties":{"Station_ID":"NC-MS-20","Station_Nam":"MARSHALL 7.5 WSW, NC","Latitude":"35.77006","Longitude":"-82.81285","Snowdepth":"2.700","Units":"in","Rept_Date":"2020-12-01 12"},"coordinates":[4707,769]},{"type":"Point","properties":{"Station_ID":"38.8611_082.0225","Station_Nam":"6 E Point Pleasant  CoCoRaHS (WV-MS-1)","Latitude":"38.86110","Longitude":"-82.02250","Snowdepth":"2.700","Units":"in","Rept_Date":"2020-12-01 13"},"coordinates":[4974,2557]},{"type":"Point","properties":{"Station_ID":"CAN-ON-103","Station_Nam":"CALEDONIA 12.4 NW, CA","Latitude":"43.14246","Longitude":"-80.06960","Snowdepth":"2.600","Units":"in","Rept_Date":"2020-12-01 12"},"coordinates":[5633,5033]},{"type":"Point","properties":{"Station_ID":"WV-MG-16","Station_Nam":"MORGANTOWN 5.9 SW, WV","Latitude":"39.56615","Longitude":"-80.01490","Snowdepth":"2.500","Units":"in","Rept_Date":"2020-12-01 12"},"coordinates":[5652,2965]},{"type":"Point","properties":{"Station_ID":"WV-KN-1","Station_Nam":"ALUM CREEK 3.0 E, WV","Latitude":"38.28720","Longitude":"-81.78740","Snowdepth":"2.500","Units":"in","Rept_Date":"2020-12-01 12"},"coordinates":[5053,2225]},{"type":"Point","properties":{"Station_ID":"TN-FN-6","Station_Nam":"CLARKRANGE 6.0 NE, TN","Latitude":"36.23253","Longitude":"-84.94070","Snowdepth":"2.500","Units":"in","Rept_Date":"2020-12-01 13"},"coordinates":[3989,1037]},{"type":"Point","properties":{"Station_ID":"TN-FN-5","Station_Nam":"JAMESTOWN 12.9 S, TN","Latitude":"36.24530","Longitude":"-84.93420","Snowdepth":"2.500","Units":"in","Rept_Date":"2020-12-01 15"},"coordinates":[3991,1044]},{"type":"Point","properties":{"Station_ID":"OH-UN-15","Station_Nam":"MARYSVILLE 1.4 NNW, OH","Latitude":"40.25566","Longitude":"-83.38732","Snowdepth":"2.500","Units":"in","Rept_Date":"2020-12-01 12"},"coordinates":[4513,3364]},{"type":"Point","properties":{"Station_ID":"OH-SM-39","Station_Nam":"TALLMADGE 0.8 NNE, OH","Latitude":"41.11402","Longitude":"-81.41970","Snowdepth":"2.500","Units":"in","Rept_Date":"2020-12-01 12"},"coordinates":[5178,3860]},{"type":"Point","properties":{"Station_ID":"OH-SH-20","Station_Nam":"SIDNEY 5.4 SW, OH","Latitude":"40.23707","Longitude":"-84.24076","Snowdepth":"2.500","Units":"in","Rept_Date":"2020-12-01 12"},"coordinates":[4225,3353]},{"type":"Point","properties":{"Station_ID":"OH-SH-15","Station_Nam":"FORT LORAMIE 0.8 NNW, OH","Latitude":"40.35695","Longitude":"-84.37360","Snowdepth":"2.500","Units":"in","Rept_Date":"2020-12-01 12"},"coordinates":[4180,3422]},{"type":"Point","properties":{"Station_ID":"OH-PN-10","Station_Nam":"OTTAWA 1.0 N, OH","Latitude":"41.03562","Longitude":"-84.04323","Snowdepth":"2.500","Units":"in","Rept_Date":"2020-12-01 12"},"coordinates":[4292,3815]},{"type":"Point","properties":{"Station_ID":"OH-LK-9","Station_Nam":"WILLOUGHBY 2.9 SW, OH","Latitude":"41.61506","Longitude":"-81.44592","Snowdepth":"2.500","Units":"in","Rept_Date":"2020-12-01 12"},"coordinates":[5169,4150]},{"type":"Point","properties":{"Station_ID":"OH-HM-45","Station_Nam":"CHEVIOT 4.0 S, OH","Latitude":"39.10002","Longitude":"-84.60917","Snowdepth":"2.500","Units":"in","Rept_Date":"2020-12-01 12"},"coordinates":[4101,2695]},{"type":"Point","properties":{"Station_ID":"OH-FR-87","Station_Nam":"WESTERVILLE 4.3 ESE, OH","Latitude":"40.09415","Longitude":"-82.84499","Snowdepth":"2.500","Units":"in","Rept_Date":"2020-12-01 13"},"coordinates":[4696,3270]},{"type":"Point","properties":{"Station_ID":"OH-FR-59","Station_Nam":"NEW ROME 2.2 NW, OH","Latitude":"39.97597","Longitude":"-83.16671","Snowdepth":"2.500","Units":"in","Rept_Date":"2020-12-01 12"},"coordinates":[4588,3202]},{"type":"Point","properties":{"Station_ID":"OH-FR-10","Station_Nam":"WESTERVILLE 0.2 WNW, OH","Latitude":"40.12261","Longitude":"-82.92132","Snowdepth":"2.500","Units":"in","Rept_Date":"2020-12-01 12"},"coordinates":[4671,3287]},{"type":"Point","properties":{"Station_ID":"OH-CY-21","Station_Nam":"BRECKSVILLE 1.7 SE, OH","Latitude":"41.29094","Longitude":"-81.59475","Snowdepth":"2.500","Units":"in","Rept_Date":"2020-12-01 12"},"coordinates":[5118,3962]},{"type":"Point","properties":{"Station_ID":"OH-AT-1","Station_Nam":"ATHENS 1.3 N, OH","Latitude":"39.34278","Longitude":"-82.09640","Snowdepth":"2.500","Units":"in","Rept_Date":"2020-12-01 12"},"coordinates":[4949,2836]},{"type":"Point","properties":{"Station_ID":"NC-CK-19","Station_Nam":"MURPHY 15.7 WSW, NC","Latitude":"35.00351","Longitude":"-84.28274","Snowdepth":"2.500","Units":"in","Rept_Date":"2020-12-01 13"},"coordinates":[4211,326]},{"type":"Point","properties":{"Station_ID":"MN-SL-108","Station_Nam":"IRON JUNCTION 3.4 NNW, MN","Latitude":"47.46150","Longitude":"-92.63130","Snowdepth":"2.500","Units":"in","Rept_Date":"2020-12-01 11"},"coordinates":[1392,7532]},{"type":"Point","properties":{"Station_ID":"MI-WY-70","Station_Nam":"GROSSE ILE 1.6 N, MI","Latitude":"42.15108","Longitude":"-83.14923","Snowdepth":"2.500","Units":"in","Rept_Date":"2020-12-01 12"},"coordinates":[4594,4460]},{"type":"Point","properties":{"Station_ID":"MI-WY-33","Station_Nam":"LIVONIA 2.3 NNW, MI","Latitude":"42.43100","Longitude":"-83.38190","Snowdepth":"2.500","Units":"in","Rept_Date":"2020-12-01 13"},"coordinates":[4515,4622]},{"type":"Point","properties":{"Station_ID":"KY-MN-19","Station_Nam":"RICHMOND 5.8 SSE, KY","Latitude":"37.66386","Longitude":"-84.26037","Snowdepth":"2.500","Units":"in","Rept_Date":"2020-12-01 12"},"coordinates":[4218,1864]},{"type":"Point","properties":{"Station_ID":"KY-BN-18","Station_Nam":"FLORENCE 3.2 SSE, KY","Latitude":"38.94620","Longitude":"-84.62854","Snowdepth":"2.500","Units":"in","Rept_Date":"2020-12-01 09"},"coordinates":[4094,2606]},{"type":"Point","properties":{"Station_ID":"CAN-ON-33","Station_Nam":"BURLINGTON 1.7 W, CA","Latitude":"43.37134","Longitude":"-79.83550","Snowdepth":"2.500","Units":"in","Rept_Date":"2020-12-01 12"},"coordinates":[5712,5166]},{"type":"Point","properties":{"Station_ID":"CAN-MB-32","Station_Nam":"PINAWA 1.0 SW, CA","Latitude":"50.14747","Longitude":"-95.89020","Snowdepth":"2.500","Units":"in","Rept_Date":"2020-12-01 13"},"coordinates":[292,9085]},{"type":"Point","properties":{"Station_ID":"41.2909_081.5948","Station_Nam":"2 SE Brecksville  CoCoRaHS (OH-CY-21)","Latitude":"41.29090","Longitude":"-81.59480","Snowdepth":"2.500","Units":"in","Rept_Date":"2020-12-01 12"},"coordinates":[5118,3962]},{"type":"Point","properties":{"Station_ID":"41.1140_081.4197","Station_Nam":"1 NNE Tallmadge  CoCoRaHS (OH-SM-39)","Latitude":"41.11400","Longitude":"-81.41970","Snowdepth":"2.500","Units":"in","Rept_Date":"2020-12-01 12"},"coordinates":[5178,3860]},{"type":"Point","properties":{"Station_ID":"39.2722_080.7323","Station_Nam":"3 SE West Union  CoCoRaHS (WV-DD-9)","Latitude":"39.27220","Longitude":"-80.73230","Snowdepth":"2.500","Units":"in","Rept_Date":"2020-12-01 12"},"coordinates":[5410,2795]},