{"type":"Topology","objects":{"snowdepth_geo":{"type":"GeometryCollection","name":"snowdepth","crs":{"type":"name","properties":{"name":"urn:ogc:def:crs:OGC:1.3:CRS84"}},"geometries":[{"type":"Point","properties":{"Station_ID":"PRKM4","Station_Nam":"MUNISING EAST","Latitude":"46.42580","Longitude":"-86.62000","Snowdepth":"76.500","Units":"in","Rept_Date":"2020-02-28 06"},"coordinates":[2492,6783]},{"type":"Point","properties":{"Station_ID":"MMNV1","Station_Nam":"MT. MANSFIELD","Latitude":"44.52480","Longitude":"-72.81540","Snowdepth":"66.000","Units":"in","Rept_Date":"2020-02-27 21"},"coordinates":[5732,5630]},{"type":"Point","properties":{"Station_ID":"OGIQ6","Station_Nam":"OGOKI CAMP","Latitude":"50.76680","Longitude":"-87.85820","Snowdepth":"61.100","Units":"in","Rept_Date":"2020-02-28 06"},"coordinates":[2202,9417]},{"type":"Point","properties":{"Station_ID":"HTLN3","Station_Nam":"HERMIT LAKE SNOWPLOT","Latitude":"44.26130","Longitude":"-71.28330","Snowdepth":"57.000","Units":"in","Rept_Date":"2020-02-27 10"},"coordinates":[6092,5470]},{"type":"Point","properties":{"Station_ID":"PDLM4","Station_Nam":"PAINESDALE","Latitude":"47.04160","Longitude":"-88.67170","Snowdepth":"52.000","Units":"in","Rept_Date":"2020-02-27 13"},"coordinates":[2011,7157]},{"type":"Point","properties":{"Station_ID":"CLUM4","Station_Nam":"CALUMET-TAMARACK","Latitude":"47.24550","Longitude":"-88.46790","Snowdepth":"49.000","Units":"in","Rept_Date":"2020-02-27 14"},"coordinates":[2058,7280]},{"type":"Point","properties":{"Station_ID":"GMSM4","Station_Nam":"GRAND MARAIS 10S","Latitude":"46.50940","Longitude":"-85.96310","Snowdepth":"44.000","Units":"in","Rept_Date":"2020-02-27 12"},"coordinates":[2646,6834]},{"type":"Point","properties":{"Station_ID":"KSGM4","Station_Nam":"KEARSARGE","Latitude":"47.27520","Longitude":"-88.41700","Snowdepth":"38.000","Units":"in","Rept_Date":"2020-02-27 13"},"coordinates":[2070,7298]},{"type":"Point","properties":{"Station_ID":"QNCM4","Station_Nam":"QUINCY HILL","Latitude":"47.13640","Longitude":"-88.57950","Snowdepth":"36.000","Units":"in","Rept_Date":"2020-02-27 12"},"coordinates":[2032,7214]},{"type":"Point","properties":{"Station_ID":"MQT","Station_Nam":"MARQUETTE, MI","Latitude":"46.53140","Longitude":"-87.54920","Snowdepth":"36.000","Units":"in","Rept_Date":"2020-02-28 06"},"coordinates":[2274,6847]},{"type":"Point","properties":{"Station_ID":"QGO","Station_Nam":"QGO","Latitude":"48.85500","Longitude":"-74.20640","Snowdepth":"35.669","Units":"in","Rept_Date":"2020-02-27 12"},"coordinates":[5405,8257]},{"type":"Point","properties":{"Station_ID":"MNSM4","Station_Nam":"MUNISING","Latitude":"46.41210","Longitude":"-86.66250","Snowdepth":"35.000","Units":"in","Rept_Date":"2020-02-27 11"},"coordinates":[2482,6775]},{"type":"Point","properties":{"Station_ID":"QCU","Station_Nam":"QCU","Latitude":"47.82750","Longitude":"-76.59830","Snowdepth":"34.488","Units":"in","Rept_Date":"2020-02-27 12"},"coordinates":[4844,7633]},{"type":"Point","properties":{"Station_ID":"QOU","Station_Nam":"QOU","Latitude":"50.79250","Longitude":"-69.67470","Snowdepth":"34.331","Units":"in","Rept_Date":"2020-02-27 12"},"coordinates":[6469,9432]},{"type":"Point","properties":{"Station_ID":"QGD","Station_Nam":"QGD","Latitude":"51.11140","Longitude":"-67.13940","Snowdepth":"33.150","Units":"in","Rept_Date":"2020-02-27 12"},"coordinates":[7064,9626]},{"type":"Point","properties":{"Station_ID":"STEM4","Station_Nam":"STEUBEN","Latitude":"46.18530","Longitude":"-86.46410","Snowdepth":"33.000","Units":"in","Rept_Date":"2020-02-27 14"},"coordinates":[2529,6637]},{"type":"Point","properties":{"Station_ID":"IBLM5","Station_Nam":"ISABELLA 14W","Latitude":"47.59360","Longitude":"-91.65140","Snowdepth":"33.000","Units":"in","Rept_Date":"2020-02-27 15"},"coordinates":[1311,7492]},{"type":"Point","properties":{"Station_ID":"QWE","Station_Nam":"QWE","Latitude":"47.84610","Longitude":"-73.80670","Snowdepth":"32.795","Units":"in","Rept_Date":"2020-02-27 12"},"coordinates":[5499,7645]},{"type":"Point","properties":{"Station_ID":"MI-BG-3","Station_Nam":"L'ANSE 17.8 SE, MI","Latitude":"46.55730","Longitude":"-88.20770","Snowdepth":"32.000","Units":"in","Rept_Date":"2020-02-27 13"},"coordinates":[2119,6863]},{"type":"Point","properties":{"Station_ID":"MLZ","Station_Nam":"MLZ","Latitude":"50.66170","Longitude":"-68.82360","Snowdepth":"31.732","Units":"in","Rept_Date":"2020-02-27 12"},"coordinates":[6669,9353]},{"type":"Point","properties":{"Station_ID":"CAN-NL-82","Station_Nam":"GANDER 2.7 NW, CAN","Latitude":"48.97737","Longitude":"-54.63396","Snowdepth":"31.100","Units":"in","Rept_Date":"2020-02-27 10"},"coordinates":[9999,8331]},{"type":"Point","properties":{"Station_ID":"KISM4","Station_Nam":"K.I. SAWYER WWTP","Latitude":"46.33410","Longitude":"-87.37790","Snowdepth":"31.000","Units":"in","Rept_Date":"2020-02-27 13"},"coordinates":[2314,6727]},{"type":"Point","properties":{"Station_ID":"CAN-NL-65","Station_Nam":"KIPPENS 0.7 NE, CA","Latitude":"48.55436","Longitude":"-58.61850","Snowdepth":"31.000","Units":"in","Rept_Date":"2020-02-27 12"},"coordinates":[9064,8074]},{"type":"Point","properties":{"Station_ID":"QLB","Station_Nam":"QLB","Latitude":"50.72360","Longitude":"-75.10000","Snowdepth":"30.984","Units":"in","Rept_Date":"2020-02-27 12"},"coordinates":[5196,9390]},{"type":"Point","properties":{"Station_ID":"MI-KW-2","Station_Nam":"DELAWARE 5.2 SW, MI","Latitude":"47.36928","Longitude":"-88.17919","Snowdepth":"30.000","Units":"in","Rept_Date":"2020-02-27 09"},"coordinates":[2126,7355]},{"type":"Point","properties":{"Station_ID":"HERM4","Station_Nam":"HERMAN,MI","Latitude":"46.65000","Longitude":"-88.33330","Snowdepth":"30.000","Units":"in","Rept_Date":"2020-02-27 13"},"coordinates":[2090,6919]},{"type":"Point","properties":{"Station_ID":"MI-HG-6","Station_Nam":"CALUMET 5.8 ENE, MI","Latitude":"47.27200","Longitude":"-88.33400","Snowdepth":"29.500","Units":"in","Rept_Date":"2020-02-27 11"},"coordinates":[2090,7296]},{"type":"Point","properties":{"Station_ID":"HURW3","Station_Nam":"HURLEY","Latitude":"46.46250","Longitude":"-90.19550","Snowdepth":"29.000","Units":"in","Rept_Date":"2020-02-27 14"},"coordinates":[1653,6805]},{"type":"Point","properties":{"Station_ID":"QFT","Station_Nam":"QFT","Latitude":"50.83280","Longitude":"-74.40390","Snowdepth":"28.701","Units":"in","Rept_Date":"2020-02-27 12"},"coordinates":[5359,9457]},{"type":"Point","properties":{"Station_ID":"PTLQ6","Station_Nam":"PORTAGE LAKE","Latitude":"49.06950","Longitude":"-86.65940","Snowdepth":"28.190","Units":"in","Rept_Date":"2020-02-28 06"},"coordinates":[2483,8387]},{"type":"Point","properties":{"Station_ID":"IWOM4","Station_Nam":"IRONWOOD#2","Latitude":"46.46520","Longitude":"-90.13820","Snowdepth":"28.000","Units":"in","Rept_Date":"2020-02-27 13"},"coordinates":[1666,6807]},{"type":"Point","properties":{"Station_ID":"BERM4","Station_Nam":"BERGLAND DAM","Latitude":"46.58690","Longitude":"-89.54750","Snowdepth":"28.000","Units":"in","Rept_Date":"2020-02-27 13"},"coordinates":[1805,6881]},{"type":"Point","properties":{"Station_ID":"WRPW3","Station_Nam":"WATER PURIFICATION PLANT","Latitude":"44.38800","Longitude":"-89.80550","Snowdepth":"27.000","Units":"in","Rept_Date":"2020-02-27 12"},"coordinates":[1744,5547]},{"type":"Point","properties":{"Station_ID":"UPSW3","Station_Nam":"UPSON,WI","Latitude":"46.36780","Longitude":"-90.41220","Snowdepth":"27.000","Units":"in","Rept_Date":"2020-02-28 00"},"coordinates":[1602,6748]},{"type":"Point","properties":{"Station_ID":"MI-HG-1","Station_Nam":"HOUGHTON 1.6 ESE, MI","Latitude":"47.10774","Longitude":"-88.52940","Snowdepth":"27.000","Units":"in","Rept_Date":"2020-02-27 13"},"coordinates":[2044,7197]},{"type":"Point","properties":{"Station_ID":"ME-AR-18","Station_Nam":"NEW SWEDEN 4.9 NNW, ME","Latitude":"47.01080","Longitude":"-68.14390","Snowdepth":"27.000","Units":"in","Rept_Date":"2020-02-27 12"},"coordinates":[6828,7138]},{"type":"Point","properties":{"Station_ID":"GNLM4","Station_Nam":"GREENLAND 6N","Latitude":"46.87360","Longitude":"-89.10060","Snowdepth":"27.000","Units":"in","Rept_Date":"2020-02-27 13"},"coordinates":[1910,7055]},{"type":"Point","properties":{"Station_ID":"CRVW3","Station_Nam":"CRIVITZ HIGH FALLS","Latitude":"45.35750","Longitude":"-88.19190","Snowdepth":"27.000","Units":"in","Rept_Date":"2020-02-27 13"},"coordinates":[2123,6135]},{"type":"Point","properties":{"Station_ID":"CAN-QC-47","Station_Nam":"SAINTE-FOY 1.8 ENE, CAN","Latitude":"46.76934","Longitude":"-71.27124","Snowdepth":"26.400","Units":"in","Rept_Date":"2020-02-27 12"},"coordinates":[6094,6992]},{"type":"Point","properties":{"Station_ID":"CAN-NB-105","Station_Nam":"SISSON BROOK 3.8 E, CAN","Latitude":"46.98305","Longitude":"-67.32532","Snowdepth":"26.400","Units":"in","Rept_Date":"2020-02-27 12"},"coordinates":[7020,7121]},{"type":"Point","properties":{"Station_ID":"DVLQ6","Station_Nam":"DEVIOUS LAKE","Latitude":"49.19890","Longitude":"-87.76440","Snowdepth":"26.180","Units":"in","Rept_Date":"2020-02-28 06"},"coordinates":[2224,8465]},{"type":"Point","properties":{"Station_ID":"VT-OL-12","Station_Nam":"GREENSBORO 3.9 NNE, VT","Latitude":"44.63100","Longitude":"-72.28000","Snowdepth":"26.000","Units":"in","Rept_Date":"2020-02-27 13"},"coordinates":[5858,5694]},{"type":"Point","properties":{"Station_ID":"LNOW3","Station_Nam":"LAND O LAKES","Latitude":"46.19000","Longitude":"-89.45700","Snowdepth":"26.000","Units":"in","Rept_Date":"2020-02-27 13"},"coordinates":[1826,6640]},{"type":"Point","properties":{"Station_ID":"CLQM5","Station_Nam":"CLOQUET","Latitude":"46.70470","Longitude":"-92.52530","Snowdepth":"26.000","Units":"in","Rept_Date":"2020-02-27 14"},"coordinates":[1106,6952]},{"type":"Point","properties":{"Station_ID":"BRAM1","Station_Nam":"BRASSUA DAM","Latitude":"45.66020","Longitude":"-69.81190","Snowdepth":"26.000","Units":"in","Rept_Date":"2020-02-27 12"},"coordinates":[6437,6319]},{"type":"Point","properties":{"Station_ID":"QMA","Station_Nam":"QMA","Latitude":"50.10330","Longitude":"-70.47190","Snowdepth":"25.945","Units":"in","Rept_Date":"2020-02-27 12"},"coordinates":[6282,9014]},{"type":"Point","properties":{"Station_ID":"QGA","Station_Nam":"QGA","Latitude":"47.25640","Longitude":"-73.73810","Snowdepth":"25.866","Units":"in","Rept_Date":"2020-02-27 12"},"coordinates":[5515,7287]},{"type":"Point","properties":{"Station_ID":"SVBQ6","Station_Nam":"SAVANT BASE","Latitude":"50.28730","Longitude":"-90.65670","Snowdepth":"25.710","Units":"in","Rept_Date":"2020-02-28 06"},"coordinates":[1545,9126]},{"type":"Point","properties":{"Station_ID":"WI-VL-9","Station_Nam":"LAND O' LAKES 11.7 W, WI","Latitude":"46.19023","Longitude":"-89.45790","Snowdepth":"25.500","Units":"in","Rept_Date":"2020-02-27 13"},"coordinates":[1826,6640]},{"type":"Point","properties":{"Station_ID":"NH-CS-10","Station_Nam":"RANDOLPH 1.4 NE, NH","Latitude":"44.38824","Longitude":"-71.26950","Snowdepth":"25.000","Units":"in","Rept_Date":"2020-02-27 12"},"coordinates":[6095,5547]},{"type":"Point","properties":{"Station_ID":"LVDW3","Station_Nam":"LAC VIEUX DESERT","Latitude":"46.12110","Longitude":"-89.07580","Snowdepth":"25.000","Units":"in","Rept_Date":"2020-02-27 15"},"coordinates":[1916,6598]},{"type":"Point","properties":{"Station_ID":"ILIM5","Station_Nam":"ISLAND LAKE","Latitude":"47.02400","Longitude":"-92.07000","Snowdepth":"25.000","Units":"in","Rept_Date":"2020-02-27 15"},"coordinates":[1213,7146]},{"type":"Point","properties":{"Station_ID":"HRVM4","Station_Nam":"HARVEY","Latitude":"46.49080","Longitude":"-87.35470","Snowdepth":"25.000","Units":"in","Rept_Date":"2020-02-27 12"},"coordinates":[2320,6823]},{"type":"Point","properties":{"Station_ID":"QMD","Station_Nam":"QMD","Latitude":"49.29060","Longitude":"-75.84500","Snowdepth":"24.409","Units":"in","Rept_Date":"2020-02-27 12"},"coordinates":[5021,8521]},{"type":"Point","properties":{"Station_ID":"QCX","Station_Nam":"QCX","Latitude":"51.32830","Longitude":"-70.08060","Snowdepth":"24.173","Units":"in","Rept_Date":"2020-02-27 12"},"coordinates":[6374,9757]},{"type":"Point","properties":{"Station_ID":"VT-CL-3","Station_Nam":"GROTON 4.4 WSW, VT","Latitude":"44.19440","Longitude":"-72.28240","Snowdepth":"24.000","Units":"in","Rept_Date":"2020-02-27 11"},"coordinates":[5857,5429]},{"type":"Point","properties":{"Station_ID":"VT-BN-12","Station_Nam":"STAMFORD 5.0 NNE, VT","Latitude":"42.82000","Longitude":"-73.02000","Snowdepth":"24.000","Units":"in","Rept_Date":"2020-02-27 21"},"coordinates":[5684,4596]},{"type":"Point","properties":{"Station_ID":"STGW3","Station_Nam":"ST GERMAIN","Latitude":"45.91550","Longitude":"-89.48940","Snowdepth":"24.000","Units":"in","Rept_Date":"2020-02-27 12"},"coordinates":[1819,6474]},{"type":"Point","properties":{"Station_ID":"RKWM1","Station_Nam":"MOOSEHEAD LAKE","Latitude":"45.58330","Longitude":"-69.71670","Snowdepth":"24.000","Units":"in","Rept_Date":"2020-02-27 12"},"coordinates":[6459,6272]},{"type":"Point","properties":{"Station_ID":"GLDM4","Station_Nam":"GLADSTONE NO. 2","Latitude":"45.84330","Longitude":"-87.03910","Snowdepth":"24.000","Units":"in","Rept_Date":"2020-02-27 12"},"coordinates":[2394,6430]},{"type":"Point","properties":{"Station_ID":"GGRM4","Station_Nam":"GREEN GARDEN NO.2","Latitude":"46.45330","Longitude":"-87.30380","Snowdepth":"24.000","Units":"in","Rept_Date":"2020-02-27 11"},"coordinates":[2332,6800]},{"type":"Point","properties":{"Station_ID":"EVRW3","Station_Nam":"EAGLE RIVER-4 E","Latitude":"45.91890","Longitude":"-89.15280","Snowdepth":"24.000","Units":"in","Rept_Date":"2020-02-27 13"},"coordinates":[1898,6476]},{"type":"Point","properties":{"Station_ID":"BBEM4","Station_Nam":"BIG BAY 9SW","Latitude":"46.74620","Longitude":"-87.88160","Snowdepth":"24.000","Units":"in","Rept_Date":"2020-02-27 13"},"coordinates":[2196,6977]},{"type":"Point","properties":{"Station_ID":"TRIQ6","Station_Nam":"TRIO LAKE","Latitude":"49.22880","Longitude":"-87.22920","Snowdepth":"23.740","Units":"in","Rept_Date":"2020-02-28 06"},"coordinates":[2349,8484]},{"type":"Point","properties":{"Station_ID":"AUDQ6","Station_Nam":"AUDEN","Latitude":"48.52600","Longitude":"-82.57570","Snowdepth":"23.740","Units":"in","Rept_Date":"2020-02-28 06"},"coordinates":[3441,8057]},{"type":"Point","properties":{"Station_ID":"WI-WB-2","Station_Nam":"STONE LAKE 2.0 NW, WI","Latitude":"45.85960","Longitude":"-91.57710","Snowdepth":"23.000","Units":"in","Rept_Date":"2020-02-27 13"},"coordinates":[1329,6440]},{"type":"Point","properties":{"Station_ID":"VT-CL-40","Station_Nam":"LYNDONVILLE 4.2 NNW, VT","Latitude":"44.59440","Longitude":"-72.02389","Snowdepth":"23.000","Units":"in","Rept_Date":"2020-02-27 12"},"coordinates":[5918,5672]},{"type":"Point","properties":{"Station_ID":"SUAW3","Station_Nam":"SUAMICO","Latitude":"44.60190","Longitude":"-88.09780","Snowdepth":"23.000","Units":"in","Rept_Date":"2020-02-27 12"},"coordinates":[2145,5677]},{"type":"Point","properties":{"Station_ID":"PDGM4","Station_Nam":"PAULDING","Latitude":"46.39760","Longitude":"-89.17940","Snowdepth":"23.000","Units":"in","Rept_Date":"2020-02-27 13"},"coordinates":[1891,6766]},{"type":"Point","properties":{"Station_ID":"MN-IT-23","Station_Nam":"BOVEY 13.4 N, MN","Latitude":"47.48855","Longitude":"-93.43497","Snowdepth":"23.000","Units":"in","Rept_Date":"2020-02-27 13"},"coordinates":[893,7428]},{"type":"Point","properties":{"Station_ID":"LBKV1","Station_Nam":"LYE BROOK","Latitude":"43.05000","Longitude":"-73.03330","Snowdepth":"23.000","Units":"in","Rept_Date":"2020-02-28 06"},"coordinates":[5681,4735]},{"type":"Point","properties":{"Station_ID":"BRMM5","Station_Nam":"BRIMSON 2S","Latitude":"47.24720","Longitude":"-91.86240","Snowdepth":"23.000","Units":"in","Rept_Date":"2020-02-28 01"},"coordinates":[1262,7281]},{"type":"Point","properties":{"Station_ID":"MN-SL-108","Station_Nam":"IRON JUNCTION 3.4 NNW, MN","Latitude":"47.46150","Longitude":"-92.63130","Snowdepth":"22.500","Units":"in","Rept_Date":"2020-02-27 13"},"coordinates":[1081,7411]},{"type":"Point","properties":{"Station_ID":"MN-IT-17","Station_Nam":"GRAND RAPIDS 6.1 N, MN","Latitude":"47.31165","Longitude":"-93.55036","Snowdepth":"22.500","Units":"in","Rept_Date":"2020-02-27 13"},"coordinates":[866,7321]},{"type":"Point","properties":{"Station_ID":"QTV","Station_Nam":"QTV","Latitude":"49.66000","Longitude":"-69.35690","Snowdepth":"22.205","Units":"in","Rept_Date":"2020-02-27 12"},"coordinates":[6544,8745]},{"type":"Point","properties":{"Station_ID":"KABQ6","Station_Nam":"CAB LAKE","Latitude":"49.59950","Longitude":"-89.17990","Snowdepth":"22.170","Units":"in","Rept_Date":"2020-02-28 06"},"coordinates":[1891,8708]},{"type":"Point","properties":{"Station_ID":"WRSM5","Station_Nam":"WRENSHALL","Latitude":"46.61550","Longitude":"-92.38380","Snowdepth":"22.000","Units":"in","Rept_Date":"2020-02-27 14"},"coordinates":[1139,6898]},{"type":"Point","properties":{"Station_ID":"WI-VL-14","Station_Nam":"BOULDER JUNCTION 1.4 NE, WI","Latitude":"46.12840","Longitude":"-89.62470","Snowdepth":"22.000","Units":"in","Rept_Date":"2020-02-27 13"},"coordinates":[1787,6603]},{"type":"Point","properties":{"Station_ID":"VT-OL-1","Station_Nam":"WESTFIELD 0.7 WNW, VT","Latitude":"44.89160","Longitude":"-72.44350","Snowdepth":"22.000","Units":"in","Rept_Date":"2020-02-27 13"},"coordinates":[5819,5852]},{"type":"Point","properties":{"Station_ID":"VANM1","Station_Nam":"VAN BUREN","Latitude":"47.16600","Longitude":"-67.93900","Snowdepth":"22.000","Units":"in","Rept_Date":"2020-02-27 12"},"coordinates":[6876,7232]},{"type":"Point","properties":{"Station_ID":"MN-SL-15","Station_Nam":"CHISHOLM 0.4 WSW, MN","Latitude":"47.48557","Longitude":"-92.88690","Snowdepth":"22.000","Units":"in","Rept_Date":"2020-02-27 13"},"coordinates":[1021,7426]},{"type":"Point","properties":{"Station_ID":"IRMM4","Station_Nam":"WWTP","Latitude":"46.46670","Longitude":"-90.18330","Snowdepth":"22.000","Units":"in","Rept_Date":"2020-02-27 13"},"coordinates":[1656,6808]},{"type":"Point","properties":{"Station_ID":"CEFM4","Station_Nam":"EXPERIMENT FARM #2","Latitude":"46.33330","Longitude":"-86.91670","Snowdepth":"22.000","Units":"in","Rept_Date":"2020-02-27 13"},"coordinates":[2422,6727]},{"type":"Point","properties":{"Station_ID":"CARM1","Station_Nam":"CARIBOU WFO","Latitude":"46.86810","Longitude":"-68.01250","Snowdepth":"22.000","Units":"in","Rept_Date":"2020-02-28 05"},"coordinates":[6859,7051]},{"type":"Point","properties":{"Station_ID":"CAR","Station_Nam":"CARIBOU, ME","Latitude":"46.86830","Longitude":"-68.01360","Snowdepth":"22.000","Units":"in","Rept_Date":"2020-02-27 12"},"coordinates":[6859,7052]},{"type":"Point","properties":{"Station_ID":"CAN-NB-11","Station_Nam":"MIRAMICHI 3.3 S, CAN","Latitude":"46.99343","Longitude":"-65.50690","Snowdepth":"22.000","Units":"in","Rept_Date":"2020-02-27 11"},"coordinates":[7447,7127]},{"type":"Point","properties":{"Station_ID":"BNDM5","Station_Nam":"ELY 25E","Latitude":"47.97190","Longitude":"-91.44860","Snowdepth":"22.000","Units":"in","Rept_Date":"2020-02-27 13"},"coordinates":[1359,7721]},{"type":"Point","properties":{"Station_ID":"SOCQ6","Station_Nam":"SOCKET LAKE","Latitude":"50.77870","Longitude":"-91.79300","Snowdepth":"21.690","Units":"in","Rept_Date":"2020-02-28 06"},"coordinates":[1278,9424]},{"type":"Point","properties":{"Station_ID":"WI-BY-14","Station_Nam":"ASHLAND 9.8 W, WI","Latitude":"46.59742","Longitude":"-91.07856","Snowdepth":"21.500","Units":"in","Rept_Date":"2020-02-27 12"},"coordinates":[1446,6887]},{"type":"Point","properties":{"Station_ID":"WI-ON-8","Station_Nam":"HAZELHURST 2.1 SSE, WI","Latitude":"45.78186","Longitude":"-89.70330","Snowdepth":"21.000","Units":"in","Rept_Date":"2020-02-27 13"},"coordinates":[1768,6392]},{"type":"Point","properties":{"Station_ID":"SUTV1","Station_Nam":"SUTTON","Latitude":"44.61220","Longitude":"-72.04810","Snowdepth":"21.000","Units":"in","Rept_Date":"2020-02-27 13"},"coordinates":[5912,5683]},{"type":"Point","properties":{"Station_ID":"PRDM4","Station_Nam":"PARADISE","Latitude":"46.60380","Longitude":"-85.03960","Snowdepth":"21.000","Units":"in","Rept_Date":"2020-02-27 11"},"coordinates":[2863,6891]},{"type":"Point","properties":{"Station_ID":"NY-ES-6","Station_Nam":"OLMSTEDVILLE 4.6 NNE, NY","Latitude":"43.83350","Longitude":"-73.89780","Snowdepth":"21.000","Units":"in","Rept_Date":"2020-02-27 13"},"coordinates":[5478,5210]},{"type":"Point","properties":{"Station_ID":"INDN6","Station_Nam":"INDIAN LAKE","Latitude":"43.75500","Longitude":"-74.27560","Snowdepth":"21.000","Units":"in","Rept_Date":"2020-02-27 13"},"coordinates":[5389,5163]},{"type":"Point","properties":{"Station_ID":"GHMN3","Station_Nam":"PINKHAM NOTCH","Latitude":"44.25800","Longitude":"-71.25250","Snowdepth":"21.000","Units":"in","Rept_Date":"2020-02-27 11"},"coordinates":[6099,5468]},{"type":"Point","properties":{"Station_ID":"DLHM5","Station_Nam":"DULUTH NWS","Latitude":"46.83680","Longitude":"-92.21080","Snowdepth":"21.000","Units":"in","Rept_Date":"2020-02-28 06"},"coordinates":[1180,7032]},{"type":"Point","properties":{"Station_ID":"DLH","Station_Nam":"DULUTH, MN","Latitude":"46.83690","Longitude":"-92.21030","Snowdepth":"21.000","Units":"in","Rept_Date":"2020-02-28 00"},"coordinates":[1180,7033]},{"type":"Point","properties":{"Station_ID":"CSLM5","Station_Nam":"CASS LAKE,MN","Latitude":"47.38470","Longitude":"-94.61470","Snowdepth":"21.000","Units":"in","Rept_Date":"2020-02-27 14"},"coordinates":[616,7365]},{"type":"Point","properties":{"Station_ID":"CRNM5","Station_Nam":"NW EXPERIMENT STN","Latitude":"47.80360","Longitude":"-96.61670","Snowdepth":"21.000","Units":"in","Rept_Date":"2020-02-27 14"},"coordinates":[146,7619]},{"type":"Point","properties":{"Station_ID":"CMKW3","Station_Nam":"CLAM LAKE 4W","Latitude":"46.16940","Longitude":"-90.98080","Snowdepth":"21.000","Units":"in","Rept_Date":"2020-02-27 13"},"coordinates":[1469,6628]},{"type":"Point","properties":{"Station_ID":"ANJM4","Station_Nam":"SNOW PAID OBSERVER FOR KANJ","Latitude":"46.48670","Longitude":"-84.40260","Snowdepth":"21.000","Units":"in","Rept_Date":"2020-02-28 06"},"coordinates":[3013,6820]},{"type":"Point","properties":{"Station_ID":"QTM","Station_Nam":"QTM","Latitude":"51.05780","Longitude":"-72.57190","Snowdepth":"20.551","Units":"in","Rept_Date":"2020-02-27 12"},"coordinates":[5789,9593]},{"type":"Point","properties":{"Station_ID":"CAN-NS-60","Station_Nam":"SYDNEY FORKS, CAN","Latitude":"46.05645","Longitude":"-60.31510","Snowdepth":"20.500","Units":"in","Rept_Date":"2020-02-27 13"},"coordinates":[8666,6559]},{"type":"Point","properties":{"Station_ID":"QLI","Station_Nam":"QLI","Latitude":"50.27080","Longitude":"-73.92280","Snowdepth":"20.354","Units":"in","Rept_Date":"2020-02-27 12"},"coordinates":[5472,9116]},{"type":"Point","properties":{"Station_ID":"QYR","Station_Nam":"QYR","Latitude":"48.87220","Longitude":"-75.61470","Snowdepth":"20.315","Units":"in","Rept_Date":"2020-02-27 12"},"coordinates":[5075,8267]},{"type":"Point","properties":{"Station_ID":"QLP","Station_Nam":"QLP","Latitude":"48.13920","Longitude":"-72.63830","Snowdepth":"20.236","Units":"in","Rept_Date":"2020-02-27 12"},"coordinates":[5774,7823]},{"type":"Point","properties":{"Station_ID":"WNBM5","Station_Nam":"DAM","Latitude":"47.43060","Longitude":"-94.05000","Snowdepth":"20.000","Units":"in","Rept_Date":"2020-02-27 14"},"coordinates":[748,7393]},{"type":"Point","properties":{"Station_ID":"WI-DG-20","Station_Nam":"SOLON SPRINGS 1.2 W, WI","Latitude":"46.35217","Longitude":"-91.84405","Snowdepth":"20.000","Units":"in","Rept_Date":"2020-02-27 13"},"coordinates":[1266,6738]},{"type":"Point","properties":{"Station_ID":"TOGM5","Station_Nam":"CELINA 2E","Latitude":"47.86630","Longitude":"-93.02660","Snowdepth":"20.000","Units":"in","Rept_Date":"2020-02-27 14"},"coordinates":[989,7657]},{"type":"Point","properties":{"Station_ID":"MN-CK-6","Station_Nam":"GRAND MARAIS 4.4 W, MN","Latitude":"47.74865","Longitude":"-90.43760","Snowdepth":"20.000","Units":"in","Rept_Date":"2020-02-27 13"},"coordinates":[1596,7586]},{"type":"Point","properties":{"Station_ID":"MI-DL-1","Station_Nam":"GARDEN CORNERS 0.8 NW, MI","Latitude":"45.89815","Longitude":"-86.54850","Snowdepth":"20.000","Units":"in","Rept_Date":"2020-02-27 13"},"coordinates":[2509,6463]},{"type":"Point","properties":{"Station_ID":"ME-AR-15","Station_Nam":"PRESQUE ISLE 1.3 WSW, ME","Latitude":"46.67960","Longitude":"-68.01270","Snowdepth":"20.000","Units":"in","Rept_Date":"2020-02-27 12"},"coordinates":[6859,6937]},{"type":"Point","properties":{"Station_ID":"KABM5","Station_Nam":"KABETOGAMA LAKE VISITOR CTR","Latitude":"48.40880","Longitude":"-93.04840","Snowdepth":"20.000","Units":"in","Rept_Date":"2020-02-27 13"},"coordinates":[983,7986]},{"type":"Point","properties":{"Station_ID":"ISLV1","Station_Nam":"ISLAND POND","Latitude":"44.81280","Longitude":"-71.89020","Snowdepth":"20.000","Units":"in","Rept_Date":"2020-02-27 15"},"coordinates":[5949,5805]},{"type":"Point","properties":{"Station_ID":"IMNM4","Station_Nam":"IRON MOUTAIN 5N","Latitude":"45.87580","Longitude":"-88.04030","Snowdepth":"20.000","Units":"in","Rept_Date":"2020-02-27 16"},"coordinates":[2159,6449]},{"type":"Point","properties":{"Station_ID":"GDCM4","Station_Nam":"GARDEN CORNERS","Latitude":"45.89830","Longitude":"-86.54850","Snowdepth":"20.000","Units":"in","Rept_Date":"2020-02-27 13"},"coordinates":[2509,6463]},{"type":"Point","properties":{"Station_ID":"EMBM5","Station_Nam":"EMBARASS,MN","Latitude":"47.65810","Longitude":"-92.19580","Snowdepth":"20.000","Units":"in","Rept_Date":"2020-02-27 12"},"coordinates":[1184,7531]},{"type":"Point","properties":{"Station_ID":"COUW3","Station_Nam":"COUDERAY,WI","Latitude":"45.86670","Longitude":"-91.45000","Snowdepth":"20.000","Units":"in","Rept_Date":"2020-02-27 22"},"coordinates":[1359,6444]},{"type":"Point","properties":{"Station_ID":"COKM5","Station_Nam":"COOK","Latitude":"47.85060","Longitude":"-92.69250","Snowdepth":"20.000","Units":"in","Rept_Date":"2020-02-27 12"},"coordinates":[1067,7647]},{"type":"Point","properties":{"Station_ID":"AURW3","Station_Nam":"AURORA","Latitude":"45.77000","Longitude":"-88.11810","Snowdepth":"20.000","Units":"in","Rept_Date":"2020-02-27 13"},"coordinates":[2141,6385]},{"type":"Point","properties":{"Station_ID":"NY-HR-18","Station_Nam":"SALISBURY CENTER 1.8 NW, NY","Latitude":"43.16260","Longitude":"-74.80880","Snowdepth":"19.500","Units":"in","Rept_Date":"2020-02-27 11"},"coordinates":[5264,4803]},{"type":"Point","properties":{"Station_ID":"MN-BK-6","Station_Nam":"LAKE PARK 6.0 S, MN","Latitude":"46.79850","Longitude":"-96.12180","Snowdepth":"19.500","Units":"in","Rept_Date":"2020-02-27 13"},"coordinates":[262,7009]},{"type":"Point","properties":{"Station_ID":"ME-PN-45","Station_Nam":"MILLINOCKET 2.7 ESE, ME","Latitude":"45.65002","Longitude":"-68.64472","Snowdepth":"19.500","Units":"in","Rept_Date":"2020-02-27 12"},"coordinates":[6711,6312]},{"type":"Point","properties":{"Station_ID":"QIQ","Station_Nam":"QIQ","Latitude":"49.82390","Longitude":"-68.54310","Snowdepth":"19.409","Units":"in","Rept_Date":"2020-02-27 12"},"coordinates":[6735,8845]},{"type":"Point","properties":{"Station_ID":"QCO","Station_Nam":"QCO","Latitude":"51.45280","Longitude":"-72.20110","Snowdepth":"19.252","Units":"in","Rept_Date":"2020-02-27 12"},"coordinates":[5876,9833]},{"type":"Point","properties":{"Station_ID":"WI-BY-22","Station_Nam":"MASON 11.5 WNW, WI","Latitude":"46.50198","Longitude":"-91.28339","Snowdepth":"19.000","Units":"in","Rept_Date":"2020-02-27 14"},"coordinates":[1398,6829]},{"type":"Point","properties":{"Station_ID":"RANM1","Station_Nam":"RANGELEY","Latitude":"44.98910","Longitude":"-70.67190","Snowdepth":"19.000","Units":"in","Rept_Date":"2020-02-27 11"},"coordinates":[6235,5912]},{"type":"Point","properties":{"Station_ID":"LEIM5","Station_Nam":"ORR 3E","Latitude":"48.05810","Longitude":"-92.75220","Snowdepth":"19.000","Units":"in","Rept_Date":"2020-02-27 12"},"coordinates":[1053,7773]},{"type":"Point","properties":{"Station_ID":"GDPM5","Station_Nam":"PIGEON RIVER AT MIDDLE FALLS","Latitude":"48.01220","Longitude":"-89.61610","Snowdepth":"19.000","Units":"in","Rept_Date":"2020-02-27 13"},"coordinates":[1789,7745]},{"type":"Point","properties":{"Station_ID":"FISM1","Station_Nam":"FORT KENT COOP","Latitude":"47.23850","Longitude":"-68.61240","Snowdepth":"19.000","Units":"in","Rept_Date":"2020-02-27 12"},"coordinates":[6718,7276]},{"type":"Point","properties":{"Station_ID":"ELYM5","Station_Nam":"ELY","Latitude":"47.90560","Longitude":"-91.82830","Snowdepth":"19.000","Units":"in","Rept_Date":"2020-02-27 14"},"coordinates":[1270,7681]},{"type":"Point","properties":{"Station_ID":"EAHV1","Station_Nam":"EAST HAVEN","Latitude":"44.64250","Longitude":"-71.89120","Snowdepth":"19.000","Units":"in","Rept_Date":"2020-02-27 12"},"coordinates":[5949,5701]},{"type":"Point","properties":{"Station_ID":"CRLM5","Station_Nam":"CROSS LAKE DAM","Latitude":"46.66930","Longitude":"-94.11060","Snowdepth":"19.000","Units":"in","Rept_Date":"2020-02-27 14"},"coordinates":[734,6931]},{"type":"Point","properties":{"Station_ID":"CORV1","Station_Nam":"CORINTH","Latitude":"44.00690","Longitude":"-72.31940","Snowdepth":"19.000","Units":"in","Rept_Date":"2020-02-27 12"},"coordinates":[5848,5316]},{"type":"Point","properties":{"Station_ID":"CAN-NB-13","Station_Nam":"BATHURST 3.8 NW, CAN","Latitude":"47.64212","Longitude":"-65.68756","Snowdepth":"19.000","Units":"in","Rept_Date":"2020-02-27 09"},"coordinates":[7405,7521]},{"type":"Point","properties":{"Station_ID":"AVLV1","Station_Nam":"AVERILL","Latitude":"45.00570","Longitude":"-71.69030","Snowdepth":"19.000","Units":"in","Rept_Date":"2020-02-27 13"},"coordinates":[5996,5922]},{"type":"Point","properties":{"Station_ID":"ANJ","Station_Nam":"SAULT STE MARIE","Latitude":"46.46670","Longitude":"-84.36670","Snowdepth":"19.000","Units":"in","Rept_Date":"2020-02-28 00"},"coordinates":[3021,6808]},{"type":"Point","properties":{"Station_ID":"AMAM4","Station_Nam":"AMASA 1W","Latitude":"46.23470","Longitude":"-88.45440","Snowdepth":"19.000","Units":"in","Rept_Date":"2020-02-27 14"},"coordinates":[2062,6667]},{"type":"Point","properties":{"Station_ID":"CAN-PE-19","Station_Nam":"CHARLOTTETOWN 6.5 NNW, CAN","Latitude":"46.29235","Longitude":"-63.17271","Snowdepth":"18.900","Units":"in","Rept_Date":"2020-02-27 12"},"coordinates":[7995,6702]},{"type":"Point","properties":{"Station_ID":"QLM","Station_Nam":"QLM","Latitude":"48.92030","Longitude":"-70.25280","Snowdepth":"18.819","Units":"in","Rept_Date":"2020-02-27 12"},"coordinates":[6333,8296]},{"type":"Point","properties":{"Station_ID":"VT-WS-15","Station_Nam":"EAST CALAIS 1.5 SW, VT","Latitude":"44.35523","Longitude":"-72.45540","Snowdepth":"18.500","Units":"in","Rept_Date":"2020-02-27 12"},"coordinates":[5816,5527]},{"type":"Point","properties":{"Station_ID":"CAN-NB-18","Station_Nam":"MCLEOD HILL 1.1 ENE, CA","Latitude":"46.02725","Longitude":"-66.67460","Snowdepth":"18.500","Units":"in","Rept_Date":"2020-02-27 12"},"coordinates":[7173,6541]},{"type":"Point","properties":{"Station_ID":"WTRM4","Station_Nam":"WATERSMEET 12WSW","Latitude":"46.22310","Longitude":"-89.40850","Snowdepth":"18.000","Units":"in","Rept_Date":"2020-02-27 12"},"coordinates":[1838,6660]},{"type":"Point","properties":{"Station_ID":"WTNM4","Station_Nam":"WATTON 2WSW","Latitude":"46.52660","Longitude":"-88.64240","Snowdepth":"18.000","Units":"in","Rept_Date":"2020-02-27 13"},"coordinates":[2017,6844]},{"type":"Point","properties":{"Station_ID":"WRTS2","Station_Nam":"WATERTOWN,SD","Latitude":"44.90280","Longitude":"-97.11360","Snowdepth":"18.000","Units":"in","Rept_Date":"2020-02-27 15"},"coordinates":[29,5859]},{"type":"Point","properties":{"Station_ID":"TAKW3","Station_Nam":"RICE RESERVOIR NO. 2","Latitude":"45.53770","Longitude":"-89.73220","Snowdepth":"18.000","Units":"in","Rept_Date":"2020-02-27 13"},"coordinates":[1762,6244]},{"type":"Point","properties":{"Station_ID":"SULW3","Station_Nam":"SUMMIT LAKE","Latitude":"45.37880","Longitude":"-89.19410","Snowdepth":"18.000","Units":"in","Rept_Date":"2020-02-27 11"},"coordinates":[1888,6148]},{"type":"Point","properties":{"Station_ID":"RSTW3","Station_Nam":"ROSHOLT","Latitude":"44.62710","Longitude":"-89.30600","Snowdepth":"18.000","Units":"in","Rept_Date":"2020-02-27 13"},"coordinates":[1862,5692]},{"type":"Point","properties":{"Station_ID":"RHIW3","Station_Nam":"RHINELANDER","Latitude":"45.59860","Longitude":"-89.45080","Snowdepth":"18.000","Units":"in","Rept_Date":"2020-02-27 13"},"coordinates":[1828,6281]},{"type":"Point","properties":{"Station_ID":"RGNM1","Station_Nam":"RANGELEY 2NW","Latitude":"44.98940","Longitude":"-70.67220","Snowdepth":"18.000","Units":"in","Rept_Date":"2020-02-27 11"},"coordinates":[6235,5912]},{"type":"Point","properties":{"Station_ID":"NY-FK-7","Station_Nam":"SARANAC LAKE 6.2 N, NY","Latitude":"44.41359","Longitude":"-74.15211","Snowdepth":"18.000","Units":"in","Rept_Date":"2020-02-27 12"},"coordinates":[5418,5562]},{"type":"Point","properties":{"Station_ID":"NCBN6","Station_Nam":"NEWCOMB","Latitude":"43.97070","Longitude":"-74.22200","Snowdepth":"18.000","Units":"in","Rept_Date":"2020-02-27 12"},"coordinates":[5402,5294]},{"type":"Point","properties":{"Station_ID":"MWN","Station_Nam":"MOUNT WASHINGTON","Latitude":"44.26670","Longitude":"-71.30000","Snowdepth":"18.000","Units":"in","Rept_Date":"2020-02-28 05"},"coordinates":[6088,5473]},{"type":"Point","properties":{"Station_ID":"MN-IT-1","Station_Nam":"GRAND RAPIDS 2.0 E, MN","Latitude":"47.22266","Longitude":"-93.49600","Snowdepth":"18.000","Units":"in","Rept_Date":"2020-02-27 12"},"coordinates":[878,7267]},{"type":"Point","properties":{"Station_ID":"KMWN","Station_Nam":"MOUNT WASHINGTON","Latitude":"44.26666","Longitude":"-71.30000","Snowdepth":"18.000","Units":"in","Rept_Date":"2020-02-28 06"},"coordinates":[6088,5473]},{"type":"Point","properties":{"Station_ID":"INL","Station_Nam":"FALLS INTERNATIONAL ARPT","Latitude":"48.56640","Longitude":"-93.40310","Snowdepth":"18.000","Units":"in","Rept_Date":"2020-02-28 00"},"coordinates":[900,8082]},{"type":"Point","properties":{"Station_ID":"IFSM5","Station_Nam":"INTERNATIONAL FALLS SNOW","Latitude":"48.57780","Longitude":"-93.39640","Snowdepth":"18.000","Units":"in","Rept_Date":"2020-02-27 12"},"coordinates":[902,8089]},{"type":"Point","properties":{"Station_ID":"HUBN3","Station_Nam":"HUBBARD BROOK","Latitude":"43.93330","Longitude":"-71.71670","Snowdepth":"18.000","Units":"in","Rept_Date":"2020-02-27 16"},"coordinates":[5990,5271]},{"type":"Point","properties":{"Station_ID":"FLNW3","Station_Nam":"FLORENCE","Latitude":"45.93360","Longitude":"-88.25830","Snowdepth":"18.000","Units":"in","Rept_Date":"2020-02-27 13"},"coordinates":[2108,6485]},{"type":"Point","properties":{"Station_ID":"DFXM1","Station_Nam":"DOVER-FOXCROFT","Latitude":"45.18720","Longitude":"-69.18350","Snowdepth":"18.000","Units":"in","Rept_Date":"2020-02-27 12"},"coordinates":[6584,6032]},{"type":"Point","properties":{"Station_ID":"CLKM4","Station_Nam":"CLARKSBURG","Latitude":"46.49910","Longitude":"-87.84500","Snowdepth":"18.000","Units":"in","Rept_Date":"2020-02-27 12"},"coordinates":[2205,6828]},{"type":"Point","properties":{"Station_ID":"CAN-ON-245","Station_Nam":"PHELPSTON 3.1 ESE, CAN","Latitude":"44.50564","Longitude":"-79.81035","Snowdepth":"18.000","Units":"in","Rept_Date":"2020-02-27 13"},"coordinates":[4090,5618]},{"type":"Point","properties":{"Station_ID":"BOON6","Station_Nam":"BOONVILLE 4 SSW","Latitude":"43.43610","Longitude":"-75.36970","Snowdepth":"18.000","Units":"in","Rept_Date":"2020-02-27 12"},"coordinates":[5132,4969]},{"type":"Point","properties":{"Station_ID":"ATY","Station_Nam":"WATERTOWN MUNICIPAL AIRPORT","Latitude":"44.91420","Longitude":"-97.15440","Snowdepth":"18.000","Units":"in","Rept_Date":"2020-02-27 12"},"coordinates":[20,5866]},{"type":"Point","properties":{"Station_ID":"ASTW3","Station_Nam":"ATHELSTANE","Latitude":"45.42500","Longitude":"-88.05750","Snowdepth":"18.000","Units":"in","Rept_Date":"2020-02-27 12"},"coordinates":[2155,6176]},{"type":"Point","properties":{"Station_ID":"AGNW3","Station_Nam":"ARGONNE-1.5 NW","Latitude":"45.67360","Longitude":"-88.90380","Snowdepth":"18.000","Units":"in","Rept_Date":"2020-02-27 13"},"coordinates":[1956,6327]},{"type":"Point","properties":{"Station_ID":"MFU","Station_Nam":"MFU","Latitude":"51.52170","Longitude":"-66.91110","Snowdepth":"17.598","Units":"in","Rept_Date":"2020-02-27 12"},"coordinates":[7118,9875]},{"type":"Point","properties":{"Station_ID":"VT-WS-7","Station_Nam":"MIDDLESEX 3.1 ENE, VT","Latitude":"44.31799","Longitude":"-72.62650","Snowdepth":"17.500","Units":"in","Rept_Date":"2020-02-27 12"},"coordinates":[5776,5504]},{"type":"Point","properties":{"Station_ID":"ZNOM4","Station_Nam":"NORWAY","Latitude":"45.77810","Longitude":"-87.89560","Snowdepth":"17.000","Units":"in","Rept_Date":"2020-02-28 01"},"coordinates":[2193,6390]},{"type":"Point","properties":{"Station_ID":"WI-SR-1","Station_Nam":"HAYWARD 9.2 NNE, WI","Latitude":"46.13255","Longitude":"-91.40500","Snowdepth":"17.000","Units":"in","Rept_Date":"2020-02-27 12"},"coordinates":[1369,6605]},{"type":"Point","properties":{"Station_ID":"WI-ON-6","Station_Nam":"RHINELANDER 5.2 N, WI","Latitude":"45.71388","Longitude":"-89.42150","Snowdepth":"17.000","Units":"in","Rept_Date":"2020-02-27 14"},"coordinates":[1835,6351]},{"type":"Point","properties":{"Station_ID":"WI-BN-6","Station_Nam":"SUAMICO 4.4 WNW, WI","Latitude":"44.66111","Longitude":"-88.11780","Snowdepth":"17.000","Units":"in","Rept_Date":"2020-02-27 13"},"coordinates":[2141,5713]},{"type":"Point","properties":{"Station_ID":"TOHM5","Station_Nam":"TWO HARBORS WWTP","Latitude":"47.01760","Longitude":"-91.66480","Snowdepth":"17.000","Units":"in","Rept_Date":"2020-02-27 13"},"coordinates":[1308,7142]},{"type":"Point","properties":{"Station_ID":"SD-BK-9","Station_Nam":"BRUCE 4.1 NE, SD","Latitude":"44.48479","Longitude":"-96.83750","Snowdepth":"17.000","Units":"in","Rept_Date":"2020-02-27 13"},"coordinates":[94,5606]},{"type":"Point","properties":{"Station_ID":"RHLW3","Station_Nam":"RHINELANDER 4NE","Latitude":"45.65270","Longitude":"-89.30740","Snowdepth":"17.000","Units":"in","Rept_Date":"2020-02-27 12"},"coordinates":[1861,6314]},{"type":"Point","properties":{"Station_ID":"PEKN6","Station_Nam":"PECK LAKE","Latitude":"43.11500","Longitude":"-74.42360","Snowdepth":"17.000","Units":"in","Rept_Date":"2020-02-27 13"},"coordinates":[5355,4775]},{"type":"Point","properties":{"Station_ID":"MN-CW-22","Station_Nam":"FORT RIPLEY 0.8 N, MN","Latitude":"46.18089","Longitude":"-94.36510","Snowdepth":"17.000","Units":"in","Rept_Date":"2020-02-27 13"},"coordinates":[674,6635]},{"type":"Point","properties":{"Station_ID":"MIEM4","Station_Nam":"MICHIGAMME 3WNW","Latitude":"46.54530","Longitude":"-88.18000","Snowdepth":"17.000","Units":"in","Rept_Date":"2020-02-27 13"},"coordinates":[2126,6856]},{"type":"Point","properties":{"Station_ID":"MI-OT-17","Station_Nam":"GAYLORD 4.1 S, MI","Latitude":"44.96388","Longitude":"-84.68467","Snowdepth":"17.000","Units":"in","Rept_Date":"2020-02-27 12"},"coordinates":[2946,5896]},{"type":"Point","properties":{"Station_ID":"JCBM4","Station_Nam":"JACOBSVILLE","Latitude":"47.00830","Longitude":"-88.43180","Snowdepth":"17.000","Units":"in","Rept_Date":"2020-02-27 12"},"coordinates":[2067,7136]},{"type":"Point","properties":{"Station_ID":"INDM5","Station_Nam":"INDUS,MN","Latitude":"48.61670","Longitude":"-93.90000","Snowdepth":"17.000","Units":"in","Rept_Date":"2020-02-27 14"},"coordinates":[784,8112]},{"type":"Point","properties":{"Station_ID":"FARM1","Station_Nam":"FARMINGTON","Latitude":"44.68930","Longitude":"-70.15640","Snowdepth":"17.000","Units":"in","Rept_Date":"2020-02-28 05"},"coordinates":[6356,5730]},{"type":"Point","properties":{"Station_ID":"BTLN3","Station_Nam":"BARTLETT","Latitude":"44.08380","Longitude":"-71.29340","Snowdepth":"17.000","Units":"in","Rept_Date":"2020-02-27 12"},"coordinates":[6089,5362]},{"type":"Point","properties":{"Station_ID":"APXM4","Station_Nam":"GAYLORD 9SSW","Latitude":"44.90720","Longitude":"-84.71880","Snowdepth":"17.000","Units":"in","Rept_Date":"2020-02-28 06"},"coordinates":[2938,5862]},{"type":"Point","properties":{"Station_ID":"NH-CR-15","Station_Nam":"JACKSON 3.7 NW, NH","Latitude":"44.19069","Longitude":"-71.22598","Snowdepth":"16.500","Units":"in","Rept_Date":"2020-02-27 12"},"coordinates":[6105,5427]},{"type":"Point","properties":{"Station_ID":"NH-CR-11","Station_Nam":"NORTH CONWAY 1.4 SSW, NH","Latitude":"44.03556","Longitude":"-71.14010","Snowdepth":"16.500","Units":"in","Rept_Date":"2020-02-27 12"},"coordinates":[6125,5333]},{"type":"Point","properties":{"Station_ID":"MI-OT-16","Station_Nam":"GAYLORD 2.2 SSE, MI","Latitude":"44.99441","Longitude":"-84.65820","Snowdepth":"16.500","Units":"in","Rept_Date":"2020-02-27 14"},"coordinates":[2953,5915]},{"type":"Point","properties":{"Station_ID":"CAN-ON-526","Station_Nam":"HILTON BEACH 0.7 SW - MNRF, CAN","Latitude":"46.25357","Longitude":"-83.90014","Snowdepth":"16.500","Units":"in","Rept_Date":"2020-02-27 12"},"coordinates":[3130,6679]},{"type":"Point","properties":{"Station_ID":"CAN-NS-103","Station_Nam":"TRAFALGAR 4.9 WSW, CAN","Latitude":"45.26217","Longitude":"-62.72285","Snowdepth":"16.500","Units":"in","Rept_Date":"2020-02-27 12"},"coordinates":[8101,6077]},{"type":"Point","properties":{"Station_ID":"WLKW3","Station_Nam":"WHITE LAKE 1 SE","Latitude":"45.14520","Longitude":"-88.74160","Snowdepth":"16.000","Units":"in","Rept_Date":"2020-02-27 14"},"coordinates":[1994,6006]},{"type":"Point","properties":{"Station_ID":"WI-RS-1","Station_Nam":"LADYSMITH 2.8 WNW, WI","Latitude":"45.48180","Longitude":"-91.14680","Snowdepth":"16.000","Units":"in","Rept_Date":"2020-02-27 13"},"coordinates":[1430,6210]},{"type":"Point","properties":{"Station_ID":"WI-BY-1","Station_Nam":"BAYFIELD 8.8 N, WI","Latitude":"46.93855","Longitude":"-90.83490","Snowdepth":"16.000","Units":"in","Rept_Date":"2020-02-27 13"},"coordinates":[1503,7094]},{"type":"Point","properties":{"Station_ID":"WERW3","Station_Nam":"CHIPPEWA R BISHOP'S BRIDGE","Latitude":"45.84920","Longitude":"-91.07890","Snowdepth":"16.000","Units":"in","Rept_Date":"2020-02-27 13"},"coordinates":[1446,6433]},{"type":"Point","properties":{"Station_ID":"VT-OL-9","Station_Nam":"GREENSBORO 2.1 NNW, VT","Latitude":"44.60528","Longitude":"-72.30940","Snowdepth":"16.000","Units":"in","Rept_Date":"2020-02-27 12"},"coordinates":[5851,5679]},{"type":"Point","properties":{"Station_ID":"TMWN3","Station_Nam":"TAMWORTH 4","Latitude":"43.86390","Longitude":"-71.26610","Snowdepth":"16.000","Units":"in","Rept_Date":"2020-02-27 12"},"coordinates":[6096,5229]},{"type":"Point","properties":{"Station_ID":"STMM4","Station_Nam":"STAMBAUGH 2SSE","Latitude":"46.05550","Longitude":"-88.62780","Snowdepth":"16.000","Units":"in","Rept_Date":"2020-02-27 13"},"coordinates":[2021,6558]},{"type":"Point","properties":{"Station_ID":"SAUW3","Station_Nam":"WAUSAU WSAW TV","Latitude":"44.94630","Longitude":"-89.62220","Snowdepth":"16.000","Units":"in","Rept_Date":"2020-02-28 04"},"coordinates":[1788,5886]},{"type":"Point","properties":{"Station_ID":"NH-CR-26","Station_Nam":"CENTER SANDWICH 4.9 E, NH","Latitude":"43.80976","Longitude":"-71.34150","Snowdepth":"16.000","Units":"in","Rept_Date":"2020-02-27 12"},"coordinates":[6078,5196]},{"type":"Point","properties":{"Station_ID":"NCKN6","Station_Nam":"NORTH CREEK 5 SE","Latitude":"43.66110","Longitude":"-73.89690","Snowdepth":"16.000","Units":"in","Rept_Date":"2020-02-27 12"},"coordinates":[5478,5106]},{"type":"Point","properties":{"Station_ID":"MTQM4","Station_Nam":"MANISTIQUE WWTP","Latitude":"45.95120","Longitude":"-86.25130","Snowdepth":"16.000","Units":"in","Rept_Date":"2020-02-27 12"},"coordinates":[2579,6495]},{"type":"Point","properties":{"Station_ID":"MI-AT-6","Station_Nam":"MANCELONA 0.5 ESE, MI","Latitude":"44.89981","Longitude":"-85.05100","Snowdepth":"16.000","Units":"in","Rept_Date":"2020-02-27 13"},"coordinates":[2860,5857]},{"type":"Point","properties":{"Station_ID":"KINM1","Station_Nam":"KINGFIELD","Latitude":"44.95950","Longitude":"-70.17530","Snowdepth":"16.000","Units":"in","Rept_Date":"2020-02-27 12"},"coordinates":[6352,5894]},{"type":"Point","properties":{"Station_ID":"GMRM5","Station_Nam":"GRAND MARIAS WATER TREATMENT PLANT","Latitude":"47.75180","Longitude":"-90.32820","Snowdepth":"16.000","Units":"in","Rept_Date":"2020-02-27 14"},"coordinates":[1622,7588]},{"type":"Point","properties":{"Station_ID":"GLLM5","Station_Nam":"GULL LAKE DAM","Latitude":"46.41190","Longitude":"-94.35000","Snowdepth":"16.000","Units":"in","Rept_Date":"2020-02-27 14"},"coordinates":[678,6775]},{"type":"Point","properties":{"Station_ID":"ESDN3","Station_Nam":"EAST SANDWICH","Latitude":"43.80990","Longitude":"-71.34250","Snowdepth":"16.000","Units":"in","Rept_Date":"2020-02-27 11"},"coordinates":[6078,5196]},{"type":"Point","properties":{"Station_ID":"EJNM4","Station_Nam":"EAST JORDAN 2NW","Latitude":"45.18630","Longitude":"-85.14770","Snowdepth":"16.000","Units":"in","Rept_Date":"2020-02-27 13"},"coordinates":[2838,6031]},{"type":"Point","properties":{"Station_ID":"BRAM5","Station_Nam":"BRAINERD","Latitude":"46.34320","Longitude":"-94.20900","Snowdepth":"16.000","Units":"in","Rept_Date":"2020-02-27 13"},"coordinates":[711,6733]},{"type":"Point","properties":{"Station_ID":"BFHW3","Station_Nam":"BAYFIELD FISH HATCHERY","Latitude":"46.78670","Longitude":"-90.86420","Snowdepth":"16.000","Units":"in","Rept_Date":"2020-02-27 14"},"coordinates":[1496,7002]},{"type":"Point","properties":{"Station_ID":"CATQ6","Station_Nam":"CAT LAKE","Latitude":"51.72690","Longitude":"-91.82210","Snowdepth":"15.910","Units":"in","Rept_Date":"2020-02-28 06"},"coordinates":[1271,9999]},{"type":"Point","properties":{"Station_ID":"CAN-NS-166","Station_Nam":"PORT MORIEN 5.7 SSE, CAN","Latitude":"46.08367","Longitude":"-59.85858","Snowdepth":"15.700","Units":"in","Rept_Date":"2020-02-27 10"},"coordinates":[8773,6576]},{"type":"Point","properties":{"Station_ID":"VT-WS-30","Station_Nam":"WOODBURY 3.4 NNW, VT","Latitude":"44.48825","Longitude":"-72.43258","Snowdepth":"15.500","Units":"in","Rept_Date":"2020-02-27 12"},"coordinates":[5822,5608]},{"type":"Point","properties":{"Station_ID":"NH-CR-27","Station_Nam":"TAMWORTH 0.4 NNW, NH","Latitude":"43.86449","Longitude":"-71.26610","Snowdepth":"15.500","Units":"in","Rept_Date":"2020-02-27 12"},"coordinates":[6096,5229]},{"type":"Point","properties":{"Station_ID":"MN-PK-15","Station_Nam":"MENTOR 2.5 SSW, MN","Latitude":"47.66625","Longitude":"-96.17328","Snowdepth":"15.500","Units":"in","Rept_Date":"2020-02-27 13"},"coordinates":[250,7536]},{"type":"Point","properties":{"Station_ID":"MI-CX-7","Station_Nam":"EAST JORDAN 2.1 NNW, MI","Latitude":"45.18639","Longitude":"-85.14750","Snowdepth":"15.500","Units":"in","Rept_Date":"2020-02-27 13"},"coordinates":[2838,6031]},{"type":"Point","properties":{"Station_ID":"CAN-ON-46","Station_Nam":"WROXETER 0.3 WSW - MVCA, CAN","Latitude":"43.86365","Longitude":"-81.15225","Snowdepth":"15.400","Units":"in","Rept_Date":"2020-02-27 13"},"coordinates":[3775,5229]},{"type":"Point","properties":{"Station_ID":"QWG","Station_Nam":"QWG","Latitude":"48.48890","Longitude":"-73.45940","Snowdepth":"15.315","Units":"in","Rept_Date":"2020-02-27 12"},"coordinates":[5581,8035]},{"type":"Point","properties":{"Station_ID":"WUNW3","Station_Nam":"WAUSAU-NORTHEAST","Latitude":"44.97310","Longitude":"-89.61690","Snowdepth":"15.000","Units":"in","Rept_Date":"2020-02-27 12"},"coordinates":[1789,5902]},{"type":"Point","properties":{"Station_ID":"WI-PR-8","Station_Nam":"PHILLIPS 0.4 SSW, WI","Latitude":"45.69086","Longitude":"-90.40200","Snowdepth":"15.000","Units":"in","Rept_Date":"2020-02-27 13"},"coordinates":[1605,6337]},{"type":"Point","properties":{"Station_ID":"WI-PR-6","Station_Nam":"PHILLIPS 1.3 S, WI","Latitude":"45.67677","Longitude":"-90.39543","Snowdepth":"15.000","Units":"in","Rept_Date":"2020-02-27 12"},"coordinates":[1606,6329]},{"type":"Point","properties":{"Station_ID":"VT-BN-3","Station_Nam":"LANDGROVE 1.1 NNE, VT","Latitude":"43.29092","Longitude":"-72.83260","Snowdepth":"15.000","Units":"in","Rept_Date":"2020-02-27 11"},"coordinates":[5728,4881]},{"type":"Point","properties":{"Station_ID":"SGVN6","Station_Nam":"SPRINGVILLE","Latitude":"42.54970","Longitude":"-78.57670","Snowdepth":"15.000","Units":"in","Rept_Date":"2020-02-28 01"},"coordinates":[4380,4432]},{"type":"Point","properties":{"Station_ID":"PTBN3","Station_Nam":"PITTSBURG RESERVOIR","Latitude":"45.04690","Longitude":"-71.38300","Snowdepth":"15.000","Units":"in","Rept_Date":"2020-02-27 12"},"coordinates":[6068,5947]},{"type":"Point","properties":{"Station_ID":"PRNW3","Station_Nam":"PRENTICE,WI","Latitude":"45.54780","Longitude":"-90.30000","Snowdepth":"15.000","Units":"in","Rept_Date":"2020-02-27 14"},"coordinates":[1628,6250]},{"type":"Point","properties":{"Station_ID":"NY-ES-11","Station_Nam":"VERMONTVILLE 2.8 S, NY","Latitude":"44.41205","Longitude":"-74.06760","Snowdepth":"15.000","Units":"in","Rept_Date":"2020-02-27 12"},"coordinates":[5438,5561]},{"type":"Point","properties":{"Station_ID":"NUMN3","Station_Nam":"NORTHUMBERLAND","Latitude":"44.52830","Longitude":"-71.50440","Snowdepth":"15.000","Units":"in","Rept_Date":"2020-02-27 13"},"coordinates":[6040,5632]},{"type":"Point","properties":{"Station_ID":"NH-CS-7","Station_Nam":"LANCASTER 0.5 N, NH","Latitude":"44.49611","Longitude":"-71.57640","Snowdepth":"15.000","Units":"in","Rept_Date":"2020-02-27 12"},"coordinates":[6023,5612]},{"type":"Point","properties":{"Station_ID":"MRAM4","Station_Nam":"MORAN","Latitude":"45.99030","Longitude":"-84.83610","Snowdepth":"15.000","Units":"in","Rept_Date":"2020-02-27 13"},"coordinates":[2911,6519]},{"type":"Point","properties":{"Station_ID":"ME-FR-4","Station_Nam":"NEW SHARON 2.0 NW, ME","Latitude":"44.66582","Longitude":"-70.02720","Snowdepth":"15.000","Units":"in","Rept_Date":"2020-02-27 12"},"coordinates":[6386,5715]},{"type":"Point","properties":{"Station_ID":"LNKM1","Station_Nam":"LINCOLN SANITARY DISTRICT/WTP","Latitude":"45.37520","Longitude":"-68.50820","Snowdepth":"15.000","Units":"in","Rept_Date":"2020-02-27 12"},"coordinates":[6743,6146]},{"type":"Point","properties":{"Station_ID":"LILM1","Station_Nam":"LILLE","Latitude":"47.27770","Longitude":"-68.10520","Snowdepth":"15.000","Units":"in","Rept_Date":"2020-02-27 12"},"coordinates":[6837,7300]},{"type":"Point","properties":{"Station_ID":"JKMM1","Station_Nam":"JACKMAN","Latitude":"45.62600","Longitude":"-70.24600","Snowdepth":"15.000","Units":"in","Rept_Date":"2020-02-27 12"},"coordinates":[6335,6298]},{"type":"Point","properties":{"Station_ID":"GRFN8","Station_Nam":"UNIVERSITY","Latitude":"47.93330","Longitude":"-97.08330","Snowdepth":"15.000","Units":"in","Rept_Date":"2020-02-28 06"},"coordinates":[36,7698]},{"type":"Point","properties":{"Station_ID":"FEDM5","Station_Nam":"LEECH LAKE DAM","Latitude":"47.24670","Longitude":"-94.22280","Snowdepth":"15.000","Units":"in","Rept_Date":"2020-02-27 14"},"coordinates":[708,7281]},{"type":"Point","properties":{"Station_ID":"EGRW3","Station_Nam":"EAGLE RIVER-SOUTH","Latitude":"45.91360","Longitude":"-89.24360","Snowdepth":"15.000","Units":"in","Rept_Date":"2020-02-27 13"},"coordinates":[1876,6472]},{"type":"Point","properties":{"Station_ID":"CNNW3","Station_Nam":"CRANDON","Latitude":"45.55110","Longitude":"-88.89830","Snowdepth":"15.000","Units":"in","Rept_Date":"2020-02-27 12"},"coordinates":[1957,6252]},{"type":"Point","properties":{"Station_ID":"CGPM4","Station_Nam":"DOLLAR BAY","Latitude":"47.11670","Longitude":"-88.51370","Snowdepth":"15.000","Units":"in","Rept_Date":"2020-02-27 13"},"coordinates":[2048,7202]},{"type":"Point","properties":{"Station_ID":"BAUM5","Station_Nam":"BAUDETTE,MN","Latitude":"48.71670","Longitude":"-94.61670","Snowdepth":"15.000","Units":"in","Rept_Date":"2020-02-27 21"},"coordinates":[615,8173]},{"type":"Point","properties":{"Station_ID":"NY-OD-2","Station_Nam":"POINT ROCK 0.6 SE, NY","Latitude":"43.37335","Longitude":"-75.53840","Snowdepth":"14.500","Units":"in","Rept_Date":"2020-02-27 13"},"coordinates":[5093,4931]},{"type":"Point","properties":{"Station_ID":"NY-FK-9","Station_Nam":"GABRIELS 1.3 SE, NY","Latitude":"44.41934","Longitude":"-74.16194","Snowdepth":"14.500","Units":"in","Rept_Date":"2020-02-27 12"},"coordinates":[5416,5566]},{"type":"Point","properties":{"Station_ID":"MN-BK-10","Station_Nam":"DETROIT LAKES 5.7 N, MN","Latitude":"46.88666","Longitude":"-95.84444","Snowdepth":"14.500","Units":"in","Rept_Date":"2020-02-27 10"},"coordinates":[327,7063]},{"type":"Point","properties":{"Station_ID":"MI-CP-14","Station_Nam":"SAULT STE. MARIE 2.2 E, MI","Latitude":"46.48933","Longitude":"-84.31971","Snowdepth":"14.500","Units":"in","Rept_Date":"2020-02-27 14"},"coordinates":[3032,6822]},{"type":"Point","properties":{"Station_ID":"CAN-NB-64","Station_Nam":"KESWICK RIDGE 4.0 SE, CAN","Latitude":"45.97014","Longitude":"-66.85538","Snowdepth":"14.500","Units":"in","Rept_Date":"2020-02-27 12"},"coordinates":[7131,6507]},{"type":"Point","properties":{"Station_ID":"VT-OL-2","Station_Nam":"BARTON 3.0 ENE, VT","Latitude":"44.75863","Longitude":"-72.11680","Snowdepth":"14.000","Units":"in","Rept_Date":"2020-02-27 12"},"coordinates":[5896,5772]},{"type":"Point","properties":{"Station_ID":"VT-ES-3","Station_Nam":"LUNENBURG 2.3 NNW, VT","Latitude":"44.49324","Longitude":"-71.70446","Snowdepth":"14.000","Units":"in","Rept_Date":"2020-02-27 09"},"coordinates":[5993,5611]},{"type":"Point","properties":{"Station_ID":"SD-CD-30","Station_Nam":"WATERTOWN 2.3 E, SD","Latitude":"44.91604","Longitude":"-97.11925","Snowdepth":"14.000","Units":"in","Rept_Date":"2020-02-27 13"},"coordinates":[28,5867]},{"type":"Point","properties":{"Station_ID":"RHRW3","Station_Nam":"RHINELANDER WJFW TV-12","Latitude":"45.62220","Longitude":"-89.41000","Snowdepth":"14.000","Units":"in","Rept_Date":"2020-02-28 04"},"coordinates":[1837,6296]},{"type":"Point","properties":{"Station_ID":"PKGM5","Station_Nam":"POKEGANA LK DAM","Latitude":"47.25080","Longitude":"-93.58610","Snowdepth":"14.000","Units":"in","Rept_Date":"2020-02-27 14"},"coordinates":[857,7284]},{"type":"Point","properties":{"Station_ID":"NH-GR-49","Station_Nam":"PLYMOUTH 3.7 N, NH","Latitude":"43.79048","Longitude":"-71.68413","Snowdepth":"14.000","Units":"in","Rept_Date":"2020-02-27 18"},"coordinates":[5997,5184]},{"type":"Point","properties":{"Station_ID":"MRQM4","Station_Nam":"MARQUETTE WFP","Latitude":"46.54580","Longitude":"-87.37950","Snowdepth":"14.000","Units":"in","Rept_Date":"2020-02-27 13"},"coordinates":[2314,6856]},{"type":"Point","properties":{"Station_ID":"MN-BM-15","Station_Nam":"BEMIDJI 7.8 ENE, MN","Latitude":"47.52043","Longitude":"-94.72121","Snowdepth":"14.000","Units":"in","Rept_Date":"2020-02-27 13"},"coordinates":[591,7447]},{"type":"Point","properties":{"Station_ID":"MLLW3","Station_Nam":"MERRILL 8W","Latitude":"45.17810","Longitude":"-89.84810","Snowdepth":"14.000","Units":"in","Rept_Date":"2020-02-27 12"},"coordinates":[1735,6026]},{"type":"Point","properties":{"Station_ID":"MI-OT-4","Station_Nam":"GAYLORD 1.7 WNW, MI","Latitude":"45.03280","Longitude":"-84.71090","Snowdepth":"14.000","Units":"in","Rept_Date":"2020-02-27 13"},"coordinates":[2940,5938]},{"type":"Point","properties":{"Station_ID":"ME-FR-22","Station_Nam":"FARMINGTON 4.8 NNW, ME","Latitude":"44.73396","Longitude":"-70.18007","Snowdepth":"14.000","Units":"in","Rept_Date":"2020-02-27 14"},"coordinates":[6350,5757]},{"type":"Point","properties":{"Station_ID":"LNGM5","Station_Nam":"LONG PRAIRIE","Latitude":"45.96460","Longitude":"-94.88920","Snowdepth":"14.000","Units":"in","Rept_Date":"2020-02-27 12"},"coordinates":[551,6503]},{"type":"Point","properties":{"Station_ID":"GLRM5","Station_Nam":"GLACIAL RIDGE","Latitude":"47.71670","Longitude":"-96.26670","Snowdepth":"14.000","Units":"in","Rept_Date":"2020-02-27 18"},"coordinates":[228,7566]},{"type":"Point","properties":{"Station_ID":"GAYM4","Station_Nam":"GAYLORD","Latitude":"45.03320","Longitude":"-84.71130","Snowdepth":"14.000","Units":"in","Rept_Date":"2020-02-27 13"},"coordinates":[2940,5938]},{"type":"Point","properties":{"Station_ID":"FLDM5","Station_Nam":"FLOODWOOD,MN","Latitude":"47.00000","Longitude":"-92.91670","Snowdepth":"14.000","Units":"in","Rept_Date":"2020-02-27 14"},"coordinates":[1014,7131]},{"type":"Point","properties":{"Station_ID":"ESGM1","Station_Nam":"EAST SANGERVILLE","Latitude":"45.13690","Longitude":"-69.28060","Snowdepth":"14.000","Units":"in","Rept_Date":"2020-02-27 12"},"coordinates":[6562,6001]},{"type":"Point","properties":{"Station_ID":"EPTW3","Station_Nam":"EAU PLEINE TENDER","Latitude":"44.77220","Longitude":"-89.76720","Snowdepth":"14.000","Units":"in","Rept_Date":"2020-02-27 13"},"coordinates":[1753,5780]},{"type":"Point","properties":{"Station_ID":"CHRM4","Station_Nam":"CHARLEVOIX","Latitude":"45.31720","Longitude":"-85.26720","Snowdepth":"14.000","Units":"in","Rept_Date":"2020-02-27 13"},"coordinates":[2810,6111]},{"type":"Point","properties":{"Station_ID":"CAN-ON-120","Station_Nam":"DUNROBIN 5.8 NE MIVCA, CA","Latitude":"45.46243","Longitude":"-75.97120","Snowdepth":"14.000","Units":"in","Rept_Date":"2020-02-27 12"},"coordinates":[4991,6199]},{"type":"Point","properties":{"Station_ID":"AROM4","Station_Nam":"ARNOLD,MI","Latitude":"46.06670","Longitude":"-87.48330","Snowdepth":"14.000","Units":"in","Rept_Date":"2020-02-27 13"},"coordinates":[2290,6565]},{"type":"Point","properties":{"Station_ID":"FTHQ6","Station_Nam":"FORT HOPE","Latitude":"51.55820","Longitude":"-87.90510","Snowdepth":"13.860","Units":"in","Rept_Date":"2020-02-28 06"},"coordinates":[2191,9897]},{"type":"Point","properties":{"Station_ID":"WI-SR-5","Station_Nam":"HAYWARD 9.7 NE, WI","Latitude":"46.12030","Longitude":"-91.35370","Snowdepth":"13.500","Units":"in","Rept_Date":"2020-02-27 14"},"coordinates":[1381,6598]},{"type":"Point","properties":{"Station_ID":"WI-LN-2","Station_Nam":"MERRILL 7.0 W, WI","Latitude":"45.17746","Longitude":"-89.84820","Snowdepth":"13.500","Units":"in","Rept_Date":"2020-02-27 12"},"coordinates":[1734,6026]},{"type":"Point","properties":{"Station_ID":"VT-WS-10","Station_Nam":"NORTHFIELD 1.5 N, VT","Latitude":"44.16986","Longitude":"-72.65200","Snowdepth":"13.500","Units":"in","Rept_Date":"2020-02-27 12"},"coordinates":[5770,5415]},{"type":"Point","properties":{"Station_ID":"NY-ER-77","Station_Nam":"COLDEN 2.4 ENE, NY","Latitude":"42.65088","Longitude":"-78.61060","Snowdepth":"13.500","Units":"in","Rept_Date":"2020-02-27 13"},"coordinates":[4372,4493]},{"type":"Point","properties":{"Station_ID":"NY-ER-166","Station_Nam":"BOSTON 2.5 NE, NY","Latitude":"42.65480","Longitude":"-78.70300","Snowdepth":"13.500","Units":"in","Rept_Date":"2020-02-27 12"},"coordinates":[4350,4495]},{"type":"Point","properties":{"Station_ID":"MN-WC-8","Station_Nam":"WASECA 2.0 N, MN","Latitude":"44.11194","Longitude":"-93.49972","Snowdepth":"13.500","Units":"in","Rept_Date":"2020-02-27 13"},"coordinates":[877,5379]},{"type":"Point","properties":{"Station_ID":"CAN-ON-42","Station_Nam":"VANKLEEK HILL 3.4 S, CA","Latitude":"45.48987","Longitude":"-74.64570","Snowdepth":"13.500","Units":"in","Rept_Date":"2020-02-27 12"},"coordinates":[5302,6215]},{"type":"Point","properties":{"Station_ID":"CAN-ON-208","Station_Nam":"PAKENHAM 7.8 NNW, CAN","Latitude":"45.39166","Longitude":"-76.34111","Snowdepth":"13.500","Units":"in","Rept_Date":"2020-02-27 12"},"coordinates":[4904,6156]},{"type":"Point","properties":{"Station_ID":"CAN-ON-491","Station_Nam":"MILVERTON 1.1 ESE- CANWARN, CAN","Latitude":"43.56074","Longitude":"-80.90887","Snowdepth":"13.300","Units":"in","Rept_Date":"2020-02-27 11"},"coordinates":[3832,5045]},{"type":"Point","properties":{"Station_ID":"WI-PT-8","Station_Nam":"RUDOLPH 2.1 NNE, WI","Latitude":"44.52553","Longitude":"-89.78677","Snowdepth":"13.000","Units":"in","Rept_Date":"2020-02-27 11"},"coordinates":[1749,5630]},{"type":"Point","properties":{"Station_ID":"WI-DR-5","Station_Nam":"ELLISON BAY 2.2 E, WI","Latitude":"45.25750","Longitude":"-87.02670","Snowdepth":"13.000","Units":"in","Rept_Date":"2020-02-27 13"},"coordinates":[2397,6074]},{"type":"Point","properties":{"Station_ID":"VT-OG-11","Station_Nam":"VERSHIRE 1.5 ESE, VT","Latitude":"43.96138","Longitude":"-72.29777","Snowdepth":"13.000","Units":"in","Rept_Date":"2020-02-27 13"},"coordinates":[5853,5288]},{"type":"Point","properties":{"Station_ID":"STRW3","Station_Nam":"STRATFORD 1NW","Latitude":"44.81750","Longitude":"-90.08990","Snowdepth":"13.000","Units":"in","Rept_Date":"2020-02-27 13"},"coordinates":[1678,5807]},{"type":"Point","properties":{"Station_ID":"SBNM5","Station_Nam":"SABIN","Latitude":"46.77690","Longitude":"-96.65610","Snowdepth":"13.000","Units":"in","Rept_Date":"2020-02-27 13"},"coordinates":[137,6996]},{"type":"Point","properties":{"Station_ID":"RRVM4","Station_Nam":"RAPID RIVER 9S","Latitude":"45.78750","Longitude":"-86.93920","Snowdepth":"13.000","Units":"in","Rept_Date":"2020-02-27 13"},"coordinates":[2417,6396]},{"type":"Point","properties":{"Station_ID":"PRGN6","Station_Nam":"PERRYSBURG","Latitude":"42.46470","Longitude":"-79.00310","Snowdepth":"13.000","Units":"in","Rept_Date":"2020-02-27 12"},"coordinates":[4280,4380]},{"type":"Point","properties":{"Station_ID":"PERV1","Station_Nam":"PERU","Latitude":"43.26670","Longitude":"-72.90000","Snowdepth":"13.000","Units":"in","Rept_Date":"2020-02-27 12"},"coordinates":[5712,4867]},{"type":"Point","properties":{"Station_ID":"NUMM5","Station_Nam":"NEW ULM 3SE","Latitude":"44.29450","Longitude":"-94.40840","Snowdepth":"13.000","Units":"in","Rept_Date":"2020-02-27 12"},"coordinates":[664,5490]},{"type":"Point","properties":{"Station_ID":"NH-MR-6","Station_Nam":"DANBURY 2.2 ESE, NH","Latitude":"43.52000","Longitude":"-71.81900","Snowdepth":"13.000","Units":"in","Rept_Date":"2020-02-27 13"},"coordinates":[5966,5020]},{"type":"Point","properties":{"Station_ID":"ND-CS-25","Station_Nam":"FARGO 2.1 N, ND","Latitude":"46.90816","Longitude":"-96.77937","Snowdepth":"13.000","Units":"in","Rept_Date":"2020-02-27 14"},"coordinates":[108,7076]},{"type":"Point","properties":{"Station_ID":"MNEY8CTB","Station_Nam":"MIDLAND JUNCTION 2.2 ENE","Latitude":"44.33041","Longitude":"-91.95891","Snowdepth":"13.000","Units":"in","Rept_Date":"2020-02-27 14"},"coordinates":[1239,5512]},{"type":"Point","properties":{"Station_ID":"LBRM5","Station_Nam":"LAKE BRONSON DAM","Latitude":"48.72410","Longitude":"-96.62180","Snowdepth":"13.000","Units":"in","Rept_Date":"2020-02-27 14"},"coordinates":[145,8177]},{"type":"Point","properties":{"Station_ID":"KSEM4","Station_Nam":"KALKASKA 11SE","Latitude":"44.58970","Longitude":"-85.04860","Snowdepth":"13.000","Units":"in","Rept_Date":"2020-02-27 13"},"coordinates":[2861,5669]},{"type":"Point","properties":{"Station_ID":"KLKM4","Station_Nam":"KALKASKA","Latitude":"44.72800","Longitude":"-85.17270","Snowdepth":"13.000","Units":"in","Rept_Date":"2020-02-27 13"},"coordinates":[2832,5753]},{"type":"Point","properties":{"Station_ID":"JEFV1","Station_Nam":"JEFFERSONVILLE","Latitude":"44.58430","Longitude":"-72.78700","Snowdepth":"13.000","Units":"in","Rept_Date":"2020-02-27 12"},"coordinates":[5739,5666]},{"type":"Point","properties":{"Station_ID":"HYRW3","Station_Nam":"RANGER STATION","Latitude":"46.00750","Longitude":"-91.46670","Snowdepth":"13.000","Units":"in","Rept_Date":"2020-02-27 19"},"coordinates":[1355,6529]},{"type":"Point","properties":{"Station_ID":"HGHN6","Station_Nam":"HIGHMARKET","Latitude":"43.57520","Longitude":"-75.52070","Snowdepth":"13.000","Units":"in","Rept_Date":"2020-02-27 10"},"coordinates":[5097,5054]},{"type":"Point","properties":{"Station_ID":"GRBM5","Station_Nam":"GRAND RAPIDS 12N","Latitude":"47.39800","Longitude":"-93.51330","Snowdepth":"13.000","Units":"in","Rept_Date":"2020-02-27 12"},"coordinates":[874,7373]},{"type":"Point","properties":{"Station_ID":"CAN-ON-757","Station_Nam":"SAULT STE. MARIE 2.8 ESE - GLFC, CAN","Latitude":"46.50300","Longitude":"-84.30300","Snowdepth":"13.000","Units":"in","Rept_Date":"2020-02-27 13"},"coordinates":[3036,6830]},{"type":"Point","properties":{"Station_ID":"CAN-ON-118","Station_Nam":"DURHAM 1.4 S, CAN","Latitude":"44.16525","Longitude":"-80.82064","Snowdepth":"13.000","Units":"in","Rept_Date":"2020-02-27 12"},"coordinates":[3853,5412]},{"type":"Point","properties":{"Station_ID":"ALXM5","Station_Nam":"ALEXANDRIA","Latitude":"45.87820","Longitude":"-95.38270","Snowdepth":"13.000","Units":"in","Rept_Date":"2020-02-27 12"},"coordinates":[436,6451]},{"type":"Point","properties":{"Station_ID":"WI-BT-14","Station_Nam":"OAKLAND 9.0 ENE, WI","Latitude":"45.95184","Longitude":"-92.21653","Snowdepth":"12.500","Units":"in","Rept_Date":"2020-02-27 13"},"coordinates":[1179,6496]},{"type":"Point","properties":{"Station_ID":"NY-HR-12","Station_Nam":"DOLGEVILLE 1.9 NW, NY","Latitude":"43.12320","Longitude":"-74.79740","Snowdepth":"12.500","Units":"in","Rept_Date":"2020-02-27 12"},"coordinates":[5267,4780]},{"type":"Point","properties":{"Station_ID":"ME-OX-2","Station_Nam":"HARTFORD 1.4 N, ME","Latitude":"44.39318","Longitude":"-70.34760","Snowdepth":"12.500","Units":"in","Rept_Date":"2020-02-27 13"},"coordinates":[6311,5550]},{"type":"Point","properties":{"Station_ID":"WRSN6","Station_Nam":"WARSAW 6SW","Latitude":"42.68550","Longitude":"-78.22020","Snowdepth":"12.000","Units":"in","Rept_Date":"2020-02-27 12"},"coordinates":[4463,4514]},{"type":"Point","properties":{"Station_ID":"WLKM5","Station_Nam":"AH-GWAH-CHING","Latitude":"47.15000","Longitude":"-94.65000","Snowdepth":"12.000","Units":"in","Rept_Date":"2020-02-27 11"},"coordinates":[608,7222]},{"type":"Point","properties":{"Station_ID":"WI-BR-2","Station_Nam":"CHETEK 2.0 SE, WI","Latitude":"45.29427","Longitude":"-91.62470","Snowdepth":"12.000","Units":"in","Rept_Date":"2020-02-27 13"},"coordinates":[1318,6097]},{"type":"Point","properties":{"Station_ID":"WASW3","Station_Nam":"WASHINGTON IS","Latitude":"45.35800","Longitude":"-86.89110","Snowdepth":"12.000","Units":"in","Rept_Date":"2020-02-27 12"},"coordinates":[2428,6135]},{"type":"Point","properties":{"Station_ID":"VT-WS-33","Station_Nam":"WAITSFIELD 3.5 WNW, VT","Latitude":"44.20052","Longitude":"-72.89421","Snowdepth":"12.000","Units":"in","Rept_Date":"2020-02-27 13"},"coordinates":[5713,5433]},{"type":"Point","properties":{"Station_ID":"TOPN6","Station_Nam":"TUPPER LAKE SUNMOUNT","Latitude":"44.23070","Longitude":"-74.43820","Snowdepth":"12.000","Units":"in","Rept_Date":"2020-02-27 12"},"coordinates":[5351,5451]},{"type":"Point","properties":{"Station_ID":"PVRW3","Station_Nam":"PLOVER-2-E WATER TREATMENT PLANT","Latitude":"44.45920","Longitude":"-89.49530","Snowdepth":"12.000","Units":"in","Rept_Date":"2020-02-27 13"},"coordinates":[1817,5590]},{"type":"Point","properties":{"Station_ID":"OTTM5","Station_Nam":"OTTERTAIL,MN","Latitude":"46.41670","Longitude":"-95.56670","Snowdepth":"12.000","Units":"in","Rept_Date":"2020-02-27 13"},"coordinates":[392,6778]},{"type":"Point","properties":{"Station_ID":"OCON6","Station_Nam":"OSCEOLA","Latitude":"43.49910","Longitude":"-75.71210","Snowdepth":"12.000","Units":"in","Rept_Date":"2020-02-27 12"},"coordinates":[5052,5008]},{"type":"Point","properties":{"Station_ID":"ND-CS-1","Station_Nam":"WEST FARGO 3.8 SSE, ND","Latitude":"46.82750","Longitude":"-96.85280","Snowdepth":"12.000","Units":"in","Rept_Date":"2020-02-27 13"},"coordinates":[91,7027]},{"type":"Point","properties":{"Station_ID":"MI-GT-21","Station_Nam":"KINGSLEY 2.7 ENE, MI","Latitude":"44.59871","Longitude":"-85.48426","Snowdepth":"12.000","Units":"in","Rept_Date":"2020-02-27 13"},"coordinates":[2759,5675]},{"type":"Point","properties":{"Station_ID":"MI-BZ-1","Station_Nam":"BENZONIA 5.3 S, MI","Latitude":"44.53976","Longitude":"-86.10650","Snowdepth":"12.000","Units":"in","Rept_Date":"2020-02-27 14"},"coordinates":[2613,5639]},{"type":"Point","properties":{"Station_ID":"ME-YK-3","Station_Nam":"HOLLIS CENTER 5.4 NW, ME","Latitude":"43.64750","Longitude":"-70.67510","Snowdepth":"12.000","Units":"in","Rept_Date":"2020-02-27 12"},"coordinates":[6234,5098]},{"type":"Point","properties":{"Station_ID":"ME-CM-86","Station_Nam":"POWNAL 4.1 S, ME","Latitude":"43.85370","Longitude":"-70.17210","Snowdepth":"12.000","Units":"in","Rept_Date":"2020-02-27 12"},"coordinates":[6352,5223]},{"type":"Point","properties":{"Station_ID":"KGFK","Station_Nam":"GRAND FORKS INTERNATIONAL","Latitude":"47.95000","Longitude":"-97.18333","Snowdepth":"12.000","Units":"in","Rept_Date":"2020-02-28 06"},"coordinates":[13,7708]},{"type":"Point","properties":{"Station_ID":"ILEW3","Station_Nam":"STILES 1S","Latitude":"44.84190","Longitude":"-88.05420","Snowdepth":"12.000","Units":"in","Rept_Date":"2020-02-27 13"},"coordinates":[2156,5822]},{"type":"Point","properties":{"Station_ID":"HRTM1","Station_Nam":"HARTFORD","Latitude":"44.37440","Longitude":"-70.31620","Snowdepth":"12.000","Units":"in","Rept_Date":"2020-02-27 12"},"coordinates":[6318,5539]},{"type":"Point","properties":{"Station_ID":"HOLM1","Station_Nam":"HOLLIS","Latitude":"43.64750","Longitude":"-70.67490","Snowdepth":"12.000","Units":"in","Rept_Date":"2020-02-27 11"},"coordinates":[6234,5098]},{"type":"Point","properties":{"Station_ID":"GFK","Station_Nam":"GRAND FORKS INTERNATIONAL AIRPORT","Latitude":"47.94920","Longitude":"-97.17610","Snowdepth":"12.000","Units":"in","Rept_Date":"2020-02-28 00"},"coordinates":[15,7707]},{"type":"Point","properties":{"Station_ID":"CVZW3","Station_Nam":"WISCONSIN PUBLIC SERVICE","Latitude":"45.23530","Longitude":"-88.01360","Snowdepth":"12.000","Units":"in","Rept_Date":"2020-02-27 12"},"coordinates":[2165,6061]},{"type":"Point","properties":{"Station_ID":"CLGM5","Station_Nam":"COLLEGEVILLE ST JOHN","Latitude":"45.57940","Longitude":"-94.39200","Snowdepth":"12.000","Units":"in","Rept_Date":"2020-02-28 00"},"coordinates":[668,6270]},{"type":"Point","properties":{"Station_ID":"CAN-ON-5","Station_Nam":"OWEN SOUND 1.5 NW - GSCA, CAN","Latitude":"44.57837","Longitude":"-80.95461","Snowdepth":"12.000","Units":"in","Rept_Date":"2020-02-27 13"},"coordinates":[3822,5662]},{"type":"Point","properties":{"Station_ID":"BRLN3","Station_Nam":"BERLIN","Latitude":"44.45350","Longitude":"-71.18540","Snowdepth":"12.000","Units":"in","Rept_Date":"2020-02-27 12"},"coordinates":[6115,5587]},{"type":"Point","properties":{"Station_ID":"BETM1","Station_Nam":"BETHEL 6 SSE","Latitude":"44.32000","Longitude":"-70.75680","Snowdepth":"12.000","Units":"in","Rept_Date":"2020-02-27 12"},"coordinates":[6215,5506]},{"type":"Point","properties":{"Station_ID":"BALW3","Station_Nam":"BALDWIN","Latitude":"44.96330","Longitude":"-92.39050","Snowdepth":"12.000","Units":"in","Rept_Date":"2020-02-27 13"},"coordinates":[1138,5896]},{"type":"Point","properties":{"Station_ID":"ASTM5","Station_Nam":"AUSTIN WASTE WATER TREATMENT FACILITY","Latitude":"43.65420","Longitude":"-92.97390","Snowdepth":"12.000","Units":"in","Rept_Date":"2020-02-27 13"},"coordinates":[1001,5102]},{"type":"Point","properties":{"Station_ID":"ARTM5","Station_Nam":"ARTICHOKE LAKE 1 E","Latitude":"45.38560","Longitude":"-96.12570","Snowdepth":"12.000","Units":"in","Rept_Date":"2020-02-28 00"},"coordinates":[261,6152]},{"type":"Point","properties":{"Station_ID":"ABGW3","Station_Nam":"AMBERG 9 E","Latitude":"45.48250","Longitude":"-87.81190","Snowdepth":"12.000","Units":"in","Rept_Date":"2020-02-27 12"},"coordinates":[2212,6211]},{"type":"Point","properties":{"Station_ID":"WI-WN-9","Station_Nam":"NEENAH 1.1 ENE, WI","Latitude":"44.17370","Longitude":"-88.45130","Snowdepth":"11.500","Units":"in","Rept_Date":"2020-02-27 13"},"coordinates":[2062,5417]},{"type":"Point","properties":{"Station_ID":"VT-WS-19","Station_Nam":"WATERBURY 3.0 NW, VT","Latitude":"44.36060","Longitude":"-72.80770","Snowdepth":"11.500","Units":"in","Rept_Date":"2020-02-27 11"},"coordinates":[5734,5530]},{"type":"Point","properties":{"Station_ID":"VT-WR-2","Station_Nam":"POMFRET 2.6 N, VT","Latitude":"43.74230","Longitude":"-72.52550","Snowdepth":"11.500","Units":"in","Rept_Date":"2020-02-27 12"},"coordinates":[5800,5155]},{"type":"Point","properties":{"Station_ID":"VT-LM-1","Station_Nam":"STOWE 0.2 SW, VT","Latitude":"44.46399","Longitude":"-72.69070","Snowdepth":"11.500","Units":"in","Rept_Date":"2020-02-27 12"},"coordinates":[5761,5593]},{"type":"Point","properties":{"Station_ID":"NH-CR-46","Station_Nam":"NORTH CONWAY 1.8 SSE, NH","Latitude":"44.02955","Longitude":"-71.11664","Snowdepth":"11.500","Units":"in","Rept_Date":"2020-02-27 13"},"coordinates":[6131,5329]},{"type":"Point","properties":{"Station_ID":"CAN-PE-3","Station_Nam":"WELLINGTON 1.6 NE, CA","Latitude":"46.46672","Longitude":"-63.98920","Snowdepth":"11.500","Units":"in","Rept_Date":"2020-02-27 11"},"coordinates":[7803,6808]},{"type":"Point","properties":{"Station_ID":"WSFW3","Station_Nam":"TOWN OF WESTFORD","Latitude":"43.47190","Longitude":"-88.88250","Snowdepth":"11.000","Units":"in","Rept_Date":"2020-02-27 13"},"coordinates":[1961,4991]},{"type":"Point","properties":{"Station_ID":"WRUM5","Station_Nam":"WARROAD 4W","Latitude":"48.89600","Longitude":"-95.40700","Snowdepth":"11.000","Units":"in","Rept_Date":"2020-02-28 04"},"coordinates":[430,8282]},{"type":"Point","properties":{"Station_ID":"WORV1","Station_Nam":"WORCESTER 2 W","Latitude":"44.37470","Longitude":"-72.58220","Snowdepth":"11.000","Units":"in","Rept_Date":"2020-02-27 12"},"coordinates":[5787,5539]},{"type":"Point","properties":{"Station_ID":"WNDM1","Station_Nam":"WINDHAM 2NW","Latitude":"43.85670","Longitude":"-70.46630","Snowdepth":"11.000","Units":"in","Rept_Date":"2020-02-27 12"},"coordinates":[6283,5225]},{"type":"Point","properties":{"Station_ID":"WLDM5","Station_Nam":"WILD RIVER STATE PARK","Latitude":"45.52310","Longitude":"-92.74890","Snowdepth":"11.000","Units":"in","Rept_Date":"2020-02-27 14"},"coordinates":[1054,6235]},{"type":"Point","properties":{"Station_ID":"WIRW3","Station_Nam":"WIS RAPIDS GRAND AV B","Latitude":"44.39940","Longitude":"-89.83050","Snowdepth":"11.000","Units":"in","Rept_Date":"2020-02-27 13"},"coordinates":[1739,5554]},{"type":"Point","properties":{"Station_ID":"WI-EC-23","Station_Nam":"EAU CLAIRE 3.7 S, WI","Latitude":"44.76858","Longitude":"-91.49898","Snowdepth":"11.000","Units":"in","Rept_Date":"2020-02-27 14"},"coordinates":[1347,5778]},{"type":"Point","properties":{"Station_ID":"WI-CH-7","Station_Nam":"CHIPPEWA FALLS 1.2 E, WI","Latitude":"44.92920","Longitude":"-91.36730","Snowdepth":"11.000","Units":"in","Rept_Date":"2020-02-27 13"},"coordinates":[1378,5875]},{"type":"Point","properties":{"Station_ID":"VT-CH-4","Station_Nam":"UNDERHILL 4.4 NNE, VT","Latitude":"44.58774","Longitude":"-72.92250","Snowdepth":"11.000","Units":"in","Rept_Date":"2020-02-27 12"},"coordinates":[5707,5668]},{"type":"Point","properties":{"Station_ID":"SANI4","Station_Nam":"ST ANSGAR","Latitude":"43.38170","Longitude":"-92.92320","Snowdepth":"11.000","Units":"in","Rept_Date":"2020-02-27 12"},"coordinates":[1013,4936]},{"type":"Point","properties":{"Station_ID":"RRLW3","Station_Nam":"MERRILL,WI","Latitude":"45.17860","Longitude":"-89.66170","Snowdepth":"11.000","Units":"in","Rept_Date":"2020-02-27 14"},"coordinates":[1778,6026]},{"type":"Point","properties":{"Station_ID":"PULW3","Station_Nam":"PULASKI WWTP","Latitude":"44.67830","Longitude":"-88.22750","Snowdepth":"11.000","Units":"in","Rept_Date":"2020-02-27 12"},"coordinates":[2115,5723]},{"type":"Point","properties":{"Station_ID":"PARM4","Station_Nam":"PARENT BAY","Latitude":"45.79610","Longitude":"-86.40110","Snowdepth":"11.000","Units":"in","Rept_Date":"2020-02-27 14"},"coordinates":[2543,6401]},{"type":"Point","properties":{"Station_ID":"NY-SR-22","Station_Nam":"GREENFIELD CENTER 1.6 W, NY","Latitude":"43.12684","Longitude":"-73.87860","Snowdepth":"11.000","Units":"in","Rept_Date":"2020-02-27 12"},"coordinates":[5482,4782]},{"type":"Point","properties":{"Station_ID":"NY-ER-63","Station_Nam":"GLENWOOD 1.5 SE, NY","Latitude":"42.60195","Longitude":"-78.63910","Snowdepth":"11.000","Units":"in","Rept_Date":"2020-02-27 12"},"coordinates":[4365,4463]},{"type":"Point","properties":{"Station_ID":"NUNV1","Station_Nam":"NORTH UNDERHILL","Latitude":"44.58760","Longitude":"-72.92150","Snowdepth":"11.000","Units":"in","Rept_Date":"2020-02-27 12"},"coordinates":[5707,5668]},{"type":"Point","properties":{"Station_ID":"NH-MR-60","Station_Nam":"SOUTH SUTTON 1.3 SE, NH","Latitude":"43.29531","Longitude":"-71.90238","Snowdepth":"11.000","Units":"in","Rept_Date":"2020-02-27 13"},"coordinates":[5946,4884]},{"type":"Point","properties":{"Station_ID":"NCON3","Station_Nam":"NORTH CONWAY","Latitude":"44.05620","Longitude":"-71.12970","Snowdepth":"11.000","Units":"in","Rept_Date":"2020-02-27 13"},"coordinates":[6128,5346]},{"type":"Point","properties":{"Station_ID":"MN-SH-10","Station_Nam":"BIG LAKE 5.6 NNE, MN","Latitude":"45.41409","Longitude":"-93.69190","Snowdepth":"11.000","Units":"in","Rept_Date":"2020-02-27 13"},"coordinates":[832,6169]},{"type":"Point","properties":{"Station_ID":"MN-MR-13","Station_Nam":"LITTLE FALLS 8.0 NE, MN","Latitude":"46.06785","Longitude":"-94.24789","Snowdepth":"11.000","Units":"in","Rept_Date":"2020-02-27 13"},"coordinates":[702,6566]},{"type":"Point","properties":{"Station_ID":"MN-HN-181","Station_Nam":"MINNEAPOLIS 0.4 NE, MN","Latitude":"44.96708","Longitude":"-93.26222","Snowdepth":"11.000","Units":"in","Rept_Date":"2020-02-27 13"},"coordinates":[933,5898]},{"type":"Point","properties":{"Station_ID":"MN-FM-10","Station_Nam":"WYKOFF 3.1 NW, MN","Latitude":"43.74340","Longitude":"-92.30650","Snowdepth":"11.000","Units":"in","Rept_Date":"2020-02-27 13"},"coordinates":[1158,5156]},{"type":"Point","properties":{"Station_ID":"MN-CY-1","Station_Nam":"MOORHEAD 2.0 N, MN","Latitude":"46.88766","Longitude":"-96.74800","Snowdepth":"11.000","Units":"in","Rept_Date":"2020-02-27 13"},"coordinates":[115,7063]},{"type":"Point","properties":{"Station_ID":"ME-CM-3","Station_Nam":"NEW GLOUCESTER 3.0 SE, ME","Latitude":"43.92372","Longitude":"-70.25790","Snowdepth":"11.000","Units":"in","Rept_Date":"2020-02-27 12"},"coordinates":[6332,5265]},{"type":"Point","properties":{"Station_ID":"ME-CM-125","Station_Nam":"CUMBERLAND CENTER 4.4 NW, ME","Latitude":"43.84640","Longitude":"-70.31340","Snowdepth":"11.000","Units":"in","Rept_Date":"2020-02-27 12"},"coordinates":[6319,5218]},{"type":"Point","properties":{"Station_ID":"MCLN8","Station_Nam":"MC LEOD,ND","Latitude":"46.40250","Longitude":"-97.23810","Snowdepth":"11.000","Units":"in","Rept_Date":"2020-02-27 15"},"coordinates":[0,6769]},{"type":"Point","properties":{"Station_ID":"MADM5","Station_Nam":"MADISON WWTP","Latitude":"45.00230","Longitude":"-96.16610","Snowdepth":"11.000","Units":"in","Rept_Date":"2020-02-27 14"},"coordinates":[252,5920]},{"type":"Point","properties":{"Station_ID":"LMLI4","Station_Nam":"LAKE MILLS,IA","Latitude":"43.40000","Longitude":"-93.53330","Snowdepth":"11.000","Units":"in","Rept_Date":"2020-02-27 13"},"coordinates":[870,4948]},{"type":"Point","properties":{"Station_ID":"HTLM4","Station_Nam":"SNOW PAID OBSERVER FOR KHTL","Latitude":"44.34470","Longitude":"-84.67730","Snowdepth":"11.000","Units":"in","Rept_Date":"2020-02-28 00"},"coordinates":[2948,5521]},{"type":"Point","properties":{"Station_ID":"HTL","Station_Nam":"ROSCOMMON COUNTY AIRPORT","Latitude":"44.35000","Longitude":"-84.66670","Snowdepth":"11.000","Units":"in","Rept_Date":"2020-02-28 00"},"coordinates":[2951,5524]},{"type":"Point","properties":{"Station_ID":"GFDN6","Station_Nam":"CHASES LAKE","Latitude":"43.75920","Longitude":"-75.29980","Snowdepth":"11.000","Units":"in","Rept_Date":"2020-02-27 11"},"coordinates":[5149,5165]},{"type":"Point","properties":{"Station_ID":"FDRN8","Station_Nam":"FARGO 3S","Latitude":"46.82930","Longitude":"-96.79620","Snowdepth":"11.000","Units":"in","Rept_Date":"2020-02-28 00"},"coordinates":[104,7028]},{"type":"Point","properties":{"Station_ID":"FAR","Station_Nam":"HECTOR INTERNATIONAL ARPT","Latitude":"46.91560","Longitude":"-96.81440","Snowdepth":"11.000","Units":"in","Rept_Date":"2020-02-28 00"},"coordinates":[100,7080]},{"type":"Point","properties":{"Station_ID":"ESAM4","Station_Nam":"ESCANABA","Latitude":"45.74380","Longitude":"-87.04060","Snowdepth":"11.000","Units":"in","Rept_Date":"2020-02-27 12"},"coordinates":[2393,6369]},{"type":"Point","properties":{"Station_ID":"ENGM4","Station_Nam":"ENGADINE MDOT","Latitude":"46.12800","Longitude":"-85.56960","Snowdepth":"11.000","Units":"in","Rept_Date":"2020-02-27 12"},"coordinates":[2739,6602]},{"type":"Point","properties":{"Station_ID":"DURM1","Station_Nam":"DURHAM","Latitude":"43.99960","Longitude":"-70.09630","Snowdepth":"11.000","Units":"in","Rept_Date":"2020-02-27 12"},"coordinates":[6370,5311]},{"type":"Point","properties":{"Station_ID":"CODN6","Station_Nam":"COLDEN","Latitude":"42.64720","Longitude":"-78.71110","Snowdepth":"11.000","Units":"in","Rept_Date":"2020-02-27 12"},"coordinates":[4348,4491]},{"type":"Point","properties":{"Station_ID":"CAN-PE-7","Station_Nam":"MORELL 1.4 NNW, CA","Latitude":"46.42741","Longitude":"-62.70870","Snowdepth":"11.000","Units":"in","Rept_Date":"2020-02-27 11"},"coordinates":[8104,6784]},{"type":"Point","properties":{"Station_ID":"CAN-NB-16","Station_Nam":"DORCHESTER 1.0 SSE, CAN","Latitude":"45.89160","Longitude":"-64.51269","Snowdepth":"11.000","Units":"in","Rept_Date":"2020-02-27 12"},"coordinates":[7681,6459]},{"type":"Point","properties":{"Station_ID":"ME-CM-54","Station_Nam":"WINDHAM 3.9 NW, ME","Latitude":"43.85787","Longitude":"-70.46200","Snowdepth":"10.600","Units":"in","Rept_Date":"2020-02-27 12"},"coordinates":[6284,5225]},{"type":"Point","properties":{"Station_ID":"NH-MR-45","Station_Nam":"NORTHFIELD 2.8 E, NH","Latitude":"43.43945","Longitude":"-71.53730","Snowdepth":"10.500","Units":"in","Rept_Date":"2020-02-27 12"},"coordinates":[6032,4971]},{"type":"Point","properties":{"Station_ID":"NH-CR-9","Station_Nam":"MADISON 1.7 SE, NH","Latitude":"43.87928","Longitude":"-71.12660","Snowdepth":"10.500","Units":"in","Rept_Date":"2020-02-27 12"},"coordinates":[6128,5238]},{"type":"Point","properties":{"Station_ID":"MN-SH-985","Station_Nam":"PRINCETON 3.3 WSW, MN","Latitude":"45.55211","Longitude":"-93.64481","Snowdepth":"10.500","Units":"in","Rept_Date":"2020-02-27 10"},"coordinates":[843,6253]},{"type":"Point","properties":{"Station_ID":"MN-MC-16","Station_Nam":"HUTCHINSON 0.1 ENE, MN","Latitude":"44.88633","Longitude":"-94.37503","Snowdepth":"10.500","Units":"in","Rept_Date":"2020-02-27 13"},"coordinates":[672,5849]},{"type":"Point","properties":{"Station_ID":"WYON6","Station_Nam":"WYOMING 3W","Latitude":"42.82060","Longitude":"-78.14810","Snowdepth":"10.000","Units":"in","Rept_Date":"2020-02-27 12"},"coordinates":[4480,4596]},{"type":"Point","properties":{"Station_ID":"WMRM5","Station_Nam":"WILLMAR 5N","Latitude":"45.19010","Longitude":"-95.05860","Snowdepth":"10.000","Units":"in","Rept_Date":"2020-02-27 12"},"coordinates":[512,6033]},{"type":"Point","properties":{"Station_ID":"VT-WR-17","Station_Nam":"ROCHESTER 2.3 NE, VT","Latitude":"43.89418","Longitude":"-72.76992","Snowdepth":"10.000","Units":"in","Rept_Date":"2020-02-27 12"},"coordinates":[5743,5247]},{"type":"Point","properties":{"Station_ID":"TOPM1","Station_Nam":"TOPSFIELD","Latitude":"45.43470","Longitude":"-67.72020","Snowdepth":"10.000","Units":"in","Rept_Date":"2020-02-27 11"},"coordinates":[6928,6182]},{"type":"Point","properties":{"Station_ID":"THLM5","Station_Nam":"THEILMAN 1SSW","Latitude":"44.28130","Longitude":"-92.19430","Snowdepth":"10.000","Units":"in","Rept_Date":"2020-02-27 13"},"coordinates":[1184,5482]},{"type":"Point","properties":{"Station_ID":"SNGW3","Station_Nam":"SURING-4 E-HWY. DEPT.","Latitude":"44.99310","Longitude":"-88.31170","Snowdepth":"10.000","Units":"in","Rept_Date":"2020-02-27 13"},"coordinates":[2095,5914]},{"type":"Point","properties":{"Station_ID":"SHIW3","Station_Nam":"SHIOCTON","Latitude":"44.43890","Longitude":"-88.58390","Snowdepth":"10.000","Units":"in","Rept_Date":"2020-02-27 13"},"coordinates":[2031,5578]},{"type":"Point","properties":{"Station_ID":"SD-BK-2","Station_Nam":"ASTORIA 2.2 SSE, SD","Latitude":"44.53093","Longitude":"-96.52270","Snowdepth":"10.000","Units":"in","Rept_Date":"2020-02-27 13"},"coordinates":[168,5634]},{"type":"Point","properties":{"Station_ID":"ROWM3","Station_Nam":"ROWE 3NE","Latitude":"42.73500","Longitude":"-72.86920","Snowdepth":"10.000","Units":"in","Rept_Date":"2020-02-27 14"},"coordinates":[5719,4544]},{"type":"Point","properties":{"Station_ID":"PLFV1","Station_Nam":"PLAINFIELD","Latitude":"44.27610","Longitude":"-72.41500","Snowdepth":"10.000","Units":"in","Rept_Date":"2020-02-27 12"},"coordinates":[5826,5479]},{"type":"Point","properties":{"Station_ID":"PBAN8","Station_Nam":"SITE 1-3MI.N","Latitude":"48.97420","Longitude":"-97.23860","Snowdepth":"10.000","Units":"in","Rept_Date":"2020-02-27 13"},"coordinates":[0,8329]},{"type":"Point","properties":{"Station_ID":"NY-WY-10","Station_Nam":"WYOMING COOP, NY","Latitude":"42.82060","Longitude":"-78.14810","Snowdepth":"10.000","Units":"in","Rept_Date":"2020-02-27 12"},"coordinates":[4480,4596]},{"type":"Point","properties":{"Station_ID":"NONW3","Station_Nam":"NEW LONDON","Latitude":"44.35890","Longitude":"-88.71890","Snowdepth":"10.000","Units":"in","Rept_Date":"2020-02-27 12"},"coordinates":[2000,5529]},{"type":"Point","properties":{"Station_ID":"MN7M8EBJ","Station_Nam":"LUTSEN 15.7 NNW","Latitude":"47.85324","Longitude":"-89.92908","Snowdepth":"10.000","Units":"in","Rept_Date":"2020-02-27 14"},"coordinates":[1715,7649]},{"type":"Point","properties":{"Station_ID":"MN-SR-29","Station_Nam":"ALBANY 3.8 S, MN","Latitude":"45.57441","Longitude":"-94.55543","Snowdepth":"10.000","Units":"in","Rept_Date":"2020-02-27 13"},"coordinates":[630,6267]},{"type":"Point","properties":{"Station_ID":"MN-SE-2","Station_Nam":"OWATONNA 0.8 E, MN","Latitude":"44.09170","Longitude":"-93.21380","Snowdepth":"10.000","Units":"in","Rept_Date":"2020-02-27 12"},"coordinates":[945,5367]},{"type":"Point","properties":{"Station_ID":"MN-MR-4","Station_Nam":"LITTLE FALLS 1.2 SW, MN","Latitude":"45.96886","Longitude":"-94.37720","Snowdepth":"10.000","Units":"in","Rept_Date":"2020-02-27 13"},"coordinates":[672,6506]},{"type":"Point","properties":{"Station_ID":"MLCM5","Station_Nam":"MILACA","Latitude":"45.75320","Longitude":"-93.66170","Snowdepth":"10.000","Units":"in","Rept_Date":"2020-02-27 13"},"coordinates":[839,6375]},{"type":"Point","properties":{"Station_ID":"MEDW3","Station_Nam":"MEDFORD","Latitude":"45.13080","Longitude":"-90.34390","Snowdepth":"10.000","Units":"in","Rept_Date":"2020-02-27 14"},"coordinates":[1618,5998]},{"type":"Point","properties":{"Station_ID":"MAPM4","Station_Nam":"MAPLE CITY 1E","Latitude":"44.85500","Longitude":"-85.83520","Snowdepth":"10.000","Units":"in","Rept_Date":"2020-02-27 23"},"coordinates":[2676,5830]},{"type":"Point","properties":{"Station_ID":"MALN6","Station_Nam":"MALONE","Latitude":"44.84180","Longitude":"-74.30600","Snowdepth":"10.000","Units":"in","Rept_Date":"2020-02-27 12"},"coordinates":[5382,5822]},{"type":"Point","properties":{"Station_ID":"MA-HS-7","Station_Nam":"PLAINFIELD 2.2 SW, MA","Latitude":"42.49272","Longitude":"-72.94540","Snowdepth":"10.000","Units":"in","Rept_Date":"2020-02-27 13"},"coordinates":[5701,4397]},{"type":"Point","properties":{"Station_ID":"JEFN3","Station_Nam":"JEFFERSON","Latitude":"44.41690","Longitude":"-71.50080","Snowdepth":"10.000","Units":"in","Rept_Date":"2020-02-27 12"},"coordinates":[6040,5564]},{"type":"Point","properties":{"Station_ID":"HYTS2","Station_Nam":"HAYTI 1W","Latitude":"44.66330","Longitude":"-97.22670","Snowdepth":"10.000","Units":"in","Rept_Date":"2020-02-27 14"},"coordinates":[3,5714]},{"type":"Point","properties":{"Station_ID":"CANM5","Station_Nam":"CANBY","Latitude":"44.71840","Longitude":"-96.26960","Snowdepth":"10.000","Units":"in","Rept_Date":"2020-02-27 14"},"coordinates":[227,5747]},{"type":"Point","properties":{"Station_ID":"CAN-ON-451","Station_Nam":"OWEN SOUND 1.2 N - GSCA, CAN","Latitude":"44.58092","Longitude":"-80.93025","Snowdepth":"10.000","Units":"in","Rept_Date":"2020-02-27 13"},"coordinates":[3827,5664]},{"type":"Point","properties":{"Station_ID":"BKEM5","Station_Nam":"BRECKENRIDGE 4NE","Latitude":"46.30470","Longitude":"-96.52170","Snowdepth":"10.000","Units":"in","Rept_Date":"2020-02-27 13"},"coordinates":[168,6710]},{"type":"Point","properties":{"Station_ID":"BFSW3","Station_Nam":"BIG FALLS-5 NW","Latitude":"44.63980","Longitude":"-89.11330","Snowdepth":"10.000","Units":"in","Rept_Date":"2020-02-27 13"},"coordinates":[1907,5700]},{"type":"Point","properties":{"Station_ID":"BDMW3","Station_Nam":"BEAVER DAM 1 N","Latitude":"43.46860","Longitude":"-88.83970","Snowdepth":"10.000","Units":"in","Rept_Date":"2020-02-27 13"},"coordinates":[1971,4989]},{"type":"Point","properties":{"Station_ID":"APPW3","Station_Nam":"APPLETON","Latitude":"44.27690","Longitude":"-88.43770","Snowdepth":"10.000","Units":"in","Rept_Date":"2020-02-27 12"},"coordinates":[2066,5479]},{"type":"Point","properties":{"Station_ID":"QGT","Station_Nam":"QGT","Latitude":"49.64720","Longitude":"-67.62640","Snowdepth":"9.921","Units":"in","Rept_Date":"2020-02-27 12"},"coordinates":[6950,8737]},{"type":"Point","properties":{"Station_ID":"CAN-ON-187","Station_Nam":"WATERLOO 1.9 E - UOFW, CAN","Latitude":"43.47024","Longitude":"-80.50634","Snowdepth":"9.800","Units":"in","Rept_Date":"2020-02-27 13"},"coordinates":[3927,4990]},{"type":"Point","properties":{"Station_ID":"WI-WH-7","Station_Nam":"WILD ROSE 0.5 E, WI","Latitude":"44.17764","Longitude":"-89.23812","Snowdepth":"9.500","Units":"in","Rept_Date":"2020-02-27 13"},"coordinates":[1878,5419]},{"type":"Point","properties":{"Station_ID":"WI-CT-4","Station_Nam":"MENASHA 5.4 ESE, WI","Latitude":"44.19640","Longitude":"-88.33070","Snowdepth":"9.500","Units":"in","Rept_Date":"2020-02-27 13"},"coordinates":[2091,5431]},{"type":"Point","properties":{"Station_ID":"SD-BK-7","Station_Nam":"BROOKINGS 0.2 SSW, SD","Latitude":"44.30389","Longitude":"-96.78780","Snowdepth":"9.500","Units":"in","Rept_Date":"2020-02-27 13"},"coordinates":[106,5496]},{"type":"Point","properties":{"Station_ID":"NY-ES-7","Station_Nam":"KEESEVILLE 0.8 SE, NY","Latitude":"44.49504","Longitude":"-73.47109","Snowdepth":"9.500","Units":"in","Rept_Date":"2020-02-27 12"},"coordinates":[5578,5612]},{"type":"Point","properties":{"Station_ID":"NH-MR-41","Station_Nam":"NEWBURY 1.6 NW, NH","Latitude":"43.33667","Longitude":"-72.06060","Snowdepth":"9.500","Units":"in","Rept_Date":"2020-02-27 12"},"coordinates":[5909,4909]},{"type":"Point","properties":{"Station_ID":"NH-GR-47","Station_Nam":"LITTLETON 7.3 W, NH","Latitude":"44.31847","Longitude":"-71.91086","Snowdepth":"9.500","Units":"in","Rept_Date":"2020-02-27 13"},"coordinates":[5944,5505]},{"type":"Point","properties":{"Station_ID":"CAN-NB-98","Station_Nam":"HOYT 4.2 S, CAN","Latitude":"45.54763","Longitude":"-66.55440","Snowdepth":"9.400","Units":"in","Rept_Date":"2020-02-27 11"},"coordinates":[7201,6250]},{"type":"Point","properties":{"Station_ID":"VT-CL-23","Station_Nam":"RYEGATE 1.5 N, VT","Latitude":"44.23024","Longitude":"-72.10523","Snowdepth":"9.300","Units":"in","Rept_Date":"2020-02-27 12"},"coordinates":[5899,5451]},{"type":"Point","properties":{"Station_ID":"IN-SN-33","Station_Nam":"ANGOLA 1.7 WNW, IN","Latitude":"41.65236","Longitude":"-85.02961","Snowdepth":"9.200","Units":"in","Rept_Date":"2020-02-27 12"},"coordinates":[2865,3887]},{"type":"Point","properties":{"Station_ID":"WTBW3","Station_Nam":"WEST BEND PUBLIC WORKS","Latitude":"43.41110","Longitude":"-88.19380","Snowdepth":"9.000","Units":"in","Rept_Date":"2020-02-27 15"},"coordinates":[2123,4954]},{"type":"Point","properties":{"Station_ID":"WI-TR-8","Station_Nam":"ETTRICK 4.0 WNW, WI","Latitude":"44.19004","Longitude":"-91.34249","Snowdepth":"9.000","Units":"in","Rept_Date":"2020-02-27 13"},"coordinates":[1384,5427]},{"type":"Point","properties":{"Station_ID":"WI-DA-45","Station_Nam":"MADISON 6.1 W, WI","Latitude":"43.06948","Longitude":"-89.50788","Snowdepth":"9.000","Units":"in","Rept_Date":"2020-02-27 13"},"coordinates":[1814,4747]},{"type":"Point","properties":{"Station_ID":"VQAW3","Station_Nam":"VIROQUA","Latitude":"43.55970","Longitude":"-90.87560","Snowdepth":"9.000","Units":"in","Rept_Date":"2020-02-27 13"},"coordinates":[1493,5044]},{"type":"Point","properties":{"Station_ID":"SHHW3","Station_Nam":"SHAWANO 2SSW","Latitude":"44.76310","Longitude":"-88.61830","Snowdepth":"9.000","Units":"in","Rept_Date":"2020-02-27 14"},"coordinates":[2023,5774]},{"type":"Point","properties":{"Station_ID":"RARM4","Station_Nam":"RAPID RIVER 1 SW","Latitude":"45.91500","Longitude":"-86.98800","Snowdepth":"9.000","Units":"in","Rept_Date":"2020-02-27 12"},"coordinates":[2406,6473]},{"type":"Point","properties":{"Station_ID":"OSAI4","Station_Nam":"OSAGE","Latitude":"43.27940","Longitude":"-92.81060","Snowdepth":"9.000","Units":"in","Rept_Date":"2020-02-27 13"},"coordinates":[1039,4874]},{"type":"Point","properties":{"Station_ID":"NVLN6","Station_Nam":"NORTHVILLE","Latitude":"43.23330","Longitude":"-74.16670","Snowdepth":"9.000","Units":"in","Rept_Date":"2020-02-27 13"},"coordinates":[5415,4846]},{"type":"Point","properties":{"Station_ID":"NOHV1","Station_Nam":"NORTH HARTLAND LAKE","Latitude":"43.60270","Longitude":"-72.36210","Snowdepth":"9.000","Units":"in","Rept_Date":"2020-02-27 12"},"coordinates":[5838,5070]},{"type":"Point","properties":{"Station_ID":"NH-CR-16","Station_Nam":"WOLFEBORO 0.6 SW, NH","Latitude":"43.58464","Longitude":"-71.21760","Snowdepth":"9.000","Units":"in","Rept_Date":"2020-02-27 12"},"coordinates":[6107,5060]},{"type":"Point","properties":{"Station_ID":"MWTM1","Station_Nam":"MILLINOCKET WWTP","Latitude":"45.64030","Longitude":"-68.67480","Snowdepth":"9.000","Units":"in","Rept_Date":"2020-02-27 11"},"coordinates":[6704,6307]},{"type":"Point","properties":{"Station_ID":"MNG0GYSN","Station_Nam":"LONSDALE 1.1 SSW","Latitude":"44.46445","Longitude":"-93.43293","Snowdepth":"9.000","Units":"in","Rept_Date":"2020-02-27 12"},"coordinates":[893,5593]},{"type":"Point","properties":{"Station_ID":"MN-RC-1","Station_Nam":"MONTGOMERY 3.2 ENE, MN","Latitude":"44.46400","Longitude":"-93.51980","Snowdepth":"9.000","Units":"in","Rept_Date":"2020-02-27 11"},"coordinates":[873,5593]},{"type":"Point","properties":{"Station_ID":"MN-OL-18","Station_Nam":"ROCHESTER 2.6 NE, MN","Latitude":"44.03975","Longitude":"-92.43750","Snowdepth":"9.000","Units":"in","Rept_Date":"2020-02-27 12"},"coordinates":[1127,5336]},{"type":"Point","properties":{"Station_ID":"MN-MT-6","Station_Nam":"FAIRMONT 0.7 E, MN","Latitude":"43.64501","Longitude":"-94.44860","Snowdepth":"9.000","Units":"in","Rept_Date":"2020-02-27 13"},"coordinates":[655,5096]},{"type":"Point","properties":{"Station_ID":"MN-GH-28","Station_Nam":"CANNON FALLS 0.5 SE, MN","Latitude":"44.50866","Longitude":"-92.89526","Snowdepth":"9.000","Units":"in","Rept_Date":"2020-02-27 14"},"coordinates":[1019,5620]},{"type":"Point","properties":{"Station_ID":"MIAM5","Station_Nam":"MILAN 1NW","Latitude":"45.12190","Longitude":"-95.92690","Snowdepth":"9.000","Units":"in","Rept_Date":"2020-02-28 00"},"coordinates":[308,5992]},{"type":"Point","properties":{"Station_ID":"MI-EM-5","Station_Nam":"HARBOR SPRINGS 0.7 ENE, MI","Latitude":"45.43450","Longitude":"-84.97540","Snowdepth":"9.000","Units":"in","Rept_Date":"2020-02-27 12"},"coordinates":[2878,6182]},{"type":"Point","properties":{"Station_ID":"MFDW3","Station_Nam":"MARSHFIELD EXP FARM","Latitude":"44.64110","Longitude":"-90.13330","Snowdepth":"9.000","Units":"in","Rept_Date":"2020-02-27 13"},"coordinates":[1668,5700]},{"type":"Point","properties":{"Station_ID":"ME-AN-32","Station_Nam":"WINTHROP 9.4 W, ME","Latitude":"44.30476","Longitude":"-70.15835","Snowdepth":"9.000","Units":"in","Rept_Date":"2020-02-27 12"},"coordinates":[6356,5496]},{"type":"Point","properties":{"Station_ID":"LUCW3","Station_Nam":"LUCK","Latitude":"45.57330","Longitude":"-92.48520","Snowdepth":"9.000","Units":"in","Rept_Date":"2020-02-27 21"},"coordinates":[1116,6266]},{"type":"Point","properties":{"Station_ID":"LGRN8","Station_Nam":"LIDGERWOOD,ND","Latitude":"46.06670","Longitude":"-97.16670","Snowdepth":"9.000","Units":"in","Rept_Date":"2020-02-27 13"},"coordinates":[17,6565]},{"type":"Point","properties":{"Station_ID":"HUDI3","Station_Nam":"HUDSON 3SW","Latitude":"41.51150","Longitude":"-85.13190","Snowdepth":"9.000","Units":"in","Rept_Date":"2020-02-27 14"},"coordinates":[2841,3802]},{"type":"Point","properties":{"Station_ID":"GYX","Station_Nam":"PORTLAND, ME","Latitude":"43.89250","Longitude":"-70.25500","Snowdepth":"9.000","Units":"in","Rept_Date":"2020-02-27 12"},"coordinates":[6333,5246]},{"type":"Point","properties":{"Station_ID":"FYTI4","Station_Nam":"FAYETTE","Latitude":"42.88300","Longitude":"-91.83020","Snowdepth":"9.000","Units":"in","Rept_Date":"2020-02-27 13"},"coordinates":[1269,4634]},{"type":"Point","properties":{"Station_ID":"FORM5","Station_Nam":"FOREST LAKE 5NE","Latitude":"45.33170","Longitude":"-92.89820","Snowdepth":"9.000","Units":"in","Rept_Date":"2020-02-27 13"},"coordinates":[1019,6119]},{"type":"Point","properties":{"Station_ID":"ENFV1","Station_Nam":"ENOSBURG FALLS 2","Latitude":"44.90960","Longitude":"-72.81370","Snowdepth":"9.000","Units":"in","Rept_Date":"2020-02-27 10"},"coordinates":[5732,5863]},{"type":"Point","properties":{"Station_ID":"DTVM4","Station_Nam":"DETOUR VILLAGE","Latitude":"45.99830","Longitude":"-83.90130","Snowdepth":"9.000","Units":"in","Rept_Date":"2020-02-27 13"},"coordinates":[3130,6524]},{"type":"Point","properties":{"Station_ID":"CNKN6","Station_Nam":"CONKLINGVILLE DAM","Latitude":"43.32030","Longitude":"-73.92560","Snowdepth":"9.000","Units":"in","Rept_Date":"2020-02-27 13"},"coordinates":[5471,4899]},{"type":"Point","properties":{"Station_ID":"BGGW3","Station_Nam":"GREEN BAY,WI","Latitude":"44.53170","Longitude":"-88.09720","Snowdepth":"9.000","Units":"in","Rept_Date":"2020-02-27 13"},"coordinates":[2145,5634]},{"type":"Point","properties":{"Station_ID":"CAN-QC-16","Station_Nam":"SAINT-ARMAND 3.6 W, CAN","Latitude":"45.02631","Longitude":"-73.08795","Snowdepth":"8.900","Units":"in","Rept_Date":"2020-02-27 12"},"coordinates":[5668,5934]},{"type":"Point","properties":{"Station_ID":"CAN-ON-452","Station_Nam":"CHATSWORTH 1.8 ENE - GSCA, CAN","Latitude":"44.46118","Longitude":"-80.87506","Snowdepth":"8.900","Units":"in","Rept_Date":"2020-02-27 12"},"coordinates":[3840,5591]},{"type":"Point","properties":{"Station_ID":"WI-WK-61","Station_Nam":"HARTLAND 5.0 NNE, WI","Latitude":"43.16351","Longitude":"-88.30400","Snowdepth":"8.500","Units":"in","Rept_Date":"2020-02-27 13"},"coordinates":[2097,4804]},{"type":"Point","properties":{"Station_ID":"WI-DA-13","Station_Nam":"MADISON 3.7 WSW, WI","Latitude":"43.06230","Longitude":"-89.45650","Snowdepth":"8.500","Units":"in","Rept_Date":"2020-02-27 13"},"coordinates":[1826,4743]},{"type":"Point","properties":{"Station_ID":"VT-OL-5","Station_Nam":"DERBY CENTER 1.8 NW, VT","Latitude":"44.97200","Longitude":"-72.14780","Snowdepth":"8.500","Units":"in","Rept_Date":"2020-02-27 12"},"coordinates":[5889,5901]},{"type":"Point","properties":{"Station_ID":"NH-GR-1","Station_Nam":"BRISTOL 0.4 SSE, NH","Latitude":"43.59490","Longitude":"-71.74140","Snowdepth":"8.500","Units":"in","Rept_Date":"2020-02-27 12"},"coordinates":[5984,5066]},{"type":"Point","properties":{"Station_ID":"NH-BK-9","Station_Nam":"MEREDITH 2.9 SSW, NH","Latitude":"43.62245","Longitude":"-71.53510","Snowdepth":"8.500","Units":"in","Rept_Date":"2020-02-27 12"},"coordinates":[6032,5082]},{"type":"Point","properties":{"Station_ID":"WI-OG-7","Station_Nam":"APPLETON 1.3 N, WI","Latitude":"44.28580","Longitude":"-88.39470","Snowdepth":"8.100","Units":"in","Rept_Date":"2020-02-27 13"},