{"type":"Topology","objects":{"snowdepth_geo":{"type":"GeometryCollection","name":"snowdepth","crs":{"type":"name","properties":{"name":"urn:ogc:def:crs:OGC:1.3:CRS84"}},"geometries":[{"type":"Point","properties":{"Station_ID":"PRKM4","Station_Nam":"MUNISING EAST","Latitude":"46.42580","Longitude":"-86.62000","Snowdepth":"76.500","Units":"in","Rept_Date":"2020-02-23 06"},"coordinates":[2492,6810]},{"type":"Point","properties":{"Station_ID":"OGIQ6","Station_Nam":"OGOKI CAMP","Latitude":"50.76680","Longitude":"-87.85820","Snowdepth":"61.100","Units":"in","Rept_Date":"2020-02-23 06"},"coordinates":[2202,9421]},{"type":"Point","properties":{"Station_ID":"HTLN3","Station_Nam":"HERMIT LAKE SNOWPLOT","Latitude":"44.26130","Longitude":"-71.28330","Snowdepth":"59.000","Units":"in","Rept_Date":"2020-02-22 10"},"coordinates":[6092,5507]},{"type":"Point","properties":{"Station_ID":"PDLM4","Station_Nam":"PAINESDALE","Latitude":"47.04160","Longitude":"-88.67170","Snowdepth":"52.000","Units":"in","Rept_Date":"2020-02-22 13"},"coordinates":[2011,7180]},{"type":"Point","properties":{"Station_ID":"HVCN3","Station_Nam":"HARVARD CABIN SNOWPLOT","Latitude":"44.26630","Longitude":"-71.27790","Snowdepth":"49.000","Units":"in","Rept_Date":"2020-02-22 10"},"coordinates":[6093,5510]},{"type":"Point","properties":{"Station_ID":"AUDQ6","Station_Nam":"AUDEN","Latitude":"48.52600","Longitude":"-82.57570","Snowdepth":"47.640","Units":"in","Rept_Date":"2020-02-23 06"},"coordinates":[3441,8073]},{"type":"Point","properties":{"Station_ID":"GMSM4","Station_Nam":"GRAND MARAIS 10S","Latitude":"46.50940","Longitude":"-85.96310","Snowdepth":"46.000","Units":"in","Rept_Date":"2020-02-22 12"},"coordinates":[2646,6860]},{"type":"Point","properties":{"Station_ID":"DVLQ6","Station_Nam":"DEVIOUS LAKE","Latitude":"49.19890","Longitude":"-87.76440","Snowdepth":"43.460","Units":"in","Rept_Date":"2020-02-23 06"},"coordinates":[2224,8478]},{"type":"Point","properties":{"Station_ID":"WLFM5","Station_Nam":"WOLF RIDGE ENVIRON LEARNING CENTER","Latitude":"47.38240","Longitude":"-91.19730","Snowdepth":"39.000","Units":"in","Rept_Date":"2020-02-22 13"},"coordinates":[1418,7385]},{"type":"Point","properties":{"Station_ID":"CAN-NS-39","Station_Nam":"ST. ANNS 2.8 NW, CA","Latitude":"46.25082","Longitude":"-60.64340","Snowdepth":"39.000","Units":"in","Rept_Date":"2020-02-22 12"},"coordinates":[8589,6704]},{"type":"Point","properties":{"Station_ID":"KSGM4","Station_Nam":"KEARSARGE","Latitude":"47.27520","Longitude":"-88.41700","Snowdepth":"38.000","Units":"in","Rept_Date":"2020-02-22 13"},"coordinates":[2070,7321]},{"type":"Point","properties":{"Station_ID":"QGO","Station_Nam":"QGO","Latitude":"48.85500","Longitude":"-74.20640","Snowdepth":"36.417","Units":"in","Rept_Date":"2020-02-22 12"},"coordinates":[5405,8271]},{"type":"Point","properties":{"Station_ID":"MNSM4","Station_Nam":"MUNISING","Latitude":"46.41210","Longitude":"-86.66250","Snowdepth":"36.000","Units":"in","Rept_Date":"2020-02-22 11"},"coordinates":[2482,6801]},{"type":"Point","properties":{"Station_ID":"IBLM5","Station_Nam":"ISABELLA 14W","Latitude":"47.59360","Longitude":"-91.65140","Snowdepth":"36.000","Units":"in","Rept_Date":"2020-02-22 15"},"coordinates":[1311,7512]},{"type":"Point","properties":{"Station_ID":"CAN-NL-65","Station_Nam":"KIPPENS 0.7 NE, CA","Latitude":"48.55436","Longitude":"-58.61850","Snowdepth":"35.500","Units":"in","Rept_Date":"2020-02-22 12"},"coordinates":[9064,8090]},{"type":"Point","properties":{"Station_ID":"CAN-NL-82","Station_Nam":"GANDER 2.7 NW, CAN","Latitude":"48.97737","Longitude":"-54.63396","Snowdepth":"35.400","Units":"in","Rept_Date":"2020-02-22 10"},"coordinates":[9999,8345]},{"type":"Point","properties":{"Station_ID":"PHEW3","Station_Nam":"PHELPS","Latitude":"46.06630","Longitude":"-89.07520","Snowdepth":"35.000","Units":"in","Rept_Date":"2020-02-22 13"},"coordinates":[1916,6593]},{"type":"Point","properties":{"Station_ID":"MQT","Station_Nam":"MARQUETTE, MI","Latitude":"46.53140","Longitude":"-87.54920","Snowdepth":"34.000","Units":"in","Rept_Date":"2020-02-23 06"},"coordinates":[2274,6873]},{"type":"Point","properties":{"Station_ID":"QWE","Station_Nam":"QWE","Latitude":"47.84610","Longitude":"-73.80670","Snowdepth":"33.937","Units":"in","Rept_Date":"2020-02-22 12"},"coordinates":[5499,7664]},{"type":"Point","properties":{"Station_ID":"QCU","Station_Nam":"QCU","Latitude":"47.82750","Longitude":"-76.59830","Snowdepth":"33.228","Units":"in","Rept_Date":"2020-02-22 12"},"coordinates":[4844,7653]},{"type":"Point","properties":{"Station_ID":"CAN-NB-11","Station_Nam":"MIRAMICHI 3.3 S, CAN","Latitude":"46.99343","Longitude":"-65.50690","Snowdepth":"33.000","Units":"in","Rept_Date":"2020-02-22 11"},"coordinates":[7447,7151]},{"type":"Point","properties":{"Station_ID":"MI-BG-3","Station_Nam":"L'ANSE 17.8 SE, MI","Latitude":"46.55730","Longitude":"-88.20770","Snowdepth":"32.800","Units":"in","Rept_Date":"2020-02-22 13"},"coordinates":[2119,6889]},{"type":"Point","properties":{"Station_ID":"STEM4","Station_Nam":"STEUBEN","Latitude":"46.18530","Longitude":"-86.46410","Snowdepth":"32.000","Units":"in","Rept_Date":"2020-02-22 14"},"coordinates":[2529,6665]},{"type":"Point","properties":{"Station_ID":"QOU","Station_Nam":"QOU","Latitude":"50.79250","Longitude":"-69.67470","Snowdepth":"31.102","Units":"in","Rept_Date":"2020-02-22 12"},"coordinates":[6469,9437]},{"type":"Point","properties":{"Station_ID":"CAN-QC-47","Station_Nam":"SAINTE-FOY 1.8 ENE, CAN","Latitude":"46.76934","Longitude":"-71.27124","Snowdepth":"31.100","Units":"in","Rept_Date":"2020-02-22 12"},"coordinates":[6094,7016]},{"type":"Point","properties":{"Station_ID":"CAN-NB-105","Station_Nam":"SISSON BROOK 3.8 E, CAN","Latitude":"46.98305","Longitude":"-67.32532","Snowdepth":"31.100","Units":"in","Rept_Date":"2020-02-22 12"},"coordinates":[7020,7145]},{"type":"Point","properties":{"Station_ID":"LVDW3","Station_Nam":"LAC VIEUX DESERT","Latitude":"46.12110","Longitude":"-89.07580","Snowdepth":"31.000","Units":"in","Rept_Date":"2020-02-22 15"},"coordinates":[1916,6626]},{"type":"Point","properties":{"Station_ID":"QGD","Station_Nam":"QGD","Latitude":"51.11140","Longitude":"-67.13940","Snowdepth":"30.984","Units":"in","Rept_Date":"2020-02-22 12"},"coordinates":[7064,9629]},{"type":"Point","properties":{"Station_ID":"MLZ","Station_Nam":"MLZ","Latitude":"50.66170","Longitude":"-68.82360","Snowdepth":"30.945","Units":"in","Rept_Date":"2020-02-22 12"},"coordinates":[6669,9358]},{"type":"Point","properties":{"Station_ID":"QLB","Station_Nam":"QLB","Latitude":"50.72360","Longitude":"-75.10000","Snowdepth":"30.866","Units":"in","Rept_Date":"2020-02-22 12"},"coordinates":[5196,9395]},{"type":"Point","properties":{"Station_ID":"NH-CS-10","Station_Nam":"RANDOLPH 1.4 NE, NH","Latitude":"44.38824","Longitude":"-71.26950","Snowdepth":"30.000","Units":"in","Rept_Date":"2020-02-22 12"},"coordinates":[6095,5584]},{"type":"Point","properties":{"Station_ID":"ME-AR-18","Station_Nam":"NEW SWEDEN 4.9 NNW, ME","Latitude":"47.01080","Longitude":"-68.14390","Snowdepth":"30.000","Units":"in","Rept_Date":"2020-02-22 12"},"coordinates":[6828,7162]},{"type":"Point","properties":{"Station_ID":"WRPW3","Station_Nam":"WATER PURIFICATION PLANT","Latitude":"44.38800","Longitude":"-89.80550","Snowdepth":"29.000","Units":"in","Rept_Date":"2020-02-22 12"},"coordinates":[1744,5584]},{"type":"Point","properties":{"Station_ID":"SUTV1","Station_Nam":"SUTTON","Latitude":"44.61220","Longitude":"-72.04810","Snowdepth":"29.000","Units":"in","Rept_Date":"2020-02-22 13"},"coordinates":[5912,5719]},{"type":"Point","properties":{"Station_ID":"HURW3","Station_Nam":"HURLEY","Latitude":"46.46250","Longitude":"-90.19550","Snowdepth":"29.000","Units":"in","Rept_Date":"2020-02-22 14"},"coordinates":[1653,6832]},{"type":"Point","properties":{"Station_ID":"HERM4","Station_Nam":"HERMAN,MI","Latitude":"46.65000","Longitude":"-88.33330","Snowdepth":"29.000","Units":"in","Rept_Date":"2020-02-22 13"},"coordinates":[2090,6945]},{"type":"Point","properties":{"Station_ID":"CRVW3","Station_Nam":"CRIVITZ HIGH FALLS","Latitude":"45.35750","Longitude":"-88.19190","Snowdepth":"29.000","Units":"in","Rept_Date":"2020-02-22 13"},"coordinates":[2123,6167]},{"type":"Point","properties":{"Station_ID":"QFT","Station_Nam":"QFT","Latitude":"50.83280","Longitude":"-74.40390","Snowdepth":"28.661","Units":"in","Rept_Date":"2020-02-22 12"},"coordinates":[5359,9461]},{"type":"Point","properties":{"Station_ID":"PTLQ6","Station_Nam":"PORTAGE LAKE","Latitude":"49.06950","Longitude":"-86.65940","Snowdepth":"28.270","Units":"in","Rept_Date":"2020-02-23 06"},"coordinates":[2483,8400]},{"type":"Point","properties":{"Station_ID":"VT-CL-3","Station_Nam":"GROTON 4.4 WSW, VT","Latitude":"44.19440","Longitude":"-72.28240","Snowdepth":"28.000","Units":"in","Rept_Date":"2020-02-22 11"},"coordinates":[5857,5467]},{"type":"Point","properties":{"Station_ID":"GLDM4","Station_Nam":"GLADSTONE NO. 2","Latitude":"45.84330","Longitude":"-87.03910","Snowdepth":"28.000","Units":"in","Rept_Date":"2020-02-22 12"},"coordinates":[2394,6459]},{"type":"Point","properties":{"Station_ID":"WI-VL-9","Station_Nam":"LAND O' LAKES 11.7 W, WI","Latitude":"46.19023","Longitude":"-89.45790","Snowdepth":"27.000","Units":"in","Rept_Date":"2020-02-22 13"},"coordinates":[1826,6668]},{"type":"Point","properties":{"Station_ID":"STGW3","Station_Nam":"ST GERMAIN","Latitude":"45.91550","Longitude":"-89.48940","Snowdepth":"27.000","Units":"in","Rept_Date":"2020-02-22 12"},"coordinates":[1819,6503]},{"type":"Point","properties":{"Station_ID":"PRDM4","Station_Nam":"PARADISE","Latitude":"46.60380","Longitude":"-85.03960","Snowdepth":"27.000","Units":"in","Rept_Date":"2020-02-22 12"},"coordinates":[2863,6917]},{"type":"Point","properties":{"Station_ID":"ME-FR-2","Station_Nam":"TEMPLE 1.8 W, ME","Latitude":"44.68329","Longitude":"-70.26420","Snowdepth":"27.000","Units":"in","Rept_Date":"2020-02-22 12"},"coordinates":[6331,5761]},{"type":"Point","properties":{"Station_ID":"LNOW3","Station_Nam":"LAND O LAKES","Latitude":"46.19000","Longitude":"-89.45700","Snowdepth":"27.000","Units":"in","Rept_Date":"2020-02-22 13"},"coordinates":[1826,6668]},{"type":"Point","properties":{"Station_ID":"ISLV1","Station_Nam":"ISLAND POND","Latitude":"44.81280","Longitude":"-71.89020","Snowdepth":"27.000","Units":"in","Rept_Date":"2020-02-22 15"},"coordinates":[5949,5839]},{"type":"Point","properties":{"Station_ID":"EVRW3","Station_Nam":"EAGLE RIVER-4 E","Latitude":"45.91890","Longitude":"-89.15280","Snowdepth":"27.000","Units":"in","Rept_Date":"2020-02-22 12"},"coordinates":[1898,6505]},{"type":"Point","properties":{"Station_ID":"EAHV1","Station_Nam":"EAST HAVEN","Latitude":"44.64250","Longitude":"-71.89120","Snowdepth":"27.000","Units":"in","Rept_Date":"2020-02-22 12"},"coordinates":[5949,5737]},{"type":"Point","properties":{"Station_ID":"BERM4","Station_Nam":"BERGLAND DAM","Latitude":"46.58690","Longitude":"-89.54750","Snowdepth":"27.000","Units":"in","Rept_Date":"2020-02-22 13"},"coordinates":[1805,6907]},{"type":"Point","properties":{"Station_ID":"QGA","Station_Nam":"QGA","Latitude":"47.25640","Longitude":"-73.73810","Snowdepth":"26.575","Units":"in","Rept_Date":"2020-02-22 12"},"coordinates":[5515,7309]},{"type":"Point","properties":{"Station_ID":"WI-OC-1","Station_Nam":"MOUNTAIN 1.1 SW, WI","Latitude":"45.17239","Longitude":"-88.48990","Snowdepth":"26.000","Units":"in","Rept_Date":"2020-02-22 13"},"coordinates":[2053,6056]},{"type":"Point","properties":{"Station_ID":"VT-CL-18","Station_Nam":"WHEELOCK 1.6 S, VT","Latitude":"44.56491","Longitude":"-72.08830","Snowdepth":"26.000","Units":"in","Rept_Date":"2020-02-22 12"},"coordinates":[5903,5690]},{"type":"Point","properties":{"Station_ID":"PDGM4","Station_Nam":"PAULDING","Latitude":"46.39760","Longitude":"-89.17940","Snowdepth":"26.000","Units":"in","Rept_Date":"2020-02-22 21"},"coordinates":[1891,6793]},{"type":"Point","properties":{"Station_ID":"NSNM1","Station_Nam":"NEW SHARON","Latitude":"44.63330","Longitude":"-70.00000","Snowdepth":"26.000","Units":"in","Rept_Date":"2020-02-22 12"},"coordinates":[6393,5731]},{"type":"Point","properties":{"Station_ID":"MOUW3","Station_Nam":"MOUNTAIN 1 SW","Latitude":"45.17220","Longitude":"-88.49390","Snowdepth":"26.000","Units":"in","Rept_Date":"2020-02-22 13"},"coordinates":[2052,6055]},{"type":"Point","properties":{"Station_ID":"MN-SL-105","Station_Nam":"DULUTH 11.8 NNE, MN","Latitude":"46.94680","Longitude":"-92.03925","Snowdepth":"26.000","Units":"in","Rept_Date":"2020-02-22 13"},"coordinates":[1220,7123]},{"type":"Point","properties":{"Station_ID":"MI-MQ-19","Station_Nam":"ISHPEMING 7.2 SW, MI","Latitude":"46.40550","Longitude":"-87.75670","Snowdepth":"26.000","Units":"in","Rept_Date":"2020-02-22 11"},"coordinates":[2225,6797]},{"type":"Point","properties":{"Station_ID":"GHMN3","Station_Nam":"PINKHAM NOTCH","Latitude":"44.25800","Longitude":"-71.25250","Snowdepth":"26.000","Units":"in","Rept_Date":"2020-02-22 11"},"coordinates":[6099,5505]},{"type":"Point","properties":{"Station_ID":"CARM1","Station_Nam":"CARIBOU WFO","Latitude":"46.86810","Longitude":"-68.01250","Snowdepth":"26.000","Units":"in","Rept_Date":"2020-02-23 05"},"coordinates":[6859,7076]},{"type":"Point","properties":{"Station_ID":"CAR","Station_Nam":"CARIBOU, ME","Latitude":"46.86830","Longitude":"-68.01360","Snowdepth":"26.000","Units":"in","Rept_Date":"2020-02-22 12"},"coordinates":[6859,7076]},{"type":"Point","properties":{"Station_ID":"AVLV1","Station_Nam":"AVERILL","Latitude":"45.00570","Longitude":"-71.69030","Snowdepth":"26.000","Units":"in","Rept_Date":"2020-02-22 13"},"coordinates":[5996,5955]},{"type":"Point","properties":{"Station_ID":"WI-WB-2","Station_Nam":"STONE LAKE 2.0 NW, WI","Latitude":"45.85960","Longitude":"-91.57710","Snowdepth":"25.500","Units":"in","Rept_Date":"2020-02-22 13"},"coordinates":[1329,6469]},{"type":"Point","properties":{"Station_ID":"VT-OL-1","Station_Nam":"WESTFIELD 0.7 WNW, VT","Latitude":"44.89160","Longitude":"-72.44350","Snowdepth":"25.500","Units":"in","Rept_Date":"2020-02-22 12"},"coordinates":[5819,5887]},{"type":"Point","properties":{"Station_ID":"WRSM5","Station_Nam":"WRENSHALL","Latitude":"46.61550","Longitude":"-92.38380","Snowdepth":"25.000","Units":"in","Rept_Date":"2020-02-22 14"},"coordinates":[1139,6924]},{"type":"Point","properties":{"Station_ID":"VT-ES-1","Station_Nam":"GRANBY 1.4 NW, VT","Latitude":"44.58330","Longitude":"-71.77870","Snowdepth":"25.000","Units":"in","Rept_Date":"2020-02-22 15"},"coordinates":[5975,5701]},{"type":"Point","properties":{"Station_ID":"VT-BN-12","Station_Nam":"STAMFORD 5.0 NNE, VT","Latitude":"42.82000","Longitude":"-73.02000","Snowdepth":"25.000","Units":"in","Rept_Date":"2020-02-22 21"},"coordinates":[5684,4640]},{"type":"Point","properties":{"Station_ID":"VANM1","Station_Nam":"VAN BUREN","Latitude":"47.16600","Longitude":"-67.93900","Snowdepth":"25.000","Units":"in","Rept_Date":"2020-02-22 12"},"coordinates":[6876,7255]},{"type":"Point","properties":{"Station_ID":"SUAW3","Station_Nam":"SUAMICO","Latitude":"44.60190","Longitude":"-88.09780","Snowdepth":"25.000","Units":"in","Rept_Date":"2020-02-22 12"},"coordinates":[2145,5712]},{"type":"Point","properties":{"Station_ID":"MN-SL-143","Station_Nam":"CANYON 4.6 NNE, MN","Latitude":"47.09800","Longitude":"-92.42170","Snowdepth":"25.000","Units":"in","Rept_Date":"2020-02-22 13"},"coordinates":[1130,7214]},{"type":"Point","properties":{"Station_ID":"ME-PN-45","Station_Nam":"MILLINOCKET 2.7 ESE, ME","Latitude":"45.65002","Longitude":"-68.64472","Snowdepth":"25.000","Units":"in","Rept_Date":"2020-02-22 12"},"coordinates":[6711,6343]},{"type":"Point","properties":{"Station_ID":"COKM5","Station_Nam":"COOK","Latitude":"47.85060","Longitude":"-92.69250","Snowdepth":"25.000","Units":"in","Rept_Date":"2020-02-22 12"},"coordinates":[1067,7667]},{"type":"Point","properties":{"Station_ID":"BNDM5","Station_Nam":"ELY 25E","Latitude":"47.97190","Longitude":"-91.44860","Snowdepth":"25.000","Units":"in","Rept_Date":"2020-02-22 13"},"coordinates":[1359,7740]},{"type":"Point","properties":{"Station_ID":"QMD","Station_Nam":"QMD","Latitude":"49.29060","Longitude":"-75.84500","Snowdepth":"24.921","Units":"in","Rept_Date":"2020-02-22 12"},"coordinates":[5021,8533]},{"type":"Point","properties":{"Station_ID":"SVBQ6","Station_Nam":"SAVANT BASE","Latitude":"50.28730","Longitude":"-90.65670","Snowdepth":"24.530","Units":"in","Rept_Date":"2020-02-23 06"},"coordinates":[1545,9133]},{"type":"Point","properties":{"Station_ID":"MN-IT-17","Station_Nam":"GRAND RAPIDS 6.1 N, MN","Latitude":"47.31165","Longitude":"-93.55036","Snowdepth":"24.500","Units":"in","Rept_Date":"2020-02-22 13"},"coordinates":[866,7343]},{"type":"Point","properties":{"Station_ID":"MI-HG-1","Station_Nam":"HOUGHTON 1.6 ESE, MI","Latitude":"47.10774","Longitude":"-88.52940","Snowdepth":"24.500","Units":"in","Rept_Date":"2020-02-22 13"},"coordinates":[2044,7220]},{"type":"Point","properties":{"Station_ID":"VT-WS-7","Station_Nam":"MIDDLESEX 3.1 ENE, VT","Latitude":"44.31799","Longitude":"-72.62650","Snowdepth":"24.000","Units":"in","Rept_Date":"2020-02-22 13"},"coordinates":[5776,5542]},{"type":"Point","properties":{"Station_ID":"RGNM1","Station_Nam":"RANGELEY 2NW","Latitude":"44.98940","Longitude":"-70.67220","Snowdepth":"24.000","Units":"in","Rept_Date":"2020-02-22 14"},"coordinates":[6235,5945]},{"type":"Point","properties":{"Station_ID":"RANM1","Station_Nam":"RANGELEY","Latitude":"44.98910","Longitude":"-70.67190","Snowdepth":"24.000","Units":"in","Rept_Date":"2020-02-22 14"},"coordinates":[6235,5945]},{"type":"Point","properties":{"Station_ID":"NH-CR-11","Station_Nam":"NORTH CONWAY 1.4 SSW, NH","Latitude":"44.03556","Longitude":"-71.14010","Snowdepth":"24.000","Units":"in","Rept_Date":"2020-02-22 12"},"coordinates":[6125,5372]},{"type":"Point","properties":{"Station_ID":"MN-SL-15","Station_Nam":"CHISHOLM 0.4 WSW, MN","Latitude":"47.48557","Longitude":"-92.88690","Snowdepth":"24.000","Units":"in","Rept_Date":"2020-02-22 13"},"coordinates":[1021,7447]},{"type":"Point","properties":{"Station_ID":"MN-SL-108","Station_Nam":"IRON JUNCTION 3.4 NNW, MN","Latitude":"47.46150","Longitude":"-92.63130","Snowdepth":"24.000","Units":"in","Rept_Date":"2020-02-22 13"},"coordinates":[1081,7433]},{"type":"Point","properties":{"Station_ID":"MN-IT-23","Station_Nam":"BOVEY 13.4 N, MN","Latitude":"47.48855","Longitude":"-93.43497","Snowdepth":"24.000","Units":"in","Rept_Date":"2020-02-22 13"},"coordinates":[893,7449]},{"type":"Point","properties":{"Station_ID":"MN-CK-6","Station_Nam":"GRAND MARAIS 4.4 W, MN","Latitude":"47.74865","Longitude":"-90.43760","Snowdepth":"24.000","Units":"in","Rept_Date":"2020-02-22 13"},"coordinates":[1596,7606]},{"type":"Point","properties":{"Station_ID":"MN-CK-18","Station_Nam":"GRAND MARAIS 4.4 WSW, MN","Latitude":"47.74462","Longitude":"-90.43796","Snowdepth":"24.000","Units":"in","Rept_Date":"2020-02-22 13"},"coordinates":[1596,7603]},{"type":"Point","properties":{"Station_ID":"MAIW3","Station_Nam":"MADELINE ISLAND","Latitude":"46.78330","Longitude":"-90.76670","Snowdepth":"24.000","Units":"in","Rept_Date":"2020-02-22 15"},"coordinates":[1519,7025]},{"type":"Point","properties":{"Station_ID":"LBKV1","Station_Nam":"LYE BROOK","Latitude":"43.05000","Longitude":"-73.03330","Snowdepth":"24.000","Units":"in","Rept_Date":"2020-02-23 06"},"coordinates":[5681,4779]},{"type":"Point","properties":{"Station_ID":"GGRM4","Station_Nam":"GREEN GARDEN NO.2","Latitude":"46.45330","Longitude":"-87.30380","Snowdepth":"24.000","Units":"in","Rept_Date":"2020-02-22 12"},"coordinates":[2332,6826]},{"type":"Point","properties":{"Station_ID":"CORV1","Station_Nam":"CORINTH","Latitude":"44.00690","Longitude":"-72.31940","Snowdepth":"24.000","Units":"in","Rept_Date":"2020-02-22 12"},"coordinates":[5848,5354]},{"type":"Point","properties":{"Station_ID":"CAN-NS-60","Station_Nam":"SYDNEY FORKS, CAN","Latitude":"46.05645","Longitude":"-60.31510","Snowdepth":"24.000","Units":"in","Rept_Date":"2020-02-22 13"},"coordinates":[8666,6587]},{"type":"Point","properties":{"Station_ID":"TRIQ6","Station_Nam":"TRIO LAKE","Latitude":"49.22880","Longitude":"-87.22920","Snowdepth":"23.980","Units":"in","Rept_Date":"2020-02-23 06"},"coordinates":[2349,8496]},{"type":"Point","properties":{"Station_ID":"NY-HR-18","Station_Nam":"SALISBURY CENTER 1.8 NW, NY","Latitude":"43.16260","Longitude":"-74.80880","Snowdepth":"23.800","Units":"in","Rept_Date":"2020-02-22 11"},"coordinates":[5264,4846]},{"type":"Point","properties":{"Station_ID":"CAN-PE-19","Station_Nam":"CHARLOTTETOWN 6.5 NNW, CAN","Latitude":"46.29235","Longitude":"-63.17271","Snowdepth":"23.600","Units":"in","Rept_Date":"2020-02-22 12"},"coordinates":[7995,6729]},{"type":"Point","properties":{"Station_ID":"VT-BN-3","Station_Nam":"LANDGROVE 1.1 NNE, VT","Latitude":"43.29092","Longitude":"-72.83260","Snowdepth":"23.000","Units":"in","Rept_Date":"2020-02-22 11"},"coordinates":[5728,4924]},{"type":"Point","properties":{"Station_ID":"PTBN3","Station_Nam":"PITTSBURG RESERVOIR","Latitude":"45.04690","Longitude":"-71.38300","Snowdepth":"23.000","Units":"in","Rept_Date":"2020-02-22 12"},"coordinates":[6068,5980]},{"type":"Point","properties":{"Station_ID":"NH-CR-26","Station_Nam":"CENTER SANDWICH 4.9 E, NH","Latitude":"43.80976","Longitude":"-71.34150","Snowdepth":"23.000","Units":"in","Rept_Date":"2020-02-22 12"},"coordinates":[6078,5236]},{"type":"Point","properties":{"Station_ID":"LPLN6","Station_Nam":"LAKE PLACID 2 S","Latitude":"44.30420","Longitude":"-73.98390","Snowdepth":"23.000","Units":"in","Rept_Date":"2020-02-22 13"},"coordinates":[5458,5533]},{"type":"Point","properties":{"Station_ID":"LNCM1","Station_Nam":"LINCOLN WATER DISTRICT","Latitude":"45.32410","Longitude":"-68.58300","Snowdepth":"23.000","Units":"in","Rept_Date":"2020-02-22 12"},"coordinates":[6725,6147]},{"type":"Point","properties":{"Station_ID":"IRMM4","Station_Nam":"WWTP","Latitude":"46.46670","Longitude":"-90.18330","Snowdepth":"23.000","Units":"in","Rept_Date":"2020-02-22 13"},"coordinates":[1656,6834]},{"type":"Point","properties":{"Station_ID":"ESDN3","Station_Nam":"EAST SANDWICH","Latitude":"43.80990","Longitude":"-71.34250","Snowdepth":"23.000","Units":"in","Rept_Date":"2020-02-22 11"},"coordinates":[6078,5236]},{"type":"Point","properties":{"Station_ID":"EGRW3","Station_Nam":"EAGLE RIVER-SOUTH","Latitude":"45.91360","Longitude":"-89.24360","Snowdepth":"23.000","Units":"in","Rept_Date":"2020-02-22 13"},"coordinates":[1876,6502]},{"type":"Point","properties":{"Station_ID":"DLHM5","Station_Nam":"DULUTH NWS","Latitude":"46.83680","Longitude":"-92.21080","Snowdepth":"23.000","Units":"in","Rept_Date":"2020-02-23 06"},"coordinates":[1180,7057]},{"type":"Point","properties":{"Station_ID":"DLH","Station_Nam":"DULUTH, MN","Latitude":"46.83690","Longitude":"-92.21030","Snowdepth":"23.000","Units":"in","Rept_Date":"2020-02-23 00"},"coordinates":[1180,7057]},{"type":"Point","properties":{"Station_ID":"BRDM1","Station_Nam":"BRIDGEWATER","Latitude":"46.42870","Longitude":"-67.84370","Snowdepth":"23.000","Units":"in","Rept_Date":"2020-02-22 23"},"coordinates":[6899,6811]},{"type":"Point","properties":{"Station_ID":"BBEM4","Station_Nam":"BIG BAY 9SW","Latitude":"46.74620","Longitude":"-87.88160","Snowdepth":"23.000","Units":"in","Rept_Date":"2020-02-22 13"},"coordinates":[2196,7002]},{"type":"Point","properties":{"Station_ID":"AURW3","Station_Nam":"AURORA","Latitude":"45.77000","Longitude":"-88.11810","Snowdepth":"23.000","Units":"in","Rept_Date":"2020-02-22 13"},"coordinates":[2141,6415]},{"type":"Point","properties":{"Station_ID":"KABQ6","Station_Nam":"CAB LAKE","Latitude":"49.59950","Longitude":"-89.17990","Snowdepth":"22.480","Units":"in","Rept_Date":"2020-02-23 06"},"coordinates":[1891,8719]},{"type":"Point","properties":{"Station_ID":"QTV","Station_Nam":"QTV","Latitude":"49.66000","Longitude":"-69.35690","Snowdepth":"22.205","Units":"in","Rept_Date":"2020-02-22 12"},"coordinates":[6544,8755]},{"type":"Point","properties":{"Station_ID":"WTRM4","Station_Nam":"WATERSMEET 12WSW","Latitude":"46.22310","Longitude":"-89.40850","Snowdepth":"22.000","Units":"in","Rept_Date":"2020-02-22 12"},"coordinates":[1838,6688]},{"type":"Point","properties":{"Station_ID":"TOHM5","Station_Nam":"TWO HARBORS WWTP","Latitude":"47.01760","Longitude":"-91.66480","Snowdepth":"22.000","Units":"in","Rept_Date":"2020-02-22 13"},"coordinates":[1308,7166]},{"type":"Point","properties":{"Station_ID":"TOGM5","Station_Nam":"CELINA 2E","Latitude":"47.86630","Longitude":"-93.02660","Snowdepth":"22.000","Units":"in","Rept_Date":"2020-02-22 14"},"coordinates":[989,7676]},{"type":"Point","properties":{"Station_ID":"RSTW3","Station_Nam":"ROSHOLT","Latitude":"44.62710","Longitude":"-89.30600","Snowdepth":"22.000","Units":"in","Rept_Date":"2020-02-22 16"},"coordinates":[1862,5728]},{"type":"Point","properties":{"Station_ID":"RHIW3","Station_Nam":"RHINELANDER","Latitude":"45.59860","Longitude":"-89.45080","Snowdepth":"22.000","Units":"in","Rept_Date":"2020-02-22 13"},"coordinates":[1828,6312]},{"type":"Point","properties":{"Station_ID":"NH-CR-15","Station_Nam":"JACKSON 3.7 NW, NH","Latitude":"44.19069","Longitude":"-71.22598","Snowdepth":"22.000","Units":"in","Rept_Date":"2020-02-22 12"},"coordinates":[6105,5465]},{"type":"Point","properties":{"Station_ID":"MI-OT-17","Station_Nam":"GAYLORD 4.1 S, MI","Latitude":"44.96388","Longitude":"-84.68467","Snowdepth":"22.000","Units":"in","Rept_Date":"2020-02-22 12"},"coordinates":[2946,5930]},{"type":"Point","properties":{"Station_ID":"KINM1","Station_Nam":"KINGFIELD","Latitude":"44.95950","Longitude":"-70.17530","Snowdepth":"22.000","Units":"in","Rept_Date":"2020-02-22 13"},"coordinates":[6352,5927]},{"type":"Point","properties":{"Station_ID":"INDN6","Station_Nam":"INDIAN LAKE","Latitude":"43.75500","Longitude":"-74.27560","Snowdepth":"22.000","Units":"in","Rept_Date":"2020-02-22 13"},"coordinates":[5389,5203]},{"type":"Point","properties":{"Station_ID":"CSLM5","Station_Nam":"CASS LAKE,MN","Latitude":"47.38470","Longitude":"-94.61470","Snowdepth":"22.000","Units":"in","Rept_Date":"2020-02-22 14"},"coordinates":[616,7387]},{"type":"Point","properties":{"Station_ID":"CAN-NB-2","Station_Nam":"GRAFTON 2.7 NNE, CA","Latitude":"46.17062","Longitude":"-67.55330","Snowdepth":"22.000","Units":"in","Rept_Date":"2020-02-22 10"},"coordinates":[6967,6656]},{"type":"Point","properties":{"Station_ID":"ASTW3","Station_Nam":"ATHELSTANE","Latitude":"45.42500","Longitude":"-88.05750","Snowdepth":"22.000","Units":"in","Rept_Date":"2020-02-22 12"},"coordinates":[2155,6208]},{"type":"Point","properties":{"Station_ID":"QCX","Station_Nam":"QCX","Latitude":"51.32830","Longitude":"-70.08060","Snowdepth":"21.968","Units":"in","Rept_Date":"2020-02-22 12"},"coordinates":[6374,9759]},{"type":"Point","properties":{"Station_ID":"CAN-NS-94","Station_Nam":"MARGAREE FORKS 2.6 SSE CBN, CAN","Latitude":"46.30937","Longitude":"-61.07603","Snowdepth":"21.700","Units":"in","Rept_Date":"2020-02-22 13"},"coordinates":[8487,6740]},{"type":"Point","properties":{"Station_ID":"QMA","Station_Nam":"QMA","Latitude":"50.10330","Longitude":"-70.47190","Snowdepth":"21.535","Units":"in","Rept_Date":"2020-02-22 12"},"coordinates":[6282,9022]},{"type":"Point","properties":{"Station_ID":"VT-OL-9","Station_Nam":"GREENSBORO 2.1 NNW, VT","Latitude":"44.60528","Longitude":"-72.30940","Snowdepth":"21.500","Units":"in","Rept_Date":"2020-02-22 12"},"coordinates":[5851,5714]},{"type":"Point","properties":{"Station_ID":"WI-BY-2","Station_Nam":"MELLEN 18.6 SW, WI","Latitude":"46.16937","Longitude":"-90.98090","Snowdepth":"21.000","Units":"in","Rept_Date":"2020-02-22 13"},"coordinates":[1469,6655]},{"type":"Point","properties":{"Station_ID":"SULW3","Station_Nam":"SUMMIT LAKE","Latitude":"45.37880","Longitude":"-89.19410","Snowdepth":"21.000","Units":"in","Rept_Date":"2020-02-22 17"},"coordinates":[1888,6180]},{"type":"Point","properties":{"Station_ID":"RHLW3","Station_Nam":"RHINELANDER 4NE","Latitude":"45.65270","Longitude":"-89.30740","Snowdepth":"21.000","Units":"in","Rept_Date":"2020-02-22 12"},"coordinates":[1861,6345]},{"type":"Point","properties":{"Station_ID":"NY-OD-2","Station_Nam":"POINT ROCK 0.6 SE, NY","Latitude":"43.37335","Longitude":"-75.53840","Snowdepth":"21.000","Units":"in","Rept_Date":"2020-02-22 12"},"coordinates":[5093,4973]},{"type":"Point","properties":{"Station_ID":"NCON3","Station_Nam":"NORTH CONWAY","Latitude":"44.05620","Longitude":"-71.12970","Snowdepth":"21.000","Units":"in","Rept_Date":"2020-02-22 12"},"coordinates":[6128,5384]},{"type":"Point","properties":{"Station_ID":"MN-IT-11","Station_Nam":"NASHWAUK 11.5 N, MN","Latitude":"47.54496","Longitude":"-93.19420","Snowdepth":"21.000","Units":"in","Rept_Date":"2020-02-22 13"},"coordinates":[949,7483]},{"type":"Point","properties":{"Station_ID":"MN-IT-1","Station_Nam":"GRAND RAPIDS 2.0 E, MN","Latitude":"47.22266","Longitude":"-93.49600","Snowdepth":"21.000","Units":"in","Rept_Date":"2020-02-22 14"},"coordinates":[878,7289]},{"type":"Point","properties":{"Station_ID":"KABM5","Station_Nam":"KABETOGAMA LAKE VISITOR CTR","Latitude":"48.40880","Longitude":"-93.04840","Snowdepth":"21.000","Units":"in","Rept_Date":"2020-02-22 13"},"coordinates":[983,8003]},{"type":"Point","properties":{"Station_ID":"FARM1","Station_Nam":"FARMINGTON","Latitude":"44.68930","Longitude":"-70.15640","Snowdepth":"21.000","Units":"in","Rept_Date":"2020-02-22 12"},"coordinates":[6356,5765]},{"type":"Point","properties":{"Station_ID":"ESGM1","Station_Nam":"EAST SANGERVILLE","Latitude":"45.13690","Longitude":"-69.28060","Snowdepth":"21.000","Units":"in","Rept_Date":"2020-02-22 12"},"coordinates":[6562,6034]},{"type":"Point","properties":{"Station_ID":"ELYM5","Station_Nam":"ELY","Latitude":"47.90560","Longitude":"-91.82830","Snowdepth":"21.000","Units":"in","Rept_Date":"2020-02-22 14"},"coordinates":[1270,7700]},{"type":"Point","properties":{"Station_ID":"CMKW3","Station_Nam":"CLAM LAKE 4W","Latitude":"46.16940","Longitude":"-90.98080","Snowdepth":"21.000","Units":"in","Rept_Date":"2020-02-22 13"},"coordinates":[1469,6655]},{"type":"Point","properties":{"Station_ID":"AVTW3","Station_Nam":"ARBOR VITAE-JOHNSON LAKE","Latitude":"45.89940","Longitude":"-89.72670","Snowdepth":"21.000","Units":"in","Rept_Date":"2020-02-22 12"},"coordinates":[1763,6493]},{"type":"Point","properties":{"Station_ID":"AUW","Station_Nam":"WAUSAU MUNICIPAL AIRPORT","Latitude":"44.92580","Longitude":"-89.62560","Snowdepth":"21.000","Units":"in","Rept_Date":"2020-02-22 12"},"coordinates":[1787,5907]},{"type":"Point","properties":{"Station_ID":"AGNW3","Station_Nam":"ARGONNE-1.5 NW","Latitude":"45.67360","Longitude":"-88.90380","Snowdepth":"21.000","Units":"in","Rept_Date":"2020-02-22 13"},"coordinates":[1956,6357]},{"type":"Point","properties":{"Station_ID":"QLP","Station_Nam":"QLP","Latitude":"48.13920","Longitude":"-72.63830","Snowdepth":"20.433","Units":"in","Rept_Date":"2020-02-22 12"},"coordinates":[5774,7841]},{"type":"Point","properties":{"Station_ID":"QYR","Station_Nam":"QYR","Latitude":"48.87220","Longitude":"-75.61470","Snowdepth":"20.315","Units":"in","Rept_Date":"2020-02-22 12"},"coordinates":[5075,8282]},{"type":"Point","properties":{"Station_ID":"SOCQ6","Station_Nam":"SOCKET LAKE","Latitude":"50.77870","Longitude":"-91.79300","Snowdepth":"20.200","Units":"in","Rept_Date":"2020-02-23 06"},"coordinates":[1278,9429]},{"type":"Point","properties":{"Station_ID":"WTRW3","Station_Nam":"WINTER","Latitude":"45.79920","Longitude":"-90.99470","Snowdepth":"20.000","Units":"in","Rept_Date":"2020-02-22 15"},"coordinates":[1465,6433]},{"type":"Point","properties":{"Station_ID":"WLKW3","Station_Nam":"WHITE LAKE 1 SE","Latitude":"45.14520","Longitude":"-88.74160","Snowdepth":"20.000","Units":"in","Rept_Date":"2020-02-22 14"},"coordinates":[1994,6039]},{"type":"Point","properties":{"Station_ID":"WI-AS-4","Station_Nam":"ASHLAND 0.5 WNW, WI","Latitude":"46.58240","Longitude":"-90.88390","Snowdepth":"20.000","Units":"in","Rept_Date":"2020-02-22 13"},"coordinates":[1491,6904]},{"type":"Point","properties":{"Station_ID":"VT-WS-30","Station_Nam":"WOODBURY 3.4 NNW, VT","Latitude":"44.48825","Longitude":"-72.43258","Snowdepth":"20.000","Units":"in","Rept_Date":"2020-02-22 12"},"coordinates":[5822,5644]},{"type":"Point","properties":{"Station_ID":"VT-OL-2","Station_Nam":"BARTON 3.0 ENE, VT","Latitude":"44.75863","Longitude":"-72.11680","Snowdepth":"20.000","Units":"in","Rept_Date":"2020-02-22 12"},"coordinates":[5896,5807]},{"type":"Point","properties":{"Station_ID":"TMWN3","Station_Nam":"TAMWORTH 4","Latitude":"43.86390","Longitude":"-71.26610","Snowdepth":"20.000","Units":"in","Rept_Date":"2020-02-22 12"},"coordinates":[6096,5268]},{"type":"Point","properties":{"Station_ID":"SSMM4","Station_Nam":"SAULT STE MARIE","Latitude":"46.48660","Longitude":"-84.40250","Snowdepth":"20.000","Units":"in","Rept_Date":"2020-02-22 13"},"coordinates":[3013,6846]},{"type":"Point","properties":{"Station_ID":"PEKN6","Station_Nam":"PECK LAKE","Latitude":"43.11500","Longitude":"-74.42360","Snowdepth":"20.000","Units":"in","Rept_Date":"2020-02-22 12"},"coordinates":[5355,4818]},{"type":"Point","properties":{"Station_ID":"NY-FK-9","Station_Nam":"GABRIELS 1.3 SE, NY","Latitude":"44.41934","Longitude":"-74.16194","Snowdepth":"20.000","Units":"in","Rept_Date":"2020-02-22 12"},"coordinates":[5416,5603]},{"type":"Point","properties":{"Station_ID":"NY-ES-6","Station_Nam":"OLMSTEDVILLE 4.6 NNE, NY","Latitude":"43.83350","Longitude":"-73.89780","Snowdepth":"20.000","Units":"in","Rept_Date":"2020-02-22 13"},"coordinates":[5478,5250]},{"type":"Point","properties":{"Station_ID":"NH-CR-27","Station_Nam":"TAMWORTH 0.4 NNW, NH","Latitude":"43.86449","Longitude":"-71.26610","Snowdepth":"20.000","Units":"in","Rept_Date":"2020-02-22 12"},"coordinates":[6096,5269]},{"type":"Point","properties":{"Station_ID":"MTQM4","Station_Nam":"MANISTIQUE WWTP","Latitude":"45.95120","Longitude":"-86.25130","Snowdepth":"20.000","Units":"in","Rept_Date":"2020-02-22 12"},"coordinates":[2579,6524]},{"type":"Point","properties":{"Station_ID":"MRAM4","Station_Nam":"MORAN","Latitude":"45.99030","Longitude":"-84.83610","Snowdepth":"20.000","Units":"in","Rept_Date":"2020-02-22 13"},"coordinates":[2911,6548]},{"type":"Point","properties":{"Station_ID":"MN-BK-6","Station_Nam":"LAKE PARK 6.0 S, MN","Latitude":"46.79850","Longitude":"-96.12180","Snowdepth":"20.000","Units":"in","Rept_Date":"2020-02-22 13"},"coordinates":[262,7034]},{"type":"Point","properties":{"Station_ID":"ME-CM-98","Station_Nam":"SEBAGO 2.4 ESE, ME","Latitude":"43.88000","Longitude":"-70.63000","Snowdepth":"20.000","Units":"in","Rept_Date":"2020-02-22 18"},"coordinates":[6245,5278]},{"type":"Point","properties":{"Station_ID":"LILM1","Station_Nam":"LILLE","Latitude":"47.27770","Longitude":"-68.10520","Snowdepth":"20.000","Units":"in","Rept_Date":"2020-02-22 12"},"coordinates":[6837,7322]},{"type":"Point","properties":{"Station_ID":"LEIM5","Station_Nam":"ORR 3E","Latitude":"48.05810","Longitude":"-92.75220","Snowdepth":"20.000","Units":"in","Rept_Date":"2020-02-22 12"},"coordinates":[1053,7792]},{"type":"Point","properties":{"Station_ID":"EMBM5","Station_Nam":"EMBARASS,MN","Latitude":"47.65810","Longitude":"-92.19580","Snowdepth":"20.000","Units":"in","Rept_Date":"2020-02-22 14"},"coordinates":[1184,7551]},{"type":"Point","properties":{"Station_ID":"COUW3","Station_Nam":"COUDERAY,WI","Latitude":"45.86670","Longitude":"-91.45000","Snowdepth":"20.000","Units":"in","Rept_Date":"2020-02-22 22"},"coordinates":[1359,6473]},{"type":"Point","properties":{"Station_ID":"CLKM4","Station_Nam":"CLARKSBURG","Latitude":"46.49910","Longitude":"-87.84500","Snowdepth":"20.000","Units":"in","Rept_Date":"2020-02-22 12"},"coordinates":[2205,6854]},{"type":"Point","properties":{"Station_ID":"CAN-NS-103","Station_Nam":"TRAFALGAR 4.9 WSW, CAN","Latitude":"45.26217","Longitude":"-62.72285","Snowdepth":"20.000","Units":"in","Rept_Date":"2020-02-22 11"},"coordinates":[8101,6110]},{"type":"Point","properties":{"Station_ID":"AWXW3","Station_Nam":"ASHLAND","Latitude":"46.58240","Longitude":"-90.88390","Snowdepth":"20.000","Units":"in","Rept_Date":"2020-02-22 13"},"coordinates":[1491,6904]},{"type":"Point","properties":{"Station_ID":"AROM4","Station_Nam":"ARNOLD,MI","Latitude":"46.06670","Longitude":"-87.48330","Snowdepth":"20.000","Units":"in","Rept_Date":"2020-02-22 14"},"coordinates":[2290,6594]},{"type":"Point","properties":{"Station_ID":"ANJM4","Station_Nam":"SNOW PAID OBSERVER FOR KANJ","Latitude":"46.48670","Longitude":"-84.40260","Snowdepth":"20.000","Units":"in","Rept_Date":"2020-02-22 12"},"coordinates":[3013,6846]},{"type":"Point","properties":{"Station_ID":"ANJ","Station_Nam":"SAULT STE MARIE","Latitude":"46.46670","Longitude":"-84.36670","Snowdepth":"20.000","Units":"in","Rept_Date":"2020-02-23 00"},"coordinates":[3021,6834]},{"type":"Point","properties":{"Station_ID":"VT-ES-3","Station_Nam":"LUNENBURG 2.3 NNW, VT","Latitude":"44.49324","Longitude":"-71.70446","Snowdepth":"19.500","Units":"in","Rept_Date":"2020-02-22 09"},"coordinates":[5993,5647]},{"type":"Point","properties":{"Station_ID":"NH-GR-49","Station_Nam":"PLYMOUTH 3.7 N, NH","Latitude":"43.79048","Longitude":"-71.68413","Snowdepth":"19.500","Units":"in","Rept_Date":"2020-02-22 12"},"coordinates":[5997,5224]},{"type":"Point","properties":{"Station_ID":"CAN-NB-13","Station_Nam":"BATHURST 3.8 NW, CAN","Latitude":"47.64212","Longitude":"-65.68756","Snowdepth":"19.500","Units":"in","Rept_Date":"2020-02-22 11"},"coordinates":[7405,7541]},{"type":"Point","properties":{"Station_ID":"QLM","Station_Nam":"QLM","Latitude":"48.92030","Longitude":"-70.25280","Snowdepth":"19.409","Units":"in","Rept_Date":"2020-02-22 12"},"coordinates":[6333,8310]},{"type":"Point","properties":{"Station_ID":"QTM","Station_Nam":"QTM","Latitude":"51.05780","Longitude":"-72.57190","Snowdepth":"19.331","Units":"in","Rept_Date":"2020-02-22 12"},"coordinates":[5789,9596]},{"type":"Point","properties":{"Station_ID":"ZNOM4","Station_Nam":"NORWAY","Latitude":"45.77810","Longitude":"-87.89560","Snowdepth":"19.000","Units":"in","Rept_Date":"2020-02-23 01"},"coordinates":[2193,6420]},{"type":"Point","properties":{"Station_ID":"WTNM4","Station_Nam":"WATTON 2WSW","Latitude":"46.52660","Longitude":"-88.64240","Snowdepth":"19.000","Units":"in","Rept_Date":"2020-02-22 13"},"coordinates":[2017,6870]},{"type":"Point","properties":{"Station_ID":"WI-RS-1","Station_Nam":"LADYSMITH 2.8 WNW, WI","Latitude":"45.48180","Longitude":"-91.14680","Snowdepth":"19.000","Units":"in","Rept_Date":"2020-02-22 13"},"coordinates":[1430,6242]},{"type":"Point","properties":{"Station_ID":"WI-ON-6","Station_Nam":"RHINELANDER 5.2 N, WI","Latitude":"45.71388","Longitude":"-89.42150","Snowdepth":"19.000","Units":"in","Rept_Date":"2020-02-22 14"},"coordinates":[1835,6381]},{"type":"Point","properties":{"Station_ID":"WASW3","Station_Nam":"WASHINGTON IS","Latitude":"45.35800","Longitude":"-86.89110","Snowdepth":"19.000","Units":"in","Rept_Date":"2020-02-22 13"},"coordinates":[2428,6167]},{"type":"Point","properties":{"Station_ID":"TAKW3","Station_Nam":"RICE RESERVOIR NO. 2","Latitude":"45.53770","Longitude":"-89.73220","Snowdepth":"19.000","Units":"in","Rept_Date":"2020-02-22 13"},"coordinates":[1762,6275]},{"type":"Point","properties":{"Station_ID":"SHIW3","Station_Nam":"SHIOCTON","Latitude":"44.43890","Longitude":"-88.58390","Snowdepth":"19.000","Units":"in","Rept_Date":"2020-02-22 13"},"coordinates":[2031,5614]},{"type":"Point","properties":{"Station_ID":"RRVM4","Station_Nam":"RAPID RIVER 9S","Latitude":"45.78750","Longitude":"-86.93920","Snowdepth":"19.000","Units":"in","Rept_Date":"2020-02-22 16"},"coordinates":[2417,6426]},{"type":"Point","properties":{"Station_ID":"NYMM5","Station_Nam":"NEW YORK MILLS","Latitude":"46.50920","Longitude":"-95.37990","Snowdepth":"19.000","Units":"in","Rept_Date":"2020-02-22 13"},"coordinates":[436,6860]},{"type":"Point","properties":{"Station_ID":"NH-CS-7","Station_Nam":"LANCASTER 0.5 N, NH","Latitude":"44.49611","Longitude":"-71.57640","Snowdepth":"19.000","Units":"in","Rept_Date":"2020-02-22 12"},"coordinates":[6023,5649]},{"type":"Point","properties":{"Station_ID":"ME-FR-4","Station_Nam":"NEW SHARON 2.0 NW, ME","Latitude":"44.66582","Longitude":"-70.02720","Snowdepth":"19.000","Units":"in","Rept_Date":"2020-02-22 12"},"coordinates":[6386,5751]},{"type":"Point","properties":{"Station_ID":"INL","Station_Nam":"FALLS INTERNATIONAL ARPT","Latitude":"48.56640","Longitude":"-93.40310","Snowdepth":"19.000","Units":"in","Rept_Date":"2020-02-23 00"},"coordinates":[900,8098]},{"type":"Point","properties":{"Station_ID":"IFSM5","Station_Nam":"INTERNATIONAL FALLS SNOW","Latitude":"48.57780","Longitude":"-93.39640","Snowdepth":"19.000","Units":"in","Rept_Date":"2020-02-22 12"},"coordinates":[902,8104]},{"type":"Point","properties":{"Station_ID":"BREW3","Station_Nam":"SURING","Latitude":"44.99580","Longitude":"-88.37860","Snowdepth":"19.000","Units":"in","Rept_Date":"2020-02-22 13"},"coordinates":[2079,5949]},{"type":"Point","properties":{"Station_ID":"BETM1","Station_Nam":"BETHEL 6 SSE","Latitude":"44.32000","Longitude":"-70.75680","Snowdepth":"19.000","Units":"in","Rept_Date":"2020-02-22 12"},"coordinates":[6215,5543]},{"type":"Point","properties":{"Station_ID":"ATY","Station_Nam":"WATERTOWN MUNICIPAL AIRPORT","Latitude":"44.91420","Longitude":"-97.15440","Snowdepth":"19.000","Units":"in","Rept_Date":"2020-02-22 12"},"coordinates":[20,5900]},{"type":"Point","properties":{"Station_ID":"QIQ","Station_Nam":"QIQ","Latitude":"49.82390","Longitude":"-68.54310","Snowdepth":"18.976","Units":"in","Rept_Date":"2020-02-22 12"},"coordinates":[6735,8854]},{"type":"Point","properties":{"Station_ID":"QLI","Station_Nam":"QLI","Latitude":"50.27080","Longitude":"-73.92280","Snowdepth":"18.937","Units":"in","Rept_Date":"2020-02-22 12"},"coordinates":[5472,9123]},{"type":"Point","properties":{"Station_ID":"CAN-QC-51","Station_Nam":"BELOEIL 0.7 NW, CAN","Latitude":"45.58049","Longitude":"-73.21218","Snowdepth":"18.900","Units":"in","Rept_Date":"2020-02-22 12"},"coordinates":[5639,6301]},{"type":"Point","properties":{"Station_ID":"VT-OL-5","Station_Nam":"DERBY CENTER 1.8 NW, VT","Latitude":"44.97200","Longitude":"-72.14780","Snowdepth":"18.500","Units":"in","Rept_Date":"2020-02-22 12"},"coordinates":[5889,5935]},{"type":"Point","properties":{"Station_ID":"MI-CX-7","Station_Nam":"EAST JORDAN 2.1 NNW, MI","Latitude":"45.18639","Longitude":"-85.14750","Snowdepth":"18.500","Units":"in","Rept_Date":"2020-02-22 13"},"coordinates":[2838,6064]},{"type":"Point","properties":{"Station_ID":"QCO","Station_Nam":"QCO","Latitude":"51.45280","Longitude":"-72.20110","Snowdepth":"18.386","Units":"in","Rept_Date":"2020-02-22 12"},"coordinates":[5876,9834]},{"type":"Point","properties":{"Station_ID":"WSFW3","Station_Nam":"TOWN OF WESTFORD","Latitude":"43.47190","Longitude":"-88.88250","Snowdepth":"18.000","Units":"in","Rept_Date":"2020-02-22 12"},"coordinates":[1961,5033]},{"type":"Point","properties":{"Station_ID":"WORV1","Station_Nam":"WORCESTER 2 W","Latitude":"44.37470","Longitude":"-72.58220","Snowdepth":"18.000","Units":"in","Rept_Date":"2020-02-22 12"},"coordinates":[5787,5576]},{"type":"Point","properties":{"Station_ID":"WI-LN-2","Station_Nam":"MERRILL 7.0 W, WI","Latitude":"45.17746","Longitude":"-89.84820","Snowdepth":"18.000","Units":"in","Rept_Date":"2020-02-22 12"},"coordinates":[1734,6059]},{"type":"Point","properties":{"Station_ID":"WI-DD-16","Station_Nam":"BEAVER DAM 2.4 WNW, WI","Latitude":"43.47210","Longitude":"-88.88280","Snowdepth":"18.000","Units":"in","Rept_Date":"2020-02-22 13"},"coordinates":[1961,5033]},{"type":"Point","properties":{"Station_ID":"WI-BY-1","Station_Nam":"BAYFIELD 8.8 N, WI","Latitude":"46.93855","Longitude":"-90.83490","Snowdepth":"18.000","Units":"in","Rept_Date":"2020-02-22 13"},"coordinates":[1503,7118]},{"type":"Point","properties":{"Station_ID":"VT-WS-33","Station_Nam":"WAITSFIELD 3.5 WNW, VT","Latitude":"44.20052","Longitude":"-72.89421","Snowdepth":"18.000","Units":"in","Rept_Date":"2020-02-22 13"},"coordinates":[5713,5471]},{"type":"Point","properties":{"Station_ID":"VT-WS-10","Station_Nam":"NORTHFIELD 1.5 N, VT","Latitude":"44.16986","Longitude":"-72.65200","Snowdepth":"18.000","Units":"in","Rept_Date":"2020-02-22 12"},"coordinates":[5770,5452]},{"type":"Point","properties":{"Station_ID":"STMM4","Station_Nam":"STAMBAUGH 2SSE","Latitude":"46.05550","Longitude":"-88.62780","Snowdepth":"18.000","Units":"in","Rept_Date":"2020-02-22 13"},"coordinates":[2021,6587]},{"type":"Point","properties":{"Station_ID":"SAUW3","Station_Nam":"WAUSAU WSAW TV","Latitude":"44.94630","Longitude":"-89.62220","Snowdepth":"18.000","Units":"in","Rept_Date":"2020-02-23 05"},"coordinates":[1788,5920]},{"type":"Point","properties":{"Station_ID":"PERV1","Station_Nam":"PERU","Latitude":"43.26670","Longitude":"-72.90000","Snowdepth":"18.000","Units":"in","Rept_Date":"2020-02-22 12"},"coordinates":[5712,4909]},{"type":"Point","properties":{"Station_ID":"NUMM5","Station_Nam":"NEW ULM 3SE","Latitude":"44.29450","Longitude":"-94.40840","Snowdepth":"18.000","Units":"in","Rept_Date":"2020-02-22 12"},"coordinates":[664,5527]},{"type":"Point","properties":{"Station_ID":"NH-MR-41","Station_Nam":"NEWBURY 1.6 NW, NH","Latitude":"43.33667","Longitude":"-72.06060","Snowdepth":"18.000","Units":"in","Rept_Date":"2020-02-22 12"},"coordinates":[5909,4951]},{"type":"Point","properties":{"Station_ID":"NH-CR-9","Station_Nam":"MADISON 1.7 SE, NH","Latitude":"43.87928","Longitude":"-71.12660","Snowdepth":"18.000","Units":"in","Rept_Date":"2020-02-22 12"},"coordinates":[6128,5278]},{"type":"Point","properties":{"Station_ID":"MNF74YNU","Station_Nam":"NEW ULM 3.3 ESE","Latitude":"44.29029","Longitude":"-94.40196","Snowdepth":"18.000","Units":"in","Rept_Date":"2020-02-22 11"},"coordinates":[666,5525]},{"type":"Point","properties":{"Station_ID":"MLLW3","Station_Nam":"MERRILL 8W","Latitude":"45.17810","Longitude":"-89.84810","Snowdepth":"18.000","Units":"in","Rept_Date":"2020-02-22 12"},"coordinates":[1735,6059]},{"type":"Point","properties":{"Station_ID":"MIEM4","Station_Nam":"MICHIGAMME 3WNW","Latitude":"46.54530","Longitude":"-88.18000","Snowdepth":"18.000","Units":"in","Rept_Date":"2020-02-22 13"},"coordinates":[2126,6882]},{"type":"Point","properties":{"Station_ID":"MI-AT-6","Station_Nam":"MANCELONA 0.5 ESE, MI","Latitude":"44.89981","Longitude":"-85.05100","Snowdepth":"18.000","Units":"in","Rept_Date":"2020-02-22 13"},"coordinates":[2860,5892]},{"type":"Point","properties":{"Station_ID":"HRTM1","Station_Nam":"HARTFORD","Latitude":"44.37440","Longitude":"-70.31620","Snowdepth":"18.000","Units":"in","Rept_Date":"2020-02-22 12"},"coordinates":[6318,5575]},{"type":"Point","properties":{"Station_ID":"EJNM4","Station_Nam":"EAST JORDAN 2NW","Latitude":"45.18630","Longitude":"-85.14770","Snowdepth":"18.000","Units":"in","Rept_Date":"2020-02-22 13"},"coordinates":[2838,6064]},{"type":"Point","properties":{"Station_ID":"APXM4","Station_Nam":"GAYLORD 9SSW","Latitude":"44.90720","Longitude":"-84.71880","Snowdepth":"18.000","Units":"in","Rept_Date":"2020-02-23 06"},"coordinates":[2938,5896]},{"type":"Point","properties":{"Station_ID":"VT-WR-2","Station_Nam":"POMFRET 2.6 N, VT","Latitude":"43.74230","Longitude":"-72.52550","Snowdepth":"17.500","Units":"in","Rept_Date":"2020-02-22 12"},"coordinates":[5800,5195]},{"type":"Point","properties":{"Station_ID":"MN-IT-7","Station_Nam":"GRAND RAPIDS 6.2 SSW, MN","Latitude":"47.13687","Longitude":"-93.56660","Snowdepth":"17.500","Units":"in","Rept_Date":"2020-02-22 12"},"coordinates":[862,7237]},{"type":"Point","properties":{"Station_ID":"MN-CW-22","Station_Nam":"FORT RIPLEY 0.8 N, MN","Latitude":"46.18089","Longitude":"-94.36510","Snowdepth":"17.500","Units":"in","Rept_Date":"2020-02-22 13"},"coordinates":[674,6662]},{"type":"Point","properties":{"Station_ID":"MI-CP-14","Station_Nam":"SAULT STE. MARIE 2.2 E, MI","Latitude":"46.48933","Longitude":"-84.31971","Snowdepth":"17.500","Units":"in","Rept_Date":"2020-02-22 12"},"coordinates":[3032,6848]},{"type":"Point","properties":{"Station_ID":"CAN-NB-97","Station_Nam":"NEW MARYLAND 0.6 NW, CAN","Latitude":"45.90112","Longitude":"-66.68739","Snowdepth":"17.300","Units":"in","Rept_Date":"2020-02-22 11"},"coordinates":[7170,6494]},{"type":"Point","properties":{"Station_ID":"WWWW3","Station_Nam":"WAUPACA","Latitude":"44.35470","Longitude":"-89.05920","Snowdepth":"17.000","Units":"in","Rept_Date":"2020-02-22 14"},"coordinates":[1920,5564]},{"type":"Point","properties":{"Station_ID":"WUNW3","Station_Nam":"WAUSAU-NORTHEAST","Latitude":"44.97310","Longitude":"-89.61690","Snowdepth":"17.000","Units":"in","Rept_Date":"2020-02-22 12"},"coordinates":[1789,5936]},{"type":"Point","properties":{"Station_ID":"WI-PR-8","Station_Nam":"PHILLIPS 0.4 SSW, WI","Latitude":"45.69086","Longitude":"-90.40200","Snowdepth":"17.000","Units":"in","Rept_Date":"2020-02-22 13"},"coordinates":[1605,6368]},{"type":"Point","properties":{"Station_ID":"VT-WR-17","Station_Nam":"ROCHESTER 2.3 NE, VT","Latitude":"43.89418","Longitude":"-72.76992","Snowdepth":"17.000","Units":"in","Rept_Date":"2020-02-22 12"},"coordinates":[5743,5287]},{"type":"Point","properties":{"Station_ID":"SRAW3","Station_Nam":"SARONA","Latitude":"45.80250","Longitude":"-91.86700","Snowdepth":"17.000","Units":"in","Rept_Date":"2020-02-22 14"},"coordinates":[1261,6435]},{"type":"Point","properties":{"Station_ID":"RHRW3","Station_Nam":"RHINELANDER WJFW TV-12","Latitude":"45.62220","Longitude":"-89.41000","Snowdepth":"17.000","Units":"in","Rept_Date":"2020-02-23 04"},"coordinates":[1837,6326]},{"type":"Point","properties":{"Station_ID":"RHI","Station_Nam":"RHINELANDER-ONEIDA COUNTY AIRPORT","Latitude":"45.63080","Longitude":"-89.46530","Snowdepth":"17.000","Units":"in","Rept_Date":"2020-02-22 12"},"coordinates":[1824,6331]},{"type":"Point","properties":{"Station_ID":"OCON6","Station_Nam":"OSCEOLA","Latitude":"43.49910","Longitude":"-75.71210","Snowdepth":"17.000","Units":"in","Rept_Date":"2020-02-22 12"},"coordinates":[5052,5049]},{"type":"Point","properties":{"Station_ID":"NY-ES-11","Station_Nam":"VERMONTVILLE 2.8 S, NY","Latitude":"44.41205","Longitude":"-74.06760","Snowdepth":"17.000","Units":"in","Rept_Date":"2020-02-22 12"},"coordinates":[5438,5598]},{"type":"Point","properties":{"Station_ID":"NCKN6","Station_Nam":"NORTH CREEK 5 SE","Latitude":"43.66110","Longitude":"-73.89690","Snowdepth":"17.000","Units":"in","Rept_Date":"2020-02-22 12"},"coordinates":[5478,5146]},{"type":"Point","properties":{"Station_ID":"MQRW3","Station_Nam":"MINOCQUA","Latitude":"45.88630","Longitude":"-89.73220","Snowdepth":"17.000","Units":"in","Rept_Date":"2020-02-22 12"},"coordinates":[1762,6485]},{"type":"Point","properties":{"Station_ID":"MI-OT-4","Station_Nam":"GAYLORD 1.7 WNW, MI","Latitude":"45.03280","Longitude":"-84.71090","Snowdepth":"17.000","Units":"in","Rept_Date":"2020-02-22 13"},"coordinates":[2940,5972]},{"type":"Point","properties":{"Station_ID":"ME-CM-3","Station_Nam":"NEW GLOUCESTER 3.0 SE, ME","Latitude":"43.92372","Longitude":"-70.25790","Snowdepth":"17.000","Units":"in","Rept_Date":"2020-02-22 12"},"coordinates":[6332,5304]},{"type":"Point","properties":{"Station_ID":"ME-CM-125","Station_Nam":"CUMBERLAND CENTER 4.4 NW, ME","Latitude":"43.84640","Longitude":"-70.31340","Snowdepth":"17.000","Units":"in","Rept_Date":"2020-02-22 12"},"coordinates":[6319,5258]},{"type":"Point","properties":{"Station_ID":"JKMM1","Station_Nam":"JACKMAN","Latitude":"45.62600","Longitude":"-70.24600","Snowdepth":"17.000","Units":"in","Rept_Date":"2020-02-22 12"},"coordinates":[6335,6328]},{"type":"Point","properties":{"Station_ID":"JCBM4","Station_Nam":"JACOBSVILLE","Latitude":"47.00830","Longitude":"-88.43180","Snowdepth":"17.000","Units":"in","Rept_Date":"2020-02-22 12"},"coordinates":[2067,7160]},{"type":"Point","properties":{"Station_ID":"HGHN6","Station_Nam":"HIGHMARKET","Latitude":"43.57520","Longitude":"-75.52070","Snowdepth":"17.000","Units":"in","Rept_Date":"2020-02-22 11"},"coordinates":[5097,5095]},{"type":"Point","properties":{"Station_ID":"GLRM5","Station_Nam":"GLACIAL RIDGE","Latitude":"47.71670","Longitude":"-96.26670","Snowdepth":"17.000","Units":"in","Rept_Date":"2020-02-23 06"},"coordinates":[228,7586]},{"type":"Point","properties":{"Station_ID":"GAYM4","Station_Nam":"GAYLORD","Latitude":"45.03320","Longitude":"-84.71130","Snowdepth":"17.000","Units":"in","Rept_Date":"2020-02-22 13"},"coordinates":[2940,5972]},{"type":"Point","properties":{"Station_ID":"DURM1","Station_Nam":"DURHAM","Latitude":"43.99960","Longitude":"-70.09630","Snowdepth":"17.000","Units":"in","Rept_Date":"2020-02-22 12"},"coordinates":[6370,5350]},{"type":"Point","properties":{"Station_ID":"COTM5","Station_Nam":"COTTON","Latitude":"47.16870","Longitude":"-92.46290","Snowdepth":"17.000","Units":"in","Rept_Date":"2020-02-22 13"},"coordinates":[1121,7257]},{"type":"Point","properties":{"Station_ID":"CHRM4","Station_Nam":"CHARLEVOIX","Latitude":"45.31720","Longitude":"-85.26720","Snowdepth":"17.000","Units":"in","Rept_Date":"2020-02-22 13"},"coordinates":[2810,6143]},{"type":"Point","properties":{"Station_ID":"ABGW3","Station_Nam":"AMBERG 9 E","Latitude":"45.48250","Longitude":"-87.81190","Snowdepth":"17.000","Units":"in","Rept_Date":"2020-02-22 12"},"coordinates":[2212,6242]},{"type":"Point","properties":{"Station_ID":"CAN-PE-7","Station_Nam":"MORELL 1.4 NNW, CA","Latitude":"46.42741","Longitude":"-62.70870","Snowdepth":"16.900","Units":"in","Rept_Date":"2020-02-22 12"},"coordinates":[8104,6811]},{"type":"Point","properties":{"Station_ID":"CAN-ON-757","Station_Nam":"SAULT STE. MARIE 2.8 ESE - GLFC, CAN","Latitude":"46.50300","Longitude":"-84.30300","Snowdepth":"16.500","Units":"in","Rept_Date":"2020-02-22 13"},"coordinates":[3036,6856]},{"type":"Point","properties":{"Station_ID":"CAN-ON-42","Station_Nam":"VANKLEEK HILL 3.4 S, CA","Latitude":"45.48987","Longitude":"-74.64570","Snowdepth":"16.500","Units":"in","Rept_Date":"2020-02-22 12"},"coordinates":[5302,6247]},{"type":"Point","properties":{"Station_ID":"ME-CM-54","Station_Nam":"WINDHAM 3.9 NW, ME","Latitude":"43.85787","Longitude":"-70.46200","Snowdepth":"16.400","Units":"in","Rept_Date":"2020-02-22 12"},"coordinates":[6284,5265]},{"type":"Point","properties":{"Station_ID":"CAN-NB-16","Station_Nam":"DORCHESTER 1.0 SSE, CAN","Latitude":"45.89160","Longitude":"-64.51269","Snowdepth":"16.300","Units":"in","Rept_Date":"2020-02-22 11"},"coordinates":[7681,6488]},{"type":"Point","properties":{"Station_ID":"WNDM1","Station_Nam":"WINDHAM 2NW","Latitude":"43.85670","Longitude":"-70.46630","Snowdepth":"16.000","Units":"in","Rept_Date":"2020-02-22 12"},"coordinates":[6283,5264]},{"type":"Point","properties":{"Station_ID":"WI-PT-8","Station_Nam":"RUDOLPH 2.1 NNE, WI","Latitude":"44.52553","Longitude":"-89.78677","Snowdepth":"16.000","Units":"in","Rept_Date":"2020-02-22 11"},"coordinates":[1749,5666]},{"type":"Point","properties":{"Station_ID":"VT-CH-4","Station_Nam":"UNDERHILL 4.4 NNE, VT","Latitude":"44.58774","Longitude":"-72.92250","Snowdepth":"16.000","Units":"in","Rept_Date":"2020-02-22 12"},"coordinates":[5707,5704]},{"type":"Point","properties":{"Station_ID":"SHHW3","Station_Nam":"SHAWANO 2SSW","Latitude":"44.76310","Longitude":"-88.61830","Snowdepth":"16.000","Units":"in","Rept_Date":"2020-02-22 14"},"coordinates":[2023,5809]},{"type":"Point","properties":{"Station_ID":"PULW3","Station_Nam":"PULASKI WWTP","Latitude":"44.67830","Longitude":"-88.22750","Snowdepth":"16.000","Units":"in","Rept_Date":"2020-02-22 12"},"coordinates":[2115,5758]},{"type":"Point","properties":{"Station_ID":"NUNV1","Station_Nam":"NORTH UNDERHILL","Latitude":"44.58760","Longitude":"-72.92150","Snowdepth":"16.000","Units":"in","Rept_Date":"2020-02-22 12"},"coordinates":[5707,5704]},{"type":"Point","properties":{"Station_ID":"NH-MR-6","Station_Nam":"DANBURY 2.2 ESE, NH","Latitude":"43.52000","Longitude":"-71.81900","Snowdepth":"16.000","Units":"in","Rept_Date":"2020-02-22 13"},"coordinates":[5966,5061]},{"type":"Point","properties":{"Station_ID":"MN-BM-15","Station_Nam":"BEMIDJI 7.8 ENE, MN","Latitude":"47.52043","Longitude":"-94.72121","Snowdepth":"16.000","Units":"in","Rept_Date":"2020-02-22 13"},"coordinates":[591,7468]},{"type":"Point","properties":{"Station_ID":"ME-AN-32","Station_Nam":"WINTHROP 9.4 W, ME","Latitude":"44.30476","Longitude":"-70.15835","Snowdepth":"16.000","Units":"in","Rept_Date":"2020-02-22 12"},"coordinates":[6356,5534]},{"type":"Point","properties":{"Station_ID":"MCLN8","Station_Nam":"MC LEOD,ND","Latitude":"46.40250","Longitude":"-97.23810","Snowdepth":"16.000","Units":"in","Rept_Date":"2020-02-22 12"},"coordinates":[0,6796]},{"type":"Point","properties":{"Station_ID":"MALN6","Station_Nam":"MALONE","Latitude":"44.84180","Longitude":"-74.30600","Snowdepth":"16.000","Units":"in","Rept_Date":"2020-02-22 12"},"coordinates":[5382,5857]},{"type":"Point","properties":{"Station_ID":"GFDN6","Station_Nam":"CHASES LAKE","Latitude":"43.75920","Longitude":"-75.29980","Snowdepth":"16.000","Units":"in","Rept_Date":"2020-02-22 11"},"coordinates":[5149,5205]},{"type":"Point","properties":{"Station_ID":"EPTW3","Station_Nam":"EAU PLEINE TENDER","Latitude":"44.77220","Longitude":"-89.76720","Snowdepth":"16.000","Units":"in","Rept_Date":"2020-02-22 13"},"coordinates":[1753,5815]},{"type":"Point","properties":{"Station_ID":"DTVM4","Station_Nam":"DETOUR VILLAGE","Latitude":"45.99830","Longitude":"-83.90130","Snowdepth":"16.000","Units":"in","Rept_Date":"2020-02-22 13"},"coordinates":[3130,6552]},{"type":"Point","properties":{"Station_ID":"BRLN3","Station_Nam":"BERLIN","Latitude":"44.45350","Longitude":"-71.18540","Snowdepth":"16.000","Units":"in","Rept_Date":"2020-02-22 11"},"coordinates":[6115,5623]},{"type":"Point","properties":{"Station_ID":"BRAM5","Station_Nam":"BRAINERD","Latitude":"46.34320","Longitude":"-94.20900","Snowdepth":"16.000","Units":"in","Rept_Date":"2020-02-22 13"},"coordinates":[711,6760]},{"type":"Point","properties":{"Station_ID":"BDMW3","Station_Nam":"BEAVER DAM 1 N","Latitude":"43.46860","Longitude":"-88.83970","Snowdepth":"16.000","Units":"in","Rept_Date":"2020-02-22 13"},"coordinates":[1971,5031]},{"type":"Point","properties":{"Station_ID":"BAGM4","Station_Nam":"BARAGA 7NW","Latitude":"46.82100","Longitude":"-88.60590","Snowdepth":"16.000","Units":"in","Rept_Date":"2020-02-22 13"},"coordinates":[2026,7047]},{"type":"Point","properties":{"Station_ID":"CATQ6","Station_Nam":"CAT LAKE","Latitude":"51.72690","Longitude":"-91.82210","Snowdepth":"15.980","Units":"in","Rept_Date":"2020-02-23 06"},"coordinates":[1271,9999]},{"type":"Point","properties":{"Station_ID":"QWG","Station_Nam":"QWG","Latitude":"48.48890","Longitude":"-73.45940","Snowdepth":"15.630","Units":"in","Rept_Date":"2020-02-22 12"},"coordinates":[5581,8051]},{"type":"Point","properties":{"Station_ID":"MFU","Station_Nam":"MFU","Latitude":"51.52170","Longitude":"-66.91110","Snowdepth":"15.512","Units":"in","Rept_Date":"2020-02-22 12"},"coordinates":[7118,9876]},{"type":"Point","properties":{"Station_ID":"WI-BT-14","Station_Nam":"OAKLAND 9.0 ENE, WI","Latitude":"45.95184","Longitude":"-92.21653","Snowdepth":"15.500","Units":"in","Rept_Date":"2020-02-22 13"},"coordinates":[1179,6525]},{"type":"Point","properties":{"Station_ID":"VT-WS-19","Station_Nam":"WATERBURY 3.0 NW, VT","Latitude":"44.36060","Longitude":"-72.80770","Snowdepth":"15.500","Units":"in","Rept_Date":"2020-02-22 11"},"coordinates":[5734,5567]},{"type":"Point","properties":{"Station_ID":"SD-CD-30","Station_Nam":"WATERTOWN 2.3 E, SD","Latitude":"44.91604","Longitude":"-97.11925","Snowdepth":"15.500","Units":"in","Rept_Date":"2020-02-22 14"},"coordinates":[28,5901]},{"type":"Point","properties":{"Station_ID":"NY-SR-22","Station_Nam":"GREENFIELD CENTER 1.6 W, NY","Latitude":"43.12684","Longitude":"-73.87860","Snowdepth":"15.500","Units":"in","Rept_Date":"2020-02-22 14"},"coordinates":[5482,4825]},{"type":"Point","properties":{"Station_ID":"MI-BZ-1","Station_Nam":"BENZONIA 5.3 S, MI","Latitude":"44.53976","Longitude":"-86.10650","Snowdepth":"15.500","Units":"in","Rept_Date":"2020-02-22 13"},"coordinates":[2613,5675]},{"type":"Point","properties":{"Station_ID":"VT-CL-23","Station_Nam":"RYEGATE 1.5 N, VT","Latitude":"44.23024","Longitude":"-72.10523","Snowdepth":"15.200","Units":"in","Rept_Date":"2020-02-22 12"},"coordinates":[5899,5489]},{"type":"Point","properties":{"Station_ID":"TOPN6","Station_Nam":"TUPPER LAKE SUNMOUNT","Latitude":"44.23070","Longitude":"-74.43820","Snowdepth":"15.000","Units":"in","Rept_Date":"2020-02-22 12"},"coordinates":[5351,5489]},{"type":"Point","properties":{"Station_ID":"STRW3","Station_Nam":"STRATFORD 1NW","Latitude":"44.81750","Longitude":"-90.08990","Snowdepth":"15.000","Units":"in","Rept_Date":"2020-02-22 13"},"coordinates":[1678,5842]},{"type":"Point","properties":{"Station_ID":"STPW3","Station_Nam":"STEVENS POINT","Latitude":"44.51130","Longitude":"-89.58550","Snowdepth":"15.000","Units":"in","Rept_Date":"2020-02-22 12"},"coordinates":[1796,5658]},{"type":"Point","properties":{"Station_ID":"SD-BK-2","Station_Nam":"ASTORIA 2.2 SSE, SD","Latitude":"44.53093","Longitude":"-96.52270","Snowdepth":"15.000","Units":"in","Rept_Date":"2020-02-22 13"},"coordinates":[168,5670]},{"type":"Point","properties":{"Station_ID":"OTTM5","Station_Nam":"OTTERTAIL,MN","Latitude":"46.41670","Longitude":"-95.56670","Snowdepth":"15.000","Units":"in","Rept_Date":"2020-02-22 15"},"coordinates":[392,6804]},{"type":"Point","properties":{"Station_ID":"NONW3","Station_Nam":"NEW LONDON","Latitude":"44.35890","Longitude":"-88.71890","Snowdepth":"15.000","Units":"in","Rept_Date":"2020-02-22 12"},"coordinates":[2000,5566]},{"type":"Point","properties":{"Station_ID":"NH-MR-60","Station_Nam":"SOUTH SUTTON 1.3 SE, NH","Latitude":"43.29531","Longitude":"-71.90238","Snowdepth":"15.000","Units":"in","Rept_Date":"2020-02-22 13"},"coordinates":[5946,4926]},{"type":"Point","properties":{"Station_ID":"NH-GR-47","Station_Nam":"LITTLETON 7.3 W, NH","Latitude":"44.31847","Longitude":"-71.91086","Snowdepth":"15.000","Units":"in","Rept_Date":"2020-02-22 13"},"coordinates":[5944,5542]},{"type":"Point","properties":{"Station_ID":"NH-GR-1","Station_Nam":"BRISTOL 0.4 SSE, NH","Latitude":"43.59490","Longitude":"-71.74140","Snowdepth":"15.000","Units":"in","Rept_Date":"2020-02-22 12"},"coordinates":[5984,5107]},{"type":"Point","properties":{"Station_ID":"MWTM1","Station_Nam":"MILLINOCKET WWTP","Latitude":"45.64030","Longitude":"-68.67480","Snowdepth":"15.000","Units":"in","Rept_Date":"2020-02-22 12"},"coordinates":[6704,6337]},{"type":"Point","properties":{"Station_ID":"MNEY8CTB","Station_Nam":"MIDLAND JUNCTION 2.2 ENE","Latitude":"44.33041","Longitude":"-91.95891","Snowdepth":"15.000","Units":"in","Rept_Date":"2020-02-22 14"},"coordinates":[1239,5549]},{"type":"Point","properties":{"Station_ID":"MN7M8EBJ","Station_Nam":"LUTSEN 15.7 NNW","Latitude":"47.85324","Longitude":"-89.92908","Snowdepth":"15.000","Units":"in","Rept_Date":"2020-02-22 14"},"coordinates":[1715,7668]},{"type":"Point","properties":{"Station_ID":"MN-BK-10","Station_Nam":"DETROIT LAKES 5.7 N, MN","Latitude":"46.88666","Longitude":"-95.84444","Snowdepth":"15.000","Units":"in","Rept_Date":"2020-02-22 10"},"coordinates":[327,7087]},{"type":"Point","properties":{"Station_ID":"JOHV1","Station_Nam":"JOHNSON 2 N","Latitude":"44.65790","Longitude":"-72.67850","Snowdepth":"15.000","Units":"in","Rept_Date":"2020-02-22 12"},"coordinates":[5764,5746]},{"type":"Point","properties":{"Station_ID":"JEFN3","Station_Nam":"JEFFERSON","Latitude":"44.41690","Longitude":"-71.50080","Snowdepth":"15.000","Units":"in","Rept_Date":"2020-02-22 12"},"coordinates":[6040,5601]},{"type":"Point","properties":{"Station_ID":"ILEW3","Station_Nam":"STILES 1S","Latitude":"44.84190","Longitude":"-88.05420","Snowdepth":"15.000","Units":"in","Rept_Date":"2020-02-22 13"},"coordinates":[2156,5857]},{"type":"Point","properties":{"Station_ID":"FLDM5","Station_Nam":"FLOODWOOD,MN","Latitude":"47.00000","Longitude":"-92.91670","Snowdepth":"15.000","Units":"in","Rept_Date":"2020-02-22 14"},"coordinates":[1014,7155]},{"type":"Point","properties":{"Station_ID":"EPMW3","Station_Nam":"EPHRAIM-1 NE WWTP","Latitude":"45.17080","Longitude":"-87.15360","Snowdepth":"15.000","Units":"in","Rept_Date":"2020-02-22 16"},"coordinates":[2367,6055]},{"type":"Point","properties":{"Station_ID":"ENFV1","Station_Nam":"ENOSBURG FALLS 2","Latitude":"44.90960","Longitude":"-72.81370","Snowdepth":"15.000","Units":"in","Rept_Date":"2020-02-22 14"},"coordinates":[5732,5897]},{"type":"Point","properties":{"Station_ID":"CAN-NB-1","Station_Nam":"FREDERICTON 4.0 SSE, CA","Latitude":"45.92897","Longitude":"-66.62830","Snowdepth":"15.000","Units":"in","Rept_Date":"2020-02-22 12"},"coordinates":[7184,6511]},{"type":"Point","properties":{"Station_ID":"BEAW3","Station_Nam":"BEAVER DAM,WI","Latitude":"43.45000","Longitude":"-88.85000","Snowdepth":"15.000","Units":"in","Rept_Date":"2020-02-22 13"},"coordinates":[1969,5019]},{"type":"Point","properties":{"Station_ID":"ATW","Station_Nam":"OUTAGAMIE COUNTY AIRPORT","Latitude":"44.25750","Longitude":"-88.51940","Snowdepth":"15.000","Units":"in","Rept_Date":"2020-02-22 12"},"coordinates":[2046,5505]},{"type":"Point","properties":{"Station_ID":"APPW3","Station_Nam":"APPLETON","Latitude":"44.27690","Longitude":"-88.43770","Snowdepth":"15.000","Units":"in","Rept_Date":"2020-02-22 12"},"coordinates":[2066,5517]},{"type":"Point","properties":{"Station_ID":"WI-DA-35","Station_Nam":"MADISON 5.5 N, WI","Latitude":"43.15858","Longitude":"-89.37280","Snowdepth":"14.500","Units":"in","Rept_Date":"2020-02-22 14"},"coordinates":[1846,4844]},{"type":"Point","properties":{"Station_ID":"NH-MR-45","Station_Nam":"NORTHFIELD 2.8 E, NH","Latitude":"43.43945","Longitude":"-71.53730","Snowdepth":"14.500","Units":"in","Rept_Date":"2020-02-22 12"},"coordinates":[6032,5013]},{"type":"Point","properties":{"Station_ID":"MN-PK-15","Station_Nam":"MENTOR 2.5 SSW, MN","Latitude":"47.66625","Longitude":"-96.17328","Snowdepth":"14.500","Units":"in","Rept_Date":"2020-02-22 13"},"coordinates":[250,7556]},{"type":"Point","properties":{"Station_ID":"CAN-PE-3","Station_Nam":"WELLINGTON 1.6 NE, CA","Latitude":"46.46672","Longitude":"-63.98920","Snowdepth":"14.500","Units":"in","Rept_Date":"2020-02-22 11"},"coordinates":[7803,6834]},{"type":"Point","properties":{"Station_ID":"CAN-ON-245","Station_Nam":"PHELPSTON 3.1 ESE, CAN","Latitude":"44.50564","Longitude":"-79.81035","Snowdepth":"14.500","Units":"in","Rept_Date":"2020-02-22 13"},"coordinates":[4090,5654]},{"type":"Point","properties":{"Station_ID":"CAN-NS-163","Station_Nam":"SYDNEY MINES 2.2 WNW, CAN","Latitude":"46.24851","Longitude":"-60.25161","Snowdepth":"14.200","Units":"in","Rept_Date":"2020-02-22 12"},"coordinates":[8681,6703]},{"type":"Point","properties":{"Station_ID":"WTBW3","Station_Nam":"WEST BEND PUBLIC WORKS","Latitude":"43.41110","Longitude":"-88.19380","Snowdepth":"14.000","Units":"in","Rept_Date":"2020-02-22 12"},"coordinates":[2123,4996]},{"type":"Point","properties":{"Station_ID":"WLDM5","Station_Nam":"WILD RIVER STATE PARK","Latitude":"45.52310","Longitude":"-92.74890","Snowdepth":"14.000","Units":"in","Rept_Date":"2020-02-22 14"},"coordinates":[1054,6267]},{"type":"Point","properties":{"Station_ID":"WI-WN-9","Station_Nam":"NEENAH 1.1 ENE, WI","Latitude":"44.17370","Longitude":"-88.45130","Snowdepth":"14.000","Units":"in","Rept_Date":"2020-02-22 13"},"coordinates":[2062,5455]},{"type":"Point","properties":{"Station_ID":"WI-WH-7","Station_Nam":"WILD ROSE 0.5 E, WI","Latitude":"44.17764","Longitude":"-89.23812","Snowdepth":"14.000","Units":"in","Rept_Date":"2020-02-22 13"},"coordinates":[1878,5457]},{"type":"Point","properties":{"Station_ID":"WI-GN-5","Station_Nam":"MONTICELLO 2.2 SE, WI","Latitude":"42.71990","Longitude":"-89.56360","Snowdepth":"14.000","Units":"in","Rept_Date":"2020-02-22 13"},"coordinates":[1801,4580]},{"type":"Point","properties":{"Station_ID":"WI-EC-23","Station_Nam":"EAU CLAIRE 3.7 S, WI","Latitude":"44.76858","Longitude":"-91.49898","Snowdepth":"14.000","Units":"in","Rept_Date":"2020-02-22 14"},"coordinates":[1347,5813]},{"type":"Point","properties":{"Station_ID":"WAIV1","Station_Nam":"WAITSFIELD","Latitude":"44.17560","Longitude":"-72.79610","Snowdepth":"14.000","Units":"in","Rept_Date":"2020-02-22 12"},"coordinates":[5736,5456]},{"type":"Point","properties":{"Station_ID":"VT-WS-11","Station_Nam":"WAITSFIELD 1.8 SE, VT","Latitude":"44.17551","Longitude":"-72.79540","Snowdepth":"14.000","Units":"in","Rept_Date":"2020-02-22 12"},"coordinates":[5737,5456]},{"type":"Point","properties":{"Station_ID":"SANI4","Station_Nam":"ST ANSGAR","Latitude":"43.38170","Longitude":"-92.92320","Snowdepth":"14.000","Units":"in","Rept_Date":"2020-02-22 12"},"coordinates":[1013,4978]},{"type":"Point","properties":{"Station_ID":"ROWM3","Station_Nam":"ROWE 3NE","Latitude":"42.73500","Longitude":"-72.86920","Snowdepth":"14.000","Units":"in","Rept_Date":"2020-02-22 12"},"coordinates":[5719,4589]},{"type":"Point","properties":{"Station_ID":"POLM1","Station_Nam":"POLAND","Latitude":"44.00700","Longitude":"-70.36140","Snowdepth":"14.000","Units":"in","Rept_Date":"2020-02-22 12"},"coordinates":[6308,5354]},{"type":"Point","properties":{"Station_ID":"PLFV1","Station_Nam":"PLAINFIELD","Latitude":"44.27610","Longitude":"-72.41500","Snowdepth":"14.000","Units":"in","Rept_Date":"2020-02-22 12"},"coordinates":[5826,5516]},{"type":"Point","properties":{"Station_ID":"NY-WR-10","Station_Nam":"WARRENSBURG 2.1 WNW, NY","Latitude":"43.51784","Longitude":"-73.81069","Snowdepth":"14.000","Units":"in","Rept_Date":"2020-02-22 13"},"coordinates":[5498,5060]},{"type":"Point","properties":{"Station_ID":"NWSM1","Station_Nam":"NEW SHARON","Latitude":"44.63520","Longitude":"-70.00020","Snowdepth":"14.000","Units":"in","Rept_Date":"2020-02-22 12"},"coordinates":[6393,5732]},{"type":"Point","properties":{"Station_ID":"MNG0GYSN","Station_Nam":"LONSDALE 1.1 SSW","Latitude":"44.46445","Longitude":"-93.43293","Snowdepth":"14.000","Units":"in","Rept_Date":"2020-02-22 12"},"coordinates":[893,5630]},{"type":"Point","properties":{"Station_ID":"MNBDUIOM","Station_Nam":"GRAND MEADOW 0.7 ENE","Latitude":"43.70981","Longitude":"-92.55148","Snowdepth":"14.000","Units":"in","Rept_Date":"2020-02-22 12"},"coordinates":[1100,5176]},{"type":"Point","properties":{"Station_ID":"MN-SH-10","Station_Nam":"BIG LAKE 5.6 NNE, MN","Latitude":"45.41409","Longitude":"-93.69190","Snowdepth":"14.000","Units":"in","Rept_Date":"2020-02-22 12"},"coordinates":[832,6201]},{"type":"Point","properties":{"Station_ID":"MN-RC-1","Station_Nam":"MONTGOMERY 3.2 ENE, MN","Latitude":"44.46400","Longitude":"-93.51980","Snowdepth":"14.000","Units":"in","Rept_Date":"2020-02-22 12"},"coordinates":[873,5629]},{"type":"Point","properties":{"Station_ID":"MN-AT-5","Station_Nam":"TAMARACK 1.4 SW, MN","Latitude":"46.63760","Longitude":"-93.14554","Snowdepth":"14.000","Units":"in","Rept_Date":"2020-02-22 11"},"coordinates":[961,6937]},{"type":"Point","properties":{"Station_ID":"ME-AN-43","Station_Nam":"LISBON 0.6 S, ME","Latitude":"44.02320","Longitude":"-70.10550","Snowdepth":"14.000","Units":"in","Rept_Date":"2020-02-22 12"},"coordinates":[6368,5364]},{"type":"Point","properties":{"Station_ID":"LODW3","Station_Nam":"LODI","Latitude":"43.32170","Longitude":"-89.53110","Snowdepth":"14.000","Units":"in","Rept_Date":"2020-02-22 13"},"coordinates":[1809,4942]},{"type":"Point","properties":{"Station_ID":"LNGM5","Station_Nam":"LONG PRAIRIE","Latitude":"45.96460","Longitude":"-94.88920","Snowdepth":"14.000","Units":"in","Rept_Date":"2020-02-22 12"},"coordinates":[551,6532]},{"type":"Point","properties":{"Station_ID":"LBRM5","Station_Nam":"LAKE BRONSON DAM","Latitude":"48.72410","Longitude":"-96.62180","Snowdepth":"14.000","Units":"in","Rept_Date":"2020-02-22 14"},"coordinates":[145,8192]},{"type":"Point","properties":{"Station_ID":"LACN3","Station_Nam":"LACONIA","Latitude":"43.53010","Longitude":"-71.46260","Snowdepth":"14.000","Units":"in","Rept_Date":"2020-02-22 12"},"coordinates":[6049,5068]},{"type":"Point","properties":{"Station_ID":"KSEM4","Station_Nam":"KALKASKA 11SE","Latitude":"44.58970","Longitude":"-85.04860","Snowdepth":"14.000","Units":"in","Rept_Date":"2020-02-22 13"},"coordinates":[2861,5705]},{"type":"Point","properties":{"Station_ID":"JEFV1","Station_Nam":"JEFFERSONVILLE","Latitude":"44.58430","Longitude":"-72.78700","Snowdepth":"14.000","Units":"in","Rept_Date":"2020-02-22 12"},"coordinates":[5739,5702]},{"type":"Point","properties":{"Station_ID":"HYTS2","Station_Nam":"HAYTI 1W","Latitude":"44.66330","Longitude":"-97.22670","Snowdepth":"14.000","Units":"in","Rept_Date":"2020-02-22 14"},"coordinates":[3,5749]},{"type":"Point","properties":{"Station_ID":"HTLM4","Station_Nam":"SNOW PAID OBSERVER FOR KHTL","Latitude":"44.34470","Longitude":"-84.67730","Snowdepth":"14.000","Units":"in","Rept_Date":"2020-02-22 12"},"coordinates":[2948,5558]},{"type":"Point","properties":{"Station_ID":"HTL","Station_Nam":"ROSCOMMON COUNTY AIRPORT","Latitude":"44.35000","Longitude":"-84.66670","Snowdepth":"14.000","Units":"in","Rept_Date":"2020-02-23 00"},"coordinates":[2951,5561]},{"type":"Point","properties":{"Station_ID":"HMYM1","Station_Nam":"HARMONY","Latitude":"44.94660","Longitude":"-69.54560","Snowdepth":"14.000","Units":"in","Rept_Date":"2020-02-22 11"},"coordinates":[6499,5920]},{"type":"Point","properties":{"Station_ID":"GYX","Station_Nam":"PORTLAND, ME","Latitude":"43.89250","Longitude":"-70.25500","Snowdepth":"14.000","Units":"in","Rept_Date":"2020-02-22 12"},"coordinates":[6333,5286]},{"type":"Point","properties":{"Station_ID":"GRFN8","Station_Nam":"UNIVERSITY","Latitude":"47.93330","Longitude":"-97.08330","Snowdepth":"14.000","Units":"in","Rept_Date":"2020-02-23 06"},"coordinates":[36,7717]},{"type":"Point","properties":{"Station_ID":"GRBM5","Station_Nam":"GRAND RAPIDS 12N","Latitude":"47.39800","Longitude":"-93.51330","Snowdepth":"14.000","Units":"in","Rept_Date":"2020-02-22 13"},"coordinates":[874,7395]},{"type":"Point","properties":{"Station_ID":"GMDM5","Station_Nam":"GRAND MEADOW","Latitude":"43.70740","Longitude":"-92.56440","Snowdepth":"14.000","Units":"in","Rept_Date":"2020-02-22 12"},"coordinates":[1097,5174]},{"type":"Point","properties":{"Station_ID":"FORW3","Station_Nam":"FORESTVILLE-4E","Latitude":"44.69780","Longitude":"-87.39690","Snowdepth":"14.000","Units":"in","Rept_Date":"2020-02-22 13"},"coordinates":[2310,5770]},{"type":"Point","properties":{"Station_ID":"FLAM4","Station_Nam":"FIFE LAKE 2WNW","Latitude":"44.58480","Longitude":"-85.36530","Snowdepth":"14.000","Units":"in","Rept_Date":"2020-02-22 12"},"coordinates":[2787,5702]},{"type":"Point","properties":{"Station_ID":"CLGM5","Station_Nam":"COLLEGEVILLE ST JOHN","Latitude":"45.57940","Longitude":"-94.39200","Snowdepth":"14.000","Units":"in","Rept_Date":"2020-02-23 00"},"coordinates":[668,6300]},{"type":"Point","properties":{"Station_ID":"ALXM5","Station_Nam":"ALEXANDRIA","Latitude":"45.87820","Longitude":"-95.38270","Snowdepth":"14.000","Units":"in","Rept_Date":"2020-02-22 12"},"coordinates":[436,6480]},{"type":"Point","properties":{"Station_ID":"CAN-QC-16","Station_Nam":"SAINT-ARMAND 3.6 W, CAN","Latitude":"45.02631","Longitude":"-73.08795","Snowdepth":"13.800","Units":"in","Rept_Date":"2020-02-22 12"},"coordinates":[5668,5968]},{"type":"Point","properties":{"Station_ID":"VT-LM-7","Station_Nam":"HYDE PARK 2.9 NE, VT","Latitude":"44.62080","Longitude":"-72.57250","Snowdepth":"13.500","Units":"in","Rept_Date":"2020-02-22 13"},"coordinates":[5789,5724]},{"type":"Point","properties":{"Station_ID":"NY-MD-10","Station_Nam":"CAZENOVIA 2.9 SE, NY","Latitude":"42.90003","Longitude":"-75.81140","Snowdepth":"13.500","Units":"in","Rept_Date":"2020-02-22 12"},"coordinates":[5029,4688]},{"type":"Point","properties":{"Station_ID":"NY-ER-166","Station_Nam":"BOSTON 2.5 NE, NY","Latitude":"42.65480","Longitude":"-78.70300","Snowdepth":"13.500","Units":"in","Rept_Date":"2020-02-22 12"},"coordinates":[4350,4541]},{"type":"Point","properties":{"Station_ID":"FTHQ6","Station_Nam":"FORT HOPE","Latitude":"51.55820","Longitude":"-87.90510","Snowdepth":"13.190","Units":"in","Rept_Date":"2020-02-23 06"},"coordinates":[2191,9898]},{"type":"Point","properties":{"Station_ID":"WNNM5","Station_Nam":"WINNEBAGO","Latitude":"43.76920","Longitude":"-94.18730","Snowdepth":"13.000","Units":"in","Rept_Date":"2020-02-22 14"},"coordinates":[716,5211]},{"type":"Point","properties":{"Station_ID":"WI-TR-8","Station_Nam":"ETTRICK 4.0 WNW, WI","Latitude":"44.19004","Longitude":"-91.34249","Snowdepth":"13.000","Units":"in","Rept_Date":"2020-02-22 13"},"coordinates":[1384,5465]},{"type":"Point","properties":{"Station_ID":"WI-CH-7","Station_Nam":"CHIPPEWA FALLS 1.2 E, WI","Latitude":"44.92920","Longitude":"-91.36730","Snowdepth":"13.000","Units":"in","Rept_Date":"2020-02-22 13"},"coordinates":[1378,5909]},{"type":"Point","properties":{"Station_ID":"WAOW3","Station_Nam":"WAUTOMA SILVER LAKE SANITARY DISTRICT","Latitude":"44.04110","Longitude":"-89.24330","Snowdepth":"13.000","Units":"in","Rept_Date":"2020-02-22 14"},"coordinates":[1876,5375]},{"type":"Point","properties":{"Station_ID":"VT-LM-1","Station_Nam":"STOWE 0.2 SW, VT","Latitude":"44.46399","Longitude":"-72.69070","Snowdepth":"13.000","Units":"in","Rept_Date":"2020-02-22 12"},"coordinates":[5761,5629]},{"type":"Point","properties":{"Station_ID":"VT-CH-11","Station_Nam":"UNDERHILL 5.1 NNE, VT","Latitude":"44.59811","Longitude":"-72.91880","Snowdepth":"13.000","Units":"in","Rept_Date":"2020-02-22 13"},"coordinates":[5708,5710]},{"type":"Point","properties":{"Station_ID":"TOPM1","Station_Nam":"TOPSFIELD","Latitude":"45.43470","Longitude":"-67.72020","Snowdepth":"13.000","Units":"in","Rept_Date":"2020-02-22 12"},"coordinates":[6928,6213]},{"type":"Point","properties":{"Station_ID":"TCEM4","Station_Nam":"TRAVERSE CITY 5ESE","Latitude":"44.73370","Longitude":"-85.51180","Snowdepth":"13.000","Units":"in","Rept_Date":"2020-02-22 12"},"coordinates":[2752,5792]},{"type":"Point","properties":{"Station_ID":"TAHW3","Station_Nam":"TAYCHEEDAH","Latitude":"43.83390","Longitude":"-88.34690","Snowdepth":"13.000","Units":"in","Rept_Date":"2020-02-22 13"},"coordinates":[2087,5250]},{"type":"Point","properties":{"Station_ID":"RST","Station_Nam":"ROCHESTER INTERNATIONAL ARPT","Latitude":"43.90890","Longitude":"-92.49780","Snowdepth":"13.000","Units":"in","Rept_Date":"2020-02-23 00"},"coordinates":[1113,5295]},{"type":"Point","properties":{"Station_ID":"RSRM5","Station_Nam":"ROCHESTER AP 2NE","Latitude":"43.92810","Longitude":"-92.47580","Snowdepth":"13.000","Units":"in","Rept_Date":"2020-02-22 18"},"coordinates":[1118,5307]},{"type":"Point","properties":{"Station_ID":"RRLW3","Station_Nam":"MERRILL,WI","Latitude":"45.17860","Longitude":"-89.66170","Snowdepth":"13.000","Units":"in","Rept_Date":"2020-02-22 14"},"coordinates":[1778,6059]},{"type":"Point","properties":{"Station_ID":"RCEM5","Station_Nam":"RICE","Latitude":"45.75760","Longitude":"-94.20720","Snowdepth":"13.000","Units":"in","Rept_Date":"2020-02-22 13"},"coordinates":[711,6408]},{"type":"Point","properties":{"Station_ID":"RARM4","Station_Nam":"RAPID RIVER 1 SW","Latitude":"45.91500","Longitude":"-86.98800","Snowdepth":"13.000","Units":"in","Rept_Date":"2020-02-22 12"},"coordinates":[2406,6502]},{"type":"Point","properties":{"Station_ID":"NY-ES-7","Station_Nam":"KEESEVILLE 0.8 SE, NY","Latitude":"44.49504","Longitude":"-73.47109","Snowdepth":"13.000","Units":"in","Rept_Date":"2020-02-22 12"},"coordinates":[5578,5648]},{"type":"Point","properties":{"Station_ID":"NY-ER-77","Station_Nam":"COLDEN 2.4 ENE, NY","Latitude":"42.65088","Longitude":"-78.61060","Snowdepth":"13.000","Units":"in","Rept_Date":"2020-02-22 13"},"coordinates":[4372,4539]},{"type":"Point","properties":{"Station_ID":"NVLV1","Station_Nam":"NASHVILLE","Latitude":"44.44970","Longitude":"-72.92640","Snowdepth":"13.000","Units":"in","Rept_Date":"2020-02-22 12"},"coordinates":[5706,5621]},{"type":"Point","properties":{"Station_ID":"MYOM4","Station_Nam":"MIO WWTP","Latitude":"44.64660","Longitude":"-84.11580","Snowdepth":"13.000","Units":"in","Rept_Date":"2020-02-22 13"},"coordinates":[3080,5739]},{"type":"Point","properties":{"Station_ID":"MXON6","Station_Nam":"MEXICO","Latitude":"43.43830","Longitude":"-76.26560","Snowdepth":"13.000","Units":"in","Rept_Date":"2020-02-22 12"},"coordinates":[4922,5012]},{"type":"Point","properties":{"Station_ID":"MWN","Station_Nam":"MOUNT WASHINGTON","Latitude":"44.26670","Longitude":"-71.30000","Snowdepth":"13.000","Units":"in","Rept_Date":"2020-02-23 05"},"coordinates":[6088,5511]},{"type":"Point","properties":{"Station_ID":"MN-SH-985","Station_Nam":"PRINCETON 3.3 WSW, MN","Latitude":"45.55211","Longitude":"-93.64481","Snowdepth":"13.000","Units":"in","Rept_Date":"2020-02-22 14"},"coordinates":[843,6284]},{"type":"Point","properties":{"Station_ID":"MN-FM-10","Station_Nam":"WYKOFF 3.1 NW, MN","Latitude":"43.74340","Longitude":"-92.30650","Snowdepth":"13.000","Units":"in","Rept_Date":"2020-02-22 13"},"coordinates":[1158,5196]},{"type":"Point","properties":{"Station_ID":"MI-GT-25","Station_Nam":"TRAVERSE CITY 4.7 ESE, MI","Latitude":"44.73370","Longitude":"-85.51189","Snowdepth":"13.000","Units":"in","Rept_Date":"2020-02-22 12"},"coordinates":[2752,5792]},{"type":"Point","properties":{"Station_ID":"MI-GT-21","Station_Nam":"KINGSLEY 2.7 ENE, MI","Latitude":"44.59871","Longitude":"-85.48426","Snowdepth":"13.000","Units":"in","Rept_Date":"2020-02-22 13"},"coordinates":[2759,5710]},{"type":"Point","properties":{"Station_ID":"ME-AN-41","Station_Nam":"AUBURN 2.1 NNW, ME","Latitude":"44.11275","Longitude":"-70.26452","Snowdepth":"13.000","Units":"in","Rept_Date":"2020-02-22 12"},"coordinates":[6331,5418]},{"type":"Point","properties":{"Station_ID":"MA-HS-7","Station_Nam":"PLAINFIELD 2.2 SW, MA","Latitude":"42.49272","Longitude":"-72.94540","Snowdepth":"13.000","Units":"in","Rept_Date":"2020-02-22 13"},"coordinates":[5701,4443]},{"type":"Point","properties":{"Station_ID":"KMWN","Station_Nam":"MOUNT WASHINGTON","Latitude":"44.26666","Longitude":"-71.30000","Snowdepth":"13.000","Units":"in","Rept_Date":"2020-02-23 06"},"coordinates":[6088,5511]},{"type":"Point","properties":{"Station_ID":"KGFK","Station_Nam":"GRAND FORKS INTERNATIONAL","Latitude":"47.95000","Longitude":"-97.18333","Snowdepth":"13.000","Units":"in","Rept_Date":"2020-02-23 06"},"coordinates":[13,7727]},{"type":"Point","properties":{"Station_ID":"HARW3","Station_Nam":"HARTFORD,WI","Latitude":"43.31670","Longitude":"-88.40000","Snowdepth":"13.000","Units":"in","Rept_Date":"2020-02-22 14"},"coordinates":[2074,4939]},{"type":"Point","properties":{"Station_ID":"GFK","Station_Nam":"GRAND FORKS INTERNATIONAL AIRPORT","Latitude":"47.94920","Longitude":"-97.17610","Snowdepth":"13.000","Units":"in","Rept_Date":"2020-02-23 00"},"coordinates":[15,7726]},{"type":"Point","properties":{"Station_ID":"EJDM4","Station_Nam":"EAST JORDAN","Latitude":"45.15190","Longitude":"-85.13220","Snowdepth":"13.000","Units":"in","Rept_Date":"2020-02-22 13"},"coordinates":[2841,6043]},{"type":"Point","properties":{"Station_ID":"CNTW3","Station_Nam":"CLINTONVILLE","Latitude":"44.62270","Longitude":"-88.74830","Snowdepth":"13.000","Units":"in","Rept_Date":"2020-02-22 12"},"coordinates":[1993,5725]},{"type":"Point","properties":{"Station_ID":"AMHW3","Station_Nam":"AMHERST-3 SE","Latitude":"44.41280","Longitude":"-89.26390","Snowdepth":"13.000","Units":"in","Rept_Date":"2020-02-22 13"},"coordinates":[1872,5599]},{"type":"Point","properties":{"Station_ID":"WI-TY-2","Station_Nam":"SHELDON 8.1 ENE, WI","Latitude":"45.35598","Longitude":"-90.80296","Snowdepth":"12.500","Units":"in","Rept_Date":"2020-02-22 13"},"coordinates":[1510,6166]},{"type":"Point","properties":{"Station_ID":"ZITW3","Station_Nam":"FREMONT","Latitude":"44.22200","Longitude":"-88.78300","Snowdepth":"12.000","Units":"in","Rept_Date":"2020-02-22 12"},"coordinates":[1984,5484]},{"type":"Point","properties":{"Station_ID":"WSWN6","Station_Nam":"WARSAW","Latitude":"42.74220","Longitude":"-78.20850","Snowdepth":"12.000","Units":"in","Rept_Date":"2020-02-22 12"},"coordinates":[4466,4593]},{"type":"Point","properties":{"Station_ID":"WRSN6","Station_Nam":"WARSAW 6SW","Latitude":"42.68550","Longitude":"-78.22020","Snowdepth":"12.000","Units":"in","Rept_Date":"2020-02-22 12"},"coordinates":[4463,4559]},{"type":"Point","properties":{"Station_ID":"WOLN3","Station_Nam":"WOLFEBORO","Latitude":"43.59020","Longitude":"-71.20190","Snowdepth":"12.000","Units":"in","Rept_Date":"2020-02-22 12"},"coordinates":[6111,5104]},{"type":"Point","properties":{"Station_ID":"WIRW3","Station_Nam":"WIS RAPIDS GRAND AV B","Latitude":"44.39940","Longitude":"-89.83050","Snowdepth":"12.000","Units":"in","Rept_Date":"2020-02-22 13"},"coordinates":[1739,5591]},{"type":"Point","properties":{"Station_ID":"VT-AD-20","Station_Nam":"HANCOCK 0.3 S, VT","Latitude":"43.92166","Longitude":"-72.84042","Snowdepth":"12.000","Units":"in","Rept_Date":"2020-02-22 12"},"coordinates":[5726,5303]},{"type":"Point","properties":{"Station_ID":"TURM1","Station_Nam":"TURNER","Latitude":"44.28220","Longitude":"-70.25610","Snowdepth":"12.000","Units":"in","Rept_Date":"2020-02-22 12"},"coordinates":[6333,5520]},{"type":"Point","properties":{"Station_ID":"TCMM4","Station_Nam":"TRAVERSE CITY MUNSON","Latitude":"44.76070","Longitude":"-85.64430","Snowdepth":"12.000","Units":"in","Rept_Date":"2020-02-22 11"},"coordinates":[2721,5808]},{"type":"Point","properties":{"Station_ID":"SLRW3","Station_Nam":"SLINGER","Latitude":"43.33390","Longitude":"-88.29780","Snowdepth":"12.000","Units":"in","Rept_Date":"2020-02-22 13"},"coordinates":[2098,4949]},{"type":"Point","properties":{"Station_ID":"SLNV1","Station_Nam":"SOUTH LINCOLN","Latitude":"44.07460","Longitude":"-72.97180","Snowdepth":"12.000","Units":"in","Rept_Date":"2020-02-22 12"},"coordinates":[5695,5395]},{"type":"Point","properties":{"Station_ID":"PSHW3","Station_Nam":"PESHTIGO","Latitude":"45.02810","Longitude":"-87.73560","Snowdepth":"12.000","Units":"in","Rept_Date":"2020-02-22 13"},"coordinates":[2230,5969]},{"type":"Point","properties":{"Station_ID":"PBAN8","Station_Nam":"SITE 1-3MI.N","Latitude":"48.97420","Longitude":"-97.23860","Snowdepth":"12.000","Units":"in","Rept_Date":"2020-02-22 14"},"coordinates":[0,8343]},{"type":"Point","properties":{"Station_ID":"PARM4","Station_Nam":"PARENT BAY","Latitude":"45.79610","Longitude":"-86.40110","Snowdepth":"12.000","Units":"in","Rept_Date":"2020-02-22 18"},"coordinates":[2543,6431]},{"type":"Point","properties":{"Station_ID":"OKHW3","Station_Nam":"OSHKOSH,WI","Latitude":"44.03330","Longitude":"-88.55560","Snowdepth":"12.000","Units":"in","Rept_Date":"2020-02-22 13"},"coordinates":[2038,5370]},{"type":"Point","properties":{"Station_ID":"NY-WR-13","Station_Nam":"QUEENSBURY 2.5 E, NY","Latitude":"43.35877","Longitude":"-73.62849","Snowdepth":"12.000","Units":"in","Rept_Date":"2020-02-22 12"},"coordinates":[5541,4964]},{"type":"Point","properties":{"Station_ID":"NY-OG-46","Station_Nam":"BALDWINSVILLE 3.5 NE, NY","Latitude":"43.19506","Longitude":"-76.28830","Snowdepth":"12.000","Units":"in","Rept_Date":"2020-02-22 13"},"coordinates":[4917,4866]},{"type":"Point","properties":{"Station_ID":"NY-OG-12","Station_Nam":"CLAY 4.6 NW, NY","Latitude":"43.20000","Longitude":"-76.26000","Snowdepth":"12.000","Units":"in","Rept_Date":"2020-02-22 12"},"coordinates":[4924,4869]},{"type":"Point","properties":{"Station_ID":"NY-FL-7","Station_Nam":"BROADALBIN 4.7 ESE, NY","Latitude":"43.03940","Longitude":"-74.10845","Snowdepth":"12.000","Units":"in","Rept_Date":"2020-02-22 14"},"coordinates":[5428,4772]},{"type":"Point","properties":{"Station_ID":"MRLV1","Station_Nam":"MARLBORO","Latitude":"42.86000","Longitude":"-72.72000","Snowdepth":"12.000","Units":"in","Rept_Date":"2020-02-22 12"},"coordinates":[5754,4664]},{"type":"Point","properties":{"Station_ID":"MRIW3","Station_Nam":"MARINETTE","Latitude":"45.09830","Longitude":"-87.62360","Snowdepth":"12.000","Units":"in","Rept_Date":"2020-02-22 13"},"coordinates":[2257,6011]},{"type":"Point","properties":{"Station_ID":"MRBW3","Station_Nam":"MT HOREB","Latitude":"42.98030","Longitude":"-89.73940","Snowdepth":"12.000","Units":"in","Rept_Date":"2020-02-22 13"},"coordinates":[1760,4737]},{"type":"Point","properties":{"Station_ID":"MONW3","Station_Nam":"MONROE,WI","Latitude":"42.60000","Longitude":"-89.66670","Snowdepth":"12.000","Units":"in","Rept_Date":"2020-02-22 13"},"coordinates":[1777,4508]},{"type":"Point","properties":{"Station_ID":"MN-MR-4","Station_Nam":"LITTLE FALLS 1.2 SW, MN","Latitude":"45.96886","Longitude":"-94.37720","Snowdepth":"12.000","Units":"in","Rept_Date":"2020-02-22 13"},"coordinates":[672,6535]},{"type":"Point","properties":{"Station_ID":"MN-MR-13","Station_Nam":"LITTLE FALLS 8.0 NE, MN","Latitude":"46.06785","Longitude":"-94.24789","Snowdepth":"12.000","Units":"in","Rept_Date":"2020-02-22 13"},"coordinates":[702,6594]},{"type":"Point","properties":{"Station_ID":"MN-HN-181","Station_Nam":"MINNEAPOLIS 0.4 NE, MN","Latitude":"44.96708","Longitude":"-93.26222","Snowdepth":"12.000","Units":"in","Rept_Date":"2020-02-22 13"},"coordinates":[933,5932]},{"type":"Point","properties":{"Station_ID":"MENM4","Station_Nam":"MENOMINEE NO.2","Latitude":"45.11100","Longitude":"-87.61170","Snowdepth":"12.000","Units":"in","Rept_Date":"2020-02-22 14"},"coordinates":[2259,6019]},{"type":"Point","properties":{"Station_ID":"MABM5","Station_Nam":"MABEL","Latitude":"43.52410","Longitude":"-91.76160","Snowdepth":"12.000","Units":"in","Rept_Date":"2020-02-22 13"},"coordinates":[1285,5064]},{"type":"Point","properties":{"Station_ID":"LUCW3","Station_Nam":"LUCK","Latitude":"45.57330","Longitude":"-92.48520","Snowdepth":"12.000","Units":"in","Rept_Date":"2020-02-22 17"},"coordinates":[1116,6297]},{"type":"Point","properties":{"Station_ID":"FYTI4","Station_Nam":"FAYETTE","Latitude":"42.88300","Longitude":"-91.83020","Snowdepth":"12.000","Units":"in","Rept_Date":"2020-02-22 13"},"coordinates":[1269,4678]},{"type":"Point","properties":{"Station_ID":"FRSW3","Station_Nam":"FRIENDSHIP","Latitude":"43.97500","Longitude":"-89.83080","Snowdepth":"12.000","Units":"in","Rept_Date":"2020-02-22 13"},"coordinates":[1739,5335]},{"type":"Point","properties":{"Station_ID":"FDRN8","Station_Nam":"FARGO 3S","Latitude":"46.82930","Longitude":"-96.79620","Snowdepth":"12.000","Units":"in","Rept_Date":"2020-02-23 03"},"coordinates":[104,7052]},{"type":"Point","properties":{"Station_ID":"FAR","Station_Nam":"HECTOR INTERNATIONAL ARPT","Latitude":"46.91560","Longitude":"-96.81440","Snowdepth":"12.000","Units":"in","Rept_Date":"2020-02-23 00"},"coordinates":[100,7104]},{"type":"Point","properties":{"Station_ID":"ESAM4","Station_Nam":"ESCANABA","Latitude":"45.74380","Longitude":"-87.04060","Snowdepth":"12.000","Units":"in","Rept_Date":"2020-02-22 12"},"coordinates":[2393,6399]},{"type":"Point","properties":{"Station_ID":"CRCI4","Station_Nam":"CRESCO 1NE","Latitude":"43.38940","Longitude":"-92.09380","Snowdepth":"12.000","Units":"in","Rept_Date":"2020-02-22 13"},"coordinates":[1207,4983]},{"type":"Point","properties":{"Station_ID":"CORM1","Station_Nam":"CORINNA","Latitude":"44.91980","Longitude":"-69.24180","Snowdepth":"12.000","Units":"in","Rept_Date":"2020-02-22 16"},"coordinates":[6571,5904]},{"type":"Point","properties":{"Station_ID":"BROS2","Station_Nam":"BROOKINGS,SD","Latitude":"44.31670","Longitude":"-96.76670","Snowdepth":"12.000","Units":"in","Rept_Date":"2020-02-22 14"},"coordinates":[111,5541]},{"type":"Point","properties":{"Station_ID":"BRLW3","Station_Nam":"BRILLION,WI","Latitude":"44.18330","Longitude":"-88.06670","Snowdepth":"12.000","Units":"in","Rept_Date":"2020-02-22 12"},"coordinates":[2153,5461]},{"type":"Point","properties":{"Station_ID":"BLGW3","Station_Nam":"BELGIUM WWTP","Latitude":"43.51310","Longitude":"-87.85440","Snowdepth":"12.000","Units":"in","Rept_Date":"2020-02-22 13"},"coordinates":[2202,5057]},{"type":"Point","properties":{"Station_ID":"ARTM5","Station_Nam":"ARTICHOKE LAKE 1 E","Latitude":"45.38560","Longitude":"-96.12570","Snowdepth":"12.000","Units":"in","Rept_Date":"2020-02-23 00"},"coordinates":[261,6184]},{"type":"Point","properties":{"Station_ID":"APLW3","Station_Nam":"APPLETON WHBY RADIO","Latitude":"44.25110","Longitude":"-88.36440","Snowdepth":"12.000","Units":"in","Rept_Date":"2020-02-22 14"},"coordinates":[2083,5501]},{"type":"Point","properties":{"Station_ID":"WI-WK-61","Station_Nam":"HARTLAND 5.0 NNE, WI","Latitude":"43.16351","Longitude":"-88.30400","Snowdepth":"11.500","Units":"in","Rept_Date":"2020-02-22 13"},"coordinates":[2097,4847]},{"type":"Point","properties":{"Station_ID":"WI-WK-29","Station_Nam":"OCONOMOWOC 4.6 NE, WI","Latitude":"43.14621","Longitude":"-88.42860","Snowdepth":"11.500","Units":"in","Rept_Date":"2020-02-22 15"},"coordinates":[2068,4837]},{"type":"Point","properties":{"Station_ID":"WI-DA-39","Station_Nam":"MADISON 4.0 W, WI","Latitude":"43.07741","Longitude":"-89.46757","Snowdepth":"11.500","Units":"in","Rept_Date":"2020-02-22 13"},"coordinates":[1824,4795]},{"type":"Point","properties":{"Station_ID":"WI-DA-33","Station_Nam":"OREGON 0.4 SSW, WI","Latitude":"42.92080","Longitude":"-89.38540","Snowdepth":"11.500","Units":"in","Rept_Date":"2020-02-22 13"},"coordinates":[1843,4701]},{"type":"Point","properties":{"Station_ID":"SD-BK-7","Station_Nam":"BROOKINGS 0.2 SSW, SD","Latitude":"44.30389","Longitude":"-96.78780","Snowdepth":"11.500","Units":"in","Rept_Date":"2020-02-22 13"},"coordinates":[106,5533]},{"type":"Point","properties":{"Station_ID":"MN-MC-16","Station_Nam":"HUTCHINSON 0.1 ENE, MN","Latitude":"44.88633","Longitude":"-94.37503","Snowdepth":"11.500","Units":"in","Rept_Date":"2020-02-22 13"},"coordinates":[672,5883]},{"type":"Point","properties":{"Station_ID":"MN-GH-28","Station_Nam":"CANNON FALLS 0.5 SE, MN","Latitude":"44.50866","Longitude":"-92.89526","Snowdepth":"11.500","Units":"in","Rept_Date":"2020-02-22 14"},"coordinates":[1019,5656]},{"type":"Point","properties":{"Station_ID":"MI-EM-5","Station_Nam":"HARBOR SPRINGS 0.7 ENE, MI","Latitude":"45.43450","Longitude":"-84.97540","Snowdepth":"11.500","Units":"in","Rept_Date":"2020-02-22 12"},"coordinates":[2878,6213]},{"type":"Point","properties":{"Station_ID":"CAN-ON-92","Station_Nam":"DUNROBIN 1.9 W - MVCA, CAN","Latitude":"45.42318","Longitude":"-76.04525","Snowdepth":"11.500","Units":"in","Rept_Date":"2020-02-22 12"},"coordinates":[4974,6206]},{"type":"Point","properties":{"Station_ID":"WYON6","Station_Nam":"WYOMING 3W","Latitude":"42.82060","Longitude":"-78.14810","Snowdepth":"11.000","Units":"in","Rept_Date":"2020-02-22 12"},"coordinates":[4480,4641]},{"type":"Point","properties":{"Station_ID":"WRUM5","Station_Nam":"WARROAD 4W","Latitude":"48.89600","Longitude":"-95.40700","Snowdepth":"11.000","Units":"in","Rept_Date":"2020-02-23 05"},"coordinates":[430,8296]},{"type":"Point","properties":{"Station_ID":"WRNW3","Station_Nam":"WARRENS 4WSW","Latitude":"44.10390","Longitude":"-90.58870","Snowdepth":"11.000","Units":"in","Rept_Date":"2020-02-22 13"},"coordinates":[1561,5413]},{"type":"Point","properties":{"Station_ID":"WMRM5","Station_Nam":"WILLMAR 5N","Latitude":"45.19010","Longitude":"-95.05860","Snowdepth":"11.000","Units":"in","Rept_Date":"2020-02-22 12"},"coordinates":[512,6066]},{"type":"Point","properties":{"Station_ID":"WLNM4","Station_Nam":"WELLSTON 1N","Latitude":"44.22940","Longitude":"-85.95690","Snowdepth":"11.000","Units":"in","Rept_Date":"2020-02-22 12"},"coordinates":[2648,5488]},{"type":"Point","properties":{"Station_ID":"WI-GL-4","Station_Nam":"GREEN LAKE 0.8 E, WI","Latitude":"43.84369","Longitude":"-88.94066","Snowdepth":"11.000","Units":"in","Rept_Date":"2020-02-22 13"},"coordinates":[1947,5256]},{"type":"Point","properties":{"Station_ID":"WI-DA-13","Station_Nam":"MADISON 3.7 WSW, WI","Latitude":"43.06230","Longitude":"-89.45650","Snowdepth":"11.000","Units":"in","Rept_Date":"2020-02-22 16"},"coordinates":[1826,4786]},{"type":"Point","properties":{"Station_ID":"WI-BN-14","Station_Nam":"GREEN BAY 3.8 SSE, WI","Latitude":"44.46772","Longitude":"-87.97350","Snowdepth":"11.000","Units":"in","Rept_Date":"2020-02-22 13"},"coordinates":[2174,5632]},{"type":"Point","properties":{"Station_ID":"WDSV1","Station_Nam":"WOODSTOCK","Latitude":"43.63030","Longitude":"-72.50720","Snowdepth":"11.000","Units":"in","Rept_Date":"2020-02-22 13"},"coordinates":[5804,5128]},{"type":"Point","properties":{"Station_ID":"VT-CH-38","Station_Nam":"WILLISTON 0.2 WSW, VT","Latitude":"44.43669","Longitude":"-73.07154","Snowdepth":"11.000","Units":"in","Rept_Date":"2020-02-22 13"},"coordinates":[5672,5613]},{"type":"Point","properties":{"Station_ID":"VT-CH-13","Station_Nam":"RICHMOND 3.4 SSE, VT","Latitude":"44.36084","Longitude":"-72.96400","Snowdepth":"11.000","Units":"in","Rept_Date":"2020-02-22 12"},"coordinates":[5697,5567]},{"type":"Point","properties":{"Station_ID":"VQAW3","Station_Nam":"VIROQUA","Latitude":"43.55970","Longitude":"-90.87560","Snowdepth":"11.000","Units":"in","Rept_Date":"2020-02-22 13"},"coordinates":[1493,5085]},{"type":"Point","properties":{"Station_ID":"STIM4","Station_Nam":"ST IGNACE","Latitude":"45.86080","Longitude":"-84.71960","Snowdepth":"11.000","Units":"in","Rept_Date":"2020-02-22 12"},"coordinates":[2938,6470]},{"type":"Point","properties":{"Station_ID":"SPCW3","Station_Nam":"SPENCER-WWTP","Latitude":"44.75390","Longitude":"-90.28920","Snowdepth":"11.000","Units":"in","Rept_Date":"2020-02-22 13"},"coordinates":[1631,5804]},{"type":"Point","properties":{"Station_ID":"SIBI4","Station_Nam":"SIBLEY","Latitude":"43.40470","Longitude":"-95.74830","Snowdepth":"11.000","Units":"in","Rept_Date":"2020-02-22 13"},"coordinates":[350,4992]},{"type":"Point","properties":{"Station_ID":"RNBW3","Station_Nam":"WFO GREEN BAY","Latitude":"44.49780","Longitude":"-88.11080","Snowdepth":"11.000","Units":"in","Rept_Date":"2020-02-23 06"},"coordinates":[2142,5650]},{"type":"Point","properties":{"Station_ID":"ORAN3","Station_Nam":"ORANGE","Latitude":"43.66880","Longitude":"-71.94830","Snowdepth":"11.000","Units":"in","Rept_Date":"2020-02-22 12"},"coordinates":[5935,5151]},{"type":"Point","properties":{"Station_ID":"NY-WY-10","Station_Nam":"WYOMING COOP, NY","Latitude":"42.82060","Longitude":"-78.14810","Snowdepth":"11.000","Units":"in","Rept_Date":"2020-02-22 12"},"coordinates":[4480,4641]},{"type":"Point","properties":{"Station_ID":"NH-ST-31","Station_Nam":"STRAFFORD 2.9 N, NH","Latitude":"43.31175","Longitude":"-71.13510","Snowdepth":"11.000","Units":"in","Rept_Date":"2020-02-22 13"},"coordinates":[6126,4936]},{"type":"Point","properties":{"Station_ID":"NH-BK-29","Station_Nam":"SANBORNTON 2.3 WNW, NH","Latitude":"43.49730","Longitude":"-71.62800","Snowdepth":"11.000","Units":"in","Rept_Date":"2020-02-22 12"},"coordinates":[6011,5048]},{"type":"Point","properties":{"Station_ID":"NH-BK-1","Station_Nam":"TILTON NORTHFIELD 3.3 NE, NH","Latitude":"43.48000","Longitude":"-71.55000","Snowdepth":"11.000","Units":"in","Rept_Date":"2020-02-22 12"},"coordinates":[6029,5037]},{"type":"Point","properties":{"Station_ID":"MRQM4","Station_Nam":"MARQUETTE WFP","Latitude":"46.54580","Longitude":"-87.37950","Snowdepth":"11.000","Units":"in","Rept_Date":"2020-02-22 13"},"coordinates":[2314,6882]},{"type":"Point","properties":{"Station_ID":"MRAM5","Station_Nam":"MORA","Latitude":"45.87760","Longitude":"-93.31470","Snowdepth":"11.000","Units":"in","Rept_Date":"2020-02-22 13"},"coordinates":[921,6480]},{"type":"Point","properties":{"Station_ID":"MNMC0BBE","Station_Nam":"BRECKENRIDGE 3.1 E","Latitude":"46.25468","Longitude":"-96.52093","Snowdepth":"11.000","Units":"in","Rept_Date":"2020-02-22 12"},"coordinates":[168,6707]},