{"type":"Topology","objects":{"snowdepth_geo":{"type":"GeometryCollection","name":"snowdepth","crs":{"type":"name","properties":{"name":"urn:ogc:def:crs:OGC:1.3:CRS84"}},"geometries":[{"type":"Point","properties":{"Station_ID":"PRKM4","Station_Nam":"MUNISING EAST","Latitude":"46.42580","Longitude":"-86.62000","Snowdepth":"76.500","Units":"in","Rept_Date":"2021-02-16 06"},"coordinates":[2494,7684]},{"type":"Point","properties":{"Station_ID":"MA-NF-11","Station_Nam":"MILLIS 2.0 SW, MA","Latitude":"42.14602","Longitude":"-71.37940","Snowdepth":"65.000","Units":"in","Rept_Date":"2021-02-15 12"},"coordinates":[6070,5815]},{"type":"Point","properties":{"Station_ID":"PDLM4","Station_Nam":"PAINESDALE","Latitude":"47.04160","Longitude":"-88.67170","Snowdepth":"50.000","Units":"in","Rept_Date":"2021-02-15 13"},"coordinates":[2013,7953]},{"type":"Point","properties":{"Station_ID":"MI-SH-1","Station_Nam":"MANISTIQUE 2.7 NW, MI","Latitude":"45.99042","Longitude":"-86.28266","Snowdepth":"47.000","Units":"in","Rept_Date":"2021-02-15 11"},"coordinates":[2573,7494]},{"type":"Point","properties":{"Station_ID":"MMNV1","Station_Nam":"MT. MANSFIELD","Latitude":"44.52480","Longitude":"-72.81540","Snowdepth":"45.000","Units":"in","Rept_Date":"2021-02-15 21"},"coordinates":[5733,6854]},{"type":"Point","properties":{"Station_ID":"KSGM4","Station_Nam":"KEARSARGE","Latitude":"47.27520","Longitude":"-88.41700","Snowdepth":"45.000","Units":"in","Rept_Date":"2021-02-15 13"},"coordinates":[2072,8055]},{"type":"Point","properties":{"Station_ID":"HTLN3","Station_Nam":"HERMIT LAKE SNOWPLOT","Latitude":"44.26130","Longitude":"-71.28330","Snowdepth":"42.000","Units":"in","Rept_Date":"2021-02-15 10"},"coordinates":[6093,6738]},{"type":"Point","properties":{"Station_ID":"QNCM4","Station_Nam":"QUINCY HILL","Latitude":"47.13640","Longitude":"-88.57950","Snowdepth":"39.000","Units":"in","Rept_Date":"2021-02-15 12"},"coordinates":[2034,7994]},{"type":"Point","properties":{"Station_ID":"HLSN3","Station_Nam":"HERMIT LAKE SNOTEL","Latitude":"44.26130","Longitude":"-71.28320","Snowdepth":"38.660","Units":"in","Rept_Date":"2021-02-16 06"},"coordinates":[6093,6738]},{"type":"Point","properties":{"Station_ID":"MI-HG-20","Station_Nam":"CALUMET 1.1 SSW, MI","Latitude":"47.23165","Longitude":"-88.45823","Snowdepth":"36.500","Units":"in","Rept_Date":"2021-02-15 11"},"coordinates":[2063,8036]},{"type":"Point","properties":{"Station_ID":"GNLM4","Station_Nam":"GREENLAND 6N","Latitude":"46.87360","Longitude":"-89.10060","Snowdepth":"36.000","Units":"in","Rept_Date":"2021-02-15 13"},"coordinates":[1912,7879]},{"type":"Point","properties":{"Station_ID":"PTLQ6","Station_Nam":"PORTAGE LAKE","Latitude":"49.06950","Longitude":"-86.65940","Snowdepth":"33.070","Units":"in","Rept_Date":"2021-02-16 06"},"coordinates":[2485,8838]},{"type":"Point","properties":{"Station_ID":"HGHN6","Station_Nam":"HIGHMARKET","Latitude":"43.60510","Longitude":"-75.55430","Snowdepth":"32.000","Units":"in","Rept_Date":"2021-02-15 11"},"coordinates":[5090,6452]},{"type":"Point","properties":{"Station_ID":"NY-HM-9","Station_Nam":"HOFFMEISTER 2.0 E, NY","Latitude":"43.38695","Longitude":"-74.67723","Snowdepth":"30.500","Units":"in","Rept_Date":"2021-02-15 13"},"coordinates":[5296,6357]},{"type":"Point","properties":{"Station_ID":"MI-KW-2","Station_Nam":"DELAWARE 5.2 SW, MI","Latitude":"47.36928","Longitude":"-88.17919","Snowdepth":"30.000","Units":"in","Rept_Date":"2021-02-15 09"},"coordinates":[2128,8096]},{"type":"Point","properties":{"Station_ID":"GMSM4","Station_Nam":"GRAND MARAIS 10S","Latitude":"46.50940","Longitude":"-85.96310","Snowdepth":"30.000","Units":"in","Rept_Date":"2021-02-15 12"},"coordinates":[2648,7720]},{"type":"Point","properties":{"Station_ID":"TRIQ6","Station_Nam":"TRIO LAKE","Latitude":"49.22880","Longitude":"-87.22920","Snowdepth":"29.290","Units":"in","Rept_Date":"2021-02-16 06"},"coordinates":[2351,8908]},{"type":"Point","properties":{"Station_ID":"NH-CS-10","Station_Nam":"RANDOLPH 1.4 NE, NH","Latitude":"44.38824","Longitude":"-71.26950","Snowdepth":"29.000","Units":"in","Rept_Date":"2021-02-15 12"},"coordinates":[6096,6794]},{"type":"Point","properties":{"Station_ID":"MI-HG-1","Station_Nam":"HOUGHTON 1.6 ESE, MI","Latitude":"47.10774","Longitude":"-88.52940","Snowdepth":"28.500","Units":"in","Rept_Date":"2021-02-15 13"},"coordinates":[2046,7982]},{"type":"Point","properties":{"Station_ID":"WI-MW-14","Station_Nam":"MILWAUKEE 3.6 NNW, WI","Latitude":"43.11300","Longitude":"-87.98730","Snowdepth":"28.000","Units":"in","Rept_Date":"2021-02-15 11"},"coordinates":[2173,6237]},{"type":"Point","properties":{"Station_ID":"VT-BN-12","Station_Nam":"STAMFORD 5.0 NNE, VT","Latitude":"42.82000","Longitude":"-73.02000","Snowdepth":"28.000","Units":"in","Rept_Date":"2021-02-15 21"},"coordinates":[5685,6109]},{"type":"Point","properties":{"Station_ID":"MTQM4","Station_Nam":"MANISTIQUE WWTP","Latitude":"45.95120","Longitude":"-86.25130","Snowdepth":"28.000","Units":"in","Rept_Date":"2021-02-15 12"},"coordinates":[2581,7477]},{"type":"Point","properties":{"Station_ID":"DVLQ6","Station_Nam":"DEVIOUS LAKE","Latitude":"49.19890","Longitude":"-87.76440","Snowdepth":"27.720","Units":"in","Rept_Date":"2021-02-16 06"},"coordinates":[2225,8895]},{"type":"Point","properties":{"Station_ID":"PERV1","Station_Nam":"PERU","Latitude":"43.26670","Longitude":"-72.90000","Snowdepth":"27.000","Units":"in","Rept_Date":"2021-02-15 12"},"coordinates":[5713,6304]},{"type":"Point","properties":{"Station_ID":"MNSM4","Station_Nam":"MUNISING","Latitude":"46.41210","Longitude":"-86.66250","Snowdepth":"27.000","Units":"in","Rept_Date":"2021-02-15 11"},"coordinates":[2484,7678]},{"type":"Point","properties":{"Station_ID":"LBKV1","Station_Nam":"LYE BROOK","Latitude":"43.05000","Longitude":"-73.03330","Snowdepth":"27.000","Units":"in","Rept_Date":"2021-02-16 06"},"coordinates":[5682,6209]},{"type":"Point","properties":{"Station_ID":"EHYM3","Station_Nam":"EAST HAWLEY","Latitude":"42.57410","Longitude":"-72.86790","Snowdepth":"27.000","Units":"in","Rept_Date":"2021-02-15 13"},"coordinates":[5721,6002]},{"type":"Point","properties":{"Station_ID":"WNDP1","Station_Nam":"WINDBER COUNTY CLUB","Latitude":"40.28780","Longitude":"-78.77530","Snowdepth":"26.000","Units":"in","Rept_Date":"2021-02-15 12"},"coordinates":[4335,5003]},{"type":"Point","properties":{"Station_ID":"PARM4","Station_Nam":"PARENT BAY","Latitude":"45.79610","Longitude":"-86.40110","Snowdepth":"26.000","Units":"in","Rept_Date":"2021-02-15 14"},"coordinates":[2545,7409]},{"type":"Point","properties":{"Station_ID":"CAN-ON-224","Station_Nam":"NAKINA 3.8 N - MNRF, CAN","Latitude":"50.21269","Longitude":"-86.70099","Snowdepth":"26.000","Units":"in","Rept_Date":"2021-02-15 21"},"coordinates":[2475,9338]},{"type":"Point","properties":{"Station_ID":"BOON6","Station_Nam":"BOONVILLE 4 SSW","Latitude":"43.43610","Longitude":"-75.36970","Snowdepth":"26.000","Units":"in","Rept_Date":"2021-02-15 12"},"coordinates":[5134,6378]},{"type":"Point","properties":{"Station_ID":"AUDQ6","Station_Nam":"AUDEN","Latitude":"48.52600","Longitude":"-82.57570","Snowdepth":"25.310","Units":"in","Rept_Date":"2021-02-16 06"},"coordinates":[3443,8601]},{"type":"Point","properties":{"Station_ID":"IL-CK-193","Station_Nam":"WINNETKA 0.8 ESE, IL","Latitude":"42.10164","Longitude":"-87.72900","Snowdepth":"25.200","Units":"in","Rept_Date":"2021-02-15 14"},"coordinates":[2234,5795]},{"type":"Point","properties":{"Station_ID":"QGO","Station_Nam":"QGO","Latitude":"48.85500","Longitude":"-74.20640","Snowdepth":"25.079","Units":"in","Rept_Date":"2021-02-15 12"},"coordinates":[5407,8745]},{"type":"Point","properties":{"Station_ID":"MDWI2","Station_Nam":"BURBANK,IL","Latitude":"41.73330","Longitude":"-87.76670","Snowdepth":"25.000","Units":"in","Rept_Date":"2021-02-16 06"},"coordinates":[2225,5634]},{"type":"Point","properties":{"Station_ID":"KMDW","Station_Nam":"CHICAGO MIDWAY AIRPORT","Latitude":"41.78333","Longitude":"-87.75000","Snowdepth":"25.000","Units":"in","Rept_Date":"2021-02-16 06"},"coordinates":[2229,5656]},{"type":"Point","properties":{"Station_ID":"CHRM4","Station_Nam":"CHARLEVOIX","Latitude":"45.31720","Longitude":"-85.26720","Snowdepth":"25.000","Units":"in","Rept_Date":"2021-02-15 13"},"coordinates":[2811,7200]},{"type":"Point","properties":{"Station_ID":"QLB","Station_Nam":"QLB","Latitude":"50.72360","Longitude":"-75.10000","Snowdepth":"24.685","Units":"in","Rept_Date":"2021-02-15 12"},"coordinates":[5197,9561]},{"type":"Point","properties":{"Station_ID":"VT-BN-3","Station_Nam":"LANDGROVE 1.1 NNE, VT","Latitude":"43.29092","Longitude":"-72.83260","Snowdepth":"24.000","Units":"in","Rept_Date":"2021-02-15 12"},"coordinates":[5729,6315]},{"type":"Point","properties":{"Station_ID":"ROWM3","Station_Nam":"ROWE 3NE","Latitude":"42.73500","Longitude":"-72.86920","Snowdepth":"24.000","Units":"in","Rept_Date":"2021-02-15 12"},"coordinates":[5720,6072]},{"type":"Point","properties":{"Station_ID":"LVDW3","Station_Nam":"LAC VIEUX DESERT","Latitude":"46.12110","Longitude":"-89.07580","Snowdepth":"24.000","Units":"in","Rept_Date":"2021-02-15 14"},"coordinates":[1918,7551]},{"type":"Point","properties":{"Station_ID":"HERM4","Station_Nam":"HERMAN,MI","Latitude":"46.65000","Longitude":"-88.33330","Snowdepth":"24.000","Units":"in","Rept_Date":"2021-02-15 13"},"coordinates":[2092,7782]},{"type":"Point","properties":{"Station_ID":"QCU","Station_Nam":"QCU","Latitude":"47.82750","Longitude":"-76.59830","Snowdepth":"23.622","Units":"in","Rept_Date":"2021-02-15 12"},"coordinates":[4845,8296]},{"type":"Point","properties":{"Station_ID":"ME-FR-2","Station_Nam":"TEMPLE 1.8 W, ME","Latitude":"44.68329","Longitude":"-70.26420","Snowdepth":"23.500","Units":"in","Rept_Date":"2021-02-15 12"},"coordinates":[6332,6923]},{"type":"Point","properties":{"Station_ID":"VT-WR-17","Station_Nam":"ROCHESTER 2.3 NE, VT","Latitude":"43.89418","Longitude":"-72.76992","Snowdepth":"23.000","Units":"in","Rept_Date":"2021-02-15 12"},"coordinates":[5744,6578]},{"type":"Point","properties":{"Station_ID":"VT-WH-19","Station_Nam":"EAST DOVER 1.8 N, VT","Latitude":"42.97658","Longitude":"-72.77637","Snowdepth":"23.000","Units":"in","Rept_Date":"2021-02-15 12"},"coordinates":[5742,6177]},{"type":"Point","properties":{"Station_ID":"NY-SL-6","Station_Nam":"HANNAWA FALLS 0.1 SW, NY","Latitude":"44.61154","Longitude":"-74.97190","Snowdepth":"23.000","Units":"in","Rept_Date":"2021-02-15 12"},"coordinates":[5227,6891]},{"type":"Point","properties":{"Station_ID":"NY-LW-12","Station_Nam":"CHASES LAKE COOP, NY","Latitude":"43.75924","Longitude":"-75.29982","Snowdepth":"23.000","Units":"in","Rept_Date":"2021-02-15 11"},"coordinates":[5150,6519]},{"type":"Point","properties":{"Station_ID":"NGLW3","Station_Nam":"NEW GLARUS","Latitude":"42.83500","Longitude":"-89.62080","Snowdepth":"23.000","Units":"in","Rept_Date":"2021-02-15 13"},"coordinates":[1790,6116]},{"type":"Point","properties":{"Station_ID":"MI-OG-6","Station_Nam":"WEST BRANCH 2.1 SSW, MI","Latitude":"44.24814","Longitude":"-84.25089","Snowdepth":"23.000","Units":"in","Rept_Date":"2021-02-15 12"},"coordinates":[3050,6733]},{"type":"Point","properties":{"Station_ID":"GFDN6","Station_Nam":"CHASES LAKE","Latitude":"43.75920","Longitude":"-75.29980","Snowdepth":"23.000","Units":"in","Rept_Date":"2021-02-15 11"},"coordinates":[5150,6519]},{"type":"Point","properties":{"Station_ID":"MI-OW-2","Station_Nam":"HOLLAND 3.9 NNE, MI","Latitude":"42.82296","Longitude":"-86.06780","Snowdepth":"22.500","Units":"in","Rept_Date":"2021-02-15 11"},"coordinates":[2624,6110]},{"type":"Point","properties":{"Station_ID":"VT-OL-12","Station_Nam":"GREENSBORO 3.9 NNE, VT","Latitude":"44.63100","Longitude":"-72.28000","Snowdepth":"22.000","Units":"in","Rept_Date":"2021-02-15 13"},"coordinates":[5859,6900]},{"type":"Point","properties":{"Station_ID":"PTBN3","Station_Nam":"PITTSBURG RESERVOIR","Latitude":"45.04690","Longitude":"-71.38300","Snowdepth":"22.000","Units":"in","Rept_Date":"2021-02-15 12"},"coordinates":[6069,7082]},{"type":"Point","properties":{"Station_ID":"NY-HM-1","Station_Nam":"SPECULATOR 10.0 SSW, NY","Latitude":"43.45133","Longitude":"-74.47120","Snowdepth":"22.000","Units":"in","Rept_Date":"2021-02-15 12"},"coordinates":[5345,6385]},{"type":"Point","properties":{"Station_ID":"MONW3","Station_Nam":"MONROE,WI","Latitude":"42.60000","Longitude":"-89.66670","Snowdepth":"22.000","Units":"in","Rept_Date":"2021-02-15 13"},"coordinates":[1779,6013]},{"type":"Point","properties":{"Station_ID":"LPLN6","Station_Nam":"LAKE PLACID 2 S","Latitude":"44.30420","Longitude":"-73.98390","Snowdepth":"22.000","Units":"in","Rept_Date":"2021-02-15 13"},"coordinates":[5459,6757]},{"type":"Point","properties":{"Station_ID":"CAN-NB-112","Station_Nam":"LAC BAKER 3.1 NW - SAJESS, CAN","Latitude":"47.35162","Longitude":"-68.67100","Snowdepth":"22.000","Units":"in","Rept_Date":"2021-02-15 11"},"coordinates":[6705,8088]},{"type":"Point","properties":{"Station_ID":"BLTW3","Station_Nam":"BELOIT,WI","Latitude":"42.50000","Longitude":"-89.03330","Snowdepth":"22.000","Units":"in","Rept_Date":"2021-02-15 12"},"coordinates":[1928,5969]},{"type":"Point","properties":{"Station_ID":"NY-HM-10","Station_Nam":"LAKE PLEASANT 2.3 WSW, NY","Latitude":"43.45490","Longitude":"-74.45287","Snowdepth":"21.500","Units":"in","Rept_Date":"2021-02-15 12"},"coordinates":[5349,6386]},{"type":"Point","properties":{"Station_ID":"NY-ES-11","Station_Nam":"VERMONTVILLE 2.8 S, NY","Latitude":"44.41205","Longitude":"-74.06760","Snowdepth":"21.500","Units":"in","Rept_Date":"2021-02-15 11"},"coordinates":[5439,6804]},{"type":"Point","properties":{"Station_ID":"IL-LK-69","Station_Nam":"HIGHWOOD 0.9 S, IL","Latitude":"42.19841","Longitude":"-87.81400","Snowdepth":"21.500","Units":"in","Rept_Date":"2021-02-15 13"},"coordinates":[2214,5838]},{"type":"Point","properties":{"Station_ID":"CAN-ON-245","Station_Nam":"PHELPSTON 3.1 ESE, CAN","Latitude":"44.50564","Longitude":"-79.81035","Snowdepth":"21.500","Units":"in","Rept_Date":"2021-02-15 13"},"coordinates":[4092,6845]},{"type":"Point","properties":{"Station_ID":"QFT","Station_Nam":"QFT","Latitude":"50.83280","Longitude":"-74.40390","Snowdepth":"21.063","Units":"in","Rept_Date":"2021-02-15 12"},"coordinates":[5360,9609]},{"type":"Point","properties":{"Station_ID":"PRGN6","Station_Nam":"PERRYSBURG","Latitude":"42.46470","Longitude":"-79.00310","Snowdepth":"21.000","Units":"in","Rept_Date":"2021-02-15 12"},"coordinates":[4281,5954]},{"type":"Point","properties":{"Station_ID":"OCON6","Station_Nam":"OSCEOLA","Latitude":"43.50370","Longitude":"-75.72170","Snowdepth":"21.000","Units":"in","Rept_Date":"2021-02-15 13"},"coordinates":[5051,6408]},{"type":"Point","properties":{"Station_ID":"NY-CL-12","Station_Nam":"SARANAC 0.8 SSE, NY","Latitude":"44.63980","Longitude":"-73.73848","Snowdepth":"21.000","Units":"in","Rept_Date":"2021-02-15 12"},"coordinates":[5516,6904]},{"type":"Point","properties":{"Station_ID":"LOTI2","Station_Nam":"ROMEOVILLE WFO","Latitude":"41.60440","Longitude":"-88.08580","Snowdepth":"21.000","Units":"in","Rept_Date":"2021-02-16 06"},"coordinates":[2150,5578]},{"type":"Point","properties":{"Station_ID":"KENW3","Station_Nam":"WATER POLLUTION CONTROL PLANT","Latitude":"42.55000","Longitude":"-87.81420","Snowdepth":"21.000","Units":"in","Rept_Date":"2021-02-16 06"},"coordinates":[2214,5991]},{"type":"Point","properties":{"Station_ID":"JCBM4","Station_Nam":"JACOBSVILLE","Latitude":"47.00830","Longitude":"-88.43180","Snowdepth":"21.000","Units":"in","Rept_Date":"2021-02-15 12"},"coordinates":[2069,7938]},{"type":"Point","properties":{"Station_ID":"IN-PT-98","Station_Nam":"VALPARAISO 0.9 NNW, IN","Latitude":"41.48956","Longitude":"-87.05800","Snowdepth":"21.000","Units":"in","Rept_Date":"2021-02-15 13"},"coordinates":[2391,5528]},{"type":"Point","properties":{"Station_ID":"IL-SP-27","Station_Nam":"DAVIS 2.7 N, IL","Latitude":"42.46110","Longitude":"-89.40890","Snowdepth":"21.000","Units":"in","Rept_Date":"2021-02-15 13"},"coordinates":[1840,5952]},{"type":"Point","properties":{"Station_ID":"IL-DP-155","Station_Nam":"MEDINAH 1.0 SSW, IL","Latitude":"41.96360","Longitude":"-88.06590","Snowdepth":"21.000","Units":"in","Rept_Date":"2021-02-15 14"},"coordinates":[2155,5735]},{"type":"Point","properties":{"Station_ID":"IL-CK-288","Station_Nam":"ROSELLE 0.8 N, IL","Latitude":"41.99255","Longitude":"-88.08422","Snowdepth":"21.000","Units":"in","Rept_Date":"2021-02-15 13"},"coordinates":[2150,5748]},{"type":"Point","properties":{"Station_ID":"GERW3","Station_Nam":"GERMANTOWN,WI","Latitude":"43.21670","Longitude":"-88.11670","Snowdepth":"21.000","Units":"in","Rept_Date":"2021-02-15 13"},"coordinates":[2143,6282]},{"type":"Point","properties":{"Station_ID":"FISM1","Station_Nam":"FORT KENT COOP","Latitude":"47.23850","Longitude":"-68.61240","Snowdepth":"21.000","Units":"in","Rept_Date":"2021-02-15 12"},"coordinates":[6719,8039]},{"type":"Point","properties":{"Station_ID":"QTM","Station_Nam":"QTM","Latitude":"51.05780","Longitude":"-72.57190","Snowdepth":"20.827","Units":"in","Rept_Date":"2021-02-15 12"},"coordinates":[5790,9707]},{"type":"Point","properties":{"Station_ID":"MI-BG-3","Station_Nam":"THREE LAKES, MI","Latitude":"46.55730","Longitude":"-88.20770","Snowdepth":"20.800","Units":"in","Rept_Date":"2021-02-15 13"},"coordinates":[2121,7741]},{"type":"Point","properties":{"Station_ID":"CAN-QC-56","Station_Nam":"SUTTON 2.6 N, CAN","Latitude":"45.13119","Longitude":"-72.61218","Snowdepth":"20.700","Units":"in","Rept_Date":"2021-02-15 12"},"coordinates":[5781,7118]},{"type":"Point","properties":{"Station_ID":"MI-AN-20","Station_Nam":"HOLLAND 5.3 WSW, MI","Latitude":"42.74900","Longitude":"-86.20200","Snowdepth":"20.600","Units":"in","Rept_Date":"2021-02-15 13"},"coordinates":[2592,6078]},{"type":"Point","properties":{"Station_ID":"VT-WR-2","Station_Nam":"POMFRET 2.6 N, VT","Latitude":"43.74230","Longitude":"-72.52550","Snowdepth":"20.500","Units":"in","Rept_Date":"2021-02-15 12"},"coordinates":[5801,6512]},{"type":"Point","properties":{"Station_ID":"NY-FK-9","Station_Nam":"GABRIELS 1.3 SE, NY","Latitude":"44.41934","Longitude":"-74.16194","Snowdepth":"20.500","Units":"in","Rept_Date":"2021-02-15 12"},"coordinates":[5417,6808]},{"type":"Point","properties":{"Station_ID":"MA-HS-7","Station_Nam":"PLAINFIELD 2.2 SW, MA","Latitude":"42.49272","Longitude":"-72.94540","Snowdepth":"20.500","Units":"in","Rept_Date":"2021-02-15 14"},"coordinates":[5703,5966]},{"type":"Point","properties":{"Station_ID":"WI-RC-3","Station_Nam":"RACINE 2.3 WSW, WI","Latitude":"42.71124","Longitude":"-87.84570","Snowdepth":"20.000","Units":"in","Rept_Date":"2021-02-15 13"},"coordinates":[2206,6062]},{"type":"Point","properties":{"Station_ID":"VT-WS-33","Station_Nam":"WAITSFIELD 3.5 WNW, VT","Latitude":"44.20052","Longitude":"-72.89421","Snowdepth":"20.000","Units":"in","Rept_Date":"2021-02-15 13"},"coordinates":[5715,6712]},{"type":"Point","properties":{"Station_ID":"VT-WH-30","Station_Nam":"MARLBORO 2.0 NNE, VT","Latitude":"42.88484","Longitude":"-72.70935","Snowdepth":"20.000","Units":"in","Rept_Date":"2021-02-15 12"},"coordinates":[5758,6137]},{"type":"Point","properties":{"Station_ID":"VT-OL-1","Station_Nam":"WESTFIELD 0.7 WNW, VT","Latitude":"44.89160","Longitude":"-72.44350","Snowdepth":"20.000","Units":"in","Rept_Date":"2021-02-15 12"},"coordinates":[5820,7014]},{"type":"Point","properties":{"Station_ID":"TOPN6","Station_Nam":"TUPPER LAKE SUNMOUNT","Latitude":"44.23070","Longitude":"-74.43820","Snowdepth":"20.000","Units":"in","Rept_Date":"2021-02-15 12"},"coordinates":[5352,6725]},{"type":"Point","properties":{"Station_ID":"SNYI4","Station_Nam":"STANLEY","Latitude":"42.63330","Longitude":"-91.86320","Snowdepth":"20.000","Units":"in","Rept_Date":"2021-02-15 13"},"coordinates":[1264,6027]},{"type":"Point","properties":{"Station_ID":"PWKW3","Station_Nam":"PEWAUKEE WWTP","Latitude":"43.06170","Longitude":"-88.29500","Snowdepth":"20.000","Units":"in","Rept_Date":"2021-02-15 13"},"coordinates":[2101,6215]},{"type":"Point","properties":{"Station_ID":"PAEO2","Station_Nam":"PAWNEE","Latitude":"36.35660","Longitude":"-96.81080","Snowdepth":"20.000","Units":"in","Rept_Date":"2021-02-15 13"},"coordinates":[103,3286]},{"type":"Point","properties":{"Station_ID":"NY-FK-7","Station_Nam":"SARANAC LAKE 6.2 N, NY","Latitude":"44.41359","Longitude":"-74.15211","Snowdepth":"20.000","Units":"in","Rept_Date":"2021-02-15 12"},"coordinates":[5419,6805]},{"type":"Point","properties":{"Station_ID":"NJ-SS-54","Station_Nam":"SPARTA TWP 3.6 SSW, NJ","Latitude":"41.00503","Longitude":"-74.66358","Snowdepth":"20.000","Units":"in","Rept_Date":"2021-02-15 12"},"coordinates":[5299,5316]},{"type":"Point","properties":{"Station_ID":"NH-MR-41","Station_Nam":"NEWBURY 1.6 NW, NH","Latitude":"43.33667","Longitude":"-72.06060","Snowdepth":"20.000","Units":"in","Rept_Date":"2021-02-15 12"},"coordinates":[5910,6335]},{"type":"Point","properties":{"Station_ID":"NH-CR-26","Station_Nam":"CENTER SANDWICH 4.9 E, NH","Latitude":"43.80976","Longitude":"-71.34150","Snowdepth":"20.000","Units":"in","Rept_Date":"2021-02-15 12"},"coordinates":[6079,6541]},{"type":"Point","properties":{"Station_ID":"MRLV1","Station_Nam":"MARLBORO","Latitude":"42.86000","Longitude":"-72.72000","Snowdepth":"20.000","Units":"in","Rept_Date":"2021-02-15 12"},"coordinates":[5755,6126]},{"type":"Point","properties":{"Station_ID":"MALN6","Station_Nam":"MALONE","Latitude":"44.84180","Longitude":"-74.30600","Snowdepth":"20.000","Units":"in","Rept_Date":"2021-02-15 12"},"coordinates":[5383,6992]},{"type":"Point","properties":{"Station_ID":"LAUP1","Station_Nam":"1.5MI S OF RT 30 ON SMIT (LAUREL RIDGE)","Latitude":"40.05000","Longitude":"-79.22060","Snowdepth":"20.000","Units":"in","Rept_Date":"2021-02-15 12"},"coordinates":[4230,4899]},{"type":"Point","properties":{"Station_ID":"KORD","Station_Nam":"CHICAGO OHARE INTERNATIONAL","Latitude":"41.98333","Longitude":"-87.91666","Snowdepth":"20.000","Units":"in","Rept_Date":"2021-02-16 06"},"coordinates":[2190,5744]},{"type":"Point","properties":{"Station_ID":"IWOM4","Station_Nam":"IRONWOOD#2","Latitude":"46.46520","Longitude":"-90.13820","Snowdepth":"20.000","Units":"in","Rept_Date":"2021-02-15 13"},"coordinates":[1669,7701]},{"type":"Point","properties":{"Station_ID":"HURW3","Station_Nam":"HURLEY","Latitude":"46.46250","Longitude":"-90.19550","Snowdepth":"20.000","Units":"in","Rept_Date":"2021-02-15 14"},"coordinates":[1655,7700]},{"type":"Point","properties":{"Station_ID":"HRTM1","Station_Nam":"HARTFORD","Latitude":"44.37440","Longitude":"-70.31620","Snowdepth":"20.000","Units":"in","Rept_Date":"2021-02-15 12"},"coordinates":[6319,6788]},{"type":"Point","properties":{"Station_ID":"ESDN3","Station_Nam":"EAST SANDWICH","Latitude":"43.80990","Longitude":"-71.34250","Snowdepth":"20.000","Units":"in","Rept_Date":"2021-02-15 11"},"coordinates":[6079,6541]},{"type":"Point","properties":{"Station_ID":"CAN-ON-342","Station_Nam":"LURGAN BEACH 1.4 NNE - LHCC, CAN","Latitude":"44.09777","Longitude":"-81.72765","Snowdepth":"19.700","Units":"in","Rept_Date":"2021-02-15 12"},"coordinates":[3642,6667]},{"type":"Point","properties":{"Station_ID":"MI-CX-7","Station_Nam":"EAST JORDAN 2.1 NNW, MI","Latitude":"45.18639","Longitude":"-85.14750","Snowdepth":"19.500","Units":"in","Rept_Date":"2021-02-15 13"},"coordinates":[2839,7143]},{"type":"Point","properties":{"Station_ID":"MI-AG-6","Station_Nam":"MUNISING 11.1 SSW, MI","Latitude":"46.27805","Longitude":"-86.75747","Snowdepth":"19.500","Units":"in","Rept_Date":"2021-02-15 12"},"coordinates":[2462,7619]},{"type":"Point","properties":{"Station_ID":"IN-PT-63","Station_Nam":"VALPARAISO 1.8 NW, IN","Latitude":"41.49775","Longitude":"-87.07300","Snowdepth":"19.500","Units":"in","Rept_Date":"2021-02-15 15"},"coordinates":[2388,5532]},{"type":"Point","properties":{"Station_ID":"CAN-ON-5","Station_Nam":"OWEN SOUND 1.5 NW - GSCA, CAN","Latitude":"44.57837","Longitude":"-80.95461","Snowdepth":"19.500","Units":"in","Rept_Date":"2021-02-15 13"},"coordinates":[3823,6877]},{"type":"Point","properties":{"Station_ID":"QCO","Station_Nam":"QCO","Latitude":"51.45280","Longitude":"-72.20110","Snowdepth":"19.488","Units":"in","Rept_Date":"2021-02-15 12"},"coordinates":[5877,9879]},{"type":"Point","properties":{"Station_ID":"WI-WW-12","Station_Nam":"ELKHORN 0.4 ESE, WI","Latitude":"42.66970","Longitude":"-88.53170","Snowdepth":"19.300","Units":"in","Rept_Date":"2021-02-15 11"},"coordinates":[2045,6043]},{"type":"Point","properties":{"Station_ID":"CAN-ON-757","Station_Nam":"SAULT STE. MARIE 2.8 ESE - GLFC, CAN","Latitude":"46.50300","Longitude":"-84.30300","Snowdepth":"19.300","Units":"in","Rept_Date":"2021-02-15 13"},"coordinates":[3038,7718]},{"type":"Point","properties":{"Station_ID":"IL-KN-78","Station_Nam":"GENEVA 1.3 SSW, IL","Latitude":"41.86442","Longitude":"-88.32320","Snowdepth":"19.100","Units":"in","Rept_Date":"2021-02-15 13"},"coordinates":[2094,5692]},{"type":"Point","properties":{"Station_ID":"OGIQ6","Station_Nam":"OGOKI CAMP","Latitude":"50.76680","Longitude":"-87.85820","Snowdepth":"19.090","Units":"in","Rept_Date":"2021-02-16 06"},"coordinates":[2203,9580]},{"type":"Point","properties":{"Station_ID":"MLZ","Station_Nam":"MLZ","Latitude":"50.66170","Longitude":"-68.82360","Snowdepth":"19.016","Units":"in","Rept_Date":"2021-02-15 12"},"coordinates":[6670,9534]},{"type":"Point","properties":{"Station_ID":"WI-VL-9","Station_Nam":"LAND O' LAKES 11.7 W, WI","Latitude":"46.19023","Longitude":"-89.45790","Snowdepth":"19.000","Units":"in","Rept_Date":"2021-02-15 13"},"coordinates":[1828,7581]},{"type":"Point","properties":{"Station_ID":"WI-RK-12","Station_Nam":"JANESVILLE 3.1 W, WI","Latitude":"42.67576","Longitude":"-89.07614","Snowdepth":"19.000","Units":"in","Rept_Date":"2021-02-15 13"},"coordinates":[1918,6046]},{"type":"Point","properties":{"Station_ID":"WELM4","Station_Nam":"WELLSTON TIPPY DAM","Latitude":"44.25860","Longitude":"-85.93940","Snowdepth":"19.000","Units":"in","Rept_Date":"2021-02-15 13"},"coordinates":[2654,6737]},{"type":"Point","properties":{"Station_ID":"WAIV1","Station_Nam":"WAITSFIELD","Latitude":"44.17560","Longitude":"-72.79610","Snowdepth":"19.000","Units":"in","Rept_Date":"2021-02-15 12"},"coordinates":[5738,6701]},{"type":"Point","properties":{"Station_ID":"VT-WS-11","Station_Nam":"WAITSFIELD 1.8 SE, VT","Latitude":"44.17551","Longitude":"-72.79540","Snowdepth":"19.000","Units":"in","Rept_Date":"2021-02-15 12"},"coordinates":[5738,6701]},{"type":"Point","properties":{"Station_ID":"STOI2","Station_Nam":"STOCKTON 3 NNE","Latitude":"42.40050","Longitude":"-89.99580","Snowdepth":"19.000","Units":"in","Rept_Date":"2021-02-16 03"},"coordinates":[1702,5926]},{"type":"Point","properties":{"Station_ID":"SSMM4","Station_Nam":"SAULT STE MARIE","Latitude":"46.48660","Longitude":"-84.40250","Snowdepth":"19.000","Units":"in","Rept_Date":"2021-02-15 13"},"coordinates":[3014,7710]},{"type":"Point","properties":{"Station_ID":"RKHN6","Station_Nam":"ROCK HILL 3 SW","Latitude":"41.59170","Longitude":"-74.61410","Snowdepth":"19.000","Units":"in","Rept_Date":"2021-02-15 12"},"coordinates":[5311,5573]},{"type":"Point","properties":{"Station_ID":"PEKN6","Station_Nam":"PECK LAKE","Latitude":"43.11500","Longitude":"-74.42360","Snowdepth":"19.000","Units":"in","Rept_Date":"2021-02-15 12"},"coordinates":[5356,6238]},{"type":"Point","properties":{"Station_ID":"NY-OD-2","Station_Nam":"POINT ROCK 0.6 SE, NY","Latitude":"43.37335","Longitude":"-75.53840","Snowdepth":"19.000","Units":"in","Rept_Date":"2021-02-15 13"},"coordinates":[5094,6351]},{"type":"Point","properties":{"Station_ID":"ME-FR-22","Station_Nam":"FARMINGTON 4.8 NNW, ME","Latitude":"44.73396","Longitude":"-70.18007","Snowdepth":"19.000","Units":"in","Rept_Date":"2021-02-15 14"},"coordinates":[6351,6945]},{"type":"Point","properties":{"Station_ID":"LVRM1","Station_Nam":"LIVERMORE FALLS 1 E","Latitude":"44.47160","Longitude":"-70.15940","Snowdepth":"19.000","Units":"in","Rept_Date":"2021-02-15 12"},"coordinates":[6356,6830]},{"type":"Point","properties":{"Station_ID":"LNOW3","Station_Nam":"LAND O LAKES","Latitude":"46.19000","Longitude":"-89.45700","Snowdepth":"19.000","Units":"in","Rept_Date":"2021-02-15 13"},"coordinates":[1828,7581]},{"type":"Point","properties":{"Station_ID":"KMKE","Station_Nam":"GEN MITCHELL INTERNATIONAL  AIRPORT","Latitude":"42.95000","Longitude":"-87.90000","Snowdepth":"19.000","Units":"in","Rept_Date":"2021-02-16 06"},"coordinates":[2194,6166]},{"type":"Point","properties":{"Station_ID":"IL-JD-8","Station_Nam":"STOCKTON 3.4 NNE, IL","Latitude":"42.39960","Longitude":"-89.99020","Snowdepth":"19.000","Units":"in","Rept_Date":"2021-02-15 13"},"coordinates":[1703,5925]},{"type":"Point","properties":{"Station_ID":"GTTI4","Station_Nam":"LOCK & DAM 10","Latitude":"42.78580","Longitude":"-91.09970","Snowdepth":"19.000","Units":"in","Rept_Date":"2021-02-15 14"},"coordinates":[1443,6094]},{"type":"Point","properties":{"Station_ID":"EJNM4","Station_Nam":"EAST JORDAN 2NW","Latitude":"45.18630","Longitude":"-85.14770","Snowdepth":"19.000","Units":"in","Rept_Date":"2021-02-15 13"},"coordinates":[2839,7142]},{"type":"Point","properties":{"Station_ID":"CAN-NB-11","Station_Nam":"MIRAMICHI 3.3 S, CAN","Latitude":"46.99343","Longitude":"-65.50690","Snowdepth":"19.000","Units":"in","Rept_Date":"2021-02-15 12"},"coordinates":[7448,7932]},{"type":"Point","properties":{"Station_ID":"BKBW2","Station_Nam":"DAVIS.","Latitude":"39.09830","Longitude":"-79.43190","Snowdepth":"19.000","Units":"in","Rept_Date":"2021-02-15 12"},"coordinates":[4181,4484]},{"type":"Point","properties":{"Station_ID":"BEAW3","Station_Nam":"BEAVER DAM,WI","Latitude":"43.45000","Longitude":"-88.85000","Snowdepth":"19.000","Units":"in","Rept_Date":"2021-02-15 13"},"coordinates":[1971,6384]},{"type":"Point","properties":{"Station_ID":"ANJM4","Station_Nam":"SNOW PAID OBSERVER FOR KANJ","Latitude":"46.48670","Longitude":"-84.40260","Snowdepth":"19.000","Units":"in","Rept_Date":"2021-02-15 18"},"coordinates":[3014,7710]},{"type":"Point","properties":{"Station_ID":"ANJ","Station_Nam":"SAULT STE MARIE","Latitude":"46.46670","Longitude":"-84.36670","Snowdepth":"19.000","Units":"in","Rept_Date":"2021-02-16 00"},"coordinates":[3023,7702]},{"type":"Point","properties":{"Station_ID":"QOU","Station_Nam":"QOU","Latitude":"50.79250","Longitude":"-69.67470","Snowdepth":"18.976","Units":"in","Rept_Date":"2021-02-15 12"},"coordinates":[6470,9591]},{"type":"Point","properties":{"Station_ID":"IL-MCH-80","Station_Nam":"HUNTLEY 0.1 SSE, IL","Latitude":"42.16628","Longitude":"-88.42308","Snowdepth":"18.900","Units":"in","Rept_Date":"2021-02-15 13"},"coordinates":[2071,5824]},{"type":"Point","properties":{"Station_ID":"WI-BY-29","Station_Nam":"BAYFIELD 5.1 NNW, WI","Latitude":"46.88063","Longitude":"-90.85854","Snowdepth":"18.500","Units":"in","Rept_Date":"2021-02-15 14"},"coordinates":[1499,7882]},{"type":"Point","properties":{"Station_ID":"VT-WS-19","Station_Nam":"WATERBURY 3.0 NW, VT","Latitude":"44.36060","Longitude":"-72.80770","Snowdepth":"18.500","Units":"in","Rept_Date":"2021-02-15 11"},"coordinates":[5735,6782]},{"type":"Point","properties":{"Station_ID":"VT-AD-20","Station_Nam":"HANCOCK 0.3 S, VT","Latitude":"43.92166","Longitude":"-72.84042","Snowdepth":"18.500","Units":"in","Rept_Date":"2021-02-15 12"},"coordinates":[5727,6590]},{"type":"Point","properties":{"Station_ID":"PA-MN-16","Station_Nam":"MOUNT POCONO 0.7 N, PA","Latitude":"41.13190","Longitude":"-75.35804","Snowdepth":"18.500","Units":"in","Rept_Date":"2021-02-15 12"},"coordinates":[5136,5372]},{"type":"Point","properties":{"Station_ID":"NY-ES-6","Station_Nam":"OLMSTEDVILLE 4.6 NNE, NY","Latitude":"43.83350","Longitude":"-73.89780","Snowdepth":"18.500","Units":"in","Rept_Date":"2021-02-15 13"},"coordinates":[5479,6552]},{"type":"Point","properties":{"Station_ID":"IL-CK-211","Station_Nam":"OAK LAWN 1.6 WNW, IL","Latitude":"41.72686","Longitude":"-87.77770","Snowdepth":"18.400","Units":"in","Rept_Date":"2021-02-15 14"},"coordinates":[2222,5632]},{"type":"Point","properties":{"Station_ID":"SOCQ6","Station_Nam":"SOCKET LAKE","Latitude":"50.77870","Longitude":"-91.79300","Snowdepth":"18.390","Units":"in","Rept_Date":"2021-02-16 06"},"coordinates":[1280,9585]},{"type":"Point","properties":{"Station_ID":"KABQ6","Station_Nam":"CAB LAKE","Latitude":"49.59950","Longitude":"-89.17990","Snowdepth":"18.030","Units":"in","Rept_Date":"2021-02-16 06"},"coordinates":[1893,9070]},{"type":"Point","properties":{"Station_ID":"WTNM4","Station_Nam":"WATTON 2WSW","Latitude":"46.52660","Longitude":"-88.64240","Snowdepth":"18.000","Units":"in","Rept_Date":"2021-02-15 13"},"coordinates":[2019,7728]},{"type":"Point","properties":{"Station_ID":"WSFW3","Station_Nam":"TOWN OF WESTFORD","Latitude":"43.47190","Longitude":"-88.88250","Snowdepth":"18.000","Units":"in","Rept_Date":"2021-02-15 13"},"coordinates":[1963,6394]},{"type":"Point","properties":{"Station_ID":"WI-DD-16","Station_Nam":"BEAVER DAM 2.4 WNW, WI","Latitude":"43.47210","Longitude":"-88.88280","Snowdepth":"18.000","Units":"in","Rept_Date":"2021-02-15 13"},"coordinates":[1963,6394]},{"type":"Point","properties":{"Station_ID":"WI-DA-35","Station_Nam":"MADISON 5.5 N, WI","Latitude":"43.15858","Longitude":"-89.37280","Snowdepth":"18.000","Units":"in","Rept_Date":"2021-02-15 14"},"coordinates":[1848,6257]},{"type":"Point","properties":{"Station_ID":"VT-WS-30","Station_Nam":"WOODBURY 3.4 NNW, VT","Latitude":"44.48825","Longitude":"-72.43258","Snowdepth":"18.000","Units":"in","Rept_Date":"2021-02-15 12"},"coordinates":[5823,6838]},{"type":"Point","properties":{"Station_ID":"VT-CH-4","Station_Nam":"UNDERHILL 4.4 NNE, VT","Latitude":"44.58774","Longitude":"-72.92250","Snowdepth":"18.000","Units":"in","Rept_Date":"2021-02-15 12"},"coordinates":[5708,6881]},{"type":"Point","properties":{"Station_ID":"STEM4","Station_Nam":"STEUBEN","Latitude":"46.18530","Longitude":"-86.46410","Snowdepth":"18.000","Units":"in","Rept_Date":"2021-02-15 14"},"coordinates":[2531,7579]},{"type":"Point","properties":{"Station_ID":"RANM1","Station_Nam":"RANGELEY","Latitude":"44.98910","Longitude":"-70.67190","Snowdepth":"18.000","Units":"in","Rept_Date":"2021-02-15 13"},"coordinates":[6236,7056]},{"type":"Point","properties":{"Station_ID":"PLEP1","Station_Nam":"PLEASANT MOUNT 1 W","Latitude":"41.73940","Longitude":"-75.44650","Snowdepth":"18.000","Units":"in","Rept_Date":"2021-02-15 14"},"coordinates":[5116,5637]},{"type":"Point","properties":{"Station_ID":"PDGM4","Station_Nam":"PAULDING","Latitude":"46.39760","Longitude":"-89.17940","Snowdepth":"18.000","Units":"in","Rept_Date":"2021-02-15 13"},"coordinates":[1893,7671]},{"type":"Point","properties":{"Station_ID":"NUNV1","Station_Nam":"NORTH UNDERHILL","Latitude":"44.58760","Longitude":"-72.92150","Snowdepth":"18.000","Units":"in","Rept_Date":"2021-02-15 12"},"coordinates":[5708,6881]},{"type":"Point","properties":{"Station_ID":"NH-CS-19","Station_Nam":"CARROLL 4.6 NE, NH","Latitude":"44.33765","Longitude":"-71.46461","Snowdepth":"18.000","Units":"in","Rept_Date":"2021-02-15 12"},"coordinates":[6050,6772]},{"type":"Point","properties":{"Station_ID":"NCBN6","Station_Nam":"NEWCOMB","Latitude":"43.97070","Longitude":"-74.22200","Snowdepth":"18.000","Units":"in","Rept_Date":"2021-02-15 12"},"coordinates":[5403,6612]},{"type":"Point","properties":{"Station_ID":"MQT","Station_Nam":"MARQUETTE, MI","Latitude":"46.53140","Longitude":"-87.54920","Snowdepth":"18.000","Units":"in","Rept_Date":"2021-02-16 00"},"coordinates":[2276,7730]},{"type":"Point","properties":{"Station_ID":"MN-IS-18","Station_Nam":"BRAHAM 0.7 SW, MN","Latitude":"45.71379","Longitude":"-93.18095","Snowdepth":"18.000","Units":"in","Rept_Date":"2021-02-15 14"},"coordinates":[955,7373]},{"type":"Point","properties":{"Station_ID":"MA-HS-14","Station_Nam":"PLAINFIELD 2.4 ESE, MA","Latitude":"42.49792","Longitude":"-72.87769","Snowdepth":"18.000","Units":"in","Rept_Date":"2021-02-15 12"},"coordinates":[5718,5968]},{"type":"Point","properties":{"Station_ID":"LOWN6","Station_Nam":"LOWVILLE","Latitude":"43.79280","Longitude":"-75.48290","Snowdepth":"18.000","Units":"in","Rept_Date":"2021-02-15 12"},"coordinates":[5107,6534]},{"type":"Point","properties":{"Station_ID":"LODW3","Station_Nam":"LODI","Latitude":"43.32170","Longitude":"-89.53110","Snowdepth":"18.000","Units":"in","Rept_Date":"2021-02-15 13"},"coordinates":[1811,6328]},{"type":"Point","properties":{"Station_ID":"KGTB","Station_Nam":"FORT DRUM / WHEELER-SACK U. S. ARMY AIRFIELD","Latitude":"44.05000","Longitude":"-75.73333","Snowdepth":"18.000","Units":"in","Rept_Date":"2021-02-16 06"},"coordinates":[5048,6646]},{"type":"Point","properties":{"Station_ID":"IN-PT-110","Station_Nam":"CHESTERTON 1.4 ENE, IN","Latitude":"41.61204","Longitude":"-87.03401","Snowdepth":"18.000","Units":"in","Rept_Date":"2021-02-15 13"},"coordinates":[2397,5581]},{"type":"Point","properties":{"Station_ID":"IN-LP-7","Station_Nam":"LA PORTE 1.6 SW, IN","Latitude":"41.59040","Longitude":"-86.73430","Snowdepth":"18.000","Units":"in","Rept_Date":"2021-02-15 13"},"coordinates":[2467,5572]},{"type":"Point","properties":{"Station_ID":"IL-MCH-43","Station_Nam":"ALGONQUIN 0.7 N, IL","Latitude":"42.17392","Longitude":"-88.29930","Snowdepth":"18.000","Units":"in","Rept_Date":"2021-02-15 12"},"coordinates":[2100,5827]},{"type":"Point","properties":{"Station_ID":"IL-DP-87","Station_Nam":"ROSELLE 1.2 ESE, IL","Latitude":"41.97664","Longitude":"-88.05980","Snowdepth":"18.000","Units":"in","Rept_Date":"2021-02-15 15"},"coordinates":[2156,5741]},{"type":"Point","properties":{"Station_ID":"IL-DP-127","Station_Nam":"DOWNERS GROVE 0.4 NNE, IL","Latitude":"41.80331","Longitude":"-88.01542","Snowdepth":"18.000","Units":"in","Rept_Date":"2021-02-15 13"},"coordinates":[2167,5665]},{"type":"Point","properties":{"Station_ID":"IL-CK-180","Station_Nam":"PARK RIDGE 0.5 SSW, IL","Latitude":"42.00443","Longitude":"-87.84600","Snowdepth":"18.000","Units":"in","Rept_Date":"2021-02-15 13"},"coordinates":[2206,5753]},{"type":"Point","properties":{"Station_ID":"HCKN3","Station_Nam":"HANCOCK","Latitude":"42.96940","Longitude":"-71.95290","Snowdepth":"18.000","Units":"in","Rept_Date":"2021-02-15 12"},"coordinates":[5935,6174]},{"type":"Point","properties":{"Station_ID":"FVLN6","Station_Nam":"FREEVILLE,NY","Latitude":"42.51670","Longitude":"-76.33330","Snowdepth":"18.000","Units":"in","Rept_Date":"2021-02-15 13"},"coordinates":[4908,5977]},{"type":"Point","properties":{"Station_ID":"FARM1","Station_Nam":"FARMINGTON","Latitude":"44.68930","Longitude":"-70.15640","Snowdepth":"18.000","Units":"in","Rept_Date":"2021-02-15 12"},"coordinates":[6357,6925]},{"type":"Point","properties":{"Station_ID":"DUBI4","Station_Nam":"DUBUQUE #3","Latitude":"42.40870","Longitude":"-90.73250","Snowdepth":"18.000","Units":"in","Rept_Date":"2021-02-16 06"},"coordinates":[1529,5929]},{"type":"Point","properties":{"Station_ID":"DGVW3","Station_Nam":"DODGEVILLE","Latitude":"42.96670","Longitude":"-90.11670","Snowdepth":"18.000","Units":"in","Rept_Date":"2021-02-15 13"},"coordinates":[1674,6173]},{"type":"Point","properties":{"Station_ID":"DBQ","Station_Nam":"DUBUQUE REGIONAL AIRPORT","Latitude":"42.40310","Longitude":"-90.70920","Snowdepth":"18.000","Units":"in","Rept_Date":"2021-02-16 00"},"coordinates":[1535,5927]},{"type":"Point","properties":{"Station_ID":"CLUI4","Station_Nam":"CLUTIER,IA","Latitude":"42.08330","Longitude":"-92.40000","Snowdepth":"18.000","Units":"in","Rept_Date":"2021-02-15 13"},"coordinates":[1138,5787]},{"type":"Point","properties":{"Station_ID":"CLQM5","Station_Nam":"CLOQUET","Latitude":"46.70470","Longitude":"-92.52530","Snowdepth":"18.000","Units":"in","Rept_Date":"2021-02-15 14"},"coordinates":[1108,7806]},{"type":"Point","properties":{"Station_ID":"CLKM4","Station_Nam":"CLARKSBURG","Latitude":"46.49910","Longitude":"-87.84500","Snowdepth":"18.000","Units":"in","Rept_Date":"2021-02-15 12"},"coordinates":[2207,7716]},{"type":"Point","properties":{"Station_ID":"CAN-NB-18","Station_Nam":"MCLEOD HILL 1.1 ENE, CA","Latitude":"46.02725","Longitude":"-66.67460","Snowdepth":"18.000","Units":"in","Rept_Date":"2021-02-15 12"},"coordinates":[7174,7510]},{"type":"Point","properties":{"Station_ID":"AVLV1","Station_Nam":"AVERILL","Latitude":"45.00570","Longitude":"-71.69030","Snowdepth":"18.000","Units":"in","Rept_Date":"2021-02-15 13"},"coordinates":[5997,7064]},{"type":"Point","properties":{"Station_ID":"IL-WL-63","Station_Nam":"NEW LENOX 1.8 SE, IL","Latitude":"41.49964","Longitude":"-87.96030","Snowdepth":"17.800","Units":"in","Rept_Date":"2021-02-15 13"},"coordinates":[2180,5532]},{"type":"Point","properties":{"Station_ID":"WI-DA-99","Station_Nam":"FITCHBURG 1.1 NW, WI","Latitude":"42.99740","Longitude":"-89.44046","Snowdepth":"17.500","Units":"in","Rept_Date":"2021-02-15 13"},"coordinates":[1832,6186]},{"type":"Point","properties":{"Station_ID":"VT-WR-10","Station_Nam":"WEST WINDSOR 1.7 S, VT","Latitude":"43.46164","Longitude":"-72.49197","Snowdepth":"17.500","Units":"in","Rept_Date":"2021-02-15 12"},"coordinates":[5809,6389]},{"type":"Point","properties":{"Station_ID":"VT-BN-7","Station_Nam":"MANCHESTER 2.8 ENE, VT","Latitude":"43.17274","Longitude":"-73.01811","Snowdepth":"17.500","Units":"in","Rept_Date":"2021-02-15 12"},"coordinates":[5685,6263]},{"type":"Point","properties":{"Station_ID":"NY-OT-29","Station_Nam":"NEW BERLIN 1.5 NE, NY","Latitude":"42.63689","Longitude":"-75.31090","Snowdepth":"17.500","Units":"in","Rept_Date":"2021-02-15 13"},"coordinates":[5147,6029]},{"type":"Point","properties":{"Station_ID":"NY-HM-6","Station_Nam":"LONG LAKE 0.1 SSE, NY","Latitude":"43.97155","Longitude":"-74.42000","Snowdepth":"17.500","Units":"in","Rept_Date":"2021-02-15 12"},"coordinates":[5357,6612]},{"type":"Point","properties":{"Station_ID":"IN-PT-3","Station_Nam":"VALPARAISO 2.0 WSW, IN","Latitude":"41.46741","Longitude":"-87.08750","Snowdepth":"17.500","Units":"in","Rept_Date":"2021-02-15 16"},"coordinates":[2384,5518]},{"type":"Point","properties":{"Station_ID":"QWE","Station_Nam":"QWE","Latitude":"47.84610","Longitude":"-73.80670","Snowdepth":"17.441","Units":"in","Rept_Date":"2021-02-15 12"},"coordinates":[5500,8304]},{"type":"Point","properties":{"Station_ID":"CAN-QC-51","Station_Nam":"BELOEIL 0.7 NW, CAN","Latitude":"45.58049","Longitude":"-73.21218","Snowdepth":"17.400","Units":"in","Rept_Date":"2021-02-15 12"},"coordinates":[5640,7315]},{"type":"Point","properties":{"Station_ID":"CAN-NL-82","Station_Nam":"GANDER 2.7 NW, CAN","Latitude":"48.97737","Longitude":"-54.63396","Snowdepth":"17.300","Units":"in","Rept_Date":"2021-02-15 10"},"coordinates":[9999,8798]},{"type":"Point","properties":{"Station_ID":"CAN-NB-111","Station_Nam":"EDMUNDSTON 1.4 NE - SAJESS, CAN","Latitude":"47.37312","Longitude":"-68.32311","Snowdepth":"17.300","Units":"in","Rept_Date":"2021-02-15 13"},"coordinates":[6787,8098]},{"type":"Point","properties":{"Station_ID":"QMD","Station_Nam":"QMD","Latitude":"49.29060","Longitude":"-75.84500","Snowdepth":"17.244","Units":"in","Rept_Date":"2021-02-15 12"},"coordinates":[5022,8935]},{"type":"Point","properties":{"Station_ID":"IN-PT-69","Station_Nam":"PORTER 0.6 S, IN","Latitude":"41.61892","Longitude":"-87.08250","Snowdepth":"17.200","Units":"in","Rept_Date":"2021-02-15 13"},"coordinates":[2385,5584]},{"type":"Point","properties":{"Station_ID":"SVBQ6","Station_Nam":"SAVANT BASE","Latitude":"50.28730","Longitude":"-90.65670","Snowdepth":"17.090","Units":"in","Rept_Date":"2021-02-16 06"},"coordinates":[1547,9370]},{"type":"Point","properties":{"Station_ID":"WTRM4","Station_Nam":"WATERSMEET 12WSW","Latitude":"46.22310","Longitude":"-89.40850","Snowdepth":"17.000","Units":"in","Rept_Date":"2021-02-15 12"},"coordinates":[1840,7595]},{"type":"Point","properties":{"Station_ID":"WI-WW-2","Station_Nam":"LAKE GENEVA 0.6 ENE, WI","Latitude":"42.59169","Longitude":"-88.41770","Snowdepth":"17.000","Units":"in","Rept_Date":"2021-02-15 13"},"coordinates":[2072,6009]},{"type":"Point","properties":{"Station_ID":"WI-WS-15","Station_Nam":"WEST BEND 5.4 SE, WI","Latitude":"43.37259","Longitude":"-88.10086","Snowdepth":"17.000","Units":"in","Rept_Date":"2021-02-15 14"},"coordinates":[2147,6350]},{"type":"Point","properties":{"Station_ID":"WI-IW-3","Station_Nam":"MINERAL POINT 7.3 ENE, WI","Latitude":"42.91400","Longitude":"-90.05700","Snowdepth":"17.000","Units":"in","Rept_Date":"2021-02-15 13"},"coordinates":[1688,6150]},{"type":"Point","properties":{"Station_ID":"WI-BY-14","Station_Nam":"ASHLAND 9.8 W, WI","Latitude":"46.59742","Longitude":"-91.07856","Snowdepth":"17.000","Units":"in","Rept_Date":"2021-02-15 12"},"coordinates":[1448,7759]},{"type":"Point","properties":{"Station_ID":"VT-WS-10","Station_Nam":"NORTHFIELD 1.5 N, VT","Latitude":"44.16986","Longitude":"-72.65200","Snowdepth":"17.000","Units":"in","Rept_Date":"2021-02-15 12"},"coordinates":[5771,6699]},{"type":"Point","properties":{"Station_ID":"VNTI4","Station_Nam":"VINTON","Latitude":"42.17020","Longitude":"-92.00770","Snowdepth":"17.000","Units":"in","Rept_Date":"2021-02-15 13"},"coordinates":[1230,5825]},{"type":"Point","properties":{"Station_ID":"SUAW3","Station_Nam":"SUAMICO","Latitude":"44.60190","Longitude":"-88.09780","Snowdepth":"17.000","Units":"in","Rept_Date":"2021-02-15 12"},"coordinates":[2147,6887]},{"type":"Point","properties":{"Station_ID":"SPTI4","Station_Nam":"STRAWBERRY POINT","Latitude":"42.68530","Longitude":"-91.53300","Snowdepth":"17.000","Units":"in","Rept_Date":"2021-02-15 13"},"coordinates":[1341,6050]},{"type":"Point","properties":{"Station_ID":"SPRP1","Station_Nam":"SPRINGTOWN 1 NNE","Latitude":"40.57110","Longitude":"-75.27810","Snowdepth":"17.000","Units":"in","Rept_Date":"2021-02-15 12"},"coordinates":[5155,5127]},{"type":"Point","properties":{"Station_ID":"SNOW2","Station_Nam":"SNOWSHOE","Latitude":"38.39900","Longitude":"-79.99490","Snowdepth":"17.000","Units":"in","Rept_Date":"2021-02-15 11"},"coordinates":[4048,4178]},{"type":"Point","properties":{"Station_ID":"RCHW3","Station_Nam":"RICHRIELD,WI","Latitude":"43.21080","Longitude":"-88.20940","Snowdepth":"17.000","Units":"in","Rept_Date":"2021-02-15 12"},"coordinates":[2121,6280]},{"type":"Point","properties":{"Station_ID":"PKFI2","Station_Nam":"PARK FOREST,IL","Latitude":"41.50000","Longitude":"-87.68330","Snowdepth":"17.000","Units":"in","Rept_Date":"2021-02-15 13"},"coordinates":[2245,5533]},{"type":"Point","properties":{"Station_ID":"PHON6","Station_Nam":"PHOENICIA 2SW","Latitude":"42.06420","Longitude":"-74.34080","Snowdepth":"17.000","Units":"in","Rept_Date":"2021-02-15 12"},"coordinates":[5375,5779]},{"type":"Point","properties":{"Station_ID":"PA-PK-22","Station_Nam":"MILFORD 8.7 NW, PA","Latitude":"41.42018","Longitude":"-74.90953","Snowdepth":"17.000","Units":"in","Rept_Date":"2021-02-15 12"},"coordinates":[5242,5498]},{"type":"Point","properties":{"Station_ID":"PA-CB-33","Station_Nam":"LAKE HARMONY 2.4 WNW, PA","Latitude":"41.07333","Longitude":"-75.63317","Snowdepth":"17.000","Units":"in","Rept_Date":"2021-02-15 12"},"coordinates":[5072,5346]},{"type":"Point","properties":{"Station_ID":"NVLV1","Station_Nam":"NASHVILLE","Latitude":"44.44970","Longitude":"-72.92640","Snowdepth":"17.000","Units":"in","Rept_Date":"2021-02-15 12"},"coordinates":[5707,6821]},{"type":"Point","properties":{"Station_ID":"NJ-SS-7","Station_Nam":"HARDYSTON TWP 3.2 SE, NJ","Latitude":"41.08903","Longitude":"-74.53990","Snowdepth":"17.000","Units":"in","Rept_Date":"2021-02-15 13"},"coordinates":[5328,5353]},{"type":"Point","properties":{"Station_ID":"NJ-SS-1","Station_Nam":"ANDOVER TWP 1.7 W, NJ","Latitude":"41.01974","Longitude":"-74.76110","Snowdepth":"17.000","Units":"in","Rept_Date":"2021-02-15 12"},"coordinates":[5276,5323]},{"type":"Point","properties":{"Station_ID":"MN-CW-29","Station_Nam":"BRAINERD 7.7 SSE, MN","Latitude":"46.24996","Longitude":"-94.14576","Snowdepth":"17.000","Units":"in","Rept_Date":"2021-02-15 13"},"coordinates":[728,7607]},{"type":"Point","properties":{"Station_ID":"MIEM4","Station_Nam":"MICHIGAMME 3WNW","Latitude":"46.54530","Longitude":"-88.18000","Snowdepth":"17.000","Units":"in","Rept_Date":"2021-02-15 13"},"coordinates":[2128,7736]},{"type":"Point","properties":{"Station_ID":"MI-OC-3","Station_Nam":"HART 3 WSW, MI","Latitude":"43.67470","Longitude":"-86.42250","Snowdepth":"17.000","Units":"in","Rept_Date":"2021-02-15 12"},"coordinates":[2540,6482]},{"type":"Point","properties":{"Station_ID":"MI-MQ-28","Station_Nam":"CARLSHEND, MI","Latitude":"46.31638","Longitude":"-87.19944","Snowdepth":"17.000","Units":"in","Rept_Date":"2021-02-15 13"},"coordinates":[2358,7636]},{"type":"Point","properties":{"Station_ID":"MI-CP-14","Station_Nam":"SAULT STE. MARIE 2.2 E, MI","Latitude":"46.48933","Longitude":"-84.31971","Snowdepth":"17.000","Units":"in","Rept_Date":"2021-02-15 13"},"coordinates":[3034,7712]},{"type":"Point","properties":{"Station_ID":"MA-BE-24","Station_Nam":"HANCOCK 3.6 NNE, MA","Latitude":"42.59130","Longitude":"-73.29530","Snowdepth":"17.000","Units":"in","Rept_Date":"2021-02-15 17"},"coordinates":[5620,6009]},{"type":"Point","properties":{"Station_ID":"LSXI4","Station_Nam":"LITTLE SIOUX,IA","Latitude":"41.81670","Longitude":"-96.01670","Snowdepth":"17.000","Units":"in","Rept_Date":"2021-02-15 13"},"coordinates":[289,5671]},{"type":"Point","properties":{"Station_ID":"LGEW3","Station_Nam":"LAKE GENEVA, WI","Latitude":"42.60000","Longitude":"-88.43440","Snowdepth":"17.000","Units":"in","Rept_Date":"2021-02-15 13"},"coordinates":[2068,6013]},{"type":"Point","properties":{"Station_ID":"IRMM4","Station_Nam":"WWTP","Latitude":"46.46670","Longitude":"-90.18330","Snowdepth":"17.000","Units":"in","Rept_Date":"2021-02-15 13"},"coordinates":[1658,7702]},{"type":"Point","properties":{"Station_ID":"IL-SP-6","Station_Nam":"FREEPORT 2.0 NW, IL","Latitude":"42.30955","Longitude":"-89.66370","Snowdepth":"17.000","Units":"in","Rept_Date":"2021-02-15 13"},"coordinates":[1780,5886]},{"type":"Point","properties":{"Station_ID":"IL-LK-42","Station_Nam":"GURNEE 1.6 W, IL","Latitude":"42.37776","Longitude":"-87.96740","Snowdepth":"17.000","Units":"in","Rept_Date":"2021-02-15 13"},"coordinates":[2178,5916]},{"type":"Point","properties":{"Station_ID":"IL-CR-12","Station_Nam":"MOUNT CARROLL 6.8 NNW, IL","Latitude":"42.18735","Longitude":"-90.02185","Snowdepth":"17.000","Units":"in","Rept_Date":"2021-02-15 13"},"coordinates":[1696,5833]},{"type":"Point","properties":{"Station_ID":"IL-BN-19","Station_Nam":"BELVIDERE 5.0 NNW, IL","Latitude":"42.32071","Longitude":"-88.88282","Snowdepth":"17.000","Units":"in","Rept_Date":"2021-02-15 13"},"coordinates":[1963,5891]},{"type":"Point","properties":{"Station_ID":"HUBN3","Station_Nam":"HUBBARD BROOK","Latitude":"43.93330","Longitude":"-71.71670","Snowdepth":"17.000","Units":"in","Rept_Date":"2021-02-16 06"},"coordinates":[5991,6595]},{"type":"Point","properties":{"Station_ID":"HRTM4","Station_Nam":"HART,MI","Latitude":"43.70000","Longitude":"-86.36670","Snowdepth":"17.000","Units":"in","Rept_Date":"2021-02-15 12"},"coordinates":[2553,6493]},{"type":"Point","properties":{"Station_ID":"HINW3","Station_Nam":"HINGHAM","Latitude":"43.64060","Longitude":"-87.91060","Snowdepth":"17.000","Units":"in","Rept_Date":"2021-02-15 13"},"coordinates":[2191,6467]},{"type":"Point","properties":{"Station_ID":"GLEI2","Station_Nam":"GLEN ELLYN 4S","Latitude":"41.82670","Longitude":"-88.05810","Snowdepth":"17.000","Units":"in","Rept_Date":"2021-02-15 13"},"coordinates":[2157,5675]},{"type":"Point","properties":{"Station_ID":"EVRW3","Station_Nam":"EAGLE RIVER-4 E","Latitude":"45.91890","Longitude":"-89.15280","Snowdepth":"17.000","Units":"in","Rept_Date":"2021-02-15 13"},"coordinates":[1900,7462]},{"type":"Point","properties":{"Station_ID":"EGRW3","Station_Nam":"EAGLE RIVER-SOUTH","Latitude":"45.91360","Longitude":"-89.24360","Snowdepth":"17.000","Units":"in","Rept_Date":"2021-02-15 13"},"coordinates":[1878,7460]},{"type":"Point","properties":{"Station_ID":"CAN-QC-37","Station_Nam":"LAVAL 3.8 SSW, CAN","Latitude":"45.55358","Longitude":"-73.76976","Snowdepth":"17.000","Units":"in","Rept_Date":"2021-02-15 13"},"coordinates":[5509,7303]},{"type":"Point","properties":{"Station_ID":"BROW3","Station_Nam":"BRODHEAD,WI","Latitude":"42.61720","Longitude":"-89.38970","Snowdepth":"17.000","Units":"in","Rept_Date":"2021-02-15 13"},"coordinates":[1844,6020]},{"type":"Point","properties":{"Station_ID":"BDMW3","Station_Nam":"BEAVER DAM 1 N","Latitude":"43.46860","Longitude":"-88.83970","Snowdepth":"17.000","Units":"in","Rept_Date":"2021-02-15 13"},"coordinates":[1973,6392]},{"type":"Point","properties":{"Station_ID":"BBEM4","Station_Nam":"BIG BAY 9SW","Latitude":"46.74620","Longitude":"-87.88160","Snowdepth":"17.000","Units":"in","Rept_Date":"2021-02-15 13"},"coordinates":[2198,7824]},{"type":"Point","properties":{"Station_ID":"BAYW2","Station_Nam":"BAYARD COOP","Latitude":"39.27280","Longitude":"-79.36830","Snowdepth":"17.000","Units":"in","Rept_Date":"2021-02-15 12"},"coordinates":[4195,4560]},{"type":"Point","properties":{"Station_ID":"AMAM4","Station_Nam":"AMASA 1W","Latitude":"46.23470","Longitude":"-88.45440","Snowdepth":"17.000","Units":"in","Rept_Date":"2021-02-15 14"},"coordinates":[2064,7600]},{"type":"Point","properties":{"Station_ID":"NE-SY-25","Station_Nam":"GRETNA 2.9 NNE, NE","Latitude":"41.17831","Longitude":"-96.21984","Snowdepth":"16.800","Units":"in","Rept_Date":"2021-02-15 14"},"coordinates":[242,5392]},{"type":"Point","properties":{"Station_ID":"WI-IR-2","Station_Nam":"MERCER 2.0 SE, WI","Latitude":"46.14749","Longitude":"-90.03097","Snowdepth":"16.500","Units":"in","Rept_Date":"2021-02-15 13"},"coordinates":[1694,7562]},{"type":"Point","properties":{"Station_ID":"WI-DA-87","Station_Nam":"DUNKIRK 0.1 NW, WI","Latitude":"42.88356","Longitude":"-89.21056","Snowdepth":"16.500","Units":"in","Rept_Date":"2021-02-15 12"},"coordinates":[1886,6137]},{"type":"Point","properties":{"Station_ID":"WI-CB-5","Station_Nam":"PORTAGE 7.2 SW, WI","Latitude":"43.47933","Longitude":"-89.57370","Snowdepth":"16.500","Units":"in","Rept_Date":"2021-02-15 13"},"coordinates":[1801,6397]},{"type":"Point","properties":{"Station_ID":"WI-CB-4","Station_Nam":"PORTAGE 5.7 WSW, WI","Latitude":"43.51411","Longitude":"-89.56910","Snowdepth":"16.500","Units":"in","Rept_Date":"2021-02-15 12"},"coordinates":[1802,6412]},{"type":"Point","properties":{"Station_ID":"VT-ES-3","Station_Nam":"LUNENBURG 2.3 NNW, VT","Latitude":"44.49324","Longitude":"-71.70446","Snowdepth":"16.500","Units":"in","Rept_Date":"2021-02-15 12"},"coordinates":[5994,6840]},{"type":"Point","properties":{"Station_ID":"NY-ES-7","Station_Nam":"KEESEVILLE 0.8 SE, NY","Latitude":"44.49504","Longitude":"-73.47109","Snowdepth":"16.500","Units":"in","Rept_Date":"2021-02-15 12"},"coordinates":[5579,6841]},{"type":"Point","properties":{"Station_ID":"NJ-MS-94","Station_Nam":"JEFFERSON TWP 4.4 SW, NJ","Latitude":"40.96404","Longitude":"-74.62162","Snowdepth":"16.500","Units":"in","Rept_Date":"2021-02-15 12"},"coordinates":[5309,5298]},{"type":"Point","properties":{"Station_ID":"IL-DP-157","Station_Nam":"WEST CHICAGO 3.5 NNE, IL","Latitude":"41.93718","Longitude":"-88.19884","Snowdepth":"16.500","Units":"in","Rept_Date":"2021-02-15 13"},"coordinates":[2124,5723]},{"type":"Point","properties":{"Station_ID":"IL-DP-109","Station_Nam":"ELMHURST 0.8 ESE, IL","Latitude":"41.89287","Longitude":"-87.92960","Snowdepth":"16.500","Units":"in","Rept_Date":"2021-02-15 13"},"coordinates":[2187,5704]},{"type":"Point","properties":{"Station_ID":"IL-CK-320","Station_Nam":"PARK FOREST 0.7 WNW, IL","Latitude":"41.48579","Longitude":"-87.69962","Snowdepth":"16.500","Units":"in","Rept_Date":"2021-02-15 13"},"coordinates":[2241,5526]},{"type":"Point","properties":{"Station_ID":"IA-ST-1","Station_Nam":"LE CLAIRE 1.8 NNE, IA","Latitude":"41.62355","Longitude":"-90.35140","Snowdepth":"16.500","Units":"in","Rept_Date":"2021-02-15 14"},"coordinates":[1618,5586]},{"type":"Point","properties":{"Station_ID":"IA-SH-6","Station_Nam":"KIRKMAN 1.0 SE, IA","Latitude":"41.71810","Longitude":"-95.25310","Snowdepth":"16.500","Units":"in","Rept_Date":"2021-02-15 13"},"coordinates":[468,5628]},{"type":"Point","properties":{"Station_ID":"CT-NH-72","Station_Nam":"NORTHFORD 0.8 SW, CT","Latitude":"41.38554","Longitude":"-72.80240","Snowdepth":"16.500","Units":"in","Rept_Date":"2021-02-15 12"},"coordinates":[5736,5483]},{"type":"Point","properties":{"Station_ID":"CAN-ON-451","Station_Nam":"OWEN SOUND 1.2 N - GSCA, CAN","Latitude":"44.58092","Longitude":"-80.93025","Snowdepth":"16.500","Units":"in","Rept_Date":"2021-02-15 13"},"coordinates":[3829,6878]},{"type":"Point","properties":{"Station_ID":"CAN-NL-65","Station_Nam":"KIPPENS 0.7 NE, CA","Latitude":"48.55436","Longitude":"-58.61850","Snowdepth":"16.500","Units":"in","Rept_Date":"2021-02-15 12"},"coordinates":[9064,8613]},{"type":"Point","properties":{"Station_ID":"CAN-ON-220","Station_Nam":"DEEP RIVER 1.5 SE - MNRF, CAN","Latitude":"46.09592","Longitude":"-77.47853","Snowdepth":"16.100","Units":"in","Rept_Date":"2021-02-15 15"},"coordinates":[4639,7540]},{"type":"Point","properties":{"Station_ID":"WORV1","Station_Nam":"WORCESTER 2 W","Latitude":"44.37470","Longitude":"-72.58220","Snowdepth":"16.000","Units":"in","Rept_Date":"2021-02-15 12"},"coordinates":[5788,6788]},{"type":"Point","properties":{"Station_ID":"WODI2","Station_Nam":"WOODSTOCK","Latitude":"42.36280","Longitude":"-88.53140","Snowdepth":"16.000","Units":"in","Rept_Date":"2021-02-15 13"},"coordinates":[2046,5909]},{"type":"Point","properties":{"Station_ID":"WI-WK-74","Station_Nam":"BROOKFIELD 2.8 SSW, WI","Latitude":"43.02390","Longitude":"-88.13760","Snowdepth":"16.000","Units":"in","Rept_Date":"2021-02-15 13"},"coordinates":[2138,6198]},{"type":"Point","properties":{"Station_ID":"WI-WK-34","Station_Nam":"MUKWONAGO 5.3 W, WI","Latitude":"42.85380","Longitude":"-88.43550","Snowdepth":"16.000","Units":"in","Rept_Date":"2021-02-15 13"},"coordinates":[2068,6124]},{"type":"Point","properties":{"Station_ID":"WI-WB-2","Station_Nam":"STONE LAKE 2.0 NW, WI","Latitude":"45.85960","Longitude":"-91.57710","Snowdepth":"16.000","Units":"in","Rept_Date":"2021-02-15 13"},"coordinates":[1331,7437]},{"type":"Point","properties":{"Station_ID":"WI-OZ-12","Station_Nam":"PORT WASHINGTON 0.5 S, WI","Latitude":"43.38610","Longitude":"-87.87900","Snowdepth":"16.000","Units":"in","Rept_Date":"2021-02-15 13"},"coordinates":[2199,6356]},{"type":"Point","properties":{"Station_ID":"WI-JF-17","Station_Nam":"JOHNSON CREEK 2.7 SSW, WI","Latitude":"43.04559","Longitude":"-88.79925","Snowdepth":"16.000","Units":"in","Rept_Date":"2021-02-15 12"},"coordinates":[1983,6208]},{"type":"Point","properties":{"Station_ID":"WI-IR-3","Station_Nam":"PENCE 0.1 E, WI","Latitude":"46.41555","Longitude":"-90.27013","Snowdepth":"16.000","Units":"in","Rept_Date":"2021-02-15 13"},"coordinates":[1638,7679]},{"type":"Point","properties":{"Station_ID":"WI-DA-39","Station_Nam":"MADISON 4.0 W, WI","Latitude":"43.07741","Longitude":"-89.46757","Snowdepth":"16.000","Units":"in","Rept_Date":"2021-02-15 13"},"coordinates":[1826,6221]},{"type":"Point","properties":{"Station_ID":"VT-OL-9","Station_Nam":"GREENSBORO 2.1 NNW, VT","Latitude":"44.60528","Longitude":"-72.30940","Snowdepth":"16.000","Units":"in","Rept_Date":"2021-02-15 12"},"coordinates":[5852,6889]},{"type":"Point","properties":{"Station_ID":"VT-CH-7","Station_Nam":"HUNTINGTON 1.1 E, VT","Latitude":"44.32488","Longitude":"-72.96570","Snowdepth":"16.000","Units":"in","Rept_Date":"2021-02-15 12"},"coordinates":[5698,6766]},{"type":"Point","properties":{"Station_ID":"VQAW3","Station_Nam":"VIROQUA","Latitude":"43.55970","Longitude":"-90.87560","Snowdepth":"16.000","Units":"in","Rept_Date":"2021-02-15 13"},"coordinates":[1495,6432]},{"type":"Point","properties":{"Station_ID":"UGRW3","Station_Nam":"UNION GROVE,WI","Latitude":"42.70000","Longitude":"-88.03220","Snowdepth":"16.000","Units":"in","Rept_Date":"2021-02-15 14"},"coordinates":[2163,6057]},{"type":"Point","properties":{"Station_ID":"STMM4","Station_Nam":"STAMBAUGH 2SSE","Latitude":"46.05550","Longitude":"-88.62780","Snowdepth":"16.000","Units":"in","Rept_Date":"2021-02-15 13"},"coordinates":[2023,7522]},{"type":"Point","properties":{"Station_ID":"SLNV1","Station_Nam":"SOUTH LINCOLN","Latitude":"44.07460","Longitude":"-72.97180","Snowdepth":"16.000","Units":"in","Rept_Date":"2021-02-15 12"},"coordinates":[5696,6657]},{"type":"Point","properties":{"Station_ID":"RGNM1","Station_Nam":"RANGELEY 2NW","Latitude":"44.98940","Longitude":"-70.67220","Snowdepth":"16.000","Units":"in","Rept_Date":"2021-02-15 13"},"coordinates":[6236,7056]},{"type":"Point","properties":{"Station_ID":"RARM4","Station_Nam":"RAPID RIVER 1 SW","Latitude":"45.91500","Longitude":"-86.98800","Snowdepth":"16.000","Units":"in","Rept_Date":"2021-02-15 12"},"coordinates":[2408,7461]},{"type":"Point","properties":{"Station_ID":"PA-BR-7","Station_Nam":"FLEETWOOD 2.0 ESE, PA","Latitude":"40.44292","Longitude":"-75.78720","Snowdepth":"16.000","Units":"in","Rept_Date":"2021-02-15 12"},"coordinates":[5036,5071]},{"type":"Point","properties":{"Station_ID":"NY-ER-166","Station_Nam":"BOSTON 2.5 NE, NY","Latitude":"42.65480","Longitude":"-78.70300","Snowdepth":"16.000","Units":"in","Rept_Date":"2021-02-15 12"},"coordinates":[4352,6037]},{"type":"Point","properties":{"Station_ID":"NJ-MS-87","Station_Nam":"MOUNT ARLINGTON 0.8 S, NJ","Latitude":"40.90789","Longitude":"-74.64077","Snowdepth":"16.000","Units":"in","Rept_Date":"2021-02-15 13"},"coordinates":[5305,5274]},{"type":"Point","properties":{"Station_ID":"NJ-MS-4","Station_Nam":"ROCKAWAY TWP 0.7 NE, NJ","Latitude":"40.96583","Longitude":"-74.48780","Snowdepth":"16.000","Units":"in","Rept_Date":"2021-02-15 13"},"coordinates":[5341,5299]},{"type":"Point","properties":{"Station_ID":"NH-MR-60","Station_Nam":"SOUTH SUTTON 1.3 SE, NH","Latitude":"43.29531","Longitude":"-71.90238","Snowdepth":"16.000","Units":"in","Rept_Date":"2021-02-15 13"},"coordinates":[5947,6317]},{"type":"Point","properties":{"Station_ID":"NH-GR-46","Station_Nam":"ASHLAND 2.4 NNW, NH","Latitude":"43.72963","Longitude":"-71.64213","Snowdepth":"16.000","Units":"in","Rept_Date":"2021-02-15 12"},"coordinates":[6008,6506]},{"type":"Point","properties":{"Station_ID":"NFKC3","Station_Nam":"NORFOLK","Latitude":"41.97250","Longitude":"-73.22080","Snowdepth":"16.000","Units":"in","Rept_Date":"2021-02-15 13"},"coordinates":[5638,5739]},{"type":"Point","properties":{"Station_ID":"MWOW3","Station_Nam":"MUKWONAGO","Latitude":"42.85380","Longitude":"-88.43550","Snowdepth":"16.000","Units":"in","Rept_Date":"2021-02-15 13"},"coordinates":[2068,6124]},{"type":"Point","properties":{"Station_ID":"MSRN3","Station_Nam":"MASCOMA RIVER","Latitude":"43.78330","Longitude":"-72.03330","Snowdepth":"16.000","Units":"in","Rept_Date":"2021-02-16 06"},"coordinates":[5917,6530]},{"type":"Point","properties":{"Station_ID":"MI-DL-1","Station_Nam":"GARDEN CORNERS 0.8 NW, MI","Latitude":"45.89815","Longitude":"-86.54850","Snowdepth":"16.000","Units":"in","Rept_Date":"2021-02-15 13"},"coordinates":[2511,7453]},{"type":"Point","properties":{"Station_ID":"MI-BZ-1","Station_Nam":"BENZONIA 5.3 S, MI","Latitude":"44.53976","Longitude":"-86.10650","Snowdepth":"16.000","Units":"in","Rept_Date":"2021-02-15 14"},"coordinates":[2614,6860]},{"type":"Point","properties":{"Station_ID":"MI-AT-6","Station_Nam":"MANCELONA 0.5 ESE, MI","Latitude":"44.89981","Longitude":"-85.05100","Snowdepth":"16.000","Units":"in","Rept_Date":"2021-02-15 13"},"coordinates":[2862,7017]},{"type":"Point","properties":{"Station_ID":"ME-SM-4","Station_Nam":"SOLON 3.9 ESE, ME","Latitude":"44.94705","Longitude":"-69.77790","Snowdepth":"16.000","Units":"in","Rept_Date":"2021-02-15 12"},"coordinates":[6446,7038]},{"type":"Point","properties":{"Station_ID":"MD-GR-9","Station_Nam":"MOUNTAIN LAKE PARK 0.4 E, MD","Latitude":"39.40407","Longitude":"-79.37220","Snowdepth":"16.000","Units":"in","Rept_Date":"2021-02-15 12"},"coordinates":[4195,4617]},{"type":"Point","properties":{"Station_ID":"MAPM4","Station_Nam":"MAPLE CITY 1E","Latitude":"44.85500","Longitude":"-85.83520","Snowdepth":"16.000","Units":"in","Rept_Date":"2021-02-15 23"},"coordinates":[2678,6998]},{"type":"Point","properties":{"Station_ID":"MA-MD-125","Station_Nam":"TEWKSBURY 3.6 SSE, MA","Latitude":"42.57083","Longitude":"-71.19813","Snowdepth":"16.000","Units":"in","Rept_Date":"2021-02-15 12"},"coordinates":[6112,6000]},{"type":"Point","properties":{"Station_ID":"KRFD","Station_Nam":"GREATER ROCKFORD AIRPORT","Latitude":"42.20000","Longitude":"-89.10000","Snowdepth":"16.000","Units":"in","Rept_Date":"2021-02-16 06"},"coordinates":[1912,5838]},{"type":"Point","properties":{"Station_ID":"ISLV1","Station_Nam":"ISLAND POND","Latitude":"44.81280","Longitude":"-71.89020","Snowdepth":"16.000","Units":"in","Rept_Date":"2021-02-15 15"},"coordinates":[5950,6979]},{"type":"Point","properties":{"Station_ID":"INDN6","Station_Nam":"INDIAN LAKE","Latitude":"43.75500","Longitude":"-74.27560","Snowdepth":"16.000","Units":"in","Rept_Date":"2021-02-15 13"},"coordinates":[5390,6517]},{"type":"Point","properties":{"Station_ID":"IL-WL-80","Station_Nam":"LOCKPORT 1.3 SE, IL","Latitude":"41.57454","Longitude":"-88.03300","Snowdepth":"16.000","Units":"in","Rept_Date":"2021-02-15 13"},"coordinates":[2162,5565]},{"type":"Point","properties":{"Station_ID":"IL-WL-42","Station_Nam":"MOKENA 1.3 W, IL","Latitude":"41.53134","Longitude":"-87.90120","Snowdepth":"16.000","Units":"in","Rept_Date":"2021-02-15 13"},"coordinates":[2193,5546]},{"type":"Point","properties":{"Station_ID":"IL-SP-25","Station_Nam":"FREEPORT 1.7 NW, IL","Latitude":"42.30427","Longitude":"-89.66285","Snowdepth":"16.000","Units":"in","Rept_Date":"2021-02-15 13"},"coordinates":[1780,5884]},{"type":"Point","properties":{"Station_ID":"IL-MCH-95","Station_Nam":"CARY 0.5 SSW, IL","Latitude":"42.20235","Longitude":"-88.25224","Snowdepth":"16.000","Units":"in","Rept_Date":"2021-02-15 13"},"coordinates":[2111,5839]},{"type":"Point","properties":{"Station_ID":"IL-MCH-13","Station_Nam":"BULL VALLEY 2.5 WNW, IL","Latitude":"42.32455","Longitude":"-88.39460","Snowdepth":"16.000","Units":"in","Rept_Date":"2021-02-15 14"},"coordinates":[2078,5893]},{"type":"Point","properties":{"Station_ID":"IL-DP-118","Station_Nam":"DARIEN 0.4 SSE, IL","Latitude":"41.74312","Longitude":"-87.97462","Snowdepth":"16.000","Units":"in","Rept_Date":"2021-02-15 14"},"coordinates":[2176,5639]},{"type":"Point","properties":{"Station_ID":"IL-CK-61","Station_Nam":"OAK PARK 1.0 SW, IL","Latitude":"41.87558","Longitude":"-87.80110","Snowdepth":"16.000","Units":"in","Rept_Date":"2021-02-15 13"},"coordinates":[2217,5697]},{"type":"Point","properties":{"Station_ID":"IL-CK-152","Station_Nam":"CHICAGO RIDGE 0.2 WSW, IL","Latitude":"41.70177","Longitude":"-87.78200","Snowdepth":"16.000","Units":"in","Rept_Date":"2021-02-15 13"},"coordinates":[2221,5621]},{"type":"Point","properties":{"Station_ID":"IL-CK-149","Station_Nam":"OAK LAWN 0.5 SSW, IL","Latitude":"41.70845","Longitude":"-87.75390","Snowdepth":"16.000","Units":"in","Rept_Date":"2021-02-15 14"},"coordinates":[2228,5624]},{"type":"Point","properties":{"Station_ID":"IL-CK-145","Station_Nam":"OAK PARK 1.5 S, IL","Latitude":"41.86592","Longitude":"-87.79280","Snowdepth":"16.000","Units":"in","Rept_Date":"2021-02-15 12"},"coordinates":[2219,5692]},{"type":"Point","properties":{"Station_ID":"HVJP1","Station_Nam":"HIDDEN VALLEY COOP","Latitude":"40.04200","Longitude":"-79.25660","Snowdepth":"16.000","Units":"in","Rept_Date":"2021-02-15 13"},"coordinates":[4222,4896]},{"type":"Point","properties":{"Station_ID":"HGHN4","Station_Nam":"HIGHLAND LAKES 1SW","Latitude":"41.16330","Longitude":"-74.45930","Snowdepth":"16.000","Units":"in","Rept_Date":"2021-02-15 11"},"coordinates":[5347,5385]},{"type":"Point","properties":{"Station_ID":"GNDI4","Station_Nam":"GRUNDY CENTER,IA","Latitude":"42.35530","Longitude":"-92.77390","Snowdepth":"16.000","Units":"in","Rept_Date":"2021-02-15 13"},"coordinates":[1050,5906]},{"type":"Point","properties":{"Station_ID":"GDCM4","Station_Nam":"GARDEN CORNERS","Latitude":"45.89830","Longitude":"-86.54850","Snowdepth":"16.000","Units":"in","Rept_Date":"2021-02-15 13"},"coordinates":[2511,7453]},{"type":"Point","properties":{"Station_ID":"GATW3","Station_Nam":"GRAFTON WWTP","Latitude":"43.30810","Longitude":"-87.95530","Snowdepth":"16.000","Units":"in","Rept_Date":"2021-02-15 13"},"coordinates":[2181,6322]},{"type":"Point","properties":{"Station_ID":"FLNW3","Station_Nam":"FLORENCE","Latitude":"45.93360","Longitude":"-88.25830","Snowdepth":"16.000","Units":"in","Rept_Date":"2021-02-15 13"},"coordinates":[2110,7469]},{"type":"Point","properties":{"Station_ID":"DARW3","Station_Nam":"DARLINGTON","Latitude":"42.67780","Longitude":"-90.11860","Snowdepth":"16.000","Units":"in","Rept_Date":"2021-02-15 13"},"coordinates":[1673,6047]},{"type":"Point","properties":{"Station_ID":"CRPI4","Station_Nam":"CEDAR RAPIDS NO 1","Latitude":"42.05000","Longitude":"-91.58810","Snowdepth":"16.000","Units":"in","Rept_Date":"2021-02-15 23"},"coordinates":[1328,5773]},{"type":"Point","properties":{"Station_ID":"CNDP1","Station_Nam":"CANADENSIS","Latitude":"41.18980","Longitude":"-75.23830","Snowdepth":"16.000","Units":"in","Rept_Date":"2021-02-15 12"},"coordinates":[5165,5397]},{"type":"Point","properties":{"Station_ID":"CAN-ON-118","Station_Nam":"DURHAM 1.4 S, CAN","Latitude":"44.16525","Longitude":"-80.82064","Snowdepth":"16.000","Units":"in","Rept_Date":"2021-02-15 12"},"coordinates":[3855,6697]},{"type":"Point","properties":{"Station_ID":"BRLN3","Station_Nam":"BERLIN","Latitude":"44.45350","Longitude":"-71.18540","Snowdepth":"16.000","Units":"in","Rept_Date":"2021-02-15 12"},"coordinates":[6115,6822]},{"type":"Point","properties":{"Station_ID":"BLGW3","Station_Nam":"BELGIUM WWTP","Latitude":"43.51310","Longitude":"-87.85440","Snowdepth":"16.000","Units":"in","Rept_Date":"2021-02-15 13"},"coordinates":[2204,6412]},{"type":"Point","properties":{"Station_ID":"BARI2","Station_Nam":"CRABTREE NATURE CENTER","Latitude":"42.11530","Longitude":"-88.16390","Snowdepth":"16.000","Units":"in","Rept_Date":"2021-02-15 14"},"coordinates":[2132,5801]},{"type":"Point","properties":{"Station_ID":"AGNW3","Station_Nam":"ARGONNE-1.5 NW","Latitude":"45.67360","Longitude":"-88.90380","Snowdepth":"16.000","Units":"in","Rept_Date":"2021-02-15 13"},"coordinates":[1958,7355]},{"type":"Point","properties":{"Station_ID":"QTV","Station_Nam":"QTV","Latitude":"49.66000","Longitude":"-69.35690","Snowdepth":"15.984","Units":"in","Rept_Date":"2021-02-15 12"},"coordinates":[6545,9096]},{"type":"Point","properties":{"Station_ID":"IL-CK-50","Station_Nam":"PALOS PARK 1.3 SW, IL","Latitude":"41.65281","Longitude":"-87.86310","Snowdepth":"15.700","Units":"in","Rept_Date":"2021-02-15 13"},"coordinates":[2202,5599]},{"type":"Point","properties":{"Station_ID":"CAN-MB-368","Station_Nam":"WHITESHELL 1.3 NE, CAN","Latitude":"49.74405","Longitude":"-95.19123","Snowdepth":"15.600","Units":"in","Rept_Date":"2021-02-15 14"},"coordinates":[483,9133]},{"type":"Point","properties":{"Station_ID":"WI-PR-6","Station_Nam":"PHILLIPS 1.3 S, WI","Latitude":"45.67677","Longitude":"-90.39543","Snowdepth":"15.500","Units":"in","Rept_Date":"2021-02-15 12"},"coordinates":[1608,7357]},{"type":"Point","properties":{"Station_ID":"WI-BY-22","Station_Nam":"MASON 11.5 WNW, WI","Latitude":"46.50198","Longitude":"-91.28339","Snowdepth":"15.500","Units":"in","Rept_Date":"2021-02-15 14"},"coordinates":[1400,7717]},{"type":"Point","properties":{"Station_ID":"VT-FR-21","Station_Nam":"FAIRFAX 4.9 WNW, VT","Latitude":"44.68880","Longitude":"-73.10340","Snowdepth":"15.500","Units":"in","Rept_Date":"2021-02-15 14"},"coordinates":[5665,6925]},{"type":"Point","properties":{"Station_ID":"NY-CR-1","Station_Nam":"FREETOWN 1.0 NE, NY","Latitude":"42.53299","Longitude":"-76.02111","Snowdepth":"15.500","Units":"in","Rept_Date":"2021-02-15 12"},"coordinates":[4981,5984]},{"type":"Point","properties":{"Station_ID":"NJ-WR-42","Station_Nam":"KNOWLTON TWP 1.7 S, NJ","Latitude":"40.90560","Longitude":"-75.05880","Snowdepth":"15.500","Units":"in","Rept_Date":"2021-02-15 12"},"coordinates":[5207,5273]},{"type":"Point","properties":{"Station_ID":"IL-WL-166","Station_Nam":"NAPERVILLE 3.6 SE, IL","Latitude":"41.72312","Longitude":"-88.10876","Snowdepth":"15.500","Units":"in","Rept_Date":"2021-02-15 16"},"coordinates":[2145,5630]},{"type":"Point","properties":{"Station_ID":"IL-LK-9","Station_Nam":"LAKE VILLA 1.1 SSW, IL","Latitude":"42.40305","Longitude":"-88.09050","Snowdepth":"15.500","Units":"in","Rept_Date":"2021-02-15 12"},"coordinates":[2149,5927]},{"type":"Point","properties":{"Station_ID":"IL-DP-79","Station_Nam":"BURR RIDGE 1.9 SW, IL","Latitude":"41.73194","Longitude":"-87.94860","Snowdepth":"15.500","Units":"in","Rept_Date":"2021-02-15 13"},"coordinates":[2182,5634]},{"type":"Point","properties":{"Station_ID":"IL-CK-285","Station_Nam":"HARWOOD HEIGHTS 0.4 NNE, IL","Latitude":"41.97154","Longitude":"-87.80325","Snowdepth":"15.500","Units":"in","Rept_Date":"2021-02-15 13"},"coordinates":[2216,5738]},{"type":"Point","properties":{"Station_ID":"IA-CT-8","Station_Nam":"ELKADER 6.8 WSW, IA","Latitude":"42.81136","Longitude":"-91.52332","Snowdepth":"15.500","Units":"in","Rept_Date":"2021-02-15 14"},"coordinates":[1344,6105]},{"type":"Point","properties":{"Station_ID":"CAN-ON-791","Station_Nam":"METCALFE 4.4 NNW, CAN","Latitude":"45.27286","Longitude":"-75.48952","Snowdepth":"15.400","Units":"in","Rept_Date":"2021-02-15 11"},"coordinates":[5106,7180]},{"type":"Point","properties":{"Station_ID":"CAN-NB-105","Station_Nam":"SISSON BROOK 3.8 E, CAN","Latitude":"46.98305","Longitude":"-67.32532","Snowdepth":"15.400","Units":"in","Rept_Date":"2021-02-15 12"},"coordinates":[7021,7927]},{"type":"Point","properties":{"Station_ID":"WI-SR-1","Station_Nam":"HAYWARD 9.2 NNE, WI","Latitude":"46.13255","Longitude":"-91.40500","Snowdepth":"15.200","Units":"in","Rept_Date":"2021-02-15 12"},"coordinates":[1371,7556]},{"type":"Point","properties":{"Station_ID":"MI-GT-27","Station_Nam":"TRAVERSE CITY 4.7 W, MI","Latitude":"44.75372","Longitude":"-85.69934","Snowdepth":"15.200","Units":"in","Rept_Date":"2021-02-15 13"},"coordinates":[2710,6954]},{"type":"Point","properties":{"Station_ID":"IA-BC-9","Station_Nam":"WINTHROP 5.6 NNE, IA","Latitude":"42.55206","Longitude":"-91.70663","Snowdepth":"15.200","Units":"in","Rept_Date":"2021-02-15 15"},"coordinates":[1301,5992]},{"type":"Point","properties":{"Station_ID":"QLI","Station_Nam":"QLI","Latitude":"50.27080","Longitude":"-73.92280","Snowdepth":"15.118","Units":"in","Rept_Date":"2021-02-15 12"},"coordinates":[5473,9363]},{"type":"Point","properties":{"Station_ID":"WJWI2","Station_Nam":"WESTMONT,IL","Latitude":"41.80000","Longitude":"-87.95000","Snowdepth":"15.000","Units":"in","Rept_Date":"2021-02-15 13"},"coordinates":[2182,5664]},{"type":"Point","properties":{"Station_ID":"WILW3","Station_Nam":"RESERVOIR","Latitude":"45.70000","Longitude":"-89.83330","Snowdepth":"15.000","Units":"in","Rept_Date":"2021-02-15 12"},"coordinates":[1740,7367]},{"type":"Point","properties":{"Station_ID":"WI-WK-61","Station_Nam":"HARTLAND 5.0 NNE, WI","Latitude":"43.16351","Longitude":"-88.30400","Snowdepth":"15.000","Units":"in","Rept_Date":"2021-02-15 13"},"coordinates":[2099,6259]},{"type":"Point","properties":{"Station_ID":"WI-VL-14","Station_Nam":"BOULDER JUNCTION 1.4 NE, WI","Latitude":"46.12840","Longitude":"-89.62470","Snowdepth":"15.000","Units":"in","Rept_Date":"2021-02-15 13"},"coordinates":[1789,7554]},{"type":"Point","properties":{"Station_ID":"WI-SB-10","Station_Nam":"RANDOM LAKE 0.5 SSE, WI","Latitude":"43.54812","Longitude":"-87.95050","Snowdepth":"15.000","Units":"in","Rept_Date":"2021-02-15 13"},"coordinates":[2182,6427]},{"type":"Point","properties":{"Station_ID":"WI-MW-18","Station_Nam":"WEST ALLIS 0.7 SSE, WI","Latitude":"42.99802","Longitude":"-88.02380","Snowdepth":"15.000","Units":"in","Rept_Date":"2021-02-15 14"},"coordinates":[2165,6187]},{"type":"Point","properties":{"Station_ID":"WI-BY-2","Station_Nam":"MELLEN 18.6 SW, WI","Latitude":"46.16937","Longitude":"-90.98090","Snowdepth":"15.000","Units":"in","Rept_Date":"2021-02-15 13"},"coordinates":[1471,7572]},{"type":"Point","properties":{"Station_ID":"VT-CL-18","Station_Nam":"WHEELOCK 1.6 S, VT","Latitude":"44.56491","Longitude":"-72.08830","Snowdepth":"15.000","Units":"in","Rept_Date":"2021-02-15 12"},"coordinates":[5904,6871]},{"type":"Point","properties":{"Station_ID":"TOPM1","Station_Nam":"TOPSFIELD","Latitude":"45.43470","Longitude":"-67.72020","Snowdepth":"15.000","Units":"in","Rept_Date":"2021-02-15 12"},"coordinates":[6929,7251]},{"type":"Point","properties":{"Station_ID":"TMWN3","Station_Nam":"TAMWORTH 4","Latitude":"43.86390","Longitude":"-71.26610","Snowdepth":"15.000","Units":"in","Rept_Date":"2021-02-15 12"},"coordinates":[6097,6565]},{"type":"Point","properties":{"Station_ID":"TLDI4","Station_Nam":"TOLEDO,IA","Latitude":"41.98330","Longitude":"-92.58330","Snowdepth":"15.000","Units":"in","Rept_Date":"2021-02-15 13"},"coordinates":[1095,5744]},{"type":"Point","properties":{"Station_ID":"TAKW3","Station_Nam":"RICE RESERVOIR NO. 2","Latitude":"45.53770","Longitude":"-89.73220","Snowdepth":"15.000","Units":"in","Rept_Date":"2021-02-15 13"},"coordinates":[1764,7296]},{"type":"Point","properties":{"Station_ID":"SUTV1","Station_Nam":"SUTTON","Latitude":"44.61220","Longitude":"-72.04810","Snowdepth":"15.000","Units":"in","Rept_Date":"2021-02-15 13"},"coordinates":[5913,6892]},{"type":"Point","properties":{"Station_ID":"STIM4","Station_Nam":"ST IGNACE","Latitude":"45.86080","Longitude":"-84.71960","Snowdepth":"15.000","Units":"in","Rept_Date":"2021-02-15 12"},"coordinates":[2940,7437]},{"type":"Point","properties":{"Station_ID":"STGW3","Station_Nam":"ST GERMAIN","Latitude":"45.91550","Longitude":"-89.48940","Snowdepth":"15.000","Units":"in","Rept_Date":"2021-02-15 12"},"coordinates":[1821,7461]},{"type":"Point","properties":{"Station_ID":"SHIW3","Station_Nam":"SHIOCTON","Latitude":"44.43890","Longitude":"-88.58390","Snowdepth":"15.000","Units":"in","Rept_Date":"2021-02-15 13"},"coordinates":[2033,6816]},{"type":"Point","properties":{"Station_ID":"SBSI3","Station_Nam":"SOUTH BEND","Latitude":"41.70050","Longitude":"-86.24870","Snowdepth":"15.000","Units":"in","Rept_Date":"2021-02-16 05"},"coordinates":[2581,5620]},{"type":"Point","properties":{"Station_ID":"SAVW3","Station_Nam":"SAUKVILLE WWTP","Latitude":"43.37470","Longitude":"-87.93940","Snowdepth":"15.000","Units":"in","Rept_Date":"2021-02-15 12"},"coordinates":[2184,6351]},{"type":"Point","properties":{"Station_ID":"ROCW3","Station_Nam":"ROCHESTER WWTP","Latitude":"42.72690","Longitude":"-88.22580","Snowdepth":"15.000","Units":"in","Rept_Date":"2021-02-15 10"},"coordinates":[2117,6068]},{"type":"Point","properties":{"Station_ID":"RLKW3","Station_Nam":"REST LAKE","Latitude":"46.12220","Longitude":"-89.87720","Snowdepth":"15.000","Units":"in","Rept_Date":"2021-02-15 14"},"coordinates":[1730,7551]},{"type":"Point","properties":{"Station_ID":"RHLW3","Station_Nam":"RHINELANDER 4NE","Latitude":"45.65270","Longitude":"-89.30740","Snowdepth":"15.000","Units":"in","Rept_Date":"2021-02-15 12"},"coordinates":[1863,7346]},{"type":"Point","properties":{"Station_ID":"RHI","Station_Nam":"RHINELANDER-ONEIDA COUNTY AIRPORT","Latitude":"45.63080","Longitude":"-89.46530","Snowdepth":"15.000","Units":"in","Rept_Date":"2021-02-15 12"},"coordinates":[1826,7337]},{"type":"Point","properties":{"Station_ID":"QCAI2","Station_Nam":"MOLINE SNOW","Latitude":"41.39990","Longitude":"-90.54800","Snowdepth":"15.000","Units":"in","Rept_Date":"2021-02-16 06"},"coordinates":[1572,5489]},{"type":"Point","properties":{"Station_ID":"PRNW3","Station_Nam":"PRENTICE,WI","Latitude":"45.54780","Longitude":"-90.30000","Snowdepth":"15.000","Units":"in","Rept_Date":"2021-02-15 14"},"coordinates":[1631,7300]},{"type":"Point","properties":{"Station_ID":"NY-OT-31","Station_Nam":"MARYLAND 1.8 W, NY","Latitude":"42.53310","Longitude":"-74.92090","Snowdepth":"15.000","Units":"in","Rept_Date":"2021-02-15 13"},"coordinates":[5239,5984]},{"type":"Point","properties":{"Station_ID":"NY-ER-63","Station_Nam":"GLENWOOD 1.5 SE, NY","Latitude":"42.60195","Longitude":"-78.63910","Snowdepth":"15.000","Units":"in","Rept_Date":"2021-02-15 13"},"coordinates":[4367,6014]},{"type":"Point","properties":{"Station_ID":"NY-ER-56","Station_Nam":"COLDEN 1.4 NNW, NY","Latitude":"42.64740","Longitude":"-78.71120","Snowdepth":"15.000","Units":"in","Rept_Date":"2021-02-15 12"},"coordinates":[4350,6034]},{"type":"Point","properties":{"Station_ID":"NY-ER-195","Station_Nam":"SPRINGVILLE 0.4 NE, NY","Latitude":"42.51351","Longitude":"-78.66492","Snowdepth":"15.000","Units":"in","Rept_Date":"2021-02-16 05"},"coordinates":[4361,5975]},{"type":"Point","properties":{"Station_ID":"NY-DL-23","Station_Nam":"LONG EDDY 6.5 NNE, NY","Latitude":"41.93510","Longitude":"-75.07840","Snowdepth":"15.000","Units":"in","Rept_Date":"2021-02-15 13"},"coordinates":[5202,5723]},{"type":"Point","properties":{"Station_ID":"NWSM1","Station_Nam":"NEW SHARON","Latitude":"44.63520","Longitude":"-70.00020","Snowdepth":"15.000","Units":"in","Rept_Date":"2021-02-15 12"},"coordinates":[6394,6902]},{"type":"Point","properties":{"Station_ID":"MRBW3","Station_Nam":"MT HOREB","Latitude":"42.98030","Longitude":"-89.73940","Snowdepth":"15.000","Units":"in","Rept_Date":"2021-02-15 13"},"coordinates":[1762,6179]},{"type":"Point","properties":{"Station_ID":"MKE","Station_Nam":"GEN MITCHELL INTL AIRPORT","Latitude":"42.94720","Longitude":"-87.89670","Snowdepth":"15.000","Units":"in","Rept_Date":"2021-02-16 00"},"coordinates":[2194,6165]},{"type":"Point","properties":{"Station_ID":"MI-OT-4","Station_Nam":"GAYLORD 1.7 WNW, MI","Latitude":"45.03280","Longitude":"-84.71090","Snowdepth":"15.000","Units":"in","Rept_Date":"2021-02-15 13"},"coordinates":[2942,7075]},{"type":"Point","properties":{"Station_ID":"MI-OT-17","Station_Nam":"GAYLORD 4.1 S, MI","Latitude":"44.96388","Longitude":"-84.68467","Snowdepth":"15.000","Units":"in","Rept_Date":"2021-02-15 12"},"coordinates":[2948,7045]},{"type":"Point","properties":{"Station_ID":"MI-MQ-19","Station_Nam":"ISHPEMING 7.2 SW, MI","Latitude":"46.40550","Longitude":"-87.75670","Snowdepth":"15.000","Units":"in","Rept_Date":"2021-02-15 11"},"coordinates":[2227,7675]},{"type":"Point","properties":{"Station_ID":"MECN6","Station_Nam":"MECKLENBURG 4 SW","Latitude":"42.44220","Longitude":"-76.75740","Snowdepth":"15.000","Units":"in","Rept_Date":"2021-02-15 12"},"coordinates":[4808,5944]},{"type":"Point","properties":{"Station_ID":"ME-FR-4","Station_Nam":"NEW SHARON 2.0 NW, ME","Latitude":"44.66582","Longitude":"-70.02720","Snowdepth":"15.000","Units":"in","Rept_Date":"2021-02-15 12"},"coordinates":[6387,6915]},{"type":"Point","properties":{"Station_ID":"ME-AN-32","Station_Nam":"WINTHROP 9.4 W, ME","Latitude":"44.30476","Longitude":"-70.15835","Snowdepth":"15.000","Units":"in","Rept_Date":"2021-02-15 12"},"coordinates":[6356,6757]},{"type":"Point","properties":{"Station_ID":"MA-FR-17","Station_Nam":"BUCKLAND 1.8 ESE, MA","Latitude":"42.58900","Longitude":"-72.75110","Snowdepth":"15.000","Units":"in","Rept_Date":"2021-02-15 13"},"coordinates":[5748,6008]},{"type":"Point","properties":{"Station_ID":"MA-ES-48","Station_Nam":"ANDOVER 0.6 E, MA","Latitude":"42.65659","Longitude":"-71.13048","Snowdepth":"15.000","Units":"in","Rept_Date":"2021-02-15 10"},"coordinates":[6128,6038]},{"type":"Point","properties":{"Station_ID":"LYNW3","Station_Nam":"LYNXVILLE DAM 9","Latitude":"43.21180","Longitude":"-91.09850","Snowdepth":"15.000","Units":"in","Rept_Date":"2021-02-15 14"},"coordinates":[1443,6280]},{"type":"Point","properties":{"Station_ID":"LNK","Station_Nam":"LINCOLN MUNICIPAL AIRPORT","Latitude":"40.85080","Longitude":"-96.75920","Snowdepth":"15.000","Units":"in","Rept_Date":"2021-02-16 00"},"coordinates":[115,5249]},{"type":"Point","properties":{"Station_ID":"LKMW3","Station_Nam":"LAKE MILLS,WI","Latitude":"43.06670","Longitude":"-88.91220","Snowdepth":"15.000","Units":"in","Rept_Date":"2021-02-15 12"},"coordinates":[1956,6217]},{"type":"Point","properties":{"Station_ID":"LAFW3","Station_Nam":"LA FARGE","Latitude":"43.57340","Longitude":"-90.63200","Snowdepth":"15.000","Units":"in","Rept_Date":"2021-02-15 13"},"coordinates":[1553,6438]},{"type":"Point","properties":{"Station_ID":"KINM1","Station_Nam":"KINGFIELD","Latitude":"44.95950","Longitude":"-70.17530","Snowdepth":"15.000","Units":"in","Rept_Date":"2021-02-15 11"},"coordinates":[6352,7043]},{"type":"Point","properties":{"Station_ID":"JOHV1","Station_Nam":"JOHNSON 2 N","Latitude":"44.65790","Longitude":"-72.67850","Snowdepth":"15.000","Units":"in","Rept_Date":"2021-02-15 12"},"coordinates":[5765,6912]},{"type":"Point","properties":{"Station_ID":"IN-PT-157","Station_Nam":"PORTAGE 2.4 NNW, IN","Latitude":"41.61942","Longitude":"-87.19629","Snowdepth":"15.000","Units":"in","Rept_Date":"2021-02-15 12"},"coordinates":[2359,5585]},{"type":"Point","properties":{"Station_ID":"IL-WL-25","Station_Nam":"CRETE 2.6 E, IL","Latitude":"41.44681","Longitude":"-87.56570","Snowdepth":"15.000","Units":"in","Rept_Date":"2021-02-15 13"},"coordinates":[2272,5509]},{"type":"Point","properties":{"Station_ID":"IL-WL-131","Station_Nam":"HOMER GLEN 0.7 NNE, IL","Latitude":"41.60842","Longitude":"-87.93270","Snowdepth":"15.000","Units":"in","Rept_Date":"2021-02-15 13"},"coordinates":[2186,5580]},{"type":"Point","properties":{"Station_ID":"IL-LK-98","Station_Nam":"LINDENHURST 0.7 NNW, IL","Latitude":"42.42730","Longitude":"-88.03289","Snowdepth":"15.000","Units":"in","Rept_Date":"2021-02-15 13"},"coordinates":[2162,5938]},{"type":"Point","properties":{"Station_ID":"IL-LK-16","Station_Nam":"BUFFALO GROVE 1.5 N, IL","Latitude":"42.18800","Longitude":"-87.95900","Snowdepth":"15.000","Units":"in","Rept_Date":"2021-02-15 13"},"coordinates":[2180,5833]},{"type":"Point","properties":{"Station_ID":"IL-KN-64","Station_Nam":"ST. CHARLES 0.1 E, IL","Latitude":"41.92010","Longitude":"-88.29900","Snowdepth":"15.000","Units":"in","Rept_Date":"2021-02-15 14"},"coordinates":[2100,5716]},{"type":"Point","properties":{"Station_ID":"IL-KN-5","Station_Nam":"BATAVIA 0.7 WSW, IL","Latitude":"41.84815","Longitude":"-88.31440","Snowdepth":"15.000","Units":"in","Rept_Date":"2021-02-15 12"},"coordinates":[2096,5685]},{"type":"Point","properties":{"Station_ID":"IL-KN-128","Station_Nam":"BATAVIA 3.4 WSW, IL","Latitude":"41.83007","Longitude":"-88.36107","Snowdepth":"15.000","Units":"in","Rept_Date":"2021-02-15 12"},"coordinates":[2085,5677]},{"type":"Point","properties":{"Station_ID":"IL-DK-37","Station_Nam":"SYCAMORE 0.7 ESE, IL","Latitude":"41.97618","Longitude":"-88.68418","Snowdepth":"15.000","Units":"in","Rept_Date":"2021-02-15 13"},"coordinates":[2010,5740]},{"type":"Point","properties":{"Station_ID":"IL-CK-75","Station_Nam":"ELK GROVE VILLAGE 2.2 WSW, IL","Latitude":"41.99526","Longitude":"-88.05270","Snowdepth":"15.000","Units":"in","Rept_Date":"2021-02-15 13"},"coordinates":[2158,5749]},{"type":"Point","properties":{"Station_ID":"IL-CK-296","Station_Nam":"CHICAGO HEIGHTS 2.4 NNW, IL","Latitude":"41.54277","Longitude":"-87.65407","Snowdepth":"15.000","Units":"in","Rept_Date":"2021-02-15 14"},"coordinates":[2251,5551]},{"type":"Point","properties":{"Station_ID":"IL-CK-131","Station_Nam":"SCHAUMBURG 2.0 E, IL","Latitude":"42.03028","Longitude":"-88.04400","Snowdepth":"15.000","Units":"in","Rept_Date":"2021-02-15 13"},"coordinates":[2160,5764]},{"type":"Point","properties":{"Station_ID":"IL-CK-12","Station_Nam":"BRIDGEVIEW 1.3 NNW, IL","Latitude":"41.75502","Longitude":"-87.81730","Snowdepth":"15.000","Units":"in","Rept_Date":"2021-02-15 13"},"coordinates":[2213,5644]},{"type":"Point","properties":{"Station_ID":"IA-LN-7","Station_Nam":"CENTRAL CITY 6.7 W, IA","Latitude":"42.19830","Longitude":"-91.65430","Snowdepth":"15.000","Units":"in","Rept_Date":"2021-02-15 13"},"coordinates":[1313,5838]},{"type":"Point","properties":{"Station_ID":"IA-BT-12","Station_Nam":"FAIRFAX 4.0 NW, IA","Latitude":"41.96223","Longitude":"-91.83675","Snowdepth":"15.000","Units":"in","Rept_Date":"2021-02-15 13"},"coordinates":[1270,5734]},{"type":"Point","properties":{"Station_ID":"IA-BH-6","Station_Nam":"WATERLOO 1.9 SSE, IA","Latitude":"42.46500","Longitude":"-92.34100","Snowdepth":"15.000","Units":"in","Rept_Date":"2021-02-15 14"},"coordinates":[1152,5954]},{"type":"Point","properties":{"Station_ID":"GLDI2","Station_Nam":"MISSISSIPPI RIVER","Latitude":"40.88330","Longitude":"-91.03330","Snowdepth":"15.000","Units":"in","Rept_Date":"2021-02-15 12"},"coordinates":[1458,5263]},{"type":"Point","properties":{"Station_ID":"GAYM4","Station_Nam":"GAYLORD","Latitude":"45.03320","Longitude":"-84.71130","Snowdepth":"15.000","Units":"in","Rept_Date":"2021-02-15 13"},"coordinates":[2942,7076]},{"type":"Point","properties":{"Station_ID":"FWA","Station_Nam":"FORT WAYNE INTERNATIONAL AIRPORT","Latitude":"40.97830","Longitude":"-85.19500","Snowdepth":"15.000","Units":"in","Rept_Date":"2021-02-16 06"},"coordinates":[2828,5305]},{"type":"Point","properties":{"Station_ID":"FREM4","Station_Nam":"FREMONT,MI","Latitude":"43.45000","Longitude":"-86.03330","Snowdepth":"15.000","Units":"in","Rept_Date":"2021-02-15 12"},"coordinates":[2632,6384]},{"type":"Point","properties":{"Station_ID":"ENFV1","Station_Nam":"ENOSBURG FALLS 2","Latitude":"44.90960","Longitude":"-72.81370","Snowdepth":"15.000","Units":"in","Rept_Date":"2021-02-15 15"},"coordinates":[5733,7022]},{"type":"Point","properties":{"Station_ID":"EKRI4","Station_Nam":"ELKADER 6SSW","Latitude":"42.77540","Longitude":"-91.45370","Snowdepth":"15.000","Units":"in","Rept_Date":"2021-02-15 13"},"coordinates":[1360,6090]},{"type":"Point","properties":{"Station_ID":"EAHV1","Station_Nam":"EAST HAVEN","Latitude":"44.64250","Longitude":"-71.89120","Snowdepth":"15.000","Units":"in","Rept_Date":"2021-02-15 12"},"coordinates":[5950,6905]},{"type":"Point","properties":{"Station_ID":"DEKI2","Station_Nam":"SOUTH BRANCH KISHWAUKEE RIVER AT DEKALB","Latitude":"41.93110","Longitude":"-88.75970","Snowdepth":"15.000","Units":"in","Rept_Date":"2021-02-15 13"},"coordinates":[1992,5721]},{"type":"Point","properties":{"Station_ID":"COVP1","Station_Nam":"COVINGTON 2WSW","Latitude":"41.73330","Longitude":"-77.11670","Snowdepth":"15.000","Units":"in","Rept_Date":"2021-02-15 12"},"coordinates":[4724,5634]},{"type":"Point","properties":{"Station_ID":"CODN6","Station_Nam":"COLDEN","Latitude":"42.64720","Longitude":"-78.71110","Snowdepth":"15.000","Units":"in","Rept_Date":"2021-02-15 12"},"coordinates":[4350,6034]},{"type":"Point","properties":{"Station_ID":"CMKW3","Station_Nam":"CLAM LAKE 4W","Latitude":"46.16940","Longitude":"-90.98080","Snowdepth":"15.000","Units":"in","Rept_Date":"2021-02-15 13"},"coordinates":[1471,7572]},{"type":"Point","properties":{"Station_ID":"CAN-ON-203","Station_Nam":"LUCKNOW 1.5 NNE - MVCA, CAN","Latitude":"43.97350","Longitude":"-81.50764","Snowdepth":"15.000","Units":"in","Rept_Date":"2021-02-15 13"},"coordinates":[3694,6613]},{"type":"Point","properties":{"Station_ID":"CAN-NS-39","Station_Nam":"ST. ANNS 2.8 NW, CA","Latitude":"46.25082","Longitude":"-60.64340","Snowdepth":"15.000","Units":"in","Rept_Date":"2021-02-15 11"},"coordinates":[8589,7607]},{"type":"Point","properties":{"Station_ID":"CAN-NB-64","Station_Nam":"KESWICK RIDGE 4.0 SE, CAN","Latitude":"45.97014","Longitude":"-66.85538","Snowdepth":"15.000","Units":"in","Rept_Date":"2021-02-15 12"},"coordinates":[7131,7485]},{"type":"Point","properties":{"Station_ID":"AMOI4","Station_Nam":"ANAMOSA 3 SSW","Latitude":"42.07630","Longitude":"-91.30190","Snowdepth":"15.000","Units":"in","Rept_Date":"2021-02-15 13"},"coordinates":[1395,5784]},{"type":"Point","properties":{"Station_ID":"ALXI4","Station_Nam":"WATERLOO SNOW","Latitude":"42.53130","Longitude":"-92.37550","Snowdepth":"15.000","Units":"in","Rept_Date":"2021-02-16 06"},"coordinates":[1144,5983]},{"type":"Point","properties":{"Station_ID":"ALO","Station_Nam":"WATERLOO MUNICIPAL AIRPORT","Latitude":"42.55690","Longitude":"-92.40000","Snowdepth":"15.000","Units":"in","Rept_Date":"2021-02-16 00"},"coordinates":[1138,5994]},{"type":"Point","properties":{"Station_ID":"IL-CK-347","Station_Nam":"STREAMWOOD 1.1 WSW, IL","Latitude":"42.01288","Longitude":"-88.19227","Snowdepth":"14.900","Units":"in","Rept_Date":"2021-02-15 13"},"coordinates":[2125,5757]},{"type":"Point","properties":{"Station_ID":"IL-KN-95","Station_Nam":"ELGIN 2.5 W, IL","Latitude":"42.04041","Longitude":"-88.33660","Snowdepth":"14.800","Units":"in","Rept_Date":"2021-02-15 13"},"coordinates":[2091,5769]},{"type":"Point","properties":{"Station_ID":"CAN-NB-98","Station_Nam":"HOYT 4.2 S, CAN","Latitude":"45.54763","Longitude":"-66.55440","Snowdepth":"14.800","Units":"in","Rept_Date":"2021-02-15 11"},"coordinates":[7202,7300]},{"type":"Point","properties":{"Station_ID":"CAN-ON-452","Station_Nam":"CHATSWORTH 1.8 ENE - GSCA, CAN","Latitude":"44.46118","Longitude":"-80.87506","Snowdepth":"14.600","Units":"in","Rept_Date":"2021-02-15 12"},"coordinates":[3842,6826]},{"type":"Point","properties":{"Station_ID":"WI-GL-4","Station_Nam":"GREEN LAKE 0.8 E, WI","Latitude":"43.84369","Longitude":"-88.94066","Snowdepth":"14.500","Units":"in","Rept_Date":"2021-02-15 13"},"coordinates":[1949,6556]},{"type":"Point","properties":{"Station_ID":"WI-DA-31","Station_Nam":"DEERFIELD 0.6 N, WI","Latitude":"43.05958","Longitude":"-89.07340","Snowdepth":"14.500","Units":"in","Rept_Date":"2021-02-15 14"},"coordinates":[1918,6214]},{"type":"Point","properties":{"Station_ID":"VT-WS-5","Station_Nam":"BERLIN 4.3 WNW, VT","Latitude":"44.23360","Longitude":"-72.65610","Snowdepth":"14.500","Units":"in","Rept_Date":"2021-02-15 12"},"coordinates":[5770,6726]},{"type":"Point","properties":{"Station_ID":"VT-WS-15","Station_Nam":"EAST CALAIS 1.5 SW, VT","Latitude":"44.35523","Longitude":"-72.45540","Snowdepth":"14.500","Units":"in","Rept_Date":"2021-02-15 12"},"coordinates":[5817,6780]},{"type":"Point","properties":{"Station_ID":"VT-CH-11","Station_Nam":"UNDERHILL 5.1 NNE, VT","Latitude":"44.59811","Longitude":"-72.91880","Snowdepth":"14.500","Units":"in","Rept_Date":"2021-02-15 13"},"coordinates":[5709,6886]},{"type":"Point","properties":{"Station_ID":"PA-NH-15","Station_Nam":"PORTLAND 2.7 WNW, PA","Latitude":"40.93750","Longitude":"-75.14450","Snowdepth":"14.500","Units":"in","Rept_Date":"2021-02-15 12"},"coordinates":[5187,5287]},{"type":"Point","properties":{"Station_ID":"NY-PT-2","Station_Nam":"BEACON 4.2 ESE, NY","Latitude":"41.48070","Longitude":"-73.89110","Snowdepth":"14.500","Units":"in","Rept_Date":"2021-02-15 12"},"coordinates":[5481,5524]},{"type":"Point","properties":{"Station_ID":"NJ-SS-39","Station_Nam":"WANTAGE TWP 1.6 SE, NJ","Latitude":"41.22830","Longitude":"-74.60330","Snowdepth":"14.500","Units":"in","Rept_Date":"2021-02-15 12"},"coordinates":[5314,5414]},{"type":"Point","properties":{"Station_ID":"NJ-SS-3","Station_Nam":"VERNON TWP 1.7 N, NJ","Latitude":"41.22151","Longitude":"-74.48800","Snowdepth":"14.500","Units":"in","Rept_Date":"2021-02-15 12"},"coordinates":[5341,5411]},{"type":"Point","properties":{"Station_ID":"NJ-MS-98","Station_Nam":"HARDING TWP 2.4 W, NJ","Latitude":"40.74165","Longitude":"-74.54592","Snowdepth":"14.500","Units":"in","Rept_Date":"2021-02-15 12"},"coordinates":[5327,5201]},{"type":"Point","properties":{"Station_ID":"NJ-MS-71","Station_Nam":"DENVILLE TWP 1.5 ESE, NJ","Latitude":"40.88053","Longitude":"-74.46310","Snowdepth":"14.500","Units":"in","Rept_Date":"2021-02-15 12"},"coordinates":[5346,5262]},{"type":"Point","properties":{"Station_ID":"NJ-MS-19","Station_Nam":"LONG HILL TWP 1.8 WSW, NJ","Latitude":"40.67134","Longitude":"-74.51750","Snowdepth":"14.500","Units":"in","Rept_Date":"2021-02-15 14"},"coordinates":[5334,5171]},{"type":"Point","properties":{"Station_ID":"NH-CR-27","Station_Nam":"TAMWORTH 0.4 NNW, NH","Latitude":"43.86449","Longitude":"-71.26610","Snowdepth":"14.500","Units":"in","Rept_Date":"2021-02-15 12"},"coordinates":[6097,6565]},{"type":"Point","properties":{"Station_ID":"MI-MG-13","Station_Nam":"MUSKEGON 3.5 SSE, MI","Latitude":"43.17913","Longitude":"-86.23640","Snowdepth":"14.500","Units":"in","Rept_Date":"2021-02-15 13"},"coordinates":[2584,6266]},{"type":"Point","properties":{"Station_ID":"MI-MC-4","Station_Nam":"ST. IGNACE 0.5SE, MI","Latitude":"45.86057","Longitude":"-84.71980","Snowdepth":"14.500","Units":"in","Rept_Date":"2021-02-15 12"},"coordinates":[2940,7437]},{"type":"Point","properties":{"Station_ID":"IL-WL-20","Station_Nam":"MANHATTAN 4.7 ENE, IL","Latitude":"41.45845","Longitude":"-87.90980","Snowdepth":"14.500","Units":"in","Rept_Date":"2021-02-15 14"},"coordinates":[2191,5514]},{"type":"Point","properties":{"Station_ID":"IL-CK-88","Station_Nam":"COUNTRYSIDE 0.8 ENE, IL","Latitude":"41.78231","Longitude":"-87.86220","Snowdepth":"14.500","Units":"in","Rept_Date":"2021-02-15 11"},"coordinates":[2203,5656]},{"type":"Point","properties":{"Station_ID":"IL-CK-345","Station_Nam":"FRANKLIN PARK 0.5 SSE, IL","Latitude":"41.92947","Longitude":"-87.87399","Snowdepth":"14.500","Units":"in","Rept_Date":"2021-02-15 14"},"coordinates":[2200,5720]},{"type":"Point","properties":{"Station_ID":"CAN-ON-42","Station_Nam":"VANKLEEK HILL 3.4 S, CA","Latitude":"45.48987","Longitude":"-74.64570","Snowdepth":"14.500","Units":"in","Rept_Date":"2021-02-15 12"},"coordinates":[5304,7275]},{"type":"Point","properties":{"Station_ID":"QLP","Station_Nam":"QLP","Latitude":"48.13920","Longitude":"-72.63830","Snowdepth":"14.252","Units":"in","Rept_Date":"2021-02-15 12"},"coordinates":[5775,8432]},{"type":"Point","properties":{"Station_ID":"CAN-NS-68","Station_Nam":"RAWDON GOLD MINES 3.4 N, CA","Latitude":"45.08535","Longitude":"-63.76840","Snowdepth":"14.200","Units":"in","Rept_Date":"2021-02-15 11"},"coordinates":[7856,7098]},{"type":"Point","properties":{"Station_ID":"WSTW3","Station_Nam":"WEST BEND -FIRE","Latitude":"43.43138","Longitude":"-88.16111","Snowdepth":"14.000","Units":"in","Rept_Date":"2021-02-15 13"},"coordinates":[2132,6376]},{"type":"Point","properties":{"Station_ID":"WRSN6","Station_Nam":"WARSAW 6SW","Latitude":"42.68550","Longitude":"-78.22020","Snowdepth":"14.000","Units":"in","Rept_Date":"2021-02-15 12"},"coordinates":[4465,6050]},{"type":"Point","properties":{"Station_ID":"WRSM5","Station_Nam":"WRENSHALL","Latitude":"46.61550","Longitude":"-92.38380","Snowdepth":"14.000","Units":"in","Rept_Date":"2021-02-15 14"},"coordinates":[1142,7767]},{"type":"Point","properties":{"Station_ID":"WLNM4","Station_Nam":"WELLSTON 1N","Latitude":"44.22940","Longitude":"-85.95690","Snowdepth":"14.000","Units":"in","Rept_Date":"2021-02-15 12"},"coordinates":[2650,6725]},{"type":"Point","properties":{"Station_ID":"WI-WK-68","Station_Nam":"OCONOMOWOC 1.0 S, WI","Latitude":"43.09530","Longitude":"-88.48590","Snowdepth":"14.000","Units":"in","Rept_Date":"2021-02-15 14"},"coordinates":[2056,6229]},{"type":"Point","properties":{"Station_ID":"WI-WK-29","Station_Nam":"OCONOMOWOC 4.6 NE, WI","Latitude":"43.14621","Longitude":"-88.42860","Snowdepth":"14.000","Units":"in","Rept_Date":"2021-02-15 15"},"coordinates":[2070,6251]},{"type":"Point","properties":{"Station_ID":"WI-WK-20","Station_Nam":"MUKWONAGO 0.5 N, WI","Latitude":"42.87385","Longitude":"-88.33180","Snowdepth":"14.000","Units":"in","Rept_Date":"2021-02-15 13"},"coordinates":[2092,6133]},{"type":"Point","properties":{"Station_ID":"WI-OZ-22","Station_Nam":"SAUKVILLE 0.9 SSW, WI","Latitude":"43.37254","Longitude":"-87.95009","Snowdepth":"14.000","Units":"in","Rept_Date":"2021-02-15 13"},"coordinates":[2182,6350]},