{"type":"Topology","objects":{"snowdepth_geo":{"type":"GeometryCollection","name":"snowdepth","crs":{"type":"name","properties":{"name":"urn:ogc:def:crs:OGC:1.3:CRS84"}},"geometries":[{"type":"Point","properties":{"Station_ID":"PRKM4","Station_Nam":"MUNISING EAST","Latitude":"46.42580","Longitude":"-86.62000","Snowdepth":"76.500","Units":"in","Rept_Date":"2021-01-12 06"},"coordinates":[2494,7541]},{"type":"Point","properties":{"Station_ID":"MACM6","Station_Nam":"MACON 3N COOP","Latitude":"33.15440","Longitude":"-88.55860","Snowdepth":"25.000","Units":"in","Rept_Date":"2021-01-11 13"},"coordinates":[2039,1389]},{"type":"Point","properties":{"Station_ID":"TRIQ6","Station_Nam":"TRIO LAKE","Latitude":"49.22880","Longitude":"-87.22920","Snowdepth":"19.650","Units":"in","Rept_Date":"2021-01-12 06"},"coordinates":[2351,8841]},{"type":"Point","properties":{"Station_ID":"QLB","Station_Nam":"QLB","Latitude":"50.72360","Longitude":"-75.10000","Snowdepth":"19.488","Units":"in","Rept_Date":"2021-01-11 12"},"coordinates":[5197,9534]},{"type":"Point","properties":{"Station_ID":"QCO","Station_Nam":"QCO","Latitude":"51.45280","Longitude":"-72.20110","Snowdepth":"19.449","Units":"in","Rept_Date":"2021-01-11 12"},"coordinates":[5877,9872]},{"type":"Point","properties":{"Station_ID":"QTM","Station_Nam":"QTM","Latitude":"51.05780","Longitude":"-72.57190","Snowdepth":"19.409","Units":"in","Rept_Date":"2021-01-11 12"},"coordinates":[5790,9689]},{"type":"Point","properties":{"Station_ID":"PTLQ6","Station_Nam":"PORTAGE LAKE","Latitude":"49.06950","Longitude":"-86.65940","Snowdepth":"19.210","Units":"in","Rept_Date":"2021-01-12 06"},"coordinates":[2485,8767]},{"type":"Point","properties":{"Station_ID":"QGO","Station_Nam":"QGO","Latitude":"48.85500","Longitude":"-74.20640","Snowdepth":"19.094","Units":"in","Rept_Date":"2021-01-11 12"},"coordinates":[5407,8668]},{"type":"Point","properties":{"Station_ID":"AUDQ6","Station_Nam":"AUDEN","Latitude":"48.52600","Longitude":"-82.57570","Snowdepth":"18.350","Units":"in","Rept_Date":"2021-01-12 06"},"coordinates":[3443,8515]},{"type":"Point","properties":{"Station_ID":"PDLM4","Station_Nam":"PAINESDALE","Latitude":"47.04160","Longitude":"-88.67170","Snowdepth":"17.000","Units":"in","Rept_Date":"2021-01-11 13"},"coordinates":[2012,7827]},{"type":"Point","properties":{"Station_ID":"DVLQ6","Station_Nam":"DEVIOUS LAKE","Latitude":"49.19890","Longitude":"-87.76440","Snowdepth":"16.570","Units":"in","Rept_Date":"2021-01-12 06"},"coordinates":[2225,8827]},{"type":"Point","properties":{"Station_ID":"IWOM4","Station_Nam":"IRONWOOD#2","Latitude":"46.46520","Longitude":"-90.13820","Snowdepth":"16.000","Units":"in","Rept_Date":"2021-01-11 13"},"coordinates":[1668,7560]},{"type":"Point","properties":{"Station_ID":"CAN-ON-245","Station_Nam":"PHELPSTON 3.1 ESE, CAN","Latitude":"44.50564","Longitude":"-79.81035","Snowdepth":"16.000","Units":"in","Rept_Date":"2021-01-11 13"},"coordinates":[4092,6651]},{"type":"Point","properties":{"Station_ID":"HURW3","Station_Nam":"HURLEY","Latitude":"46.46250","Longitude":"-90.19550","Snowdepth":"15.000","Units":"in","Rept_Date":"2021-01-11 14"},"coordinates":[1655,7558]},{"type":"Point","properties":{"Station_ID":"HTLN3","Station_Nam":"HERMIT LAKE SNOWPLOT","Latitude":"44.26130","Longitude":"-71.28330","Snowdepth":"15.000","Units":"in","Rept_Date":"2021-01-11 10"},"coordinates":[6092,6538]},{"type":"Point","properties":{"Station_ID":"CAGM7","Station_Nam":"CAP AU GRIS LOCK & DAM 25","Latitude":"39.00270","Longitude":"-90.68920","Snowdepth":"15.000","Units":"in","Rept_Date":"2021-01-11 11"},"coordinates":[1539,4100]},{"type":"Point","properties":{"Station_ID":"CLQM5","Station_Nam":"CLOQUET","Latitude":"46.70470","Longitude":"-92.52530","Snowdepth":"14.000","Units":"in","Rept_Date":"2021-01-11 14"},"coordinates":[1108,7671]},{"type":"Point","properties":{"Station_ID":"WLFM5","Station_Nam":"WOLF RIDGE ENVIRON LEARNING CENTER","Latitude":"47.38240","Longitude":"-91.19730","Snowdepth":"13.000","Units":"in","Rept_Date":"2021-01-11 13"},"coordinates":[1420,7985]},{"type":"Point","properties":{"Station_ID":"MMNV1","Station_Nam":"MT. MANSFIELD","Latitude":"44.52480","Longitude":"-72.81540","Snowdepth":"13.000","Units":"in","Rept_Date":"2021-01-11 21"},"coordinates":[5733,6660]},{"type":"Point","properties":{"Station_ID":"HERM4","Station_Nam":"HERMAN,MI","Latitude":"46.65000","Longitude":"-88.33330","Snowdepth":"13.000","Units":"in","Rept_Date":"2021-01-11 13"},"coordinates":[2092,7645]},{"type":"Point","properties":{"Station_ID":"QOU","Station_Nam":"QOU","Latitude":"50.79250","Longitude":"-69.67470","Snowdepth":"12.913","Units":"in","Rept_Date":"2021-01-11 12"},"coordinates":[6470,9566]},{"type":"Point","properties":{"Station_ID":"OGIQ6","Station_Nam":"OGOKI CAMP","Latitude":"50.76680","Longitude":"-87.85820","Snowdepth":"12.800","Units":"in","Rept_Date":"2021-01-12 06"},"coordinates":[2203,9554]},{"type":"Point","properties":{"Station_ID":"MN-LK-4","Station_Nam":"TWO HARBORS 3.6 WNW, MN","Latitude":"47.04118","Longitude":"-91.75280","Snowdepth":"12.500","Units":"in","Rept_Date":"2021-01-11 13"},"coordinates":[1290,7827]},{"type":"Point","properties":{"Station_ID":"MN-IS-18","Station_Nam":"BRAHAM 0.7 SW, MN","Latitude":"45.71379","Longitude":"-93.18095","Snowdepth":"12.000","Units":"in","Rept_Date":"2021-01-11 14"},"coordinates":[954,7211]},{"type":"Point","properties":{"Station_ID":"LNCM1","Station_Nam":"LINCOLN WATER DISTRICT","Latitude":"45.32410","Longitude":"-68.58300","Snowdepth":"12.000","Units":"in","Rept_Date":"2021-01-11 12"},"coordinates":[6726,7031]},{"type":"Point","properties":{"Station_ID":"KABM5","Station_Nam":"KABETOGAMA LAKE VISITOR CTR","Latitude":"48.40880","Longitude":"-93.04840","Snowdepth":"12.000","Units":"in","Rept_Date":"2021-01-11 13"},"coordinates":[986,8461]},{"type":"Point","properties":{"Station_ID":"KABQ6","Station_Nam":"CAB LAKE","Latitude":"49.59950","Longitude":"-89.17990","Snowdepth":"11.730","Units":"in","Rept_Date":"2021-01-12 06"},"coordinates":[1893,9013]},{"type":"Point","properties":{"Station_ID":"HLSN3","Station_Nam":"HERMIT LAKE SNOTEL","Latitude":"44.26130","Longitude":"-71.28320","Snowdepth":"11.340","Units":"in","Rept_Date":"2021-01-12 06"},"coordinates":[6092,6538]},{"type":"Point","properties":{"Station_ID":"MLZ","Station_Nam":"MLZ","Latitude":"50.66170","Longitude":"-68.82360","Snowdepth":"11.220","Units":"in","Rept_Date":"2021-01-11 12"},"coordinates":[6670,9505]},{"type":"Point","properties":{"Station_ID":"QMD","Station_Nam":"QMD","Latitude":"49.29060","Longitude":"-75.84500","Snowdepth":"11.102","Units":"in","Rept_Date":"2021-01-11 12"},"coordinates":[5022,8870]},{"type":"Point","properties":{"Station_ID":"WRSM5","Station_Nam":"WRENSHALL","Latitude":"46.61550","Longitude":"-92.38380","Snowdepth":"11.000","Units":"in","Rept_Date":"2021-01-11 14"},"coordinates":[1141,7629]},{"type":"Point","properties":{"Station_ID":"MN-SL-143","Station_Nam":"CANYON 4.6 NNE, MN","Latitude":"47.09800","Longitude":"-92.42170","Snowdepth":"11.000","Units":"in","Rept_Date":"2021-01-11 12"},"coordinates":[1133,7853]},{"type":"Point","properties":{"Station_ID":"BERM4","Station_Nam":"BERGLAND DAM","Latitude":"46.58690","Longitude":"-89.54750","Snowdepth":"11.000","Units":"in","Rept_Date":"2021-01-11 13"},"coordinates":[1807,7616]},{"type":"Point","properties":{"Station_ID":"SVBQ6","Station_Nam":"SAVANT BASE","Latitude":"50.28730","Longitude":"-90.65670","Snowdepth":"10.940","Units":"in","Rept_Date":"2021-01-12 06"},"coordinates":[1547,9332]},{"type":"Point","properties":{"Station_ID":"SOCQ6","Station_Nam":"SOCKET LAKE","Latitude":"50.77870","Longitude":"-91.79300","Snowdepth":"10.630","Units":"in","Rept_Date":"2021-01-12 06"},"coordinates":[1280,9559]},{"type":"Point","properties":{"Station_ID":"QLI","Station_Nam":"QLI","Latitude":"50.27080","Longitude":"-73.92280","Snowdepth":"10.512","Units":"in","Rept_Date":"2021-01-11 12"},"coordinates":[5473,9324]},{"type":"Point","properties":{"Station_ID":"MN-SL-15","Station_Nam":"CHISHOLM 0.4 WSW, MN","Latitude":"47.48557","Longitude":"-92.88690","Snowdepth":"10.500","Units":"in","Rept_Date":"2021-01-11 13"},"coordinates":[1023,8033]},{"type":"Point","properties":{"Station_ID":"MI-HG-20","Station_Nam":"CALUMET 1.1 SSW, MI","Latitude":"47.23165","Longitude":"-88.45823","Snowdepth":"10.500","Units":"in","Rept_Date":"2021-01-11 11"},"coordinates":[2063,7915]},{"type":"Point","properties":{"Station_ID":"MI-BG-3","Station_Nam":"THREE LAKES, MI","Latitude":"46.55730","Longitude":"-88.20770","Snowdepth":"10.200","Units":"in","Rept_Date":"2021-01-11 13"},"coordinates":[2121,7602]},{"type":"Point","properties":{"Station_ID":"WI-IR-3","Station_Nam":"PENCE 0.1 E, WI","Latitude":"46.41555","Longitude":"-90.27013","Snowdepth":"10.000","Units":"in","Rept_Date":"2021-01-11 13"},"coordinates":[1637,7537]},{"type":"Point","properties":{"Station_ID":"NOHM5","Station_Nam":"NORTHOME","Latitude":"47.83590","Longitude":"-94.25550","Snowdepth":"10.000","Units":"in","Rept_Date":"2021-01-11 13"},"coordinates":[702,8195]},{"type":"Point","properties":{"Station_ID":"MI-OG-6","Station_Nam":"WEST BRANCH 2.1 SSW, MI","Latitude":"44.24814","Longitude":"-84.25089","Snowdepth":"10.000","Units":"in","Rept_Date":"2021-01-11 12"},"coordinates":[3050,6532]},{"type":"Point","properties":{"Station_ID":"LEIM5","Station_Nam":"ORR 3E","Latitude":"48.05810","Longitude":"-92.75220","Snowdepth":"10.000","Units":"in","Rept_Date":"2021-01-11 12"},"coordinates":[1055,8298]},{"type":"Point","properties":{"Station_ID":"HGHN6","Station_Nam":"HIGHMARKET","Latitude":"43.60510","Longitude":"-75.55430","Snowdepth":"10.000","Units":"in","Rept_Date":"2021-01-11 11"},"coordinates":[5090,6234]},{"type":"Point","properties":{"Station_ID":"GNLM4","Station_Nam":"GREENLAND 6N","Latitude":"46.87360","Longitude":"-89.10060","Snowdepth":"10.000","Units":"in","Rept_Date":"2021-01-11 13"},"coordinates":[1912,7749]},{"type":"Point","properties":{"Station_ID":"FLDM5","Station_Nam":"FLOODWOOD,MN","Latitude":"47.00000","Longitude":"-92.91670","Snowdepth":"10.000","Units":"in","Rept_Date":"2021-01-11 14"},"coordinates":[1016,7808]},{"type":"Point","properties":{"Station_ID":"COTM5","Station_Nam":"COTTON","Latitude":"47.16870","Longitude":"-92.46290","Snowdepth":"10.000","Units":"in","Rept_Date":"2021-01-11 12"},"coordinates":[1123,7886]},{"type":"Point","properties":{"Station_ID":"BRUM5","Station_Nam":"BRUNO,MN","Latitude":"46.28330","Longitude":"-92.50000","Snowdepth":"10.000","Units":"in","Rept_Date":"2021-01-11 14"},"coordinates":[1114,7475]},{"type":"Point","properties":{"Station_ID":"BNDM5","Station_Nam":"ELY 25E","Latitude":"47.97190","Longitude":"-91.44860","Snowdepth":"10.000","Units":"in","Rept_Date":"2021-01-11 13"},"coordinates":[1361,8258]},{"type":"Point","properties":{"Station_ID":"QWE","Station_Nam":"QWE","Latitude":"47.84610","Longitude":"-73.80670","Snowdepth":"9.724","Units":"in","Rept_Date":"2021-01-11 12"},"coordinates":[5500,8200]},{"type":"Point","properties":{"Station_ID":"WI-WB-2","Station_Nam":"STONE LAKE 2.0 NW, WI","Latitude":"45.85960","Longitude":"-91.57710","Snowdepth":"9.500","Units":"in","Rept_Date":"2021-01-11 13"},"coordinates":[1331,7279]},{"type":"Point","properties":{"Station_ID":"CAN-QC-62","Station_Nam":"SAINT-LUC-DE-BELLECHASSE 2.2 SE, CAN","Latitude":"46.49532","Longitude":"-70.46313","Snowdepth":"9.100","Units":"in","Rept_Date":"2021-01-11 12"},"coordinates":[6285,7574]},{"type":"Point","properties":{"Station_ID":"WI-BY-29","Station_Nam":"BAYFIELD 5.1 NNW, WI","Latitude":"46.88063","Longitude":"-90.85854","Snowdepth":"9.000","Units":"in","Rept_Date":"2021-01-11 14"},"coordinates":[1499,7752]},{"type":"Point","properties":{"Station_ID":"TTCM5","Station_Nam":"TETTEGOUCHE CAMP","Latitude":"47.34710","Longitude":"-91.26090","Snowdepth":"9.000","Units":"in","Rept_Date":"2021-01-11 14"},"coordinates":[1405,7969]},{"type":"Point","properties":{"Station_ID":"STOW3","Station_Nam":"STOUGHTON,WI","Latitude":"42.91670","Longitude":"-89.21670","Snowdepth":"9.000","Units":"in","Rept_Date":"2021-01-11 13"},"coordinates":[1885,5915]},{"type":"Point","properties":{"Station_ID":"MWN","Station_Nam":"MOUNT WASHINGTON","Latitude":"44.26670","Longitude":"-71.30000","Snowdepth":"9.000","Units":"in","Rept_Date":"2021-01-11 12"},"coordinates":[6089,6540]},{"type":"Point","properties":{"Station_ID":"MTLT1","Station_Nam":"GATLINBURG,TN","Latitude":"35.65500","Longitude":"-83.44110","Snowdepth":"9.000","Units":"in","Rept_Date":"2021-01-11 13"},"coordinates":[3240,2548]},{"type":"Point","properties":{"Station_ID":"MN-SL-108","Station_Nam":"IRON JUNCTION 3.4 NNW, MN","Latitude":"47.46150","Longitude":"-92.63130","Snowdepth":"9.000","Units":"in","Rept_Date":"2021-01-11 13"},"coordinates":[1083,8022]},{"type":"Point","properties":{"Station_ID":"MN-CN-36","Station_Nam":"CLOQUET 3.4 ENE, MN","Latitude":"46.74146","Longitude":"-92.42698","Snowdepth":"9.000","Units":"in","Rept_Date":"2021-01-11 13"},"coordinates":[1131,7688]},{"type":"Point","properties":{"Station_ID":"KMWN","Station_Nam":"MOUNT WASHINGTON","Latitude":"44.26666","Longitude":"-71.30000","Snowdepth":"9.000","Units":"in","Rept_Date":"2021-01-12 06"},"coordinates":[6089,6540]},{"type":"Point","properties":{"Station_ID":"IL-SP-27","Station_Nam":"DAVIS 2.7 N, IL","Latitude":"42.46110","Longitude":"-89.40890","Snowdepth":"9.000","Units":"in","Rept_Date":"2021-01-11 13"},"coordinates":[1839,5703]},{"type":"Point","properties":{"Station_ID":"ELYM5","Station_Nam":"ELY","Latitude":"47.90560","Longitude":"-91.82830","Snowdepth":"9.000","Units":"in","Rept_Date":"2021-01-11 14"},"coordinates":[1272,8227]},{"type":"Point","properties":{"Station_ID":"ELKM5","Station_Nam":"ELK RIVER","Latitude":"45.30470","Longitude":"-93.58420","Snowdepth":"9.000","Units":"in","Rept_Date":"2021-01-11 13"},"coordinates":[860,7022]},{"type":"Point","properties":{"Station_ID":"COKM5","Station_Nam":"COOK","Latitude":"47.85060","Longitude":"-92.69250","Snowdepth":"9.000","Units":"in","Rept_Date":"2021-01-11 11"},"coordinates":[1069,8202]},{"type":"Point","properties":{"Station_ID":"CAN-ON-5","Station_Nam":"OWEN SOUND 1.5 NW - GSCA, CAN","Latitude":"44.57837","Longitude":"-80.95461","Snowdepth":"9.000","Units":"in","Rept_Date":"2021-01-11 13"},"coordinates":[3823,6685]},{"type":"Point","properties":{"Station_ID":"CAN-NS-103","Station_Nam":"TRAFALGAR 4.9 WSW, CAN","Latitude":"45.26217","Longitude":"-62.72285","Snowdepth":"9.000","Units":"in","Rept_Date":"2021-01-11 12"},"coordinates":[8101,7002]},{"type":"Point","properties":{"Station_ID":"CAN-MB-32","Station_Nam":"PINAWA 1.0 SW, CA","Latitude":"50.14747","Longitude":"-95.89020","Snowdepth":"9.000","Units":"in","Rept_Date":"2021-01-11 13"},"coordinates":[319,9267]},{"type":"Point","properties":{"Station_ID":"BDIP1","Station_Nam":"GERMANIA 1 SNOW","Latitude":"41.65000","Longitude":"-77.66670","Snowdepth":"9.000","Units":"in","Rept_Date":"2021-01-11 17"},"coordinates":[4595,5327]},{"type":"Point","properties":{"Station_ID":"BABM5","Station_Nam":"BABBITT","Latitude":"47.71210","Longitude":"-91.95330","Snowdepth":"9.000","Units":"in","Rept_Date":"2021-01-11 13"},"coordinates":[1242,8138]},{"type":"Point","properties":{"Station_ID":"CATQ6","Station_Nam":"CAT LAKE","Latitude":"51.72690","Longitude":"-91.82210","Snowdepth":"8.820","Units":"in","Rept_Date":"2021-01-12 06"},"coordinates":[1273,9999]},{"type":"Point","properties":{"Station_ID":"CAN-ON-220","Station_Nam":"DEEP RIVER 1.5 SE - MNRF, CAN","Latitude":"46.09592","Longitude":"-77.47853","Snowdepth":"8.700","Units":"in","Rept_Date":"2021-01-11 13"},"coordinates":[4639,7388]},{"type":"Point","properties":{"Station_ID":"WI-RK-12","Station_Nam":"JANESVILLE 3.1 W, WI","Latitude":"42.67576","Longitude":"-89.07614","Snowdepth":"8.500","Units":"in","Rept_Date":"2021-01-11 13"},"coordinates":[1918,5803]},{"type":"Point","properties":{"Station_ID":"WI-BY-22","Station_Nam":"MASON 11.5 WNW, WI","Latitude":"46.50198","Longitude":"-91.28339","Snowdepth":"8.500","Units":"in","Rept_Date":"2021-01-11 14"},"coordinates":[1400,7577]},{"type":"Point","properties":{"Station_ID":"NY-SR-22","Station_Nam":"GREENFIELD CENTER 1.6 W, NY","Latitude":"43.12684","Longitude":"-73.87860","Snowdepth":"8.500","Units":"in","Rept_Date":"2021-01-11 12"},"coordinates":[5483,6012]},{"type":"Point","properties":{"Station_ID":"NH-MR-60","Station_Nam":"SOUTH SUTTON 1.3 SE, NH","Latitude":"43.29531","Longitude":"-71.90238","Snowdepth":"8.500","Units":"in","Rept_Date":"2021-01-11 13"},"coordinates":[5947,6090]},{"type":"Point","properties":{"Station_ID":"MI-HG-1","Station_Nam":"HOUGHTON 1.6 ESE, MI","Latitude":"47.10774","Longitude":"-88.52940","Snowdepth":"8.500","Units":"in","Rept_Date":"2021-01-11 13"},"coordinates":[2046,7858]},{"type":"Point","properties":{"Station_ID":"CAN-ON-451","Station_Nam":"OWEN SOUND 1.2 N - GSCA, CAN","Latitude":"44.58092","Longitude":"-80.93025","Snowdepth":"8.500","Units":"in","Rept_Date":"2021-01-11 13"},"coordinates":[3829,6686]},{"type":"Point","properties":{"Station_ID":"WTNM4","Station_Nam":"WATTON 2WSW","Latitude":"46.52660","Longitude":"-88.64240","Snowdepth":"8.000","Units":"in","Rept_Date":"2021-01-11 13"},"coordinates":[2019,7588]},{"type":"Point","properties":{"Station_ID":"WI-PR-2","Station_Nam":"BUTTERNUT 5.9 SW, WI","Latitude":"45.96501","Longitude":"-90.59750","Snowdepth":"8.000","Units":"in","Rept_Date":"2021-01-11 12"},"coordinates":[1561,7328]},{"type":"Point","properties":{"Station_ID":"WI-BY-14","Station_Nam":"ASHLAND 9.8 W, WI","Latitude":"46.59742","Longitude":"-91.07856","Snowdepth":"8.000","Units":"in","Rept_Date":"2021-01-11 12"},"coordinates":[1448,7621]},{"type":"Point","properties":{"Station_ID":"WI-BY-1","Station_Nam":"BAYFIELD 8.8 N, WI","Latitude":"46.93855","Longitude":"-90.83490","Snowdepth":"8.000","Units":"in","Rept_Date":"2021-01-11 13"},"coordinates":[1505,7779]},{"type":"Point","properties":{"Station_ID":"VT-WS-23","Station_Nam":"CABOT 2.3 E, VT","Latitude":"44.39807","Longitude":"-72.26570","Snowdepth":"8.000","Units":"in","Rept_Date":"2021-01-11 13"},"coordinates":[5862,6601]},{"type":"Point","properties":{"Station_ID":"TOHM5","Station_Nam":"TWO HARBORS WWTP","Latitude":"47.01760","Longitude":"-91.66480","Snowdepth":"8.000","Units":"in","Rept_Date":"2021-01-11 13"},"coordinates":[1310,7816]},{"type":"Point","properties":{"Station_ID":"TOGM5","Station_Nam":"CELINA 2E","Latitude":"47.86630","Longitude":"-93.02660","Snowdepth":"8.000","Units":"in","Rept_Date":"2021-01-11 15"},"coordinates":[991,8209]},{"type":"Point","properties":{"Station_ID":"STOI2","Station_Nam":"STOCKTON 3 NNE","Latitude":"42.40050","Longitude":"-89.99580","Snowdepth":"8.000","Units":"in","Rept_Date":"2021-01-12 03"},"coordinates":[1702,5675]},{"type":"Point","properties":{"Station_ID":"SSMM4","Station_Nam":"SAULT STE MARIE","Latitude":"46.48660","Longitude":"-84.40250","Snowdepth":"8.000","Units":"in","Rept_Date":"2021-01-11 13"},"coordinates":[3014,7570]},{"type":"Point","properties":{"Station_ID":"NY-FK-7","Station_Nam":"SARANAC LAKE 6.2 N, NY","Latitude":"44.41359","Longitude":"-74.15211","Snowdepth":"8.000","Units":"in","Rept_Date":"2021-01-11 12"},"coordinates":[5419,6609]},{"type":"Point","properties":{"Station_ID":"NGLW3","Station_Nam":"NEW GLARUS","Latitude":"42.83500","Longitude":"-89.62080","Snowdepth":"8.000","Units":"in","Rept_Date":"2021-01-11 13"},"coordinates":[1790,5877]},{"type":"Point","properties":{"Station_ID":"MQT","Station_Nam":"MARQUETTE, MI","Latitude":"46.53140","Longitude":"-87.54920","Snowdepth":"8.000","Units":"in","Rept_Date":"2021-01-12 06"},"coordinates":[2276,7590]},{"type":"Point","properties":{"Station_ID":"MONW3","Station_Nam":"MONROE,WI","Latitude":"42.60000","Longitude":"-89.66670","Snowdepth":"8.000","Units":"in","Rept_Date":"2021-01-11 13"},"coordinates":[1779,5768]},{"type":"Point","properties":{"Station_ID":"MN-WR-25","Station_Nam":"SAINT MICHAEL 2.0 ENE, MN","Latitude":"45.20820","Longitude":"-93.65280","Snowdepth":"8.000","Units":"in","Rept_Date":"2021-01-11 12"},"coordinates":[844,6977]},{"type":"Point","properties":{"Station_ID":"MN-SL-115","Station_Nam":"COTTON 5.7 ESE, MN","Latitude":"47.15142","Longitude":"-92.35772","Snowdepth":"8.000","Units":"in","Rept_Date":"2021-01-11 14"},"coordinates":[1148,7878]},{"type":"Point","properties":{"Station_ID":"MN-MR-21","Station_Nam":"PILLAGER 2.2 SW, MN","Latitude":"46.30496","Longitude":"-94.50714","Snowdepth":"8.000","Units":"in","Rept_Date":"2021-01-11 13"},"coordinates":[643,7485]},{"type":"Point","properties":{"Station_ID":"MN-HN-72","Station_Nam":"MAPLE GROVE 2.9 NE, MN","Latitude":"45.13953","Longitude":"-93.42070","Snowdepth":"8.000","Units":"in","Rept_Date":"2021-01-11 14"},"coordinates":[898,6945]},{"type":"Point","properties":{"Station_ID":"MN-CW-22","Station_Nam":"FORT RIPLEY 0.8 N, MN","Latitude":"46.18089","Longitude":"-94.36510","Snowdepth":"8.000","Units":"in","Rept_Date":"2021-01-11 13"},"coordinates":[677,7428]},{"type":"Point","properties":{"Station_ID":"MN-CV-22","Station_Nam":"VICTORIA 1.6 WSW, MN","Latitude":"44.85670","Longitude":"-93.68640","Snowdepth":"8.000","Units":"in","Rept_Date":"2021-01-11 13"},"coordinates":[836,6814]},{"type":"Point","properties":{"Station_ID":"MN-CK-6","Station_Nam":"GRAND MARAIS 4.4 W, MN","Latitude":"47.74865","Longitude":"-90.43760","Snowdepth":"8.000","Units":"in","Rept_Date":"2021-01-11 13"},"coordinates":[1598,8155]},{"type":"Point","properties":{"Station_ID":"MN-CG-16","Station_Nam":"NORTH BRANCH 1.3 NNW, MN","Latitude":"45.53121","Longitude":"-92.97110","Snowdepth":"8.000","Units":"in","Rept_Date":"2021-01-11 12"},"coordinates":[1004,7127]},{"type":"Point","properties":{"Station_ID":"MN-AA-76","Station_Nam":"NOWTHEN 2.9 SSE, MN","Latitude":"45.30360","Longitude":"-93.42620","Snowdepth":"8.000","Units":"in","Rept_Date":"2021-01-11 13"},"coordinates":[897,7021]},{"type":"Point","properties":{"Station_ID":"MIEM4","Station_Nam":"MICHIGAMME 3WNW","Latitude":"46.54530","Longitude":"-88.18000","Snowdepth":"8.000","Units":"in","Rept_Date":"2021-01-11 13"},"coordinates":[2128,7597]},{"type":"Point","properties":{"Station_ID":"INL","Station_Nam":"FALLS INTERNATIONAL ARPT","Latitude":"48.56640","Longitude":"-93.40310","Snowdepth":"8.000","Units":"in","Rept_Date":"2021-01-12 00"},"coordinates":[902,8534]},{"type":"Point","properties":{"Station_ID":"INDM5","Station_Nam":"INDUS,MN","Latitude":"48.61670","Longitude":"-93.90000","Snowdepth":"8.000","Units":"in","Rept_Date":"2021-01-11 14"},"coordinates":[786,8557]},{"type":"Point","properties":{"Station_ID":"IL-SP-14","Station_Nam":"FREEPORT 1.7 ESE, IL","Latitude":"42.28257","Longitude":"-89.60360","Snowdepth":"8.000","Units":"in","Rept_Date":"2021-01-11 13"},"coordinates":[1794,5621]},{"type":"Point","properties":{"Station_ID":"IL-JD-8","Station_Nam":"STOCKTON 3.4 NNE, IL","Latitude":"42.39960","Longitude":"-89.99020","Snowdepth":"8.000","Units":"in","Rept_Date":"2021-01-11 13"},"coordinates":[1703,5675]},{"type":"Point","properties":{"Station_ID":"IFSM5","Station_Nam":"INTERNATIONAL FALLS SNOW","Latitude":"48.57780","Longitude":"-93.39640","Snowdepth":"8.000","Units":"in","Rept_Date":"2021-01-11 12"},"coordinates":[904,8539]},{"type":"Point","properties":{"Station_ID":"HUBN3","Station_Nam":"HUBBARD BROOK","Latitude":"43.93330","Longitude":"-71.71670","Snowdepth":"8.000","Units":"in","Rept_Date":"2021-01-12 06"},"coordinates":[5991,6386]},{"type":"Point","properties":{"Station_ID":"HTLM4","Station_Nam":"SNOW PAID OBSERVER FOR KHTL","Latitude":"44.34470","Longitude":"-84.67730","Snowdepth":"8.000","Units":"in","Rept_Date":"2021-01-11 18"},"coordinates":[2950,6577]},{"type":"Point","properties":{"Station_ID":"HTL","Station_Nam":"ROSCOMMON COUNTY AIRPORT","Latitude":"44.35000","Longitude":"-84.66670","Snowdepth":"8.000","Units":"in","Rept_Date":"2021-01-12 00"},"coordinates":[2952,6579]},{"type":"Point","properties":{"Station_ID":"GHMN3","Station_Nam":"PINKHAM NOTCH","Latitude":"44.25800","Longitude":"-71.25250","Snowdepth":"8.000","Units":"in","Rept_Date":"2021-01-11 11"},"coordinates":[6100,6536]},{"type":"Point","properties":{"Station_ID":"FORM5","Station_Nam":"FOREST LAKE 5NE","Latitude":"45.33170","Longitude":"-92.89820","Snowdepth":"8.000","Units":"in","Rept_Date":"2021-01-11 13"},"coordinates":[1021,7034]},{"type":"Point","properties":{"Station_ID":"EMBM5","Station_Nam":"EMBARASS,MN","Latitude":"47.65810","Longitude":"-92.19580","Snowdepth":"8.000","Units":"in","Rept_Date":"2021-01-11 12"},"coordinates":[1186,8113]},{"type":"Point","properties":{"Station_ID":"DGVW3","Station_Nam":"DODGEVILLE","Latitude":"42.96670","Longitude":"-90.11670","Snowdepth":"8.000","Units":"in","Rept_Date":"2021-01-11 13"},"coordinates":[1673,5938]},{"type":"Point","properties":{"Station_ID":"CSLM5","Station_Nam":"CASS LAKE,MN","Latitude":"47.38470","Longitude":"-94.61470","Snowdepth":"8.000","Units":"in","Rept_Date":"2021-01-11 14"},"coordinates":[618,7986]},{"type":"Point","properties":{"Station_ID":"CMKW3","Station_Nam":"CLAM LAKE 4W","Latitude":"46.16940","Longitude":"-90.98080","Snowdepth":"8.000","Units":"in","Rept_Date":"2021-01-11 13"},"coordinates":[1471,7423]},{"type":"Point","properties":{"Station_ID":"CMBM5","Station_Nam":"CAMBRIDGE","Latitude":"45.55640","Longitude":"-93.23480","Snowdepth":"8.000","Units":"in","Rept_Date":"2021-01-11 14"},"coordinates":[942,7138]},{"type":"Point","properties":{"Station_ID":"CBLW3","Station_Nam":"CUMBERLAND","Latitude":"45.53310","Longitude":"-92.02260","Snowdepth":"8.000","Units":"in","Rept_Date":"2021-01-11 13"},"coordinates":[1226,7128]},{"type":"Point","properties":{"Station_ID":"CAN-PE-3","Station_Nam":"WELLINGTON 1.6 NE, CA","Latitude":"46.46672","Longitude":"-63.98920","Snowdepth":"8.000","Units":"in","Rept_Date":"2021-01-11 11"},"coordinates":[7804,7560]},{"type":"Point","properties":{"Station_ID":"CAN-NB-11","Station_Nam":"MIRAMICHI 3.3 S, CAN","Latitude":"46.99343","Longitude":"-65.50690","Snowdepth":"8.000","Units":"in","Rept_Date":"2021-01-11 11"},"coordinates":[7448,7805]},{"type":"Point","properties":{"Station_ID":"BRMM5","Station_Nam":"BRIMSON 2S","Latitude":"47.24720","Longitude":"-91.86240","Snowdepth":"8.000","Units":"in","Rept_Date":"2021-01-12 01"},"coordinates":[1264,7922]},{"type":"Point","properties":{"Station_ID":"BLVI4","Station_Nam":"MISSISSIPPI RIVER","Latitude":"42.26670","Longitude":"-90.41670","Snowdepth":"8.000","Units":"in","Rept_Date":"2021-01-11 12"},"coordinates":[1603,5613]},{"type":"Point","properties":{"Station_ID":"BLGW3","Station_Nam":"BELGIUM WWTP","Latitude":"43.51310","Longitude":"-87.85440","Snowdepth":"8.000","Units":"in","Rept_Date":"2021-01-11 13"},"coordinates":[2204,6191]},{"type":"Point","properties":{"Station_ID":"BFHW3","Station_Nam":"BAYFIELD FISH HATCHERY","Latitude":"46.78670","Longitude":"-90.86420","Snowdepth":"8.000","Units":"in","Rept_Date":"2021-01-11 14"},"coordinates":[1498,7709]},{"type":"Point","properties":{"Station_ID":"BDJP1","Station_Nam":"GERMANIA 2 SNOW","Latitude":"41.65000","Longitude":"-77.66940","Snowdepth":"8.000","Units":"in","Rept_Date":"2021-01-11 17"},"coordinates":[4594,5327]},{"type":"Point","properties":{"Station_ID":"BBEM4","Station_Nam":"BIG BAY 9SW","Latitude":"46.74620","Longitude":"-87.88160","Snowdepth":"8.000","Units":"in","Rept_Date":"2021-01-11 13"},"coordinates":[2198,7690]},{"type":"Point","properties":{"Station_ID":"ANJM4","Station_Nam":"SNOW PAID OBSERVER FOR KANJ","Latitude":"46.48670","Longitude":"-84.40260","Snowdepth":"8.000","Units":"in","Rept_Date":"2021-01-11 18"},"coordinates":[3014,7570]},{"type":"Point","properties":{"Station_ID":"ANJ","Station_Nam":"SAULT STE MARIE","Latitude":"46.46670","Longitude":"-84.36670","Snowdepth":"8.000","Units":"in","Rept_Date":"2021-01-12 00"},"coordinates":[3023,7560]},{"type":"Point","properties":{"Station_ID":"CAN-MB-368","Station_Nam":"WHITESHELL 1.3 NE, CAN","Latitude":"49.74405","Longitude":"-95.19123","Snowdepth":"7.900","Units":"in","Rept_Date":"2021-01-11 14"},"coordinates":[483,9080]},{"type":"Point","properties":{"Station_ID":"FTHQ6","Station_Nam":"FORT HOPE","Latitude":"51.55820","Longitude":"-87.90510","Snowdepth":"7.830","Units":"in","Rept_Date":"2021-01-12 06"},"coordinates":[2192,9921]},{"type":"Point","properties":{"Station_ID":"WI-SR-1","Station_Nam":"HAYWARD 9.2 NNE, WI","Latitude":"46.13255","Longitude":"-91.40500","Snowdepth":"7.800","Units":"in","Rept_Date":"2021-01-11 12"},"coordinates":[1371,7405]},{"type":"Point","properties":{"Station_ID":"WI-BY-2","Station_Nam":"MELLEN 18.6 SW, WI","Latitude":"46.16937","Longitude":"-90.98090","Snowdepth":"7.500","Units":"in","Rept_Date":"2021-01-11 13"},"coordinates":[1471,7423]},{"type":"Point","properties":{"Station_ID":"MN-BK-6","Station_Nam":"LAKE PARK 6.0 S, MN","Latitude":"46.79850","Longitude":"-96.12180","Snowdepth":"7.500","Units":"in","Rept_Date":"2021-01-11 13"},"coordinates":[264,7714]},{"type":"Point","properties":{"Station_ID":"CAN-ON-741","Station_Nam":"KIMBERLEY 2.7 WSW, CAN","Latitude":"44.37820","Longitude":"-80.56956","Snowdepth":"7.500","Units":"in","Rept_Date":"2021-01-11 14"},"coordinates":[3914,6592]},{"type":"Point","properties":{"Station_ID":"TX-MLM-32","Station_Nam":"CAMERON 4.6 SE, TX","Latitude":"30.81967","Longitude":"-96.91470","Snowdepth":"7.400","Units":"in","Rept_Date":"2021-01-11 12"},"coordinates":[78,306]},{"type":"Point","properties":{"Station_ID":"NFGT1","Station_Nam":"NEW FOUND GAP","Latitude":"35.61080","Longitude":"-83.42890","Snowdepth":"7.140","Units":"in","Rept_Date":"2021-01-12 06"},"coordinates":[3243,2528]},{"type":"Point","properties":{"Station_ID":"CAN-QC-47","Station_Nam":"SAINTE-FOY 1.8 ENE, CAN","Latitude":"46.76934","Longitude":"-71.27124","Snowdepth":"7.100","Units":"in","Rept_Date":"2021-01-11 12"},"coordinates":[6095,7701]},{"type":"Point","properties":{"Station_ID":"CAN-NB-98","Station_Nam":"HOYT 4.2 S, CAN","Latitude":"45.54763","Longitude":"-66.55440","Snowdepth":"7.100","Units":"in","Rept_Date":"2021-01-11 11"},"coordinates":[7202,7134]},{"type":"Point","properties":{"Station_ID":"WRIM5","Station_Nam":"WRIGHT 3E","Latitude":"46.68040","Longitude":"-92.95420","Snowdepth":"7.000","Units":"in","Rept_Date":"2021-01-11 12"},"coordinates":[1008,7659]},{"type":"Point","properties":{"Station_ID":"WNDP1","Station_Nam":"WINDBER COUNTY CLUB","Latitude":"40.28780","Longitude":"-78.77530","Snowdepth":"7.000","Units":"in","Rept_Date":"2021-01-11 12"},"coordinates":[4335,4696]},{"type":"Point","properties":{"Station_ID":"WI-VL-9","Station_Nam":"LAND O' LAKES 11.7 W, WI","Latitude":"46.19023","Longitude":"-89.45790","Snowdepth":"7.000","Units":"in","Rept_Date":"2021-01-11 13"},"coordinates":[1828,7432]},{"type":"Point","properties":{"Station_ID":"WI-PK-4","Station_Nam":"DRESSER 6.1 ESE, WI","Latitude":"45.32436","Longitude":"-92.52080","Snowdepth":"7.000","Units":"in","Rept_Date":"2021-01-11 14"},"coordinates":[1109,7031]},{"type":"Point","properties":{"Station_ID":"WI-PK-33","Station_Nam":"FREDERIC 4.8 NE, WI","Latitude":"45.70970","Longitude":"-92.39950","Snowdepth":"7.000","Units":"in","Rept_Date":"2021-01-11 13"},"coordinates":[1138,7209]},{"type":"Point","properties":{"Station_ID":"VT-WS-5","Station_Nam":"BERLIN 4.3 WNW, VT","Latitude":"44.23360","Longitude":"-72.65610","Snowdepth":"7.000","Units":"in","Rept_Date":"2021-01-11 12"},"coordinates":[5770,6525]},{"type":"Point","properties":{"Station_ID":"VT-WS-30","Station_Nam":"WOODBURY 3.4 NNW, VT","Latitude":"44.48825","Longitude":"-72.43258","Snowdepth":"7.000","Units":"in","Rept_Date":"2021-01-11 12"},"coordinates":[5823,6643]},{"type":"Point","properties":{"Station_ID":"VT-OL-1","Station_Nam":"WESTFIELD 0.7 WNW, VT","Latitude":"44.89160","Longitude":"-72.44350","Snowdepth":"7.000","Units":"in","Rept_Date":"2021-01-11 12"},"coordinates":[5820,6830]},{"type":"Point","properties":{"Station_ID":"TX-MLM-17","Station_Nam":"GAUSE 2.5 W, TX","Latitude":"30.78998","Longitude":"-96.76308","Snowdepth":"7.000","Units":"in","Rept_Date":"2021-01-11 14"},"coordinates":[114,293]},{"type":"Point","properties":{"Station_ID":"TOPM1","Station_Nam":"TOPSFIELD","Latitude":"45.43470","Longitude":"-67.72020","Snowdepth":"7.000","Units":"in","Rept_Date":"2021-01-11 12"},"coordinates":[6928,7082]},{"type":"Point","properties":{"Station_ID":"SUTV1","Station_Nam":"SUTTON","Latitude":"44.61220","Longitude":"-72.04810","Snowdepth":"7.000","Units":"in","Rept_Date":"2021-01-11 13"},"coordinates":[5913,6701]},{"type":"Point","properties":{"Station_ID":"SUAW3","Station_Nam":"SUAMICO","Latitude":"44.60190","Longitude":"-88.09780","Snowdepth":"7.000","Units":"in","Rept_Date":"2021-01-11 18"},"coordinates":[2147,6696]},{"type":"Point","properties":{"Station_ID":"SCRW3","Station_Nam":"ST CROIX FALLS","Latitude":"45.41170","Longitude":"-92.64660","Snowdepth":"7.000","Units":"in","Rept_Date":"2021-01-11 13"},"coordinates":[1080,7071]},{"type":"Point","properties":{"Station_ID":"RLWM5","Station_Nam":"CAMP NORRIS DNR","Latitude":"48.61000","Longitude":"-95.18170","Snowdepth":"7.000","Units":"in","Rept_Date":"2021-01-11 13"},"coordinates":[485,8554]},{"type":"Point","properties":{"Station_ID":"RLKW3","Station_Nam":"REST LAKE","Latitude":"46.12220","Longitude":"-89.87720","Snowdepth":"7.000","Units":"in","Rept_Date":"2021-01-11 13"},"coordinates":[1730,7401]},{"type":"Point","properties":{"Station_ID":"RGNM1","Station_Nam":"RANGELEY 2NW","Latitude":"44.98940","Longitude":"-70.67220","Snowdepth":"7.000","Units":"in","Rept_Date":"2021-01-11 11"},"coordinates":[6236,6875]},{"type":"Point","properties":{"Station_ID":"RANM1","Station_Nam":"RANGELEY","Latitude":"44.98910","Longitude":"-70.67190","Snowdepth":"7.000","Units":"in","Rept_Date":"2021-01-11 11"},"coordinates":[6236,6875]},{"type":"Point","properties":{"Station_ID":"PTBN3","Station_Nam":"PITTSBURG RESERVOIR","Latitude":"45.04690","Longitude":"-71.38300","Snowdepth":"7.000","Units":"in","Rept_Date":"2021-01-11 12"},"coordinates":[6069,6902]},{"type":"Point","properties":{"Station_ID":"PDGM4","Station_Nam":"PAULDING","Latitude":"46.39760","Longitude":"-89.17940","Snowdepth":"7.000","Units":"in","Rept_Date":"2021-01-11 13"},"coordinates":[1893,7528]},{"type":"Point","properties":{"Station_ID":"NY-HR-18","Station_Nam":"SALISBURY CENTER 1.8 NW, NY","Latitude":"43.16260","Longitude":"-74.80880","Snowdepth":"7.000","Units":"in","Rept_Date":"2021-01-11 10"},"coordinates":[5265,6029]},{"type":"Point","properties":{"Station_ID":"NY-ES-11","Station_Nam":"VERMONTVILLE 2.8 S, NY","Latitude":"44.41205","Longitude":"-74.06760","Snowdepth":"7.000","Units":"in","Rept_Date":"2021-01-11 12"},"coordinates":[5439,6608]},{"type":"Point","properties":{"Station_ID":"MTCI2","Station_Nam":"MOUNT CARROLL","Latitude":"42.09800","Longitude":"-89.98410","Snowdepth":"7.000","Units":"in","Rept_Date":"2021-01-11 17"},"coordinates":[1705,5535]},{"type":"Point","properties":{"Station_ID":"MSP","Station_Nam":"MINNEAPOLIS-ST PAUL INTL AP","Latitude":"44.88310","Longitude":"-93.22890","Snowdepth":"7.000","Units":"in","Rept_Date":"2021-01-12 00"},"coordinates":[943,6826]},{"type":"Point","properties":{"Station_ID":"MPXM5","Station_Nam":"CHANHASSEN WSFO","Latitude":"44.84960","Longitude":"-93.56440","Snowdepth":"7.000","Units":"in","Rept_Date":"2021-01-12 06"},"coordinates":[864,6811]},{"type":"Point","properties":{"Station_ID":"MN-RM-56","Station_Nam":"ROSEVILLE 1.6 NW, MN","Latitude":"45.03303","Longitude":"-93.17523","Snowdepth":"7.000","Units":"in","Rept_Date":"2021-01-11 13"},"coordinates":[956,6896]},{"type":"Point","properties":{"Station_ID":"MN-RM-15","Station_Nam":"ROSEVILLE 2.1 NW, MN","Latitude":"45.03502","Longitude":"-93.18620","Snowdepth":"7.000","Units":"in","Rept_Date":"2021-01-11 12"},"coordinates":[953,6897]},{"type":"Point","properties":{"Station_ID":"MN-IT-7","Station_Nam":"GRAND RAPIDS 6.2 SSW, MN","Latitude":"47.13687","Longitude":"-93.56660","Snowdepth":"7.000","Units":"in","Rept_Date":"2021-01-11 12"},"coordinates":[864,7871]},{"type":"Point","properties":{"Station_ID":"MN-IT-23","Station_Nam":"BOVEY 13.4 N, MN","Latitude":"47.48855","Longitude":"-93.43497","Snowdepth":"7.000","Units":"in","Rept_Date":"2021-01-11 13"},"coordinates":[895,8034]},{"type":"Point","properties":{"Station_ID":"MN-IS-22","Station_Nam":"PRINCETON 6.6 E, MN","Latitude":"45.55762","Longitude":"-93.44595","Snowdepth":"7.000","Units":"in","Rept_Date":"2021-01-11 15"},"coordinates":[892,7139]},{"type":"Point","properties":{"Station_ID":"MN-HN-6","Station_Nam":"LONG LAKE 0.2 WSW, MN","Latitude":"44.98290","Longitude":"-93.57360","Snowdepth":"7.000","Units":"in","Rept_Date":"2021-01-11 13"},"coordinates":[862,6872]},{"type":"Point","properties":{"Station_ID":"MN-HN-31","Station_Nam":"MAPLE GROVE 1.0 NNE, MN","Latitude":"45.12261","Longitude":"-93.45790","Snowdepth":"7.000","Units":"in","Rept_Date":"2021-01-11 14"},"coordinates":[889,6937]},{"type":"Point","properties":{"Station_ID":"MN-HN-298","Station_Nam":"EXCELSIOR 1.8 W, MN","Latitude":"44.89722","Longitude":"-93.60286","Snowdepth":"7.000","Units":"in","Rept_Date":"2021-01-11 13"},"coordinates":[855,6833]},{"type":"Point","properties":{"Station_ID":"MN-GH-28","Station_Nam":"CANNON FALLS 0.5 SE, MN","Latitude":"44.50866","Longitude":"-92.89526","Snowdepth":"7.000","Units":"in","Rept_Date":"2021-01-11 14"},"coordinates":[1021,6653]},{"type":"Point","properties":{"Station_ID":"MN-CW-44","Station_Nam":"CROSBY 1.1 SW, MN","Latitude":"46.47772","Longitude":"-93.97293","Snowdepth":"7.000","Units":"in","Rept_Date":"2021-01-11 13"},"coordinates":[769,7565]},{"type":"Point","properties":{"Station_ID":"MKX","Station_Nam":"MILWAUKEE, WI","Latitude":"42.96810","Longitude":"-88.54920","Snowdepth":"7.000","Units":"in","Rept_Date":"2021-01-12 06"},"coordinates":[2041,5938]},{"type":"Point","properties":{"Station_ID":"MKTI4","Station_Nam":"MAQUOKETA","Latitude":"42.07710","Longitude":"-90.66470","Snowdepth":"7.000","Units":"in","Rept_Date":"2021-01-11 13"},"coordinates":[1545,5525]},{"type":"Point","properties":{"Station_ID":"MI-OT-17","Station_Nam":"GAYLORD 4.1 S, MI","Latitude":"44.96388","Longitude":"-84.68467","Snowdepth":"7.000","Units":"in","Rept_Date":"2021-01-11 12"},"coordinates":[2948,6864]},{"type":"Point","properties":{"Station_ID":"ME-PN-55","Station_Nam":"ORONO 1.1 SSW, ME","Latitude":"44.87005","Longitude":"-68.69446","Snowdepth":"7.000","Units":"in","Rept_Date":"2021-01-11 12"},"coordinates":[6700,6820]},{"type":"Point","properties":{"Station_ID":"LUCW3","Station_Nam":"LUCK","Latitude":"45.57330","Longitude":"-92.48520","Snowdepth":"7.000","Units":"in","Rept_Date":"2021-01-11 22"},"coordinates":[1118,7146]},{"type":"Point","properties":{"Station_ID":"LPLN6","Station_Nam":"LAKE PLACID 2 S","Latitude":"44.30420","Longitude":"-73.98390","Snowdepth":"7.000","Units":"in","Rept_Date":"2021-01-11 13"},"coordinates":[5459,6558]},{"type":"Point","properties":{"Station_ID":"LNOW3","Station_Nam":"LAND O LAKES","Latitude":"46.19000","Longitude":"-89.45700","Snowdepth":"7.000","Units":"in","Rept_Date":"2021-01-11 13"},"coordinates":[1828,7432]},{"type":"Point","properties":{"Station_ID":"KMSP","Station_Nam":"MINNEAPOLIS-ST PAUL INTERNATIONAL","Latitude":"44.86666","Longitude":"-93.21666","Snowdepth":"7.000","Units":"in","Rept_Date":"2021-01-12 06"},"coordinates":[946,6819]},{"type":"Point","properties":{"Station_ID":"JCBM4","Station_Nam":"JACOBSVILLE","Latitude":"47.00830","Longitude":"-88.43180","Snowdepth":"7.000","Units":"in","Rept_Date":"2021-01-11 12"},"coordinates":[2069,7811]},{"type":"Point","properties":{"Station_ID":"IRMM4","Station_Nam":"WWTP","Latitude":"46.46670","Longitude":"-90.18330","Snowdepth":"7.000","Units":"in","Rept_Date":"2021-01-11 13"},"coordinates":[1658,7560]},{"type":"Point","properties":{"Station_ID":"IL-SP-6","Station_Nam":"FREEPORT 2.0 NW, IL","Latitude":"42.30955","Longitude":"-89.66370","Snowdepth":"7.000","Units":"in","Rept_Date":"2021-01-11 13"},"coordinates":[1780,5633]},{"type":"Point","properties":{"Station_ID":"IL-SP-25","Station_Nam":"FREEPORT 1.7 NW, IL","Latitude":"42.30427","Longitude":"-89.66285","Snowdepth":"7.000","Units":"in","Rept_Date":"2021-01-11 13"},"coordinates":[1780,5631]},{"type":"Point","properties":{"Station_ID":"IA-ST-3","Station_Nam":"PARK VIEW 0.2 WSW, IA","Latitude":"41.68855","Longitude":"-90.54380","Snowdepth":"7.000","Units":"in","Rept_Date":"2021-01-11 13"},"coordinates":[1573,5345]},{"type":"Point","properties":{"Station_ID":"ESGM1","Station_Nam":"EAST SANGERVILLE","Latitude":"45.13690","Longitude":"-69.28060","Snowdepth":"7.000","Units":"in","Rept_Date":"2021-01-11 12"},"coordinates":[6562,6944]},{"type":"Point","properties":{"Station_ID":"DLHM5","Station_Nam":"DULUTH NWS","Latitude":"46.83680","Longitude":"-92.21080","Snowdepth":"7.000","Units":"in","Rept_Date":"2021-01-12 06"},"coordinates":[1182,7732]},{"type":"Point","properties":{"Station_ID":"DLH","Station_Nam":"DULUTH, MN","Latitude":"46.83690","Longitude":"-92.21030","Snowdepth":"7.000","Units":"in","Rept_Date":"2021-01-12 00"},"coordinates":[1182,7732]},{"type":"Point","properties":{"Station_ID":"DFXM1","Station_Nam":"DOVER-FOXCROFT","Latitude":"45.18720","Longitude":"-69.18350","Snowdepth":"7.000","Units":"in","Rept_Date":"2021-01-11 12"},"coordinates":[6585,6967]},{"type":"Point","properties":{"Station_ID":"COUW3","Station_Nam":"COUDERAY,WI","Latitude":"45.86670","Longitude":"-91.45000","Snowdepth":"7.000","Units":"in","Rept_Date":"2021-01-11 22"},"coordinates":[1361,7282]},{"type":"Point","properties":{"Station_ID":"CORM1","Station_Nam":"CORINNA","Latitude":"44.91980","Longitude":"-69.24180","Snowdepth":"7.000","Units":"in","Rept_Date":"2021-01-11 16"},"coordinates":[6571,6843]},{"type":"Point","properties":{"Station_ID":"CLKM4","Station_Nam":"CLARKSBURG","Latitude":"46.49910","Longitude":"-87.84500","Snowdepth":"7.000","Units":"in","Rept_Date":"2021-01-11 12"},"coordinates":[2206,7575]},{"type":"Point","properties":{"Station_ID":"CENT2","Station_Nam":"CENTER,TX","Latitude":"31.80750","Longitude":"-94.16420","Snowdepth":"7.000","Units":"in","Rept_Date":"2021-01-11 13"},"coordinates":[724,764]},{"type":"Point","properties":{"Station_ID":"CAN-NB-97","Station_Nam":"NEW MARYLAND 0.6 NW, CAN","Latitude":"45.90112","Longitude":"-66.68739","Snowdepth":"7.000","Units":"in","Rept_Date":"2021-01-11 11"},"coordinates":[7171,7298]},{"type":"Point","properties":{"Station_ID":"CAN-MB-56","Station_Nam":"WINNIPEG 7.6 ENE, CAN","Latitude":"49.93264","Longitude":"-97.04752","Snowdepth":"7.000","Units":"in","Rept_Date":"2021-01-11 14"},"coordinates":[47,9167]},{"type":"Point","properties":{"Station_ID":"BDBP1","Station_Nam":"LEADS HOLLOW SNOW","Latitude":"41.43330","Longitude":"-77.88330","Snowdepth":"7.000","Units":"in","Rept_Date":"2021-01-11 17"},"coordinates":[4544,5227]},{"type":"Point","properties":{"Station_ID":"QCX","Station_Nam":"QCX","Latitude":"51.32830","Longitude":"-70.08060","Snowdepth":"6.850","Units":"in","Rept_Date":"2021-01-11 12"},"coordinates":[6375,9814]},{"type":"Point","properties":{"Station_ID":"HPN04_MADIS","Station_Nam":"HANOVER","Latitude":"45.16770","Longitude":"-93.63430","Snowdepth":"6.800","Units":"in","Rept_Date":"2021-01-12 06"},"coordinates":[848,6958]},{"type":"Point","properties":{"Station_ID":"WI-WK-74","Station_Nam":"BROOKFIELD 2.8 SSW, WI","Latitude":"43.02390","Longitude":"-88.13760","Snowdepth":"6.700","Units":"in","Rept_Date":"2021-01-11 13"},"coordinates":[2138,5964]},{"type":"Point","properties":{"Station_ID":"TX-LT-11","Station_Nam":"MOUNT CALM 5.4 S, TX","Latitude":"31.67967","Longitude":"-96.89153","Snowdepth":"6.700","Units":"in","Rept_Date":"2021-01-11 13"},"coordinates":[84,705]},{"type":"Point","properties":{"Station_ID":"CAN-ON-804","Station_Nam":"KEMBLE 1.6 S - GSCA, CAN","Latitude":"44.71013","Longitude":"-80.92735","Snowdepth":"6.700","Units":"in","Rept_Date":"2021-01-11 13"},"coordinates":[3830,6746]},{"type":"Point","properties":{"Station_ID":"CAN-NB-8","Station_Nam":"KESWICK RIDGE 2.3 SSE, CAN","Latitude":"45.97703","Longitude":"-66.86815","Snowdepth":"6.700","Units":"in","Rept_Date":"2021-01-11 13"},"coordinates":[7128,7333]},{"type":"Point","properties":{"Station_ID":"HPN02_MADIS","Station_Nam":"MAPLE GROVE","Latitude":"45.11820","Longitude":"-93.42830","Snowdepth":"6.600","Units":"in","Rept_Date":"2021-01-12 01"},"coordinates":[896,6935]},{"type":"Point","properties":{"Station_ID":"WI-RC-3","Station_Nam":"RACINE 2.3 WSW, WI","Latitude":"42.71124","Longitude":"-87.84570","Snowdepth":"6.500","Units":"in","Rept_Date":"2021-01-11 13"},"coordinates":[2206,5819]},{"type":"Point","properties":{"Station_ID":"WI-OZ-17","Station_Nam":"WEST BEND 7.3 E, WI","Latitude":"43.42860","Longitude":"-88.03870","Snowdepth":"6.500","Units":"in","Rept_Date":"2021-01-11 13"},"coordinates":[2161,6152]},{"type":"Point","properties":{"Station_ID":"WI-JF-10","Station_Nam":"PALMYRA 1.5 N, WI","Latitude":"42.90084","Longitude":"-88.58620","Snowdepth":"6.500","Units":"in","Rept_Date":"2021-01-11 13"},"coordinates":[2033,5907]},{"type":"Point","properties":{"Station_ID":"WI-DA-99","Station_Nam":"FITCHBURG 1.1 NW, WI","Latitude":"42.99740","Longitude":"-89.44046","Snowdepth":"6.500","Units":"in","Rept_Date":"2021-01-11 13"},"coordinates":[1832,5952]},{"type":"Point","properties":{"Station_ID":"VT-WS-19","Station_Nam":"WATERBURY 3.0 NW, VT","Latitude":"44.36060","Longitude":"-72.80770","Snowdepth":"6.500","Units":"in","Rept_Date":"2021-01-11 11"},"coordinates":[5735,6584]},{"type":"Point","properties":{"Station_ID":"VT-CL-14","Station_Nam":"LYNDONVILLE 1.1 W, VT","Latitude":"44.53582","Longitude":"-72.02867","Snowdepth":"6.500","Units":"in","Rept_Date":"2021-01-11 12"},"coordinates":[5918,6665]},{"type":"Point","properties":{"Station_ID":"TX-MLM-18","Station_Nam":"GAUSE 2.8 NNW, TX","Latitude":"30.81817","Longitude":"-96.74849","Snowdepth":"6.500","Units":"in","Rept_Date":"2021-01-11 14"},"coordinates":[117,306]},{"type":"Point","properties":{"Station_ID":"NY-FK-9","Station_Nam":"GABRIELS 1.3 SE, NY","Latitude":"44.41934","Longitude":"-74.16194","Snowdepth":"6.500","Units":"in","Rept_Date":"2021-01-11 12"},"coordinates":[5417,6611]},{"type":"Point","properties":{"Station_ID":"MN-IT-1","Station_Nam":"GRAND RAPIDS 2.0 E, MN","Latitude":"47.22266","Longitude":"-93.49600","Snowdepth":"6.500","Units":"in","Rept_Date":"2021-01-11 14"},"coordinates":[880,7911]},{"type":"Point","properties":{"Station_ID":"MN-IS-21","Station_Nam":"ISANTI 5.0 SW, MN","Latitude":"45.43360","Longitude":"-93.30200","Snowdepth":"6.500","Units":"in","Rept_Date":"2021-01-11 14"},"coordinates":[926,7081]},{"type":"Point","properties":{"Station_ID":"MI-GL-4","Station_Nam":"GLADWIN 10.4 NNW, MI","Latitude":"44.11865","Longitude":"-84.58470","Snowdepth":"6.500","Units":"in","Rept_Date":"2021-01-11 14"},"coordinates":[2971,6472]},{"type":"Point","properties":{"Station_ID":"IL-WN-26","Station_Nam":"ROCKFORD 1.5 ENE, IL","Latitude":"42.27775","Longitude":"-89.03590","Snowdepth":"6.500","Units":"in","Rept_Date":"2021-01-11 15"},"coordinates":[1927,5618]},{"type":"Point","properties":{"Station_ID":"IL-SP-26","Station_Nam":"FREEPORT 2.9 WSW, IL","Latitude":"42.26779","Longitude":"-89.68323","Snowdepth":"6.500","Units":"in","Rept_Date":"2021-01-11 15"},"coordinates":[1775,5614]},{"type":"Point","properties":{"Station_ID":"IA-ST-1","Station_Nam":"LE CLAIRE 1.8 NNE, IA","Latitude":"41.62355","Longitude":"-90.35140","Snowdepth":"6.500","Units":"in","Rept_Date":"2021-01-11 13"},"coordinates":[1618,5315]},{"type":"Point","properties":{"Station_ID":"BDKP1","Station_Nam":"SHORT RUN SNOW","Latitude":"41.60000","Longitude":"-77.78330","Snowdepth":"6.500","Units":"in","Rept_Date":"2021-01-11 17"},"coordinates":[4567,5304]},{"type":"Point","properties":{"Station_ID":"BDHP1","Station_Nam":"CARTER CAMP SNOW","Latitude":"41.61670","Longitude":"-77.71670","Snowdepth":"6.500","Units":"in","Rept_Date":"2021-01-11 17"},"coordinates":[4583,5312]},{"type":"Point","properties":{"Station_ID":"TX-CHK-1","Station_Nam":"BULLARD 3.7 E, TX","Latitude":"32.13611","Longitude":"-95.25640","Snowdepth":"6.300","Units":"in","Rept_Date":"2021-01-11 13"},"coordinates":[467,917]},{"type":"Point","properties":{"Station_ID":"CAN-ON-771","Station_Nam":"KENORA 8.7 NNE - CANWARN, CAN","Latitude":"49.84171","Longitude":"-94.44386","Snowdepth":"6.300","Units":"in","Rept_Date":"2021-01-11 13"},"coordinates":[658,9125]},{"type":"Point","properties":{"Station_ID":"TX-NC-5","Station_Nam":"NACOGDOCHES 9.5 NE, TX","Latitude":"31.69851","Longitude":"-94.52360","Snowdepth":"6.200","Units":"in","Rept_Date":"2021-01-11 13"},"coordinates":[639,714]},{"type":"Point","properties":{"Station_ID":"PA-CR-1","Station_Nam":"EMPORIUM 2.6 S, PA","Latitude":"41.47342","Longitude":"-78.24330","Snowdepth":"6.200","Units":"in","Rept_Date":"2021-01-11 13"},"coordinates":[4459,5245]},{"type":"Point","properties":{"Station_ID":"HPN08_MADIS","Station_Nam":"ORONO","Latitude":"44.93630","Longitude":"-93.62000","Snowdepth":"6.200","Units":"in","Rept_Date":"2021-01-12 06"},"coordinates":[851,6851]},{"type":"Point","properties":{"Station_ID":"WTBW3","Station_Nam":"WEST BEND PUBLIC WORKS","Latitude":"43.41110","Longitude":"-88.19380","Snowdepth":"6.000","Units":"in","Rept_Date":"2021-01-11 15"},"coordinates":[2125,6144]},{"type":"Point","properties":{"Station_ID":"WRTS2","Station_Nam":"WATERTOWN,SD","Latitude":"44.90280","Longitude":"-97.11360","Snowdepth":"6.000","Units":"in","Rept_Date":"2021-01-11 15"},"coordinates":[32,6835]},{"type":"Point","properties":{"Station_ID":"WI-WK-68","Station_Nam":"OCONOMOWOC 1.0 S, WI","Latitude":"43.09530","Longitude":"-88.48590","Snowdepth":"6.000","Units":"in","Rept_Date":"2021-01-11 14"},"coordinates":[2056,5997]},{"type":"Point","properties":{"Station_ID":"WI-WK-34","Station_Nam":"MUKWONAGO 5.3 W, WI","Latitude":"42.85380","Longitude":"-88.43550","Snowdepth":"6.000","Units":"in","Rept_Date":"2021-01-11 13"},"coordinates":[2068,5885]},{"type":"Point","properties":{"Station_ID":"WI-WK-20","Station_Nam":"MUKWONAGO 0.5 N, WI","Latitude":"42.87385","Longitude":"-88.33180","Snowdepth":"6.000","Units":"in","Rept_Date":"2021-01-11 13"},"coordinates":[2092,5895]},{"type":"Point","properties":{"Station_ID":"WI-WB-16","Station_Nam":"SARONA 4.5 NNE, WI","Latitude":"45.77030","Longitude":"-91.76890","Snowdepth":"6.000","Units":"in","Rept_Date":"2021-01-11 13"},"coordinates":[1286,7238]},{"type":"Point","properties":{"Station_ID":"WI-PC-5","Station_Nam":"RIVER FALLS 1.2 SSW, WI","Latitude":"44.84032","Longitude":"-92.63500","Snowdepth":"6.000","Units":"in","Rept_Date":"2021-01-11 13"},"coordinates":[1083,6806]},{"type":"Point","properties":{"Station_ID":"WI-OZ-22","Station_Nam":"SAUKVILLE 0.9 SSW, WI","Latitude":"43.37254","Longitude":"-87.95009","Snowdepth":"6.000","Units":"in","Rept_Date":"2021-01-11 13"},"coordinates":[2182,6126]},{"type":"Point","properties":{"Station_ID":"WI-OZ-12","Station_Nam":"PORT WASHINGTON 0.5 S, WI","Latitude":"43.38610","Longitude":"-87.87900","Snowdepth":"6.000","Units":"in","Rept_Date":"2021-01-11 13"},"coordinates":[2198,6132]},{"type":"Point","properties":{"Station_ID":"WI-DA-87","Station_Nam":"DUNKIRK 0.1 NW, WI","Latitude":"42.88356","Longitude":"-89.21056","Snowdepth":"6.000","Units":"in","Rept_Date":"2021-01-11 12"},"coordinates":[1886,5899]},{"type":"Point","properties":{"Station_ID":"WI-BY-6","Station_Nam":"BARNES 2.2 S, WI","Latitude":"46.30264","Longitude":"-91.50320","Snowdepth":"6.000","Units":"in","Rept_Date":"2021-01-11 13"},"coordinates":[1348,7484]},{"type":"Point","properties":{"Station_ID":"WI-BR-2","Station_Nam":"CHETEK 2.0 SE, WI","Latitude":"45.29427","Longitude":"-91.62470","Snowdepth":"6.000","Units":"in","Rept_Date":"2021-01-11 13"},"coordinates":[1320,7017]},{"type":"Point","properties":{"Station_ID":"WHTW3","Station_Nam":"WHITEWATER,WI","Latitude":"42.85670","Longitude":"-88.72940","Snowdepth":"6.000","Units":"in","Rept_Date":"2021-01-11 14"},"coordinates":[1999,5887]},{"type":"Point","properties":{"Station_ID":"WELM5","Station_Nam":"WELLS","Latitude":"43.74680","Longitude":"-93.73680","Snowdepth":"6.000","Units":"in","Rept_Date":"2021-01-11 14"},"coordinates":[824,6299]},{"type":"Point","properties":{"Station_ID":"VT-WS-10","Station_Nam":"NORTHFIELD 1.5 N, VT","Latitude":"44.16986","Longitude":"-72.65200","Snowdepth":"6.000","Units":"in","Rept_Date":"2021-01-11 12"},"coordinates":[5771,6496]},{"type":"Point","properties":{"Station_ID":"VT-WR-2","Station_Nam":"POMFRET 2.6 N, VT","Latitude":"43.74230","Longitude":"-72.52550","Snowdepth":"6.000","Units":"in","Rept_Date":"2021-01-11 12"},"coordinates":[5801,6297]},{"type":"Point","properties":{"Station_ID":"VT-OL-2","Station_Nam":"BARTON 3.0 ENE, VT","Latitude":"44.75863","Longitude":"-72.11680","Snowdepth":"6.000","Units":"in","Rept_Date":"2021-01-11 12"},"coordinates":[5897,6768]},{"type":"Point","properties":{"Station_ID":"VT-OG-14","Station_Nam":"BRADFORD 2.2 NNW, VT","Latitude":"44.02268","Longitude":"-72.14756","Snowdepth":"6.000","Units":"in","Rept_Date":"2021-01-11 13"},"coordinates":[5890,6427]},{"type":"Point","properties":{"Station_ID":"VT-ES-3","Station_Nam":"LUNENBURG 2.3 NNW, VT","Latitude":"44.49324","Longitude":"-71.70446","Snowdepth":"6.000","Units":"in","Rept_Date":"2021-01-11 12"},"coordinates":[5994,6645]},{"type":"Point","properties":{"Station_ID":"VT-BN-3","Station_Nam":"LANDGROVE 1.1 NNE, VT","Latitude":"43.29092","Longitude":"-72.83260","Snowdepth":"6.000","Units":"in","Rept_Date":"2021-01-11 13"},"coordinates":[5729,6088]},{"type":"Point","properties":{"Station_ID":"UGRW3","Station_Nam":"UNION GROVE,WI","Latitude":"42.70000","Longitude":"-88.03220","Snowdepth":"6.000","Units":"in","Rept_Date":"2021-01-11 13"},"coordinates":[2163,5814]},{"type":"Point","properties":{"Station_ID":"SLRW3","Station_Nam":"SLINGER","Latitude":"43.33390","Longitude":"-88.29780","Snowdepth":"6.000","Units":"in","Rept_Date":"2021-01-11 13"},"coordinates":[2100,6108]},{"type":"Point","properties":{"Station_ID":"SDYM5","Station_Nam":"DAM","Latitude":"46.81670","Longitude":"-93.36670","Snowdepth":"6.000","Units":"in","Rept_Date":"2021-01-11 14"},"coordinates":[911,7723]},{"type":"Point","properties":{"Station_ID":"SAVW3","Station_Nam":"SAUKVILLE WWTP","Latitude":"43.37470","Longitude":"-87.93940","Snowdepth":"6.000","Units":"in","Rept_Date":"2021-01-11 12"},"coordinates":[2184,6127]},{"type":"Point","properties":{"Station_ID":"RKWM1","Station_Nam":"MOOSEHEAD LAKE","Latitude":"45.58330","Longitude":"-69.71670","Snowdepth":"6.000","Units":"in","Rept_Date":"2021-01-11 12"},"coordinates":[6460,7151]},{"type":"Point","properties":{"Station_ID":"RCKI2","Station_Nam":"MISSISSIPPI RIVER","Latitude":"41.51670","Longitude":"-90.56670","Snowdepth":"6.000","Units":"in","Rept_Date":"2021-01-12 06"},"coordinates":[1568,5266]},{"type":"Point","properties":{"Station_ID":"PRDM4","Station_Nam":"PARADISE","Latitude":"46.60380","Longitude":"-85.03960","Snowdepth":"6.000","Units":"in","Rept_Date":"2021-01-11 11"},"coordinates":[2865,7624]},{"type":"Point","properties":{"Station_ID":"PERV1","Station_Nam":"PERU","Latitude":"43.26670","Longitude":"-72.90000","Snowdepth":"6.000","Units":"in","Rept_Date":"2021-01-11 12"},"coordinates":[5713,6077]},{"type":"Point","properties":{"Station_ID":"PEKN6","Station_Nam":"PECK LAKE","Latitude":"43.11500","Longitude":"-74.42360","Snowdepth":"6.000","Units":"in","Rept_Date":"2021-01-11 12"},"coordinates":[5356,6007]},{"type":"Point","properties":{"Station_ID":"OTTM5","Station_Nam":"OTTERTAIL,MN","Latitude":"46.41670","Longitude":"-95.56670","Snowdepth":"6.000","Units":"in","Rept_Date":"2021-01-11 12"},"coordinates":[395,7537]},{"type":"Point","properties":{"Station_ID":"ONCW3","Station_Nam":"SOUTH","Latitude":"43.11170","Longitude":"-88.49970","Snowdepth":"6.000","Units":"in","Rept_Date":"2021-01-11 14"},"coordinates":[2053,6005]},{"type":"Point","properties":{"Station_ID":"OLNI4","Station_Nam":"OELWEIN 1E","Latitude":"42.68010","Longitude":"-91.87510","Snowdepth":"6.000","Units":"in","Rept_Date":"2021-01-11 12"},"coordinates":[1261,5805]},{"type":"Point","properties":{"Station_ID":"NYMM5","Station_Nam":"NEW YORK MILLS","Latitude":"46.50920","Longitude":"-95.37990","Snowdepth":"6.000","Units":"in","Rept_Date":"2021-01-11 13"},"coordinates":[438,7580]},{"type":"Point","properties":{"Station_ID":"NY-HM-10","Station_Nam":"LAKE PLEASANT 2.3 WSW, NY","Latitude":"43.45490","Longitude":"-74.45287","Snowdepth":"6.000","Units":"in","Rept_Date":"2021-01-11 12"},"coordinates":[5349,6164]},{"type":"Point","properties":{"Station_ID":"NY-ES-6","Station_Nam":"OLMSTEDVILLE 4.6 NNE, NY","Latitude":"43.83350","Longitude":"-73.89780","Snowdepth":"6.000","Units":"in","Rept_Date":"2021-01-11 13"},"coordinates":[5479,6340]},{"type":"Point","properties":{"Station_ID":"NY-DL-23","Station_Nam":"LONG EDDY 6.5 NNE, NY","Latitude":"41.93510","Longitude":"-75.07840","Snowdepth":"6.000","Units":"in","Rept_Date":"2021-01-11 13"},"coordinates":[5202,5459]},{"type":"Point","properties":{"Station_ID":"NY-CR-5","Station_Nam":"MARATHON 1.0 NW, NY","Latitude":"42.45161","Longitude":"-76.04370","Snowdepth":"6.000","Units":"in","Rept_Date":"2021-01-11 12"},"coordinates":[4975,5699]},{"type":"Point","properties":{"Station_ID":"NWSM1","Station_Nam":"NEW SHARON","Latitude":"44.63520","Longitude":"-70.00020","Snowdepth":"6.000","Units":"in","Rept_Date":"2021-01-11 12"},"coordinates":[6393,6711]},{"type":"Point","properties":{"Station_ID":"NH-MR-4","Station_Nam":"BOW 1.6 NW, NH","Latitude":"43.14994","Longitude":"-71.55650","Snowdepth":"6.000","Units":"in","Rept_Date":"2021-01-11 13"},"coordinates":[6028,6023]},{"type":"Point","properties":{"Station_ID":"NH-GR-47","Station_Nam":"LITTLETON 7.3 W, NH","Latitude":"44.31847","Longitude":"-71.91086","Snowdepth":"6.000","Units":"in","Rept_Date":"2021-01-11 13"},"coordinates":[5945,6564]},{"type":"Point","properties":{"Station_ID":"MYOM4","Station_Nam":"MIO WWTP","Latitude":"44.64660","Longitude":"-84.11580","Snowdepth":"6.000","Units":"in","Rept_Date":"2021-01-11 13"},"coordinates":[3081,6717]},{"type":"Point","properties":{"Station_ID":"MWOW3","Station_Nam":"MUKWONAGO","Latitude":"42.85380","Longitude":"-88.43550","Snowdepth":"6.000","Units":"in","Rept_Date":"2021-01-11 13"},"coordinates":[2068,5885]},{"type":"Point","properties":{"Station_ID":"MSN","Station_Nam":"MADISON DANE COUNTY RGNL","Latitude":"43.13970","Longitude":"-89.33750","Snowdepth":"6.000","Units":"in","Rept_Date":"2021-01-12 00"},"coordinates":[1856,6018]},{"type":"Point","properties":{"Station_ID":"MRAM5","Station_Nam":"MORA","Latitude":"45.87760","Longitude":"-93.31470","Snowdepth":"6.000","Units":"in","Rept_Date":"2021-01-11 13"},"coordinates":[923,7287]},{"type":"Point","properties":{"Station_ID":"MN-SH-10","Station_Nam":"BIG LAKE 5.6 NNE, MN","Latitude":"45.41409","Longitude":"-93.69190","Snowdepth":"6.000","Units":"in","Rept_Date":"2021-01-11 13"},"coordinates":[835,7072]},{"type":"Point","properties":{"Station_ID":"MN-SE-2","Station_Nam":"OWATONNA 0.8 E, MN","Latitude":"44.09170","Longitude":"-93.21380","Snowdepth":"6.000","Units":"in","Rept_Date":"2021-01-11 13"},"coordinates":[947,6459]},{"type":"Point","properties":{"Station_ID":"MN-OT-3","Station_Nam":"BATTLE LAKE 2S, MN","Latitude":"46.25833","Longitude":"-95.71470","Snowdepth":"6.000","Units":"in","Rept_Date":"2021-01-11 13"},"coordinates":[360,7464]},{"type":"Point","properties":{"Station_ID":"MN-MR-20","Station_Nam":"HILLMAN 8.3 N, MN","Latitude":"46.12692","Longitude":"-93.88661","Snowdepth":"6.000","Units":"in","Rept_Date":"2021-01-11 14"},"coordinates":[789,7403]},{"type":"Point","properties":{"Station_ID":"MN-IT-17","Station_Nam":"GRAND RAPIDS 6.1 N, MN","Latitude":"47.31165","Longitude":"-93.55036","Snowdepth":"6.000","Units":"in","Rept_Date":"2021-01-11 13"},"coordinates":[868,7952]},{"type":"Point","properties":{"Station_ID":"MN-HN-307","Station_Nam":"MINNEAPOLIS 1.5 WNW, MN","Latitude":"44.96860","Longitude":"-93.29580","Snowdepth":"6.000","Units":"in","Rept_Date":"2021-01-11 13"},"coordinates":[927,6866]},{"type":"Point","properties":{"Station_ID":"MN-HN-267","Station_Nam":"MINNEAPOLIS 2.5 SE, MN","Latitude":"44.93331","Longitude":"-93.23680","Snowdepth":"6.000","Units":"in","Rept_Date":"2021-01-11 13"},"coordinates":[941,6849]},{"type":"Point","properties":{"Station_ID":"MN-AT-5","Station_Nam":"TAMARACK 1.4 SW, MN","Latitude":"46.63760","Longitude":"-93.14554","Snowdepth":"6.000","Units":"in","Rept_Date":"2021-01-11 11"},"coordinates":[963,7640]},{"type":"Point","properties":{"Station_ID":"MI-OT-4","Station_Nam":"GAYLORD 1.7 WNW, MI","Latitude":"45.03280","Longitude":"-84.71090","Snowdepth":"6.000","Units":"in","Rept_Date":"2021-01-11 13"},"coordinates":[2942,6896]},{"type":"Point","properties":{"Station_ID":"MI-GG-4","Station_Nam":"WATERSMEET 5.0 SE, MI","Latitude":"46.20333","Longitude":"-89.13170","Snowdepth":"6.000","Units":"in","Rept_Date":"2021-01-11 14"},"coordinates":[1905,7438]},{"type":"Point","properties":{"Station_ID":"MI-CP-14","Station_Nam":"SAULT STE. MARIE 2.2 E, MI","Latitude":"46.48933","Longitude":"-84.31971","Snowdepth":"6.000","Units":"in","Rept_Date":"2021-01-11 13"},"coordinates":[3034,7571]},{"type":"Point","properties":{"Station_ID":"ME-AR-18","Station_Nam":"NEW SWEDEN 4.9 NNW, ME","Latitude":"47.01080","Longitude":"-68.14390","Snowdepth":"6.000","Units":"in","Rept_Date":"2021-01-11 12"},"coordinates":[6829,7813]},{"type":"Point","properties":{"Station_ID":"LNVT2","Station_Nam":"LONGVIEW #2","Latitude":"32.51830","Longitude":"-94.71880","Snowdepth":"6.000","Units":"in","Rept_Date":"2021-01-11 14"},"coordinates":[594,1094]},{"type":"Point","properties":{"Station_ID":"LEWM4","Station_Nam":"LEWISTON 3W","Latitude":"44.88210","Longitude":"-84.36540","Snowdepth":"6.000","Units":"in","Rept_Date":"2021-01-11 13"},"coordinates":[3023,6826]},{"type":"Point","properties":{"Station_ID":"LAUP1","Station_Nam":"1.5MI S OF RT 30 ON SMIT (LAUREL RIDGE)","Latitude":"40.05000","Longitude":"-79.22060","Snowdepth":"6.000","Units":"in","Rept_Date":"2021-01-11 12"},"coordinates":[4230,4586]},{"type":"Point","properties":{"Station_ID":"KMSN","Station_Nam":"MADISON DANE COUNTY RGNL","Latitude":"43.13333","Longitude":"-89.35000","Snowdepth":"6.000","Units":"in","Rept_Date":"2021-01-12 06"},"coordinates":[1853,6015]},{"type":"Point","properties":{"Station_ID":"JOHV1","Station_Nam":"JOHNSON 2 N","Latitude":"44.65790","Longitude":"-72.67850","Snowdepth":"6.000","Units":"in","Rept_Date":"2021-01-11 12"},"coordinates":[5765,6722]},{"type":"Point","properties":{"Station_ID":"JEFV1","Station_Nam":"JEFFERSONVILLE","Latitude":"44.58430","Longitude":"-72.78700","Snowdepth":"6.000","Units":"in","Rept_Date":"2021-01-11 12"},"coordinates":[5740,6688]},{"type":"Point","properties":{"Station_ID":"JACW3","Station_Nam":"JACKSON","Latitude":"43.31940","Longitude":"-88.16810","Snowdepth":"6.000","Units":"in","Rept_Date":"2021-01-11 12"},"coordinates":[2131,6101]},{"type":"Point","properties":{"Station_ID":"ISLV1","Station_Nam":"ISLAND POND","Latitude":"44.81280","Longitude":"-71.89020","Snowdepth":"6.000","Units":"in","Rept_Date":"2021-01-11 15"},"coordinates":[5950,6794]},{"type":"Point","properties":{"Station_ID":"ISEM5","Station_Nam":"ISLE 12N","Latitude":"46.31970","Longitude":"-93.50140","Snowdepth":"6.000","Units":"in","Rept_Date":"2021-01-11 14"},"coordinates":[879,7492]},{"type":"Point","properties":{"Station_ID":"IL-JD-6","Station_Nam":"HANOVER 0.2 NW, IL","Latitude":"42.25640","Longitude":"-90.28109","Snowdepth":"6.000","Units":"in","Rept_Date":"2021-01-11 13"},"coordinates":[1635,5608]},{"type":"Point","properties":{"Station_ID":"IA-LS-5","Station_Nam":"WAPELLO 5.4 SE, IA","Latitude":"41.11441","Longitude":"-91.13017","Snowdepth":"6.000","Units":"in","Rept_Date":"2021-01-11 13"},"coordinates":[1436,5079]},{"type":"Point","properties":{"Station_ID":"HWLM4","Station_Nam":"HALFWAY LAKE","Latitude":"46.47480","Longitude":"-85.59250","Snowdepth":"6.000","Units":"in","Rept_Date":"2021-01-11 14"},"coordinates":[2735,7564]},{"type":"Point","properties":{"Station_ID":"HSTM5","Station_Nam":"HASTINGS DAM 2","Latitude":"44.75970","Longitude":"-92.86890","Snowdepth":"6.000","Units":"in","Rept_Date":"2021-01-11 13"},"coordinates":[1028,6769]},{"type":"Point","properties":{"Station_ID":"HRTM1","Station_Nam":"HARTFORD","Latitude":"44.37440","Longitude":"-70.31620","Snowdepth":"6.000","Units":"in","Rept_Date":"2021-01-11 12"},"coordinates":[6319,6590]},{"type":"Point","properties":{"Station_ID":"HPN11_MADIS","Station_Nam":"SAINT BONIFACIUS","Latitude":"44.89792","Longitude":"-93.73460","Snowdepth":"6.000","Units":"in","Rept_Date":"2021-01-12 06"},"coordinates":[825,6833]},{"type":"Point","properties":{"Station_ID":"HMYM1","Station_Nam":"HARMONY","Latitude":"44.94660","Longitude":"-69.54560","Snowdepth":"6.000","Units":"in","Rept_Date":"2021-01-11 12"},"coordinates":[6500,6856]},{"type":"Point","properties":{"Station_ID":"GAYM4","Station_Nam":"GAYLORD","Latitude":"45.03320","Longitude":"-84.71130","Snowdepth":"6.000","Units":"in","Rept_Date":"2021-01-11 13"},"coordinates":[2942,6896]},{"type":"Point","properties":{"Station_ID":"GATW3","Station_Nam":"GRAFTON WWTP","Latitude":"43.30810","Longitude":"-87.95530","Snowdepth":"6.000","Units":"in","Rept_Date":"2021-01-11 13"},"coordinates":[2181,6096]},{"type":"Point","properties":{"Station_ID":"FEEI2","Station_Nam":"PECATONICA RIVER","Latitude":"42.30000","Longitude":"-89.61670","Snowdepth":"6.000","Units":"in","Rept_Date":"2021-01-11 13"},"coordinates":[1791,5629]},{"type":"Point","properties":{"Station_ID":"FEDM5","Station_Nam":"LEECH LAKE DAM","Latitude":"47.24670","Longitude":"-94.22280","Snowdepth":"6.000","Units":"in","Rept_Date":"2021-01-11 14"},"coordinates":[710,7922]},{"type":"Point","properties":{"Station_ID":"FARM1","Station_Nam":"FARMINGTON","Latitude":"44.68930","Longitude":"-70.15640","Snowdepth":"6.000","Units":"in","Rept_Date":"2021-01-11 12"},"coordinates":[6357,6736]},{"type":"Point","properties":{"Station_ID":"EVRW3","Station_Nam":"EAGLE RIVER-4 E","Latitude":"45.91890","Longitude":"-89.15280","Snowdepth":"6.000","Units":"in","Rept_Date":"2021-01-11 13"},"coordinates":[1900,7306]},{"type":"Point","properties":{"Station_ID":"EGRW3","Station_Nam":"EAGLE RIVER-SOUTH","Latitude":"45.91360","Longitude":"-89.24360","Snowdepth":"6.000","Units":"in","Rept_Date":"2021-01-11 13"},"coordinates":[1878,7304]},{"type":"Point","properties":{"Station_ID":"DLNW3","Station_Nam":"WALWORTH COUNTYMETROPOLITAN SEWERAGE DISTRICT (DELEVAN)","Latitude":"42.63440","Longitude":"-88.66280","Snowdepth":"6.000","Units":"in","Rept_Date":"2021-01-11 14"},"coordinates":[2015,5784]},{"type":"Point","properties":{"Station_ID":"DLDI4","Station_Nam":"MISSISSIPPI RIVER","Latitude":"42.51670","Longitude":"-90.65000","Snowdepth":"6.000","Units":"in","Rept_Date":"2021-01-11 12"},"coordinates":[1548,5729]},{"type":"Point","properties":{"Station_ID":"CORV1","Station_Nam":"CORINTH","Latitude":"44.00690","Longitude":"-72.31940","Snowdepth":"6.000","Units":"in","Rept_Date":"2021-01-11 12"},"coordinates":[5849,6420]},{"type":"Point","properties":{"Station_ID":"CLNI4","Station_Nam":"CLINTON NO 1","Latitude":"41.79470","Longitude":"-90.26390","Snowdepth":"6.000","Units":"in","Rept_Date":"2021-01-12 00"},"coordinates":[1639,5394]},{"type":"Point","properties":{"Station_ID":"CKTT2","Station_Nam":"SITE 1","Latitude":"31.30000","Longitude":"-95.45000","Snowdepth":"6.000","Units":"in","Rept_Date":"2021-01-11 14"},"coordinates":[422,529]},{"type":"Point","properties":{"Station_ID":"CARM1","Station_Nam":"CARIBOU WFO","Latitude":"46.86810","Longitude":"-68.01250","Snowdepth":"6.000","Units":"in","Rept_Date":"2021-01-12 05"},"coordinates":[6860,7746]},{"type":"Point","properties":{"Station_ID":"CAR","Station_Nam":"CARIBOU, ME","Latitude":"46.86830","Longitude":"-68.01360","Snowdepth":"6.000","Units":"in","Rept_Date":"2021-01-11 12"},"coordinates":[6860,7747]},{"type":"Point","properties":{"Station_ID":"BROW3","Station_Nam":"BRODHEAD,WI","Latitude":"42.61720","Longitude":"-89.38970","Snowdepth":"6.000","Units":"in","Rept_Date":"2021-01-11 13"},"coordinates":[1844,5776]},{"type":"Point","properties":{"Station_ID":"BRAM5","Station_Nam":"BRAINERD","Latitude":"46.34320","Longitude":"-94.20900","Snowdepth":"6.000","Units":"in","Rept_Date":"2021-01-11 13"},"coordinates":[713,7503]},{"type":"Point","properties":{"Station_ID":"BRAM1","Station_Nam":"BRASSUA DAM","Latitude":"45.66020","Longitude":"-69.81190","Snowdepth":"6.000","Units":"in","Rept_Date":"2021-01-11 12"},"coordinates":[6438,7186]},{"type":"Point","properties":{"Station_ID":"AVLV1","Station_Nam":"AVERILL","Latitude":"45.00570","Longitude":"-71.69030","Snowdepth":"6.000","Units":"in","Rept_Date":"2021-01-11 13"},"coordinates":[5997,6883]},{"type":"Point","properties":{"Station_ID":"ATY","Station_Nam":"WATERTOWN MUNICIPAL AIRPORT","Latitude":"44.91420","Longitude":"-97.15440","Snowdepth":"6.000","Units":"in","Rept_Date":"2021-01-11 12"},"coordinates":[22,6841]},{"type":"Point","properties":{"Station_ID":"AFTW3","Station_Nam":"ROCK RIVER","Latitude":"42.61670","Longitude":"-89.06670","Snowdepth":"6.000","Units":"in","Rept_Date":"2021-01-11 13"},"coordinates":[1920,5775]},{"type":"Point","properties":{"Station_ID":"CAN-PE-19","Station_Nam":"CHARLOTTETOWN 6.5 NNW, CAN","Latitude":"46.29235","Longitude":"-63.17271","Snowdepth":"5.900","Units":"in","Rept_Date":"2021-01-11 12"},"coordinates":[7995,7480]},{"type":"Point","properties":{"Station_ID":"CAN-NB-5","Station_Nam":"OAK POINT 0.9 SSW, CA","Latitude":"45.50752","Longitude":"-66.09860","Snowdepth":"5.900","Units":"in","Rept_Date":"2021-01-11 12"},"coordinates":[7309,7116]},{"type":"Point","properties":{"Station_ID":"CAN-NB-105","Station_Nam":"SISSON BROOK 3.8 E, CAN","Latitude":"46.98305","Longitude":"-67.32532","Snowdepth":"5.900","Units":"in","Rept_Date":"2021-01-11 12"},"coordinates":[7021,7800]},{"type":"Point","properties":{"Station_ID":"QLP","Station_Nam":"QLP","Latitude":"48.13920","Longitude":"-72.63830","Snowdepth":"5.827","Units":"in","Rept_Date":"2021-01-11 12"},"coordinates":[5775,8336]},{"type":"Point","properties":{"Station_ID":"WI-WS-5","Station_Nam":"JACKSON 0.2 WSW, WI","Latitude":"43.32007","Longitude":"-88.16820","Snowdepth":"5.800","Units":"in","Rept_Date":"2021-01-11 12"},"coordinates":[2131,6102]},{"type":"Point","properties":{"Station_ID":"TX-AN-8","Station_Nam":"PALESTINE 17.5 N, TX","Latitude":"32.01013","Longitude":"-95.64002","Snowdepth":"5.700","Units":"in","Rept_Date":"2021-01-11 14"},"coordinates":[377,858]},{"type":"Point","properties":{"Station_ID":"HPN20_MADIS","Station_Nam":"HOPKINS","Latitude":"44.95556","Longitude":"-93.41140","Snowdepth":"5.700","Units":"in","Rept_Date":"2021-01-12 06"},"coordinates":[900,6860]},{"type":"Point","properties":{"Station_ID":"QIQ","Station_Nam":"QIQ","Latitude":"49.82390","Longitude":"-68.54310","Snowdepth":"5.551","Units":"in","Rept_Date":"2021-01-11 12"},"coordinates":[6735,9117]},{"type":"Point","properties":{"Station_ID":"WI-WK-29","Station_Nam":"OCONOMOWOC 4.6 NE, WI","Latitude":"43.14621","Longitude":"-88.42860","Snowdepth":"5.500","Units":"in","Rept_Date":"2021-01-11 15"},"coordinates":[2069,6021]},{"type":"Point","properties":{"Station_ID":"WI-PR-6","Station_Nam":"PHILLIPS 1.3 S, WI","Latitude":"45.67677","Longitude":"-90.39543","Snowdepth":"5.500","Units":"in","Rept_Date":"2021-01-11 12"},"coordinates":[1608,7194]},{"type":"Point","properties":{"Station_ID":"WI-MW-18","Station_Nam":"WEST ALLIS 0.7 SSE, WI","Latitude":"42.99802","Longitude":"-88.02380","Snowdepth":"5.500","Units":"in","Rept_Date":"2021-01-11 14"},"coordinates":[2164,5952]},{"type":"Point","properties":{"Station_ID":"WI-MW-14","Station_Nam":"MILWAUKEE 3.6 NNW, WI","Latitude":"43.11300","Longitude":"-87.98730","Snowdepth":"5.500","Units":"in","Rept_Date":"2021-01-11 11"},"coordinates":[2173,6006]},{"type":"Point","properties":{"Station_ID":"VT-OL-25","Station_Nam":"NEWPORT 1.5 WSW, VT","Latitude":"44.93059","Longitude":"-72.23731","Snowdepth":"5.500","Units":"in","Rept_Date":"2021-01-11 12"},"coordinates":[5869,6848]},{"type":"Point","properties":{"Station_ID":"VT-CL-18","Station_Nam":"WHEELOCK 1.6 S, VT","Latitude":"44.56491","Longitude":"-72.08830","Snowdepth":"5.500","Units":"in","Rept_Date":"2021-01-11 12"},"coordinates":[5904,6679]},{"type":"Point","properties":{"Station_ID":"NH-CR-11","Station_Nam":"NORTH CONWAY 1.4 SSW, NH","Latitude":"44.03556","Longitude":"-71.14010","Snowdepth":"5.500","Units":"in","Rept_Date":"2021-01-11 12"},"coordinates":[6126,6433]},{"type":"Point","properties":{"Station_ID":"MN-CW-54","Station_Nam":"AITKIN 9.6 W, MN","Latitude":"46.53711","Longitude":"-93.90688","Snowdepth":"5.500","Units":"in","Rept_Date":"2021-01-11 14"},"coordinates":[784,7593]},{"type":"Point","properties":{"Station_ID":"MN-BK-10","Station_Nam":"DETROIT LAKES 5.7 N, MN","Latitude":"46.88666","Longitude":"-95.84444","Snowdepth":"5.500","Units":"in","Rept_Date":"2021-01-11 10"},"coordinates":[329,7755]},{"type":"Point","properties":{"Station_ID":"MI-EM-8","Station_Nam":"PETOSKEY 1.7 SSW, MI","Latitude":"45.34209","Longitude":"-84.96530","Snowdepth":"5.500","Units":"in","Rept_Date":"2021-01-11 11"},"coordinates":[2882,7039]},{"type":"Point","properties":{"Station_ID":"ME-WL-8","Station_Nam":"WINTERPORT 2.9 N, ME","Latitude":"44.69369","Longitude":"-68.84800","Snowdepth":"5.500","Units":"in","Rept_Date":"2021-01-11 12"},"coordinates":[6664,6738]},{"type":"Point","properties":{"Station_ID":"ME-WL-27","Station_Nam":"PROSPECT 2.6 W, ME","Latitude":"44.55719","Longitude":"-68.91732","Snowdepth":"5.500","Units":"in","Rept_Date":"2021-01-11 12"},"coordinates":[6648,6675]},{"type":"Point","properties":{"Station_ID":"ME-SM-10","Station_Nam":"NORTH NEW PORTLAND 0.3 WSW, ME","Latitude":"44.92353","Longitude":"-70.02788","Snowdepth":"5.500","Units":"in","Rept_Date":"2021-01-11 12"},"coordinates":[6387,6845]},{"type":"Point","properties":{"Station_ID":"IL-BN-19","Station_Nam":"BELVIDERE 5.0 NNW, IL","Latitude":"42.32071","Longitude":"-88.88282","Snowdepth":"5.500","Units":"in","Rept_Date":"2021-01-11 13"},"coordinates":[1963,5638]},{"type":"Point","properties":{"Station_ID":"IA-BT-11","Station_Nam":"MOUNT AUBURN 2.2 NNW, IA","Latitude":"42.28677","Longitude":"-92.10643","Snowdepth":"5.500","Units":"in","Rept_Date":"2021-01-11 13"},"coordinates":[1207,5623]},{"type":"Point","properties":{"Station_ID":"CAN-QC-37","Station_Nam":"LAVAL 3.8 SSW, CAN","Latitude":"45.55358","Longitude":"-73.76976","Snowdepth":"5.500","Units":"in","Rept_Date":"2021-01-11 13"},"coordinates":[5509,7137]},{"type":"Point","properties":{"Station_ID":"CAN-NS-68","Station_Nam":"RAWDON GOLD MINES 3.4 N, CA","Latitude":"45.08535","Longitude":"-63.76840","Snowdepth":"5.500","Units":"in","Rept_Date":"2021-01-11 11"},"coordinates":[7856,6920]},{"type":"Point","properties":{"Station_ID":"CAN-NB-13","Station_Nam":"BATHURST 3.8 NW, CAN","Latitude":"47.64212","Longitude":"-65.68756","Snowdepth":"5.500","Units":"in","Rept_Date":"2021-01-11 11"},"coordinates":[7405,8105]},{"type":"Point","properties":{"Station_ID":"BDGP1","Station_Nam":"OLE BULL SP SNOW","Latitude":"41.53330","Longitude":"-77.71670","Snowdepth":"5.500","Units":"in","Rept_Date":"2021-01-11 17"},"coordinates":[4583,5273]},{"type":"Point","properties":{"Station_ID":"MFU","Station_Nam":"MFU","Latitude":"51.52170","Longitude":"-66.91110","Snowdepth":"5.433","Units":"in","Rept_Date":"2021-01-11 12"},"coordinates":[7118,9904]},{"type":"Point","properties":{"Station_ID":"MI-AG-6","Station_Nam":"MUNISING 11.1 SSW, MI","Latitude":"46.27805","Longitude":"-86.75747","Snowdepth":"5.300","Units":"in","Rept_Date":"2021-01-11 12"},"coordinates":[2462,7473]},{"type":"Point","properties":{"Station_ID":"CAN-QC-51","Station_Nam":"BELOEIL 0.7 NW, CAN","Latitude":"45.58049","Longitude":"-73.21218","Snowdepth":"5.300","Units":"in","Rept_Date":"2021-01-11 12"},"coordinates":[5640,7150]},{"type":"Point","properties":{"Station_ID":"CAN-NB-1","Station_Nam":"FREDERICTON 4.0 SSE, CA","Latitude":"45.92897","Longitude":"-66.62830","Snowdepth":"5.300","Units":"in","Rept_Date":"2021-01-11 12"},"coordinates":[7185,7311]},{"type":"Point","properties":{"Station_ID":"WI-JF-24","Station_Nam":"LAC LABELLE 1.2 SW, WI","Latitude":"43.13126","Longitude":"-88.53959","Snowdepth":"5.200","Units":"in","Rept_Date":"2021-01-11 12"},"coordinates":[2043,6014]},{"type":"Point","properties":{"Station_ID":"ME-SM-3","Station_Nam":"PALMYRA 3.5 NW, ME","Latitude":"44.87180","Longitude":"-69.41952","Snowdepth":"5.200","Units":"in","Rept_Date":"2021-01-11 12"},"coordinates":[6530,6821]},{"type":"Point","properties":{"Station_ID":"HPN09_MADIS","Station_Nam":"PLYMOUTH","Latitude":"44.98992","Longitude":"-93.47910","Snowdepth":"5.200","Units":"in","Rept_Date":"2021-01-12 06"},"coordinates":[884,6876]},{"type":"Point","properties":{"Station_ID":"CAN-NS-3","Station_Nam":"WOLFVILLE 7.1 ESE, CAN","Latitude":"45.07921","Longitude":"-64.27107","Snowdepth":"5.100","Units":"in","Rept_Date":"2021-01-11 11"},"coordinates":[7738,6917]},{"type":"Point","properties":{"Station_ID":"CAN-NS-159","Station_Nam":"NORTHPORT 0.1 NE, CAN","Latitude":"45.93299","Longitude":"-63.86711","Snowdepth":"5.100","Units":"in","Rept_Date":"2021-01-11 11"},"coordinates":[7833,7313]},{"type":"Point","properties":{"Station_ID":"CAN-NS-13","Station_Nam":"TRURO 5.0 ENE, CA","Latitude":"45.38252","Longitude":"-63.22810","Snowdepth":"5.100","Units":"in","Rept_Date":"2021-01-11 11"},"coordinates":[7982,7058]},{"type":"Point","properties":{"Station_ID":"CAN-NB-96","Station_Nam":"SAINT-IGNACE 2.6 NE, CAN","Latitude":"46.71424","Longitude":"-65.05609","Snowdepth":"5.100","Units":"in","Rept_Date":"2021-01-11 11"},"coordinates":[7554,7675]},{"type":"Point","properties":{"Station_ID":"CAN-NB-28","Station_Nam":"SUSSEX CORNER 1.4 NE - KWRC, CAN","Latitude":"45.71691","Longitude":"-65.46217","Snowdepth":"5.100","Units":"in","Rept_Date":"2021-01-11 10"},"coordinates":[7458,7213]},{"type":"Point","properties":{"Station_ID":"QLM","Station_Nam":"QLM","Latitude":"48.92030","Longitude":"-70.25280","Snowdepth":"5.079","Units":"in","Rept_Date":"2021-01-11 12"},"coordinates":[6334,8698]},{"type":"Point","properties":{"Station_ID":"WTRM4","Station_Nam":"WATERSMEET 12WSW","Latitude":"46.22310","Longitude":"-89.40850","Snowdepth":"5.000","Units":"in","Rept_Date":"2021-01-11 12"},"coordinates":[1840,7447]},{"type":"Point","properties":{"Station_ID":"WSHI4","Station_Nam":"WASHINGTON","Latitude":"41.28240","Longitude":"-91.70780","Snowdepth":"5.000","Units":"in","Rept_Date":"2021-01-11 13"},"coordinates":[1300,5157]},{"type":"Point","properties":{"Station_ID":"WRUM5","Station_Nam":"WARROAD 4W","Latitude":"48.89600","Longitude":"-95.40700","Snowdepth":"5.000","Units":"in","Rept_Date":"2021-01-12 04"},"coordinates":[432,8687]},{"type":"Point","properties":{"Station_ID":"WODI2","Station_Nam":"WOODSTOCK","Latitude":"42.36280","Longitude":"-88.53140","Snowdepth":"5.000","Units":"in","Rept_Date":"2021-01-11 13"},"coordinates":[2045,5658]},{"type":"Point","properties":{"Station_ID":"WI-WS-27","Station_Nam":"RICHFIELD 2.8 WNW, WI","Latitude":"43.26840","Longitude":"-88.24890","Snowdepth":"5.000","Units":"in","Rept_Date":"2021-01-11 14"},"coordinates":[2112,6078]},{"type":"Point","properties":{"Station_ID":"WI-WS-15","Station_Nam":"WEST BEND 5.4 SE, WI","Latitude":"43.37259","Longitude":"-88.10086","Snowdepth":"5.000","Units":"in","Rept_Date":"2021-01-11 14"},"coordinates":[2146,6126]},{"type":"Point","properties":{"Station_ID":"WI-WK-73","Station_Nam":"MENOMONEE FALLS 3.2 NNW, WI","Latitude":"43.18817","Longitude":"-88.15555","Snowdepth":"5.000","Units":"in","Rept_Date":"2021-01-11 13"},"coordinates":[2134,6040]},{"type":"Point","properties":{"Station_ID":"WI-WK-61","Station_Nam":"HARTLAND 5.0 NNE, WI","Latitude":"43.16351","Longitude":"-88.30400","Snowdepth":"5.000","Units":"in","Rept_Date":"2021-01-11 13"},"coordinates":[2099,6029]},{"type":"Point","properties":{"Station_ID":"WI-VL-14","Station_Nam":"BOULDER JUNCTION 1.4 NE, WI","Latitude":"46.12840","Longitude":"-89.62470","Snowdepth":"5.000","Units":"in","Rept_Date":"2021-01-11 13"},"coordinates":[1789,7404]},{"type":"Point","properties":{"Station_ID":"WI-RS-1","Station_Nam":"LADYSMITH 2.8 WNW, WI","Latitude":"45.48180","Longitude":"-91.14680","Snowdepth":"5.000","Units":"in","Rept_Date":"2021-01-11 13"},"coordinates":[1432,7104]},{"type":"Point","properties":{"Station_ID":"WI-PR-8","Station_Nam":"PHILLIPS 0.4 SSW, WI","Latitude":"45.69086","Longitude":"-90.40200","Snowdepth":"5.000","Units":"in","Rept_Date":"2021-01-11 13"},"coordinates":[1606,7201]},{"type":"Point","properties":{"Station_ID":"WI-PC-10","Station_Nam":"RIVER FALLS 1.4 S, WI","Latitude":"44.83580","Longitude":"-92.62100","Snowdepth":"5.000","Units":"in","Rept_Date":"2021-01-11 13"},"coordinates":[1086,6804]},{"type":"Point","properties":{"Station_ID":"WI-MW-43","Station_Nam":"BROWN DEER 0.8 NW, WI","Latitude":"43.18438","Longitude":"-87.98401","Snowdepth":"5.000","Units":"in","Rept_Date":"2021-01-11 13"},"coordinates":[2174,6039]},{"type":"Point","properties":{"Station_ID":"WI-DA-39","Station_Nam":"MADISON 4.0 W, WI","Latitude":"43.07741","Longitude":"-89.46757","Snowdepth":"5.000","Units":"in","Rept_Date":"2021-01-11 13"},"coordinates":[1826,5989]},{"type":"Point","properties":{"Station_ID":"WI-AS-4","Station_Nam":"ASHLAND 0.5 WNW, WI","Latitude":"46.58240","Longitude":"-90.88390","Snowdepth":"5.000","Units":"in","Rept_Date":"2021-01-11 13"},"coordinates":[1493,7614]},{"type":"Point","properties":{"Station_ID":"WHFN6","Station_Nam":"WILMINGTON 2W","Latitude":"44.39310","Longitude":"-73.85890","Snowdepth":"5.000","Units":"in","Rept_Date":"2021-01-11 13"},"coordinates":[5488,6599]},{"type":"Point","properties":{"Station_ID":"WDOM5","Station_Nam":"WINDOM","Latitude":"43.87700","Longitude":"-95.11590","Snowdepth":"5.000","Units":"in","Rept_Date":"2021-01-11 14"},"coordinates":[500,6360]},{"type":"Point","properties":{"Station_ID":"WBRM4","Station_Nam":"WEST BRANCH 3SE","Latitude":"44.25410","Longitude":"-84.20110","Snowdepth":"5.000","Units":"in","Rept_Date":"2021-01-11 13"},"coordinates":[3061,6535]},{"type":"Point","properties":{"Station_ID":"WAIV1","Station_Nam":"WAITSFIELD","Latitude":"44.17560","Longitude":"-72.79610","Snowdepth":"5.000","Units":"in","Rept_Date":"2021-01-11 12"},"coordinates":[5737,6498]},{"type":"Point","properties":{"Station_ID":"VT-WS-11","Station_Nam":"WAITSFIELD 1.8 SE, VT","Latitude":"44.17551","Longitude":"-72.79540","Snowdepth":"5.000","Units":"in","Rept_Date":"2021-01-11 12"},"coordinates":[5738,6498]},{"type":"Point","properties":{"Station_ID":"VT-WR-17","Station_Nam":"ROCHESTER 2.3 NE, VT","Latitude":"43.89418","Longitude":"-72.76992","Snowdepth":"5.000","Units":"in","Rept_Date":"2021-01-11 12"},"coordinates":[5744,6368]},{"type":"Point","properties":{"Station_ID":"VT-OL-9","Station_Nam":"GREENSBORO 2.1 NNW, VT","Latitude":"44.60528","Longitude":"-72.30940","Snowdepth":"5.000","Units":"in","Rept_Date":"2021-01-11 12"},"coordinates":[5852,6697]},{"type":"Point","properties":{"Station_ID":"VT-BN-12","Station_Nam":"STAMFORD 5.0 NNE, VT","Latitude":"42.82000","Longitude":"-73.02000","Snowdepth":"5.000","Units":"in","Rept_Date":"2021-01-11 21"},"coordinates":[5685,5870]},{"type":"Point","properties":{"Station_ID":"VRGV1","Station_Nam":"VERGENNES","Latitude":"44.17190","Longitude":"-73.24720","Snowdepth":"5.000","Units":"in","Rept_Date":"2021-01-11 10"},"coordinates":[5632,6496]},{"type":"Point","properties":{"Station_ID":"VQAW3","Station_Nam":"VIROQUA","Latitude":"43.55970","Longitude":"-90.87560","Snowdepth":"5.000","Units":"in","Rept_Date":"2021-01-11 13"},"coordinates":[1495,6213]},{"type":"Point","properties":{"Station_ID":"VNTI4","Station_Nam":"VINTON","Latitude":"42.17020","Longitude":"-92.00770","Snowdepth":"5.000","Units":"in","Rept_Date":"2021-01-11 13"},"coordinates":[1230,5568]},{"type":"Point","properties":{"Station_ID":"UVDV1","Station_Nam":"NERON SITE AT UNION VILLAGE DAM","Latitude":"43.79140","Longitude":"-72.25720","Snowdepth":"5.000","Units":"in","Rept_Date":"2021-01-11 12"},"coordinates":[5864,6320]},{"type":"Point","properties":{"Station_ID":"TX-MCL-58","Station_Nam":"HEWITT 0.8 W, TX","Latitude":"31.46420","Longitude":"-97.20810","Snowdepth":"5.000","Units":"in","Rept_Date":"2021-01-11 13"},"coordinates":[9,605]},{"type":"Point","properties":{"Station_ID":"TOPN6","Station_Nam":"TUPPER LAKE SUNMOUNT","Latitude":"44.23070","Longitude":"-74.43820","Snowdepth":"5.000","Units":"in","Rept_Date":"2021-01-11 12"},"coordinates":[5352,6524]},{"type":"Point","properties":{"Station_ID":"TMWN3","Station_Nam":"TAMWORTH 4","Latitude":"43.86390","Longitude":"-71.26610","Snowdepth":"5.000","Units":"in","Rept_Date":"2021-01-11 12"},"coordinates":[6096,6354]},{"type":"Point","properties":{"Station_ID":"TETM5","Station_Nam":"TETTEGOUCHE STATE PARK","Latitude":"47.33900","Longitude":"-91.19590","Snowdepth":"5.000","Units":"in","Rept_Date":"2021-01-11 14"},"coordinates":[1420,7965]},{"type":"Point","properties":{"Station_ID":"STMM4","Station_Nam":"STAMBAUGH 2SSE","Latitude":"46.05550","Longitude":"-88.62780","Snowdepth":"5.000","Units":"in","Rept_Date":"2021-01-11 13"},"coordinates":[2023,7370]},{"type":"Point","properties":{"Station_ID":"STGW3","Station_Nam":"ST GERMAIN","Latitude":"45.91550","Longitude":"-89.48940","Snowdepth":"5.000","Units":"in","Rept_Date":"2021-01-11 18"},"coordinates":[1821,7305]},{"type":"Point","properties":{"Station_ID":"SJBV1","Station_Nam":"SAINT JOHNSBURY","Latitude":"44.42000","Longitude":"-72.01940","Snowdepth":"5.000","Units":"in","Rept_Date":"2021-01-11 21"},"coordinates":[5920,6612]},{"type":"Point","properties":{"Station_ID":"RVFW3","Station_Nam":"RIVER FALLS","Latitude":"44.85440","Longitude":"-92.61220","Snowdepth":"5.000","Units":"in","Rept_Date":"2021-01-11 11"},"coordinates":[1088,6813]},{"type":"Point","properties":{"Station_ID":"ROWM3","Station_Nam":"ROWE 3NE","Latitude":"42.73500","Longitude":"-72.86920","Snowdepth":"5.000","Units":"in","Rept_Date":"2021-01-11 14"},"coordinates":[5720,5830]},{"type":"Point","properties":{"Station_ID":"ROCW3","Station_Nam":"ROCHESTER WWTP","Latitude":"42.72690","Longitude":"-88.22580","Snowdepth":"5.000","Units":"in","Rept_Date":"2021-01-11 11"},"coordinates":[2117,5827]},{"type":"Point","properties":{"Station_ID":"RARM4","Station_Nam":"RAPID RIVER 1 SW","Latitude":"45.91500","Longitude":"-86.98800","Snowdepth":"5.000","Units":"in","Rept_Date":"2021-01-11 12"},"coordinates":[2408,7305]},{"type":"Point","properties":{"Station_ID":"RADI4","Station_Nam":"TAILWATER","Latitude":"40.82280","Longitude":"-92.88940","Snowdepth":"5.000","Units":"in","Rept_Date":"2021-01-11 13"},"coordinates":[1023,4944]},{"type":"Point","properties":{"Station_ID":"QGA","Station_Nam":"QGA","Latitude":"47.25640","Longitude":"-73.73810","Snowdepth":"5.000","Units":"in","Rept_Date":"2021-01-11 12"},"coordinates":[5516,7926]},{"type":"Point","properties":{"Station_ID":"QCAI2","Station_Nam":"MOLINE SNOW","Latitude":"41.39990","Longitude":"-90.54800","Snowdepth":"5.000","Units":"in","Rept_Date":"2021-01-12 00"},"coordinates":[1572,5211]},{"type":"Point","properties":{"Station_ID":"PYRW3","Station_Nam":"PALMYRA WWTP","Latitude":"42.88720","Longitude":"-88.58310","Snowdepth":"5.000","Units":"in","Rept_Date":"2021-01-11 13"},"coordinates":[2033,5901]},{"type":"Point","properties":{"Station_ID":"PRNW3","Station_Nam":"PRENTICE,WI","Latitude":"45.54780","Longitude":"-90.30000","Snowdepth":"5.000","Units":"in","Rept_Date":"2021-01-11 14"},"coordinates":[1630,7134]},{"type":"Point","properties":{"Station_ID":"PLLW3","Station_Nam":"PELL LAKE","Latitude":"42.53220","Longitude":"-88.33280","Snowdepth":"5.000","Units":"in","Rept_Date":"2021-01-11 14"},"coordinates":[2092,5736]},{"type":"Point","properties":{"Station_ID":"PLFV1","Station_Nam":"PLAINFIELD","Latitude":"44.27610","Longitude":"-72.41500","Snowdepth":"5.000","Units":"in","Rept_Date":"2021-01-11 12"},"coordinates":[5827,6545]},{"type":"Point","properties":{"Station_ID":"PBAN8","Station_Nam":"SITE 1-3MI.N","Latitude":"48.97420","Longitude":"-97.23860","Snowdepth":"5.000","Units":"in","Rept_Date":"2021-01-11 13"},"coordinates":[2,8723]},{"type":"Point","properties":{"Station_ID":"OCOW3","Station_Nam":"OCONOMOWOC,WI","Latitude":"43.10190","Longitude":"-88.50330","Snowdepth":"5.000","Units":"in","Rept_Date":"2021-01-11 13"},"coordinates":[2052,6000]},{"type":"Point","properties":{"Station_ID":"NY-SL-6","Station_Nam":"HANNAWA FALLS 0.1 SW, NY","Latitude":"44.61154","Longitude":"-74.97190","Snowdepth":"5.000","Units":"in","Rept_Date":"2021-01-11 12"},"coordinates":[5227,6700]},{"type":"Point","properties":{"Station_ID":"NY-LW-12","Station_Nam":"CHASES LAKE COOP, NY","Latitude":"43.75924","Longitude":"-75.29982","Snowdepth":"5.000","Units":"in","Rept_Date":"2021-01-11 11"},"coordinates":[5150,6305]},{"type":"Point","properties":{"Station_ID":"NY-BM-14","Station_Nam":"WHITNEY POINT 1.7 SSE, NY","Latitude":"42.30837","Longitude":"-75.95690","Snowdepth":"5.000","Units":"in","Rept_Date":"2021-01-11 12"},"coordinates":[4996,5633]},{"type":"Point","properties":{"Station_ID":"NUMN3","Station_Nam":"NORTHUMBERLAND","Latitude":"44.52830","Longitude":"-71.50440","Snowdepth":"5.000","Units":"in","Rept_Date":"2021-01-11 13"},"coordinates":[6041,6662]},{"type":"Point","properties":{"Station_ID":"NUMM5","Station_Nam":"NEW ULM 3SE","Latitude":"44.29450","Longitude":"-94.40840","Snowdepth":"5.000","Units":"in","Rept_Date":"2021-01-11 12"},"coordinates":[666,6553]},{"type":"Point","properties":{"Station_ID":"NPTV1","Station_Nam":"NEWPORT","Latitude":"44.94900","Longitude":"-72.19120","Snowdepth":"5.000","Units":"in","Rept_Date":"2021-01-11 12"},"coordinates":[5879,6857]},{"type":"Point","properties":{"Station_ID":"NH-GR-49","Station_Nam":"PLYMOUTH 3.7 N, NH","Latitude":"43.79048","Longitude":"-71.68413","Snowdepth":"5.000","Units":"in","Rept_Date":"2021-01-11 12"},"coordinates":[5998,6320]},{"type":"Point","properties":{"Station_ID":"NH-CS-4","Station_Nam":"PITTSBURG 6.1 NE, NH","Latitude":"45.11060","Longitude":"-71.29760","Snowdepth":"5.000","Units":"in","Rept_Date":"2021-01-11 12"},"coordinates":[6089,6932]},{"type":"Point","properties":{"Station_ID":"ND-CS-45","Station_Nam":"FARGO 3.6 NNE, ND","Latitude":"46.92599","Longitude":"-96.79321","Snowdepth":"5.000","Units":"in","Rept_Date":"2021-01-11 13"},"coordinates":[107,7773]},{"type":"Point","properties":{"Station_ID":"NCON3","Station_Nam":"NORTH CONWAY","Latitude":"44.05620","Longitude":"-71.12970","Snowdepth":"5.000","Units":"in","Rept_Date":"2021-01-11 13"},"coordinates":[6128,6443]},{"type":"Point","properties":{"Station_ID":"MN-WG-16","Station_Nam":"WOODBURY 1.7 N, MN","Latitude":"44.93054","Longitude":"-92.92490","Snowdepth":"5.000","Units":"in","Rept_Date":"2021-01-11 13"},"coordinates":[1014,6848]},{"type":"Point","properties":{"Station_ID":"MN-SC-2","Station_Nam":"PRIOR LAKE 2.0 W, MN","Latitude":"44.71250","Longitude":"-93.46360","Snowdepth":"5.000","Units":"in","Rept_Date":"2021-01-11 13"},"coordinates":[888,6747]},{"type":"Point","properties":{"Station_ID":"MN-MR-13","Station_Nam":"LITTLE FALLS 8.0 NE, MN","Latitude":"46.06785","Longitude":"-94.24789","Snowdepth":"5.000","Units":"in","Rept_Date":"2021-01-11 13"},"coordinates":[704,7375]},{"type":"Point","properties":{"Station_ID":"MN-KB-17","Station_Nam":"MORA 2.5 S, MN","Latitude":"45.84100","Longitude":"-93.29700","Snowdepth":"5.000","Units":"in","Rept_Date":"2021-01-11 13"},"coordinates":[927,7270]},{"type":"Point","properties":{"Station_ID":"MN-HN-272","Station_Nam":"RICHFIELD 1.1 WSW, MN","Latitude":"44.87052","Longitude":"-93.30394","Snowdepth":"5.000","Units":"in","Rept_Date":"2021-01-11 13"},"coordinates":[926,6820]},{"type":"Point","properties":{"Station_ID":"MN-DK-53","Station_Nam":"LAKEVILLE 3.8 ENE, MN","Latitude":"44.70423","Longitude":"-93.18460","Snowdepth":"5.000","Units":"in","Rept_Date":"2021-01-11 13"},"coordinates":[954,6743]},{"type":"Point","properties":{"Station_ID":"MLI","Station_Nam":"QUAD CITY INTL","Latitude":"41.44860","Longitude":"-90.50750","Snowdepth":"5.000","Units":"in","Rept_Date":"2021-01-12 00"},"coordinates":[1582,5234]},{"type":"Point","properties":{"Station_ID":"MI-OT-16","Station_Nam":"GAYLORD 2.2 SSE, MI","Latitude":"44.99441","Longitude":"-84.65820","Snowdepth":"5.000","Units":"in","Rept_Date":"2021-01-11 12"},"coordinates":[2954,6878]},{"type":"Point","properties":{"Station_ID":"MI-NW-8","Station_Nam":"WHITE CLOUD 7.5 ENE, MI","Latitude":"43.60630","Longitude":"-85.64190","Snowdepth":"5.000","Units":"in","Rept_Date":"2021-01-11 12"},"coordinates":[2723,6234]},{"type":"Point","properties":{"Station_ID":"MI-MQ-19","Station_Nam":"ISHPEMING 7.2 SW, MI","Latitude":"46.40550","Longitude":"-87.75670","Snowdepth":"5.000","Units":"in","Rept_Date":"2021-01-11 11"},"coordinates":[2227,7532]},{"type":"Point","properties":{"Station_ID":"ME-SM-45","Station_Nam":"BRIGHTON PLANTATION 2.1 N, ME","Latitude":"45.07098","Longitude":"-69.69860","Snowdepth":"5.000","Units":"in","Rept_Date":"2021-01-11 12"},"coordinates":[6464,6913]},{"type":"Point","properties":{"Station_ID":"ME-SM-4","Station_Nam":"SOLON 3.9 ESE, ME","Latitude":"44.94705","Longitude":"-69.77790","Snowdepth":"5.000","Units":"in","Rept_Date":"2021-01-11 12"},"coordinates":[6446,6856]},{"type":"Point","properties":{"Station_ID":"ME-OX-2","Station_Nam":"HARTFORD 1.4 N, ME","Latitude":"44.39318","Longitude":"-70.34760","Snowdepth":"5.000","Units":"in","Rept_Date":"2021-01-11 12"},"coordinates":[6312,6599]},{"type":"Point","properties":{"Station_ID":"ME-KB-53","Station_Nam":"READFIELD 2.0 NNE, ME","Latitude":"44.41620","Longitude":"-69.95190","Snowdepth":"5.000","Units":"in","Rept_Date":"2021-01-11 12"},"coordinates":[6405,6610]},{"type":"Point","properties":{"Station_ID":"ME-FR-4","Station_Nam":"NEW SHARON 2.0 NW, ME","Latitude":"44.66582","Longitude":"-70.02720","Snowdepth":"5.000","Units":"in","Rept_Date":"2021-01-11 12"},"coordinates":[6387,6725]},{"type":"Point","properties":{"Station_ID":"ME-FR-2","Station_Nam":"TEMPLE 1.8 W, ME","Latitude":"44.68329","Longitude":"-70.26420","Snowdepth":"5.000","Units":"in","Rept_Date":"2021-01-11 12"},"coordinates":[6332,6734]},{"type":"Point","properties":{"Station_ID":"ME-AR-15","Station_Nam":"PRESQUE ISLE 1.3 WSW, ME","Latitude":"46.67960","Longitude":"-68.01270","Snowdepth":"5.000","Units":"in","Rept_Date":"2021-01-11 12"},"coordinates":[6860,7659]},{"type":"Point","properties":{"Station_ID":"MDDW3","Station_Nam":"MIDDLETON,WI","Latitude":"43.09060","Longitude":"-89.51470","Snowdepth":"5.000","Units":"in","Rept_Date":"2021-01-11 13"},"coordinates":[1815,5995]},{"type":"Point","properties":{"Station_ID":"MCTI4","Station_Nam":"MUSCATINE","Latitude":"41.40760","Longitude":"-91.07270","Snowdepth":"5.000","Units":"in","Rept_Date":"2021-01-11 13"},"coordinates":[1449,5215]},{"type":"Point","properties":{"Station_ID":"LVRM1","Station_Nam":"LIVERMORE FALLS 1 E","Latitude":"44.47160","Longitude":"-70.15940","Snowdepth":"5.000","Units":"in","Rept_Date":"2021-01-11 12"},"coordinates":[6356,6635]},{"type":"Point","properties":{"Station_ID":"LVDW3","Station_Nam":"LAC VIEUX DESERT","Latitude":"46.12110","Longitude":"-89.07580","Snowdepth":"5.000","Units":"in","Rept_Date":"2021-01-11 13"},"coordinates":[1918,7400]},{"type":"Point","properties":{"Station_ID":"LODW3","Station_Nam":"LODI","Latitude":"43.32170","Longitude":"-89.53110","Snowdepth":"5.000","Units":"in","Rept_Date":"2021-01-11 13"},"coordinates":[1811,6102]},{"type":"Point","properties":{"Station_ID":"LBRM5","Station_Nam":"LAKE BRONSON DAM","Latitude":"48.72410","Longitude":"-96.62180","Snowdepth":"5.000","Units":"in","Rept_Date":"2021-01-11 14"},"coordinates":[147,8607]},{"type":"Point","properties":{"Station_ID":"LA-JC-3","Station_Nam":"QUITMAN 2.5 E, LA","Latitude":"32.34415","Longitude":"-92.67937","Snowdepth":"5.000","Units":"in","Rept_Date":"2021-01-11 13"},"coordinates":[1072,1013]},{"type":"Point","properties":{"Station_ID":"KRFD","Station_Nam":"GREATER ROCKFORD AIRPORT","Latitude":"42.20000","Longitude":"-89.10000","Snowdepth":"5.000","Units":"in","Rept_Date":"2021-01-11 18"},"coordinates":[1912,5582]},{"type":"Point","properties":{"Station_ID":"KISM4","Station_Nam":"K.I. SAWYER WWTP","Latitude":"46.33410","Longitude":"-87.37790","Snowdepth":"5.000","Units":"in","Rept_Date":"2021-01-11 13"},"coordinates":[2316,7499]},{"type":"Point","properties":{"Station_ID":"KGTB","Station_Nam":"FORT DRUM / WHEELER-SACK U. S. ARMY AIRFIELD","Latitude":"44.05000","Longitude":"-75.73333","Snowdepth":"5.000","Units":"in","Rept_Date":"2021-01-12 06"},"coordinates":[5048,6440]},{"type":"Point","properties":{"Station_ID":"JKMM1","Station_Nam":"JACKMAN","Latitude":"45.62600","Longitude":"-70.24600","Snowdepth":"5.000","Units":"in","Rept_Date":"2021-01-11 12"},"coordinates":[6336,7171]},{"type":"Point","properties":{"Station_ID":"JFNW3","Station_Nam":"JEFFERSON - WWTP","Latitude":"42.99470","Longitude":"-88.80390","Snowdepth":"5.000","Units":"in","Rept_Date":"2021-01-11 13"},"coordinates":[1981,5951]},{"type":"Point","properties":{"Station_ID":"INDN6","Station_Nam":"INDIAN LAKE","Latitude":"43.75500","Longitude":"-74.27560","Snowdepth":"5.000","Units":"in","Rept_Date":"2021-01-11 13"},"coordinates":[5390,6303]},{"type":"Point","properties":{"Station_ID":"IL-MCH-13","Station_Nam":"BULL VALLEY 2.5 WNW, IL","Latitude":"42.32455","Longitude":"-88.39460","Snowdepth":"5.000","Units":"in","Rept_Date":"2021-01-11 14"},"coordinates":[2077,5640]},{"type":"Point","properties":{"Station_ID":"IL-LE-23","Station_Nam":"SUBLETTE 3.1 WNW, IL","Latitude":"41.65939","Longitude":"-89.28867","Snowdepth":"5.000","Units":"in","Rept_Date":"2021-01-11 13"},"coordinates":[1868,5332]},{"type":"Point","properties":{"Station_ID":"IL-HY-5","Station_Nam":"COAL VALLEY 1.9 SE, IL","Latitude":"41.43339","Longitude":"-90.41750","Snowdepth":"5.000","Units":"in","Rept_Date":"2021-01-11 13"},"coordinates":[1603,5227]},{"type":"Point","properties":{"Station_ID":"ICYI4","Station_Nam":"IOWA CITY","Latitude":"41.60930","Longitude":"-91.50510","Snowdepth":"5.000","Units":"in","Rept_Date":"2021-01-11 13"},"coordinates":[1348,5308]},{"type":"Point","properties":{"Station_ID":"IA-ST-48","Station_Nam":"BETTENDORF 1.6 W, IA","Latitude":"41.56502","Longitude":"-90.50767","Snowdepth":"5.000","Units":"in","Rept_Date":"2021-01-11 13"},"coordinates":[1582,5288]},{"type":"Point","properties":{"Station_ID":"IA-ST-30","Station_Nam":"ELDRIDGE 0.7 SSW, IA","Latitude":"41.64465","Longitude":"-90.58706","Snowdepth":"5.000","Units":"in","Rept_Date":"2021-01-11 14"},"coordinates":[1563,5325]},{"type":"Point","properties":{"Station_ID":"IA-JH-1","Station_Nam":"SOLON 0.3 ESE, IA","Latitude":"41.80398","Longitude":"-91.48910","Snowdepth":"5.000","Units":"in","Rept_Date":"2021-01-11 13"},"coordinates":[1351,5399]},{"type":"Point","properties":{"Station_ID":"IA-DV-2","Station_Nam":"MOULTON 3.6 ENE, IA","Latitude":"40.70487","Longitude":"-92.61551","Snowdepth":"5.000","Units":"in","Rept_Date":"2021-01-11 13"},"coordinates":[1087,4889]},{"type":"Point","properties":{"Station_ID":"HPN19_MADIS","Station_Nam":"GREENFIELD","Latitude":"45.20343","Longitude":"-93.69130","Snowdepth":"5.000","Units":"in","Rept_Date":"2021-01-12 00"},"coordinates":[835,6975]},{"type":"Point","properties":{"Station_ID":"GNFN7","Station_Nam":"GRANDFATHER MOUNTAIN MUSEUM","Latitude":"36.08950","Longitude":"-81.83560","Snowdepth":"5.000","Units":"in","Rept_Date":"2021-01-11 16"},"coordinates":[3616,2749]},{"type":"Point","properties":{"Station_ID":"GNEN6","Station_Nam":"GREENE","Latitude":"42.32440","Longitude":"-75.77170","Snowdepth":"5.000","Units":"in","Rept_Date":"2021-01-11 15"},"coordinates":[5039,5640]},{"type":"Point","properties":{"Station_ID":"GIBW3","Station_Nam":"GIBBSVILLE,WI","Latitude":"43.65670","Longitude":"-87.81170","Snowdepth":"5.000","Units":"in","Rept_Date":"2021-01-11 13"},