{"type":"Topology","objects":{"snowdepth_geo":{"type":"GeometryCollection","name":"snowdepth","crs":{"type":"name","properties":{"name":"urn:ogc:def:crs:OGC:1.3:CRS84"}},"geometries":[{"type":"Point","properties":{"Station_ID":"PRKM4","Station_Nam":"MUNISING EAST","Latitude":"46.42580","Longitude":"-86.62000","Snowdepth":"76.500","Units":"in","Rept_Date":"2020-12-10 06"},"coordinates":[2458,6710]},{"type":"Point","properties":{"Station_ID":"ME-YK-3","Station_Nam":"HOLLIS CENTER 5.4 NW, ME","Latitude":"43.64750","Longitude":"-70.67510","Snowdepth":"50.000","Units":"in","Rept_Date":"2020-12-09 12"},"coordinates":[6217,4986]},{"type":"Point","properties":{"Station_ID":"HTLN3","Station_Nam":"HERMIT LAKE SNOWPLOT","Latitude":"44.26130","Longitude":"-71.28330","Snowdepth":"16.000","Units":"in","Rept_Date":"2020-12-09 12"},"coordinates":[6074,5367]},{"type":"Point","properties":{"Station_ID":"CAN-NB-50","Station_Nam":"DOYLEVILLE 2.4 WNW, CAN","Latitude":"47.90803","Longitude":"-66.13279","Snowdepth":"15.400","Units":"in","Rept_Date":"2020-12-09 12"},"coordinates":[7288,7630]},{"type":"Point","properties":{"Station_ID":"NH-CS-10","Station_Nam":"RANDOLPH 1.4 NE, NH","Latitude":"44.38824","Longitude":"-71.26950","Snowdepth":"14.500","Units":"in","Rept_Date":"2020-12-09 12"},"coordinates":[6077,5446]},{"type":"Point","properties":{"Station_ID":"QOU","Station_Nam":"QOU","Latitude":"50.79250","Longitude":"-69.67470","Snowdepth":"14.016","Units":"in","Rept_Date":"2020-12-09 12"},"coordinates":[6453,9419]},{"type":"Point","properties":{"Station_ID":"RANM1","Station_Nam":"RANGELEY","Latitude":"44.98910","Longitude":"-70.67190","Snowdepth":"13.000","Units":"in","Rept_Date":"2020-12-09 11"},"coordinates":[6218,5819]},{"type":"Point","properties":{"Station_ID":"MLZ","Station_Nam":"MLZ","Latitude":"50.66170","Longitude":"-68.82360","Snowdepth":"11.535","Units":"in","Rept_Date":"2020-12-09 12"},"coordinates":[6654,9338]},{"type":"Point","properties":{"Station_ID":"QCO","Station_Nam":"QCO","Latitude":"51.45280","Longitude":"-72.20110","Snowdepth":"11.339","Units":"in","Rept_Date":"2020-12-09 12"},"coordinates":[5858,9829]},{"type":"Point","properties":{"Station_ID":"ME-SM-45","Station_Nam":"BRIGHTON PLANTATION 2.1 N, ME","Latitude":"45.07098","Longitude":"-69.69860","Snowdepth":"10.500","Units":"in","Rept_Date":"2020-12-09 12"},"coordinates":[6448,5869]},{"type":"Point","properties":{"Station_ID":"RGNM1","Station_Nam":"RANGELEY 2NW","Latitude":"44.98940","Longitude":"-70.67220","Snowdepth":"10.000","Units":"in","Rept_Date":"2020-12-09 11"},"coordinates":[6218,5819]},{"type":"Point","properties":{"Station_ID":"MWN","Station_Nam":"MOUNT WASHINGTON","Latitude":"44.26670","Longitude":"-71.30000","Snowdepth":"10.000","Units":"in","Rept_Date":"2020-12-09 12"},"coordinates":[6070,5370]},{"type":"Point","properties":{"Station_ID":"KMWN","Station_Nam":"MOUNT WASHINGTON","Latitude":"44.26666","Longitude":"-71.30000","Snowdepth":"10.000","Units":"in","Rept_Date":"2020-12-10 06"},"coordinates":[6070,5370]},{"type":"Point","properties":{"Station_ID":"ESGM1","Station_Nam":"EAST SANGERVILLE","Latitude":"45.13690","Longitude":"-69.28060","Snowdepth":"10.000","Units":"in","Rept_Date":"2020-12-09 12"},"coordinates":[6546,5910]},{"type":"Point","properties":{"Station_ID":"CARM1","Station_Nam":"CARIBOU WFO","Latitude":"46.86810","Longitude":"-68.01250","Snowdepth":"10.000","Units":"in","Rept_Date":"2020-12-09 12"},"coordinates":[6845,6984]},{"type":"Point","properties":{"Station_ID":"AVLV1","Station_Nam":"AVERILL","Latitude":"45.00570","Longitude":"-71.69030","Snowdepth":"10.000","Units":"in","Rept_Date":"2020-12-09 13"},"coordinates":[5978,5829]},{"type":"Point","properties":{"Station_ID":"TRIQ6","Station_Nam":"TRIO LAKE","Latitude":"49.22880","Longitude":"-87.22920","Snowdepth":"9.650","Units":"in","Rept_Date":"2020-12-10 06"},"coordinates":[2315,8449]},{"type":"Point","properties":{"Station_ID":"ME-AR-18","Station_Nam":"NEW SWEDEN 4.9 NNW, ME","Latitude":"47.01080","Longitude":"-68.14390","Snowdepth":"9.500","Units":"in","Rept_Date":"2020-12-09 12"},"coordinates":[6814,7073]},{"type":"Point","properties":{"Station_ID":"QGO","Station_Nam":"QGO","Latitude":"48.85500","Longitude":"-74.20640","Snowdepth":"8.976","Units":"in","Rept_Date":"2020-12-09 12"},"coordinates":[5385,8217]},{"type":"Point","properties":{"Station_ID":"QCX","Station_Nam":"QCX","Latitude":"51.32830","Longitude":"-70.08060","Snowdepth":"8.898","Units":"in","Rept_Date":"2020-12-09 12"},"coordinates":[6357,9752]},{"type":"Point","properties":{"Station_ID":"QMA","Station_Nam":"QMA","Latitude":"50.10330","Longitude":"-70.47190","Snowdepth":"8.858","Units":"in","Rept_Date":"2020-12-09 12"},"coordinates":[6265,8992]},{"type":"Point","properties":{"Station_ID":"QLB","Station_Nam":"QLB","Latitude":"50.72360","Longitude":"-75.10000","Snowdepth":"8.622","Units":"in","Rept_Date":"2020-12-09 12"},"coordinates":[5174,9377]},{"type":"Point","properties":{"Station_ID":"QTM","Station_Nam":"QTM","Latitude":"51.05780","Longitude":"-72.57190","Snowdepth":"8.228","Units":"in","Rept_Date":"2020-12-09 12"},"coordinates":[5770,9584]},{"type":"Point","properties":{"Station_ID":"NH-RC-48","Station_Nam":"NORTHWOOD 2.9 WSW, NH","Latitude":"43.20114","Longitude":"-71.25750","Snowdepth":"8.000","Units":"in","Rept_Date":"2020-12-09 12"},"coordinates":[6080,4709]},{"type":"Point","properties":{"Station_ID":"NH-HL-48","Station_Nam":"GREENVILLE 1.1 ENE, NH","Latitude":"42.77674","Longitude":"-71.77990","Snowdepth":"8.000","Units":"in","Rept_Date":"2020-12-09 13"},"coordinates":[5957,4446]},{"type":"Point","properties":{"Station_ID":"NH-CS-4","Station_Nam":"PITTSBURG 6.1 NE, NH","Latitude":"45.11060","Longitude":"-71.29760","Snowdepth":"8.000","Units":"in","Rept_Date":"2020-12-09 12"},"coordinates":[6071,5894]},{"type":"Point","properties":{"Station_ID":"NH-CS-19","Station_Nam":"CARROLL 4.6 NE, NH","Latitude":"44.33765","Longitude":"-71.46461","Snowdepth":"8.000","Units":"in","Rept_Date":"2020-12-09 12"},"coordinates":[6031,5414]},{"type":"Point","properties":{"Station_ID":"MTLT1","Station_Nam":"GATLINBURG,TN","Latitude":"35.65500","Longitude":"-83.44110","Snowdepth":"8.000","Units":"in","Rept_Date":"2020-12-09 13"},"coordinates":[3208,27]},{"type":"Point","properties":{"Station_ID":"ME-SM-4","Station_Nam":"SOLON 3.9 ESE, ME","Latitude":"44.94705","Longitude":"-69.77790","Snowdepth":"8.000","Units":"in","Rept_Date":"2020-12-09 12"},"coordinates":[6429,5793]},{"type":"Point","properties":{"Station_ID":"ME-AR-15","Station_Nam":"PRESQUE ISLE 1.3 WSW, ME","Latitude":"46.67960","Longitude":"-68.01270","Snowdepth":"8.000","Units":"in","Rept_Date":"2020-12-09 12"},"coordinates":[6845,6867]},{"type":"Point","properties":{"Station_ID":"CAN-ON-245","Station_Nam":"PHELPSTON 3.1 ESE, CAN","Latitude":"44.50564","Longitude":"-79.81035","Snowdepth":"8.000","Units":"in","Rept_Date":"2020-12-09 13"},"coordinates":[4064,5519]},{"type":"Point","properties":{"Station_ID":"BRAM1","Station_Nam":"BRASSUA DAM","Latitude":"45.66020","Longitude":"-69.81190","Snowdepth":"8.000","Units":"in","Rept_Date":"2020-12-09 12"},"coordinates":[6421,6235]},{"type":"Point","properties":{"Station_ID":"ABNM3","Station_Nam":"ASHBURNHAM NORTH","Latitude":"42.66170","Longitude":"-71.93590","Snowdepth":"8.000","Units":"in","Rept_Date":"2020-12-09 12"},"coordinates":[5920,4375]},{"type":"Point","properties":{"Station_ID":"QMD","Station_Nam":"QMD","Latitude":"49.29060","Longitude":"-75.84500","Snowdepth":"7.716","Units":"in","Rept_Date":"2020-12-09 12"},"coordinates":[4999,8487]},{"type":"Point","properties":{"Station_ID":"PTLQ6","Station_Nam":"PORTAGE LAKE","Latitude":"49.06950","Longitude":"-86.65940","Snowdepth":"7.240","Units":"in","Rept_Date":"2020-12-10 06"},"coordinates":[2449,8350]},{"type":"Point","properties":{"Station_ID":"QGD","Station_Nam":"QGD","Latitude":"51.11140","Longitude":"-67.13940","Snowdepth":"7.126","Units":"in","Rept_Date":"2020-12-09 12"},"coordinates":[7051,9617]},{"type":"Point","properties":{"Station_ID":"CAN-ON-452","Station_Nam":"CHATSWORTH 1.8 ENE - GSCA, CAN","Latitude":"44.46118","Longitude":"-80.87506","Snowdepth":"7.100","Units":"in","Rept_Date":"2020-12-09 12"},"coordinates":[3813,5491]},{"type":"Point","properties":{"Station_ID":"RKWM1","Station_Nam":"MOOSEHEAD LAKE","Latitude":"45.58330","Longitude":"-69.71670","Snowdepth":"7.000","Units":"in","Rept_Date":"2020-12-09 12"},"coordinates":[6443,6187]},{"type":"Point","properties":{"Station_ID":"NH-GR-56","Station_Nam":"EASTON 0.6 ESE, NH","Latitude":"44.14790","Longitude":"-71.78950","Snowdepth":"7.000","Units":"in","Rept_Date":"2020-12-09 13"},"coordinates":[5955,5297]},{"type":"Point","properties":{"Station_ID":"ME-OX-26","Station_Nam":"OXFORD 5.3 SW, ME","Latitude":"44.09787","Longitude":"-70.59612","Snowdepth":"7.000","Units":"in","Rept_Date":"2020-12-09 12"},"coordinates":[6236,5266]},{"type":"Point","properties":{"Station_ID":"ME-KB-53","Station_Nam":"READFIELD 2.0 NNE, ME","Latitude":"44.41620","Longitude":"-69.95190","Snowdepth":"7.000","Units":"in","Rept_Date":"2020-12-09 13"},"coordinates":[6388,5463]},{"type":"Point","properties":{"Station_ID":"GHMN3","Station_Nam":"PINKHAM NOTCH","Latitude":"44.25800","Longitude":"-71.25250","Snowdepth":"7.000","Units":"in","Rept_Date":"2020-12-09 10"},"coordinates":[6081,5365]},{"type":"Point","properties":{"Station_ID":"FISM1","Station_Nam":"FORT KENT COOP","Latitude":"47.23850","Longitude":"-68.61240","Snowdepth":"7.000","Units":"in","Rept_Date":"2020-12-09 12"},"coordinates":[6704,7214]},{"type":"Point","properties":{"Station_ID":"DVLQ6","Station_Nam":"DEVIOUS LAKE","Latitude":"49.19890","Longitude":"-87.76440","Snowdepth":"6.930","Units":"in","Rept_Date":"2020-12-10 06"},"coordinates":[2189,8431]},{"type":"Point","properties":{"Station_ID":"AUDQ6","Station_Nam":"AUDEN","Latitude":"48.52600","Longitude":"-82.57570","Snowdepth":"6.650","Units":"in","Rept_Date":"2020-12-10 06"},"coordinates":[3412,8013]},{"type":"Point","properties":{"Station_ID":"QFT","Station_Nam":"QFT","Latitude":"50.83280","Longitude":"-74.40390","Snowdepth":"6.614","Units":"in","Rept_Date":"2020-12-09 12"},"coordinates":[5338,9444]},{"type":"Point","properties":{"Station_ID":"MA-WR-89","Station_Nam":"HOLDEN 0.9 SSE, MA","Latitude":"42.33809","Longitude":"-71.85686","Snowdepth":"6.300","Units":"in","Rept_Date":"2020-12-09 12"},"coordinates":[5939,4174]},{"type":"Point","properties":{"Station_ID":"CAN-NL-82","Station_Nam":"GANDER 2.7 NW, CAN","Latitude":"48.97737","Longitude":"-54.63396","Snowdepth":"6.300","Units":"in","Rept_Date":"2020-12-09 10"},"coordinates":[9999,8293]},{"type":"Point","properties":{"Station_ID":"VANM1","Station_Nam":"VAN BUREN","Latitude":"47.16600","Longitude":"-67.93900","Snowdepth":"6.000","Units":"in","Rept_Date":"2020-12-09 13"},"coordinates":[6862,7169]},{"type":"Point","properties":{"Station_ID":"PTBN3","Station_Nam":"PITTSBURG RESERVOIR","Latitude":"45.04690","Longitude":"-71.38300","Snowdepth":"6.000","Units":"in","Rept_Date":"2020-12-09 12"},"coordinates":[6050,5854]},{"type":"Point","properties":{"Station_ID":"NH-CR-34","Station_Nam":"WAKEFIELD 6.0 NNW, NH","Latitude":"43.63917","Longitude":"-71.05210","Snowdepth":"6.000","Units":"in","Rept_Date":"2020-12-09 12"},"coordinates":[6128,4981]},{"type":"Point","properties":{"Station_ID":"MMNV1","Station_Nam":"MT. MANSFIELD","Latitude":"44.52480","Longitude":"-72.81540","Snowdepth":"6.000","Units":"in","Rept_Date":"2020-12-09 21"},"coordinates":[5713,5531]},{"type":"Point","properties":{"Station_ID":"ME-KB-6","Station_Nam":"WINSLOW 1.2 SSE, ME","Latitude":"44.53579","Longitude":"-69.60290","Snowdepth":"6.000","Units":"in","Rept_Date":"2020-12-09 12"},"coordinates":[6470,5537]},{"type":"Point","properties":{"Station_ID":"ME-CM-125","Station_Nam":"GRAY 2.9 SSE, ME","Latitude":"43.84640","Longitude":"-70.31340","Snowdepth":"6.000","Units":"in","Rept_Date":"2020-12-09 12"},"coordinates":[6303,5110]},{"type":"Point","properties":{"Station_ID":"HRTM1","Station_Nam":"HARTFORD","Latitude":"44.37440","Longitude":"-70.31620","Snowdepth":"6.000","Units":"in","Rept_Date":"2020-12-09 12"},"coordinates":[6302,5437]},{"type":"Point","properties":{"Station_ID":"CAN-ON-620","Station_Nam":"GOODERHAM 3.4 SSW, CAN","Latitude":"44.87690","Longitude":"-78.39265","Snowdepth":"6.000","Units":"in","Rept_Date":"2020-12-09 12"},"coordinates":[4398,5749]},{"type":"Point","properties":{"Station_ID":"ASBM3","Station_Nam":"ASHBURNHAM","Latitude":"42.61780","Longitude":"-71.91590","Snowdepth":"6.000","Units":"in","Rept_Date":"2020-12-09 12"},"coordinates":[5925,4347]},{"type":"Point","properties":{"Station_ID":"MFU","Station_Nam":"MFU","Latitude":"51.52170","Longitude":"-66.91110","Snowdepth":"5.709","Units":"in","Rept_Date":"2020-12-09 12"},"coordinates":[7105,9872]},{"type":"Point","properties":{"Station_ID":"FTHQ6","Station_Nam":"FORT HOPE","Latitude":"51.55820","Longitude":"-87.90510","Snowdepth":"5.630","Units":"in","Rept_Date":"2020-12-10 06"},"coordinates":[2155,9894]},{"type":"Point","properties":{"Station_ID":"QLM","Station_Nam":"QLM","Latitude":"48.92030","Longitude":"-70.25280","Snowdepth":"5.591","Units":"in","Rept_Date":"2020-12-09 12"},"coordinates":[6317,8258]},{"type":"Point","properties":{"Station_ID":"NH-BK-2","Station_Nam":"BELMONT 1.7 SW, NH","Latitude":"43.43556","Longitude":"-71.50690","Snowdepth":"5.500","Units":"in","Rept_Date":"2020-12-09 12"},"coordinates":[6021,4855]},{"type":"Point","properties":{"Station_ID":"ME-FR-22","Station_Nam":"FARMINGTON 4.8 NNW, ME","Latitude":"44.73396","Longitude":"-70.18007","Snowdepth":"5.500","Units":"in","Rept_Date":"2020-12-09 14"},"coordinates":[6334,5660]},{"type":"Point","properties":{"Station_ID":"MRL","Station_Nam":"MRL","Latitude":"51.28330","Longitude":"-68.84060","Snowdepth":"5.394","Units":"in","Rept_Date":"2020-12-09 12"},"coordinates":[6650,9724]},{"type":"Point","properties":{"Station_ID":"OGIQ6","Station_Nam":"OGOKI CAMP","Latitude":"50.76680","Longitude":"-87.85820","Snowdepth":"5.310","Units":"in","Rept_Date":"2020-12-10 06"},"coordinates":[2166,9403]},{"type":"Point","properties":{"Station_ID":"QTV","Station_Nam":"QTV","Latitude":"49.66000","Longitude":"-69.35690","Snowdepth":"5.079","Units":"in","Rept_Date":"2020-12-09 12"},"coordinates":[6528,8717]},{"type":"Point","properties":{"Station_ID":"NWSM1","Station_Nam":"NEW SHARON","Latitude":"44.63520","Longitude":"-70.00020","Snowdepth":"5.000","Units":"in","Rept_Date":"2020-12-09 12"},"coordinates":[6376,5599]},{"type":"Point","properties":{"Station_ID":"NH-CR-16","Station_Nam":"WOLFEBORO 0.6 SW, NH","Latitude":"43.58464","Longitude":"-71.21760","Snowdepth":"5.000","Units":"in","Rept_Date":"2020-12-09 12"},"coordinates":[6089,4947]},{"type":"Point","properties":{"Station_ID":"MWTM1","Station_Nam":"MILLINOCKET WWTP","Latitude":"45.64030","Longitude":"-68.67480","Snowdepth":"5.000","Units":"in","Rept_Date":"2020-12-09 11"},"coordinates":[6689,6223]},{"type":"Point","properties":{"Station_ID":"MA-WR-75","Station_Nam":"WARREN 2.4 WSW, MA","Latitude":"42.20400","Longitude":"-72.23540","Snowdepth":"5.000","Units":"in","Rept_Date":"2020-12-09 12"},"coordinates":[5849,4091]},{"type":"Point","properties":{"Station_ID":"JEFN3","Station_Nam":"JEFFERSON","Latitude":"44.41690","Longitude":"-71.50080","Snowdepth":"5.000","Units":"in","Rept_Date":"2020-12-09 12"},"coordinates":[6023,5464]},{"type":"Point","properties":{"Station_ID":"JAPN3","Station_Nam":"JAFFREY SILVER RANCH AIRPARK","Latitude":"42.80880","Longitude":"-72.00530","Snowdepth":"5.000","Units":"in","Rept_Date":"2020-12-09 12"},"coordinates":[5904,4466]},{"type":"Point","properties":{"Station_ID":"HOLM1","Station_Nam":"HOLLIS","Latitude":"43.64750","Longitude":"-70.67490","Snowdepth":"5.000","Units":"in","Rept_Date":"2020-12-09 12"},"coordinates":[6217,4986]},{"type":"Point","properties":{"Station_ID":"DFXM1","Station_Nam":"DOVER-FOXCROFT","Latitude":"45.18720","Longitude":"-69.18350","Snowdepth":"5.000","Units":"in","Rept_Date":"2020-12-09 12"},"coordinates":[6569,5942]},{"type":"Point","properties":{"Station_ID":"CHRO1","Station_Nam":"CHARDON,OH","Latitude":"41.58330","Longitude":"-81.18330","Snowdepth":"5.000","Units":"in","Rept_Date":"2020-12-09 13"},"coordinates":[3740,3706]},{"type":"Point","properties":{"Station_ID":"CAN-ON-5","Station_Nam":"OWEN SOUND 1.5 NW - GSCA, CAN","Latitude":"44.57837","Longitude":"-80.95461","Snowdepth":"5.000","Units":"in","Rept_Date":"2020-12-09 13"},"coordinates":[3794,5564]},{"type":"Point","properties":{"Station_ID":"BRLN3","Station_Nam":"BERLIN","Latitude":"44.45350","Longitude":"-71.18540","Snowdepth":"5.000","Units":"in","Rept_Date":"2020-12-09 12"},"coordinates":[6097,5486]},{"type":"Point","properties":{"Station_ID":"SOCQ6","Station_Nam":"SOCKET LAKE","Latitude":"50.77870","Longitude":"-91.79300","Snowdepth":"4.920","Units":"in","Rept_Date":"2020-12-10 06"},"coordinates":[1239,9411]},{"type":"Point","properties":{"Station_ID":"MA-WR-88","Station_Nam":"LEICESTER 2.5 WSW, MA","Latitude":"42.23742","Longitude":"-71.94612","Snowdepth":"4.900","Units":"in","Rept_Date":"2020-12-09 11"},"coordinates":[5918,4111]},{"type":"Point","properties":{"Station_ID":"KABQ6","Station_Nam":"CAB LAKE","Latitude":"49.59950","Longitude":"-89.17990","Snowdepth":"4.840","Units":"in","Rept_Date":"2020-12-10 06"},"coordinates":[1855,8679]},{"type":"Point","properties":{"Station_ID":"QWG","Station_Nam":"QWG","Latitude":"48.48890","Longitude":"-73.45940","Snowdepth":"4.764","Units":"in","Rept_Date":"2020-12-09 12"},"coordinates":[5561,7990]},{"type":"Point","properties":{"Station_ID":"VT-WS-23","Station_Nam":"CABOT 2.3 E, VT","Latitude":"44.39807","Longitude":"-72.26570","Snowdepth":"4.500","Units":"in","Rept_Date":"2020-12-09 12"},"coordinates":[5842,5452]},{"type":"Point","properties":{"Station_ID":"ME-AN-32","Station_Nam":"WINTHROP 9.4 W, ME","Latitude":"44.30476","Longitude":"-70.15835","Snowdepth":"4.500","Units":"in","Rept_Date":"2020-12-09 12"},"coordinates":[6339,5394]},{"type":"Point","properties":{"Station_ID":"MA-WR-56","Station_Nam":"STERLING 4.3 NW, MA","Latitude":"42.47540","Longitude":"-71.81140","Snowdepth":"4.500","Units":"in","Rept_Date":"2020-12-09 12"},"coordinates":[5949,4259]},{"type":"Point","properties":{"Station_ID":"MA-WR-54","Station_Nam":"BARRE 1.4 NNE, MA","Latitude":"42.44082","Longitude":"-72.09591","Snowdepth":"4.500","Units":"in","Rept_Date":"2020-12-09 12"},"coordinates":[5882,4238]},{"type":"Point","properties":{"Station_ID":"CAN-ON-118","Station_Nam":"DURHAM 1.4 S, CAN","Latitude":"44.16525","Longitude":"-80.82064","Snowdepth":"4.500","Units":"in","Rept_Date":"2020-12-09 12"},"coordinates":[3825,5307]},{"type":"Point","properties":{"Station_ID":"CAN-NL-81","Station_Nam":"GRAND FALLS-WINDSOR 1.2 S, CAN","Latitude":"48.93123","Longitude":"-55.65333","Snowdepth":"4.500","Units":"in","Rept_Date":"2020-12-09 10"},"coordinates":[9759,8264]},{"type":"Point","properties":{"Station_ID":"CATQ6","Station_Nam":"CAT LAKE","Latitude":"51.72690","Longitude":"-91.82210","Snowdepth":"4.410","Units":"in","Rept_Date":"2020-12-10 06"},"coordinates":[1232,9999]},{"type":"Point","properties":{"Station_ID":"QLI","Station_Nam":"QLI","Latitude":"50.27080","Longitude":"-73.92280","Snowdepth":"4.213","Units":"in","Rept_Date":"2020-12-09 12"},"coordinates":[5452,9096]},{"type":"Point","properties":{"Station_ID":"ME-CM-54","Station_Nam":"WINDHAM 3.9 NW, ME","Latitude":"43.85787","Longitude":"-70.46200","Snowdepth":"4.200","Units":"in","Rept_Date":"2020-12-09 12"},"coordinates":[6268,5117]},{"type":"Point","properties":{"Station_ID":"MI-BG-3","Station_Nam":"THREE LAKES, MI","Latitude":"46.55730","Longitude":"-88.20770","Snowdepth":"4.100","Units":"in","Rept_Date":"2020-12-09 13"},"coordinates":[2084,6792]},{"type":"Point","properties":{"Station_ID":"SVBQ6","Station_Nam":"SAVANT BASE","Latitude":"50.28730","Longitude":"-90.65670","Snowdepth":"4.020","Units":"in","Rept_Date":"2020-12-10 06"},"coordinates":[1507,9106]},{"type":"Point","properties":{"Station_ID":"WTHM1","Station_Nam":"WINTHROP","Latitude":"44.30650","Longitude":"-69.97010","Snowdepth":"4.000","Units":"in","Rept_Date":"2020-12-09 13"},"coordinates":[6384,5395]},{"type":"Point","properties":{"Station_ID":"WNDM1","Station_Nam":"WINDHAM 2NW","Latitude":"43.85670","Longitude":"-70.46630","Snowdepth":"4.000","Units":"in","Rept_Date":"2020-12-09 12"},"coordinates":[6267,5116]},{"type":"Point","properties":{"Station_ID":"WLFM5","Station_Nam":"WOLF RIDGE ENVIRON LEARNING CENTER","Latitude":"47.38240","Longitude":"-91.19730","Snowdepth":"4.000","Units":"in","Rept_Date":"2020-12-09 13"},"coordinates":[1379,7304]},{"type":"Point","properties":{"Station_ID":"VT-OL-9","Station_Nam":"GREENSBORO 2.1 NNW, VT","Latitude":"44.60528","Longitude":"-72.30940","Snowdepth":"4.000","Units":"in","Rept_Date":"2020-12-09 13"},"coordinates":[5832,5580]},{"type":"Point","properties":{"Station_ID":"VT-OL-24","Station_Nam":"DERBY LINE 1.9 W, VT","Latitude":"45.00454","Longitude":"-72.14170","Snowdepth":"4.000","Units":"in","Rept_Date":"2020-12-09 12"},"coordinates":[5872,5828]},{"type":"Point","properties":{"Station_ID":"VT-OL-2","Station_Nam":"BARTON 3.0 ENE, VT","Latitude":"44.75863","Longitude":"-72.11680","Snowdepth":"4.000","Units":"in","Rept_Date":"2020-12-09 12"},"coordinates":[5877,5676]},{"type":"Point","properties":{"Station_ID":"VT-OL-12","Station_Nam":"GREENSBORO 3.9 NNE, VT","Latitude":"44.63100","Longitude":"-72.28000","Snowdepth":"4.000","Units":"in","Rept_Date":"2020-12-09 13"},"coordinates":[5839,5596]},{"type":"Point","properties":{"Station_ID":"VT-BN-12","Station_Nam":"STAMFORD 5.0 NNE, VT","Latitude":"42.82000","Longitude":"-73.02000","Snowdepth":"4.000","Units":"in","Rept_Date":"2020-12-09 21"},"coordinates":[5664,4473]},{"type":"Point","properties":{"Station_ID":"TURM1","Station_Nam":"TURNER","Latitude":"44.28220","Longitude":"-70.25610","Snowdepth":"4.000","Units":"in","Rept_Date":"2020-12-09 12"},"coordinates":[6316,5380]},{"type":"Point","properties":{"Station_ID":"TOPM1","Station_Nam":"TOPSFIELD","Latitude":"45.43470","Longitude":"-67.72020","Snowdepth":"4.000","Units":"in","Rept_Date":"2020-12-09 12"},"coordinates":[6914,6095]},{"type":"Point","properties":{"Station_ID":"STRC3","Station_Nam":"STORRS","Latitude":"41.79510","Longitude":"-72.22850","Snowdepth":"4.000","Units":"in","Rept_Date":"2020-12-09 13"},"coordinates":[5851,3837]},{"type":"Point","properties":{"Station_ID":"SFVC3","Station_Nam":"STAFFORDVILLE","Latitude":"41.99840","Longitude":"-72.26060","Snowdepth":"4.000","Units":"in","Rept_Date":"2020-12-09 10"},"coordinates":[5844,3963]},{"type":"Point","properties":{"Station_ID":"NUMN3","Station_Nam":"NORTHUMBERLAND","Latitude":"44.52830","Longitude":"-71.50440","Snowdepth":"4.000","Units":"in","Rept_Date":"2020-12-09 12"},"coordinates":[6022,5533]},{"type":"Point","properties":{"Station_ID":"NH-MR-4","Station_Nam":"BOW 1.6 NW, NH","Latitude":"43.14994","Longitude":"-71.55650","Snowdepth":"4.000","Units":"in","Rept_Date":"2020-12-09 13"},"coordinates":[6010,4678]},{"type":"Point","properties":{"Station_ID":"MHT","Station_Nam":"MANCHESTER AIRPORT GRENIER INDSTRL ARPK","Latitude":"42.93440","Longitude":"-71.43690","Snowdepth":"4.000","Units":"in","Rept_Date":"2020-12-09 12"},"coordinates":[6038,4544]},{"type":"Point","properties":{"Station_ID":"ME-PN-48","Station_Nam":"LOWELL 0.1 SW, ME","Latitude":"45.21149","Longitude":"-68.47496","Snowdepth":"4.000","Units":"in","Rept_Date":"2020-12-09 12"},"coordinates":[6736,5957]},{"type":"Point","properties":{"Station_ID":"ME-FR-4","Station_Nam":"NEW SHARON 2.0 NW, ME","Latitude":"44.66582","Longitude":"-70.02720","Snowdepth":"4.000","Units":"in","Rept_Date":"2020-12-09 12"},"coordinates":[6370,5618]},{"type":"Point","properties":{"Station_ID":"ME-CM-137","Station_Nam":"GRAY 1.5 NE, ME","Latitude":"43.90034","Longitude":"-70.30883","Snowdepth":"4.000","Units":"in","Rept_Date":"2020-12-09 12"},"coordinates":[6304,5143]},{"type":"Point","properties":{"Station_ID":"ME-AN-43","Station_Nam":"LISBON 0.6 S, ME","Latitude":"44.02320","Longitude":"-70.10550","Snowdepth":"4.000","Units":"in","Rept_Date":"2020-12-09 12"},"coordinates":[6352,5219]},{"type":"Point","properties":{"Station_ID":"LNKM1","Station_Nam":"LINCOLN SANITARY DISTRICT/WTP","Latitude":"45.37520","Longitude":"-68.50820","Snowdepth":"4.000","Units":"in","Rept_Date":"2020-12-09 12"},"coordinates":[6728,6058]},{"type":"Point","properties":{"Station_ID":"LILM1","Station_Nam":"LILLE","Latitude":"47.27770","Longitude":"-68.10520","Snowdepth":"4.000","Units":"in","Rept_Date":"2020-12-09 12"},"coordinates":[6823,7239]},{"type":"Point","properties":{"Station_ID":"LBKV1","Station_Nam":"LYE BROOK","Latitude":"43.05000","Longitude":"-73.03330","Snowdepth":"4.000","Units":"in","Rept_Date":"2020-12-10 06"},"coordinates":[5661,4616]},{"type":"Point","properties":{"Station_ID":"KMHT","Station_Nam":"MANCHESTER AIRPORT","Latitude":"42.93333","Longitude":"-71.43333","Snowdepth":"4.000","Units":"in","Rept_Date":"2020-12-10 06"},"coordinates":[6039,4543]},{"type":"Point","properties":{"Station_ID":"KINM1","Station_Nam":"KINGFIELD","Latitude":"44.95950","Longitude":"-70.17530","Snowdepth":"4.000","Units":"in","Rept_Date":"2020-12-09 13"},"coordinates":[6335,5800]},{"type":"Point","properties":{"Station_ID":"JKMM1","Station_Nam":"JACKMAN","Latitude":"45.62600","Longitude":"-70.24600","Snowdepth":"4.000","Units":"in","Rept_Date":"2020-12-09 12"},"coordinates":[6318,6214]},{"type":"Point","properties":{"Station_ID":"HUDN3","Station_Nam":"HUDSON 1 SSE","Latitude":"42.78300","Longitude":"-71.41480","Snowdepth":"4.000","Units":"in","Rept_Date":"2020-12-09 12"},"coordinates":[6043,4450]},{"type":"Point","properties":{"Station_ID":"HUBN3","Station_Nam":"HUBBARD BROOK","Latitude":"43.93330","Longitude":"-71.71670","Snowdepth":"4.000","Units":"in","Rept_Date":"2020-12-10 06"},"coordinates":[5972,5164]},{"type":"Point","properties":{"Station_ID":"HGHN6","Station_Nam":"HIGHMARKET","Latitude":"43.60510","Longitude":"-75.55430","Snowdepth":"4.000","Units":"in","Rept_Date":"2020-12-09 11"},"coordinates":[5067,4960]},{"type":"Point","properties":{"Station_ID":"GYX","Station_Nam":"PORTLAND, ME","Latitude":"43.89250","Longitude":"-70.25500","Snowdepth":"4.000","Units":"in","Rept_Date":"2020-12-09 12"},"coordinates":[6316,5138]},{"type":"Point","properties":{"Station_ID":"FCHM3","Station_Nam":"FITCHBURG COOP","Latitude":"42.61680","Longitude":"-71.80170","Snowdepth":"4.000","Units":"in","Rept_Date":"2020-12-09 13"},"coordinates":[5952,4347]},{"type":"Point","properties":{"Station_ID":"FARM1","Station_Nam":"FARMINGTON","Latitude":"44.68930","Longitude":"-70.15640","Snowdepth":"4.000","Units":"in","Rept_Date":"2020-12-09 12"},"coordinates":[6340,5633]},{"type":"Point","properties":{"Station_ID":"EHYM3","Station_Nam":"EAST HAWLEY","Latitude":"42.57410","Longitude":"-72.86790","Snowdepth":"4.000","Units":"in","Rept_Date":"2020-12-09 13"},"coordinates":[5700,4320]},{"type":"Point","properties":{"Station_ID":"EBRM3","Station_Nam":"EAST BRIMFIELD LAKE","Latitude":"42.11030","Longitude":"-72.12690","Snowdepth":"4.000","Units":"in","Rept_Date":"2020-12-09 12"},"coordinates":[5875,4033]},{"type":"Point","properties":{"Station_ID":"DURM1","Station_Nam":"DURHAM","Latitude":"43.99960","Longitude":"-70.09630","Snowdepth":"4.000","Units":"in","Rept_Date":"2020-12-09 12"},"coordinates":[6354,5205]},{"type":"Point","properties":{"Station_ID":"DHMM1","Station_Nam":"DEDHAM","Latitude":"44.67880","Longitude":"-68.63560","Snowdepth":"4.000","Units":"in","Rept_Date":"2020-12-09 12"},"coordinates":[6698,5626]},{"type":"Point","properties":{"Station_ID":"CT-TL-2","Station_Nam":"STAFFORDVILLE 0.4 NNW, CT","Latitude":"41.99874","Longitude":"-72.26100","Snowdepth":"4.000","Units":"in","Rept_Date":"2020-12-09 10"},"coordinates":[5843,3963]},{"type":"Point","properties":{"Station_ID":"CORM1","Station_Nam":"CORINNA","Latitude":"44.91980","Longitude":"-69.24180","Snowdepth":"4.000","Units":"in","Rept_Date":"2020-12-09 15"},"coordinates":[6555,5776]},{"type":"Point","properties":{"Station_ID":"CAN-NB-13","Station_Nam":"BATHURST 3.8 NW, CAN","Latitude":"47.64212","Longitude":"-65.68756","Snowdepth":"4.000","Units":"in","Rept_Date":"2020-12-09 11"},"coordinates":[7393,7465]},{"type":"Point","properties":{"Station_ID":"BETM1","Station_Nam":"BETHEL 6 SSE","Latitude":"44.32000","Longitude":"-70.75680","Snowdepth":"4.000","Units":"in","Rept_Date":"2020-12-09 12"},"coordinates":[6198,5404]},{"type":"Point","properties":{"Station_ID":"BENN6","Station_Nam":"BENNETTS BRIDGE","Latitude":"43.53180","Longitude":"-75.95260","Snowdepth":"4.000","Units":"in","Rept_Date":"2020-12-09 12"},"coordinates":[4973,4914]},{"type":"Point","properties":{"Station_ID":"BARM3","Station_Nam":"BARRE FALLS DAM","Latitude":"42.42800","Longitude":"-72.02750","Snowdepth":"4.000","Units":"in","Rept_Date":"2020-12-09 12"},"coordinates":[5898,4230]},{"type":"Point","properties":{"Station_ID":"OH-CY-58","Station_Nam":"SOUTH EUCLID 0.2 ESE, OH","Latitude":"41.52358","Longitude":"-81.52191","Snowdepth":"3.900","Units":"in","Rept_Date":"2020-12-09 13"},"coordinates":[3660,3669]},{"type":"Point","properties":{"Station_ID":"CAN-ON-829","Station_Nam":"THORNBURY 0.8 WSW - GSCA, CAN","Latitude":"44.55716","Longitude":"-80.46427","Snowdepth":"3.900","Units":"in","Rept_Date":"2020-12-09 13"},"coordinates":[3910,5551]},{"type":"Point","properties":{"Station_ID":"QWE","Station_Nam":"QWE","Latitude":"47.84610","Longitude":"-73.80670","Snowdepth":"3.740","Units":"in","Rept_Date":"2020-12-09 12"},"coordinates":[5479,7591]},{"type":"Point","properties":{"Station_ID":"NH-RC-79","Station_Nam":"NOTTINGHAM 1.2 S, NH","Latitude":"43.09778","Longitude":"-71.10256","Snowdepth":"3.500","Units":"in","Rept_Date":"2020-12-09 13"},"coordinates":[6117,4645]},{"type":"Point","properties":{"Station_ID":"NH-RC-18","Station_Nam":"DEERFIELD 3.2 WSW, NH","Latitude":"43.13350","Longitude":"-71.27940","Snowdepth":"3.500","Units":"in","Rept_Date":"2020-12-09 12"},"coordinates":[6075,4667]},{"type":"Point","properties":{"Station_ID":"NH-MR-41","Station_Nam":"NEWBURY 1.6 NW, NH","Latitude":"43.33667","Longitude":"-72.06060","Snowdepth":"3.500","Units":"in","Rept_Date":"2020-12-09 12"},"coordinates":[5891,4793]},{"type":"Point","properties":{"Station_ID":"NH-MR-25","Station_Nam":"CHICHESTER 2.7 SSW, NH","Latitude":"43.21150","Longitude":"-71.41430","Snowdepth":"3.500","Units":"in","Rept_Date":"2020-12-09 12"},"coordinates":[6043,4716]},{"type":"Point","properties":{"Station_ID":"MN-CN-36","Station_Nam":"CLOQUET 3.4 ENE, MN","Latitude":"46.74146","Longitude":"-92.42698","Snowdepth":"3.500","Units":"in","Rept_Date":"2020-12-09 13"},"coordinates":[1089,6906]},{"type":"Point","properties":{"Station_ID":"ME-AN-41","Station_Nam":"AUBURN 2.1 NNW, ME","Latitude":"44.11275","Longitude":"-70.26452","Snowdepth":"3.500","Units":"in","Rept_Date":"2020-12-09 12"},"coordinates":[6314,5275]},{"type":"Point","properties":{"Station_ID":"MA-WR-8","Station_Nam":"FITCHBURG 1.6 SSW, MA","Latitude":"42.56674","Longitude":"-71.82170","Snowdepth":"3.500","Units":"in","Rept_Date":"2020-12-09 11"},"coordinates":[5947,4316]},{"type":"Point","properties":{"Station_ID":"CT-TL-33","Station_Nam":"TOLLAND 3.6 NNE, CT","Latitude":"41.91859","Longitude":"-72.33910","Snowdepth":"3.500","Units":"in","Rept_Date":"2020-12-09 12"},"coordinates":[5825,3914]},{"type":"Point","properties":{"Station_ID":"CAN-QC-47","Station_Nam":"SAINTE-FOY 1.8 ENE, CAN","Latitude":"46.76934","Longitude":"-71.27124","Snowdepth":"3.500","Units":"in","Rept_Date":"2020-12-09 12"},"coordinates":[6077,6923]},{"type":"Point","properties":{"Station_ID":"CAN-ON-804","Station_Nam":"KEMBLE 1.6 S - GSCA, CAN","Latitude":"44.71013","Longitude":"-80.92735","Snowdepth":"3.500","Units":"in","Rept_Date":"2020-12-09 13"},"coordinates":[3800,5646]},{"type":"Point","properties":{"Station_ID":"CAN-ON-27","Station_Nam":"OSHAWA 1.4 WSW, CAN","Latitude":"43.89770","Longitude":"-78.87440","Snowdepth":"3.500","Units":"in","Rept_Date":"2020-12-09 13"},"coordinates":[4284,5141]},{"type":"Point","properties":{"Station_ID":"CAN-MB-32","Station_Nam":"PINAWA 1.0 SW, CA","Latitude":"50.14747","Longitude":"-95.89020","Snowdepth":"3.500","Units":"in","Rept_Date":"2020-12-09 13"},"coordinates":[273,9019]},{"type":"Point","properties":{"Station_ID":"QLP","Station_Nam":"QLP","Latitude":"48.13920","Longitude":"-72.63830","Snowdepth":"3.110","Units":"in","Rept_Date":"2020-12-09 12"},"coordinates":[5754,7773]},{"type":"Point","properties":{"Station_ID":"MA-MD-104","Station_Nam":"LITTLETON 2.8 NNW, MA","Latitude":"42.57170","Longitude":"-71.49910","Snowdepth":"3.100","Units":"in","Rept_Date":"2020-12-09 12"},"coordinates":[6023,4319]},{"type":"Point","properties":{"Station_ID":"CAN-MB-368","Station_Nam":"WHITESHELL 1.3 NE, CAN","Latitude":"49.74405","Longitude":"-95.19123","Snowdepth":"3.100","Units":"in","Rept_Date":"2020-12-09 14"},"coordinates":[438,8769]},{"type":"Point","properties":{"Station_ID":"ZBWN3","Station_Nam":"NASHUA CWSU","Latitude":"42.73440","Longitude":"-71.48030","Snowdepth":"3.000","Units":"in","Rept_Date":"2020-12-09 13"},"coordinates":[6027,4420]},{"type":"Point","properties":{"Station_ID":"WOLN3","Station_Nam":"WOLFEBORO","Latitude":"43.59020","Longitude":"-71.20190","Snowdepth":"3.000","Units":"in","Rept_Date":"2020-12-09 12"},"coordinates":[6093,4951]},{"type":"Point","properties":{"Station_ID":"VT-WR-17","Station_Nam":"ROCHESTER 2.3 NE, VT","Latitude":"43.89418","Longitude":"-72.76992","Snowdepth":"3.000","Units":"in","Rept_Date":"2020-12-09 12"},"coordinates":[5723,5139]},{"type":"Point","properties":{"Station_ID":"VT-WH-30","Station_Nam":"MARLBORO 2.0 NNE, VT","Latitude":"42.88484","Longitude":"-72.70935","Snowdepth":"3.000","Units":"in","Rept_Date":"2020-12-09 13"},"coordinates":[5738,4513]},{"type":"Point","properties":{"Station_ID":"VT-OL-1","Station_Nam":"WESTFIELD 0.7 WNW, VT","Latitude":"44.89160","Longitude":"-72.44350","Snowdepth":"3.000","Units":"in","Rept_Date":"2020-12-09 12"},"coordinates":[5800,5758]},{"type":"Point","properties":{"Station_ID":"SUTV1","Station_Nam":"SUTTON","Latitude":"44.61220","Longitude":"-72.04810","Snowdepth":"3.000","Units":"in","Rept_Date":"2020-12-09 13"},"coordinates":[5894,5585]},{"type":"Point","properties":{"Station_ID":"RFDM1","Station_Nam":"RUMFORD 7SW","Latitude":"44.49470","Longitude":"-70.65640","Snowdepth":"3.000","Units":"in","Rept_Date":"2020-12-09 13"},"coordinates":[6222,5512]},{"type":"Point","properties":{"Station_ID":"RDFN6","Station_Nam":"REDFIELD 8N","Latitude":"43.64130","Longitude":"-75.88400","Snowdepth":"3.000","Units":"in","Rept_Date":"2020-12-09 12"},"coordinates":[4989,4982]},{"type":"Point","properties":{"Station_ID":"PDLM4","Station_Nam":"PAINESDALE","Latitude":"47.04160","Longitude":"-88.67170","Snowdepth":"3.000","Units":"in","Rept_Date":"2020-12-09 13"},"coordinates":[1975,7092]},{"type":"Point","properties":{"Station_ID":"OH-CY-54","Station_Nam":"SEVEN HILLS 0.6 NNE, OH","Latitude":"41.38811","Longitude":"-81.67098","Snowdepth":"3.000","Units":"in","Rept_Date":"2020-12-09 12"},"coordinates":[3625,3584]},{"type":"Point","properties":{"Station_ID":"OH-CY-42","Station_Nam":"STRONGSVILLE 1.3 SE, OH","Latitude":"41.29815","Longitude":"-81.81507","Snowdepth":"3.000","Units":"in","Rept_Date":"2020-12-09 13"},"coordinates":[3591,3529]},{"type":"Point","properties":{"Station_ID":"OCON6","Station_Nam":"OSCEOLA","Latitude":"43.50370","Longitude":"-75.72170","Snowdepth":"3.000","Units":"in","Rept_Date":"2020-12-09 13"},"coordinates":[5028,4897]},{"type":"Point","properties":{"Station_ID":"NPTV1","Station_Nam":"NEWPORT","Latitude":"44.94900","Longitude":"-72.19120","Snowdepth":"3.000","Units":"in","Rept_Date":"2020-12-09 12"},"coordinates":[5860,5794]},{"type":"Point","properties":{"Station_ID":"NH-MR-45","Station_Nam":"NORTHFIELD 2.8 E, NH","Latitude":"43.43945","Longitude":"-71.53730","Snowdepth":"3.000","Units":"in","Rept_Date":"2020-12-09 12"},"coordinates":[6014,4857]},{"type":"Point","properties":{"Station_ID":"NH-MR-26","Station_Nam":"PITTSFIELD 0.2 SSW, NH","Latitude":"43.29880","Longitude":"-71.33450","Snowdepth":"3.000","Units":"in","Rept_Date":"2020-12-09 12"},"coordinates":[6062,4770]},{"type":"Point","properties":{"Station_ID":"NH-HL-19","Station_Nam":"BROOKLINE 2.1 SW, NH","Latitude":"42.71235","Longitude":"-71.69760","Snowdepth":"3.000","Units":"in","Rept_Date":"2020-12-09 12"},"coordinates":[5976,4406]},{"type":"Point","properties":{"Station_ID":"NH-BK-7","Station_Nam":"LACONIA 7.9 E, NH","Latitude":"43.55415","Longitude":"-71.32310","Snowdepth":"3.000","Units":"in","Rept_Date":"2020-12-09 12"},"coordinates":[6065,4928]},{"type":"Point","properties":{"Station_ID":"MRLV1","Station_Nam":"MARLBORO","Latitude":"42.86000","Longitude":"-72.72000","Snowdepth":"3.000","Units":"in","Rept_Date":"2020-12-09 13"},"coordinates":[5735,4498]},{"type":"Point","properties":{"Station_ID":"MI-HG-20","Station_Nam":"CALUMET 1.1 SSW, MI","Latitude":"47.23165","Longitude":"-88.45823","Snowdepth":"3.000","Units":"in","Rept_Date":"2020-12-09 11"},"coordinates":[2025,7210]},{"type":"Point","properties":{"Station_ID":"ME-CM-86","Station_Nam":"POWNAL 4.1 S, ME","Latitude":"43.85370","Longitude":"-70.17210","Snowdepth":"3.000","Units":"in","Rept_Date":"2020-12-09 12"},"coordinates":[6336,5114]},{"type":"Point","properties":{"Station_ID":"MA-WR-41","Station_Nam":"AUBURN 2.6 SW, MA","Latitude":"42.17336","Longitude":"-71.86869","Snowdepth":"3.000","Units":"in","Rept_Date":"2020-12-09 13"},"coordinates":[5936,4072]},{"type":"Point","properties":{"Station_ID":"MA-MD-42","Station_Nam":"HOLLISTON 0.8 S, MA","Latitude":"42.18820","Longitude":"-71.43390","Snowdepth":"3.000","Units":"in","Rept_Date":"2020-12-09 12"},"coordinates":[6038,4081]},{"type":"Point","properties":{"Station_ID":"LVRM1","Station_Nam":"LIVERMORE FALLS 1 E","Latitude":"44.47160","Longitude":"-70.15940","Snowdepth":"3.000","Units":"in","Rept_Date":"2020-12-09 12"},"coordinates":[6339,5498]},{"type":"Point","properties":{"Station_ID":"LNCM1","Station_Nam":"LINCOLN WATER DISTRICT","Latitude":"45.32410","Longitude":"-68.58300","Snowdepth":"3.000","Units":"in","Rept_Date":"2020-12-09 13"},"coordinates":[6711,6026]},{"type":"Point","properties":{"Station_ID":"LEIM5","Station_Nam":"ORR 3E","Latitude":"48.05810","Longitude":"-92.75220","Snowdepth":"3.000","Units":"in","Rept_Date":"2020-12-09 12"},"coordinates":[1013,7723]},{"type":"Point","properties":{"Station_ID":"LAUP1","Station_Nam":"1.5MI S OF RT 30 ON SMIT (LAUREL RIDGE)","Latitude":"40.05000","Longitude":"-79.22060","Snowdepth":"3.000","Units":"in","Rept_Date":"2020-12-09 12"},"coordinates":[4203,2754]},{"type":"Point","properties":{"Station_ID":"KBTV","Station_Nam":"BURLINGTON INTERNATIONAL","Latitude":"44.46666","Longitude":"-73.15000","Snowdepth":"3.000","Units":"in","Rept_Date":"2020-12-10 00"},"coordinates":[5634,5494]},{"type":"Point","properties":{"Station_ID":"JEFV1","Station_Nam":"JEFFERSONVILLE","Latitude":"44.58430","Longitude":"-72.78700","Snowdepth":"3.000","Units":"in","Rept_Date":"2020-12-09 12"},"coordinates":[5719,5567]},{"type":"Point","properties":{"Station_ID":"ISLV1","Station_Nam":"ISLAND POND","Latitude":"44.81280","Longitude":"-71.89020","Snowdepth":"3.000","Units":"in","Rept_Date":"2020-12-09 14"},"coordinates":[5931,5709]},{"type":"Point","properties":{"Station_ID":"HVJP1","Station_Nam":"HIDDEN VALLEY COOP","Latitude":"40.04200","Longitude":"-79.25660","Snowdepth":"3.000","Units":"in","Rept_Date":"2020-12-09 13"},"coordinates":[4194,2749]},{"type":"Point","properties":{"Station_ID":"HERM4","Station_Nam":"HERMAN,MI","Latitude":"46.65000","Longitude":"-88.33330","Snowdepth":"3.000","Units":"in","Rept_Date":"2020-12-09 13"},"coordinates":[2054,6849]},{"type":"Point","properties":{"Station_ID":"GREN3","Station_Nam":"GREENVILLE 1 NNE","Latitude":"42.78270","Longitude":"-71.79850","Snowdepth":"3.000","Units":"in","Rept_Date":"2020-12-09 13"},"coordinates":[5952,4450]},{"type":"Point","properties":{"Station_ID":"DLHM5","Station_Nam":"DULUTH NWS","Latitude":"46.83680","Longitude":"-92.21080","Snowdepth":"3.000","Units":"in","Rept_Date":"2020-12-10 06"},"coordinates":[1140,6965]},{"type":"Point","properties":{"Station_ID":"DLH","Station_Nam":"DULUTH, MN","Latitude":"46.83690","Longitude":"-92.21030","Snowdepth":"3.000","Units":"in","Rept_Date":"2020-12-10 00"},"coordinates":[1140,6965]},{"type":"Point","properties":{"Station_ID":"CON","Station_Nam":"CONCORD MUNI ARPT","Latitude":"43.20280","Longitude":"-71.50220","Snowdepth":"3.000","Units":"in","Rept_Date":"2020-12-09 12"},"coordinates":[6022,4710]},{"type":"Point","properties":{"Station_ID":"CAN-ON-451","Station_Nam":"OWEN SOUND 1.2 N - GSCA, CAN","Latitude":"44.58092","Longitude":"-80.93025","Snowdepth":"3.000","Units":"in","Rept_Date":"2020-12-09 13"},"coordinates":[3800,5565]},{"type":"Point","properties":{"Station_ID":"BTV","Station_Nam":"BURLINGTON, VT","Latitude":"44.47140","Longitude":"-73.15330","Snowdepth":"3.000","Units":"in","Rept_Date":"2020-12-10 01"},"coordinates":[5633,5497]},{"type":"Point","properties":{"Station_ID":"BNDM5","Station_Nam":"ELY 25E","Latitude":"47.97190","Longitude":"-91.44860","Snowdepth":"3.000","Units":"in","Rept_Date":"2020-12-09 13"},"coordinates":[1320,7669]},{"type":"Point","properties":{"Station_ID":"BMON6","Station_Nam":"BIG MOOSE 3SE","Latitude":"43.80000","Longitude":"-74.86670","Snowdepth":"3.000","Units":"in","Rept_Date":"2020-12-09 13"},"coordinates":[5229,5081]},{"type":"Point","properties":{"Station_ID":"BKBW2","Station_Nam":"DAVIS.","Latitude":"39.09830","Longitude":"-79.43190","Snowdepth":"3.000","Units":"in","Rept_Date":"2020-12-09 12"},"coordinates":[4153,2164]},{"type":"Point","properties":{"Station_ID":"BBEM4","Station_Nam":"BIG BAY 9SW","Latitude":"46.74620","Longitude":"-87.88160","Snowdepth":"3.000","Units":"in","Rept_Date":"2020-12-09 13"},"coordinates":[2161,6909]},{"type":"Point","properties":{"Station_ID":"BABM5","Station_Nam":"BABBITT","Latitude":"47.71210","Longitude":"-91.95330","Snowdepth":"3.000","Units":"in","Rept_Date":"2020-12-09 13"},"coordinates":[1201,7508]},{"type":"Point","properties":{"Station_ID":"CAN-ON-491","Station_Nam":"MILVERTON 1.1 ESE- CANWARN, CAN","Latitude":"43.56074","Longitude":"-80.90887","Snowdepth":"2.800","Units":"in","Rept_Date":"2020-12-09 11"},"coordinates":[3805,4932]},{"type":"Point","properties":{"Station_ID":"CAN-ON-837","Station_Nam":"TORONTO 9.7 ENE, CAN","Latitude":"43.68938","Longitude":"-79.27299","Snowdepth":"2.600","Units":"in","Rept_Date":"2020-12-09 13"},"coordinates":[4190,5012]},{"type":"Point","properties":{"Station_ID":"VT-WS-30","Station_Nam":"WOODBURY 3.4 NNW, VT","Latitude":"44.48825","Longitude":"-72.43258","Snowdepth":"2.500","Units":"in","Rept_Date":"2020-12-09 12"},"coordinates":[5803,5508]},{"type":"Point","properties":{"Station_ID":"VT-CL-18","Station_Nam":"WHEELOCK 1.6 S, VT","Latitude":"44.56491","Longitude":"-72.08830","Snowdepth":"2.500","Units":"in","Rept_Date":"2020-12-09 12"},"coordinates":[5884,5555]},{"type":"Point","properties":{"Station_ID":"NY-TM-18","Station_Nam":"EAST ITHACA 4.7 E, NY","Latitude":"42.41910","Longitude":"-76.37330","Snowdepth":"2.500","Units":"in","Rept_Date":"2020-12-09 12"},"coordinates":[4874,4224]},{"type":"Point","properties":{"Station_ID":"NY-ER-77","Station_Nam":"COLDEN 2.4 ENE, NY","Latitude":"42.65088","Longitude":"-78.61060","Snowdepth":"2.500","Units":"in","Rept_Date":"2020-12-09 13"},"coordinates":[4347,4368]},{"type":"Point","properties":{"Station_ID":"MN-SL-18","Station_Nam":"DULUTH 1.4 NNW, MN","Latitude":"46.80321","Longitude":"-92.11240","Snowdepth":"2.500","Units":"in","Rept_Date":"2020-12-09 13"},"coordinates":[1163,6944]},{"type":"Point","properties":{"Station_ID":"ME-KX-12","Station_Nam":"UNION 3.0 W, ME","Latitude":"44.21320","Longitude":"-69.34160","Snowdepth":"2.500","Units":"in","Rept_Date":"2020-12-09 12"},"coordinates":[6532,5337]},{"type":"Point","properties":{"Station_ID":"MA-WR-42","Station_Nam":"NORTHBOROUGH 2.3 N, MA","Latitude":"42.34535","Longitude":"-71.64390","Snowdepth":"2.500","Units":"in","Rept_Date":"2020-12-09 13"},"coordinates":[5989,4178]},{"type":"Point","properties":{"Station_ID":"MA-MD-12","Station_Nam":"ACTON 1.3 SW, MA","Latitude":"42.46746","Longitude":"-71.48200","Snowdepth":"2.500","Units":"in","Rept_Date":"2020-12-09 12"},"coordinates":[6027,4254]},{"type":"Point","properties":{"Station_ID":"MA-MD-115","Station_Nam":"HUDSON 1.4 NW, MA","Latitude":"42.40372","Longitude":"-71.58680","Snowdepth":"2.500","Units":"in","Rept_Date":"2020-12-09 12"},"coordinates":[6002,4215]},{"type":"Point","properties":{"Station_ID":"MA-ES-48","Station_Nam":"ANDOVER 0.6 E, MA","Latitude":"42.65659","Longitude":"-71.13048","Snowdepth":"2.500","Units":"in","Rept_Date":"2020-12-09 10"},"coordinates":[6110,4371]},{"type":"Point","properties":{"Station_ID":"WV-PR-10","Station_Nam":"TERRA ALTA 4.9 NNE, WV","Latitude":"39.51024","Longitude":"-79.51024","Snowdepth":"2.400","Units":"in","Rept_Date":"2020-12-09 13"},"coordinates":[4134,2419]},{"type":"Point","properties":{"Station_ID":"CAN-ON-86","Station_Nam":"GUELPH 5.1 S - CANWARN, CAN","Latitude":"43.49691","Longitude":"-80.24385","Snowdepth":"2.400","Units":"in","Rept_Date":"2020-12-09 12"},"coordinates":[3961,4893]},{"type":"Point","properties":{"Station_ID":"CAN-ON-771","Station_Nam":"KENORA 8.7 NNE - CANWARN, CAN","Latitude":"49.84171","Longitude":"-94.44386","Snowdepth":"2.400","Units":"in","Rept_Date":"2020-12-09 13"},"coordinates":[614,8829]},{"type":"Point","properties":{"Station_ID":"CAN-ON-220","Station_Nam":"DEEP RIVER 1.5 SE - MNRF, CAN","Latitude":"46.09592","Longitude":"-77.47853","Snowdepth":"2.400","Units":"in","Rept_Date":"2020-12-09 12"},"coordinates":[4613,6505]},{"type":"Point","properties":{"Station_ID":"PA-ER-15","Station_Nam":"NORTH EAST 2.0 S, PA","Latitude":"42.18390","Longitude":"-79.83230","Snowdepth":"2.300","Units":"in","Rept_Date":"2020-12-09 13"},"coordinates":[4058,4078]},{"type":"Point","properties":{"Station_ID":"CAN-ON-784","Station_Nam":"KOMOKA 3.1 W, CAN","Latitude":"42.96000","Longitude":"-81.43805","Snowdepth":"2.300","Units":"in","Rept_Date":"2020-12-09 13"},"coordinates":[3680,4560]},{"type":"Point","properties":{"Station_ID":"CAN-ON-775","Station_Nam":"NORTH YORK 2.9 W, CAN","Latitude":"43.75905","Longitude":"-79.44556","Snowdepth":"2.300","Units":"in","Rept_Date":"2020-12-09 12"},"coordinates":[4150,5055]},{"type":"Point","properties":{"Station_ID":"CAN-ON-748","Station_Nam":"WHITBY 2.4 SW, CAN","Latitude":"43.88036","Longitude":"-78.95664","Snowdepth":"2.300","Units":"in","Rept_Date":"2020-12-09 12"},"coordinates":[4265,5131]},{"type":"Point","properties":{"Station_ID":"NY-WN-18","Station_Nam":"MACEDON 2.6 ESE, NY","Latitude":"43.05200","Longitude":"-77.25700","Snowdepth":"2.200","Units":"in","Rept_Date":"2020-12-09 12"},"coordinates":[4666,4617]},{"type":"Point","properties":{"Station_ID":"WRSM5","Station_Nam":"WRENSHALL","Latitude":"46.61550","Longitude":"-92.38380","Snowdepth":"2.000","Units":"in","Rept_Date":"2020-12-09 14"},"coordinates":[1099,6828]},{"type":"Point","properties":{"Station_ID":"WORV1","Station_Nam":"WORCESTER 2 W","Latitude":"44.37470","Longitude":"-72.58220","Snowdepth":"2.000","Units":"in","Rept_Date":"2020-12-09 12"},"coordinates":[5768,5437]},{"type":"Point","properties":{"Station_ID":"WI-VL-9","Station_Nam":"LAND O' LAKES 11.7 W, WI","Latitude":"46.19023","Longitude":"-89.45790","Snowdepth":"2.000","Units":"in","Rept_Date":"2020-12-09 13"},"coordinates":[1789,6564]},{"type":"Point","properties":{"Station_ID":"WHPN3","Station_Nam":"HOPKINTON LAKE","Latitude":"43.18900","Longitude":"-71.74600","Snowdepth":"2.000","Units":"in","Rept_Date":"2020-12-09 12"},"coordinates":[5965,4702]},{"type":"Point","properties":{"Station_ID":"WHFN6","Station_Nam":"WILMINGTON 2W","Latitude":"44.39310","Longitude":"-73.85890","Snowdepth":"2.000","Units":"in","Rept_Date":"2020-12-09 13"},"coordinates":[5467,5449]},{"type":"Point","properties":{"Station_ID":"VT-OL-25","Station_Nam":"NEWPORT 1.5 WSW, VT","Latitude":"44.93059","Longitude":"-72.23731","Snowdepth":"2.000","Units":"in","Rept_Date":"2020-12-09 12"},"coordinates":[5849,5782]},{"type":"Point","properties":{"Station_ID":"VT-OG-14","Station_Nam":"BRADFORD 2.2 NNW, VT","Latitude":"44.02268","Longitude":"-72.14756","Snowdepth":"2.000","Units":"in","Rept_Date":"2020-12-09 13"},"coordinates":[5870,5219]},{"type":"Point","properties":{"Station_ID":"VT-LM-1","Station_Nam":"STOWE 0.2 SW, VT","Latitude":"44.46399","Longitude":"-72.69070","Snowdepth":"2.000","Units":"in","Rept_Date":"2020-12-09 12"},"coordinates":[5742,5493]},{"type":"Point","properties":{"Station_ID":"VT-CH-13","Station_Nam":"RICHMOND 3.4 SSE, VT","Latitude":"44.36084","Longitude":"-72.96400","Snowdepth":"2.000","Units":"in","Rept_Date":"2020-12-09 12"},"coordinates":[5678,5429]},{"type":"Point","properties":{"Station_ID":"VT-BN-3","Station_Nam":"LANDGROVE 1.1 NNE, VT","Latitude":"43.29092","Longitude":"-72.83260","Snowdepth":"2.000","Units":"in","Rept_Date":"2020-12-09 13"},"coordinates":[5709,4765]},{"type":"Point","properties":{"Station_ID":"SNOW2","Station_Nam":"SNOWSHOE","Latitude":"38.39900","Longitude":"-79.99490","Snowdepth":"2.000","Units":"in","Rept_Date":"2020-12-09 11"},"coordinates":[4020,1730]},{"type":"Point","properties":{"Station_ID":"SBOP1","Station_Nam":"SPRINGBORO","Latitude":"41.81660","Longitude":"-80.43330","Snowdepth":"2.000","Units":"in","Rept_Date":"2020-12-09 12"},"coordinates":[3917,3850]},{"type":"Point","properties":{"Station_ID":"RLWM5","Station_Nam":"CAMP NORRIS DNR","Latitude":"48.61000","Longitude":"-95.18170","Snowdepth":"2.000","Units":"in","Rept_Date":"2020-12-09 13"},"coordinates":[440,8065]},{"type":"Point","properties":{"Station_ID":"QNCM4","Station_Nam":"QUINCY HILL","Latitude":"47.13640","Longitude":"-88.57950","Snowdepth":"2.000","Units":"in","Rept_Date":"2020-12-09 12"},"coordinates":[1996,7151]},{"type":"Point","properties":{"Station_ID":"PDGM4","Station_Nam":"PAULDING","Latitude":"46.39760","Longitude":"-89.17940","Snowdepth":"2.000","Units":"in","Rept_Date":"2020-12-09 14"},"coordinates":[1855,6693]},{"type":"Point","properties":{"Station_ID":"PA-CW-8","Station_Nam":"SPRINGBORO 3.0 WNW, PA","Latitude":"41.81654","Longitude":"-80.42540","Snowdepth":"2.000","Units":"in","Rept_Date":"2020-12-09 12"},"coordinates":[3919,3850]},{"type":"Point","properties":{"Station_ID":"OH-LR-8","Station_Nam":"ELYRIA 0.4 SE, OH","Latitude":"41.37628","Longitude":"-82.09920","Snowdepth":"2.000","Units":"in","Rept_Date":"2020-12-09 13"},"coordinates":[3524,3577]},{"type":"Point","properties":{"Station_ID":"OH-ER-5","Station_Nam":"WAKEMAN 4.6 NNE, OH","Latitude":"41.31902","Longitude":"-82.37730","Snowdepth":"2.000","Units":"in","Rept_Date":"2020-12-09 13"},"coordinates":[3459,3542]},{"type":"Point","properties":{"Station_ID":"OH-CY-24","Station_Nam":"PARMA 1.9 NNW, OH","Latitude":"41.40881","Longitude":"-81.74480","Snowdepth":"2.000","Units":"in","Rept_Date":"2020-12-09 13"},"coordinates":[3608,3597]},{"type":"Point","properties":{"Station_ID":"NY-WN-6","Station_Nam":"PALMYRA 1.6 NW, NY","Latitude":"43.07950","Longitude":"-77.25260","Snowdepth":"2.000","Units":"in","Rept_Date":"2020-12-09 13"},"coordinates":[4667,4634]},{"type":"Point","properties":{"Station_ID":"NY-WN-10","Station_Nam":"WALWORTH 1.7 SW, NY","Latitude":"43.12500","Longitude":"-77.29900","Snowdepth":"2.000","Units":"in","Rept_Date":"2020-12-09 12"},"coordinates":[4656,4662]},{"type":"Point","properties":{"Station_ID":"NY-TM-42","Station_Nam":"ITHACA 6.4 E, NY","Latitude":"42.43350","Longitude":"-76.37860","Snowdepth":"2.000","Units":"in","Rept_Date":"2020-12-09 12"},"coordinates":[4873,4233]},{"type":"Point","properties":{"Station_ID":"NY-TM-27","Station_Nam":"GROTON 3.2 SSW, NY","Latitude":"42.54725","Longitude":"-76.39960","Snowdepth":"2.000","Units":"in","Rept_Date":"2020-12-09 13"},"coordinates":[4868,4304]},{"type":"Point","properties":{"Station_ID":"NY-OS-15","Station_Nam":"MINETTO 0.1 SE, NY","Latitude":"43.39771","Longitude":"-76.47960","Snowdepth":"2.000","Units":"in","Rept_Date":"2020-12-09 13"},"coordinates":[4849,4831]},{"type":"Point","properties":{"Station_ID":"NY-OG-46","Station_Nam":"BALDWINSVILLE 3.5 NE, NY","Latitude":"43.19506","Longitude":"-76.28830","Snowdepth":"2.000","Units":"in","Rept_Date":"2020-12-09 13"},"coordinates":[4894,4706]},{"type":"Point","properties":{"Station_ID":"NY-CY-31","Station_Nam":"SCIPIO CENTER 3.0 S, NY","Latitude":"42.74002","Longitude":"-76.55682","Snowdepth":"2.000","Units":"in","Rept_Date":"2020-12-09 11"},"coordinates":[4831,4423]},{"type":"Point","properties":{"Station_ID":"NH-CS-7","Station_Nam":"LANCASTER 0.5 N, NH","Latitude":"44.49611","Longitude":"-71.57640","Snowdepth":"2.000","Units":"in","Rept_Date":"2020-12-09 12"},"coordinates":[6005,5513]},{"type":"Point","properties":{"Station_ID":"NH-CR-15","Station_Nam":"JACKSON 3.7 NW, NH","Latitude":"44.19069","Longitude":"-71.22598","Snowdepth":"2.000","Units":"in","Rept_Date":"2020-12-09 12"},"coordinates":[6087,5323]},{"type":"Point","properties":{"Station_ID":"NH-BK-1","Station_Nam":"TILTON NORTHFIELD 3.3 NE, NH","Latitude":"43.48000","Longitude":"-71.55000","Snowdepth":"2.000","Units":"in","Rept_Date":"2020-12-09 12"},"coordinates":[6011,4882]},{"type":"Point","properties":{"Station_ID":"NFKC3","Station_Nam":"NORFOLK","Latitude":"41.97250","Longitude":"-73.22080","Snowdepth":"2.000","Units":"in","Rept_Date":"2020-12-09 13"},"coordinates":[5617,3947]},{"type":"Point","properties":{"Station_ID":"NCBN6","Station_Nam":"NEWCOMB","Latitude":"43.97070","Longitude":"-74.22200","Snowdepth":"2.000","Units":"in","Rept_Date":"2020-12-09 13"},"coordinates":[5381,5187]},{"type":"Point","properties":{"Station_ID":"MRRN6","Station_Nam":"MORRISVILLE 6 SW","Latitude":"42.84160","Longitude":"-75.72630","Snowdepth":"2.000","Units":"in","Rept_Date":"2020-12-09 12"},"coordinates":[5026,4486]},{"type":"Point","properties":{"Station_ID":"MMTN7","Station_Nam":"MOUNT MITCHELL STATE PARK","Latitude":"35.75940","Longitude":"-82.27110","Snowdepth":"2.000","Units":"in","Rept_Date":"2020-12-09 12"},"coordinates":[3484,92]},{"type":"Point","properties":{"Station_ID":"MILM3","Station_Nam":"MILFORD","Latitude":"42.16330","Longitude":"-71.51190","Snowdepth":"2.000","Units":"in","Rept_Date":"2020-12-09 12"},"coordinates":[6020,4065]},{"type":"Point","properties":{"Station_ID":"ME-YK-65","Station_Nam":"NORTH BERWICK 5.3 W, ME","Latitude":"43.29801","Longitude":"-70.83956","Snowdepth":"2.000","Units":"in","Rept_Date":"2020-12-09 13"},"coordinates":[6179,4769]},{"type":"Point","properties":{"Station_ID":"ME-LN-13","Station_Nam":"WALDOBORO 1.5 NNE, ME","Latitude":"44.11481","Longitude":"-69.36644","Snowdepth":"2.000","Units":"in","Rept_Date":"2020-12-09 13"},"coordinates":[6526,5276]},{"type":"Point","properties":{"Station_ID":"ME-KX-6","Station_Nam":"UNION 3.0 NW, ME","Latitude":"44.24435","Longitude":"-69.31540","Snowdepth":"2.000","Units":"in","Rept_Date":"2020-12-09 12"},"coordinates":[6538,5357]},{"type":"Point","properties":{"Station_ID":"ME-CM-18","Station_Nam":"PORTLAND 5.5 WNW, ME","Latitude":"43.70288","Longitude":"-70.30550","Snowdepth":"2.000","Units":"in","Rept_Date":"2020-12-09 12"},"coordinates":[6304,5021]},{"type":"Point","properties":{"Station_ID":"ME-CM-143","Station_Nam":"PORTLAND 5.4 NW, ME","Latitude":"43.72010","Longitude":"-70.28710","Snowdepth":"2.000","Units":"in","Rept_Date":"2020-12-09 12"},"coordinates":[6309,5031]},{"type":"Point","properties":{"Station_ID":"LPLN6","Station_Nam":"LAKE PLACID 2 S","Latitude":"44.30420","Longitude":"-73.98390","Snowdepth":"2.000","Units":"in","Rept_Date":"2020-12-09 14"},"coordinates":[5437,5394]},{"type":"Point","properties":{"Station_ID":"LNOW3","Station_Nam":"LAND O LAKES","Latitude":"46.19000","Longitude":"-89.45700","Snowdepth":"2.000","Units":"in","Rept_Date":"2020-12-09 13"},"coordinates":[1789,6564]},{"type":"Point","properties":{"Station_ID":"LLLM3","Station_Nam":"LOWELL","Latitude":"42.64090","Longitude":"-71.36370","Snowdepth":"2.000","Units":"in","Rept_Date":"2020-12-09 11"},"coordinates":[6055,4362]},{"type":"Point","properties":{"Station_ID":"KGTB","Station_Nam":"FORT DRUM / WHEELER-SACK U. S. ARMY AIRFIELD","Latitude":"44.05000","Longitude":"-75.73333","Snowdepth":"2.000","Units":"in","Rept_Date":"2020-12-09 18"},"coordinates":[5025,5236]},{"type":"Point","properties":{"Station_ID":"INL","Station_Nam":"FALLS INTERNATIONAL ARPT","Latitude":"48.56640","Longitude":"-93.40310","Snowdepth":"2.000","Units":"in","Rept_Date":"2020-12-10 00"},"coordinates":[859,8038]},{"type":"Point","properties":{"Station_ID":"IFSM5","Station_Nam":"INTERNATIONAL FALLS SNOW","Latitude":"48.57780","Longitude":"-93.39640","Snowdepth":"2.000","Units":"in","Rept_Date":"2020-12-09 12"},"coordinates":[861,8045]},{"type":"Point","properties":{"Station_ID":"GOVN6","Station_Nam":"GOUVERNEUR 3 NW","Latitude":"44.35400","Longitude":"-75.51230","Snowdepth":"2.000","Units":"in","Rept_Date":"2020-12-09 12"},"coordinates":[5077,5425]},{"type":"Point","properties":{"Station_ID":"GNFM5","Station_Nam":"GUNFLINT LAKE","Latitude":"48.16670","Longitude":"-90.88750","Snowdepth":"2.000","Units":"in","Rept_Date":"2020-12-09 13"},"coordinates":[1452,7790]},{"type":"Point","properties":{"Station_ID":"FUTN6","Station_Nam":"FULTON","Latitude":"43.30500","Longitude":"-76.39380","Snowdepth":"2.000","Units":"in","Rept_Date":"2020-12-09 12"},"coordinates":[4869,4774]},{"type":"Point","properties":{"Station_ID":"EAHV1","Station_Nam":"EAST HAVEN","Latitude":"44.64250","Longitude":"-71.89120","Snowdepth":"2.000","Units":"in","Rept_Date":"2020-12-09 12"},"coordinates":[5931,5604]},{"type":"Point","properties":{"Station_ID":"CT-TL-18","Station_Nam":"HEBRON 5.3 NW, CT","Latitude":"41.71960","Longitude":"-72.43120","Snowdepth":"2.000","Units":"in","Rept_Date":"2020-12-09 12"},"coordinates":[5803,3790]},{"type":"Point","properties":{"Station_ID":"CORV1","Station_Nam":"CORINTH","Latitude":"44.00690","Longitude":"-72.31940","Snowdepth":"2.000","Units":"in","Rept_Date":"2020-12-09 12"},"coordinates":[5830,5209]},{"type":"Point","properties":{"Station_ID":"COKM5","Station_Nam":"COOK","Latitude":"47.85060","Longitude":"-92.69250","Snowdepth":"2.000","Units":"in","Rept_Date":"2020-12-09 12"},"coordinates":[1027,7594]},{"type":"Point","properties":{"Station_ID":"BRMM5","Station_Nam":"BRIMSON 2S","Latitude":"47.24720","Longitude":"-91.86240","Snowdepth":"2.000","Units":"in","Rept_Date":"2020-12-10 01"},"coordinates":[1222,7220]},{"type":"Point","properties":{"Station_ID":"BCKW2","Station_Nam":"BECKLEY V.A. HOSPITAL","Latitude":"37.76470","Longitude":"-81.19400","Snowdepth":"2.000","Units":"in","Rept_Date":"2020-12-09 12"},"coordinates":[3737,1336]},{"type":"Point","properties":{"Station_ID":"BALN6","Station_Nam":"BALDWINSVILLE","Latitude":"43.15690","Longitude":"-76.33190","Snowdepth":"2.000","Units":"in","Rept_Date":"2020-12-09 12"},"coordinates":[4884,4682]},{"type":"Point","properties":{"Station_ID":"PA-LC-28","Station_Nam":"CLARKS GREEN 0.5 N, PA","Latitude":"41.50670","Longitude":"-75.69530","Snowdepth":"1.800","Units":"in","Rept_Date":"2020-12-09 14"},"coordinates":[5034,3658]},{"type":"Point","properties":{"Station_ID":"WI-SR-1","Station_Nam":"HAYWARD 9.2 NNE, WI","Latitude":"46.13255","Longitude":"-91.40500","Snowdepth":"1.600","Units":"in","Rept_Date":"2020-12-09 12"},"coordinates":[1330,6528]},{"type":"Point","properties":{"Station_ID":"CAN-ON-815","Station_Nam":"KEENE 1.8 SSW, CAN","Latitude":"44.22623","Longitude":"-78.17317","Snowdepth":"1.600","Units":"in","Rept_Date":"2020-12-09 12"},"coordinates":[4450,5345]},{"type":"Point","properties":{"Station_ID":"CAN-ON-593","Station_Nam":"KITCHENER 4.5 E, CAN","Latitude":"43.45147","Longitude":"-80.43180","Snowdepth":"1.600","Units":"in","Rept_Date":"2020-12-09 13"},"coordinates":[3917,4865]},{"type":"Point","properties":{"Station_ID":"WV-NC-4","Station_Nam":"CRAIGSVILLE 0.6 NE, WV","Latitude":"38.33698","Longitude":"-80.64520","Snowdepth":"1.500","Units":"in","Rept_Date":"2020-12-09 12"},"coordinates":[3867,1691]},{"type":"Point","properties":{"Station_ID":"VT-WR-2","Station_Nam":"POMFRET 2.6 N, VT","Latitude":"43.74230","Longitude":"-72.52550","Snowdepth":"1.500","Units":"in","Rept_Date":"2020-12-09 12"},"coordinates":[5781,5045]},{"type":"Point","properties":{"Station_ID":"VT-RT-24","Station_Nam":"MIDDLETOWN SPRINGS 0.9 WNW, VT","Latitude":"43.49194","Longitude":"-73.13350","Snowdepth":"1.500","Units":"in","Rept_Date":"2020-12-09 12"},"coordinates":[5638,4890]},{"type":"Point","properties":{"Station_ID":"VT-ES-3","Station_Nam":"LUNENBURG 2.3 NNW, VT","Latitude":"44.49324","Longitude":"-71.70446","Snowdepth":"1.500","Units":"in","Rept_Date":"2020-12-09 11"},"coordinates":[5975,5511]},{"type":"Point","properties":{"Station_ID":"VT-CL-14","Station_Nam":"LYNDONVILLE 1.1 W, VT","Latitude":"44.53582","Longitude":"-72.02867","Snowdepth":"1.500","Units":"in","Rept_Date":"2020-12-09 12"},"coordinates":[5898,5537]},{"type":"Point","properties":{"Station_ID":"VT-CH-7","Station_Nam":"HUNTINGTON 1.1 E, VT","Latitude":"44.32488","Longitude":"-72.96570","Snowdepth":"1.500","Units":"in","Rept_Date":"2020-12-09 12"},"coordinates":[5677,5407]},{"type":"Point","properties":{"Station_ID":"VT-CH-11","Station_Nam":"UNDERHILL 5.1 NNE, VT","Latitude":"44.59811","Longitude":"-72.91880","Snowdepth":"1.500","Units":"in","Rept_Date":"2020-12-09 13"},"coordinates":[5688,5576]},{"type":"Point","properties":{"Station_ID":"VT-BN-7","Station_Nam":"MANCHESTER 2.8 ENE, VT","Latitude":"43.17274","Longitude":"-73.01811","Snowdepth":"1.500","Units":"in","Rept_Date":"2020-12-09 12"},"coordinates":[5665,4692]},{"type":"Point","properties":{"Station_ID":"RI-PR-55","Station_Nam":"CUMBERLAND HILL 3.6 NNE, RI","Latitude":"42.01656","Longitude":"-71.42238","Snowdepth":"1.500","Units":"in","Rept_Date":"2020-12-09 12"},"coordinates":[6041,3974]},{"type":"Point","properties":{"Station_ID":"RI-PR-51","Station_Nam":"NORTH SMITHFIELD 0.6 S, RI","Latitude":"41.95440","Longitude":"-71.54944","Snowdepth":"1.500","Units":"in","Rept_Date":"2020-12-09 11"},"coordinates":[6011,3936]},{"type":"Point","properties":{"Station_ID":"PA-CW-18","Station_Nam":"CONNEAUT LAKE 1.3 WNW, PA","Latitude":"41.60816","Longitude":"-80.33371","Snowdepth":"1.500","Units":"in","Rept_Date":"2020-12-09 12"},"coordinates":[3940,3721]},{"type":"Point","properties":{"Station_ID":"OH-MD-2","Station_Nam":"BRUNSWICK 0.5 NE, OH","Latitude":"41.24980","Longitude":"-81.81330","Snowdepth":"1.500","Units":"in","Rept_Date":"2020-12-09 12"},"coordinates":[3591,3499]},{"type":"Point","properties":{"Station_ID":"OH-LR-25","Station_Nam":"NORTH RIDGEVILLE 2.5 NE, OH","Latitude":"41.41550","Longitude":"-81.98440","Snowdepth":"1.500","Units":"in","Rept_Date":"2020-12-09 12"},"coordinates":[3551,3601]},{"type":"Point","properties":{"Station_ID":"OH-CY-39","Station_Nam":"WESTLAKE 0.5 SSW, OH","Latitude":"41.44795","Longitude":"-81.93260","Snowdepth":"1.500","Units":"in","Rept_Date":"2020-12-09 13"},"coordinates":[3563,3622]},{"type":"Point","properties":{"Station_ID":"OH-CY-14","Station_Nam":"CLEVELAND 7.0 SW, OH","Latitude":"41.45224","Longitude":"-81.81475","Snowdepth":"1.500","Units":"in","Rept_Date":"2020-12-10 03"},"coordinates":[3591,3624]},{"type":"Point","properties":{"Station_ID":"NY-TM-36","Station_Nam":"ITHACA 2.0 ESE, NY","Latitude":"42.42932","Longitude":"-76.46871","Snowdepth":"1.500","Units":"in","Rept_Date":"2020-12-09 13"},"coordinates":[4851,4230]},{"type":"Point","properties":{"Station_ID":"NY-OS-38","Station_Nam":"MEXICO COOP, NY","Latitude":"43.43830","Longitude":"-76.26570","Snowdepth":"1.500","Units":"in","Rept_Date":"2020-12-09 12"},"coordinates":[4899,4856]},{"type":"Point","properties":{"Station_ID":"NY-ON-17","Station_Nam":"CANANDAIGUA 4.6 S, NY","Latitude":"42.82200","Longitude":"-77.28840","Snowdepth":"1.500","Units":"in","Rept_Date":"2020-12-09 15"},"coordinates":[4658,4474]},{"type":"Point","properties":{"Station_ID":"NY-OG-12","Station_Nam":"CLAY 4.6 NW, NY","Latitude":"43.20000","Longitude":"-76.26000","Snowdepth":"1.500","Units":"in","Rept_Date":"2020-12-09 13"},"coordinates":[4901,4709]},{"type":"Point","properties":{"Station_ID":"NY-OG-10","Station_Nam":"CAMILLUS 1.0 W, NY","Latitude":"43.03962","Longitude":"-76.32830","Snowdepth":"1.500","Units":"in","Rept_Date":"2020-12-09 13"},"coordinates":[4885,4609]},{"type":"Point","properties":{"Station_ID":"NY-OD-2","Station_Nam":"POINT ROCK 0.6 SE, NY","Latitude":"43.37335","Longitude":"-75.53840","Snowdepth":"1.500","Units":"in","Rept_Date":"2020-12-09 13"},"coordinates":[5071,4816]},{"type":"Point","properties":{"Station_ID":"NY-MR-21","Station_Nam":"PITTSFORD 4.0 SSE, NY","Latitude":"43.03498","Longitude":"-77.49450","Snowdepth":"1.500","Units":"in","Rept_Date":"2020-12-09 14"},"coordinates":[4610,4606]},{"type":"Point","properties":{"Station_ID":"NY-MD-10","Station_Nam":"CAZENOVIA 2.9 SE, NY","Latitude":"42.90003","Longitude":"-75.81140","Snowdepth":"1.500","Units":"in","Rept_Date":"2020-12-09 12"},"coordinates":[5006,4523]},{"type":"Point","properties":{"Station_ID":"NY-ER-166","Station_Nam":"BOSTON 2.5 NE, NY","Latitude":"42.65480","Longitude":"-78.70300","Snowdepth":"1.500","Units":"in","Rept_Date":"2020-12-09 12"},"coordinates":[4325,4370]},{"type":"Point","properties":{"Station_ID":"NY-BM-7","Station_Nam":"VESTAL 2.8 SSE, NY","Latitude":"42.04930","Longitude":"-76.02880","Snowdepth":"1.500","Units":"in","Rept_Date":"2020-12-09 14"},"coordinates":[4955,3995]},{"type":"Point","properties":{"Station_ID":"NH-MR-55","Station_Nam":"CANTERBURY 2.5 SSW, NH","Latitude":"43.30277","Longitude":"-71.57893","Snowdepth":"1.500","Units":"in","Rept_Date":"2020-12-09 12"},"coordinates":[6004,4772]},{"type":"Point","properties":{"Station_ID":"NH-HL-25","Station_Nam":"AMHERST 3.7 NNE, NH","Latitude":"42.91409","Longitude":"-71.61020","Snowdepth":"1.500","Units":"in","Rept_Date":"2020-12-09 12"},"coordinates":[5997,4531]},{"type":"Point","properties":{"Station_ID":"MN-CK-6","Station_Nam":"GRAND MARAIS 4.4 W, MN","Latitude":"47.74865","Longitude":"-90.43760","Snowdepth":"1.500","Units":"in","Rept_Date":"2020-12-09 13"},"coordinates":[1558,7531]},{"type":"Point","properties":{"Station_ID":"ME-YK-52","Station_Nam":"YORK 5.2 N, ME","Latitude":"43.23585","Longitude":"-70.63400","Snowdepth":"1.500","Units":"in","Rept_Date":"2020-12-09 12"},"coordinates":[6227,4731]},{"type":"Point","properties":{"Station_ID":"ME-LN-1","Station_Nam":"NEWCASTLE 2.1 SW, ME","Latitude":"44.02767","Longitude":"-69.56860","Snowdepth":"1.500","Units":"in","Rept_Date":"2020-12-09 12"},"coordinates":[6478,5222]},{"type":"Point","properties":{"Station_ID":"ME-CM-138","Station_Nam":"FREEPORT 3.0 ENE, ME","Latitude":"43.87733","Longitude":"-70.04650","Snowdepth":"1.500","Units":"in","Rept_Date":"2020-12-09 12"},"coordinates":[6365,5129]},{"type":"Point","properties":{"Station_ID":"MA-MD-51","Station_Nam":"MAYNARD 0.7 ESE, MA","Latitude":"42.42027","Longitude":"-71.44484","Snowdepth":"1.500","Units":"in","Rept_Date":"2020-12-09 12"},"coordinates":[6036,4225]},{"type":"Point","properties":{"Station_ID":"MA-MD-47","Station_Nam":"WEST TOWNSEND 0.5 W, MA","Latitude":"42.67623","Longitude":"-71.74983","Snowdepth":"1.500","Units":"in","Rept_Date":"2020-12-09 11"},"coordinates":[5964,4384]},{"type":"Point","properties":{"Station_ID":"MA-MD-158","Station_Nam":"SHERBORN 1.1 NW, MA","Latitude":"42.24460","Longitude":"-71.38130","Snowdepth":"1.500","Units":"in","Rept_Date":"2020-12-09 10"},"coordinates":[6051,4116]},{"type":"Point","properties":{"Station_ID":"MA-ES-58","Station_Nam":"MIDDLETON 1.4 SSW, MA","Latitude":"42.58133","Longitude":"-71.02707","Snowdepth":"1.500","Units":"in","Rept_Date":"2020-12-09 13"},"coordinates":[6134,4325]},{"type":"Point","properties":{"Station_ID":"QGA","Station_Nam":"QGA","Latitude":"47.25640","Longitude":"-73.73810","Snowdepth":"1.496","Units":"in","Rept_Date":"2020-12-09 12"},"coordinates":[5495,7225]},{"type":"Point","properties":{"Station_ID":"VT-CL-23","Station_Nam":"RYEGATE 1.5 N, VT","Latitude":"44.23024","Longitude":"-72.10523","Snowdepth":"1.400","Units":"in","Rept_Date":"2020-12-09 12"},"coordinates":[5880,5348]},{"type":"Point","properties":{"Station_ID":"RI-PR-28","Station_Nam":"NORTH SMITHFIELD 0.7 SE, RI","Latitude":"41.95910","Longitude":"-71.54201","Snowdepth":"1.400","Units":"in","Rept_Date":"2020-12-09 12"},"coordinates":[6013,3939]},{"type":"Point","properties":{"Station_ID":"CAN-NB-18","Station_Nam":"MCLEOD HILL 1.1 ENE, CA","Latitude":"46.02725","Longitude":"-66.67460","Snowdepth":"1.400","Units":"in","Rept_Date":"2020-12-09 12"},"coordinates":[7160,6463]},{"type":"Point","properties":{"Station_ID":"MBGM7","Station_Nam":"MISSOURI BOTANICAL GARDENS","Latitude":"38.61280","Longitude":"-90.26080","Snowdepth":"1.300","Units":"in","Rept_Date":"2020-12-10 06"},"coordinates":[1600,1863]},{"type":"Point","properties":{"Station_ID":"CAN-ON-208","Station_Nam":"PAKENHAM 7.8 NNW, CAN","Latitude":"45.39166","Longitude":"-76.34111","Snowdepth":"1.300","Units":"in","Rept_Date":"2020-12-09 12"},"coordinates":[4882,6068]},{"type":"Point","properties":{"Station_ID":"NFGT1","Station_Nam":"NEW FOUND GAP","Latitude":"35.61080","Longitude":"-83.42890","Snowdepth":"1.290","Units":"in","Rept_Date":"2020-12-10 06"},"coordinates":[3211,0]},{"type":"Point","properties":{"Station_ID":"NY-OG-71","Station_Nam":"LIVERPOOL 6.1 NNW, NY","Latitude":"43.18876","Longitude":"-76.25193","Snowdepth":"1.200","Units":"in","Rept_Date":"2020-12-09 12"},"coordinates":[4903,4702]},{"type":"Point","properties":{"Station_ID":"NY-ES-6","Station_Nam":"OLMSTEDVILLE 4.6 NNE, NY","Latitude":"43.83350","Longitude":"-73.89780","Snowdepth":"1.200","Units":"in","Rept_Date":"2020-12-09 13"},"coordinates":[5458,5102]},{"type":"Point","properties":{"Station_ID":"ME-KX-10","Station_Nam":"UNION 2.1 NNE, ME","Latitude":"44.23693","Longitude":"-69.27170","Snowdepth":"1.200","Units":"in","Rept_Date":"2020-12-09 12"},"coordinates":[6548,5352]},{"type":"Point","properties":{"Station_ID":"CAN-ON-119","Station_Nam":"BELLEVILLE 5.2 SW - QUINTE CONSERVATION, CAN","Latitude":"44.13846","Longitude":"-77.42997","Snowdepth":"1.200","Units":"in","Rept_Date":"2020-12-09 13"},"coordinates":[4625,5291]},{"type":"Point","properties":{"Station_ID":"QIQ","Station_Nam":"QIQ","Latitude":"49.82390","Longitude":"-68.54310","Snowdepth":"1.102","Units":"in","Rept_Date":"2020-12-09 12"},"coordinates":[6720,8818]},{"type":"Point","properties":{"Station_ID":"NY-ER-151","Station_Nam":"CLARENCE CENTER 0.2 ESE, NY","Latitude":"43.00742","Longitude":"-78.62917","Snowdepth":"1.100","Units":"in","Rept_Date":"2020-12-09 12"},"coordinates":[4342,4589]},{"type":"Point","properties":{"Station_ID":"QGT","Station_Nam":"QGT","Latitude":"49.64720","Longitude":"-67.62640","Snowdepth":"1.024","Units":"in","Rept_Date":"2020-12-09 12"},"coordinates":[6936,8709]},{"type":"Point","properties":{"Station_ID":"WTNM4","Station_Nam":"WATTON 2WSW","Latitude":"46.52660","Longitude":"-88.64240","Snowdepth":"1.000","Units":"in","Rept_Date":"2020-12-09 13"},"coordinates":[1982,6773]},{"type":"Point","properties":{"Station_ID":"WSWN6","Station_Nam":"WARSAW","Latitude":"42.74220","Longitude":"-78.20850","Snowdepth":"1.000","Units":"in","Rept_Date":"2020-12-09 12"},"coordinates":[4441,4425]},{"type":"Point","properties":{"Station_ID":"WSTN6","Station_Nam":"WESTMORELAND 4 N","Latitude":"43.15950","Longitude":"-75.46110","Snowdepth":"1.000","Units":"in","Rept_Date":"2020-12-09 12"},"coordinates":[5089,4683]},{"type":"Point","properties":{"Station_ID":"WRUM5","Station_Nam":"WARROAD 4W","Latitude":"48.89600","Longitude":"-95.40700","Snowdepth":"1.000","Units":"in","Rept_Date":"2020-12-10 04"},"coordinates":[387,8243]},{"type":"Point","properties":{"Station_ID":"WRSN6","Station_Nam":"WARSAW 6SW","Latitude":"42.68550","Longitude":"-78.22020","Snowdepth":"1.000","Units":"in","Rept_Date":"2020-12-09 12"},"coordinates":[4439,4389]},{"type":"Point","properties":{"Station_ID":"WNDP1","Station_Nam":"WINDBER COUNTY CLUB","Latitude":"40.28780","Longitude":"-78.77530","Snowdepth":"1.000","Units":"in","Rept_Date":"2020-12-09 12"},"coordinates":[4308,2902]},{"type":"Point","properties":{"Station_ID":"WI-IR-3","Station_Nam":"PENCE 0.1 E, WI","Latitude":"46.41555","Longitude":"-90.27013","Snowdepth":"1.000","Units":"in","Rept_Date":"2020-12-09 13"},"coordinates":[1598,6704]},{"type":"Point","properties":{"Station_ID":"WI-DG-20","Station_Nam":"SOLON SPRINGS 1.2 W, WI","Latitude":"46.35217","Longitude":"-91.84405","Snowdepth":"1.000","Units":"in","Rept_Date":"2020-12-09 13"},"coordinates":[1227,6664]},{"type":"Point","properties":{"Station_ID":"WALM3","Station_Nam":"WALPOLE 2","Latitude":"42.16090","Longitude":"-71.24610","Snowdepth":"1.000","Units":"in","Rept_Date":"2020-12-09 12"},"coordinates":[6083,4064]},{"type":"Point","properties":{"Station_ID":"WAIV1","Station_Nam":"WAITSFIELD","Latitude":"44.17560","Longitude":"-72.79610","Snowdepth":"1.000","Units":"in","Rept_Date":"2020-12-09 12"},"coordinates":[5717,5314]},{"type":"Point","properties":{"Station_ID":"VT-WS-33","Station_Nam":"WAITSFIELD 3.5 WNW, VT","Latitude":"44.20052","Longitude":"-72.89421","Snowdepth":"1.000","Units":"in","Rept_Date":"2020-12-09 13"},"coordinates":[5694,5329]},{"type":"Point","properties":{"Station_ID":"VT-WS-19","Station_Nam":"WATERBURY 3.0 NW, VT","Latitude":"44.36060","Longitude":"-72.80770","Snowdepth":"1.000","Units":"in","Rept_Date":"2020-12-09 11"},"coordinates":[5715,5429]},{"type":"Point","properties":{"Station_ID":"VT-WH-19","Station_Nam":"EAST DOVER 1.8 N, VT","Latitude":"42.97658","Longitude":"-72.77637","Snowdepth":"1.000","Units":"in","Rept_Date":"2020-12-09 14"},"coordinates":[5722,4570]},{"type":"Point","properties":{"Station_ID":"VT-CH-47","Station_Nam":"SOUTH BURLINGTON 2.6 SSW, VT","Latitude":"44.42027","Longitude":"-73.19242","Snowdepth":"1.000","Units":"in","Rept_Date":"2020-12-09 12"},"coordinates":[5624,5466]},{"type":"Point","properties":{"Station_ID":"VRGV1","Station_Nam":"VERGENNES","Latitude":"44.17190","Longitude":"-73.24720","Snowdepth":"1.000","Units":"in","Rept_Date":"2020-12-09 11"},"coordinates":[5611,5312]},{"type":"Point","properties":{"Station_ID":"TOPN6","Station_Nam":"TUPPER LAKE SUNMOUNT","Latitude":"44.23070","Longitude":"-74.43820","Snowdepth":"1.000","Units":"in","Rept_Date":"2020-12-09 12"},"coordinates":[5330,5348]},{"type":"Point","properties":{"Station_ID":"TOGM5","Station_Nam":"CELINA 2E","Latitude":"47.86630","Longitude":"-93.02660","Snowdepth":"1.000","Units":"in","Rept_Date":"2020-12-09 15"},"coordinates":[948,7604]},{"type":"Point","properties":{"Station_ID":"SUAW3","Station_Nam":"SUAMICO","Latitude":"44.60190","Longitude":"-88.09780","Snowdepth":"1.000","Units":"in","Rept_Date":"2020-12-09 12"},"coordinates":[2110,5578]},{"type":"Point","properties":{"Station_ID":"SLNV1","Station_Nam":"SOUTH LINCOLN","Latitude":"44.07460","Longitude":"-72.97180","Snowdepth":"1.000","Units":"in","Rept_Date":"2020-12-09 12"},"coordinates":[5676,5251]},{"type":"Point","properties":{"Station_ID":"SKAN6","Station_Nam":"SKANEATELES","Latitude":"42.94610","Longitude":"-76.43130","Snowdepth":"1.000","Units":"in","Rept_Date":"2020-12-09 13"},"coordinates":[4860,4551]},{"type":"Point","properties":{"Station_ID":"SJBV1","Station_Nam":"SAINT JOHNSBURY","Latitude":"44.42000","Longitude":"-72.01940","Snowdepth":"1.000","Units":"in","Rept_Date":"2020-12-09 21"},"coordinates":[5900,5466]},{"type":"Point","properties":{"Station_ID":"SGVN6","Station_Nam":"SPRINGVILLE","Latitude":"42.54970","Longitude":"-78.57670","Snowdepth":"1.000","Units":"in","Rept_Date":"2020-12-09 22"},"coordinates":[4355,4305]},{"type":"Point","properties":{"Station_ID":"ROWM3","Station_Nam":"ROWE 3NE","Latitude":"42.73500","Longitude":"-72.86920","Snowdepth":"1.000","Units":"in","Rept_Date":"2020-12-09 12"},"coordinates":[5700,4420]},{"type":"Point","properties":{"Station_ID":"RI-PR-50","Station_Nam":"HARRISVILLE 1.2 SSE, RI","Latitude":"41.95128","Longitude":"-71.67171","Snowdepth":"1.000","Units":"in","Rept_Date":"2020-12-09 12"},"coordinates":[5982,3934]},{"type":"Point","properties":{"Station_ID":"RI-PR-33","Station_Nam":"GREENVILLE 0.7 NNW, RI","Latitude":"41.88890","Longitude":"-71.56030","Snowdepth":"1.000","Units":"in","Rept_Date":"2020-12-09 12"},"coordinates":[6009,3895]},{"type":"Point","properties":{"Station_ID":"RI-KN-14","Station_Nam":"GREENE 1.4 E, RI","Latitude":"41.69155","Longitude":"-71.72380","Snowdepth":"1.000","Units":"in","Rept_Date":"2020-12-09 12"},"coordinates":[5970,3773]},{"type":"Point","properties":{"Station_ID":"PSM","Station_Nam":"PEASE INTL TRADEPORT AP","Latitude":"43.07810","Longitude":"-70.82330","Snowdepth":"1.000","Units":"in","Rept_Date":"2020-12-09 12"},"coordinates":[6182,4633]},{"type":"Point","properties":{"Station_ID":"PLFV1","Station_Nam":"PLAINFIELD","Latitude":"44.27610","Longitude":"-72.41500","Snowdepth":"1.000","Units":"in","Rept_Date":"2020-12-09 12"},"coordinates":[5807,5376]},{"type":"Point","properties":{"Station_ID":"PHEW3","Station_Nam":"PHELPS","Latitude":"46.06630","Longitude":"-89.07520","Snowdepth":"1.000","Units":"in","Rept_Date":"2020-12-09 13"},"coordinates":[1879,6487]},{"type":"Point","properties":{"Station_ID":"PENN6","Station_Nam":"PENDLETON 1 NE","Latitude":"43.10100","Longitude":"-78.71380","Snowdepth":"1.000","Units":"in","Rept_Date":"2020-12-09 13"},"coordinates":[4322,4647]},{"type":"Point","properties":{"Station_ID":"PA-FR-1","Station_Nam":"TIONESTA 7.3 SSE, PA","Latitude":"41.39404","Longitude":"-79.41310","Snowdepth":"1.000","Units":"in","Rept_Date":"2020-12-09 12"},"coordinates":[4157,3588]},{"type":"Point","properties":{"Station_ID":"PA-CB-12","Station_Nam":"BOWMANSTOWN 3.0 WSW, PA","Latitude":"40.77897","Longitude":"-75.71130","Snowdepth":"1.000","Units":"in","Rept_Date":"2020-12-09 19"},"coordinates":[5030,3207]},{"type":"Point","properties":{"Station_ID":"OXFM3","Station_Nam":"BUFFUMVILLE LAKE","Latitude":"42.11630","Longitude":"-71.90740","Snowdepth":"1.000","Units":"in","Rept_Date":"2020-12-09 12"},"coordinates":[5927,4036]},{"type":"Point","properties":{"Station_ID":"OBEO1","Station_Nam":"OBERLIN,OH","Latitude":"41.26670","Longitude":"-82.21670","Snowdepth":"1.000","Units":"in","Rept_Date":"2020-12-09 13"},"coordinates":[3496,3509]},{"type":"Point","properties":{"Station_ID":"NY-YT-8","Station_Nam":"MIDDLESEX 3.5 S, NY","Latitude":"42.65390","Longitude":"-77.26600","Snowdepth":"1.000","Units":"in","Rept_Date":"2020-12-09 14"},"coordinates":[4663,4370]},{"type":"Point","properties":{"Station_ID":"NY-TM-4","Station_Nam":"GROTON 0.5 NW, NY","Latitude":"42.59127","Longitude":"-76.37200","Snowdepth":"1.000","Units":"in","Rept_Date":"2020-12-09 12"},"coordinates":[4874,4331]},{"type":"Point","properties":{"Station_ID":"NY-TM-3","Station_Nam":"ITHACA 1.1 SE, NY","Latitude":"42.43173","Longitude":"-76.48860","Snowdepth":"1.000","Units":"in","Rept_Date":"2020-12-09 13"},"coordinates":[4847,4232]},{"type":"Point","properties":{"Station_ID":"NY-TG-15","Station_Nam":"BERKSHIRE 1.9 ENE, NY","Latitude":"42.31910","Longitude":"-76.21940","Snowdepth":"1.000","Units":"in","Rept_Date":"2020-12-09 13"},"coordinates":[4910,4162]},{"type":"Point","properties":{"Station_ID":"NY-SY-1","Station_Nam":"SMITH VALLEY 1.9 SE, NY","Latitude":"42.39072","Longitude":"-76.71760","Snowdepth":"1.000","Units":"in","Rept_Date":"2020-12-09 12"},"coordinates":[4793,4207]},{"type":"Point","properties":{"Station_ID":"NY-ST-41","Station_Nam":"PAINTED POST 0.7 SSE, NY","Latitude":"42.15370","Longitude":"-77.08690","Snowdepth":"1.000","Units":"in","Rept_Date":"2020-12-09 17"},"coordinates":[4706,4059]},{"type":"Point","properties":{"Station_ID":"NY-OT-11","Station_Nam":"HARTWICK, NY","Latitude":"42.65990","Longitude":"-75.05000","Snowdepth":"1.000","Units":"in","Rept_Date":"2020-12-09 17"},"coordinates":[5186,4374]},{"type":"Point","properties":{"Station_ID":"NY-OS-20","Station_Nam":"FULTON 0.2 W, NY","Latitude":"43.31650","Longitude":"-76.41850","Snowdepth":"1.000","Units":"in","Rept_Date":"2020-12-09 12"},"coordinates":[4863,4781]},{"type":"Point","properties":{"Station_ID":"NY-OL-5","Station_Nam":"MEDINA 0.4 WNW, NY","Latitude":"43.22300","Longitude":"-78.39539","Snowdepth":"1.000","Units":"in","Rept_Date":"2020-12-09 13"},"coordinates":[4397,4723]},{"type":"Point","properties":{"Station_ID":"NY-OG-72","Station_Nam":"LIVERPOOL 4.5 N, NY","Latitude":"43.17016","Longitude":"-76.22385","Snowdepth":"1.000","Units":"in","Rept_Date":"2020-12-09 13"},"coordinates":[4909,4690]},{"type":"Point","properties":{"Station_ID":"NY-OG-61","Station_Nam":"SKANEATELES 0.8 NNW, NY","Latitude":"42.95538","Longitude":"-76.43362","Snowdepth":"1.000","Units":"in","Rept_Date":"2020-12-09 12"},"coordinates":[4860,4557]},{"type":"Point","properties":{"Station_ID":"NY-OD-43","Station_Nam":"HOLLAND PATENT 1.1 WNW, NY","Latitude":"43.24707","Longitude":"-75.27750","Snowdepth":"1.000","Units":"in","Rept_Date":"2020-12-09 12"},"coordinates":[5132,4738]},{"type":"Point","properties":{"Station_ID":"NY-OD-21","Station_Nam":"ROME 4.8 SSE, NY","Latitude":"43.16000","Longitude":"-75.46000","Snowdepth":"1.000","Units":"in","Rept_Date":"2020-12-09 12"},"coordinates":[5089,4684]},{"type":"Point","properties":{"Station_ID":"NY-NG-32","Station_Nam":"RAPIDS 1.0 SW, NY","Latitude":"43.09180","Longitude":"-78.65680","Snowdepth":"1.000","Units":"in","Rept_Date":"2020-12-09 13"},"coordinates":[4336,4641]},{"type":"Point","properties":{"Station_ID":"NY-JF-32","Station_Nam":"WATERTOWN 1.0 ESE, NY","Latitude":"43.96693","Longitude":"-75.89204","Snowdepth":"1.000","Units":"in","Rept_Date":"2020-12-09 12"},"coordinates":[4987,5184]},{"type":"Point","properties":{"Station_ID":"NY-FK-9","Station_Nam":"GABRIELS 1.3 SE, NY","Latitude":"44.41934","Longitude":"-74.16194","Snowdepth":"1.000","Units":"in","Rept_Date":"2020-12-09 12"},"coordinates":[5395,5465]},{"type":"Point","properties":{"Station_ID":"NY-FK-7","Station_Nam":"SARANAC LAKE 6.2 N, NY","Latitude":"44.41359","Longitude":"-74.15211","Snowdepth":"1.000","Units":"in","Rept_Date":"2020-12-09 12"},"coordinates":[5398,5462]},{"type":"Point","properties":{"Station_ID":"NY-ES-11","Station_Nam":"VERMONTVILLE 2.8 S, NY","Latitude":"44.41205","Longitude":"-74.06760","Snowdepth":"1.000","Units":"in","Rept_Date":"2020-12-09 12"},"coordinates":[5418,5461]},{"type":"Point","properties":{"Station_ID":"NY-ER-177","Station_Nam":"CLARENCE 3.8 SSW, NY","Latitude":"42.96084","Longitude":"-78.66569","Snowdepth":"1.000","Units":"in","Rept_Date":"2020-12-09 12"},"coordinates":[4334,4560]},{"type":"Point","properties":{"Station_ID":"NY-ER-102","Station_Nam":"CHEEKTOWAGA 2.7 NE, NY","Latitude":"42.94119","Longitude":"-78.71933","Snowdepth":"1.000","Units":"in","Rept_Date":"2020-12-09 12"},"coordinates":[4321,4548]},{"type":"Point","properties":{"Station_ID":"NY-DL-28","Station_Nam":"FLEISCHMANNS 5.7 N, NY","Latitude":"42.23779","Longitude":"-74.52335","Snowdepth":"1.000","Units":"in","Rept_Date":"2020-12-09 12"},"coordinates":[5310,4112]},{"type":"Point","properties":{"Station_ID":"NY-CY-26","Station_Nam":"AURORA 2.4 N, NY","Latitude":"42.78638","Longitude":"-76.70340","Snowdepth":"1.000","Units":"in","Rept_Date":"2020-12-09 13"},"coordinates":[4796,4452]},{"type":"Point","properties":{"Station_ID":"NY-CY-14","Station_Nam":"CAYUGA 4.0 NNE, NY","Latitude":"42.97516","Longitude":"-76.70720","Snowdepth":"1.000","Units":"in","Rept_Date":"2020-12-09 12"},"coordinates":[4795,4569]},{"type":"Point","properties":{"Station_ID":"NY-CR-1","Station_Nam":"FREETOWN 1.0 NE, NY","Latitude":"42.53299","Longitude":"-76.02111","Snowdepth":"1.000","Units":"in","Rept_Date":"2020-12-09 12"},"coordinates":[4957,4295]},{"type":"Point","properties":{"Station_ID":"NY-CM-6","Station_Nam":"ELMIRA 3.2 E, NY","Latitude":"42.08900","Longitude":"-76.74890","Snowdepth":"1.000","Units":"in","Rept_Date":"2020-12-09 14"},"coordinates":[4785,4019]},{"type":"Point","properties":{"Station_ID":"NVLV1","Station_Nam":"NASHVILLE","Latitude":"44.44970","Longitude":"-72.92640","Snowdepth":"1.000","Units":"in","Rept_Date":"2020-12-09 12"},"coordinates":[5687,5484]},{"type":"Point","properties":{"Station_ID":"NH-SL-3","Station_Nam":"WEST UNITY 0.7 WSW, NH","Latitude":"43.28652","Longitude":"-72.32970","Snowdepth":"1.000","Units":"in","Rept_Date":"2020-12-09 12"},"coordinates":[5827,4762]},{"type":"Point","properties":{"Station_ID":"NH-RC-80","Station_Nam":"NEWTON 1.8 NW, NH","Latitude":"42.88410","Longitude":"-71.06330","Snowdepth":"1.000","Units":"in","Rept_Date":"2020-12-09 14"},"coordinates":[6126,4513]},{"type":"Point","properties":{"Station_ID":"NH-MR-63","Station_Nam":"SUTTON MILLS 0.1 ENE, NH","Latitude":"43.33522","Longitude":"-71.95126","Snowdepth":"1.000","Units":"in","Rept_Date":"2020-12-09 12"},"coordinates":[5916,4793]},{"type":"Point","properties":{"Station_ID":"NH-GR-46","Station_Nam":"ASHLAND 2.4 NNW, NH","Latitude":"43.72963","Longitude":"-71.64213","Snowdepth":"1.000","Units":"in","Rept_Date":"2020-12-09 12"},"coordinates":[5989,5037]},{"type":"Point","properties":{"Station_ID":"NH-CR-26","Station_Nam":"CENTER SANDWICH 4.9 E, NH","Latitude":"43.80976","Longitude":"-71.34150","Snowdepth":"1.000","Units":"in","Rept_Date":"2020-12-09 12"},"coordinates":[6060,5087]},{"type":"Point","properties":{"Station_ID":"MXON6","Station_Nam":"MEXICO","Latitude":"43.43830","Longitude":"-76.26560","Snowdepth":"1.000","Units":"in","Rept_Date":"2020-12-09 12"},"coordinates":[4899,4856]},{"type":"Point","properties":{"Station_ID":"MQT","Station_Nam":"MARQUETTE, MI","Latitude":"46.53140","Longitude":"-87.54920","Snowdepth":"1.000","Units":"in","Rept_Date":"2020-12-10 06"},"coordinates":[2239,6776]},{"type":"Point","properties":{"Station_ID":"MNBW2","Station_Nam":"MT. NEBO 1S","Latitude":"38.18790","Longitude":"-80.84840","Snowdepth":"1.000","Units":"in","Rept_Date":"2020-12-09 12"},"coordinates":[3819,1599]},{"type":"Point","properties":{"Station_ID":"MN-SL-15","Station_Nam":"CHISHOLM 0.4 WSW, MN","Latitude":"47.48557","Longitude":"-92.88690","Snowdepth":"1.000","Units":"in","Rept_Date":"2020-12-09 13"},"coordinates":[981,7368]},{"type":"Point","properties":{"Station_ID":"MN-SL-108","Station_Nam":"IRON JUNCTION 3.4 NNW, MN","Latitude":"47.46150","Longitude":"-92.63130","Snowdepth":"1.000","Units":"in","Rept_Date":"2020-12-09 13"},"coordinates":[1041,7353]},{"type":"Point","properties":{"Station_ID":"MLT","Station_Nam":"MILLINOCKET MUNICIPAL AIRPORT","Latitude":"45.64780","Longitude":"-68.68610","Snowdepth":"1.000","Units":"in","Rept_Date":"2020-12-09 12"},"coordinates":[6686,6227]},{"type":"Point","properties":{"Station_ID":"MIEM4","Station_Nam":"MICHIGAMME 3WNW","Latitude":"46.54530","Longitude":"-88.18000","Snowdepth":"1.000","Units":"in","Rept_Date":"2020-12-09 13"},"coordinates":[2091,6784]},{"type":"Point","properties":{"Station_ID":"MI-HG-1","Station_Nam":"HOUGHTON 1.6 ESE, MI","Latitude":"47.10774","Longitude":"-88.52940","Snowdepth":"1.000","Units":"in","Rept_Date":"2020-12-09 13"},"coordinates":[2008,7133]},{"type":"Point","properties":{"Station_ID":"MEDN6","Station_Nam":"MEDINA","Latitude":"43.20930","Longitude":"-78.38940","Snowdepth":"1.000","Units":"in","Rept_Date":"2020-12-09 13"},"coordinates":[4399,4714]},{"type":"Point","properties":{"Station_ID":"MECN6","Station_Nam":"MECKLENBURG 4 SW","Latitude":"42.44220","Longitude":"-76.75740","Snowdepth":"1.000","Units":"in","Rept_Date":"2020-12-09 12"},"coordinates":[4783,4238]},{"type":"Point","properties":{"Station_ID":"ME-WL-8","Station_Nam":"WINTERPORT 2.9 N, ME","Latitude":"44.69369","Longitude":"-68.84800","Snowdepth":"1.000","Units":"in","Rept_Date":"2020-12-09 12"},"coordinates":[6648,5635]},{"type":"Point","properties":{"Station_ID":"ME-SG-1","Station_Nam":"BATH 1.1 WSW, ME","Latitude":"43.93063","Longitude":"-69.85730","Snowdepth":"1.000","Units":"in","Rept_Date":"2020-12-09 12"},"coordinates":[6410,5162]},{"type":"Point","properties":{"Station_ID":"ME-HN-42","Station_Nam":"BUCKSPORT 3.3 NNW, ME","Latitude":"44.64983","Longitude":"-68.82330","Snowdepth":"1.000","Units":"in","Rept_Date":"2020-12-09 12"},"coordinates":[6654,5608]},{"type":"Point","properties":{"Station_ID":"ME-CM-98","Station_Nam":"SEBAGO 2.4 ESE, ME","Latitude":"43.88000","Longitude":"-70.63000","Snowdepth":"1.000","Units":"in","Rept_Date":"2020-12-09 16"},"coordinates":[6228,5131]},{"type":"Point","properties":{"Station_ID":"MA-PL-5","Station_Nam":"KINGSTON 3.3 WNW, MA","Latitude":"42.01702","Longitude":"-70.77200","Snowdepth":"1.000","Units":"in","Rept_Date":"2020-12-09 12"},"coordinates":[6194,3975]},{"type":"Point","properties":{"Station_ID":"MA-MD-156","Station_Nam":"MARLBOROUGH 2.8 ENE, MA","Latitude":"42.37021","Longitude":"-71.50011","Snowdepth":"1.000","Units":"in","Rept_Date":"2020-12-09 11"},"coordinates":[6023,4194]},{"type":"Point","properties":{"Station_ID":"MA-MD-125","Station_Nam":"TEWKSBURY 3.6 SSE, MA","Latitude":"42.57083","Longitude":"-71.19813","Snowdepth":"1.000","Units":"in","Rept_Date":"2020-12-09 12"},"coordinates":[6094,4318]},{"type":"Point","properties":{"Station_ID":"MA-HS-7","Station_Nam":"PLAINFIELD 2.2 SW, MA","Latitude":"42.49272","Longitude":"-72.94540","Snowdepth":"1.000","Units":"in","Rept_Date":"2020-12-09 14"},"coordinates":[5682,4270]},{"type":"Point","properties":{"Station_ID":"MA-ES-66","Station_Nam":"NORTH ANDOVER 0.3 NW, MA","Latitude":"42.70375","Longitude":"-71.12029","Snowdepth":"1.000","Units":"in","Rept_Date":"2020-12-09 13"},"coordinates":[6112,4401]},{"type":"Point","properties":{"Station_ID":"MA-BA-46","Station_Nam":"EAST FALMOUTH 0.2 ESE, MA","Latitude":"41.57692","Longitude":"-70.55556","Snowdepth":"1.000","Units":"in","Rept_Date":"2020-12-09 12"},"coordinates":[6245,3702]},{"type":"Point","properties":{"Station_ID":"MA-BA-3","Station_Nam":"FALMOUTH 3.0 E, MA","Latitude":"41.55306","Longitude":"-70.55040","Snowdepth":"1.000","Units":"in","Rept_Date":"2020-12-09 12"},"coordinates":[6247,3687]},{"type":"Point","properties":{"Station_ID":"MA-BA-18","Station_Nam":"WAQUOIT 0.6 SSW, MA","Latitude":"41.58182","Longitude":"-70.52570","Snowdepth":"1.000","Units":"in","Rept_Date":"2020-12-09 12"},"coordinates":[6253,3705]},{"type":"Point","properties":{"Station_ID":"MA-BA-11","Station_Nam":"EAST FALMOUTH 1.4 ESE, MA","Latitude":"41.57378","Longitude":"-70.53210","Snowdepth":"1.000","Units":"in","Rept_Date":"2020-12-09 13"},"coordinates":[6251,3700]},{"type":"Point","properties":{"Station_ID":"LVDW3","Station_Nam":"LAC VIEUX DESERT","Latitude":"46.12110","Longitude":"-89.07580","Snowdepth":"1.000","Units":"in","Rept_Date":"2020-12-09 13"},"coordinates":[1879,6521]},{"type":"Point","properties":{"Station_ID":"LKPN3","Station_Nam":"LAKEPORT 2","Latitude":"43.54910","Longitude":"-71.46450","Snowdepth":"1.000","Units":"in","Rept_Date":"2020-12-09 12"},"coordinates":[6031,4925]},{"type":"Point","properties":{"Station_ID":"LERN6","Station_Nam":"LE ROY 1E","Latitude":"42.97360","Longitude":"-77.96710","Snowdepth":"1.000","Units":"in","Rept_Date":"2020-12-09 13"},"coordinates":[4498,4568]},{"type":"Point","properties":{"Station_ID":"LBRM5","Station_Nam":"LAKE BRONSON DAM","Latitude":"48.72410","Longitude":"-96.62180","Snowdepth":"1.000","Units":"in","Rept_Date":"2020-12-09 14"},"coordinates":[100,8136]},{"type":"Point","properties":{"Station_ID":"KZAP1","Station_Nam":"KINZUA","Latitude":"41.90060","Longitude":"-79.11860","Snowdepth":"1.000","Units":"in","Rept_Date":"2020-12-09 12"},"coordinates":[4227,3902]},{"type":"Point","properties":{"Station_ID":"KUKN6","Station_Nam":"LAKESIDE","Latitude":"43.37140","Longitude":"-78.26630","Snowdepth":"1.000","Units":"in","Rept_Date":"2020-12-09 13"},"coordinates":[4428,4815]},{"type":"Point","properties":{"Station_ID":"KSYR","Station_Nam":"SYRACUSE HANCOCK INTERNATIONAL  AIRPORT","Latitude":"43.11666","Longitude":"-76.10000","Snowdepth":"1.000","Units":"in","Rept_Date":"2020-12-10 00"},"coordinates":[4938,4657]},{"type":"Point","properties":{"Station_ID":"KROC","Station_Nam":"GREATER ROCHESTER INTERNATIONAL","Latitude":"43.11666","Longitude":"-77.68333","Snowdepth":"1.000","Units":"in","Rept_Date":"2020-12-09 18"},"coordinates":[4565,4657]},{"type":"Point","properties":{"Station_ID":"KPSM","Station_Nam":"PEASE AIR FORCE BASE / PORTSMOUTH","Latitude":"43.08333","Longitude":"-70.81666","Snowdepth":"1.000","Units":"in","Rept_Date":"2020-12-10 00"},"coordinates":[6184,4636]},{"type":"Point","properties":{"Station_ID":"KBUF","Station_Nam":"GREATER BUFFALO INTERNATIONAL  AIRPORT","Latitude":"42.93333","Longitude":"-78.73333","Snowdepth":"1.000","Units":"in","Rept_Date":"2020-12-10 00"},"coordinates":[4318,4543]},{"type":"Point","properties":{"Station_ID":"KBGR","Station_Nam":"BANGOR INTL AIRPORT","Latitude":"44.80000","Longitude":"-68.81666","Snowdepth":"1.000","Units":"in","Rept_Date":"2020-12-10 06"},"coordinates":[6655,5701]},{"type":"Point","properties":{"Station_ID":"KALB","Station_Nam":"ALBANY INTERNATIONAL AIRPORT","Latitude":"42.75000","Longitude":"-73.80000","Snowdepth":"1.000","Units":"in","Rept_Date":"2020-12-10 00"},"coordinates":[5481,4429]},{"type":"Point","properties":{"Station_ID":"KABM5","Station_Nam":"KABETOGAMA LAKE VISITOR CTR","Latitude":"48.40880","Longitude":"-93.04840","Snowdepth":"1.000","Units":"in","Rept_Date":"2020-12-09 13"},"coordinates":[943,7940]},{"type":"Point","properties":{"Station_ID":"JOHV1","Station_Nam":"JOHNSON 2 N","Latitude":"44.65790","Longitude":"-72.67850","Snowdepth":"1.000","Units":"in","Rept_Date":"2020-12-09 12"},"coordinates":[5745,5613]},{"type":"Point","properties":{"Station_ID":"IWOM4","Station_Nam":"IRONWOOD#2","Latitude":"46.46520","Longitude":"-90.13820","Snowdepth":"1.000","Units":"in","Rept_Date":"2020-12-09 13"},"coordinates":[1629,6734]},{"type":"Point","properties":{"Station_ID":"ITHN6","Station_Nam":"ITHACA,NY","Latitude":"42.45000","Longitude":"-76.45000","Snowdepth":"1.000","Units":"in","Rept_Date":"2020-12-09 12"},"coordinates":[4856,4243]},{"type":"Point","properties":{"Station_ID":"INDN6","Station_Nam":"INDIAN LAKE","Latitude":"43.75500","Longitude":"-74.27560","Snowdepth":"1.000","Units":"in","Rept_Date":"2020-12-09 13"},"coordinates":[5368,5053]},{"type":"Point","properties":{"Station_ID":"INDM5","Station_Nam":"INDUS,MN","Latitude":"48.61670","Longitude":"-93.90000","Snowdepth":"1.000","Units":"in","Rept_Date":"2020-12-09 14"},"coordinates":[742,8069]},{"type":"Point","properties":{"Station_ID":"HSPV2","Station_Nam":"HOT SPRINGS","Latitude":"37.99690","Longitude":"-79.83160","Snowdepth":"1.000","Units":"in","Rept_Date":"2020-12-09 12"},"coordinates":[4059,1480]},{"type":"Point","properties":{"Station_ID":"HRKM3","Station_Nam":"HARDWICK 2 ESE","Latitude":"42.34570","Longitude":"-72.15410","Snowdepth":"1.000","Units":"in","Rept_Date":"2020-12-09 13"},"coordinates":[5869,4179]},{"type":"Point","properties":{"Station_ID":"HBHM4","Station_Nam":"HARBOR BEACH,MI","Latitude":"43.83330","Longitude":"-82.63330","Snowdepth":"1.000","Units":"in","Rept_Date":"2020-12-09 13"},"coordinates":[3398,5102]},{"type":"Point","properties":{"Station_ID":"GLLM5","Station_Nam":"GULL LAKE DAM","Latitude":"46.41190","Longitude":"-94.35000","Snowdepth":"1.000","Units":"in","Rept_Date":"2020-12-09 14"},"coordinates":[636,6701]},{"type":"Point","properties":{"Station_ID":"FVLN6","Station_Nam":"FREEVILLE,NY","Latitude":"42.51670","Longitude":"-76.33330","Snowdepth":"1.000","Units":"in","Rept_Date":"2020-12-09 13"},"coordinates":[4883,4285]},{"type":"Point","properties":{"Station_ID":"ESDN3","Station_Nam":"EAST SANDWICH","Latitude":"43.80990","Longitude":"-71.34250","Snowdepth":"1.000","Units":"in","Rept_Date":"2020-12-09 11"},"coordinates":[6060,5087]},{"type":"Point","properties":{"Station_ID":"EPPN3","Station_Nam":"EPPING","Latitude":"43.03020","Longitude":"-71.08380","Snowdepth":"1.000","Units":"in","Rept_Date":"2020-12-09 12"},"coordinates":[6121,4603]},{"type":"Point","properties":{"Station_ID":"ENFV1","Station_Nam":"ENOSBURG FALLS 2","Latitude":"44.90960","Longitude":"-72.81370","Snowdepth":"1.000","Units":"in","Rept_Date":"2020-12-09 10"},"coordinates":[5713,5769]},{"type":"Point","properties":{"Station_ID":"EMLN3","Station_Nam":"EAST MILFORD","Latitude":"42.82660","Longitude":"-71.62600","Snowdepth":"1.000","Units":"in","Rept_Date":"2020-12-09 12"},"coordinates":[5993,4477]},{"type":"Point","properties":{"Station_ID":"EMBM5","Station_Nam":"EMBARASS,MN","Latitude":"47.65810","Longitude":"-92.19580","Snowdepth":"1.000","Units":"in","Rept_Date":"2020-12-09 10"},"coordinates":[1144,7475]},{"type":"Point","properties":{"Station_ID":"ELNW2","Station_Nam":"ELKINS AIRPORT SNOW OBSERVATION","Latitude":"38.93650","Longitude":"-79.84320","Snowdepth":"1.000","Units":"in","Rept_Date":"2020-12-09 12"},"coordinates":[4056,2063]},{"type":"Point","properties":{"Station_ID":"CTYR1","Station_Nam":"COVENTRY 2","Latitude":"41.66840","Longitude":"-71.55710","Snowdepth":"1.000","Units":"in","Rept_Date":"2020-12-09 12"},"coordinates":[6009,3758]},{"type":"Point","properties":{"Station_ID":"CT-TL-27","Station_Nam":"WILLINGTON 2.7 SE, CT","Latitude":"41.83890","Longitude":"-72.22430","Snowdepth":"1.000","Units":"in","Rept_Date":"2020-12-09 12"},"coordinates":[5852,3864]},{"type":"Point","properties":{"Station_ID":"CT-NL-5","Station_Nam":"OAKDALE 2.6 WNW, CT","Latitude":"41.47524","Longitude":"-72.20550","Snowdepth":"1.000","Units":"in","Rept_Date":"2020-12-09 12"},"coordinates":[5857,3639]},{"type":"Point","properties":{"Station_ID":"CT-LT-9","Station_Nam":"NEW HARTFORD CENTER 3.2 SW, CT","Latitude":"41.84170","Longitude":"-73.00920","Snowdepth":"1.000","Units":"in","Rept_Date":"2020-12-09 12"},"coordinates":[5667,3866]},{"type":"Point","properties":{"Station_ID":"CRLM5","Station_Nam":"CROSS LAKE DAM","Latitude":"46.66930","Longitude":"-94.11060","Snowdepth":"1.000","Units":"in","Rept_Date":"2020-12-09 14"},"coordinates":[692,6861]},{"type":"Point","properties":{"Station_ID":"CLKM4","Station_Nam":"CLARKSBURG","Latitude":"46.49910","Longitude":"-87.84500","Snowdepth":"1.000","Units":"in","Rept_Date":"2020-12-09 12"},"coordinates":[2169,6755]},{"type":"Point","properties":{"Station_ID":"CAN-QC-56","Station_Nam":"SUTTON 2.6 N, CAN","Latitude":"45.13119","Longitude":"-72.61218","Snowdepth":"1.000","Units":"in","Rept_Date":"2020-12-09 12"},"coordinates":[5761,5907]},{"type":"Point","properties":{"Station_ID":"CAN-MB-56","Station_Nam":"WINNIPEG 7.6 ENE, CAN","Latitude":"49.93264","Longitude":"-97.04752","Snowdepth":"1.000","Units":"in","Rept_Date":"2020-12-09 14"},"coordinates":[0,8886]},{"type":"Point","properties":{"Station_ID":"CAAW2","Station_Nam":"CANAAN VALLEY","Latitude":"39.05890","Longitude":"-79.44030","Snowdepth":"1.000","Units":"in","Rept_Date":"2020-12-09 14"},"coordinates":[4151,2139]},{"type":"Point","properties":{"Station_ID":"BTHM1","Station_Nam":"BATH","Latitude":"43.93160","Longitude":"-69.85640","Snowdepth":"1.000","Units":"in","Rept_Date":"2020-12-09 10"},"coordinates":[6410,5163]},{"type":"Point","properties":{"Station_ID":"BSSW2","Station_Nam":"BECKLEY AIRPORT SNOW OBSERVATION","Latitude":"37.78690","Longitude":"-81.11370","Snowdepth":"1.000","Units":"in","Rept_Date":"2020-12-09 12"},"coordinates":[3756,1350]},{"type":"Point","properties":{"Station_ID":"BGRM1","Station_Nam":"BANGOR FSS","Latitude":"44.80440","Longitude":"-68.81330","Snowdepth":"1.000","Units":"in","Rept_Date":"2020-12-10 06"},"coordinates":[6656,5704]},{"type":"Point","properties":{"Station_ID":"BAKC3","Station_Nam":"BAKERSVILLE","Latitude":"41.84180","Longitude":"-73.00850","Snowdepth":"1.000","Units":"in","Rept_Date":"2020-12-09 12"},"coordinates":[5667,3866]},