{"type":"Topology","objects":{"snowdepth_geo":{"type":"GeometryCollection","name":"snowdepth","crs":{"type":"name","properties":{"name":"urn:ogc:def:crs:OGC:1.3:CRS84"}},"geometries":[{"type":"Point","properties":{"Station_ID":"BRDM1","Station_Nam":"BRIDGEWATER","Latitude":"46.42870","Longitude":"-67.84370","Snowdepth":"196.000","Units":"in","Rept_Date":"2020-03-21 22"},"coordinates":[6899,4786]},{"type":"Point","properties":{"Station_ID":"PRKM4","Station_Nam":"MUNISING EAST","Latitude":"46.42580","Longitude":"-86.62000","Snowdepth":"76.500","Units":"in","Rept_Date":"2020-03-22 06"},"coordinates":[2492,4783]},{"type":"Point","properties":{"Station_ID":"OGIQ6","Station_Nam":"OGOKI CAMP","Latitude":"50.76680","Longitude":"-87.85820","Snowdepth":"61.100","Units":"in","Rept_Date":"2020-03-22 06"},"coordinates":[2202,9054]},{"type":"Point","properties":{"Station_ID":"HTLN3","Station_Nam":"HERMIT LAKE SNOWPLOT","Latitude":"44.26130","Longitude":"-71.28330","Snowdepth":"57.000","Units":"in","Rept_Date":"2020-03-21 09"},"coordinates":[6092,2653]},{"type":"Point","properties":{"Station_ID":"HVCN3","Station_Nam":"HARVARD CABIN SNOWPLOT","Latitude":"44.26630","Longitude":"-71.27790","Snowdepth":"55.000","Units":"in","Rept_Date":"2020-03-21 10"},"coordinates":[6093,2658]},{"type":"Point","properties":{"Station_ID":"PDLM4","Station_Nam":"PAINESDALE","Latitude":"47.04160","Longitude":"-88.67170","Snowdepth":"49.000","Units":"in","Rept_Date":"2020-03-21 12"},"coordinates":[2011,5389]},{"type":"Point","properties":{"Station_ID":"DVLQ6","Station_Nam":"DEVIOUS LAKE","Latitude":"49.19890","Longitude":"-87.76440","Snowdepth":"43.460","Units":"in","Rept_Date":"2020-03-22 06"},"coordinates":[2224,7512]},{"type":"Point","properties":{"Station_ID":"GMSM4","Station_Nam":"GRAND MARAIS 10S","Latitude":"46.50940","Longitude":"-85.96310","Snowdepth":"43.000","Units":"in","Rept_Date":"2020-03-21 11"},"coordinates":[2646,4865]},{"type":"Point","properties":{"Station_ID":"MNSM4","Station_Nam":"MUNISING","Latitude":"46.41210","Longitude":"-86.66250","Snowdepth":"37.000","Units":"in","Rept_Date":"2020-03-21 10"},"coordinates":[2482,4769]},{"type":"Point","properties":{"Station_ID":"PTLQ6","Station_Nam":"PORTAGE LAKE","Latitude":"49.06950","Longitude":"-86.65940","Snowdepth":"35.710","Units":"in","Rept_Date":"2020-03-22 06"},"coordinates":[2483,7384]},{"type":"Point","properties":{"Station_ID":"MI-BG-3","Station_Nam":"L'ANSE 17.8 SE, MI","Latitude":"46.55730","Longitude":"-88.20770","Snowdepth":"35.000","Units":"in","Rept_Date":"2020-03-21 13"},"coordinates":[2119,4912]},{"type":"Point","properties":{"Station_ID":"KSGM4","Station_Nam":"KEARSARGE","Latitude":"47.27520","Longitude":"-88.41700","Snowdepth":"35.000","Units":"in","Rept_Date":"2020-03-21 12"},"coordinates":[2070,5619]},{"type":"Point","properties":{"Station_ID":"CAN-NL-82","Station_Nam":"GANDER 2.7 NW, CAN","Latitude":"48.97737","Longitude":"-54.63396","Snowdepth":"34.600","Units":"in","Rept_Date":"2020-03-21 10"},"coordinates":[9999,7294]},{"type":"Point","properties":{"Station_ID":"MQT","Station_Nam":"MARQUETTE, MI","Latitude":"46.53140","Longitude":"-87.54920","Snowdepth":"33.000","Units":"in","Rept_Date":"2020-03-22 06"},"coordinates":[2274,4887]},{"type":"Point","properties":{"Station_ID":"HERM4","Station_Nam":"HERMAN,MI","Latitude":"46.65000","Longitude":"-88.33330","Snowdepth":"32.000","Units":"in","Rept_Date":"2020-03-21 13"},"coordinates":[2090,5003]},{"type":"Point","properties":{"Station_ID":"CAN-QC-47","Station_Nam":"SAINTE-FOY 1.8 ENE, CAN","Latitude":"46.76934","Longitude":"-71.27124","Snowdepth":"30.900","Units":"in","Rept_Date":"2020-03-21 12"},"coordinates":[6094,5121]},{"type":"Point","properties":{"Station_ID":"CAN-NB-105","Station_Nam":"SISSON BROOK 3.8 E, CAN","Latitude":"46.98305","Longitude":"-67.32532","Snowdepth":"30.700","Units":"in","Rept_Date":"2020-03-21 12"},"coordinates":[7020,5331]},{"type":"Point","properties":{"Station_ID":"AUDQ6","Station_Nam":"AUDEN","Latitude":"48.52600","Longitude":"-82.57570","Snowdepth":"29.530","Units":"in","Rept_Date":"2020-03-22 06"},"coordinates":[3441,6849]},{"type":"Point","properties":{"Station_ID":"CAN-NB-13","Station_Nam":"BATHURST 3.8 NW, CAN","Latitude":"47.64212","Longitude":"-65.68756","Snowdepth":"29.000","Units":"in","Rept_Date":"2020-03-21 11"},"coordinates":[7405,5980]},{"type":"Point","properties":{"Station_ID":"KISM4","Station_Nam":"K.I. SAWYER WWTP","Latitude":"46.33410","Longitude":"-87.37790","Snowdepth":"28.000","Units":"in","Rept_Date":"2020-03-21 12"},"coordinates":[2314,4693]},{"type":"Point","properties":{"Station_ID":"IBLM5","Station_Nam":"ISABELLA 14W","Latitude":"47.59360","Longitude":"-91.65140","Snowdepth":"28.000","Units":"in","Rept_Date":"2020-03-21 14"},"coordinates":[1311,5932]},{"type":"Point","properties":{"Station_ID":"SVBQ6","Station_Nam":"SAVANT BASE","Latitude":"50.28730","Longitude":"-90.65670","Snowdepth":"27.720","Units":"in","Rept_Date":"2020-03-22 06"},"coordinates":[1545,8582]},{"type":"Point","properties":{"Station_ID":"TRIQ6","Station_Nam":"TRIO LAKE","Latitude":"49.22880","Longitude":"-87.22920","Snowdepth":"27.440","Units":"in","Rept_Date":"2020-03-22 06"},"coordinates":[2349,7541]},{"type":"Point","properties":{"Station_ID":"VANM1","Station_Nam":"VAN BUREN","Latitude":"47.16600","Longitude":"-67.93900","Snowdepth":"27.000","Units":"in","Rept_Date":"2020-03-21 11"},"coordinates":[6876,5511]},{"type":"Point","properties":{"Station_ID":"CARM1","Station_Nam":"CARIBOU WFO","Latitude":"46.86810","Longitude":"-68.01250","Snowdepth":"27.000","Units":"in","Rept_Date":"2020-03-22 04"},"coordinates":[6859,5218]},{"type":"Point","properties":{"Station_ID":"CAN-NB-11","Station_Nam":"MIRAMICHI 3.3 S, CAN","Latitude":"46.99343","Longitude":"-65.50690","Snowdepth":"27.000","Units":"in","Rept_Date":"2020-03-21 11"},"coordinates":[7447,5341]},{"type":"Point","properties":{"Station_ID":"FISM1","Station_Nam":"FORT KENT COOP","Latitude":"47.23850","Longitude":"-68.61240","Snowdepth":"26.000","Units":"in","Rept_Date":"2020-03-21 11"},"coordinates":[6718,5583]},{"type":"Point","properties":{"Station_ID":"KABQ6","Station_Nam":"CAB LAKE","Latitude":"49.59950","Longitude":"-89.17990","Snowdepth":"25.240","Units":"in","Rept_Date":"2020-03-22 06"},"coordinates":[1891,7906]},{"type":"Point","properties":{"Station_ID":"SOCQ6","Station_Nam":"SOCKET LAKE","Latitude":"50.77870","Longitude":"-91.79300","Snowdepth":"24.290","Units":"in","Rept_Date":"2020-03-22 06"},"coordinates":[1278,9066]},{"type":"Point","properties":{"Station_ID":"MI-HG-1","Station_Nam":"HOUGHTON 1.6 ESE, MI","Latitude":"47.10774","Longitude":"-88.52940","Snowdepth":"24.000","Units":"in","Rept_Date":"2020-03-21 13"},"coordinates":[2044,5454]},{"type":"Point","properties":{"Station_ID":"GNLM4","Station_Nam":"GREENLAND 6N","Latitude":"46.87360","Longitude":"-89.10060","Snowdepth":"24.000","Units":"in","Rept_Date":"2020-03-21 12"},"coordinates":[1910,5224]},{"type":"Point","properties":{"Station_ID":"CNRM1","Station_Nam":"CONNOR TWP","Latitude":"46.95830","Longitude":"-68.03330","Snowdepth":"24.000","Units":"in","Rept_Date":"2020-03-21 12"},"coordinates":[6854,5307]},{"type":"Point","properties":{"Station_ID":"KABM5","Station_Nam":"KABETOGAMA LAKE VISITOR CTR","Latitude":"48.40880","Longitude":"-93.04840","Snowdepth":"23.000","Units":"in","Rept_Date":"2020-03-21 12"},"coordinates":[983,6734]},{"type":"Point","properties":{"Station_ID":"WI-VL-9","Station_Nam":"LAND O' LAKES 11.7 W, WI","Latitude":"46.19023","Longitude":"-89.45790","Snowdepth":"22.000","Units":"in","Rept_Date":"2020-03-21 13"},"coordinates":[1826,4551]},{"type":"Point","properties":{"Station_ID":"WI-VL-10","Station_Nam":"LAND O LAKES 4.3 WNW, WI","Latitude":"46.17440","Longitude":"-89.30380","Snowdepth":"22.000","Units":"in","Rept_Date":"2020-03-21 13"},"coordinates":[1862,4536]},{"type":"Point","properties":{"Station_ID":"LNOW3","Station_Nam":"LAND O LAKES","Latitude":"46.19000","Longitude":"-89.45700","Snowdepth":"22.000","Units":"in","Rept_Date":"2020-03-21 12"},"coordinates":[1826,4551]},{"type":"Point","properties":{"Station_ID":"CAN-NB-96","Station_Nam":"SAINT-IGNACE 2.6 NE, CAN","Latitude":"46.71424","Longitude":"-65.05609","Snowdepth":"22.000","Units":"in","Rept_Date":"2020-03-21 11"},"coordinates":[7553,5067]},{"type":"Point","properties":{"Station_ID":"CAN-NB-89","Station_Nam":"MEMRAMCOOK 4.0 W, CAN","Latitude":"46.01133","Longitude":"-64.60244","Snowdepth":"22.000","Units":"in","Rept_Date":"2020-03-21 13"},"coordinates":[7659,4375]},{"type":"Point","properties":{"Station_ID":"CATQ6","Station_Nam":"CAT LAKE","Latitude":"51.72690","Longitude":"-91.82210","Snowdepth":"21.380","Units":"in","Rept_Date":"2020-03-22 06"},"coordinates":[1271,9999]},{"type":"Point","properties":{"Station_ID":"PDGM4","Station_Nam":"PAULDING","Latitude":"46.39760","Longitude":"-89.17940","Snowdepth":"21.000","Units":"in","Rept_Date":"2020-03-21 12"},"coordinates":[1891,4755]},{"type":"Point","properties":{"Station_ID":"MN-IT-23","Station_Nam":"BOVEY 13.4 N, MN","Latitude":"47.48855","Longitude":"-93.43497","Snowdepth":"21.000","Units":"in","Rept_Date":"2020-03-21 13"},"coordinates":[893,5829]},{"type":"Point","properties":{"Station_ID":"MN-IT-10","Station_Nam":"DEER RIVER 3.7 W, MN","Latitude":"47.33564","Longitude":"-93.87514","Snowdepth":"21.000","Units":"in","Rept_Date":"2020-03-21 14"},"coordinates":[789,5678]},{"type":"Point","properties":{"Station_ID":"SUAW3","Station_Nam":"SUAMICO","Latitude":"44.60190","Longitude":"-88.09780","Snowdepth":"20.000","Units":"in","Rept_Date":"2020-03-21 16"},"coordinates":[2145,2988]},{"type":"Point","properties":{"Station_ID":"ME-AR-15","Station_Nam":"PRESQUE ISLE 1.3 WSW, ME","Latitude":"46.67960","Longitude":"-68.01270","Snowdepth":"20.000","Units":"in","Rept_Date":"2020-03-21 12"},"coordinates":[6859,5033]},{"type":"Point","properties":{"Station_ID":"INL","Station_Nam":"FALLS INTERNATIONAL ARPT","Latitude":"48.56640","Longitude":"-93.40310","Snowdepth":"20.000","Units":"in","Rept_Date":"2020-03-22 00"},"coordinates":[900,6889]},{"type":"Point","properties":{"Station_ID":"IFSM5","Station_Nam":"INTERNATIONAL FALLS SNOW","Latitude":"48.57780","Longitude":"-93.39640","Snowdepth":"20.000","Units":"in","Rept_Date":"2020-03-21 12"},"coordinates":[902,6900]},{"type":"Point","properties":{"Station_ID":"HURW3","Station_Nam":"HURLEY","Latitude":"46.46250","Longitude":"-90.19550","Snowdepth":"20.000","Units":"in","Rept_Date":"2020-03-21 13"},"coordinates":[1653,4819]},{"type":"Point","properties":{"Station_ID":"GLDM4","Station_Nam":"GLADSTONE NO. 2","Latitude":"45.84330","Longitude":"-87.03910","Snowdepth":"20.000","Units":"in","Rept_Date":"2020-03-21 11"},"coordinates":[2394,4210]},{"type":"Point","properties":{"Station_ID":"EVRW3","Station_Nam":"EAGLE RIVER-4 E","Latitude":"45.91890","Longitude":"-89.15280","Snowdepth":"20.000","Units":"in","Rept_Date":"2020-03-21 12"},"coordinates":[1898,4284]},{"type":"Point","properties":{"Station_ID":"BBEM4","Station_Nam":"BIG BAY 9SW","Latitude":"46.74620","Longitude":"-87.88160","Snowdepth":"20.000","Units":"in","Rept_Date":"2020-03-21 12"},"coordinates":[2196,5098]},{"type":"Point","properties":{"Station_ID":"MN-IT-17","Station_Nam":"GRAND RAPIDS 6.1 N, MN","Latitude":"47.31165","Longitude":"-93.55036","Snowdepth":"19.500","Units":"in","Rept_Date":"2020-03-21 13"},"coordinates":[866,5655]},{"type":"Point","properties":{"Station_ID":"MI-SH-1","Station_Nam":"MANISTIQUE 2.7 NW, MI","Latitude":"45.99042","Longitude":"-86.28266","Snowdepth":"19.400","Units":"in","Rept_Date":"2020-03-21 13"},"coordinates":[2571,4354]},{"type":"Point","properties":{"Station_ID":"WTNM4","Station_Nam":"WATTON 2WSW","Latitude":"46.52660","Longitude":"-88.64240","Snowdepth":"19.000","Units":"in","Rept_Date":"2020-03-21 12"},"coordinates":[2017,4882]},{"type":"Point","properties":{"Station_ID":"SSMM4","Station_Nam":"SAULT STE MARIE","Latitude":"46.48660","Longitude":"-84.40250","Snowdepth":"19.000","Units":"in","Rept_Date":"2020-03-21 12"},"coordinates":[3013,4843]},{"type":"Point","properties":{"Station_ID":"MIEM4","Station_Nam":"MICHIGAMME 3WNW","Latitude":"46.54530","Longitude":"-88.18000","Snowdepth":"19.000","Units":"in","Rept_Date":"2020-03-21 12"},"coordinates":[2126,4900]},{"type":"Point","properties":{"Station_ID":"LVDW3","Station_Nam":"LAC VIEUX DESERT","Latitude":"46.12110","Longitude":"-89.07580","Snowdepth":"19.000","Units":"in","Rept_Date":"2020-03-21 14"},"coordinates":[1916,4483]},{"type":"Point","properties":{"Station_ID":"LILM1","Station_Nam":"LILLE","Latitude":"47.27770","Longitude":"-68.10520","Snowdepth":"19.000","Units":"in","Rept_Date":"2020-03-21 11"},"coordinates":[6837,5621]},{"type":"Point","properties":{"Station_ID":"ELYM5","Station_Nam":"ELY","Latitude":"47.90560","Longitude":"-91.82830","Snowdepth":"19.000","Units":"in","Rept_Date":"2020-03-21 15"},"coordinates":[1270,6239]},{"type":"Point","properties":{"Station_ID":"ANJM4","Station_Nam":"SNOW PAID OBSERVER FOR KANJ","Latitude":"46.48670","Longitude":"-84.40260","Snowdepth":"19.000","Units":"in","Rept_Date":"2020-03-21 18"},"coordinates":[3013,4843]},{"type":"Point","properties":{"Station_ID":"ANJ","Station_Nam":"SAULT STE MARIE","Latitude":"46.46670","Longitude":"-84.36670","Snowdepth":"19.000","Units":"in","Rept_Date":"2020-03-22 00"},"coordinates":[3021,4823]},{"type":"Point","properties":{"Station_ID":"ALPM4","Station_Nam":"SNOW PAID OBSERVER FOR KAPN","Latitude":"45.03110","Longitude":"-83.55970","Snowdepth":"19.000","Units":"in","Rept_Date":"2020-03-21 12"},"coordinates":[3210,3411]},{"type":"Point","properties":{"Station_ID":"NOHM5","Station_Nam":"NORTHOME","Latitude":"47.83590","Longitude":"-94.25550","Snowdepth":"18.000","Units":"in","Rept_Date":"2020-03-21 12"},"coordinates":[700,6170]},{"type":"Point","properties":{"Station_ID":"MNV905PW","Station_Nam":"ROOSEVELT 5.3 N","Latitude":"48.87933","Longitude":"-95.08224","Snowdepth":"18.000","Units":"in","Rept_Date":"2020-03-21 12"},"coordinates":[506,7197]},{"type":"Point","properties":{"Station_ID":"LEIM5","Station_Nam":"ORR 3E","Latitude":"48.05810","Longitude":"-92.75220","Snowdepth":"18.000","Units":"in","Rept_Date":"2020-03-21 11"},"coordinates":[1053,6389]},{"type":"Point","properties":{"Station_ID":"IRMM4","Station_Nam":"WWTP","Latitude":"46.46670","Longitude":"-90.18330","Snowdepth":"18.000","Units":"in","Rept_Date":"2020-03-21 12"},"coordinates":[1656,4823]},{"type":"Point","properties":{"Station_ID":"EMBM5","Station_Nam":"EMBARASS,MN","Latitude":"47.65810","Longitude":"-92.19580","Snowdepth":"18.000","Units":"in","Rept_Date":"2020-03-21 11"},"coordinates":[1184,5995]},{"type":"Point","properties":{"Station_ID":"BABM5","Station_Nam":"BABBITT","Latitude":"47.71210","Longitude":"-91.95330","Snowdepth":"18.000","Units":"in","Rept_Date":"2020-03-21 12"},"coordinates":[1240,6049]},{"type":"Point","properties":{"Station_ID":"WI-VL-14","Station_Nam":"BOULDER JUNCTION 1.4 NE, WI","Latitude":"46.12840","Longitude":"-89.62470","Snowdepth":"17.500","Units":"in","Rept_Date":"2020-03-21 13"},"coordinates":[1787,4490]},{"type":"Point","properties":{"Station_ID":"CAN-MB-298","Station_Nam":"GARDENTON 4.2 W - SRRCD, CAN","Latitude":"49.09480","Longitude":"-96.75446","Snowdepth":"17.300","Units":"in","Rept_Date":"2020-03-21 14"},"coordinates":[114,7409]},{"type":"Point","properties":{"Station_ID":"WI-BY-2","Station_Nam":"MELLEN 18.6 SW, WI","Latitude":"46.16937","Longitude":"-90.98090","Snowdepth":"17.000","Units":"in","Rept_Date":"2020-03-21 13"},"coordinates":[1469,4531]},{"type":"Point","properties":{"Station_ID":"STGW3","Station_Nam":"ST GERMAIN","Latitude":"45.91550","Longitude":"-89.48940","Snowdepth":"17.000","Units":"in","Rept_Date":"2020-03-21 11"},"coordinates":[1819,4281]},{"type":"Point","properties":{"Station_ID":"RGNM1","Station_Nam":"RANGELEY 2NW","Latitude":"44.98940","Longitude":"-70.67220","Snowdepth":"17.000","Units":"in","Rept_Date":"2020-03-21 14"},"coordinates":[6235,3370]},{"type":"Point","properties":{"Station_ID":"MN-SL-15","Station_Nam":"CHISHOLM 0.4 WSW, MN","Latitude":"47.48557","Longitude":"-92.88690","Snowdepth":"17.000","Units":"in","Rept_Date":"2020-03-21 13"},"coordinates":[1021,5826]},{"type":"Point","properties":{"Station_ID":"GGRM4","Station_Nam":"GREEN GARDEN NO.2","Latitude":"46.45330","Longitude":"-87.30380","Snowdepth":"17.000","Units":"in","Rept_Date":"2020-03-21 12"},"coordinates":[2332,4810]},{"type":"Point","properties":{"Station_ID":"CSLM5","Station_Nam":"CASS LAKE,MN","Latitude":"47.38470","Longitude":"-94.61470","Snowdepth":"17.000","Units":"in","Rept_Date":"2020-03-21 13"},"coordinates":[616,5726]},{"type":"Point","properties":{"Station_ID":"CMKW3","Station_Nam":"CLAM LAKE 4W","Latitude":"46.16940","Longitude":"-90.98080","Snowdepth":"17.000","Units":"in","Rept_Date":"2020-03-21 12"},"coordinates":[1469,4531]},{"type":"Point","properties":{"Station_ID":"CLKM4","Station_Nam":"CLARKSBURG","Latitude":"46.49910","Longitude":"-87.84500","Snowdepth":"17.000","Units":"in","Rept_Date":"2020-03-21 11"},"coordinates":[2205,4855]},{"type":"Point","properties":{"Station_ID":"WI-BY-22","Station_Nam":"MASON 11.5 WNW, WI","Latitude":"46.50198","Longitude":"-91.28339","Snowdepth":"16.000","Units":"in","Rept_Date":"2020-03-21 14"},"coordinates":[1398,4858]},{"type":"Point","properties":{"Station_ID":"VT-CL-3","Station_Nam":"GROTON 4.4 WSW, VT","Latitude":"44.19440","Longitude":"-72.28240","Snowdepth":"16.000","Units":"in","Rept_Date":"2020-03-21 11"},"coordinates":[5857,2587]},{"type":"Point","properties":{"Station_ID":"TOGM5","Station_Nam":"CELINA 2E","Latitude":"47.86630","Longitude":"-93.02660","Snowdepth":"16.000","Units":"in","Rept_Date":"2020-03-21 13"},"coordinates":[989,6200]},{"type":"Point","properties":{"Station_ID":"THRM5","Station_Nam":"THORHULT,MN","Latitude":"48.21670","Longitude":"-95.25000","Snowdepth":"16.000","Units":"in","Rept_Date":"2020-03-21 22"},"coordinates":[467,6545]},{"type":"Point","properties":{"Station_ID":"PRDM4","Station_Nam":"PARADISE","Latitude":"46.60380","Longitude":"-85.03960","Snowdepth":"16.000","Units":"in","Rept_Date":"2020-03-21 10"},"coordinates":[2863,4958]},{"type":"Point","properties":{"Station_ID":"PHEW3","Station_Nam":"PHELPS","Latitude":"46.06630","Longitude":"-89.07520","Snowdepth":"16.000","Units":"in","Rept_Date":"2020-03-21 12"},"coordinates":[1916,4429]},{"type":"Point","properties":{"Station_ID":"MI-GG-4","Station_Nam":"WATERSMEET 5.0 SE, MI","Latitude":"46.20333","Longitude":"-89.13170","Snowdepth":"16.000","Units":"in","Rept_Date":"2020-03-21 14"},"coordinates":[1903,4564]},{"type":"Point","properties":{"Station_ID":"DLHM5","Station_Nam":"DULUTH NWS","Latitude":"46.83680","Longitude":"-92.21080","Snowdepth":"16.000","Units":"in","Rept_Date":"2020-03-22 06"},"coordinates":[1180,5187]},{"type":"Point","properties":{"Station_ID":"DLH","Station_Nam":"DULUTH, MN","Latitude":"46.83690","Longitude":"-92.21030","Snowdepth":"16.000","Units":"in","Rept_Date":"2020-03-22 00"},"coordinates":[1180,5187]},{"type":"Point","properties":{"Station_ID":"COKM5","Station_Nam":"COOK","Latitude":"47.85060","Longitude":"-92.69250","Snowdepth":"16.000","Units":"in","Rept_Date":"2020-03-21 11"},"coordinates":[1067,6185]},{"type":"Point","properties":{"Station_ID":"CAN-NB-18","Station_Nam":"MCLEOD HILL 1.1 ENE, CA","Latitude":"46.02725","Longitude":"-66.67460","Snowdepth":"16.000","Units":"in","Rept_Date":"2020-03-21 12"},"coordinates":[7173,4391]},{"type":"Point","properties":{"Station_ID":"BNDM5","Station_Nam":"ELY 25E","Latitude":"47.97190","Longitude":"-91.44860","Snowdepth":"16.000","Units":"in","Rept_Date":"2020-03-21 12"},"coordinates":[1359,6304]},{"type":"Point","properties":{"Station_ID":"MN-IT-7","Station_Nam":"GRAND RAPIDS 6.2 SSW, MN","Latitude":"47.13687","Longitude":"-93.56660","Snowdepth":"15.700","Units":"in","Rept_Date":"2020-03-21 12"},"coordinates":[862,5483]},{"type":"Point","properties":{"Station_ID":"MI-CP-14","Station_Nam":"SAULT STE. MARIE 2.2 E, MI","Latitude":"46.48933","Longitude":"-84.31971","Snowdepth":"15.500","Units":"in","Rept_Date":"2020-03-21 12"},"coordinates":[3032,4845]},{"type":"Point","properties":{"Station_ID":"WI-IR-3","Station_Nam":"PENCE 0.1 E, WI","Latitude":"46.41555","Longitude":"-90.27013","Snowdepth":"15.000","Units":"in","Rept_Date":"2020-03-21 13"},"coordinates":[1635,4773]},{"type":"Point","properties":{"Station_ID":"VT-OL-12","Station_Nam":"GREENSBORO 3.9 NNE, VT","Latitude":"44.63100","Longitude":"-72.28000","Snowdepth":"15.000","Units":"in","Rept_Date":"2020-03-21 13"},"coordinates":[5858,3017]},{"type":"Point","properties":{"Station_ID":"RPDM4","Station_Nam":"RAPID RIVER 4SSE","Latitude":"45.87270","Longitude":"-86.94960","Snowdepth":"15.000","Units":"in","Rept_Date":"2020-03-21 13"},"coordinates":[2415,4239]},{"type":"Point","properties":{"Station_ID":"MN-SL-108","Station_Nam":"IRON JUNCTION 3.4 NNW, MN","Latitude":"47.46150","Longitude":"-92.63130","Snowdepth":"15.000","Units":"in","Rept_Date":"2020-03-21 13"},"coordinates":[1081,5802]},{"type":"Point","properties":{"Station_ID":"MN-IT-1","Station_Nam":"GRAND RAPIDS 2.0 E, MN","Latitude":"47.22266","Longitude":"-93.49600","Snowdepth":"15.000","Units":"in","Rept_Date":"2020-03-21 14"},"coordinates":[878,5567]},{"type":"Point","properties":{"Station_ID":"MN-CK-6","Station_Nam":"GRAND MARAIS 4.4 W, MN","Latitude":"47.74865","Longitude":"-90.43760","Snowdepth":"15.000","Units":"in","Rept_Date":"2020-03-21 13"},"coordinates":[1596,6085]},{"type":"Point","properties":{"Station_ID":"FTHQ6","Station_Nam":"FORT HOPE","Latitude":"51.55820","Longitude":"-87.90510","Snowdepth":"14.720","Units":"in","Rept_Date":"2020-03-22 06"},"coordinates":[2191,9833]},{"type":"Point","properties":{"Station_ID":"WI-BY-14","Station_Nam":"ASHLAND 9.8 W, WI","Latitude":"46.59742","Longitude":"-91.07856","Snowdepth":"14.500","Units":"in","Rept_Date":"2020-03-21 12"},"coordinates":[1446,4952]},{"type":"Point","properties":{"Station_ID":"NH-CS-10","Station_Nam":"RANDOLPH 1.4 NE, NH","Latitude":"44.38824","Longitude":"-71.26950","Snowdepth":"14.000","Units":"in","Rept_Date":"2020-03-21 12"},"coordinates":[6095,2778]},{"type":"Point","properties":{"Station_ID":"JCBM4","Station_Nam":"JACOBSVILLE","Latitude":"47.00830","Longitude":"-88.43180","Snowdepth":"14.000","Units":"in","Rept_Date":"2020-03-21 11"},"coordinates":[2067,5356]},{"type":"Point","properties":{"Station_ID":"CAN-PE-19","Station_Nam":"CHARLOTTETOWN 6.5 NNW, CAN","Latitude":"46.29235","Longitude":"-63.17271","Snowdepth":"14.000","Units":"in","Rept_Date":"2020-03-21 12"},"coordinates":[7995,4652]},{"type":"Point","properties":{"Station_ID":"CAN-NS-103","Station_Nam":"TRAFALGAR 4.9 WSW, CAN","Latitude":"45.26217","Longitude":"-62.72285","Snowdepth":"14.000","Units":"in","Rept_Date":"2020-03-21 12"},"coordinates":[8101,3638]},{"type":"Point","properties":{"Station_ID":"AVTW3","Station_Nam":"ARBOR VITAE-JOHNSON LAKE","Latitude":"45.89940","Longitude":"-89.72670","Snowdepth":"14.000","Units":"in","Rept_Date":"2020-03-21 11"},"coordinates":[1763,4265]},{"type":"Point","properties":{"Station_ID":"MN-BK-6","Station_Nam":"LAKE PARK 6.0 S, MN","Latitude":"46.79850","Longitude":"-96.12180","Snowdepth":"13.500","Units":"in","Rept_Date":"2020-03-21 13"},"coordinates":[262,5150]},{"type":"Point","properties":{"Station_ID":"WRUM5","Station_Nam":"WARROAD 4W","Latitude":"48.89600","Longitude":"-95.40700","Snowdepth":"13.000","Units":"in","Rept_Date":"2020-03-22 03"},"coordinates":[430,7213]},{"type":"Point","properties":{"Station_ID":"WRSM5","Station_Nam":"WRENSHALL","Latitude":"46.61550","Longitude":"-92.38380","Snowdepth":"13.000","Units":"in","Rept_Date":"2020-03-21 13"},"coordinates":[1139,4970]},{"type":"Point","properties":{"Station_ID":"GHMN3","Station_Nam":"PINKHAM NOTCH","Latitude":"44.25800","Longitude":"-71.25250","Snowdepth":"13.000","Units":"in","Rept_Date":"2020-03-21 09"},"coordinates":[6099,2650]},{"type":"Point","properties":{"Station_ID":"CAN-NS-60","Station_Nam":"SYDNEY FORKS, CAN","Latitude":"46.05645","Longitude":"-60.31510","Snowdepth":"13.000","Units":"in","Rept_Date":"2020-03-21 13"},"coordinates":[8666,4419]},{"type":"Point","properties":{"Station_ID":"CAN-ON-757","Station_Nam":"SAULT STE. MARIE 2.8 ESE - GLFC, CAN","Latitude":"46.50300","Longitude":"-84.30300","Snowdepth":"12.600","Units":"in","Rept_Date":"2020-03-21 13"},"coordinates":[3036,4859]},{"type":"Point","properties":{"Station_ID":"CAN-NB-2","Station_Nam":"GRAFTON 2.7 NNE, CA","Latitude":"46.17062","Longitude":"-67.55330","Snowdepth":"12.500","Units":"in","Rept_Date":"2020-03-21 11"},"coordinates":[6967,4532]},{"type":"Point","properties":{"Station_ID":"CAN-NB-64","Station_Nam":"KESWICK RIDGE 4.0 SE, CAN","Latitude":"45.97014","Longitude":"-66.85538","Snowdepth":"12.300","Units":"in","Rept_Date":"2020-03-21 13"},"coordinates":[7131,4335]},{"type":"Point","properties":{"Station_ID":"ZNOM4","Station_Nam":"NORWAY","Latitude":"45.77810","Longitude":"-87.89560","Snowdepth":"12.000","Units":"in","Rept_Date":"2020-03-22 00"},"coordinates":[2193,4146]},{"type":"Point","properties":{"Station_ID":"WTRM4","Station_Nam":"WATERSMEET 12WSW","Latitude":"46.22310","Longitude":"-89.40850","Snowdepth":"12.000","Units":"in","Rept_Date":"2020-03-21 11"},"coordinates":[1838,4583]},{"type":"Point","properties":{"Station_ID":"WI-BY-1","Station_Nam":"BAYFIELD 8.8 N, WI","Latitude":"46.93855","Longitude":"-90.83490","Snowdepth":"12.000","Units":"in","Rept_Date":"2020-03-21 13"},"coordinates":[1503,5287]},{"type":"Point","properties":{"Station_ID":"VT-CL-40","Station_Nam":"LYNDONVILLE 4.2 NNW, VT","Latitude":"44.59440","Longitude":"-72.02389","Snowdepth":"12.000","Units":"in","Rept_Date":"2020-03-21 12"},"coordinates":[5918,2981]},{"type":"Point","properties":{"Station_ID":"MN7M8EBJ","Station_Nam":"LUTSEN 15.7 NNW","Latitude":"47.85324","Longitude":"-89.92908","Snowdepth":"12.000","Units":"in","Rept_Date":"2020-03-21 13"},"coordinates":[1715,6187]},{"type":"Point","properties":{"Station_ID":"MI-DL-1","Station_Nam":"GARDEN CORNERS 0.8 NW, MI","Latitude":"45.89815","Longitude":"-86.54850","Snowdepth":"12.000","Units":"in","Rept_Date":"2020-03-21 13"},"coordinates":[2509,4264]},{"type":"Point","properties":{"Station_ID":"MI-AT-6","Station_Nam":"MANCELONA 0.5 ESE, MI","Latitude":"44.89981","Longitude":"-85.05100","Snowdepth":"12.000","Units":"in","Rept_Date":"2020-03-21 13"},"coordinates":[2860,3281]},{"type":"Point","properties":{"Station_ID":"JKMM1","Station_Nam":"JACKMAN","Latitude":"45.62600","Longitude":"-70.24600","Snowdepth":"12.000","Units":"in","Rept_Date":"2020-03-21 11"},"coordinates":[6335,3996]},{"type":"Point","properties":{"Station_ID":"GRFN8","Station_Nam":"UNIVERSITY","Latitude":"47.93330","Longitude":"-97.08330","Snowdepth":"12.000","Units":"in","Rept_Date":"2020-03-22 05"},"coordinates":[36,6266]},{"type":"Point","properties":{"Station_ID":"GRBM5","Station_Nam":"GRAND RAPIDS 12N","Latitude":"47.39800","Longitude":"-93.51330","Snowdepth":"12.000","Units":"in","Rept_Date":"2020-03-21 12"},"coordinates":[874,5739]},{"type":"Point","properties":{"Station_ID":"GDCM4","Station_Nam":"GARDEN CORNERS","Latitude":"45.89830","Longitude":"-86.54850","Snowdepth":"12.000","Units":"in","Rept_Date":"2020-03-21 12"},"coordinates":[2509,4264]},{"type":"Point","properties":{"Station_ID":"AURW3","Station_Nam":"AURORA","Latitude":"45.77000","Longitude":"-88.11810","Snowdepth":"12.000","Units":"in","Rept_Date":"2020-03-21 12"},"coordinates":[2141,4138]},{"type":"Point","properties":{"Station_ID":"AGNW3","Station_Nam":"ARGONNE-1.5 NW","Latitude":"45.67360","Longitude":"-88.90380","Snowdepth":"12.000","Units":"in","Rept_Date":"2020-03-21 12"},"coordinates":[1956,4043]},{"type":"Point","properties":{"Station_ID":"CAN-NS-94","Station_Nam":"MARGAREE FORKS 2.6 SSE CBN, CAN","Latitude":"46.30937","Longitude":"-61.07603","Snowdepth":"11.400","Units":"in","Rept_Date":"2020-03-21 13"},"coordinates":[8487,4668]},{"type":"Point","properties":{"Station_ID":"SUTV1","Station_Nam":"SUTTON","Latitude":"44.61220","Longitude":"-72.04810","Snowdepth":"11.000","Units":"in","Rept_Date":"2020-03-21 12"},"coordinates":[5912,2998]},{"type":"Point","properties":{"Station_ID":"RANM1","Station_Nam":"RANGELEY","Latitude":"44.98910","Longitude":"-70.67190","Snowdepth":"11.000","Units":"in","Rept_Date":"2020-03-21 14"},"coordinates":[6235,3369]},{"type":"Point","properties":{"Station_ID":"MN-PK-15","Station_Nam":"MENTOR 2.5 SSW, MN","Latitude":"47.66625","Longitude":"-96.17328","Snowdepth":"11.000","Units":"in","Rept_Date":"2020-03-21 13"},"coordinates":[250,6003]},{"type":"Point","properties":{"Station_ID":"ME-FR-4","Station_Nam":"NEW SHARON 2.0 NW, ME","Latitude":"44.66582","Longitude":"-70.02720","Snowdepth":"11.000","Units":"in","Rept_Date":"2020-03-21 12"},"coordinates":[6386,3051]},{"type":"Point","properties":{"Station_ID":"EAHV1","Station_Nam":"EAST HAVEN","Latitude":"44.64250","Longitude":"-71.89120","Snowdepth":"11.000","Units":"in","Rept_Date":"2020-03-21 11"},"coordinates":[5949,3028]},{"type":"Point","properties":{"Station_ID":"COTM5","Station_Nam":"COTTON","Latitude":"47.16870","Longitude":"-92.46290","Snowdepth":"11.000","Units":"in","Rept_Date":"2020-03-21 13"},"coordinates":[1121,5514]},{"type":"Point","properties":{"Station_ID":"CAN-PE-3","Station_Nam":"WELLINGTON 1.6 NE, CA","Latitude":"46.46672","Longitude":"-63.98920","Snowdepth":"11.000","Units":"in","Rept_Date":"2020-03-21 11"},"coordinates":[7803,4823]},{"type":"Point","properties":{"Station_ID":"AVLV1","Station_Nam":"AVERILL","Latitude":"45.00570","Longitude":"-71.69030","Snowdepth":"11.000","Units":"in","Rept_Date":"2020-03-21 12"},"coordinates":[5996,3386]},{"type":"Point","properties":{"Station_ID":"WI-ON-6","Station_Nam":"RHINELANDER 5.2 N, WI","Latitude":"45.71388","Longitude":"-89.42150","Snowdepth":"10.500","Units":"in","Rept_Date":"2020-03-21 14"},"coordinates":[1835,4082]},{"type":"Point","properties":{"Station_ID":"NH-CR-15","Station_Nam":"JACKSON 3.7 NW, NH","Latitude":"44.19069","Longitude":"-71.22598","Snowdepth":"10.500","Units":"in","Rept_Date":"2020-03-21 12"},"coordinates":[6105,2584]},{"type":"Point","properties":{"Station_ID":"WI-SR-1","Station_Nam":"HAYWARD 9.2 NNE, WI","Latitude":"46.13255","Longitude":"-91.40500","Snowdepth":"10.000","Units":"in","Rept_Date":"2020-03-21 12"},"coordinates":[1369,4494]},{"type":"Point","properties":{"Station_ID":"VT-BN-12","Station_Nam":"STAMFORD 5.0 NNE, VT","Latitude":"42.82000","Longitude":"-73.02000","Snowdepth":"10.000","Units":"in","Rept_Date":"2020-03-21 21"},"coordinates":[5684,1235]},{"type":"Point","properties":{"Station_ID":"PTBN3","Station_Nam":"PITTSBURG RESERVOIR","Latitude":"45.04690","Longitude":"-71.38300","Snowdepth":"10.000","Units":"in","Rept_Date":"2020-03-21 12"},"coordinates":[6068,3426]},{"type":"Point","properties":{"Station_ID":"PBAN8","Station_Nam":"SITE 1-3MI.N","Latitude":"48.97420","Longitude":"-97.23860","Snowdepth":"10.000","Units":"in","Rept_Date":"2020-03-21 13"},"coordinates":[0,7290]},{"type":"Point","properties":{"Station_ID":"MWN","Station_Nam":"MOUNT WASHINGTON","Latitude":"44.26670","Longitude":"-71.30000","Snowdepth":"10.000","Units":"in","Rept_Date":"2020-03-22 04"},"coordinates":[6088,2658]},{"type":"Point","properties":{"Station_ID":"MRAM4","Station_Nam":"MORAN","Latitude":"45.99030","Longitude":"-84.83610","Snowdepth":"10.000","Units":"in","Rept_Date":"2020-03-21 12"},"coordinates":[2911,4354]},{"type":"Point","properties":{"Station_ID":"MI-OT-17","Station_Nam":"GAYLORD 4.1 S, MI","Latitude":"44.96388","Longitude":"-84.68467","Snowdepth":"10.000","Units":"in","Rept_Date":"2020-03-21 12"},"coordinates":[2946,3344]},{"type":"Point","properties":{"Station_ID":"LPLN6","Station_Nam":"LAKE PLACID 2 S","Latitude":"44.30420","Longitude":"-73.98390","Snowdepth":"10.000","Units":"in","Rept_Date":"2020-03-21 12"},"coordinates":[5458,2695]},{"type":"Point","properties":{"Station_ID":"KMWN","Station_Nam":"MOUNT WASHINGTON","Latitude":"44.26666","Longitude":"-71.30000","Snowdepth":"10.000","Units":"in","Rept_Date":"2020-03-22 06"},"coordinates":[6088,2658]},{"type":"Point","properties":{"Station_ID":"ASTW3","Station_Nam":"ATHELSTANE","Latitude":"45.42500","Longitude":"-88.05750","Snowdepth":"10.000","Units":"in","Rept_Date":"2020-03-21 16"},"coordinates":[2155,3798]},{"type":"Point","properties":{"Station_ID":"CAN-NB-97","Station_Nam":"NEW MARYLAND 0.6 NW, CAN","Latitude":"45.90112","Longitude":"-66.68739","Snowdepth":"9.800","Units":"in","Rept_Date":"2020-03-21 12"},"coordinates":[7170,4267]},{"type":"Point","properties":{"Station_ID":"MI-OT-16","Station_Nam":"GAYLORD 2.2 SSE, MI","Latitude":"44.99441","Longitude":"-84.65820","Snowdepth":"9.500","Units":"in","Rept_Date":"2020-03-21 13"},"coordinates":[2953,3374]},{"type":"Point","properties":{"Station_ID":"RHIW3","Station_Nam":"RHINELANDER","Latitude":"45.59860","Longitude":"-89.45080","Snowdepth":"9.000","Units":"in","Rept_Date":"2020-03-21 12"},"coordinates":[1828,3969]},{"type":"Point","properties":{"Station_ID":"MN-CW-22","Station_Nam":"FORT RIPLEY 0.8 N, MN","Latitude":"46.18089","Longitude":"-94.36510","Snowdepth":"9.000","Units":"in","Rept_Date":"2020-03-21 13"},"coordinates":[674,4542]},{"type":"Point","properties":{"Station_ID":"MN-BM-15","Station_Nam":"BEMIDJI 7.8 ENE, MN","Latitude":"47.52043","Longitude":"-94.72121","Snowdepth":"9.000","Units":"in","Rept_Date":"2020-03-21 13"},"coordinates":[591,5860]},{"type":"Point","properties":{"Station_ID":"MI-MD-10","Station_Nam":"MIDLAND 1.5 NNE, MI","Latitude":"43.64412","Longitude":"-84.21729","Snowdepth":"9.000","Units":"in","Rept_Date":"2020-03-21 11"},"coordinates":[3056,2046]},{"type":"Point","properties":{"Station_ID":"KGFK","Station_Nam":"GRAND FORKS INTERNATIONAL","Latitude":"47.95000","Longitude":"-97.18333","Snowdepth":"9.000","Units":"in","Rept_Date":"2020-03-21 18"},"coordinates":[13,6283]},{"type":"Point","properties":{"Station_ID":"GFK","Station_Nam":"GRAND FORKS INTERNATIONAL AIRPORT","Latitude":"47.94920","Longitude":"-97.17610","Snowdepth":"9.000","Units":"in","Rept_Date":"2020-03-22 00"},"coordinates":[15,6282]},{"type":"Point","properties":{"Station_ID":"EGRW3","Station_Nam":"EAGLE RIVER-SOUTH","Latitude":"45.91360","Longitude":"-89.24360","Snowdepth":"9.000","Units":"in","Rept_Date":"2020-03-21 12"},"coordinates":[1876,4279]},{"type":"Point","properties":{"Station_ID":"BTLN3","Station_Nam":"BARTLETT","Latitude":"44.08380","Longitude":"-71.29340","Snowdepth":"9.000","Units":"in","Rept_Date":"2020-03-21 11"},"coordinates":[6089,2478]},{"type":"Point","properties":{"Station_ID":"BRAM5","Station_Nam":"BRAINERD","Latitude":"46.34320","Longitude":"-94.20900","Snowdepth":"9.000","Units":"in","Rept_Date":"2020-03-21 12"},"coordinates":[711,4702]},{"type":"Point","properties":{"Station_ID":"AROM4","Station_Nam":"ARNOLD,MI","Latitude":"46.06670","Longitude":"-87.48330","Snowdepth":"9.000","Units":"in","Rept_Date":"2020-03-21 12"},"coordinates":[2290,4430]},{"type":"Point","properties":{"Station_ID":"CAN-PE-7","Station_Nam":"MORELL 1.4 NNW, CA","Latitude":"46.42741","Longitude":"-62.70870","Snowdepth":"8.800","Units":"in","Rept_Date":"2020-03-21 12"},"coordinates":[8104,4784]},{"type":"Point","properties":{"Station_ID":"MN-BK-10","Station_Nam":"DETROIT LAKES 5.7 N, MN","Latitude":"46.88666","Longitude":"-95.84444","Snowdepth":"8.500","Units":"in","Rept_Date":"2020-03-21 10"},"coordinates":[327,5236]},{"type":"Point","properties":{"Station_ID":"WI-SR-5","Station_Nam":"HAYWARD 9.7 NE, WI","Latitude":"46.12030","Longitude":"-91.35370","Snowdepth":"8.000","Units":"in","Rept_Date":"2020-03-21 14"},"coordinates":[1381,4482]},{"type":"Point","properties":{"Station_ID":"STMM4","Station_Nam":"STAMBAUGH 2SSE","Latitude":"46.05550","Longitude":"-88.62780","Snowdepth":"8.000","Units":"in","Rept_Date":"2020-03-21 12"},"coordinates":[2021,4419]},{"type":"Point","properties":{"Station_ID":"PELW3","Station_Nam":"PELLA 3SE","Latitude":"44.73580","Longitude":"-88.73780","Snowdepth":"8.000","Units":"in","Rept_Date":"2020-03-21 10"},"coordinates":[1995,3120]},{"type":"Point","properties":{"Station_ID":"MWTM1","Station_Nam":"MILLINOCKET WWTP","Latitude":"45.64030","Longitude":"-68.67480","Snowdepth":"8.000","Units":"in","Rept_Date":"2020-03-21 11"},"coordinates":[6704,4010]},{"type":"Point","properties":{"Station_ID":"LBKV1","Station_Nam":"LYE BROOK","Latitude":"43.05000","Longitude":"-73.03330","Snowdepth":"8.000","Units":"in","Rept_Date":"2020-03-22 05"},"coordinates":[5681,1461]},{"type":"Point","properties":{"Station_ID":"CORV1","Station_Nam":"CORINTH","Latitude":"44.00690","Longitude":"-72.31940","Snowdepth":"8.000","Units":"in","Rept_Date":"2020-03-21 11"},"coordinates":[5848,2403]},{"type":"Point","properties":{"Station_ID":"CAN-ON-245","Station_Nam":"PHELPSTON 3.1 ESE, CAN","Latitude":"44.50564","Longitude":"-79.81035","Snowdepth":"8.000","Units":"in","Rept_Date":"2020-03-21 14"},"coordinates":[4090,2894]},{"type":"Point","properties":{"Station_ID":"BREW3","Station_Nam":"SURING","Latitude":"44.99580","Longitude":"-88.37860","Snowdepth":"8.000","Units":"in","Rept_Date":"2020-03-21 14"},"coordinates":[2079,3376]},{"type":"Point","properties":{"Station_ID":"BAGM4","Station_Nam":"BARAGA 7NW","Latitude":"46.82100","Longitude":"-88.60590","Snowdepth":"8.000","Units":"in","Rept_Date":"2020-03-21 12"},"coordinates":[2026,5172]},{"type":"Point","properties":{"Station_ID":"WI-BN-6","Station_Nam":"SUAMICO 4.4 WNW, WI","Latitude":"44.66111","Longitude":"-88.11780","Snowdepth":"7.700","Units":"in","Rept_Date":"2020-03-21 13"},"coordinates":[2141,3046]},{"type":"Point","properties":{"Station_ID":"CAN-NB-1","Station_Nam":"FREDERICTON 4.0 SSE, CA","Latitude":"45.92897","Longitude":"-66.62830","Snowdepth":"7.500","Units":"in","Rept_Date":"2020-03-21 12"},"coordinates":[7184,4294]},{"type":"Point","properties":{"Station_ID":"CAN-NB-16","Station_Nam":"DORCHESTER 1.0 SSE, CAN","Latitude":"45.89160","Longitude":"-64.51269","Snowdepth":"7.100","Units":"in","Rept_Date":"2020-03-21 12"},"coordinates":[7681,4257]},{"type":"Point","properties":{"Station_ID":"TOPM1","Station_Nam":"TOPSFIELD","Latitude":"45.43470","Longitude":"-67.72020","Snowdepth":"7.000","Units":"in","Rept_Date":"2020-03-21 11"},"coordinates":[6928,3808]},{"type":"Point","properties":{"Station_ID":"NY-FK-7","Station_Nam":"SARANAC LAKE 6.2 N, NY","Latitude":"44.41359","Longitude":"-74.15211","Snowdepth":"7.000","Units":"in","Rept_Date":"2020-03-21 11"},"coordinates":[5418,2803]},{"type":"Point","properties":{"Station_ID":"MI-OT-4","Station_Nam":"GAYLORD 1.7 WNW, MI","Latitude":"45.03280","Longitude":"-84.71090","Snowdepth":"7.000","Units":"in","Rept_Date":"2020-03-21 13"},"coordinates":[2940,3412]},{"type":"Point","properties":{"Station_ID":"GAYM4","Station_Nam":"GAYLORD","Latitude":"45.03320","Longitude":"-84.71130","Snowdepth":"7.000","Units":"in","Rept_Date":"2020-03-21 12"},"coordinates":[2940,3413]},{"type":"Point","properties":{"Station_ID":"ESGM1","Station_Nam":"EAST SANGERVILLE","Latitude":"45.13690","Longitude":"-69.28060","Snowdepth":"7.000","Units":"in","Rept_Date":"2020-03-21 11"},"coordinates":[6562,3515]},{"type":"Point","properties":{"Station_ID":"COUW3","Station_Nam":"COUDERAY,WI","Latitude":"45.86670","Longitude":"-91.45000","Snowdepth":"7.000","Units":"in","Rept_Date":"2020-03-21 21"},"coordinates":[1359,4233]},{"type":"Point","properties":{"Station_ID":"VT-ES-3","Station_Nam":"LUNENBURG 2.3 NNW, VT","Latitude":"44.49324","Longitude":"-71.70446","Snowdepth":"6.500","Units":"in","Rept_Date":"2020-03-21 11"},"coordinates":[5993,2881]},{"type":"Point","properties":{"Station_ID":"NH-GR-49","Station_Nam":"PLYMOUTH 3.7 N, NH","Latitude":"43.79048","Longitude":"-71.68413","Snowdepth":"6.500","Units":"in","Rept_Date":"2020-03-21 12"},"coordinates":[5997,2190]},{"type":"Point","properties":{"Station_ID":"CAN-ON-92","Station_Nam":"DUNROBIN 1.9 W - MVCA, CAN","Latitude":"45.42318","Longitude":"-76.04525","Snowdepth":"6.200","Units":"in","Rept_Date":"2020-03-21 12"},"coordinates":[4974,3796]},{"type":"Point","properties":{"Station_ID":"WLKW3","Station_Nam":"WHITE LAKE 1 SE","Latitude":"45.14520","Longitude":"-88.74160","Snowdepth":"6.000","Units":"in","Rept_Date":"2020-03-21 13"},"coordinates":[1994,3523]},{"type":"Point","properties":{"Station_ID":"WILW3","Station_Nam":"RESERVOIR","Latitude":"45.70000","Longitude":"-89.83330","Snowdepth":"6.000","Units":"in","Rept_Date":"2020-03-21 16"},"coordinates":[1738,4069]},{"type":"Point","properties":{"Station_ID":"WI-WB-2","Station_Nam":"STONE LAKE 2.0 NW, WI","Latitude":"45.85960","Longitude":"-91.57710","Snowdepth":"6.000","Units":"in","Rept_Date":"2020-03-21 13"},"coordinates":[1329,4226]},{"type":"Point","properties":{"Station_ID":"WI-PR-6","Station_Nam":"PHILLIPS 1.3 S, WI","Latitude":"45.67677","Longitude":"-90.39543","Snowdepth":"6.000","Units":"in","Rept_Date":"2020-03-21 12"},"coordinates":[1606,4046]},{"type":"Point","properties":{"Station_ID":"VT-OL-9","Station_Nam":"GREENSBORO 2.1 NNW, VT","Latitude":"44.60528","Longitude":"-72.30940","Snowdepth":"6.000","Units":"in","Rept_Date":"2020-03-21 12"},"coordinates":[5851,2992]},{"type":"Point","properties":{"Station_ID":"RRVM4","Station_Nam":"RAPID RIVER 9S","Latitude":"45.78750","Longitude":"-86.93920","Snowdepth":"6.000","Units":"in","Rept_Date":"2020-03-21 15"},"coordinates":[2417,4155]},{"type":"Point","properties":{"Station_ID":"RHRW3","Station_Nam":"RHINELANDER WJFW TV-12","Latitude":"45.62220","Longitude":"-89.41000","Snowdepth":"6.000","Units":"in","Rept_Date":"2020-03-22 03"},"coordinates":[1837,3992]},{"type":"Point","properties":{"Station_ID":"RHI","Station_Nam":"RHINELANDER-ONEIDA COUNTY AIRPORT","Latitude":"45.63080","Longitude":"-89.46530","Snowdepth":"6.000","Units":"in","Rept_Date":"2020-03-21 12"},"coordinates":[1824,4001]},{"type":"Point","properties":{"Station_ID":"OTTM5","Station_Nam":"OTTERTAIL,MN","Latitude":"46.41670","Longitude":"-95.56670","Snowdepth":"6.000","Units":"in","Rept_Date":"2020-03-21 13"},"coordinates":[392,4774]},{"type":"Point","properties":{"Station_ID":"NUMN3","Station_Nam":"NORTHUMBERLAND","Latitude":"44.52830","Longitude":"-71.50440","Snowdepth":"6.000","Units":"in","Rept_Date":"2020-03-21 12"},"coordinates":[6040,2916]},{"type":"Point","properties":{"Station_ID":"NH-CR-26","Station_Nam":"CENTER SANDWICH 4.9 E, NH","Latitude":"43.80976","Longitude":"-71.34150","Snowdepth":"6.000","Units":"in","Rept_Date":"2020-03-21 11"},"coordinates":[6078,2209]},{"type":"Point","properties":{"Station_ID":"ND-CS-25","Station_Nam":"FARGO 2.1 N, ND","Latitude":"46.90816","Longitude":"-96.77937","Snowdepth":"6.000","Units":"in","Rept_Date":"2020-03-21 14"},"coordinates":[108,5258]},{"type":"Point","properties":{"Station_ID":"MQRW3","Station_Nam":"MINOCQUA","Latitude":"45.88630","Longitude":"-89.73220","Snowdepth":"6.000","Units":"in","Rept_Date":"2020-03-21 11"},"coordinates":[1762,4252]},{"type":"Point","properties":{"Station_ID":"MI-CX-7","Station_Nam":"EAST JORDAN 2.1 NNW, MI","Latitude":"45.18639","Longitude":"-85.14750","Snowdepth":"6.000","Units":"in","Rept_Date":"2020-03-21 13"},"coordinates":[2838,3563]},{"type":"Point","properties":{"Station_ID":"INDN6","Station_Nam":"INDIAN LAKE","Latitude":"43.75500","Longitude":"-74.27560","Snowdepth":"6.000","Units":"in","Rept_Date":"2020-03-21 14"},"coordinates":[5389,2155]},{"type":"Point","properties":{"Station_ID":"ESDN3","Station_Nam":"EAST SANDWICH","Latitude":"43.80990","Longitude":"-71.34250","Snowdepth":"6.000","Units":"in","Rept_Date":"2020-03-21 10"},"coordinates":[6078,2209]},{"type":"Point","properties":{"Station_ID":"EJNM4","Station_Nam":"EAST JORDAN 2NW","Latitude":"45.18630","Longitude":"-85.14770","Snowdepth":"6.000","Units":"in","Rept_Date":"2020-03-21 12"},"coordinates":[2838,3563]},{"type":"Point","properties":{"Station_ID":"BFHW3","Station_Nam":"BAYFIELD FISH HATCHERY","Latitude":"46.78670","Longitude":"-90.86420","Snowdepth":"6.000","Units":"in","Rept_Date":"2020-03-21 13"},"coordinates":[1496,5138]},{"type":"Point","properties":{"Station_ID":"NH-CR-11","Station_Nam":"NORTH CONWAY 1.4 SSW, NH","Latitude":"44.03556","Longitude":"-71.14010","Snowdepth":"5.500","Units":"in","Rept_Date":"2020-03-21 12"},"coordinates":[6125,2431]},{"type":"Point","properties":{"Station_ID":"MI-CP-7","Station_Nam":"DRUMMOND 2.9 NE, MI","Latitude":"46.05329","Longitude":"-83.69060","Snowdepth":"5.500","Units":"in","Rept_Date":"2020-03-21 14"},"coordinates":[3180,4416]},{"type":"Point","properties":{"Station_ID":"WI-RS-1","Station_Nam":"LADYSMITH 2.8 WNW, WI","Latitude":"45.48180","Longitude":"-91.14680","Snowdepth":"5.000","Units":"in","Rept_Date":"2020-03-21 13"},"coordinates":[1430,3854]},{"type":"Point","properties":{"Station_ID":"WI-MT-14","Station_Nam":"MOSINEE 2.7 WSW, WI","Latitude":"44.77240","Longitude":"-89.73441","Snowdepth":"5.000","Units":"in","Rept_Date":"2020-03-21 13"},"coordinates":[1761,3156]},{"type":"Point","properties":{"Station_ID":"VT-BN-3","Station_Nam":"LANDGROVE 1.1 NNE, VT","Latitude":"43.29092","Longitude":"-72.83260","Snowdepth":"5.000","Units":"in","Rept_Date":"2020-03-21 12"},"coordinates":[5728,1698]},{"type":"Point","properties":{"Station_ID":"RHLW3","Station_Nam":"RHINELANDER 4NE","Latitude":"45.65270","Longitude":"-89.30740","Snowdepth":"5.000","Units":"in","Rept_Date":"2020-03-21 16"},"coordinates":[1861,4022]},{"type":"Point","properties":{"Station_ID":"PARM4","Station_Nam":"PARENT BAY","Latitude":"45.79610","Longitude":"-86.40110","Snowdepth":"5.000","Units":"in","Rept_Date":"2020-03-21 13"},"coordinates":[2543,4163]},{"type":"Point","properties":{"Station_ID":"MN76ACVS","Station_Nam":"GRAND MARAIS 3.0 WNW","Latitude":"47.76602","Longitude":"-90.26427","Snowdepth":"5.000","Units":"in","Rept_Date":"2020-03-21 12"},"coordinates":[1637,6102]},{"type":"Point","properties":{"Station_ID":"KSEM4","Station_Nam":"KALKASKA 11SE","Latitude":"44.58970","Longitude":"-85.04860","Snowdepth":"5.000","Units":"in","Rept_Date":"2020-03-21 12"},"coordinates":[2861,2976]},{"type":"Point","properties":{"Station_ID":"FDRN8","Station_Nam":"FARGO 3S","Latitude":"46.82930","Longitude":"-96.79620","Snowdepth":"5.000","Units":"in","Rept_Date":"2020-03-22 05"},"coordinates":[104,5180]},{"type":"Point","properties":{"Station_ID":"BRLN3","Station_Nam":"BERLIN","Latitude":"44.45350","Longitude":"-71.18540","Snowdepth":"5.000","Units":"in","Rept_Date":"2020-03-21 11"},"coordinates":[6115,2842]},{"type":"Point","properties":{"Station_ID":"VT-WS-7","Station_Nam":"MIDDLESEX 3.1 ENE, VT","Latitude":"44.31799","Longitude":"-72.62650","Snowdepth":"4.500","Units":"in","Rept_Date":"2020-03-21 14"},"coordinates":[5776,2709]},{"type":"Point","properties":{"Station_ID":"VT-OL-1","Station_Nam":"WESTFIELD 0.7 WNW, VT","Latitude":"44.89160","Longitude":"-72.44350","Snowdepth":"4.500","Units":"in","Rept_Date":"2020-03-21 12"},"coordinates":[5819,3273]},{"type":"Point","properties":{"Station_ID":"SULW3","Station_Nam":"SUMMIT LAKE","Latitude":"45.37880","Longitude":"-89.19410","Snowdepth":"4.000","Units":"in","Rept_Date":"2020-03-21 15"},"coordinates":[1888,3753]},{"type":"Point","properties":{"Station_ID":"SRAW3","Station_Nam":"SARONA","Latitude":"45.80250","Longitude":"-91.86700","Snowdepth":"4.000","Units":"in","Rept_Date":"2020-03-21 13"},"coordinates":[1261,4170]},{"type":"Point","properties":{"Station_ID":"MTQM4","Station_Nam":"MANISTIQUE WWTP","Latitude":"45.95120","Longitude":"-86.25130","Snowdepth":"4.000","Units":"in","Rept_Date":"2020-03-21 11"},"coordinates":[2579,4316]},{"type":"Point","properties":{"Station_ID":"MCLN8","Station_Nam":"MC LEOD,ND","Latitude":"46.40250","Longitude":"-97.23810","Snowdepth":"4.000","Units":"in","Rept_Date":"2020-03-21 12"},"coordinates":[0,4760]},{"type":"Point","properties":{"Station_ID":"LNGM5","Station_Nam":"LONG PRAIRIE","Latitude":"45.96460","Longitude":"-94.88920","Snowdepth":"4.000","Units":"in","Rept_Date":"2020-03-21 11"},"coordinates":[551,4329]},{"type":"Point","properties":{"Station_ID":"ISLV1","Station_Nam":"ISLAND POND","Latitude":"44.81280","Longitude":"-71.89020","Snowdepth":"4.000","Units":"in","Rept_Date":"2020-03-21 14"},"coordinates":[5949,3196]},{"type":"Point","properties":{"Station_ID":"HMYM1","Station_Nam":"HARMONY","Latitude":"44.94660","Longitude":"-69.54560","Snowdepth":"4.000","Units":"in","Rept_Date":"2020-03-21 11"},"coordinates":[6499,3327]},{"type":"Point","properties":{"Station_ID":"FLDM5","Station_Nam":"FLOODWOOD,MN","Latitude":"47.00000","Longitude":"-92.91670","Snowdepth":"4.000","Units":"in","Rept_Date":"2020-03-21 13"},"coordinates":[1014,5348]},{"type":"Point","properties":{"Station_ID":"FAR","Station_Nam":"HECTOR INTERNATIONAL ARPT","Latitude":"46.91560","Longitude":"-96.81440","Snowdepth":"4.000","Units":"in","Rept_Date":"2020-03-22 00"},"coordinates":[100,5265]},{"type":"Point","properties":{"Station_ID":"CLGM5","Station_Nam":"COLLEGEVILLE ST JOHN","Latitude":"45.57940","Longitude":"-94.39200","Snowdepth":"4.000","Units":"in","Rept_Date":"2020-03-21 23"},"coordinates":[668,3950]},{"type":"Point","properties":{"Station_ID":"APXM4","Station_Nam":"GAYLORD 9SSW","Latitude":"44.90720","Longitude":"-84.71880","Snowdepth":"4.000","Units":"in","Rept_Date":"2020-03-22 06"},"coordinates":[2938,3289]},{"type":"Point","properties":{"Station_ID":"CAN-NB-98","Station_Nam":"HOYT 4.2 S, CAN","Latitude":"45.54763","Longitude":"-66.55440","Snowdepth":"3.900","Units":"in","Rept_Date":"2020-03-21 11"},"coordinates":[7201,3919]},{"type":"Point","properties":{"Station_ID":"WI-WB-16","Station_Nam":"SARONA 4.5 NNE, WI","Latitude":"45.77030","Longitude":"-91.76890","Snowdepth":"3.500","Units":"in","Rept_Date":"2020-03-21 13"},"coordinates":[1284,4138]},{"type":"Point","properties":{"Station_ID":"WI-PR-8","Station_Nam":"PHILLIPS 0.4 SSW, WI","Latitude":"45.69086","Longitude":"-90.40200","Snowdepth":"3.500","Units":"in","Rept_Date":"2020-03-21 13"},"coordinates":[1605,4060]},{"type":"Point","properties":{"Station_ID":"WI-AS-4","Station_Nam":"ASHLAND 0.5 WNW, WI","Latitude":"46.58240","Longitude":"-90.88390","Snowdepth":"3.500","Units":"in","Rept_Date":"2020-03-21 13"},"coordinates":[1491,4937]},{"type":"Point","properties":{"Station_ID":"VT-WR-2","Station_Nam":"POMFRET 2.6 N, VT","Latitude":"43.74230","Longitude":"-72.52550","Snowdepth":"3.500","Units":"in","Rept_Date":"2020-03-21 12"},"coordinates":[5800,2142]},{"type":"Point","properties":{"Station_ID":"MN-RK-5","Station_Nam":"HILLS 0.2 NW, MN","Latitude":"43.52960","Longitude":"-96.36146","Snowdepth":"3.500","Units":"in","Rept_Date":"2020-03-21 14"},"coordinates":[206,1933]},{"type":"Point","properties":{"Station_ID":"CAN-NS-163","Station_Nam":"SYDNEY MINES 2.2 WNW, CAN","Latitude":"46.24851","Longitude":"-60.25161","Snowdepth":"3.500","Units":"in","Rept_Date":"2020-03-21 12"},"coordinates":[8681,4608]},{"type":"Point","properties":{"Station_ID":"VT-WS-30","Station_Nam":"WOODBURY 3.4 NNW, VT","Latitude":"44.48825","Longitude":"-72.43258","Snowdepth":"3.000","Units":"in","Rept_Date":"2020-03-21 12"},"coordinates":[5822,2876]},{"type":"Point","properties":{"Station_ID":"TMWN3","Station_Nam":"TAMWORTH 4","Latitude":"43.86390","Longitude":"-71.26610","Snowdepth":"3.000","Units":"in","Rept_Date":"2020-03-21 11"},"coordinates":[6096,2262]},{"type":"Point","properties":{"Station_ID":"SUXI4","Station_Nam":"SNOW PAID FOR KSUX","Latitude":"42.40530","Longitude":"-96.36000","Snowdepth":"3.000","Units":"in","Rept_Date":"2020-03-21 11"},"coordinates":[206,827]},{"type":"Point","properties":{"Station_ID":"SUX","Station_Nam":"SIOUX GATEWAY AIRPORT","Latitude":"42.40390","Longitude":"-96.38330","Snowdepth":"3.000","Units":"in","Rept_Date":"2020-03-22 00"},"coordinates":[201,825]},{"type":"Point","properties":{"Station_ID":"SD-MH-41","Station_Nam":"SIOUX FALLS 3.9 SW, SD","Latitude":"43.50475","Longitude":"-96.78660","Snowdepth":"3.000","Units":"in","Rept_Date":"2020-03-21 13"},"coordinates":[106,1909]},{"type":"Point","properties":{"Station_ID":"RSTW3","Station_Nam":"ROSHOLT","Latitude":"44.62710","Longitude":"-89.30600","Snowdepth":"3.000","Units":"in","Rept_Date":"2020-03-21 13"},"coordinates":[1862,3013]},{"type":"Point","properties":{"Station_ID":"RFDM1","Station_Nam":"RUMFORD 7SW","Latitude":"44.49470","Longitude":"-70.65640","Snowdepth":"3.000","Units":"in","Rept_Date":"2020-03-21 13"},"coordinates":[6239,2883]},{"type":"Point","properties":{"Station_ID":"NH-CR-27","Station_Nam":"TAMWORTH 0.4 NNW, NH","Latitude":"43.86449","Longitude":"-71.26610","Snowdepth":"3.000","Units":"in","Rept_Date":"2020-03-21 12"},"coordinates":[6096,2263]},{"type":"Point","properties":{"Station_ID":"MN-MR-4","Station_Nam":"LITTLE FALLS 1.2 SW, MN","Latitude":"45.96886","Longitude":"-94.37720","Snowdepth":"3.000","Units":"in","Rept_Date":"2020-03-21 13"},"coordinates":[672,4333]},{"type":"Point","properties":{"Station_ID":"LNCM1","Station_Nam":"LINCOLN WATER DISTRICT","Latitude":"45.32410","Longitude":"-68.58300","Snowdepth":"3.000","Units":"in","Rept_Date":"2020-03-21 11"},"coordinates":[6725,3699]},{"type":"Point","properties":{"Station_ID":"FLAM4","Station_Nam":"FIFE LAKE 2WNW","Latitude":"44.58480","Longitude":"-85.36530","Snowdepth":"3.000","Units":"in","Rept_Date":"2020-03-21 11"},"coordinates":[2787,2971]},{"type":"Point","properties":{"Station_ID":"DTVM4","Station_Nam":"DETOUR VILLAGE","Latitude":"45.99830","Longitude":"-83.90130","Snowdepth":"3.000","Units":"in","Rept_Date":"2020-03-21 12"},"coordinates":[3130,4362]},{"type":"Point","properties":{"Station_ID":"CNNS2","Station_Nam":"CANTON","Latitude":"43.31120","Longitude":"-96.58770","Snowdepth":"3.000","Units":"in","Rept_Date":"2020-03-21 12"},"coordinates":[153,1718]},{"type":"Point","properties":{"Station_ID":"AWXW3","Station_Nam":"ASHLAND","Latitude":"46.58240","Longitude":"-90.88390","Snowdepth":"3.000","Units":"in","Rept_Date":"2020-03-21 12"},"coordinates":[1491,4937]},{"type":"Point","properties":{"Station_ID":"ANTW3","Station_Nam":"ANTIGO,WI","Latitude":"45.13330","Longitude":"-89.15000","Snowdepth":"3.000","Units":"in","Rept_Date":"2020-03-21 13"},"coordinates":[1898,3511]},{"type":"Point","properties":{"Station_ID":"AMDW3","Station_Nam":"ALMOND-5 NE","Latitude":"44.30830","Longitude":"-89.34640","Snowdepth":"3.000","Units":"in","Rept_Date":"2020-03-21 13"},"coordinates":[1852,2699]},{"type":"Point","properties":{"Station_ID":"SD-LN-32","Station_Nam":"SIOUX FALLS 3.6 SSE, SD","Latitude":"43.49360","Longitude":"-96.71249","Snowdepth":"2.500","Units":"in","Rept_Date":"2020-03-21 13"},"coordinates":[123,1898]},{"type":"Point","properties":{"Station_ID":"MI-BZ-1","Station_Nam":"BENZONIA 5.3 S, MI","Latitude":"44.53976","Longitude":"-86.10650","Snowdepth":"2.500","Units":"in","Rept_Date":"2020-03-21 14"},"coordinates":[2613,2927]},{"type":"Point","properties":{"Station_ID":"CAN-PE-10","Station_Nam":"NEW LONDON 1.6 ENE, CA","Latitude":"46.46985","Longitude":"-63.49200","Snowdepth":"2.500","Units":"in","Rept_Date":"2020-03-21 12"},"coordinates":[7920,4826]},{"type":"Point","properties":{"Station_ID":"WI-BT-14","Station_Nam":"OAKLAND 9.0 ENE, WI","Latitude":"45.95184","Longitude":"-92.21653","Snowdepth":"2.000","Units":"in","Rept_Date":"2020-03-21 13"},"coordinates":[1179,4317]},{"type":"Point","properties":{"Station_ID":"SPRI4","Station_Nam":"SPIRIT LAKE","Latitude":"43.42310","Longitude":"-95.10000","Snowdepth":"2.000","Units":"in","Rept_Date":"2020-03-21 12"},"coordinates":[502,1828]},{"type":"Point","properties":{"Station_ID":"SD-MH-20","Station_Nam":"SIOUX FALLS 3.4 ESE, SD","Latitude":"43.52670","Longitude":"-96.66580","Snowdepth":"2.000","Units":"in","Rept_Date":"2020-03-21 13"},"coordinates":[134,1930]},{"type":"Point","properties":{"Station_ID":"SD-MH-1","Station_Nam":"SIOUX FALLS 5.0 SE ARPT, SD","Latitude":"43.52360","Longitude":"-96.66780","Snowdepth":"2.000","Units":"in","Rept_Date":"2020-03-21 13"},"coordinates":[134,1927]},{"type":"Point","properties":{"Station_ID":"SAUW3","Station_Nam":"WAUSAU WSAW TV","Latitude":"44.94630","Longitude":"-89.62220","Snowdepth":"2.000","Units":"in","Rept_Date":"2020-03-22 03"},"coordinates":[1788,3327]},{"type":"Point","properties":{"Station_ID":"RMSI4","Station_Nam":"REMSEN NO. 2","Latitude":"42.81050","Longitude":"-95.97530","Snowdepth":"2.000","Units":"in","Rept_Date":"2020-03-21 16"},"coordinates":[296,1226]},{"type":"Point","properties":{"Station_ID":"PERV1","Station_Nam":"PERU","Latitude":"43.26670","Longitude":"-72.90000","Snowdepth":"2.000","Units":"in","Rept_Date":"2020-03-21 11"},"coordinates":[5712,1674]},{"type":"Point","properties":{"Station_ID":"PEKN6","Station_Nam":"PECK LAKE","Latitude":"43.11500","Longitude":"-74.42360","Snowdepth":"2.000","Units":"in","Rept_Date":"2020-03-21 11"},"coordinates":[5355,1525]},{"type":"Point","properties":{"Station_ID":"NY-HR-18","Station_Nam":"SALISBURY CENTER 1.8 NW, NY","Latitude":"43.16260","Longitude":"-74.80880","Snowdepth":"2.000","Units":"in","Rept_Date":"2020-03-21 11"},"coordinates":[5264,1572]},{"type":"Point","properties":{"Station_ID":"NY-ES-11","Station_Nam":"VERMONTVILLE 2.8 S, NY","Latitude":"44.41205","Longitude":"-74.06760","Snowdepth":"2.000","Units":"in","Rept_Date":"2020-03-21 12"},"coordinates":[5438,2801]},{"type":"Point","properties":{"Station_ID":"NWSM1","Station_Nam":"NEW SHARON","Latitude":"44.63520","Longitude":"-70.00020","Snowdepth":"2.000","Units":"in","Rept_Date":"2020-03-21 11"},"coordinates":[6393,3021]},{"type":"Point","properties":{"Station_ID":"MYOM4","Station_Nam":"MIO WWTP","Latitude":"44.64660","Longitude":"-84.11580","Snowdepth":"2.000","Units":"in","Rept_Date":"2020-03-21 12"},"coordinates":[3080,3032]},{"type":"Point","properties":{"Station_ID":"MN-SH-10","Station_Nam":"BIG LAKE 5.6 NNE, MN","Latitude":"45.41409","Longitude":"-93.69190","Snowdepth":"2.000","Units":"in","Rept_Date":"2020-03-21 13"},"coordinates":[832,3787]},{"type":"Point","properties":{"Station_ID":"MN-MR-13","Station_Nam":"LITTLE FALLS 8.0 NE, MN","Latitude":"46.06785","Longitude":"-94.24789","Snowdepth":"2.000","Units":"in","Rept_Date":"2020-03-21 13"},"coordinates":[702,4431]},{"type":"Point","properties":{"Station_ID":"LKFM5","Station_Nam":"LAKEFIELD,MN","Latitude":"43.68330","Longitude":"-95.18330","Snowdepth":"2.000","Units":"in","Rept_Date":"2020-03-21 12"},"coordinates":[482,2084]},{"type":"Point","properties":{"Station_ID":"JACS2","Station_Nam":"SIOUX FALLS 5.5SE FSD ARPT","Latitude":"43.52610","Longitude":"-96.66390","Snowdepth":"2.000","Units":"in","Rept_Date":"2020-03-21 13"},"coordinates":[135,1930]},{"type":"Point","properties":{"Station_ID":"ISEM5","Station_Nam":"ISLE 12N","Latitude":"46.31970","Longitude":"-93.50140","Snowdepth":"2.000","Units":"in","Rept_Date":"2020-03-21 13"},"coordinates":[877,4678]},{"type":"Point","properties":{"Station_ID":"FARM1","Station_Nam":"FARMINGTON","Latitude":"44.68930","Longitude":"-70.15640","Snowdepth":"2.000","Units":"in","Rept_Date":"2020-03-21 12"},"coordinates":[6356,3074]},{"type":"Point","properties":{"Station_ID":"EVYI4","Station_Nam":"EVERLY,IA","Latitude":"43.18330","Longitude":"-95.36670","Snowdepth":"2.000","Units":"in","Rept_Date":"2020-03-21 12"},"coordinates":[439,1592]},{"type":"Point","properties":{"Station_ID":"COLN3","Station_Nam":"COLEBROOK 3SW","Latitude":"44.86100","Longitude":"-71.53920","Snowdepth":"2.000","Units":"in","Rept_Date":"2020-03-21 11"},"coordinates":[6031,3243]},{"type":"Point","properties":{"Station_ID":"CAN-ON-42","Station_Nam":"VANKLEEK HILL 3.4 S, CA","Latitude":"45.48987","Longitude":"-74.64570","Snowdepth":"2.000","Units":"in","Rept_Date":"2020-03-21 12"},"coordinates":[5302,3862]},{"type":"Point","properties":{"Station_ID":"AUW","Station_Nam":"WAUSAU MUNICIPAL AIRPORT","Latitude":"44.92580","Longitude":"-89.62560","Snowdepth":"2.000","Units":"in","Rept_Date":"2020-03-21 12"},"coordinates":[1787,3307]},{"type":"Point","properties":{"Station_ID":"ALXM5","Station_Nam":"ALEXANDRIA","Latitude":"45.87820","Longitude":"-95.38270","Snowdepth":"2.000","Units":"in","Rept_Date":"2020-03-21 11"},"coordinates":[436,4244]},{"type":"Point","properties":{"Station_ID":"SD-UN-2","Station_Nam":"ELK POINT 5.6 NNE, SD","Latitude":"42.76126","Longitude":"-96.65320","Snowdepth":"1.500","Units":"in","Rept_Date":"2020-03-21 15"},"coordinates":[137,1177]},{"type":"Point","properties":{"Station_ID":"MI-GT-25","Station_Nam":"TRAVERSE CITY 4.7 ESE, MI","Latitude":"44.73370","Longitude":"-85.51189","Snowdepth":"1.500","Units":"in","Rept_Date":"2020-03-21 12"},"coordinates":[2752,3118]},{"type":"Point","properties":{"Station_ID":"WI-LN-2","Station_Nam":"MERRILL 7.0 W, WI","Latitude":"45.17746","Longitude":"-89.84820","Snowdepth":"1.000","Units":"in","Rept_Date":"2020-03-21 12"},"coordinates":[1734,3555]},{"type":"Point","properties":{"Station_ID":"WDOM5","Station_Nam":"WINDOM","Latitude":"43.87700","Longitude":"-95.11590","Snowdepth":"1.000","Units":"in","Rept_Date":"2020-03-21 13"},"coordinates":[498,2275]},{"type":"Point","properties":{"Station_ID":"VT-OL-2","Station_Nam":"BARTON 3.0 ENE, VT","Latitude":"44.75863","Longitude":"-72.11680","Snowdepth":"1.000","Units":"in","Rept_Date":"2020-03-21 12"},"coordinates":[5896,3142]},{"type":"Point","properties":{"Station_ID":"TCMM4","Station_Nam":"TRAVERSE CITY MUNSON","Latitude":"44.76070","Longitude":"-85.64430","Snowdepth":"1.000","Units":"in","Rept_Date":"2020-03-21 10"},"coordinates":[2721,3144]},{"type":"Point","properties":{"Station_ID":"TCEM4","Station_Nam":"TRAVERSE CITY 5ESE","Latitude":"44.73370","Longitude":"-85.51180","Snowdepth":"1.000","Units":"in","Rept_Date":"2020-03-21 11"},"coordinates":[2752,3118]},{"type":"Point","properties":{"Station_ID":"STRW3","Station_Nam":"STRATFORD 1NW","Latitude":"44.81750","Longitude":"-90.08990","Snowdepth":"1.000","Units":"in","Rept_Date":"2020-03-21 12"},"coordinates":[1678,3200]},{"type":"Point","properties":{"Station_ID":"STIM4","Station_Nam":"ST IGNACE","Latitude":"45.86080","Longitude":"-84.71960","Snowdepth":"1.000","Units":"in","Rept_Date":"2020-03-21 11"},"coordinates":[2938,4227]},{"type":"Point","properties":{"Station_ID":"SHDI4","Station_Nam":"SHELDON,IA","Latitude":"43.18080","Longitude":"-95.85280","Snowdepth":"1.000","Units":"in","Rept_Date":"2020-03-21 12"},"coordinates":[325,1590]},{"type":"Point","properties":{"Station_ID":"SD-MH-8","Station_Nam":"HARTFORD 6.4 S, SD","Latitude":"43.53128","Longitude":"-96.95020","Snowdepth":"1.000","Units":"in","Rept_Date":"2020-03-21 14"},"coordinates":[68,1935]},{"type":"Point","properties":{"Station_ID":"RWGM5","Station_Nam":"RED WING","Latitude":"44.57120","Longitude":"-92.52830","Snowdepth":"1.000","Units":"in","Rept_Date":"2020-03-21 13"},"coordinates":[1105,2958]},{"type":"Point","properties":{"Station_ID":"PSHW3","Station_Nam":"PESHTIGO","Latitude":"45.02810","Longitude":"-87.73560","Snowdepth":"1.000","Units":"in","Rept_Date":"2020-03-21 12"},"coordinates":[2230,3408]},{"type":"Point","properties":{"Station_ID":"NEWN1","Station_Nam":"NEWCASTLE","Latitude":"42.65300","Longitude":"-96.87750","Snowdepth":"1.000","Units":"in","Rept_Date":"2020-03-21 11"},"coordinates":[85,1071]},{"type":"Point","properties":{"Station_ID":"NCKN1","Station_Nam":"NICKERSON 3NE","Latitude":"41.56500","Longitude":"-96.44250","Snowdepth":"1.000","Units":"in","Rept_Date":"2020-03-21 12"},"coordinates":[187,0]},{"type":"Point","properties":{"Station_ID":"MRAM5","Station_Nam":"MORA","Latitude":"45.87760","Longitude":"-93.31470","Snowdepth":"1.000","Units":"in","Rept_Date":"2020-03-21 12"},"coordinates":[921,4243]},{"type":"Point","properties":{"Station_ID":"MLLW3","Station_Nam":"MERRILL 8W","Latitude":"45.17810","Longitude":"-89.84810","Snowdepth":"1.000","Units":"in","Rept_Date":"2020-03-21 16"},"coordinates":[1735,3555]},{"type":"Point","properties":{"Station_ID":"MI-MC-4","Station_Nam":"ST. IGNACE 0.5SE, MI","Latitude":"45.86057","Longitude":"-84.71980","Snowdepth":"1.000","Units":"in","Rept_Date":"2020-03-21 12"},"coordinates":[2938,4227]},{"type":"Point","properties":{"Station_ID":"MI-GT-21","Station_Nam":"KINGSLEY 2.7 ENE, MI","Latitude":"44.59871","Longitude":"-85.48426","Snowdepth":"1.000","Units":"in","Rept_Date":"2020-03-21 14"},"coordinates":[2759,2985]},{"type":"Point","properties":{"Station_ID":"MAPM4","Station_Nam":"MAPLE CITY 1E","Latitude":"44.85500","Longitude":"-85.83520","Snowdepth":"1.000","Units":"in","Rept_Date":"2020-03-21 22"},"coordinates":[2676,3237]},{"type":"Point","properties":{"Station_ID":"LSXI4","Station_Nam":"LITTLE SIOUX,IA","Latitude":"41.81670","Longitude":"-96.01670","Snowdepth":"1.000","Units":"in","Rept_Date":"2020-03-21 12"},"coordinates":[287,248]},{"type":"Point","properties":{"Station_ID":"KTVC","Station_Nam":"CHERRY CAPITAL AIRPORT","Latitude":"44.73333","Longitude":"-85.56666","Snowdepth":"1.000","Units":"in","Rept_Date":"2020-03-21 12"},"coordinates":[2739,3118]},{"type":"Point","properties":{"Station_ID":"HRTM1","Station_Nam":"HARTFORD","Latitude":"44.37440","Longitude":"-70.31620","Snowdepth":"1.000","Units":"in","Rept_Date":"2020-03-21 11"},"coordinates":[6318,2764]},{"type":"Point","properties":{"Station_ID":"HLYI4","Station_Nam":"HORNICK 4 NNE","Latitude":"42.28390","Longitude":"-96.05800","Snowdepth":"1.000","Units":"in","Rept_Date":"2020-03-21 12"},"coordinates":[277,707]},{"type":"Point","properties":{"Station_ID":"HLSI4","Station_Nam":"HOLSTEIN 5 NNW","Latitude":"42.54630","Longitude":"-95.61100","Snowdepth":"1.000","Units":"in","Rept_Date":"2020-03-21 12"},"coordinates":[382,966]},{"type":"Point","properties":{"Station_ID":"FORM5","Station_Nam":"FOREST LAKE 5NE","Latitude":"45.33170","Longitude":"-92.89820","Snowdepth":"1.000","Units":"in","Rept_Date":"2020-03-21 12"},"coordinates":[1019,3706]},{"type":"Point","properties":{"Station_ID":"EPTW3","Station_Nam":"EAU PLEINE TENDER","Latitude":"44.77220","Longitude":"-89.76720","Snowdepth":"1.000","Units":"in","Rept_Date":"2020-03-21 12"},"coordinates":[1753,3156]},{"type":"Point","properties":{"Station_ID":"CENS2","Station_Nam":"CENTERVILLE,SD","Latitude":"43.04310","Longitude":"-96.90330","Snowdepth":"1.000","Units":"in","Rept_Date":"2020-03-21 13"},"coordinates":[79,1454]},{"type":"Point","properties":{"Station_ID":"CAN-ON-208","Station_Nam":"PAKENHAM 7.8 NNW, CAN","Latitude":"45.39166","Longitude":"-76.34111","Snowdepth":"1.000","Units":"in","Rept_Date":"2020-03-21 12"},"coordinates":[4904,3765]},{"type":"Point","properties":{"Station_ID":"BRCM5","Station_Nam":"BRICELYN","Latitude":"43.54400","Longitude":"-93.84230","Snowdepth":"1.000","Units":"in","Rept_Date":"2020-03-21 12"},"coordinates":[797,1947]},{"type":"Point","properties":{"Station_ID":"BKEM5","Station_Nam":"BRECKENRIDGE 4NE","Latitude":"46.30470","Longitude":"-96.52170","Snowdepth":"1.000","Units":"in","Rept_Date":"2020-03-21 12"},"coordinates":[168,4664]},{"type":"Point","properties":{"Station_ID":"BFSW3","Station_Nam":"BIG FALLS-5 NW","Latitude":"44.63980","Longitude":"-89.11330","Snowdepth":"1.000","Units":"in","Rept_Date":"2020-03-21 12"},"coordinates":[1907,3026]},{"type":"Point","properties":{"Station_ID":"ABGW3","Station_Nam":"AMBERG 9 E","Latitude":"45.48250","Longitude":"-87.81190","Snowdepth":"1.000","Units":"in","Rept_Date":"2020-03-21 11"},"coordinates":[2212,3855]}]}},"arcs":[],"transform":{"scale":[0.004260890089008902,0.0010162916291629165],"translate":[-97.2386,41.565]}}