{"type":"Topology","objects":{"snowdepth_geo":{"type":"GeometryCollection","geometries":[{"type":"Point","coordinates":[-72.8154,44.5248],"properties":{"Station_ID":"MMNV1","Station_Nam":"MT. MANSFIELD","Latitude":"44.52480","Longitude":"-72.81540","Snowdepth":"89.000","Units":"in","Rept_Date":"2025-03-31 20"}},{"type":"Point","coordinates":[-86.62,46.4258],"properties":{"Station_ID":"PRKM4","Station_Nam":"MUNISING EAST","Latitude":"46.42580","Longitude":"-86.62000","Snowdepth":"76.500","Units":"in","Rept_Date":"2025-04-01 06"}},{"type":"Point","coordinates":[-86.6625,46.4121],"properties":{"Station_ID":"MNSM4","Station_Nam":"MUNISING","Latitude":"46.41210","Longitude":"-86.66250","Snowdepth":"48.000","Units":"in","Rept_Date":"2025-03-31 11"}},{"type":"Point","coordinates":[-88.6717,47.0416],"properties":{"Station_ID":"PDLM4","Station_Nam":"PAINESDALE","Latitude":"47.04160","Longitude":"-88.67170","Snowdepth":"44.000","Units":"in","Rept_Date":"2025-03-31 12"}},{"type":"Point","coordinates":[-85.6855,46.4461],"properties":{"Station_ID":"56761_MADIS","Station_Nam":"MCMILLAN 7.4 N, MI","Latitude":"46.44610","Longitude":"-85.68550","Snowdepth":"44.000","Units":"in","Rept_Date":"2025-03-31 12"}},{"type":"Point","coordinates":[-71.2833,44.2613],"properties":{"Station_ID":"HTLN3","Station_Nam":"HERMIT LAKE SNOWPLOT","Latitude":"44.26130","Longitude":"-71.28330","Snowdepth":"36.000","Units":"in","Rept_Date":"2025-03-31 09"}},{"type":"Point","coordinates":[-69.6747,50.7925],"properties":{"Station_ID":"CQOU","Station_Nam":"CQOU","Latitude":"50.79250","Longitude":"-69.67470","Snowdepth":"34.567","Units":"in","Rept_Date":"2025-03-31 12"}},{"type":"Point","coordinates":[-71.1955,44.2594],"properties":{"Station_ID":"CRNN3","Station_Nam":"CARTER NOTCH","Latitude":"44.25940","Longitude":"-71.19550","Snowdepth":"33.000","Units":"in","Rept_Date":"2025-03-31 11"}},{"type":"Point","coordinates":[-75.1,50.7236],"properties":{"Station_ID":"CQLB","Station_Nam":"CQLB","Latitude":"50.72360","Longitude":"-75.10000","Snowdepth":"32.441","Units":"in","Rept_Date":"2025-03-31 12"}},{"type":"Point","coordinates":[-68.8236,50.6617],"properties":{"Station_ID":"CMLZ","Station_Nam":"CMLZ","Latitude":"50.66170","Longitude":"-68.82360","Snowdepth":"31.339","Units":"in","Rept_Date":"2025-03-31 12"}},{"type":"Point","coordinates":[-67.1394,51.1114],"properties":{"Station_ID":"CQGD","Station_Nam":"CQGD","Latitude":"51.11140","Longitude":"-67.13940","Snowdepth":"31.299","Units":"in","Rept_Date":"2025-03-31 12"}},{"type":"Point","coordinates":[-88.2077,46.5573],"properties":{"Station_ID":"MI-BG-3","Station_Nam":"THREE LAKES, MI","Latitude":"46.55730","Longitude":"-88.20770","Snowdepth":"31.000","Units":"in","Rept_Date":"2025-03-31 12"}},{"type":"Point","coordinates":[-71.7031,44.1382],"properties":{"Station_ID":"LLHN3","Station_Nam":"LONESOME LAKE HUT","Latitude":"44.13820","Longitude":"-71.70310","Snowdepth":"31.000","Units":"in","Rept_Date":"2025-03-31 11"}},{"type":"Point","coordinates":[-88.5795,47.1364],"properties":{"Station_ID":"QNCM4","Station_Nam":"QUINCY HILL","Latitude":"47.13640","Longitude":"-88.57950","Snowdepth":"30.000","Units":"in","Rept_Date":"2025-03-31 11"}},{"type":"Point","coordinates":[-87.45705,46.47288],"properties":{"Station_ID":"MI-MQ-30","Station_Nam":"MARQUETTE 6.1 SSW, MI","Latitude":"46.47288","Longitude":"-87.45705","Snowdepth":"30.000","Units":"in","Rept_Date":"2025-03-31 12"}},{"type":"Point","coordinates":[-74.2064,48.855],"properties":{"Station_ID":"CQGO","Station_Nam":"CQGO","Latitude":"48.85500","Longitude":"-74.20640","Snowdepth":"28.504","Units":"in","Rept_Date":"2025-03-31 12"}},{"type":"Point","coordinates":[-74.4039,50.8328],"properties":{"Station_ID":"CQFT","Station_Nam":"CQFT","Latitude":"50.83280","Longitude":"-74.40390","Snowdepth":"28.228","Units":"in","Rept_Date":"2025-03-31 12"}},{"type":"Point","coordinates":[-71.4944,44.1959],"properties":{"Station_ID":"ZFHN3","Station_Nam":"ZEALAND FALLS HUT","Latitude":"44.19590","Longitude":"-71.49440","Snowdepth":"28.000","Units":"in","Rept_Date":"2025-03-31 11"}},{"type":"Point","coordinates":[-88.3333,46.65],"properties":{"Station_ID":"HERM4","Station_Nam":"HERMAN,MI","Latitude":"46.65000","Longitude":"-88.33330","Snowdepth":"28.000","Units":"in","Rept_Date":"2025-03-31 12"}},{"type":"Point","coordinates":[-87.2292,49.2288],"properties":{"Station_ID":"TRIQ6","Station_Nam":"TRIO LAKE","Latitude":"49.22880","Longitude":"-87.22920","Snowdepth":"27.910","Units":"in","Rept_Date":"2025-04-01 06"}},{"type":"Point","coordinates":[-82.5757,48.526],"properties":{"Station_ID":"AUDQ6","Station_Nam":"AUDEN","Latitude":"48.52600","Longitude":"-82.57570","Snowdepth":"27.640","Units":"in","Rept_Date":"2025-04-01 06"}},{"type":"Point","coordinates":[-86.95857,46.5029],"properties":{"Station_ID":"MI-AG-8","Station_Nam":"AU TRAIN 7.8 NW, MI","Latitude":"46.50290","Longitude":"-86.95857","Snowdepth":"27.500","Units":"in","Rept_Date":"2025-03-31 13"}},{"type":"Point","coordinates":[-88.6926,47.13156],"properties":{"Station_ID":"MI-HG-21","Station_Nam":"ATLANTIC MINE 3.9 NW, MI","Latitude":"47.13156","Longitude":"-88.69260","Snowdepth":"26.500","Units":"in","Rept_Date":"2025-03-31 11"}},{"type":"Point","coordinates":[-86.6594,49.0695],"properties":{"Station_ID":"PTLQ6","Station_Nam":"PORTAGE LAKE","Latitude":"49.06950","Longitude":"-86.65940","Snowdepth":"25.280","Units":"in","Rept_Date":"2025-04-01 06"}},{"type":"Point","coordinates":[-91.793,50.7787],"properties":{"Station_ID":"SOCQ6","Station_Nam":"SOCKET LAKE","Latitude":"50.77870","Longitude":"-91.79300","Snowdepth":"25.000","Units":"in","Rept_Date":"2025-04-01 06"}},{"type":"Point","coordinates":[-87.5492,46.5314],"properties":{"Station_ID":"MQT","Station_Nam":"MARQUETTE, MI","Latitude":"46.53140","Longitude":"-87.54920","Snowdepth":"24.000","Units":"in","Rept_Date":"2025-04-01 06"}},{"type":"Point","coordinates":[-88.5294,47.10774],"properties":{"Station_ID":"MI-HG-1","Station_Nam":"HOUGHTON 1.6 ESE, MI","Latitude":"47.10774","Longitude":"-88.52940","Snowdepth":"24.000","Units":"in","Rept_Date":"2025-03-31 12"}},{"type":"Point","coordinates":[-88.417,47.2752],"properties":{"Station_ID":"KSGM4","Station_Nam":"KEARSARGE","Latitude":"47.27520","Longitude":"-88.41700","Snowdepth":"24.000","Units":"in","Rept_Date":"2025-03-31 12"}},{"type":"Point","coordinates":[-69.3569,49.66],"properties":{"Station_ID":"CQTV","Station_Nam":"CQTV","Latitude":"49.66000","Longitude":"-69.35690","Snowdepth":"23.858","Units":"in","Rept_Date":"2025-03-31 12"}},{"type":"Point","coordinates":[-76.5983,47.8275],"properties":{"Station_ID":"CQCU","Station_Nam":"CQCU","Latitude":"47.82750","Longitude":"-76.59830","Snowdepth":"23.583","Units":"in","Rept_Date":"2025-03-31 12"}},{"type":"Point","coordinates":[-87.7644,49.1989],"properties":{"Station_ID":"DVLQ6","Station_Nam":"DEVIOUS LAKE","Latitude":"49.19890","Longitude":"-87.76440","Snowdepth":"23.580","Units":"in","Rept_Date":"2025-04-01 06"}},{"type":"Point","coordinates":[-87.8582,50.7668],"properties":{"Station_ID":"OGIQ6","Station_Nam":"OGOKI CAMP","Latitude":"50.76680","Longitude":"-87.85820","Snowdepth":"23.190","Units":"in","Rept_Date":"2025-04-01 06"}},{"type":"Point","coordinates":[-88.5983,47.13273],"properties":{"Station_ID":"54021_MADIS","Station_Nam":"HANCOCK 0.1 ENE, MI","Latitude":"47.13273","Longitude":"-88.59830","Snowdepth":"23.000","Units":"in","Rept_Date":"2025-03-31 14"}},{"type":"Point","coordinates":[-70.0806,51.3283],"properties":{"Station_ID":"CQCX","Station_Nam":"CQCX","Latitude":"51.32830","Longitude":"-70.08060","Snowdepth":"22.756","Units":"in","Rept_Date":"2025-03-31 12"}},{"type":"Point","coordinates":[-90.6567,50.2873],"properties":{"Station_ID":"SVBQ6","Station_Nam":"SAVANT BASE","Latitude":"50.28730","Longitude":"-90.65670","Snowdepth":"22.090","Units":"in","Rept_Date":"2025-04-01 06"}},{"type":"Point","coordinates":[-86.75747,46.27805],"properties":{"Station_ID":"MI-AG-6","Station_Nam":"MUNISING 11.1 SSW, MI","Latitude":"46.27805","Longitude":"-86.75747","Snowdepth":"22.000","Units":"in","Rept_Date":"2025-03-31 11"}},{"type":"Point","coordinates":[-87.8816,46.7462],"properties":{"Station_ID":"BBEM4","Station_Nam":"BIG BAY 9SW","Latitude":"46.74620","Longitude":"-87.88160","Snowdepth":"22.000","Units":"in","Rept_Date":"2025-03-31 12"}},{"type":"Point","coordinates":[-88.854,46.8944],"properties":{"Station_ID":"57011_MADIS","Station_Nam":"TWIN LAKES 0.2 SW, MI","Latitude":"46.89440","Longitude":"-88.85400","Snowdepth":"22.000","Units":"in","Rept_Date":"2025-03-31 12"}},{"type":"Point","coordinates":[-72.5719,51.0578],"properties":{"Station_ID":"CQTM","Station_Nam":"CQTM","Latitude":"51.05780","Longitude":"-72.57190","Snowdepth":"21.378","Units":"in","Rept_Date":"2025-03-31 12"}},{"type":"Point","coordinates":[-84.28515,46.50299],"properties":{"Station_ID":"CAN-ON-915","Station_Nam":"SAULT STE. MARIE 3.9 ESE, CAN","Latitude":"46.50299","Longitude":"-84.28515","Snowdepth":"20.300","Units":"in","Rept_Date":"2025-03-31 12"}},{"type":"Point","coordinates":[-91.8221,51.7269],"properties":{"Station_ID":"CATQ6","Station_Nam":"CAT LAKE","Latitude":"51.72690","Longitude":"-91.82210","Snowdepth":"20.280","Units":"in","Rept_Date":"2025-04-01 06"}},{"type":"Point","coordinates":[-88.5137,47.1167],"properties":{"Station_ID":"CGPM4","Station_Nam":"DOLLAR BAY","Latitude":"47.11670","Longitude":"-88.51370","Snowdepth":"20.000","Units":"in","Rept_Date":"2025-03-31 12"}},{"type":"Point","coordinates":[-89.5475,46.5869],"properties":{"Station_ID":"BERM4","Station_Nam":"BERGLAND DAM","Latitude":"46.58690","Longitude":"-89.54750","Snowdepth":"20.000","Units":"in","Rept_Date":"2025-03-31 12"}},{"type":"Point","coordinates":[-87.61221,46.71871],"properties":{"Station_ID":"MI-MQ-32","Station_Nam":"BIG BAY 9.0 SE, MI","Latitude":"46.71871","Longitude":"-87.61221","Snowdepth":"19.500","Units":"in","Rept_Date":"2025-03-31 11"}},{"type":"Point","coordinates":[-70.4719,50.1033],"properties":{"Station_ID":"CQMA","Station_Nam":"CQMA","Latitude":"50.10330","Longitude":"-70.47190","Snowdepth":"19.370","Units":"in","Rept_Date":"2025-03-31 12"}},{"type":"Point","coordinates":[-84.4025,46.4866],"properties":{"Station_ID":"SSMM4","Station_Nam":"SAULT STE MARIE","Latitude":"46.48660","Longitude":"-84.40250","Snowdepth":"19.000","Units":"in","Rept_Date":"2025-03-31 11"}},{"type":"Point","coordinates":[-84.31971,46.48933],"properties":{"Station_ID":"MI-CP-14","Station_Nam":"SAULT STE. MARIE 2.2 E, MI","Latitude":"46.48933","Longitude":"-84.31971","Snowdepth":"19.000","Units":"in","Rept_Date":"2025-03-31 11"}},{"type":"Point","coordinates":[-87.4503,46.28397],"properties":{"Station_ID":"61591_MADIS","Station_Nam":"GWINN 0.7 SW, MI","Latitude":"46.28397","Longitude":"-87.45030","Snowdepth":"19.000","Units":"in","Rept_Date":"2025-03-31 13"}},{"type":"Point","coordinates":[-73.8067,47.8461],"properties":{"Station_ID":"CQWE","Station_Nam":"CQWE","Latitude":"47.84610","Longitude":"-73.80670","Snowdepth":"18.740","Units":"in","Rept_Date":"2025-03-31 12"}},{"type":"Point","coordinates":[-86.9375,50.6386],"properties":{"Station_ID":"ANAQ6","Station_Nam":"ANACONDA","Latitude":"50.63860","Longitude":"-86.93750","Snowdepth":"18.580","Units":"in","Rept_Date":"2025-04-01 01"}},{"type":"Point","coordinates":[-87.7504,46.8325],"properties":{"Station_ID":"BGBM4","Station_Nam":"BIG BAY 1NW","Latitude":"46.83250","Longitude":"-87.75040","Snowdepth":"18.000","Units":"in","Rept_Date":"2025-03-31 12"}},{"type":"Point","coordinates":[-67.6264,49.6472],"properties":{"Station_ID":"CQGT","Station_Nam":"CQGT","Latitude":"49.64720","Longitude":"-67.62640","Snowdepth":"17.953","Units":"in","Rept_Date":"2025-03-31 12"}},{"type":"Point","coordinates":[-70.2528,48.9203],"properties":{"Station_ID":"CQLM","Station_Nam":"CQLM","Latitude":"48.92030","Longitude":"-70.25280","Snowdepth":"17.402","Units":"in","Rept_Date":"2025-03-31 12"}},{"type":"Point","coordinates":[-66.13279,47.90803],"properties":{"Station_ID":"CAN-NB-50","Station_Nam":"DOYLEVILLE 2.4 WNW, CAN","Latitude":"47.90803","Longitude":"-66.13279","Snowdepth":"17.100","Units":"in","Rept_Date":"2025-03-31 12"}},{"type":"Point","coordinates":[-87.3795,46.5458],"properties":{"Station_ID":"MRQM4","Station_Nam":"MARQUETTE WFP","Latitude":"46.54580","Longitude":"-87.37950","Snowdepth":"17.000","Units":"in","Rept_Date":"2025-03-31 12"}},{"type":"Point","coordinates":[-72.2011,51.4528],"properties":{"Station_ID":"CQCO","Station_Nam":"CQCO","Latitude":"51.45280","Longitude":"-72.20110","Snowdepth":"16.102","Units":"in","Rept_Date":"2025-03-31 12"}},{"type":"Point","coordinates":[-87.3779,46.3341],"properties":{"Station_ID":"KISM4","Station_Nam":"K.I. SAWYER WWTP","Latitude":"46.33410","Longitude":"-87.37790","Snowdepth":"16.000","Units":"in","Rept_Date":"2025-03-31 12"}},{"type":"Point","coordinates":[-87.3547,46.4908],"properties":{"Station_ID":"HRVM4","Station_Nam":"HARVEY","Latitude":"46.49080","Longitude":"-87.35470","Snowdepth":"16.000","Units":"in","Rept_Date":"2025-03-31 13"}},{"type":"Point","coordinates":[-87.845,46.4991],"properties":{"Station_ID":"CLKM4","Station_Nam":"CLARKSBURG","Latitude":"46.49910","Longitude":"-87.84500","Snowdepth":"16.000","Units":"in","Rept_Date":"2025-03-31 11"}},{"type":"Point","coordinates":[-71.4127,44.2196],"properties":{"Station_ID":"CAWN3","Station_Nam":"CRAWFORD NOTCH","Latitude":"44.21960","Longitude":"-71.41270","Snowdepth":"16.000","Units":"in","Rept_Date":"2025-03-31 11"}},{"type":"Point","coordinates":[-75.845,49.2906],"properties":{"Station_ID":"CQMD","Station_Nam":"CQMD","Latitude":"49.29060","Longitude":"-75.84500","Snowdepth":"15.157","Units":"in","Rept_Date":"2025-03-31 12"}},{"type":"Point","coordinates":[-75.5543,43.6051],"properties":{"Station_ID":"HGHN6","Station_Nam":"HIGHMARKET","Latitude":"43.60510","Longitude":"-75.55430","Snowdepth":"15.000","Units":"in","Rept_Date":"2025-03-31 12"}},{"type":"Point","coordinates":[-87.3038,46.4533],"properties":{"Station_ID":"GGRM4","Station_Nam":"GREEN GARDEN NO.2","Latitude":"46.45330","Longitude":"-87.30380","Snowdepth":"15.000","Units":"in","Rept_Date":"2025-03-31 13"}},{"type":"Point","coordinates":[-73.9228,50.2708],"properties":{"Station_ID":"CQLI","Station_Nam":"CQLI","Latitude":"50.27080","Longitude":"-73.92280","Snowdepth":"15.000","Units":"in","Rept_Date":"2025-03-31 12"}},{"type":"Point","coordinates":[-86.72684,50.1891],"properties":{"Station_ID":"CAN-ON-335","Station_Nam":"NAKINA 1.6 NW - MNRF, CAN","Latitude":"50.18910","Longitude":"-86.72684","Snowdepth":"15.000","Units":"in","Rept_Date":"2025-03-31 12"}},{"type":"Point","coordinates":[-66.9111,51.5217],"properties":{"Station_ID":"CMFU","Station_Nam":"CMFU","Latitude":"51.52170","Longitude":"-66.91110","Snowdepth":"14.685","Units":"in","Rept_Date":"2025-03-31 12"}},{"type":"Point","coordinates":[-84.303,46.503],"properties":{"Station_ID":"CAN-ON-757","Station_Nam":"SAULT STE. MARIE 2.8 ESE - GLFC, CAN","Latitude":"46.50300","Longitude":"-84.30300","Snowdepth":"14.600","Units":"in","Rept_Date":"2025-03-31 12"}},{"type":"Point","coordinates":[-88.7038,49.19],"properties":{"Station_ID":"NONQ6","Station_Nam":"NONWATIN","Latitude":"49.19000","Longitude":"-88.70380","Snowdepth":"14.210","Units":"in","Rept_Date":"2025-04-01 06"}},{"type":"Point","coordinates":[-87.7567,46.4055],"properties":{"Station_ID":"MI-MQ-19","Station_Nam":"ISHPEMING 7.2 SW, MI","Latitude":"46.40550","Longitude":"-87.75670","Snowdepth":"14.000","Units":"in","Rept_Date":"2025-03-31 10"}},{"type":"Point","coordinates":[-94.2577,52.1145],"properties":{"Station_ID":"POPQ6","Station_Nam":"POPLAR HILL","Latitude":"52.11450","Longitude":"-94.25770","Snowdepth":"13.780","Units":"in","Rept_Date":"2025-04-01 06"}},{"type":"Point","coordinates":[-68.8406,51.2833],"properties":{"Station_ID":"CMRL","Station_Nam":"CMRL","Latitude":"51.28330","Longitude":"-68.84060","Snowdepth":"13.740","Units":"in","Rept_Date":"2025-03-31 12"}},{"type":"Point","coordinates":[-75.5384,43.37335],"properties":{"Station_ID":"NY-OD-2","Station_Nam":"POINT ROCK 0.6 SE, NY","Latitude":"43.37335","Longitude":"-75.53840","Snowdepth":"13.500","Units":"in","Rept_Date":"2025-03-31 12"}},{"type":"Point","coordinates":[-87.9051,51.5582],"properties":{"Station_ID":"FTHQ6","Station_Nam":"FORT HOPE","Latitude":"51.55820","Longitude":"-87.90510","Snowdepth":"13.430","Units":"in","Rept_Date":"2025-04-01 06"}},{"type":"Point","coordinates":[-88.6424,46.5266],"properties":{"Station_ID":"WTNM4","Station_Nam":"WATTON 2WSW","Latitude":"46.52660","Longitude":"-88.64240","Snowdepth":"13.000","Units":"in","Rept_Date":"2025-03-31 12"}},{"type":"Point","coordinates":[-90.30508,47.8062],"properties":{"Station_ID":"MN-CK-29","Station_Nam":"GRAND MARAIS 3.8 NNE, MN","Latitude":"47.80620","Longitude":"-90.30508","Snowdepth":"13.000","Units":"in","Rept_Date":"2025-03-31 12"}},{"type":"Point","coordinates":[-90.08287,46.54936],"properties":{"Station_ID":"MI-GG-11","Station_Nam":"IRONWOOD 7.3 NNE, MI","Latitude":"46.54936","Longitude":"-90.08287","Snowdepth":"13.000","Units":"in","Rept_Date":"2025-03-31 12"}},{"type":"Point","coordinates":[-86.70099,50.21269],"properties":{"Station_ID":"CAN-ON-224","Station_Nam":"NAKINA 3.8 N - MNRF, CAN","Latitude":"50.21269","Longitude":"-86.70099","Snowdepth":"12.600","Units":"in","Rept_Date":"2025-03-31 13"}},{"type":"Point","coordinates":[-74.8088,43.1626],"properties":{"Station_ID":"NY-HR-18","Station_Nam":"SALISBURY CENTER 1.8 NW, NY","Latitude":"43.16260","Longitude":"-74.80880","Snowdepth":"12.500","Units":"in","Rept_Date":"2025-03-31 11"}},{"type":"Point","coordinates":[-87.21344,46.33748],"properties":{"Station_ID":"MI-MQ-34","Station_Nam":"SKANDIA 3.0 SSE, MI","Latitude":"46.33748","Longitude":"-87.21344","Snowdepth":"12.500","Units":"in","Rept_Date":"2025-03-31 11"}},{"type":"Point","coordinates":[-86.9167,46.3333],"properties":{"Station_ID":"CEFM4","Station_Nam":"EXPERIMENT FARM #2","Latitude":"46.33330","Longitude":"-86.91670","Snowdepth":"12.000","Units":"in","Rept_Date":"2025-03-31 12"}},{"type":"Point","coordinates":[-73.7381,47.2564],"properties":{"Station_ID":"CQGA","Station_Nam":"CQGA","Latitude":"47.25640","Longitude":"-73.73810","Snowdepth":"11.929","Units":"in","Rept_Date":"2025-03-31 12"}},{"type":"Point","coordinates":[-91.4716,48.7067],"properties":{"Station_ID":"ATIQ6","Station_Nam":"ATIKOKAN","Latitude":"48.70670","Longitude":"-91.47160","Snowdepth":"11.220","Units":"in","Rept_Date":"2025-04-01 06"}},{"type":"Point","coordinates":[-90.87444,48.14388],"properties":{"Station_ID":"MN-CK-56","Station_Nam":"GRAND MARAIS 36.2 NW, MN","Latitude":"48.14388","Longitude":"-90.87444","Snowdepth":"11.000","Units":"in","Rept_Date":"2025-03-31 12"}},{"type":"Point","coordinates":[-90.1382,46.4652],"properties":{"Station_ID":"IWOM4","Station_Nam":"IRONWOOD#2","Latitude":"46.46520","Longitude":"-90.13820","Snowdepth":"11.000","Units":"in","Rept_Date":"2025-03-31 12"}},{"type":"Point","coordinates":[-89.1799,49.5995],"properties":{"Station_ID":"KABQ6","Station_Nam":"CAB LAKE","Latitude":"49.59950","Longitude":"-89.17990","Snowdepth":"10.830","Units":"in","Rept_Date":"2025-04-01 06"}},{"type":"Point","coordinates":[-90.27013,46.41555],"properties":{"Station_ID":"WI-IR-3","Station_Nam":"PENCE 0.1 E, WI","Latitude":"46.41555","Longitude":"-90.27013","Snowdepth":"10.500","Units":"in","Rept_Date":"2025-03-31 12"}},{"type":"Point","coordinates":[-90.1955,46.4625],"properties":{"Station_ID":"HURW3","Station_Nam":"HURLEY","Latitude":"46.46250","Longitude":"-90.19550","Snowdepth":"10.000","Units":"in","Rept_Date":"2025-03-31 13"}},{"type":"Point","coordinates":[-88.4544,46.2347],"properties":{"Station_ID":"AMAM4","Station_Nam":"AMASA 1W","Latitude":"46.23470","Longitude":"-88.45440","Snowdepth":"10.000","Units":"in","Rept_Date":"2025-03-31 13"}},{"type":"Point","coordinates":[-95.19123,49.74405],"properties":{"Station_ID":"CAN-MB-368","Station_Nam":"WHITESHELL 1.3 NE, CAN","Latitude":"49.74405","Longitude":"-95.19123","Snowdepth":"9.800","Units":"in","Rept_Date":"2025-03-31 13"}},{"type":"Point","coordinates":[-90.1696,46.388],"properties":{"Station_ID":"WI-IR-6","Station_Nam":"HURLEY 4.1 SSE, WI","Latitude":"46.38800","Longitude":"-90.16960","Snowdepth":"9.500","Units":"in","Rept_Date":"2025-03-31 13"}},{"type":"Point","coordinates":[-71.27124,46.76934],"properties":{"Station_ID":"CAN-QC-47","Station_Nam":"SAINTE-FOY 1.8 ENE, CAN","Latitude":"46.76934","Longitude":"-71.27124","Snowdepth":"9.400","Units":"in","Rept_Date":"2025-03-31 11"}},{"type":"Point","coordinates":[-90.98092,46.16937],"properties":{"Station_ID":"WI-BY-2","Station_Nam":"CLAM LAKE 4 W, WI","Latitude":"46.16937","Longitude":"-90.98092","Snowdepth":"9.000","Units":"in","Rept_Date":"2025-03-31 12"}},{"type":"Point","coordinates":[-84.3239,46.1864],"properties":{"Station_ID":"PICM4","Station_Nam":"PICKFORD 3NE","Latitude":"46.18640","Longitude":"-84.32390","Snowdepth":"9.000","Units":"in","Rept_Date":"2025-03-31 22"}},{"type":"Point","coordinates":[-72.8333,44.5333],"properties":{"Station_ID":"MMSV1","Station_Nam":"MOUNT MANSFIELD","Latitude":"44.53330","Longitude":"-72.83330","Snowdepth":"9.000","Units":"in","Rept_Date":"2025-04-01 06"}},{"type":"Point","coordinates":[-90.1833,46.4667],"properties":{"Station_ID":"IRMM4","Station_Nam":"WWTP","Latitude":"46.46670","Longitude":"-90.18330","Snowdepth":"9.000","Units":"in","Rept_Date":"2025-03-31 12"}},{"type":"Point","coordinates":[-90.9808,46.1694],"properties":{"Station_ID":"CMKW3","Station_Nam":"CLAM LAKE 4W","Latitude":"46.16940","Longitude":"-90.98080","Snowdepth":"9.000","Units":"in","Rept_Date":"2025-03-31 12"}},{"type":"Point","coordinates":[-89.28143,46.85396],"properties":{"Station_ID":"MI-ON-4","Station_Nam":"ONTONAGON 1.8 ESE, MI","Latitude":"46.85396","Longitude":"-89.28143","Snowdepth":"8.500","Units":"in","Rept_Date":"2025-03-31 12"}},{"type":"Point","coordinates":[-97.04752,49.93264],"properties":{"Station_ID":"CAN-MB-56","Station_Nam":"WINNIPEG 7.6 ENE, CAN","Latitude":"49.93264","Longitude":"-97.04752","Snowdepth":"8.500","Units":"in","Rept_Date":"2025-03-31 13"}},{"type":"Point","coordinates":[-66.68739,45.90112],"properties":{"Station_ID":"CAN-NB-97","Station_Nam":"NEW MARYLAND 0.6 NW, CAN","Latitude":"45.90112","Longitude":"-66.68739","Snowdepth":"8.100","Units":"in","Rept_Date":"2025-03-31 10"}},{"type":"Point","coordinates":[-89.4579,46.19023],"properties":{"Station_ID":"WI-VL-9","Station_Nam":"LAND O' LAKES 11.7 W, WI","Latitude":"46.19023","Longitude":"-89.45790","Snowdepth":"8.000","Units":"in","Rept_Date":"2025-03-31 12"}},{"type":"Point","coordinates":[-90.8839,46.5824],"properties":{"Station_ID":"WI-AS-4","Station_Nam":"ASHLAND 0.5 WNW, WI","Latitude":"46.58240","Longitude":"-90.88390","Snowdepth":"8.000","Units":"in","Rept_Date":"2025-03-31 12"}},{"type":"Point","coordinates":[-90.4122,46.3678],"properties":{"Station_ID":"UPSW3","Station_Nam":"UPSON,WI","Latitude":"46.36780","Longitude":"-90.41220","Snowdepth":"8.000","Units":"in","Rept_Date":"2025-03-31 23"}},{"type":"Point","coordinates":[-73.8992,42.84645],"properties":{"Station_ID":"NY-SC-16","Station_Nam":"NISKAYUNA 2.0 N, NY","Latitude":"42.84645","Longitude":"-73.89920","Snowdepth":"8.000","Units":"in","Rept_Date":"2025-03-31 11"}},{"type":"Point","coordinates":[-86.5485,45.89815],"properties":{"Station_ID":"MI-DL-1","Station_Nam":"GARDEN CORNERS 0.8 NW, MI","Latitude":"45.89815","Longitude":"-86.54850","Snowdepth":"8.000","Units":"in","Rept_Date":"2025-03-31 12"}},{"type":"Point","coordinates":[-89.0758,46.1211],"properties":{"Station_ID":"LVDW3","Station_Nam":"LAC VIEUX DESERT","Latitude":"46.12110","Longitude":"-89.07580","Snowdepth":"8.000","Units":"in","Rept_Date":"2025-03-31 12"}},{"type":"Point","coordinates":[-89.457,46.19],"properties":{"Station_ID":"LNOW3","Station_Nam":"LAND O LAKES","Latitude":"46.19000","Longitude":"-89.45700","Snowdepth":"8.000","Units":"in","Rept_Date":"2025-03-31 12"}},{"type":"Point","coordinates":[-86.5485,45.8983],"properties":{"Station_ID":"GDCM4","Station_Nam":"GARDEN CORNERS","Latitude":"45.89830","Longitude":"-86.54850","Snowdepth":"8.000","Units":"in","Rept_Date":"2025-03-31 12"}},{"type":"Point","coordinates":[-89.1528,45.9189],"properties":{"Station_ID":"EVRW3","Station_Nam":"EAGLE RIVER-4 E","Latitude":"45.91890","Longitude":"-89.15280","Snowdepth":"8.000","Units":"in","Rept_Date":"2025-03-31 12"}},{"type":"Point","coordinates":[-79.81035,44.50564],"properties":{"Station_ID":"CAN-ON-245","Station_Nam":"PHELPSTON 3.1 ESE, CAN","Latitude":"44.50564","Longitude":"-79.81035","Snowdepth":"8.000","Units":"in","Rept_Date":"2025-03-31 11"}},{"type":"Point","coordinates":[-90.8839,46.5824],"properties":{"Station_ID":"AWXW3","Station_Nam":"ASHLAND","Latitude":"46.58240","Longitude":"-90.88390","Snowdepth":"8.000","Units":"in","Rept_Date":"2025-03-31 12"}},{"type":"Point","coordinates":[-68.5431,49.8239],"properties":{"Station_ID":"CQIQ","Station_Nam":"CQIQ","Latitude":"49.82390","Longitude":"-68.54310","Snowdepth":"7.992","Units":"in","Rept_Date":"2025-03-31 12"}},{"type":"Point","coordinates":[-90.14067,46.51845],"properties":{"Station_ID":"MI-GG-8","Station_Nam":"IRONWOOD 4.5 N, MI","Latitude":"46.51845","Longitude":"-90.14067","Snowdepth":"7.500","Units":"in","Rept_Date":"2025-03-31 12"}},{"type":"Point","coordinates":[-75.6147,48.8722],"properties":{"Station_ID":"CQYR","Station_Nam":"CQYR","Latitude":"48.87220","Longitude":"-75.61470","Snowdepth":"7.362","Units":"in","Rept_Date":"2025-03-31 12"}},{"type":"Point","coordinates":[-94.44386,49.84171],"properties":{"Station_ID":"CAN-ON-771","Station_Nam":"KENORA 8.7 NNE - CANWARN, CAN","Latitude":"49.84171","Longitude":"-94.44386","Snowdepth":"7.200","Units":"in","Rept_Date":"2025-03-31 12"}},{"type":"Point","coordinates":[-66.68965,46.01577],"properties":{"Station_ID":"CAN-NB-174","Station_Nam":"MCLEOD HILL 1.3 SSW, CAN","Latitude":"46.01577","Longitude":"-66.68965","Snowdepth":"7.100","Units":"in","Rept_Date":"2025-03-31 10"}},{"type":"Point","coordinates":[-85.5162,46.3515],"properties":{"Station_ID":"NCFM4","Station_Nam":"NEWBERRY-LUCE COUNTY ROAD COMMISSION","Latitude":"46.35150","Longitude":"-85.51620","Snowdepth":"7.000","Units":"in","Rept_Date":"2025-03-31 12"}},{"type":"Point","coordinates":[-91.86862,47.88254],"properties":{"Station_ID":"MN-SL-328","Station_Nam":"ELY 1.8 SSW, MN","Latitude":"47.88254","Longitude":"-91.86862","Snowdepth":"7.000","Units":"in","Rept_Date":"2025-03-31 12"}},{"type":"Point","coordinates":[-88.18,46.5453],"properties":{"Station_ID":"MIEM4","Station_Nam":"MICHIGAMME 3WNW","Latitude":"46.54530","Longitude":"-88.18000","Snowdepth":"7.000","Units":"in","Rept_Date":"2025-03-31 12"}},{"type":"Point","coordinates":[-90.9161,46.5522],"properties":{"Station_ID":"ASXW3","Station_Nam":"ASHLAND,WI","Latitude":"46.55220","Longitude":"-90.91610","Snowdepth":"7.000","Units":"in","Rept_Date":"2025-03-31 13"}},{"type":"Point","coordinates":[-91.0109,46.689],"properties":{"Station_ID":"WI-BY-56","Station_Nam":"WASHBURN 5.7 W, WI","Latitude":"46.68900","Longitude":"-91.01090","Snowdepth":"6.500","Units":"in","Rept_Date":"2025-03-31 12"}},{"type":"Point","coordinates":[-90.96005,46.64576],"properties":{"Station_ID":"WI-BY-52","Station_Nam":"WASHBURN 3.7 WSW, WI","Latitude":"46.64576","Longitude":"-90.96005","Snowdepth":"6.500","Units":"in","Rept_Date":"2025-03-31 11"}},{"type":"Point","coordinates":[-91.07856,46.59742],"properties":{"Station_ID":"WI-BY-14","Station_Nam":"ASHLAND 9.8 W, WI","Latitude":"46.59742","Longitude":"-91.07856","Snowdepth":"6.500","Units":"in","Rept_Date":"2025-03-31 11"}},{"type":"Point","coordinates":[-73.4594,48.4889],"properties":{"Station_ID":"CQWG","Station_Nam":"CQWG","Latitude":"48.48890","Longitude":"-73.45940","Snowdepth":"6.181","Units":"in","Rept_Date":"2025-03-31 12"}},{"type":"Point","coordinates":[-91.43826,45.95322],"properties":{"Station_ID":"WI-SR-4","Station_Nam":"HAYWARD 4.4 SSE, WI","Latitude":"45.95322","Longitude":"-91.43826","Snowdepth":"6.000","Units":"in","Rept_Date":"2025-03-31 12"}},{"type":"Point","coordinates":[-72.4435,44.8916],"properties":{"Station_ID":"VT-OL-1","Station_Nam":"WESTFIELD 0.7 WNW, VT","Latitude":"44.89160","Longitude":"-72.44350","Snowdepth":"6.000","Units":"in","Rept_Date":"2025-03-31 11"}},{"type":"Point","coordinates":[-72.14756,44.02268],"properties":{"Station_ID":"VT-OG-14","Station_Nam":"BRADFORD 2.2 NNW, VT","Latitude":"44.02268","Longitude":"-72.14756","Snowdepth":"6.000","Units":"in","Rept_Date":"2025-03-31 09"}},{"type":"Point","coordinates":[-88.6278,46.0555],"properties":{"Station_ID":"STMM4","Station_Nam":"STAMBAUGH 2SSE","Latitude":"46.05550","Longitude":"-88.62780","Snowdepth":"6.000","Units":"in","Rept_Date":"2025-03-31 12"}},{"type":"Point","coordinates":[-89.1794,46.3976],"properties":{"Station_ID":"PDGM4","Station_Nam":"PAULDING","Latitude":"46.39760","Longitude":"-89.17940","Snowdepth":"6.000","Units":"in","Rept_Date":"2025-03-31 12"}},{"type":"Point","coordinates":[-71.3415,43.80976],"properties":{"Station_ID":"NH-CR-26","Station_Nam":"CENTER SANDWICH 4.9 E, NH","Latitude":"43.80976","Longitude":"-71.34150","Snowdepth":"6.000","Units":"in","Rept_Date":"2025-03-31 11"}},{"type":"Point","coordinates":[-88.08416,45.82719],"properties":{"Station_ID":"MI-DC-6","Station_Nam":"IRON MOUNTAIN 1.1 W, MI","Latitude":"45.82719","Longitude":"-88.08416","Snowdepth":"6.000","Units":"in","Rept_Date":"2025-03-31 12"}},{"type":"Point","coordinates":[-90.0722,46.1683],"properties":{"Station_ID":"MERW3","Station_Nam":"MERCER,WI","Latitude":"46.16830","Longitude":"-90.07220","Snowdepth":"6.000","Units":"in","Rept_Date":"2025-03-31 14"}},{"type":"Point","coordinates":[-71.3425,43.8099],"properties":{"Station_ID":"ESDN3","Station_Nam":"EAST SANDWICH","Latitude":"43.80990","Longitude":"-71.34250","Snowdepth":"6.000","Units":"in","Rept_Date":"2025-03-31 12"}},{"type":"Point","coordinates":[-87.4833,46.0667],"properties":{"Station_ID":"AROM4","Station_Nam":"ARNOLD,MI","Latitude":"46.06670","Longitude":"-87.48330","Snowdepth":"6.000","Units":"in","Rept_Date":"2025-03-31 12"}},{"type":"Point","coordinates":[-86.413,45.80105],"properties":{"Station_ID":"75281_MADIS","Station_Nam":"MANISTIQUE 13.4 SW, MI","Latitude":"45.80105","Longitude":"-86.41300","Snowdepth":"6.000","Units":"in","Rept_Date":"2025-03-31 12"}},{"type":"Point","coordinates":[-88.0856,45.78378],"properties":{"Station_ID":"62681_MADIS","Station_Nam":"AURORA 0.7 E, WI","Latitude":"45.78378","Longitude":"-88.08560","Snowdepth":"6.000","Units":"in","Rept_Date":"2025-03-31 12"}},{"type":"Point","coordinates":[-72.6383,48.1392],"properties":{"Station_ID":"CQLP","Station_Nam":"CQLP","Latitude":"48.13920","Longitude":"-72.63830","Snowdepth":"5.827","Units":"in","Rept_Date":"2025-03-31 12"}},{"type":"Point","coordinates":[-89.6247,46.1284],"properties":{"Station_ID":"WI-VL-14","Station_Nam":"BOULDER JUNCTION 1.4 NE, WI","Latitude":"46.12840","Longitude":"-89.62470","Snowdepth":"5.500","Units":"in","Rept_Date":"2025-03-31 12"}},{"type":"Point","coordinates":[-84.73582,45.86422],"properties":{"Station_ID":"MI-MC-5","Station_Nam":"ST. IGNACE 0.6 WSW, MI","Latitude":"45.86422","Longitude":"-84.73582","Snowdepth":"5.500","Units":"in","Rept_Date":"2025-03-31 11"}},{"type":"Point","coordinates":[-71.3333,44.5],"properties":{"Station_ID":"YORN3","Station_Nam":"YORK POND ST FISH HATCHERY","Latitude":"44.50000","Longitude":"-71.33330","Snowdepth":"5.000","Units":"in","Rept_Date":"2025-03-31 11"}},{"type":"Point","coordinates":[-89.4085,46.2231],"properties":{"Station_ID":"WTRM4","Station_Nam":"WATERSMEET 12WSW","Latitude":"46.22310","Longitude":"-89.40850","Snowdepth":"5.000","Units":"in","Rept_Date":"2025-03-31 11"}},{"type":"Point","coordinates":[-88.7416,45.1452],"properties":{"Station_ID":"WLKW3","Station_Nam":"WHITE LAKE 1 SE","Latitude":"45.14520","Longitude":"-88.74160","Snowdepth":"5.000","Units":"in","Rept_Date":"2025-03-31 13"}},{"type":"Point","coordinates":[-72.6265,44.31799],"properties":{"Station_ID":"VT-WS-7","Station_Nam":"MIDDLESEX 3.1 ENE, VT","Latitude":"44.31799","Longitude":"-72.62650","Snowdepth":"5.000","Units":"in","Rept_Date":"2025-03-31 13"}},{"type":"Point","coordinates":[-72.10523,44.23024],"properties":{"Station_ID":"VT-CL-23","Station_Nam":"RYEGATE 1.5 N, VT","Latitude":"44.23024","Longitude":"-72.10523","Snowdepth":"5.000","Units":"in","Rept_Date":"2025-03-31 11"}},{"type":"Point","coordinates":[-93.216,48.59631],"properties":{"Station_ID":"MN-KC-20","Station_Nam":"INTERNATIONAL FALLS 8.8 E, MN","Latitude":"48.59631","Longitude":"-93.21600","Snowdepth":"5.000","Units":"in","Rept_Date":"2025-03-31 12"}},{"type":"Point","coordinates":[-88.0403,45.8758],"properties":{"Station_ID":"IMNM4","Station_Nam":"IRON MOUTAIN 5N","Latitude":"45.87580","Longitude":"-88.04030","Snowdepth":"5.000","Units":"in","Rept_Date":"2025-03-31 12"}},{"type":"Point","coordinates":[-87.0391,45.8433],"properties":{"Station_ID":"GLDM4","Station_Nam":"GLADSTONE NO. 2","Latitude":"45.84330","Longitude":"-87.03910","Snowdepth":"5.000","Units":"in","Rept_Date":"2025-03-31 11"}},{"type":"Point","coordinates":[-87.0406,45.7438],"properties":{"Station_ID":"ESAM4","Station_Nam":"ESCANABA","Latitude":"45.74380","Longitude":"-87.04060","Snowdepth":"5.000","Units":"in","Rept_Date":"2025-03-31 11"}},{"type":"Point","coordinates":[-85.5696,46.128],"properties":{"Station_ID":"ENGM4","Station_Nam":"ENGADINE MDOT","Latitude":"46.12800","Longitude":"-85.56960","Snowdepth":"5.000","Units":"in","Rept_Date":"2025-03-31 11"}},{"type":"Point","coordinates":[-69.8119,45.6602],"properties":{"Station_ID":"BRAM1","Station_Nam":"BRASSUA DAM","Latitude":"45.66020","Longitude":"-69.81190","Snowdepth":"5.000","Units":"in","Rept_Date":"2025-03-31 11"}},{"type":"Point","coordinates":[-91.4486,47.9719],"properties":{"Station_ID":"BNDM5","Station_Nam":"ELY 25E","Latitude":"47.97190","Longitude":"-91.44860","Snowdepth":"5.000","Units":"in","Rept_Date":"2025-03-31 15"}},{"type":"Point","coordinates":[-88.6059,46.821],"properties":{"Station_ID":"BAGM4","Station_Nam":"BARAGA 7NW","Latitude":"46.82100","Longitude":"-88.60590","Snowdepth":"5.000","Units":"in","Rept_Date":"2025-03-31 12"}},{"type":"Point","coordinates":[-91.8811,45.72553],"properties":{"Station_ID":"WI-WB-23","Station_Nam":"SHELL LAKE 1.3 SE, WI","Latitude":"45.72553","Longitude":"-91.88110","Snowdepth":"4.500","Units":"in","Rept_Date":"2025-03-31 14"}},{"type":"Point","coordinates":[-91.5771,45.8596],"properties":{"Station_ID":"WI-WB-2","Station_Nam":"STONE LAKE 2.0 NW, WI","Latitude":"45.85960","Longitude":"-91.57710","Snowdepth":"4.500","Units":"in","Rept_Date":"2025-03-31 12"}},{"type":"Point","coordinates":[-89.4215,45.71388],"properties":{"Station_ID":"WI-ON-6","Station_Nam":"RHINELANDER 5.2 N, WI","Latitude":"45.71388","Longitude":"-89.42150","Snowdepth":"4.500","Units":"in","Rept_Date":"2025-03-31 14"}},{"type":"Point","coordinates":[-90.85854,46.88063],"properties":{"Station_ID":"WI-BY-29","Station_Nam":"BAYFIELD 5.1 NNW, WI","Latitude":"46.88063","Longitude":"-90.85854","Snowdepth":"4.500","Units":"in","Rept_Date":"2025-03-31 12"}},{"type":"Point","coordinates":[-91.28339,46.50198],"properties":{"Station_ID":"WI-BY-22","Station_Nam":"MASON 11.5 WNW, WI","Latitude":"46.50198","Longitude":"-91.28339","Snowdepth":"4.500","Units":"in","Rept_Date":"2025-03-31 13"}},{"type":"Point","coordinates":[-94.2011,42.5061],"properties":{"Station_ID":"WMTI4","Station_Nam":"FORT DODGE,IA","Latitude":"42.50610","Longitude":"-94.20110","Snowdepth":"4.000","Units":"in","Rept_Date":"2025-03-31 12"}},{"type":"Point","coordinates":[-91.75905,45.69597],"properties":{"Station_ID":"WI-WB-32","Station_Nam":"SARONA 2.5 ESE, WI","Latitude":"45.69597","Longitude":"-91.75905","Snowdepth":"4.000","Units":"in","Rept_Date":"2025-03-31 12"}},{"type":"Point","coordinates":[-91.67867,45.75095],"properties":{"Station_ID":"WI-WB-20","Station_Nam":"SARONA 6.8 ENE, WI","Latitude":"45.75095","Longitude":"-91.67867","Snowdepth":"4.000","Units":"in","Rept_Date":"2025-03-31 13"}},{"type":"Point","coordinates":[-91.7689,45.7703],"properties":{"Station_ID":"WI-WB-16","Station_Nam":"SARONA 4.5 NNE, WI","Latitude":"45.77030","Longitude":"-91.76890","Snowdepth":"4.000","Units":"in","Rept_Date":"2025-03-31 12"}},{"type":"Point","coordinates":[-89.69321,44.95812],"properties":{"Station_ID":"WI-MT-24","Station_Nam":"WAUSAU 2.4 W, WI","Latitude":"44.95812","Longitude":"-89.69321","Snowdepth":"4.000","Units":"in","Rept_Date":"2025-03-31 13"}},{"type":"Point","coordinates":[-88.1415,45.89369],"properties":{"Station_ID":"WI-FL-4","Station_Nam":"FLORENCE 5.6 ESE, WI","Latitude":"45.89369","Longitude":"-88.14150","Snowdepth":"4.000","Units":"in","Rept_Date":"2025-03-31 12"}},{"type":"Point","coordinates":[-91.7462,46.5839],"properties":{"Station_ID":"WI-DG-16","Station_Nam":"POPLAR 2.0 E, WI","Latitude":"46.58390","Longitude":"-91.74620","Snowdepth":"4.000","Units":"in","Rept_Date":"2025-03-31 12"}},{"type":"Point","coordinates":[-72.28,44.631],"properties":{"Station_ID":"VT-OL-12","Station_Nam":"GREENSBORO 3.9 NNE, VT","Latitude":"44.63100","Longitude":"-72.28000","Snowdepth":"4.000","Units":"in","Rept_Date":"2025-03-31 12"}},{"type":"Point","coordinates":[-72.0883,44.56491],"properties":{"Station_ID":"VT-CL-18","Station_Nam":"WHEELOCK 1.6 S, VT","Latitude":"44.56491","Longitude":"-72.08830","Snowdepth":"4.000","Units":"in","Rept_Date":"2025-03-31 11"}},{"type":"Point","coordinates":[-72.8326,43.29092],"properties":{"Station_ID":"VT-BN-3","Station_Nam":"LANDGROVE 1.1 NNE, VT","Latitude":"43.29092","Longitude":"-72.83260","Snowdepth":"4.000","Units":"in","Rept_Date":"2025-03-31 18"}},{"type":"Point","coordinates":[-71.2661,43.8639],"properties":{"Station_ID":"TMWN3","Station_Nam":"TAMWORTH 4","Latitude":"43.86390","Longitude":"-71.26610","Snowdepth":"4.000","Units":"in","Rept_Date":"2025-03-31 11"}},{"type":"Point","coordinates":[-72.0481,44.6122],"properties":{"Station_ID":"SUTV1","Station_Nam":"SUTTON","Latitude":"44.61220","Longitude":"-72.04810","Snowdepth":"4.000","Units":"in","Rept_Date":"2025-03-31 11"}},{"type":"Point","coordinates":[-89.8772,46.1222],"properties":{"Station_ID":"RLKW3","Station_Nam":"REST LAKE","Latitude":"46.12220","Longitude":"-89.87720","Snowdepth":"4.000","Units":"in","Rept_Date":"2025-03-31 13"}},{"type":"Point","coordinates":[-69.7167,45.5833],"properties":{"Station_ID":"RKWM1","Station_Nam":"MOOSEHEAD LAKE","Latitude":"45.58330","Longitude":"-69.71670","Snowdepth":"4.000","Units":"in","Rept_Date":"2025-03-31 11"}},{"type":"Point","coordinates":[-70.6722,44.9894],"properties":{"Station_ID":"RGNM1","Station_Nam":"RANGELEY 2NW","Latitude":"44.98940","Longitude":"-70.67220","Snowdepth":"4.000","Units":"in","Rept_Date":"2025-03-31 10"}},{"type":"Point","coordinates":[-70.6719,44.9891],"properties":{"Station_ID":"RANM1","Station_Nam":"RANGELEY","Latitude":"44.98910","Longitude":"-70.67190","Snowdepth":"4.000","Units":"in","Rept_Date":"2025-03-31 10"}},{"type":"Point","coordinates":[-73.73848,44.6398],"properties":{"Station_ID":"NY-CL-12","Station_Nam":"SARANAC 0.8 SSE, NY","Latitude":"44.63980","Longitude":"-73.73848","Snowdepth":"4.000","Units":"in","Rept_Date":"2025-03-31 11"}},{"type":"Point","coordinates":[-71.5764,44.49611],"properties":{"Station_ID":"NH-CS-7","Station_Nam":"LANCASTER 0.5 N, NH","Latitude":"44.49611","Longitude":"-71.57640","Snowdepth":"4.000","Units":"in","Rept_Date":"2025-03-31 11"}},{"type":"Point","coordinates":[-71.21556,43.92648],"properties":{"Station_ID":"NH-CR-41","Station_Nam":"ALBANY 2.8 SW, NH","Latitude":"43.92648","Longitude":"-71.21556","Snowdepth":"4.000","Units":"in","Rept_Date":"2025-03-31 12"}},{"type":"Point","coordinates":[-71.2661,43.86449],"properties":{"Station_ID":"NH-CR-27","Station_Nam":"TAMWORTH 0.4 NNW, NH","Latitude":"43.86449","Longitude":"-71.26610","Snowdepth":"4.000","Units":"in","Rept_Date":"2025-03-31 11"}},{"type":"Point","coordinates":[-71.3,44.2667],"properties":{"Station_ID":"MWN","Station_Nam":"MOUNT WASHINGTON","Latitude":"44.26670","Longitude":"-71.30000","Snowdepth":"4.000","Units":"in","Rept_Date":"2025-03-31 12"}},{"type":"Point","coordinates":[-89.7322,45.8863],"properties":{"Station_ID":"MQRW3","Station_Nam":"MINOCQUA","Latitude":"45.88630","Longitude":"-89.73220","Snowdepth":"4.000","Units":"in","Rept_Date":"2025-03-31 11"}},{"type":"Point","coordinates":[-88.4939,45.1722],"properties":{"Station_ID":"MOUW3","Station_Nam":"MOUNTAIN 1 SW","Latitude":"45.17220","Longitude":"-88.49390","Snowdepth":"4.000","Units":"in","Rept_Date":"2025-03-31 12"}},{"type":"Point","coordinates":[-94.10155,47.82442],"properties":{"Station_ID":"MN-IT-80","Station_Nam":"NORTHOME 8.4 ESE, MN","Latitude":"47.82442","Longitude":"-94.10155","Snowdepth":"4.000","Units":"in","Rept_Date":"2025-03-31 12"}},{"type":"Point","coordinates":[-86.05611,45.96416],"properties":{"Station_ID":"MI-SH-3","Station_Nam":"MANISTIQUE 9.3 E, MI","Latitude":"45.96416","Longitude":"-86.05611","Snowdepth":"4.000","Units":"in","Rept_Date":"2025-03-31 11"}},{"type":"Point","coordinates":[-89.1317,46.20333],"properties":{"Station_ID":"MI-GG-4","Station_Nam":"WATERSMEET 5.0 SE, MI","Latitude":"46.20333","Longitude":"-89.13170","Snowdepth":"4.000","Units":"in","Rept_Date":"2025-03-31 12"}},{"type":"Point","coordinates":[-73.0333,43.05],"properties":{"Station_ID":"LBKV1","Station_Nam":"LYE BROOK","Latitude":"43.05000","Longitude":"-73.03330","Snowdepth":"4.000","Units":"in","Rept_Date":"2025-04-01 06"}},{"type":"Point","coordinates":[-71.5008,44.4169],"properties":{"Station_ID":"JEFN3","Station_Nam":"JEFFERSON","Latitude":"44.41690","Longitude":"-71.50080","Snowdepth":"4.000","Units":"in","Rept_Date":"2025-03-31 11"}},{"type":"Point","coordinates":[-74.2756,43.755],"properties":{"Station_ID":"INDN6","Station_Nam":"INDIAN LAKE","Latitude":"43.75500","Longitude":"-74.27560","Snowdepth":"4.000","Units":"in","Rept_Date":"2025-03-31 12"}},{"type":"Point","coordinates":[-91.4667,46.0075],"properties":{"Station_ID":"HYRW3","Station_Nam":"RANGER STATION","Latitude":"46.00750","Longitude":"-91.46670","Snowdepth":"4.000","Units":"in","Rept_Date":"2025-03-31 18"}},{"type":"Point","coordinates":[-71.7167,43.9333],"properties":{"Station_ID":"HUBN3","Station_Nam":"HUBBARD BROOK","Latitude":"43.93330","Longitude":"-71.71670","Snowdepth":"4.000","Units":"in","Rept_Date":"2025-04-01 06"}},{"type":"Point","coordinates":[-90.8875,48.1667],"properties":{"Station_ID":"GNFM5","Station_Nam":"GUNFLINT LAKE","Latitude":"48.16670","Longitude":"-90.88750","Snowdepth":"4.000","Units":"in","Rept_Date":"2025-03-31 12"}},{"type":"Point","coordinates":[-71.2525,44.258],"properties":{"Station_ID":"GHMN3","Station_Nam":"PINKHAM NOTCH","Latitude":"44.25800","Longitude":"-71.25250","Snowdepth":"4.000","Units":"in","Rept_Date":"2025-03-31 09"}},{"type":"Point","coordinates":[-88.2583,45.9336],"properties":{"Station_ID":"FLNW3","Station_Nam":"FLORENCE","Latitude":"45.93360","Longitude":"-88.25830","Snowdepth":"4.000","Units":"in","Rept_Date":"2025-03-31 12"}},{"type":"Point","coordinates":[-70.7568,44.32],"properties":{"Station_ID":"BETM1","Station_Nam":"BETHEL 6 SSE","Latitude":"44.32000","Longitude":"-70.75680","Snowdepth":"4.000","Units":"in","Rept_Date":"2025-03-31 11"}},{"type":"Point","coordinates":[-89.7267,45.8994],"properties":{"Station_ID":"AVTW3","Station_Nam":"ARBOR VITAE-JOHNSON LAKE","Latitude":"45.89940","Longitude":"-89.72670","Snowdepth":"4.000","Units":"in","Rept_Date":"2025-03-31 11"}},{"type":"Point","coordinates":[-87.8119,45.4825],"properties":{"Station_ID":"ABGW3","Station_Nam":"AMBERG 9 E","Latitude":"45.48250","Longitude":"-87.81190","Snowdepth":"4.000","Units":"in","Rept_Date":"2025-03-31 12"}},{"type":"Point","coordinates":[-66.6283,45.92897],"properties":{"Station_ID":"CAN-NB-1","Station_Nam":"FREDERICTON 4.0 SSE, CA","Latitude":"45.92897","Longitude":"-66.62830","Snowdepth":"3.900","Units":"in","Rept_Date":"2025-03-31 11"}},{"type":"Point","coordinates":[-91.69809,46.00526],"properties":{"Station_ID":"WI-WB-25","Station_Nam":"SPRINGBROOK 4.0 N, WI","Latitude":"46.00526","Longitude":"-91.69809","Snowdepth":"3.500","Units":"in","Rept_Date":"2025-03-31 14"}},{"type":"Point","coordinates":[-91.3537,46.1203],"properties":{"Station_ID":"WI-SR-5","Station_Nam":"HAYWARD 9.7 NE, WI","Latitude":"46.12030","Longitude":"-91.35370","Snowdepth":"3.500","Units":"in","Rept_Date":"2025-03-31 13"}},{"type":"Point","coordinates":[-91.405,46.13255],"properties":{"Station_ID":"WI-SR-1","Station_Nam":"HAYWARD 9.2 NNE, WI","Latitude":"46.13255","Longitude":"-91.40500","Snowdepth":"3.500","Units":"in","Rept_Date":"2025-03-31 11"}},{"type":"Point","coordinates":[-91.81576,46.34285],"properties":{"Station_ID":"WI-DG-65","Station_Nam":"SOLON SPRINGS 0.5 SSE, WI","Latitude":"46.34285","Longitude":"-91.81576","Snowdepth":"3.500","Units":"in","Rept_Date":"2025-03-31 12"}},{"type":"Point","coordinates":[-71.91086,44.31847],"properties":{"Station_ID":"NH-GR-47","Station_Nam":"LITTLETON 7.3 W, NH","Latitude":"44.31847","Longitude":"-71.91086","Snowdepth":"3.500","Units":"in","Rept_Date":"2025-03-31 12"}},{"type":"Point","coordinates":[-86.28266,45.99042],"properties":{"Station_ID":"MI-SH-1","Station_Nam":"MANISTIQUE 2.7 NW, MI","Latitude":"45.99042","Longitude":"-86.28266","Snowdepth":"3.500","Units":"in","Rept_Date":"2025-03-31 10"}},{"type":"Point","coordinates":[-70.2642,44.68329],"properties":{"Station_ID":"ME-FR-2","Station_Nam":"TEMPLE 1.8 W, ME","Latitude":"44.68329","Longitude":"-70.26420","Snowdepth":"3.500","Units":"in","Rept_Date":"2025-03-31 11"}},{"type":"Point","coordinates":[-72.50022,44.27234],"properties":{"Station_ID":"VT-WS-47","Station_Nam":"EAST MONTPELIER 0.7 W, VT","Latitude":"44.27234","Longitude":"-72.50022","Snowdepth":"3.300","Units":"in","Rept_Date":"2025-03-31 11"}},{"type":"Point","coordinates":[-61.07603,46.30937],"properties":{"Station_ID":"CAN-NS-94","Station_Nam":"MARGAREE FORKS 2.6 SSE CBN, CAN","Latitude":"46.30937","Longitude":"-61.07603","Snowdepth":"3.100","Units":"in","Rept_Date":"2025-03-31 12"}},{"type":"Point","coordinates":[-65.05609,46.71424],"properties":{"Station_ID":"CAN-NB-96","Station_Nam":"SAINT-IGNACE 2.6 NE, CAN","Latitude":"46.71424","Longitude":"-65.05609","Snowdepth":"3.100","Units":"in","Rept_Date":"2025-03-31 10"}},{"type":"Point","coordinates":[-87.9566,45.3802],"properties":{"Station_ID":"WSKW3","Station_Nam":"WAUSAUKEE","Latitude":"45.38020","Longitude":"-87.95660","Snowdepth":"3.000","Units":"in","Rept_Date":"2025-03-31 13"}},{"type":"Point","coordinates":[-92.749,45.5231],"properties":{"Station_ID":"WLDM5","Station_Nam":"WILD RIVER STATE PARK","Latitude":"45.52310","Longitude":"-92.74900","Snowdepth":"3.000","Units":"in","Rept_Date":"2025-03-31 14"}},{"type":"Point","coordinates":[-90.39543,45.67677],"properties":{"Station_ID":"WI-PR-6","Station_Nam":"PHILLIPS 1.3 S, WI","Latitude":"45.67677","Longitude":"-90.39543","Snowdepth":"3.000","Units":"in","Rept_Date":"2025-03-31 11"}},{"type":"Point","coordinates":[-91.84405,46.35217],"properties":{"Station_ID":"WI-DG-20","Station_Nam":"SOLON SPRINGS 1.2 W, WI","Latitude":"46.35217","Longitude":"-91.84405","Snowdepth":"3.000","Units":"in","Rept_Date":"2025-03-31 12"}},{"type":"Point","coordinates":[-91.35727,46.49439],"properties":{"Station_ID":"WI-BY-51","Station_Nam":"IRON RIVER 5.4 SSE, WI","Latitude":"46.49439","Longitude":"-91.35727","Snowdepth":"3.000","Units":"in","Rept_Date":"2025-03-31 12"}},{"type":"Point","coordinates":[-92.21653,45.95184],"properties":{"Station_ID":"WI-BT-14","Station_Nam":"OAKLAND 9.0 ENE, WI","Latitude":"45.95184","Longitude":"-92.21653","Snowdepth":"3.000","Units":"in","Rept_Date":"2025-03-31 12"}},{"type":"Point","coordinates":[-93.7368,43.7468],"properties":{"Station_ID":"WELM5","Station_Nam":"WELLS","Latitude":"43.74680","Longitude":"-93.73680","Snowdepth":"3.000","Units":"in","Rept_Date":"2025-03-31 13"}},{"type":"Point","coordinates":[-72.43258,44.48825],"properties":{"Station_ID":"VT-WS-30","Station_Nam":"WOODBURY 3.4 NNW, VT","Latitude":"44.48825","Longitude":"-72.43258","Snowdepth":"3.000","Units":"in","Rept_Date":"2025-03-31 11"}},{"type":"Point","coordinates":[-72.8077,44.3606],"properties":{"Station_ID":"VT-WS-19","Station_Nam":"WATERBURY 3.0 NW, VT","Latitude":"44.36060","Longitude":"-72.80770","Snowdepth":"3.000","Units":"in","Rept_Date":"2025-03-31 10"}},{"type":"Point","coordinates":[-72.4554,44.35523],"properties":{"Station_ID":"VT-WS-15","Station_Nam":"EAST CALAIS 1.5 SW, VT","Latitude":"44.35523","Longitude":"-72.45540","Snowdepth":"3.000","Units":"in","Rept_Date":"2025-03-31 11"}},{"type":"Point","coordinates":[-72.39245,44.66338],"properties":{"Station_ID":"VT-OL-26","Station_Nam":"CRAFTSBURY COMMON 0.8 NW, VT","Latitude":"44.66338","Longitude":"-72.39245","Snowdepth":"3.000","Units":"in","Rept_Date":"2025-03-31 11"}},{"type":"Point","coordinates":[-72.11945,44.30015],"properties":{"Station_ID":"VT-CL-42","Station_Nam":"BARNET 3.5 W, VT","Latitude":"44.30015","Longitude":"-72.11945","Snowdepth":"3.000","Units":"in","Rept_Date":"2025-03-31 11"}},{"type":"Point","coordinates":[-90.2892,44.7539],"properties":{"Station_ID":"SPCW3","Station_Nam":"SPENCER-WWTP","Latitude":"44.75390","Longitude":"-90.28920","Snowdepth":"3.000","Units":"in","Rept_Date":"2025-03-31 12"}},{"type":"Point","coordinates":[-72.415,44.2761],"properties":{"Station_ID":"PLFV1","Station_Nam":"PLAINFIELD","Latitude":"44.27610","Longitude":"-72.41500","Snowdepth":"3.000","Units":"in","Rept_Date":"2025-03-31 11"}},{"type":"Point","coordinates":[-90.4506,45.9336],"properties":{"Station_ID":"PKFW3","Station_Nam":"PARK FALLS,WI","Latitude":"45.93360","Longitude":"-90.45060","Snowdepth":"3.000","Units":"in","Rept_Date":"2025-03-31 13"}},{"type":"Point","coordinates":[-86.4011,45.7961],"properties":{"Station_ID":"PARM4","Station_Nam":"PARENT BAY","Latitude":"45.79610","Longitude":"-86.40110","Snowdepth":"3.000","Units":"in","Rept_Date":"2025-03-31 13"}},{"type":"Point","coordinates":[-70.5976,44.0979],"properties":{"Station_ID":"OTFM1","Station_Nam":"OTISFIELD","Latitude":"44.09790","Longitude":"-70.59760","Snowdepth":"3.000","Units":"in","Rept_Date":"2025-03-31 11"}},{"type":"Point","coordinates":[-71.5044,44.5283],"properties":{"Station_ID":"NUMN3","Station_Nam":"NORTHUMBERLAND","Latitude":"44.52830","Longitude":"-71.50440","Snowdepth":"3.000","Units":"in","Rept_Date":"2025-03-31 12"}},{"type":"Point","coordinates":[-71.9767,43.4189],"properties":{"Station_ID":"NLNN3","Station_Nam":"NEW LONDON","Latitude":"43.41890","Longitude":"-71.97670","Snowdepth":"3.000","Units":"in","Rept_Date":"2025-03-31 11"}},{"type":"Point","coordinates":[-71.90238,43.29531],"properties":{"Station_ID":"NH-MR-60","Station_Nam":"SOUTH SUTTON 1.3 SE, NH","Latitude":"43.29531","Longitude":"-71.90238","Snowdepth":"3.000","Units":"in","Rept_Date":"2025-03-31 12"}},{"type":"Point","coordinates":[-71.1297,44.0562],"properties":{"Station_ID":"NCON3","Station_Nam":"NORTH CONWAY","Latitude":"44.05620","Longitude":"-71.12970","Snowdepth":"3.000","Units":"in","Rept_Date":"2025-03-31 12"}},{"type":"Point","coordinates":[-86.2513,45.9512],"properties":{"Station_ID":"MTQM4","Station_Nam":"MANISTIQUE WWTP","Latitude":"45.95120","Longitude":"-86.25130","Snowdepth":"3.000","Units":"in","Rept_Date":"2025-03-31 11"}},{"type":"Point","coordinates":[-93.21112,44.09518],"properties":{"Station_ID":"MN-SE-22","Station_Nam":"OWATONNA 1.0 ENE, MN","Latitude":"44.09518","Longitude":"-93.21112","Snowdepth":"3.000","Units":"in","Rept_Date":"2025-03-31 12"}},{"type":"Point","coordinates":[-93.32632,43.61376],"properties":{"Station_ID":"MN-FN-21","Station_Nam":"ALBERT LEA 3.4 SSE, MN","Latitude":"43.61376","Longitude":"-93.32632","Snowdepth":"3.000","Units":"in","Rept_Date":"2025-03-31 12"}},{"type":"Point","coordinates":[-69.94782,44.00963],"properties":{"Station_ID":"ME-SG-18","Station_Nam":"TOPSHAM 5.2 N, ME","Latitude":"44.00963","Longitude":"-69.94782","Snowdepth":"3.000","Units":"in","Rept_Date":"2025-03-31 11"}},{"type":"Point","coordinates":[-70.59612,44.09787],"properties":{"Station_ID":"ME-OX-26","Station_Nam":"OXFORD 5.3 SW, ME","Latitude":"44.09787","Longitude":"-70.59612","Snowdepth":"3.000","Units":"in","Rept_Date":"2025-03-31 12"}},{"type":"Point","coordinates":[-70.3476,44.39318],"properties":{"Station_ID":"ME-OX-2","Station_Nam":"HARTFORD 1.4 N, ME","Latitude":"44.39318","Longitude":"-70.34760","Snowdepth":"3.000","Units":"in","Rept_Date":"2025-03-31 12"}},{"type":"Point","coordinates":[-69.85635,44.33008],"properties":{"Station_ID":"ME-KB-55","Station_Nam":"MANCHESTER 0.5 NE, ME","Latitude":"44.33008","Longitude":"-69.85635","Snowdepth":"3.000","Units":"in","Rept_Date":"2025-03-31 11"}},{"type":"Point","coordinates":[-70.0272,44.66582],"properties":{"Station_ID":"ME-FR-4","Station_Nam":"NEW SHARON 2.0 NW, ME","Latitude":"44.66582","Longitude":"-70.02720","Snowdepth":"3.000","Units":"in","Rept_Date":"2025-03-31 11"}},{"type":"Point","coordinates":[-70.3134,43.8464],"properties":{"Station_ID":"ME-CM-125","Station_Nam":"GRAY 2.9 SSE, ME","Latitude":"43.84640","Longitude":"-70.31340","Snowdepth":"3.000","Units":"in","Rept_Date":"2025-03-31 11"}},{"type":"Point","coordinates":[-68.1439,47.0108],"properties":{"Station_ID":"ME-AR-18","Station_Nam":"NEW SWEDEN 4.9 NNW, ME","Latitude":"47.01080","Longitude":"-68.14390","Snowdepth":"3.000","Units":"in","Rept_Date":"2025-03-31 11"}},{"type":"Point","coordinates":[-92.4852,45.5733],"properties":{"Station_ID":"LUCW3","Station_Nam":"LUCK","Latitude":"45.57330","Longitude":"-92.48520","Snowdepth":"3.000","Units":"in","Rept_Date":"2025-03-31 15"}},{"type":"Point","coordinates":[-72.787,44.5843],"properties":{"Station_ID":"JEFV1","Station_Nam":"JEFFERSONVILLE","Latitude":"44.58430","Longitude":"-72.78700","Snowdepth":"3.000","Units":"in","Rept_Date":"2025-03-31 11"}},{"type":"Point","coordinates":[-70.3162,44.3744],"properties":{"Station_ID":"HRTM1","Station_Nam":"HARTFORD","Latitude":"44.37440","Longitude":"-70.31620","Snowdepth":"3.000","Units":"in","Rept_Date":"2025-03-31 11"}},{"type":"Point","coordinates":[-71.6555,43.7738],"properties":{"Station_ID":"HDEN3","Station_Nam":"HOLDERNESS 4.6 NW","Latitude":"43.77380","Longitude":"-71.65550","Snowdepth":"3.000","Units":"in","Rept_Date":"2025-03-31 12"}},{"type":"Point","coordinates":[-68.6119,47.2386],"properties":{"Station_ID":"FISM1","Station_Nam":"FORT KENT COOP","Latitude":"47.23860","Longitude":"-68.61190","Snowdepth":"3.000","Units":"in","Rept_Date":"2025-03-31 11"}},{"type":"Point","coordinates":[-91.45,45.8667],"properties":{"Station_ID":"COUW3","Station_Nam":"COUDERAY,WI","Latitude":"45.86670","Longitude":"-91.45000","Snowdepth":"3.000","Units":"in","Rept_Date":"2025-03-31 21"}},{"type":"Point","coordinates":[-72.3194,44.0069],"properties":{"Station_ID":"CORV1","Station_Nam":"CORINTH","Latitude":"44.00690","Longitude":"-72.31940","Snowdepth":"3.000","Units":"in","Rept_Date":"2025-03-31 11"}},{"type":"Point","coordinates":[-71.1854,44.4535],"properties":{"Station_ID":"BRLN3","Station_Nam":"BERLIN","Latitude":"44.45350","Longitude":"-71.18540","Snowdepth":"3.000","Units":"in","Rept_Date":"2025-03-31 11"}},{"type":"Point","coordinates":[-88.9044,44.87],"properties":{"Station_ID":"BOWW3","Station_Nam":"STOCKBRIDGE-MUNSEE RESERVATION","Latitude":"44.87000","Longitude":"-88.90440","Snowdepth":"3.000","Units":"in","Rept_Date":"2025-03-31 12"}},{"type":"Point","coordinates":[-89.1133,44.6398],"properties":{"Station_ID":"BFSW3","Station_Nam":"BIG FALLS-5 NW","Latitude":"44.63980","Longitude":"-89.11330","Snowdepth":"3.000","Units":"in","Rept_Date":"2025-03-31 12"}},{"type":"Point","coordinates":[-88.0575,45.425],"properties":{"Station_ID":"ASTW3","Station_Nam":"ATHELSTANE","Latitude":"45.42500","Longitude":"-88.05750","Snowdepth":"3.000","Units":"in","Rept_Date":"2025-03-31 11"}},{"type":"Point","coordinates":[-74.091,44.40915],"properties":{"Station_ID":"58111_MADIS","Station_Nam":"BLOOMINGDALE 0.2 NW, NY","Latitude":"44.40915","Longitude":"-74.09100","Snowdepth":"3.000","Units":"in","Rept_Date":"2025-03-31 11"}},{"type":"Point","coordinates":[-72.6012,44.11338],"properties":{"Station_ID":"57811_MADIS","Station_Nam":"WILLIAMSTOWN 3.0 WSW, VT","Latitude":"44.11338","Longitude":"-72.60120","Snowdepth":"3.000","Units":"in","Rept_Date":"2025-03-31 11"}},{"type":"Point","coordinates":[-77.47853,46.09592],"properties":{"Station_ID":"CAN-ON-220","Station_Nam":"DEEP RIVER 1.5 SE - MNRF, CAN","Latitude":"46.09592","Longitude":"-77.47853","Snowdepth":"2.800","Units":"in","Rept_Date":"2025-03-31 12"}},{"type":"Point","coordinates":[-66.85538,45.97014],"properties":{"Station_ID":"CAN-NB-64","Station_Nam":"KESWICK RIDGE 4.0 SE, CAN","Latitude":"45.97014","Longitude":"-66.85538","Snowdepth":"2.800","Units":"in","Rept_Date":"2025-03-31 11"}},{"type":"Point","coordinates":[-89.66528,44.83512],"properties":{"Station_ID":"WI-MT-19","Station_Nam":"EVERGREEN 1.5 WSW, WI","Latitude":"44.83512","Longitude":"-89.66528","Snowdepth":"2.700","Units":"in","Rept_Date":"2025-03-31 12"}},{"type":"Point","coordinates":[-64.18848,45.96081],"properties":{"Station_ID":"CAN-NB-57","Station_Nam":"JOLICURE 2.8 NE, CAN","Latitude":"45.96081","Longitude":"-64.18848","Snowdepth":"2.600","Units":"in","Rept_Date":"2025-03-31 11"}},{"type":"Point","coordinates":[-89.78677,44.52553],"properties":{"Station_ID":"WI-PT-8","Station_Nam":"RUDOLPH 2.1 NNE, WI","Latitude":"44.52553","Longitude":"-89.78677","Snowdepth":"2.500","Units":"in","Rept_Date":"2025-03-31 10"}},{"type":"Point","coordinates":[-90.402,45.69086],"properties":{"Station_ID":"WI-PR-8","Station_Nam":"PHILLIPS 0.4 SSW, WI","Latitude":"45.69086","Longitude":"-90.40200","Snowdepth":"2.500","Units":"in","Rept_Date":"2025-03-31 13"}},{"type":"Point","coordinates":[-90.10473,45.5273],"properties":{"Station_ID":"WI-PR-14","Station_Nam":"BRANTWOOD 2.5 S, WI","Latitude":"45.52730","Longitude":"-90.10473","Snowdepth":"2.500","Units":"in","Rept_Date":"2025-03-31 12"}},{"type":"Point","coordinates":[-92.635,44.84032],"properties":{"Station_ID":"WI-PC-5","Station_Nam":"RIVER FALLS 1.2 SSW, WI","Latitude":"44.84032","Longitude":"-92.63500","Snowdepth":"2.500","Units":"in","Rept_Date":"2025-03-31 12"}},{"type":"Point","coordinates":[-89.73441,44.7724],"properties":{"Station_ID":"WI-MT-14","Station_Nam":"MOSINEE 2.7 WSW, WI","Latitude":"44.77240","Longitude":"-89.73441","Snowdepth":"2.500","Units":"in","Rept_Date":"2025-03-31 12"}},{"type":"Point","coordinates":[-89.8482,45.17746],"properties":{"Station_ID":"WI-LN-2","Station_Nam":"MERRILL 7.0 W, WI","Latitude":"45.17746","Longitude":"-89.84820","Snowdepth":"2.500","Units":"in","Rept_Date":"2025-03-31 11"}},{"type":"Point","coordinates":[-90.49886,46.01638],"properties":{"Station_ID":"WI-AS-31","Station_Nam":"BUTTERNUT 0.2 NNW, WI","Latitude":"46.01638","Longitude":"-90.49886","Snowdepth":"2.500","Units":"in","Rept_Date":"2025-03-31 13"}},{"type":"Point","coordinates":[-72.652,44.16986],"properties":{"Station_ID":"VT-WS-10","Station_Nam":"NORTHFIELD 1.5 N, VT","Latitude":"44.16986","Longitude":"-72.65200","Snowdepth":"2.500","Units":"in","Rept_Date":"2025-03-31 11"}},{"type":"Point","coordinates":[-72.76992,43.89418],"properties":{"Station_ID":"VT-WR-17","Station_Nam":"ROCHESTER 2.3 NE, VT","Latitude":"43.89418","Longitude":"-72.76992","Snowdepth":"2.500","Units":"in","Rept_Date":"2025-03-31 11"}},{"type":"Point","coordinates":[-72.3094,44.60528],"properties":{"Station_ID":"VT-OL-9","Station_Nam":"GREENSBORO 2.1 NNW, VT","Latitude":"44.60528","Longitude":"-72.30940","Snowdepth":"2.500","Units":"in","Rept_Date":"2025-03-31 11"}},{"type":"Point","coordinates":[-93.22354,44.11345],"properties":{"Station_ID":"MN-SE-34","Station_Nam":"OWATONNA 1.5 N, MN","Latitude":"44.11345","Longitude":"-93.22354","Snowdepth":"2.500","Units":"in","Rept_Date":"2025-03-31 12"}},{"type":"Point","coordinates":[-93.1645,44.4524],"properties":{"Station_ID":"MN-RC-78","Station_Nam":"NORTHFIELD 0.4 SSW, MN","Latitude":"44.45240","Longitude":"-93.16450","Snowdepth":"2.500","Units":"in","Rept_Date":"2025-03-31 15"}},{"type":"Point","coordinates":[-92.59335,46.39529],"properties":{"Station_ID":"MN-PN-64","Station_Nam":"KERRICK 3.9 N, MN","Latitude":"46.39529","Longitude":"-92.59335","Snowdepth":"2.500","Units":"in","Rept_Date":"2025-03-31 12"}},{"type":"Point","coordinates":[-92.9792,44.34247],"properties":{"Station_ID":"MN-GH-4","Station_Nam":"NERSTRAND 4.2 E, MN","Latitude":"44.34247","Longitude":"-92.97920","Snowdepth":"2.500","Units":"in","Rept_Date":"2025-03-31 12"}},{"type":"Point","coordinates":[-92.89526,44.50866],"properties":{"Station_ID":"MN-GH-28","Station_Nam":"CANNON FALLS 0.5 SE, MN","Latitude":"44.50866","Longitude":"-92.89526","Snowdepth":"2.500","Units":"in","Rept_Date":"2025-03-31 13"}},{"type":"Point","coordinates":[-70.69539,43.78308],"properties":{"Station_ID":"ME-YK-67","Station_Nam":"CORNISH 5.6 ESE, ME","Latitude":"43.78308","Longitude":"-70.69539","Snowdepth":"2.500","Units":"in","Rept_Date":"2025-03-31 11"}},{"type":"Point","coordinates":[-76.04525,45.42318],"properties":{"Station_ID":"CAN-ON-92","Station_Nam":"DUNROBIN 1.9 W - MVCA, CAN","Latitude":"45.42318","Longitude":"-76.04525","Snowdepth":"2.500","Units":"in","Rept_Date":"2025-03-31 11"}},{"type":"Point","coordinates":[-63.17271,46.29235],"properties":{"Station_ID":"CAN-PE-19","Station_Nam":"CHARLOTTETOWN 6.5 NNW, CAN","Latitude":"46.29235","Longitude":"-63.17271","Snowdepth":"2.400","Units":"in","Rept_Date":"2025-03-31 11"}},{"type":"Point","coordinates":[-75.48952,45.27286],"properties":{"Station_ID":"CAN-ON-791","Station_Nam":"METCALFE 4.4 NNW, CAN","Latitude":"45.27286","Longitude":"-75.48952","Snowdepth":"2.400","Units":"in","Rept_Date":"2025-03-31 11"}},{"type":"Point","coordinates":[-60.6434,46.25082],"properties":{"Station_ID":"CAN-NS-39","Station_Nam":"ST. ANNS 2.8 NW, CA","Latitude":"46.25082","Longitude":"-60.64340","Snowdepth":"2.400","Units":"in","Rept_Date":"2025-03-31 11"}},{"type":"Point","coordinates":[-70.462,43.85787],"properties":{"Station_ID":"ME-CM-54","Station_Nam":"WINDHAM 3.9 NW, ME","Latitude":"43.85787","Longitude":"-70.46200","Snowdepth":"2.200","Units":"in","Rept_Date":"2025-03-31 11"}},{"type":"Point","coordinates":[-62.8174,46.20115],"properties":{"Station_ID":"CAN-PE-43","Station_Nam":"GLENCOE 0.3 W, CAN","Latitude":"46.20115","Longitude":"-62.81740","Snowdepth":"2.200","Units":"in","Rept_Date":"2025-03-31 10"}},{"type":"Point","coordinates":[-89.6169,44.9731],"properties":{"Station_ID":"WUNW3","Station_Nam":"WAUSAU-NORTHEAST","Latitude":"44.97310","Longitude":"-89.61690","Snowdepth":"2.000","Units":"in","Rept_Date":"2025-03-31 11"}},{"type":"Point","coordinates":[-69.9701,44.3065],"properties":{"Station_ID":"WTHM1","Station_Nam":"WINTHROP","Latitude":"44.30650","Longitude":"-69.97010","Snowdepth":"2.000","Units":"in","Rept_Date":"2025-03-31 12"}},{"type":"Point","coordinates":[-72.5822,44.3747],"properties":{"Station_ID":"WORV1","Station_Nam":"WORCESTER 2 W","Latitude":"44.37470","Longitude":"-72.58220","Snowdepth":"2.000","Units":"in","Rept_Date":"2025-03-31 11"}},{"type":"Point","coordinates":[-70.4663,43.8567],"properties":{"Station_ID":"WNDM1","Station_Nam":"WINDHAM 2NW","Latitude":"43.85670","Longitude":"-70.46630","Snowdepth":"2.000","Units":"in","Rept_Date":"2025-03-31 11"}},{"type":"Point","coordinates":[-89.93526,44.26305],"properties":{"Station_ID":"WI-WD-7","Station_Nam":"NEKOOSA 3.7 SSW, WI","Latitude":"44.26305","Longitude":"-89.93526","Snowdepth":"2.000","Units":"in","Rept_Date":"2025-03-31 12"}},{"type":"Point","coordinates":[-90.18387,44.57002],"properties":{"Station_ID":"WI-WD-28","Station_Nam":"MARSHFIELD 6.5 S, WI","Latitude":"44.57002","Longitude":"-90.18387","Snowdepth":"2.000","Units":"in","Rept_Date":"2025-03-31 13"}},{"type":"Point","coordinates":[-92.62991,44.86506],"properties":{"Station_ID":"WI-SC-90","Station_Nam":"RIVER FALLS 0.8 NNW, WI","Latitude":"44.86506","Longitude":"-92.62991","Snowdepth":"2.000","Units":"in","Rept_Date":"2025-03-31 12"}},{"type":"Point","coordinates":[-92.2786,45.1925],"properties":{"Station_ID":"WI-SC-21","Station_Nam":"CLEAR LAKE 4.0 S, WI","Latitude":"45.19250","Longitude":"-92.27860","Snowdepth":"2.000","Units":"in","Rept_Date":"2025-03-31 13"}},{"type":"Point","coordinates":[-92.6323,44.80802],"properties":{"Station_ID":"WI-PC-49","Station_Nam":"RIVER FALLS 3.3 S, WI","Latitude":"44.80802","Longitude":"-92.63230","Snowdepth":"2.000","Units":"in","Rept_Date":"2025-03-31 13"}},{"type":"Point","coordinates":[-92.51849,44.71119],"properties":{"Station_ID":"WI-PC-25","Station_Nam":"ELLSWORTH 2.6 SW, WI","Latitude":"44.71119","Longitude":"-92.51849","Snowdepth":"2.000","Units":"in","Rept_Date":"2025-03-31 12"}},{"type":"Point","coordinates":[-87.24702,45.06007],"properties":{"Station_ID":"WI-DR-24","Station_Nam":"EGG HARBOR 2.4 ENE, WI","Latitude":"45.06007","Longitude":"-87.24702","Snowdepth":"2.000","Units":"in","Rept_Date":"2025-03-31 12"}},{"type":"Point","coordinates":[-93.5264,44.0706],"properties":{"Station_ID":"WASM5","Station_Nam":"WASECA SOUTHERN RESEARCH AND OUTREACH CENTER","Latitude":"44.07060","Longitude":"-93.52640","Snowdepth":"2.000","Units":"in","Rept_Date":"2025-03-31 13"}},{"type":"Point","coordinates":[-72.56234,44.87663],"properties":{"Station_ID":"VT-FR-30","Station_Nam":"MONTGOMERY 4.1 ESE, VT","Latitude":"44.87663","Longitude":"-72.56234","Snowdepth":"2.000","Units":"in","Rept_Date":"2025-03-31 11"}},{"type":"Point","coordinates":[-73.1034,44.6888],"properties":{"Station_ID":"VT-FR-21","Station_Nam":"FAIRFAX 4.9 WNW, VT","Latitude":"44.68880","Longitude":"-73.10340","Snowdepth":"2.000","Units":"in","Rept_Date":"2025-03-31 13"}},{"type":"Point","coordinates":[-71.70446,44.49324],"properties":{"Station_ID":"VT-ES-3","Station_Nam":"LUNENBURG 2.3 NNW, VT","Latitude":"44.49324","Longitude":"-71.70446","Snowdepth":"2.000","Units":"in","Rept_Date":"2025-03-31 11"}},{"type":"Point","coordinates":[-89.5855,44.5113],"properties":{"Station_ID":"STPW3","Station_Nam":"STEVENS POINT","Latitude":"44.51130","Longitude":"-89.58550","Snowdepth":"2.000","Units":"in","Rept_Date":"2025-03-31 12"}},{"type":"Point","coordinates":[-92.6122,44.8544],"properties":{"Station_ID":"RVFW3","Station_Nam":"RIVER FALLS","Latitude":"44.85440","Longitude":"-92.61220","Snowdepth":"2.000","Units":"in","Rept_Date":"2025-03-31 10"}},{"type":"Point","coordinates":[-89.306,44.6271],"properties":{"Station_ID":"RSTW3","Station_Nam":"ROSHOLT","Latitude":"44.62710","Longitude":"-89.30600","Snowdepth":"2.000","Units":"in","Rept_Date":"2025-03-31 13"}},{"type":"Point","coordinates":[-89.6617,45.1786],"properties":{"Station_ID":"RRLW3","Station_Nam":"MERRILL,WI","Latitude":"45.17860","Longitude":"-89.66170","Snowdepth":"2.000","Units":"in","Rept_Date":"2025-03-31 13"}},{"type":"Point","coordinates":[-89.41,45.6222],"properties":{"Station_ID":"RHRW3","Station_Nam":"RHINELANDER WJFW TV-12","Latitude":"45.62220","Longitude":"-89.41000","Snowdepth":"2.000","Units":"in","Rept_Date":"2025-04-01 02"}},{"type":"Point","coordinates":[-90.3,45.5478],"properties":{"Station_ID":"PRNW3","Station_Nam":"PRENTICE,WI","Latitude":"45.54780","Longitude":"-90.30000","Snowdepth":"2.000","Units":"in","Rept_Date":"2025-03-31 13"}},{"type":"Point","coordinates":[-70.3614,44.007],"properties":{"Station_ID":"POLM1","Station_Nam":"POLAND","Latitude":"44.00700","Longitude":"-70.36140","Snowdepth":"2.000","Units":"in","Rept_Date":"2025-03-31 11"}},{"type":"Point","coordinates":[-94.6606,42.7292],"properties":{"Station_ID":"POCI4","Station_Nam":"POCAHONTAS,IA","Latitude":"42.72920","Longitude":"-94.66060","Snowdepth":"2.000","Units":"in","Rept_Date":"2025-03-31 13"}},{"type":"Point","coordinates":[-88.7378,44.7358],"properties":{"Station_ID":"PELW3","Station_Nam":"PELLA 3SE","Latitude":"44.73580","Longitude":"-88.73780","Snowdepth":"2.000","Units":"in","Rept_Date":"2025-03-31 10"}},{"type":"Point","coordinates":[-74.45287,43.4549],"properties":{"Station_ID":"NY-HM-10","Station_Nam":"LAKE PLEASANT 2.3 WSW, NY","Latitude":"43.45490","Longitude":"-74.45287","Snowdepth":"2.000","Units":"in","Rept_Date":"2025-03-31 11"}},{"type":"Point","coordinates":[-74.15211,44.41359],"properties":{"Station_ID":"NY-FK-7","Station_Nam":"SARANAC LAKE 6.2 N, NY","Latitude":"44.41359","Longitude":"-74.15211","Snowdepth":"2.000","Units":"in","Rept_Date":"2025-03-31 10"}},{"type":"Point","coordinates":[-94.2555,47.8359],"properties":{"Station_ID":"NOHM5","Station_Nam":"NORTHOME","Latitude":"47.83590","Longitude":"-94.25550","Snowdepth":"2.000","Units":"in","Rept_Date":"2025-03-31 12"}},{"type":"Point","coordinates":[-93.2289,44.8831],"properties":{"Station_ID":"MSP","Station_Nam":"MINNEAPOLIS-ST PAUL INTL AP","Latitude":"44.88310","Longitude":"-93.22890","Snowdepth":"2.000","Units":"in","Rept_Date":"2025-03-31 12"}},{"type":"Point","coordinates":[-93.35561,44.76793],"properties":{"Station_ID":"MN-SC-90","Station_Nam":"SAVAGE 1.0 NNE, MN","Latitude":"44.76793","Longitude":"-93.35561","Snowdepth":"2.000","Units":"in","Rept_Date":"2025-03-31 12"}},{"type":"Point","coordinates":[-93.43338,44.73907],"properties":{"Station_ID":"MN-SC-8","Station_Nam":"PRIOR LAKE 0.9 NNE, MN","Latitude":"44.73907","Longitude":"-93.43338","Snowdepth":"2.000","Units":"in","Rept_Date":"2025-03-31 13"}},{"type":"Point","coordinates":[-93.4636,44.7125],"properties":{"Station_ID":"MN-SC-2","Station_Nam":"PRIOR LAKE 2.0 W, MN","Latitude":"44.71250","Longitude":"-93.46360","Snowdepth":"2.000","Units":"in","Rept_Date":"2025-03-31 10"}},{"type":"Point","coordinates":[-93.1882,44.9039],"properties":{"Station_ID":"MN-RM-54","Station_Nam":"SAINT PAUL 5.1 SW, MN","Latitude":"44.90390","Longitude":"-93.18820","Snowdepth":"2.000","Units":"in","Rept_Date":"2025-03-31 12"}},{"type":"Point","coordinates":[-92.99712,44.90588],"properties":{"Station_ID":"MN-RM-120","Station_Nam":"MAPLEWOOD 5.6 SSE, MN","Latitude":"44.90588","Longitude":"-92.99712","Snowdepth":"2.000","Units":"in","Rept_Date":"2025-03-31 14"}},{"type":"Point","coordinates":[-93.21301,44.27958],"properties":{"Station_ID":"MN-RC-40","Station_Nam":"FARIBAULT 3.5 ESE, MN","Latitude":"44.27958","Longitude":"-93.21301","Snowdepth":"2.000","Units":"in","Rept_Date":"2025-03-31 12"}},{"type":"Point","coordinates":[-93.5537,44.4632],"properties":{"Station_ID":"MN-LS-51","Station_Nam":"MONTGOMERY 1.8 NE, MN","Latitude":"44.46320","Longitude":"-93.55370","Snowdepth":"2.000","Units":"in","Rept_Date":"2025-03-31 12"}},{"type":"Point","coordinates":[-93.28317,45.5063],"properties":{"Station_ID":"MN-IS-44","Station_Nam":"ISANTI 2.2 WNW, MN","Latitude":"45.50630","Longitude":"-93.28317","Snowdepth":"2.000","Units":"in","Rept_Date":"2025-03-31 14"}},{"type":"Point","coordinates":[-93.2368,44.93331],"properties":{"Station_ID":"MN-HN-267","Station_Nam":"MINNEAPOLIS 2.5 SE, MN","Latitude":"44.93331","Longitude":"-93.23680","Snowdepth":"2.000","Units":"in","Rept_Date":"2025-03-31 12"}},{"type":"Point","coordinates":[-93.3426,43.76587],"properties":{"Station_ID":"MN-FN-18","Station_Nam":"CLARKS GROVE 0.8 WNW, MN","Latitude":"43.76587","Longitude":"-93.34260","Snowdepth":"2.000","Units":"in","Rept_Date":"2025-03-31 13"}},{"type":"Point","coordinates":[-93.12837,44.48347],"properties":{"Station_ID":"MN-DK-63","Station_Nam":"NORTHFIELD 2.4 NE, MN","Latitude":"44.48347","Longitude":"-93.12837","Snowdepth":"2.000","Units":"in","Rept_Date":"2025-03-31 12"}},{"type":"Point","coordinates":[-92.88035,44.74458],"properties":{"Station_ID":"MN-DK-104","Station_Nam":"HASTINGS 1.6 NW, MN","Latitude":"44.74458","Longitude":"-92.88035","Snowdepth":"2.000","Units":"in","Rept_Date":"2025-03-31 12"}},{"type":"Point","coordinates":[-92.9711,45.53121],"properties":{"Station_ID":"MN-CG-16","Station_Nam":"NORTH BRANCH 1.3 NNW, MN","Latitude":"45.53121","Longitude":"-92.97110","Snowdepth":"2.000","Units":"in","Rept_Date":"2025-03-31 11"}},{"type":"Point","coordinates":[-93.86074,44.22065],"properties":{"Station_ID":"MN-BU-62","Station_Nam":"MADISON LAKE 2.5 WNW, MN","Latitude":"44.22065","Longitude":"-93.86074","Snowdepth":"2.000","Units":"in","Rept_Date":"2025-03-31 12"}},{"type":"Point","coordinates":[-89.8481,45.1781],"properties":{"Station_ID":"MLLW3","Station_Nam":"MERRILL 8W","Latitude":"45.17810","Longitude":"-89.84810","Snowdepth":"2.000","Units":"in","Rept_Date":"2025-03-31 11"}},{"type":"Point","coordinates":[-90.1333,44.6411],"properties":{"Station_ID":"MFDW3","Station_Nam":"MARSHFIELD EXP FARM","Latitude":"44.64110","Longitude":"-90.13330","Snowdepth":"2.000","Units":"in","Rept_Date":"2025-03-31 12"}},{"type":"Point","coordinates":[-70.6751,43.6475],"properties":{"Station_ID":"ME-YK-3","Station_Nam":"HOLLIS CENTER 5.4 NW, ME","Latitude":"43.64750","Longitude":"-70.67510","Snowdepth":"2.000","Units":"in","Rept_Date":"2025-03-31 11"}},{"type":"Point","coordinates":[-69.6986,45.07098],"properties":{"Station_ID":"ME-SM-45","Station_Nam":"BRIGHTON PLANTATION 2.1 N, ME","Latitude":"45.07098","Longitude":"-69.69860","Snowdepth":"2.000","Units":"in","Rept_Date":"2025-03-31 11"}},{"type":"Point","coordinates":[-70.4199,44.1123],"properties":{"Station_ID":"MEFM1","Station_Nam":"MECHANIC FALLS","Latitude":"44.11230","Longitude":"-70.41990","Snowdepth":"2.000","Units":"in","Rept_Date":"2025-03-31 11"}},{"type":"Point","coordinates":[-70.63,43.88],"properties":{"Station_ID":"ME-CM-98","Station_Nam":"SEBAGO 2.4 ESE, ME","Latitude":"43.88000","Longitude":"-70.63000","Snowdepth":"2.000","Units":"in","Rept_Date":"2025-03-31 11"}},{"type":"Point","coordinates":[-70.1721,43.8537],"properties":{"Station_ID":"ME-CM-86","Station_Nam":"POWNAL 4.1 S, ME","Latitude":"43.85370","Longitude":"-70.17210","Snowdepth":"2.000","Units":"in","Rept_Date":"2025-03-31 12"}},{"type":"Point","coordinates":[-70.3055,43.70288],"properties":{"Station_ID":"ME-CM-18","Station_Nam":"PORTLAND 5.5 WNW, ME","Latitude":"43.70288","Longitude":"-70.30550","Snowdepth":"2.000","Units":"in","Rept_Date":"2025-03-31 11"}},{"type":"Point","coordinates":[-68.21736,46.70273],"properties":{"Station_ID":"ME-AR-41","Station_Nam":"CASTLE HILL 1.0 S, ME","Latitude":"46.70273","Longitude":"-68.21736","Snowdepth":"2.000","Units":"in","Rept_Date":"2025-03-31 11"}},{"type":"Point","coordinates":[-68.0127,46.6796],"properties":{"Station_ID":"ME-AR-15","Station_Nam":"PRESQUE ISLE 1.3 WSW, ME","Latitude":"46.67960","Longitude":"-68.01270","Snowdepth":"2.000","Units":"in","Rept_Date":"2025-03-31 11"}},{"type":"Point","coordinates":[-70.42015,44.11231],"properties":{"Station_ID":"ME-AN-50","Station_Nam":"MECHANIC FALLS 1.3 W, ME","Latitude":"44.11231","Longitude":"-70.42015","Snowdepth":"2.000","Units":"in","Rept_Date":"2025-03-31 11"}},{"type":"Point","coordinates":[-70.1055,44.0232],"properties":{"Station_ID":"ME-AN-43","Station_Nam":"LISBON 0.6 S, ME","Latitude":"44.02320","Longitude":"-70.10550","Snowdepth":"2.000","Units":"in","Rept_Date":"2025-03-31 11"}},{"type":"Point","coordinates":[-74.306,44.8418],"properties":{"Station_ID":"MALN6","Station_Nam":"MALONE","Latitude":"44.84180","Longitude":"-74.30600","Snowdepth":"2.000","Units":"in","Rept_Date":"2025-03-31 11"}},{"type":"Point","coordinates":[-71.7046,44.4933],"properties":{"Station_ID":"LUNV1","Station_Nam":"LUNENBURG 2 NNW","Latitude":"44.49330","Longitude":"-71.70460","Snowdepth":"2.000","Units":"in","Rept_Date":"2025-03-31 11"}},{"type":"Point","coordinates":[-93.2469,44.9785],"properties":{"Station_ID":"LSAM5","Station_Nam":"LOWER ST ANTHONY FALLS","Latitude":"44.97850","Longitude":"-93.24690","Snowdepth":"2.000","Units":"in","Rept_Date":"2025-03-31 11"}},{"type":"Point","coordinates":[-93.5333,43.4],"properties":{"Station_ID":"LMLI4","Station_Nam":"LAKE MILLS,IA","Latitude":"43.40000","Longitude":"-93.53330","Snowdepth":"2.000","Units":"in","Rept_Date":"2025-03-31 12"}},{"type":"Point","coordinates":[-93.21666,44.86666],"properties":{"Station_ID":"KMSP","Station_Nam":"MINNEAPOLIS-ST PAUL INTERNATIONAL","Latitude":"44.86666","Longitude":"-93.21666","Snowdepth":"2.000","Units":"in","Rept_Date":"2025-03-31 12"}},{"type":"Point","coordinates":[-70.1753,44.9595],"properties":{"Station_ID":"KINM1","Station_Nam":"KINGFIELD","Latitude":"44.95950","Longitude":"-70.17530","Snowdepth":"2.000","Units":"in","Rept_Date":"2025-03-31 12"}},{"type":"Point","coordinates":[-93.6356,44.6501],"properties":{"Station_ID":"JORM5","Station_Nam":"JORDAN 1SSW","Latitude":"44.65010","Longitude":"-93.63560","Snowdepth":"2.000","Units":"in","Rept_Date":"2025-03-31 10"}},{"type":"Point","coordinates":[-71.8902,44.8128],"properties":{"Station_ID":"ISLV1","Station_Nam":"ISLAND POND","Latitude":"44.81280","Longitude":"-71.89020","Snowdepth":"2.000","Units":"in","Rept_Date":"2025-03-31 12"}},{"type":"Point","coordinates":[-93.9,48.6167],"properties":{"Station_ID":"INDM5","Station_Nam":"INDUS,MN","Latitude":"48.61670","Longitude":"-93.90000","Snowdepth":"2.000","Units":"in","Rept_Date":"2025-03-31 13"}},{"type":"Point","coordinates":[-93.3964,48.5778],"properties":{"Station_ID":"IFSM5","Station_Nam":"INTL FALLS SNOW","Latitude":"48.57780","Longitude":"-93.39640","Snowdepth":"2.000","Units":"in","Rept_Date":"2025-03-31 12"}},{"type":"Point","coordinates":[-70.6749,43.6475],"properties":{"Station_ID":"HOLM1","Station_Nam":"HOLLIS","Latitude":"43.64750","Longitude":"-70.67490","Snowdepth":"2.000","Units":"in","Rept_Date":"2025-03-31 11"}},{"type":"Point","coordinates":[-87.1536,45.1708],"properties":{"Station_ID":"EPMW3","Station_Nam":"EPHRAIM-1 NE WWTP","Latitude":"45.17080","Longitude":"-87.15360","Snowdepth":"2.000","Units":"in","Rept_Date":"2025-03-31 12"}},{"type":"Point","coordinates":[-85.1477,45.1863],"properties":{"Station_ID":"EJNM4","Station_Nam":"EAST JORDAN 2NW","Latitude":"45.18630","Longitude":"-85.14770","Snowdepth":"2.000","Units":"in","Rept_Date":"2025-03-31 20"}},{"type":"Point","coordinates":[-71.8912,44.6425],"properties":{"Station_ID":"EAHV1","Station_Nam":"EAST HAVEN","Latitude":"44.64250","Longitude":"-71.89120","Snowdepth":"2.000","Units":"in","Rept_Date":"2025-03-31 11"}},{"type":"Point","coordinates":[-70.0963,43.9996],"properties":{"Station_ID":"DURM1","Station_Nam":"DURHAM","Latitude":"43.99960","Longitude":"-70.09630","Snowdepth":"2.000","Units":"in","Rept_Date":"2025-03-31 11"}},{"type":"Point","coordinates":[-87.8119,44.3513],"properties":{"Station_ID":"DENW3","Station_Nam":"DENMARK WWTP","Latitude":"44.35130","Longitude":"-87.81190","Snowdepth":"2.000","Units":"in","Rept_Date":"2025-03-31 13"}},{"type":"Point","coordinates":[-88.0136,45.2353],"properties":{"Station_ID":"CVZW3","Station_Nam":"WISCONSIN PUBLIC SERVICE","Latitude":"45.23530","Longitude":"-88.01360","Snowdepth":"2.000","Units":"in","Rept_Date":"2025-03-31 12"}},{"type":"Point","coordinates":[-92.0228,45.533],"properties":{"Station_ID":"CBLW3","Station_Nam":"CUMBERLAND","Latitude":"45.53300","Longitude":"-92.02280","Snowdepth":"2.000","Units":"in","Rept_Date":"2025-03-31 13"}},{"type":"Point","coordinates":[-61.90238,45.70861],"properties":{"Station_ID":"CAN-NS-4","Station_Nam":"JIMTOWN 0.2 WNW, CAN","Latitude":"45.70861","Longitude":"-61.90238","Snowdepth":"2.000","Units":"in","Rept_Date":"2025-03-31 11"}},{"type":"Point","coordinates":[-63.86711,45.93299],"properties":{"Station_ID":"CAN-NS-159","Station_Nam":"NORTHPORT 0.1 NE, CAN","Latitude":"45.93299","Longitude":"-63.86711","Snowdepth":"2.000","Units":"in","Rept_Date":"2025-03-31 10"}},{"type":"Point","coordinates":[-54.63396,48.97737],"properties":{"Station_ID":"CAN-NL-82","Station_Nam":"GANDER 2.7 NW, CAN","Latitude":"48.97737","Longitude":"-54.63396","Snowdepth":"2.000","Units":"in","Rept_Date":"2025-03-31 09"}},{"type":"Point","coordinates":[-65.5069,46.99343],"properties":{"Station_ID":"CAN-NB-11","Station_Nam":"MIRAMICHI 3.3 S, CAN","Latitude":"46.99343","Longitude":"-65.50690","Snowdepth":"2.000","Units":"in","Rept_Date":"2025-03-31 10"}},{"type":"Point","coordinates":[-90.959,45.5555],"properties":{"Station_ID":"BGFW3","Station_Nam":"BIG FALLS HYDRO","Latitude":"45.55550","Longitude":"-90.95900","Snowdepth":"2.000","Units":"in","Rept_Date":"2025-03-31 12"}},{"type":"Point","coordinates":[-92.3877,44.9643],"properties":{"Station_ID":"BALW3","Station_Nam":"BALDWIN","Latitude":"44.96430","Longitude":"-92.38770","Snowdepth":"2.000","Units":"in","Rept_Date":"2025-03-31 12"}},{"type":"Point","coordinates":[-69.9601,43.92872],"properties":{"Station_ID":"75781_MADIS","Station_Nam":"TOPSHAM 0.8 WSW, ME","Latitude":"43.92872","Longitude":"-69.96010","Snowdepth":"2.000","Units":"in","Rept_Date":"2025-03-31 11"}},{"type":"Point","coordinates":[-92.8026,44.53035],"properties":{"Station_ID":"75091_MADIS","Station_Nam":"WELCH 4.1 SW, MN","Latitude":"44.53035","Longitude":"-92.80260","Snowdepth":"2.000","Units":"in","Rept_Date":"2025-03-31 12"}},{"type":"Point","coordinates":[-93.6277,45.11329],"properties":{"Station_ID":"74581_MADIS","Station_Nam":"CORCORAN 2.2 W, MN","Latitude":"45.11329","Longitude":"-93.62770","Snowdepth":"2.000","Units":"in","Rept_Date":"2025-03-31 09"}},{"type":"Point","coordinates":[-92.7467,44.18352],"properties":{"Station_ID":"72741_MADIS","Station_Nam":"PINE ISLAND 5.3 WSW, MN","Latitude":"44.18352","Longitude":"-92.74670","Snowdepth":"2.000","Units":"in","Rept_Date":"2025-03-31 12"}},{"type":"Point","coordinates":[-89.6159,44.97329],"properties":{"Station_ID":"55131_MADIS","Station_Nam":"WAUSAU 1.6 ENE, WI","Latitude":"44.97329","Longitude":"-89.61590","Snowdepth":"2.000","Units":"in","Rept_Date":"2025-03-31 11"}},{"type":"Point","coordinates":[-76.9258,39.26249],"properties":{"Station_ID":"001MD_MADIS","Station_Nam":"CLARKSVILLE 4 NNE","Latitude":"39.26249","Longitude":"-76.92580","Snowdepth":"1.850","Units":"in","Rept_Date":"2025-04-01 06"}},{"type":"Point","coordinates":[-93.3631,44.5667],"properties":{"Station_ID":"MN-SC-73","Station_Nam":"ELKO NEW MARKET 1.2 W, MN","Latitude":"44.56670","Longitude":"-93.36310","Snowdepth":"1.800","Units":"in","Rept_Date":"2025-03-31 12"}},{"type":"Point","coordinates":[-63.33409,46.25082],"properties":{"Station_ID":"CAN-PE-20","Station_Nam":"BONSHAW 6.6 NNE, CAN","Latitude":"46.25082","Longitude":"-63.33409","Snowdepth":"1.800","Units":"in","Rept_Date":"2025-03-31 11"}},{"type":"Point","coordinates":[-77.9385,39.69766],"properties":{"Station_ID":"015MD_MADIS","Station_Nam":"CLEAR SPRING 3 N","Latitude":"39.69766","Longitude":"-77.93850","Snowdepth":"1.770","Units":"in","Rept_Date":"2025-04-01 06"}},{"type":"Point","coordinates":[-93.34893,45.30539],"properties":{"Station_ID":"MN-AA-169","Station_Nam":"OAK GROVE 2.7 SSW, MN","Latitude":"45.30539","Longitude":"-93.34893","Snowdepth":"1.700","Units":"in","Rept_Date":"2025-03-31 12"}},{"type":"Point","coordinates":[-62.18035,46.47619],"properties":{"Station_ID":"CAN-PE-78","Station_Nam":"BAYFIELD 1.2 ENE, CAN","Latitude":"46.47619","Longitude":"-62.18035","Snowdepth":"1.700","Units":"in","Rept_Date":"2025-03-31 10"}},{"type":"Point","coordinates":[-63.06157,46.34628],"properties":{"Station_ID":"CAN-PE-50","Station_Nam":"BEDFORD CORNER 3.9 WNW, CAN","Latitude":"46.34628","Longitude":"-63.06157","Snowdepth":"1.700","Units":"in","Rept_Date":"2025-03-31 10"}},{"type":"Point","coordinates":[-93.3789,44.8783],"properties":{"Station_ID":"MN-HN-19","Station_Nam":"EDINA 1.3 SW, MN","Latitude":"44.87830","Longitude":"-93.37890","Snowdepth":"1.600","Units":"in","Rept_Date":"2025-03-31 12"}},{"type":"Point","coordinates":[-67.32532,46.98305],"properties":{"Station_ID":"CAN-NB-105","Station_Nam":"SISSON BROOK 3.8 E, CAN","Latitude":"46.98305","Longitude":"-67.32532","Snowdepth":"1.600","Units":"in","Rept_Date":"2025-03-31 11"}},{"type":"Point","coordinates":[-97.08463,49.85503],"properties":{"Station_ID":"CAN-MB-424","Station_Nam":"WINNIPEG 6.4 SE, CAN","Latitude":"49.85503","Longitude":"-97.08463","Snowdepth":"1.600","Units":"in","Rept_Date":"2025-03-31 13"}},{"type":"Point","coordinates":[-89.23812,44.17764],"properties":{"Station_ID":"WI-WH-7","Station_Nam":"WILD ROSE 0.5 E, WI","Latitude":"44.17764","Longitude":"-89.23812","Snowdepth":"1.500","Units":"in","Rept_Date":"2025-03-31 10"}},{"type":"Point","coordinates":[-91.1468,45.4818],"properties":{"Station_ID":"WI-RS-1","Station_Nam":"LADYSMITH 2.8 WNW, WI","Latitude":"45.48180","Longitude":"-91.14680","Snowdepth":"1.500","Units":"in","Rept_Date":"2025-03-31 12"}},{"type":"Point","coordinates":[-89.54716,44.44225],"properties":{"Station_ID":"WI-PT-23","Station_Nam":"PLOVER 1.4 S, WI","Latitude":"44.44225","Longitude":"-89.54716","Snowdepth":"1.500","Units":"in","Rept_Date":"2025-03-31 12"}},{"type":"Point","coordinates":[-91.49898,44.76858],"properties":{"Station_ID":"WI-EC-23","Station_Nam":"EAU CLAIRE 3.7 S, WI","Latitude":"44.76858","Longitude":"-91.49898","Snowdepth":"1.500","Units":"in","Rept_Date":"2025-03-31 13"}},{"type":"Point","coordinates":[-87.11326,45.20296],"properties":{"Station_ID":"WI-DR-6","Station_Nam":"SISTER BAY 1.3 NNE, WI","Latitude":"45.20296","Longitude":"-87.11326","Snowdepth":"1.500","Units":"in","Rept_Date":"2025-03-31 12"}},{"type":"Point","coordinates":[-91.92398,44.89832],"properties":{"Station_ID":"WI-DN-15","Station_Nam":"MENOMONIE 0.9 NW, WI","Latitude":"44.89832","Longitude":"-91.92398","Snowdepth":"1.500","Units":"in","Rept_Date":"2025-03-31 12"}},{"type":"Point","coordinates":[-92.1368,46.7087],"properties":{"Station_ID":"WI-DG-18","Station_Nam":"SUPERIOR 3.7 WNW, WI","Latitude":"46.70870","Longitude":"-92.13680","Snowdepth":"1.500","Units":"in","Rept_Date":"2025-03-31 12"}},{"type":"Point","coordinates":[-91.6247,45.29427],"properties":{"Station_ID":"WI-BR-2","Station_Nam":"CHETEK 2.0 SE, WI","Latitude":"45.29427","Longitude":"-91.62470","Snowdepth":"1.500","Units":"in","Rept_Date":"2025-03-31 12"}},{"type":"Point","coordinates":[-72.79885,44.11205],"properties":{"Station_ID":"VT-WS-41","Station_Nam":"WARREN 2.8 E, VT","Latitude":"44.11205","Longitude":"-72.79885","Snowdepth":"1.500","Units":"in","Rept_Date":"2025-03-31 11"}},{"type":"Point","coordinates":[-72.79521,43.89771],"properties":{"Station_ID":"VT-WR-37","Station_Nam":"ROCHESTER 1.7 NNE, VT","Latitude":"43.89771","Longitude":"-72.79521","Snowdepth":"1.500","Units":"in","Rept_Date":"2025-03-31 09"}},{"type":"Point","coordinates":[-72.7483,43.9357],"properties":{"Station_ID":"VT-OG-10","Station_Nam":"BRAINTREE 2.8 SW, VT","Latitude":"43.93570","Longitude":"-72.74830","Snowdepth":"1.500","Units":"in","Rept_Date":"2025-03-31 09"}},{"type":"Point","coordinates":[-73.07154,44.43669],"properties":{"Station_ID":"VT-CH-38","Station_Nam":"WILLISTON 0.2 WSW, VT","Latitude":"44.43669","Longitude":"-73.07154","Snowdepth":"1.500","Units":"in","Rept_Date":"2025-03-31 11"}},{"type":"Point","coordinates":[-73.02,42.82],"properties":{"Station_ID":"VT-BN-12","Station_Nam":"STAMFORD 5.0 NNE, VT","Latitude":"42.82000","Longitude":"-73.02000","Snowdepth":"1.500","Units":"in","Rept_Date":"2025-03-31 20"}},{"type":"Point","coordinates":[-92.9651,44.98208],"properties":{"Station_ID":"MN-WG-74","Station_Nam":"OAKDALE 0.4 S, MN","Latitude":"44.98208","Longitude":"-92.96510","Snowdepth":"1.500","Units":"in","Rept_Date":"2025-03-31 12"}},{"type":"Point","coordinates":[-92.0287,46.837],"properties":{"Station_ID":"MN-SL-395","Station_Nam":"DULUTH 5.2 NE, MN","Latitude":"46.83700","Longitude":"-92.02870","Snowdepth":"1.500","Units":"in","Rept_Date":"2025-03-31 13"}},{"type":"Point","coordinates":[-92.08826,46.77],"properties":{"Station_ID":"MN-SL-139","Station_Nam":"DULUTH 1.2 SE, MN","Latitude":"46.77000","Longitude":"-92.08826","Snowdepth":"1.500","Units":"in","Rept_Date":"2025-03-31 10"}},{"type":"Point","coordinates":[-93.302,45.4336],"properties":{"Station_ID":"MN-IS-21","Station_Nam":"ISANTI 5.0 SW, MN","Latitude":"45.43360","Longitude":"-93.30200","Snowdepth":"1.500","Units":"in","Rept_Date":"2025-03-31 13"}},{"type":"Point","coordinates":[-93.31632,44.92886],"properties":{"Station_ID":"MN-HN-22","Station_Nam":"MINNEAPOLIS 3.3 SW, MN","Latitude":"44.92886","Longitude":"-93.31632","Snowdepth":"1.500","Units":"in","Rept_Date":"2025-03-31 12"}},{"type":"Point","coordinates":[-93.3394,44.86875],"properties":{"Station_ID":"MN-HN-110","Station_Nam":"EDINA 1.9 SSE, MN","Latitude":"44.86875","Longitude":"-93.33940","Snowdepth":"1.500","Units":"in","Rept_Date":"2025-03-31 12"}},{"type":"Point","coordinates":[-93.17899,44.84322],"properties":{"Station_ID":"MN-DK-70","Station_Nam":"EAGAN 2.0 NNW, MN","Latitude":"44.84322","Longitude":"-93.17899","Snowdepth":"1.500","Units":"in","Rept_Date":"2025-03-31 13"}},{"type":"Point","coordinates":[-93.0323,44.82051],"properties":{"Station_ID":"MN-DK-170","Station_Nam":"INVER GROVE HEIGHTS 1.4 ESE, MN","Latitude":"44.82051","Longitude":"-93.03230","Snowdepth":"1.500","Units":"in","Rept_Date":"2025-03-31 14"}},{"type":"Point","coordinates":[-93.06196,44.8101],"properties":{"Station_ID":"MN-DK-134","Station_Nam":"INVER GROVE HEIGHTS 1.0 S, MN","Latitude":"44.81010","Longitude":"-93.06196","Snowdepth":"1.500","Units":"in","Rept_Date":"2025-03-31 12"}},{"type":"Point","coordinates":[-92.88148,45.35678],"properties":{"Station_ID":"MN-CG-70","Station_Nam":"CHISAGO CITY 1.6 ENE, MN","Latitude":"45.35678","Longitude":"-92.88148","Snowdepth":"1.500","Units":"in","Rept_Date":"2025-03-31 11"}},{"type":"Point","coordinates":[-92.83263,45.39231],"properties":{"Station_ID":"MN-CG-50","Station_Nam":"LINDSTROM 0.8 ENE, MN","Latitude":"45.39231","Longitude":"-92.83263","Snowdepth":"1.500","Units":"in","Rept_Date":"2025-03-31 15"}},{"type":"Point","coordinates":[-93.1789,45.3571],"properties":{"Station_ID":"MN-AA-175","Station_Nam":"EAST BETHEL 1.2 E, MN","Latitude":"45.35710","Longitude":"-93.17890","Snowdepth":"1.500","Units":"in","Rept_Date":"2025-03-31 13"}},{"type":"Point","coordinates":[-85.1475,45.18639],"properties":{"Station_ID":"MI-CX-7","Station_Nam":"EAST JORDAN 2.1 NNW, MI","Latitude":"45.18639","Longitude":"-85.14750","Snowdepth":"1.500","Units":"in","Rept_Date":"2025-03-31 20"}},{"type":"Point","coordinates":[-70.57619,43.63735],"properties":{"Station_ID":"ME-YK-75","Station_Nam":"BUXTON 2.8 W, ME","Latitude":"43.63735","Longitude":"-70.57619","Snowdepth":"1.500","Units":"in","Rept_Date":"2025-03-31 12"}},{"type":"Point","coordinates":[-94.18397,42.53144],"properties":{"Station_ID":"IA-WB-17","Station_Nam":"FORT DODGE 1.7 NNW, IA","Latitude":"42.53144","Longitude":"-94.18397","Snowdepth":"1.500","Units":"in","Rept_Date":"2025-03-31 12"}},{"type":"Point","coordinates":[-62.7087,46.42741],"properties":{"Station_ID":"CAN-PE-7","Station_Nam":"MORELL 1.4 NNW, CA","Latitude":"46.42741","Longitude":"-62.70870","Snowdepth":"1.500","Units":"in","Rept_Date":"2025-03-31 11"}},{"type":"Point","coordinates":[-60.3151,46.05645],"properties":{"Station_ID":"CAN-NS-60","Station_Nam":"SYDNEY FORKS, CAN","Latitude":"46.05645","Longitude":"-60.31510","Snowdepth":"1.500","Units":"in","Rept_Date":"2025-03-31 13"}},{"type":"Point","coordinates":[-93.3938,44.81244],"properties":{"Station_ID":"75191_MADIS","Station_Nam":"BLOOMINGTON 4.0 WSW, MN","Latitude":"44.81244","Longitude":"-93.39380","Snowdepth":"1.500","Units":"in","Rept_Date":"2025-03-31 13"}},{"type":"Point","coordinates":[-92.0251,46.89158],"properties":{"Station_ID":"56581_MADIS","Station_Nam":"DULUTH 8.4 NNE, MN","Latitude":"46.89158","Longitude":"-92.02510","Snowdepth":"1.500","Units":"in","Rept_Date":"2025-03-31 12"}},{"type":"Point","coordinates":[-69.9663,44.30198],"properties":{"Station_ID":"55361_MADIS","Station_Nam":"WINTHROP 0.8 S, ME","Latitude":"44.30198","Longitude":"-69.96630","Snowdepth":"1.500","Units":"in","Rept_Date":"2025-03-31 11"}},{"type":"Point","coordinates":[-75.6992,38.17779],"properties":{"Station_ID":"011MD_MADIS","Station_Nam":"PRINCESS ANNE 2 S","Latitude":"38.17779","Longitude":"-75.69920","Snowdepth":"1.420","Units":"in","Rept_Date":"2025-04-01 06"}},{"type":"Point","coordinates":[-92.73571,44.97821],"properties":{"Station_ID":"WI-SC-65","Station_Nam":"HUDSON 0.8 NNE, WI","Latitude":"44.97821","Longitude":"-92.73571","Snowdepth":"1.400","Units":"in","Rept_Date":"2025-03-31 13"}},{"type":"Point","coordinates":[-92.7046,44.57696],"properties":{"Station_ID":"MN-GH-21","Station_Nam":"WELCH 1.8 ENE, MN","Latitude":"44.57696","Longitude":"-92.70460","Snowdepth":"1.400","Units":"in","Rept_Date":"2025-03-31 12"}},{"type":"Point","coordinates":[-93.1846,44.70423],"properties":{"Station_ID":"MN-DK-53","Station_Nam":"LAKEVILLE 3.8 ENE, MN","Latitude":"44.70423","Longitude":"-93.18460","Snowdepth":"1.400","Units":"in","Rept_Date":"2025-03-31 12"}},{"type":"Point","coordinates":[-92.42698,46.74146],"properties":{"Station_ID":"MN-CN-36","Station_Nam":"CLOQUET 3.4 ENE, MN","Latitude":"46.74146","Longitude":"-92.42698","Snowdepth":"1.400","Units":"in","Rept_Date":"2025-03-31 12"}},{"type":"Point","coordinates":[-89.52332,43.97269],"properties":{"Station_ID":"WI-MQ-7","Station_Nam":"WESTFIELD 6.3 NNW, WI","Latitude":"43.97269","Longitude":"-89.52332","Snowdepth":"1.300","Units":"in","Rept_Date":"2025-03-31 13"}},{"type":"Point","coordinates":[-91.55,44.8172],"properties":{"Station_ID":"WI-EC-4","Station_Nam":"EAU CLAIRE 2.8 W, WI","Latitude":"44.81720","Longitude":"-91.55000","Snowdepth":"1.300","Units":"in","Rept_Date":"2025-03-31 12"}},{"type":"Point","coordinates":[-91.3673,44.9292],"properties":{"Station_ID":"WI-CH-7","Station_Nam":"CHIPPEWA FALLS 1.2 E, WI","Latitude":"44.92920","Longitude":"-91.36730","Snowdepth":"1.300","Units":"in","Rept_Date":"2025-03-31 12"}},{"type":"Point","coordinates":[-92.83923,45.04851],"properties":{"Station_ID":"MN-WG-80","Station_Nam":"STILLWATER 0.8 SW, MN","Latitude":"45.04851","Longitude":"-92.83923","Snowdepth":"1.300","Units":"in","Rept_Date":"2025-03-31 12"}},{"type":"Point","coordinates":[-68.41194,47.28995],"properties":{"Station_ID":"CAN-NB-134","Station_Nam":"ST. HILAIRE 0.4 W - SAJESS, CAN","Latitude":"47.28995","Longitude":"-68.41194","Snowdepth":"1.300","Units":"in","Rept_Date":"2025-03-31 11"}},{"type":"Point","coordinates":[-76.703,39.64524],"properties":{"Station_ID":"022MD_MADIS","Station_Nam":"PARKTON 2W","Latitude":"39.64524","Longitude":"-76.70300","Snowdepth":"1.220","Units":"in","Rept_Date":"2025-04-01 06"}},{"type":"Point","coordinates":[-92.9249,44.93054],"properties":{"Station_ID":"MN-WG-16","Station_Nam":"WOODBURY 1.7 N, MN","Latitude":"44.93054","Longitude":"-92.92490","Snowdepth":"1.200","Units":"in","Rept_Date":"2025-03-31 12"}},{"type":"Point","coordinates":[-93.5198,44.464],"properties":{"Station_ID":"MN-RC-1","Station_Nam":"MONTGOMERY 3.2 ENE, MN","Latitude":"44.46400","Longitude":"-93.51980","Snowdepth":"1.200","Units":"in","Rept_Date":"2025-03-31 11"}},{"type":"Point","coordinates":[-70.20409,44.42105],"properties":{"Station_ID":"ME-AN-49","Station_Nam":"LIVERMORE FALLS 3.7 SSW, ME","Latitude":"44.42105","Longitude":"-70.20409","Snowdepth":"1.200","Units":"in","Rept_Date":"2025-03-31 11"}},{"type":"Point","coordinates":[-62.46134,46.21202],"properties":{"Station_ID":"CAN-PE-74","Station_Nam":"ST. GEORGES 5.5 SSE, CAN","Latitude":"46.21202","Longitude":"-62.46134","Snowdepth":"1.200","Units":"in","Rept_Date":"2025-03-31 10"}},{"type":"Point","coordinates":[-62.8517,45.9997],"properties":{"Station_ID":"CAN-PE-70","Station_Nam":"BELLE RIVER 2.3 NNW - MCPEI, CAN","Latitude":"45.99970","Longitude":"-62.85170","Snowdepth":"1.200","Units":"in","Rept_Date":"2025-03-31 11"}},{"type":"Point","coordinates":[-55.65333,48.93123],"properties":{"Station_ID":"CAN-NL-81","Station_Nam":"GRAND FALLS-WINDSOR 1.2 S, CAN","Latitude":"48.93123","Longitude":"-55.65333","Snowdepth":"1.200","Units":"in","Rept_Date":"2025-03-31 09"}},{"type":"Point","coordinates":[-79.2367,39.56781],"properties":{"Station_ID":"021MD_MADIS","Station_Nam":"BITTINGER 3SSW","Latitude":"39.56781","Longitude":"-79.23670","Snowdepth":"1.180","Units":"in","Rept_Date":"2025-04-01 06"}},{"type":"Point","coordinates":[-93.014,45.0241],"properties":{"Station_ID":"MN-RM-63","Station_Nam":"NORTH SAINT PAUL 1.0 NW, MN","Latitude":"45.02410","Longitude":"-93.01400","Snowdepth":"1.100","Units":"in","Rept_Date":"2025-03-31 12"}},{"type":"Point","coordinates":[-92.48315,44.08372],"properties":{"Station_ID":"MN-OL-30","Station_Nam":"ROCHESTER 4.7 N, MN","Latitude":"44.08372","Longitude":"-92.48315","Snowdepth":"1.100","Units":"in","Rept_Date":"2025-03-31 12"}},{"type":"Point","coordinates":[-92.63736,44.03285],"properties":{"Station_ID":"MN-OL-101","Station_Nam":"BYRON 0.4 SSE, MN","Latitude":"44.03285","Longitude":"-92.63736","Snowdepth":"1.100","Units":"in","Rept_Date":"2025-03-31 12"}},{"type":"Point","coordinates":[-93.50529,45.0055],"properties":{"Station_ID":"MN-HN-561","Station_Nam":"PLYMOUTH 2.4 WSW, MN","Latitude":"45.00550","Longitude":"-93.50529","Snowdepth":"1.100","Units":"in","Rept_Date":"2025-03-31 12"}},{"type":"Point","coordinates":[-93.9382,44.2222],"properties":{"Station_ID":"74901_MADIS","Station_Nam":"MANKATO 4.1 NNE, MN","Latitude":"44.22220","Longitude":"-93.93820","Snowdepth":"1.100","Units":"in","Rept_Date":"2025-03-31 13"}},{"type":"Point","coordinates":[-76.6234,39.39474],"properties":{"Station_ID":"013MD_MADIS","Station_Nam":"TOWSON 1 WSW","Latitude":"39.39474","Longitude":"-76.62340","Snowdepth":"1.100","Units":"in","Rept_Date":"2025-04-01 06"}},{"type":"Point","coordinates":[-76.8431,38.59709],"properties":{"Station_ID":"010MD_MADIS","Station_Nam":"WALDORF 4 ESE","Latitude":"38.59709","Longitude":"-76.84310","Snowdepth":"1.060","Units":"in","Rept_Date":"2025-04-01 06"}},{"type":"Point","coordinates":[-92.0641,44.3873],"properties":{"Station_ID":"WSBM5","Station_Nam":"WABASHA","Latitude":"44.38730","Longitude":"-92.06410","Snowdepth":"1.000","Units":"in","Rept_Date":"2025-03-31 12"}},{"type":"Point","coordinates":[-95.407,48.896],"properties":{"Station_ID":"WRUM5","Station_Nam":"WARROAD 4W","Latitude":"48.89600","Longitude":"-95.40700","Snowdepth":"1.000","Units":"in","Rept_Date":"2025-04-01 03"}},{"type":"Point","coordinates":[-95.5802,43.6449],"properties":{"Station_ID":"WRNM5","Station_Nam":"WORTHINGTON 2 NNE","Latitude":"43.64490","Longitude":"-95.58020","Snowdepth":"1.000","Units":"in","Rept_Date":"2025-03-31 12"}},{"type":"Point","coordinates":[-71.2019,43.5902],"properties":{"Station_ID":"WOLN3","Station_Nam":"WOLFEBORO","Latitude":"43.59020","Longitude":"-71.20190","Snowdepth":"1.000","Units":"in","Rept_Date":"2025-03-31 12"}},{"type":"Point","coordinates":[-88.4513,44.1737],"properties":{"Station_ID":"WI-WN-9","Station_Nam":"NEENAH 1.1 ENE, WI","Latitude":"44.17370","Longitude":"-88.45130","Snowdepth":"1.000","Units":"in","Rept_Date":"2025-03-31 12"}},{"type":"Point","coordinates":[-88.7797,44.02074],"properties":{"Station_ID":"WI-WN-7","Station_Nam":"OMRO 2.3 WSW, WI","Latitude":"44.02074","Longitude":"-88.77970","Snowdepth":"1.000","Units":"in","Rept_Date":"2025-03-31 12"}},{"type":"Point","coordinates":[-89.19808,44.18572],"properties":{"Station_ID":"WI-WH-16","Station_Nam":"WILD ROSE 2.6 ENE, WI","Latitude":"44.18572","Longitude":"-89.19808","Snowdepth":"1.000","Units":"in","Rept_Date":"2025-03-31 12"}},{"type":"Point","coordinates":[-89.782,44.33823],"properties":{"Station_ID":"WI-WD-2","Station_Nam":"WISCONSIN RAPIDS 4.6 SSE, WI","Latitude":"44.33823","Longitude":"-89.78200","Snowdepth":"1.000","Units":"in","Rept_Date":"2025-03-31 12"}},{"type":"Point","coordinates":[-90.33349,45.14421],"properties":{"Station_ID":"WI-TY-3","Station_Nam":"MEDFORD 0.8 ENE, WI","Latitude":"45.14421","Longitude":"-90.33349","Snowdepth":"1.000","Units":"in","Rept_Date":"2025-03-31 12"}},{"type":"Point","coordinates":[-91.1124,45.77802],"properties":{"Station_ID":"WI-SR-19","Station_Nam":"OJIBWA 1.4 S, WI","Latitude":"45.77802","Longitude":"-91.11240","Snowdepth":"1.000","Units":"in","Rept_Date":"2025-03-31 12"}},