{"type":"Topology","objects":{"snowdepth_geo":{"type":"GeometryCollection","name":"snowdepth","crs":{"type":"name","properties":{"name":"urn:ogc:def:crs:OGC:1.3:CRS84"}},"geometries":[{"type":"Point","properties":{"Station_ID":"PRKM4","Station_Nam":"MUNISING EAST","Latitude":"46.42580","Longitude":"-86.62000","Snowdepth":"76.500","Units":"in","Rept_Date":"2020-03-14 06"},"coordinates":[2492,4259]},{"type":"Point","properties":{"Station_ID":"OGIQ6","Station_Nam":"OGOKI CAMP","Latitude":"50.76680","Longitude":"-87.85820","Snowdepth":"61.100","Units":"in","Rept_Date":"2020-03-14 06"},"coordinates":[2202,8959]},{"type":"Point","properties":{"Station_ID":"PDLM4","Station_Nam":"PAINESDALE","Latitude":"47.04160","Longitude":"-88.67170","Snowdepth":"50.000","Units":"in","Rept_Date":"2020-03-13 12"},"coordinates":[2011,4926]},{"type":"Point","properties":{"Station_ID":"CLUM4","Station_Nam":"CALUMET-TAMARACK","Latitude":"47.24550","Longitude":"-88.46790","Snowdepth":"49.000","Units":"in","Rept_Date":"2020-03-13 13"},"coordinates":[2058,5146]},{"type":"Point","properties":{"Station_ID":"DVLQ6","Station_Nam":"DEVIOUS LAKE","Latitude":"49.19890","Longitude":"-87.76440","Snowdepth":"43.460","Units":"in","Rept_Date":"2020-03-14 06"},"coordinates":[2224,7262]},{"type":"Point","properties":{"Station_ID":"GMSM4","Station_Nam":"GRAND MARAIS 10S","Latitude":"46.50940","Longitude":"-85.96310","Snowdepth":"43.000","Units":"in","Rept_Date":"2020-03-13 11"},"coordinates":[2646,4349]},{"type":"Point","properties":{"Station_ID":"CAN-NL-82","Station_Nam":"GANDER 2.7 NW, CAN","Latitude":"48.97737","Longitude":"-54.63396","Snowdepth":"40.600","Units":"in","Rept_Date":"2020-03-13 10"},"coordinates":[9999,7022]},{"type":"Point","properties":{"Station_ID":"KSGM4","Station_Nam":"KEARSARGE","Latitude":"47.27520","Longitude":"-88.41700","Snowdepth":"38.000","Units":"in","Rept_Date":"2020-03-13 12"},"coordinates":[2070,5179]},{"type":"Point","properties":{"Station_ID":"ME-AR-23","Station_Nam":"MADAWASKA 2.5 E, ME","Latitude":"47.34933","Longitude":"-68.28141","Snowdepth":"36.500","Units":"in","Rept_Date":"2020-03-13 11"},"coordinates":[6796,5259]},{"type":"Point","properties":{"Station_ID":"QNCM4","Station_Nam":"QUINCY HILL","Latitude":"47.13640","Longitude":"-88.57950","Snowdepth":"36.000","Units":"in","Rept_Date":"2020-03-13 11"},"coordinates":[2032,5028]},{"type":"Point","properties":{"Station_ID":"MNSM4","Station_Nam":"MUNISING","Latitude":"46.41210","Longitude":"-86.66250","Snowdepth":"36.000","Units":"in","Rept_Date":"2020-03-13 10"},"coordinates":[2482,4244]},{"type":"Point","properties":{"Station_ID":"WLFM5","Station_Nam":"WOLF RIDGE ENVIRON LEARNING CENTER","Latitude":"47.38240","Longitude":"-91.19730","Snowdepth":"34.000","Units":"in","Rept_Date":"2020-03-13 12"},"coordinates":[1418,5295]},{"type":"Point","properties":{"Station_ID":"ME-AR-18","Station_Nam":"NEW SWEDEN 4.9 NNW, ME","Latitude":"47.01080","Longitude":"-68.14390","Snowdepth":"34.000","Units":"in","Rept_Date":"2020-03-13 12"},"coordinates":[6828,4892]},{"type":"Point","properties":{"Station_ID":"CAN-NB-105","Station_Nam":"SISSON BROOK 3.8 E, CAN","Latitude":"46.98305","Longitude":"-67.32532","Snowdepth":"32.300","Units":"in","Rept_Date":"2020-03-13 12"},"coordinates":[7020,4862]},{"type":"Point","properties":{"Station_ID":"MQT","Station_Nam":"MARQUETTE, MI","Latitude":"46.53140","Longitude":"-87.54920","Snowdepth":"32.000","Units":"in","Rept_Date":"2020-03-14 06"},"coordinates":[2274,4373]},{"type":"Point","properties":{"Station_ID":"CAN-NL-65","Station_Nam":"KIPPENS 0.7 NE, CA","Latitude":"48.55436","Longitude":"-58.61850","Snowdepth":"32.000","Units":"in","Rept_Date":"2020-03-13 12"},"coordinates":[9064,6564]},{"type":"Point","properties":{"Station_ID":"MI-BG-3","Station_Nam":"L'ANSE 17.8 SE, MI","Latitude":"46.55730","Longitude":"-88.20770","Snowdepth":"31.700","Units":"in","Rept_Date":"2020-03-13 13"},"coordinates":[2119,4401]},{"type":"Point","properties":{"Station_ID":"PTLQ6","Station_Nam":"PORTAGE LAKE","Latitude":"49.06950","Longitude":"-86.65940","Snowdepth":"31.500","Units":"in","Rept_Date":"2020-03-14 06"},"coordinates":[2483,7122]},{"type":"Point","properties":{"Station_ID":"CAN-QC-47","Station_Nam":"SAINTE-FOY 1.8 ENE, CAN","Latitude":"46.76934","Longitude":"-71.27124","Snowdepth":"31.500","Units":"in","Rept_Date":"2020-03-13 12"},"coordinates":[6094,4631]},{"type":"Point","properties":{"Station_ID":"CAN-NB-13","Station_Nam":"BATHURST 3.8 NW, CAN","Latitude":"47.64212","Longitude":"-65.68756","Snowdepth":"30.500","Units":"in","Rept_Date":"2020-03-13 11"},"coordinates":[7405,5576]},{"type":"Point","properties":{"Station_ID":"MI-HG-6","Station_Nam":"CALUMET 5.8 ENE, MI","Latitude":"47.27200","Longitude":"-88.33400","Snowdepth":"30.000","Units":"in","Rept_Date":"2020-03-13 11"},"coordinates":[2090,5175]},{"type":"Point","properties":{"Station_ID":"VANM1","Station_Nam":"VAN BUREN","Latitude":"47.16600","Longitude":"-67.93900","Snowdepth":"29.000","Units":"in","Rept_Date":"2020-03-13 11"},"coordinates":[6876,5060]},{"type":"Point","properties":{"Station_ID":"HERM4","Station_Nam":"HERMAN,MI","Latitude":"46.65000","Longitude":"-88.33330","Snowdepth":"29.000","Units":"in","Rept_Date":"2020-03-13 12"},"coordinates":[2090,4502]},{"type":"Point","properties":{"Station_ID":"CARM1","Station_Nam":"CARIBOU WFO","Latitude":"46.86810","Longitude":"-68.01250","Snowdepth":"28.000","Units":"in","Rept_Date":"2020-03-13 12"},"coordinates":[6859,4738]},{"type":"Point","properties":{"Station_ID":"CAR","Station_Nam":"CARIBOU, ME","Latitude":"46.86830","Longitude":"-68.01360","Snowdepth":"28.000","Units":"in","Rept_Date":"2020-03-13 12"},"coordinates":[6859,4738]},{"type":"Point","properties":{"Station_ID":"CAN-NB-11","Station_Nam":"MIRAMICHI 3.3 S, CAN","Latitude":"46.99343","Longitude":"-65.50690","Snowdepth":"28.000","Units":"in","Rept_Date":"2020-03-13 11"},"coordinates":[7447,4873]},{"type":"Point","properties":{"Station_ID":"SVBQ6","Station_Nam":"SAVANT BASE","Latitude":"50.28730","Longitude":"-90.65670","Snowdepth":"27.090","Units":"in","Rept_Date":"2020-03-14 06"},"coordinates":[1545,8440]},{"type":"Point","properties":{"Station_ID":"AUDQ6","Station_Nam":"AUDEN","Latitude":"48.52600","Longitude":"-82.57570","Snowdepth":"27.090","Units":"in","Rept_Date":"2020-03-14 06"},"coordinates":[3441,6533]},{"type":"Point","properties":{"Station_ID":"TRIQ6","Station_Nam":"TRIO LAKE","Latitude":"49.22880","Longitude":"-87.22920","Snowdepth":"26.140","Units":"in","Rept_Date":"2020-03-14 06"},"coordinates":[2349,7294]},{"type":"Point","properties":{"Station_ID":"IBLM5","Station_Nam":"ISABELLA 14W","Latitude":"47.59360","Longitude":"-91.65140","Snowdepth":"26.000","Units":"in","Rept_Date":"2020-03-13 14"},"coordinates":[1311,5523]},{"type":"Point","properties":{"Station_ID":"FISM1","Station_Nam":"FORT KENT COOP","Latitude":"47.23850","Longitude":"-68.61240","Snowdepth":"26.000","Units":"in","Rept_Date":"2020-03-13 11"},"coordinates":[6718,5139]},{"type":"Point","properties":{"Station_ID":"BERM4","Station_Nam":"BERGLAND DAM","Latitude":"46.58690","Longitude":"-89.54750","Snowdepth":"26.000","Units":"in","Rept_Date":"2020-03-13 12"},"coordinates":[1805,4433]},{"type":"Point","properties":{"Station_ID":"MI-HG-1","Station_Nam":"HOUGHTON 1.6 ESE, MI","Latitude":"47.10774","Longitude":"-88.52940","Snowdepth":"25.000","Units":"in","Rept_Date":"2020-03-13 13"},"coordinates":[2044,4997]},{"type":"Point","properties":{"Station_ID":"CAN-NB-89","Station_Nam":"MEMRAMCOOK 4.0 W, CAN","Latitude":"46.01133","Longitude":"-64.60244","Snowdepth":"24.800","Units":"in","Rept_Date":"2020-03-13 13"},"coordinates":[7659,3810]},{"type":"Point","properties":{"Station_ID":"CAN-NB-96","Station_Nam":"SAINT-IGNACE 2.6 NE, CAN","Latitude":"46.71424","Longitude":"-65.05609","Snowdepth":"24.400","Units":"in","Rept_Date":"2020-03-13 11"},"coordinates":[7553,4571]},{"type":"Point","properties":{"Station_ID":"SOCQ6","Station_Nam":"SOCKET LAKE","Latitude":"50.77870","Longitude":"-91.79300","Snowdepth":"23.580","Units":"in","Rept_Date":"2020-03-14 06"},"coordinates":[1278,8972]},{"type":"Point","properties":{"Station_ID":"KABQ6","Station_Nam":"CAB LAKE","Latitude":"49.59950","Longitude":"-89.17990","Snowdepth":"23.540","Units":"in","Rept_Date":"2020-03-14 06"},"coordinates":[1891,7695]},{"type":"Point","properties":{"Station_ID":"WRPW3","Station_Nam":"WATER PURIFICATION PLANT","Latitude":"44.38800","Longitude":"-89.80550","Snowdepth":"23.000","Units":"in","Rept_Date":"2020-03-13 11"},"coordinates":[1744,2052]},{"type":"Point","properties":{"Station_ID":"CRVW3","Station_Nam":"CRIVITZ HIGH FALLS","Latitude":"45.35750","Longitude":"-88.19190","Snowdepth":"23.000","Units":"in","Rept_Date":"2020-03-13 12"},"coordinates":[2123,3102]},{"type":"Point","properties":{"Station_ID":"CATQ6","Station_Nam":"CAT LAKE","Latitude":"51.72690","Longitude":"-91.82210","Snowdepth":"22.360","Units":"in","Rept_Date":"2020-03-14 06"},"coordinates":[1271,9999]},{"type":"Point","properties":{"Station_ID":"WI-VL-10","Station_Nam":"LAND O LAKES 4.3 WNW, WI","Latitude":"46.17440","Longitude":"-89.30380","Snowdepth":"22.000","Units":"in","Rept_Date":"2020-03-13 13"},"coordinates":[1862,3987]},{"type":"Point","properties":{"Station_ID":"MN-CK-18","Station_Nam":"GRAND MARAIS 4.4 WSW, MN","Latitude":"47.74462","Longitude":"-90.43796","Snowdepth":"21.500","Units":"in","Rept_Date":"2020-03-13 13"},"coordinates":[1596,5687]},{"type":"Point","properties":{"Station_ID":"WI-VL-9","Station_Nam":"LAND O' LAKES 11.7 W, WI","Latitude":"46.19023","Longitude":"-89.45790","Snowdepth":"21.000","Units":"in","Rept_Date":"2020-03-13 13"},"coordinates":[1826,4004]},{"type":"Point","properties":{"Station_ID":"SSMM4","Station_Nam":"SAULT STE MARIE","Latitude":"46.48660","Longitude":"-84.40250","Snowdepth":"21.000","Units":"in","Rept_Date":"2020-03-13 12"},"coordinates":[3013,4325]},{"type":"Point","properties":{"Station_ID":"PDGM4","Station_Nam":"PAULDING","Latitude":"46.39760","Longitude":"-89.17940","Snowdepth":"21.000","Units":"in","Rept_Date":"2020-03-13 12"},"coordinates":[1891,4228]},{"type":"Point","properties":{"Station_ID":"MI-MQ-19","Station_Nam":"ISHPEMING 7.2 SW, MI","Latitude":"46.40550","Longitude":"-87.75670","Snowdepth":"21.000","Units":"in","Rept_Date":"2020-03-13 11"},"coordinates":[2225,4237]},{"type":"Point","properties":{"Station_ID":"LNOW3","Station_Nam":"LAND O LAKES","Latitude":"46.19000","Longitude":"-89.45700","Snowdepth":"21.000","Units":"in","Rept_Date":"2020-03-13 12"},"coordinates":[1826,4004]},{"type":"Point","properties":{"Station_ID":"IWOM4","Station_Nam":"IRONWOOD#2","Latitude":"46.46520","Longitude":"-90.13820","Snowdepth":"21.000","Units":"in","Rept_Date":"2020-03-13 12"},"coordinates":[1666,4302]},{"type":"Point","properties":{"Station_ID":"GLDM4","Station_Nam":"GLADSTONE NO. 2","Latitude":"45.84330","Longitude":"-87.03910","Snowdepth":"21.000","Units":"in","Rept_Date":"2020-03-13 11"},"coordinates":[2394,3628]},{"type":"Point","properties":{"Station_ID":"BRDM1","Station_Nam":"BRIDGEWATER","Latitude":"46.42870","Longitude":"-67.84370","Snowdepth":"21.000","Units":"in","Rept_Date":"2020-03-13 22"},"coordinates":[6899,4262]},{"type":"Point","properties":{"Station_ID":"BRAM1","Station_Nam":"BRASSUA DAM","Latitude":"45.66020","Longitude":"-69.81190","Snowdepth":"21.000","Units":"in","Rept_Date":"2020-03-13 11"},"coordinates":[6437,3430]},{"type":"Point","properties":{"Station_ID":"ANJM4","Station_Nam":"SNOW PAID OBSERVER FOR KANJ","Latitude":"46.48670","Longitude":"-84.40260","Snowdepth":"21.000","Units":"in","Rept_Date":"2020-03-14 06"},"coordinates":[3013,4325]},{"type":"Point","properties":{"Station_ID":"ANJ","Station_Nam":"SAULT STE MARIE","Latitude":"46.46670","Longitude":"-84.36670","Snowdepth":"21.000","Units":"in","Rept_Date":"2020-03-14 00"},"coordinates":[3021,4303]},{"type":"Point","properties":{"Station_ID":"CAN-PE-19","Station_Nam":"CHARLOTTETOWN 6.5 NNW, CAN","Latitude":"46.29235","Longitude":"-63.17271","Snowdepth":"20.100","Units":"in","Rept_Date":"2020-03-13 12"},"coordinates":[7995,4114]},{"type":"Point","properties":{"Station_ID":"SUAW3","Station_Nam":"SUAMICO","Latitude":"44.60190","Longitude":"-88.09780","Snowdepth":"20.000","Units":"in","Rept_Date":"2020-03-13 11"},"coordinates":[2145,2284]},{"type":"Point","properties":{"Station_ID":"RKWM1","Station_Nam":"MOOSEHEAD LAKE","Latitude":"45.58330","Longitude":"-69.71670","Snowdepth":"20.000","Units":"in","Rept_Date":"2020-03-13 11"},"coordinates":[6459,3347]},{"type":"Point","properties":{"Station_ID":"ME-PN-45","Station_Nam":"MILLINOCKET 2.7 ESE, ME","Latitude":"45.65002","Longitude":"-68.64472","Snowdepth":"20.000","Units":"in","Rept_Date":"2020-03-13 12"},"coordinates":[6711,3419]},{"type":"Point","properties":{"Station_ID":"GNFM5","Station_Nam":"GUNFLINT LAKE","Latitude":"48.16670","Longitude":"-90.88750","Snowdepth":"20.000","Units":"in","Rept_Date":"2020-03-13 12"},"coordinates":[1491,6144]},{"type":"Point","properties":{"Station_ID":"EVRW3","Station_Nam":"EAGLE RIVER-4 E","Latitude":"45.91890","Longitude":"-89.15280","Snowdepth":"20.000","Units":"in","Rept_Date":"2020-03-13 11"},"coordinates":[1898,3710]},{"type":"Point","properties":{"Station_ID":"CEFM4","Station_Nam":"EXPERIMENT FARM #2","Latitude":"46.33330","Longitude":"-86.91670","Snowdepth":"20.000","Units":"in","Rept_Date":"2020-03-13 12"},"coordinates":[2422,4159]},{"type":"Point","properties":{"Station_ID":"VT-OL-12","Station_Nam":"GREENSBORO 3.9 NNE, VT","Latitude":"44.63100","Longitude":"-72.28000","Snowdepth":"19.500","Units":"in","Rept_Date":"2020-03-13 12"},"coordinates":[5858,2315]},{"type":"Point","properties":{"Station_ID":"RGNM1","Station_Nam":"RANGELEY 2NW","Latitude":"44.98940","Longitude":"-70.67220","Snowdepth":"19.000","Units":"in","Rept_Date":"2020-03-13 11"},"coordinates":[6235,2703]},{"type":"Point","properties":{"Station_ID":"NOHM5","Station_Nam":"NORTHOME","Latitude":"47.83590","Longitude":"-94.25550","Snowdepth":"19.000","Units":"in","Rept_Date":"2020-03-13 12"},"coordinates":[700,5786]},{"type":"Point","properties":{"Station_ID":"NH-CS-10","Station_Nam":"RANDOLPH 1.4 NE, NH","Latitude":"44.38824","Longitude":"-71.26950","Snowdepth":"19.000","Units":"in","Rept_Date":"2020-03-13 12"},"coordinates":[6095,2053]},{"type":"Point","properties":{"Station_ID":"LILM1","Station_Nam":"LILLE","Latitude":"47.27770","Longitude":"-68.10520","Snowdepth":"19.000","Units":"in","Rept_Date":"2020-03-13 11"},"coordinates":[6837,5181]},{"type":"Point","properties":{"Station_ID":"DFXM1","Station_Nam":"DOVER-FOXCROFT","Latitude":"45.18720","Longitude":"-69.18350","Snowdepth":"19.000","Units":"in","Rept_Date":"2020-03-13 11"},"coordinates":[6584,2918]},{"type":"Point","properties":{"Station_ID":"VT-CL-3","Station_Nam":"GROTON 4.4 WSW, VT","Latitude":"44.19440","Longitude":"-72.28240","Snowdepth":"18.500","Units":"in","Rept_Date":"2020-03-13 09"},"coordinates":[5857,1843]},{"type":"Point","properties":{"Station_ID":"MN-IT-17","Station_Nam":"GRAND RAPIDS 6.1 N, MN","Latitude":"47.31165","Longitude":"-93.55036","Snowdepth":"18.500","Units":"in","Rept_Date":"2020-03-13 13"},"coordinates":[866,5218]},{"type":"Point","properties":{"Station_ID":"WI-VL-14","Station_Nam":"BOULDER JUNCTION 1.4 NE, WI","Latitude":"46.12840","Longitude":"-89.62470","Snowdepth":"18.000","Units":"in","Rept_Date":"2020-03-13 14"},"coordinates":[1787,3937]},{"type":"Point","properties":{"Station_ID":"UPSW3","Station_Nam":"UPSON,WI","Latitude":"46.36780","Longitude":"-90.41220","Snowdepth":"18.000","Units":"in","Rept_Date":"2020-03-13 23"},"coordinates":[1602,4196]},{"type":"Point","properties":{"Station_ID":"PRDM4","Station_Nam":"PARADISE","Latitude":"46.60380","Longitude":"-85.03960","Snowdepth":"18.000","Units":"in","Rept_Date":"2020-03-13 10"},"coordinates":[2863,4452]},{"type":"Point","properties":{"Station_ID":"MN-IT-23","Station_Nam":"BOVEY 13.4 N, MN","Latitude":"47.48855","Longitude":"-93.43497","Snowdepth":"18.000","Units":"in","Rept_Date":"2020-03-13 13"},"coordinates":[893,5410]},{"type":"Point","properties":{"Station_ID":"MIEM4","Station_Nam":"MICHIGAMME 3WNW","Latitude":"46.54530","Longitude":"-88.18000","Snowdepth":"18.000","Units":"in","Rept_Date":"2020-03-13 12"},"coordinates":[2126,4388]},{"type":"Point","properties":{"Station_ID":"LVDW3","Station_Nam":"LAC VIEUX DESERT","Latitude":"46.12110","Longitude":"-89.07580","Snowdepth":"18.000","Units":"in","Rept_Date":"2020-03-13 13"},"coordinates":[1916,3929]},{"type":"Point","properties":{"Station_ID":"KABM5","Station_Nam":"KABETOGAMA LAKE VISITOR CTR","Latitude":"48.40880","Longitude":"-93.04840","Snowdepth":"18.000","Units":"in","Rept_Date":"2020-03-13 12"},"coordinates":[983,6406]},{"type":"Point","properties":{"Station_ID":"DLHM5","Station_Nam":"DULUTH NWS","Latitude":"46.83680","Longitude":"-92.21080","Snowdepth":"18.000","Units":"in","Rept_Date":"2020-03-14 06"},"coordinates":[1180,4704]},{"type":"Point","properties":{"Station_ID":"DLH","Station_Nam":"DULUTH, MN","Latitude":"46.83690","Longitude":"-92.21030","Snowdepth":"18.000","Units":"in","Rept_Date":"2020-03-14 00"},"coordinates":[1180,4704]},{"type":"Point","properties":{"Station_ID":"WTNM4","Station_Nam":"WATTON 2WSW","Latitude":"46.52660","Longitude":"-88.64240","Snowdepth":"17.000","Units":"in","Rept_Date":"2020-03-13 12"},"coordinates":[2017,4368]},{"type":"Point","properties":{"Station_ID":"WNBM5","Station_Nam":"DAM","Latitude":"47.43060","Longitude":"-94.05000","Snowdepth":"17.000","Units":"in","Rept_Date":"2020-03-13 13"},"coordinates":[748,5347]},{"type":"Point","properties":{"Station_ID":"WI-ON-8","Station_Nam":"HAZELHURST 2.1 SSE, WI","Latitude":"45.78186","Longitude":"-89.70330","Snowdepth":"17.000","Units":"in","Rept_Date":"2020-03-13 13"},"coordinates":[1768,3562]},{"type":"Point","properties":{"Station_ID":"WI-BY-2","Station_Nam":"MELLEN 18.6 SW, WI","Latitude":"46.16937","Longitude":"-90.98090","Snowdepth":"17.000","Units":"in","Rept_Date":"2020-03-13 13"},"coordinates":[1469,3981]},{"type":"Point","properties":{"Station_ID":"STGW3","Station_Nam":"ST GERMAIN","Latitude":"45.91550","Longitude":"-89.48940","Snowdepth":"17.000","Units":"in","Rept_Date":"2020-03-13 11"},"coordinates":[1819,3706]},{"type":"Point","properties":{"Station_ID":"PHEW3","Station_Nam":"PHELPS","Latitude":"46.06630","Longitude":"-89.07520","Snowdepth":"17.000","Units":"in","Rept_Date":"2020-03-13 12"},"coordinates":[1916,3870]},{"type":"Point","properties":{"Station_ID":"MN-SL-105","Station_Nam":"DULUTH 11.8 NNE, MN","Latitude":"46.94680","Longitude":"-92.03925","Snowdepth":"17.000","Units":"in","Rept_Date":"2020-03-13 13"},"coordinates":[1220,4823]},{"type":"Point","properties":{"Station_ID":"MI-CP-14","Station_Nam":"SAULT STE. MARIE 2.2 E, MI","Latitude":"46.48933","Longitude":"-84.31971","Snowdepth":"17.000","Units":"in","Rept_Date":"2020-03-13 12"},"coordinates":[3032,4328]},{"type":"Point","properties":{"Station_ID":"INL","Station_Nam":"FALLS INTERNATIONAL ARPT","Latitude":"48.56640","Longitude":"-93.40310","Snowdepth":"17.000","Units":"in","Rept_Date":"2020-03-14 00"},"coordinates":[900,6577]},{"type":"Point","properties":{"Station_ID":"IFSM5","Station_Nam":"INTERNATIONAL FALLS SNOW","Latitude":"48.57780","Longitude":"-93.39640","Snowdepth":"17.000","Units":"in","Rept_Date":"2020-03-13 18"},"coordinates":[902,6589]},{"type":"Point","properties":{"Station_ID":"HURW3","Station_Nam":"HURLEY","Latitude":"46.46250","Longitude":"-90.19550","Snowdepth":"17.000","Units":"in","Rept_Date":"2020-03-13 13"},"coordinates":[1653,4299]},{"type":"Point","properties":{"Station_ID":"ELYM5","Station_Nam":"ELY","Latitude":"47.90560","Longitude":"-91.82830","Snowdepth":"17.000","Units":"in","Rept_Date":"2020-03-13 13"},"coordinates":[1270,5861]},{"type":"Point","properties":{"Station_ID":"CSLM5","Station_Nam":"CASS LAKE,MN","Latitude":"47.38470","Longitude":"-94.61470","Snowdepth":"17.000","Units":"in","Rept_Date":"2020-03-13 13"},"coordinates":[616,5297]},{"type":"Point","properties":{"Station_ID":"CMKW3","Station_Nam":"CLAM LAKE 4W","Latitude":"46.16940","Longitude":"-90.98080","Snowdepth":"17.000","Units":"in","Rept_Date":"2020-03-13 12"},"coordinates":[1469,3981]},{"type":"Point","properties":{"Station_ID":"CAN-NS-60","Station_Nam":"SYDNEY FORKS, CAN","Latitude":"46.05645","Longitude":"-60.31510","Snowdepth":"17.000","Units":"in","Rept_Date":"2020-03-13 13"},"coordinates":[8666,3859]},{"type":"Point","properties":{"Station_ID":"BNDM5","Station_Nam":"ELY 25E","Latitude":"47.97190","Longitude":"-91.44860","Snowdepth":"17.000","Units":"in","Rept_Date":"2020-03-13 12"},"coordinates":[1359,5933]},{"type":"Point","properties":{"Station_ID":"BABM5","Station_Nam":"BABBITT","Latitude":"47.71210","Longitude":"-91.95330","Snowdepth":"17.000","Units":"in","Rept_Date":"2020-03-13 12"},"coordinates":[1240,5652]},{"type":"Point","properties":{"Station_ID":"CAN-NS-103","Station_Nam":"TRAFALGAR 4.9 WSW, CAN","Latitude":"45.26217","Longitude":"-62.72285","Snowdepth":"16.500","Units":"in","Rept_Date":"2020-03-13 12"},"coordinates":[8101,2999]},{"type":"Point","properties":{"Station_ID":"WI-BY-22","Station_Nam":"MASON 11.5 WNW, WI","Latitude":"46.50198","Longitude":"-91.28339","Snowdepth":"16.000","Units":"in","Rept_Date":"2020-03-13 14"},"coordinates":[1398,4341]},{"type":"Point","properties":{"Station_ID":"MNV905PW","Station_Nam":"ROOSEVELT 5.3 N","Latitude":"48.87933","Longitude":"-95.08224","Snowdepth":"16.000","Units":"in","Rept_Date":"2020-03-13 12"},"coordinates":[506,6916]},{"type":"Point","properties":{"Station_ID":"LEIM5","Station_Nam":"ORR 3E","Latitude":"48.05810","Longitude":"-92.75220","Snowdepth":"16.000","Units":"in","Rept_Date":"2020-03-13 11"},"coordinates":[1053,6026]},{"type":"Point","properties":{"Station_ID":"KINM1","Station_Nam":"KINGFIELD","Latitude":"44.95950","Longitude":"-70.17530","Snowdepth":"16.000","Units":"in","Rept_Date":"2020-03-13 11"},"coordinates":[6352,2671]},{"type":"Point","properties":{"Station_ID":"JKMM1","Station_Nam":"JACKMAN","Latitude":"45.62600","Longitude":"-70.24600","Snowdepth":"16.000","Units":"in","Rept_Date":"2020-03-13 11"},"coordinates":[6335,3393]},{"type":"Point","properties":{"Station_ID":"IRMM4","Station_Nam":"WWTP","Latitude":"46.46670","Longitude":"-90.18330","Snowdepth":"16.000","Units":"in","Rept_Date":"2020-03-13 12"},"coordinates":[1656,4303]},{"type":"Point","properties":{"Station_ID":"GGRM4","Station_Nam":"GREEN GARDEN NO.2","Latitude":"46.45330","Longitude":"-87.30380","Snowdepth":"16.000","Units":"in","Rept_Date":"2020-03-13 12"},"coordinates":[2332,4289]},{"type":"Point","properties":{"Station_ID":"EMBM5","Station_Nam":"EMBARASS,MN","Latitude":"47.65810","Longitude":"-92.19580","Snowdepth":"16.000","Units":"in","Rept_Date":"2020-03-13 12"},"coordinates":[1184,5593]},{"type":"Point","properties":{"Station_ID":"CAN-NB-2","Station_Nam":"GRAFTON 2.7 NNE, CA","Latitude":"46.17062","Longitude":"-67.55330","Snowdepth":"16.000","Units":"in","Rept_Date":"2020-03-13 10"},"coordinates":[6967,3983]},{"type":"Point","properties":{"Station_ID":"CAN-ON-526","Station_Nam":"HILTON BEACH 0.7 SW - MNRF, CAN","Latitude":"46.25357","Longitude":"-83.90014","Snowdepth":"15.700","Units":"in","Rept_Date":"2020-03-13 12"},"coordinates":[3130,4072]},{"type":"Point","properties":{"Station_ID":"FTHQ6","Station_Nam":"FORT HOPE","Latitude":"51.55820","Longitude":"-87.90510","Snowdepth":"15.550","Units":"in","Rept_Date":"2020-03-14 06"},"coordinates":[2191,9816]},{"type":"Point","properties":{"Station_ID":"WI-BY-14","Station_Nam":"ASHLAND 9.8 W, WI","Latitude":"46.59742","Longitude":"-91.07856","Snowdepth":"15.500","Units":"in","Rept_Date":"2020-03-13 12"},"coordinates":[1446,4445]},{"type":"Point","properties":{"Station_ID":"VT-CL-40","Station_Nam":"LYNDONVILLE 4.2 NNW, VT","Latitude":"44.59440","Longitude":"-72.02389","Snowdepth":"15.500","Units":"in","Rept_Date":"2020-03-13 12"},"coordinates":[5918,2276]},{"type":"Point","properties":{"Station_ID":"TOGM5","Station_Nam":"CELINA 2E","Latitude":"47.86630","Longitude":"-93.02660","Snowdepth":"15.000","Units":"in","Rept_Date":"2020-03-13 13"},"coordinates":[989,5819]},{"type":"Point","properties":{"Station_ID":"MN-SL-15","Station_Nam":"CHISHOLM 0.4 WSW, MN","Latitude":"47.48557","Longitude":"-92.88690","Snowdepth":"15.000","Units":"in","Rept_Date":"2020-03-13 13"},"coordinates":[1021,5406]},{"type":"Point","properties":{"Station_ID":"MI-DL-1","Station_Nam":"GARDEN CORNERS 0.8 NW, MI","Latitude":"45.89815","Longitude":"-86.54850","Snowdepth":"15.000","Units":"in","Rept_Date":"2020-03-13 13"},"coordinates":[2509,3687]},{"type":"Point","properties":{"Station_ID":"LPLN6","Station_Nam":"LAKE PLACID 2 S","Latitude":"44.30420","Longitude":"-73.98390","Snowdepth":"15.000","Units":"in","Rept_Date":"2020-03-13 12"},"coordinates":[5458,1962]},{"type":"Point","properties":{"Station_ID":"JCBM4","Station_Nam":"JACOBSVILLE","Latitude":"47.00830","Longitude":"-88.43180","Snowdepth":"15.000","Units":"in","Rept_Date":"2020-03-13 11"},"coordinates":[2067,4890]},{"type":"Point","properties":{"Station_ID":"GHMN3","Station_Nam":"PINKHAM NOTCH","Latitude":"44.25800","Longitude":"-71.25250","Snowdepth":"15.000","Units":"in","Rept_Date":"2020-03-13 10"},"coordinates":[6099,1911]},{"type":"Point","properties":{"Station_ID":"GDCM4","Station_Nam":"GARDEN CORNERS","Latitude":"45.89830","Longitude":"-86.54850","Snowdepth":"15.000","Units":"in","Rept_Date":"2020-03-13 12"},"coordinates":[2509,3688]},{"type":"Point","properties":{"Station_ID":"CLKM4","Station_Nam":"CLARKSBURG","Latitude":"46.49910","Longitude":"-87.84500","Snowdepth":"15.000","Units":"in","Rept_Date":"2020-03-13 11"},"coordinates":[2205,4338]},{"type":"Point","properties":{"Station_ID":"CAN-PE-3","Station_Nam":"WELLINGTON 1.6 NE, CA","Latitude":"46.46672","Longitude":"-63.98920","Snowdepth":"15.000","Units":"in","Rept_Date":"2020-03-13 11"},"coordinates":[7803,4303]},{"type":"Point","properties":{"Station_ID":"AVTW3","Station_Nam":"ARBOR VITAE-JOHNSON LAKE","Latitude":"45.89940","Longitude":"-89.72670","Snowdepth":"15.000","Units":"in","Rept_Date":"2020-03-13 11"},"coordinates":[1763,3689]},{"type":"Point","properties":{"Station_ID":"AMAM4","Station_Nam":"AMASA 1W","Latitude":"46.23470","Longitude":"-88.45440","Snowdepth":"15.000","Units":"in","Rept_Date":"2020-03-13 13"},"coordinates":[2062,4052]},{"type":"Point","properties":{"Station_ID":"MN-BK-6","Station_Nam":"LAKE PARK 6.0 S, MN","Latitude":"46.79850","Longitude":"-96.12180","Snowdepth":"14.500","Units":"in","Rept_Date":"2020-03-13 13"},"coordinates":[262,4662]},{"type":"Point","properties":{"Station_ID":"CAN-ON-757","Station_Nam":"SAULT STE. MARIE 2.8 ESE - GLFC, CAN","Latitude":"46.50300","Longitude":"-84.30300","Snowdepth":"14.400","Units":"in","Rept_Date":"2020-03-13 13"},"coordinates":[3036,4342]},{"type":"Point","properties":{"Station_ID":"WRSM5","Station_Nam":"WRENSHALL","Latitude":"46.61550","Longitude":"-92.38380","Snowdepth":"14.000","Units":"in","Rept_Date":"2020-03-13 13"},"coordinates":[1139,4464]},{"type":"Point","properties":{"Station_ID":"WI-IR-3","Station_Nam":"PENCE 0.1 E, WI","Latitude":"46.41555","Longitude":"-90.27013","Snowdepth":"14.000","Units":"in","Rept_Date":"2020-03-13 13"},"coordinates":[1635,4248]},{"type":"Point","properties":{"Station_ID":"WI-DG-20","Station_Nam":"SOLON SPRINGS 1.2 W, WI","Latitude":"46.35217","Longitude":"-91.84405","Snowdepth":"14.000","Units":"in","Rept_Date":"2020-03-13 13"},"coordinates":[1266,4179]},{"type":"Point","properties":{"Station_ID":"SUTV1","Station_Nam":"SUTTON","Latitude":"44.61220","Longitude":"-72.04810","Snowdepth":"14.000","Units":"in","Rept_Date":"2020-03-13 12"},"coordinates":[5912,2295]},{"type":"Point","properties":{"Station_ID":"RANM1","Station_Nam":"RANGELEY","Latitude":"44.98910","Longitude":"-70.67190","Snowdepth":"14.000","Units":"in","Rept_Date":"2020-03-13 10"},"coordinates":[6235,2703]},{"type":"Point","properties":{"Station_ID":"MWN","Station_Nam":"MOUNT WASHINGTON","Latitude":"44.26670","Longitude":"-71.30000","Snowdepth":"14.000","Units":"in","Rept_Date":"2020-03-13 12"},"coordinates":[6088,1921]},{"type":"Point","properties":{"Station_ID":"MAIW3","Station_Nam":"MADELINE ISLAND","Latitude":"46.78330","Longitude":"-90.76670","Snowdepth":"14.000","Units":"in","Rept_Date":"2020-03-13 13"},"coordinates":[1519,4646]},{"type":"Point","properties":{"Station_ID":"KMWN","Station_Nam":"MOUNT WASHINGTON","Latitude":"44.26666","Longitude":"-71.30000","Snowdepth":"14.000","Units":"in","Rept_Date":"2020-03-14 06"},"coordinates":[6088,1921]},{"type":"Point","properties":{"Station_ID":"IMNM4","Station_Nam":"IRON MOUTAIN 5N","Latitude":"45.87580","Longitude":"-88.04030","Snowdepth":"14.000","Units":"in","Rept_Date":"2020-03-13 12"},"coordinates":[2159,3663]},{"type":"Point","properties":{"Station_ID":"COKM5","Station_Nam":"COOK","Latitude":"47.85060","Longitude":"-92.69250","Snowdepth":"14.000","Units":"in","Rept_Date":"2020-03-13 11"},"coordinates":[1067,5802]},{"type":"Point","properties":{"Station_ID":"AVLV1","Station_Nam":"AVERILL","Latitude":"45.00570","Longitude":"-71.69030","Snowdepth":"14.000","Units":"in","Rept_Date":"2020-03-13 12"},"coordinates":[5996,2721]},{"type":"Point","properties":{"Station_ID":"AGNW3","Station_Nam":"ARGONNE-1.5 NW","Latitude":"45.67360","Longitude":"-88.90380","Snowdepth":"14.000","Units":"in","Rept_Date":"2020-03-13 13"},"coordinates":[1956,3444]},{"type":"Point","properties":{"Station_ID":"CAN-NB-16","Station_Nam":"DORCHESTER 1.0 SSE, CAN","Latitude":"45.89160","Longitude":"-64.51269","Snowdepth":"13.900","Units":"in","Rept_Date":"2020-03-13 12"},"coordinates":[7681,3680]},{"type":"Point","properties":{"Station_ID":"CAN-NB-97","Station_Nam":"NEW MARYLAND 0.6 NW, CAN","Latitude":"45.90112","Longitude":"-66.68739","Snowdepth":"13.600","Units":"in","Rept_Date":"2020-03-13 11"},"coordinates":[7170,3691]},{"type":"Point","properties":{"Station_ID":"CAN-MB-32","Station_Nam":"PINAWA 1.0 SW, CA","Latitude":"50.14747","Longitude":"-95.89020","Snowdepth":"13.500","Units":"in","Rept_Date":"2020-03-13 13"},"coordinates":[316,8289]},{"type":"Point","properties":{"Station_ID":"CAN-ON-92","Station_Nam":"DUNROBIN 1.9 W - MVCA, CAN","Latitude":"45.42318","Longitude":"-76.04525","Snowdepth":"13.100","Units":"in","Rept_Date":"2020-03-13 12"},"coordinates":[4974,3173]},{"type":"Point","properties":{"Station_ID":"ZNOM4","Station_Nam":"NORWAY","Latitude":"45.77810","Longitude":"-87.89560","Snowdepth":"13.000","Units":"in","Rept_Date":"2020-03-14 00"},"coordinates":[2193,3557]},{"type":"Point","properties":{"Station_ID":"WI-BY-1","Station_Nam":"BAYFIELD 8.8 N, WI","Latitude":"46.93855","Longitude":"-90.83490","Snowdepth":"13.000","Units":"in","Rept_Date":"2020-03-13 13"},"coordinates":[1503,4814]},{"type":"Point","properties":{"Station_ID":"VT-ES-1","Station_Nam":"GRANBY 1.4 NW, VT","Latitude":"44.58330","Longitude":"-71.77870","Snowdepth":"13.000","Units":"in","Rept_Date":"2020-03-13 14"},"coordinates":[5975,2264]},{"type":"Point","properties":{"Station_ID":"VT-BN-12","Station_Nam":"STAMFORD 5.0 NNE, VT","Latitude":"42.82000","Longitude":"-73.02000","Snowdepth":"13.000","Units":"in","Rept_Date":"2020-03-13 21"},"coordinates":[5684,354]},{"type":"Point","properties":{"Station_ID":"TAKW3","Station_Nam":"RICE RESERVOIR NO. 2","Latitude":"45.53770","Longitude":"-89.73220","Snowdepth":"13.000","Units":"in","Rept_Date":"2020-03-13 12"},"coordinates":[1762,3297]},{"type":"Point","properties":{"Station_ID":"NY-FK-7","Station_Nam":"SARANAC LAKE 6.2 N, NY","Latitude":"44.41359","Longitude":"-74.15211","Snowdepth":"13.000","Units":"in","Rept_Date":"2020-03-13 13"},"coordinates":[5418,2080]},{"type":"Point","properties":{"Station_ID":"NH-CR-15","Station_Nam":"JACKSON 3.7 NW, NH","Latitude":"44.19069","Longitude":"-71.22598","Snowdepth":"13.000","Units":"in","Rept_Date":"2020-03-13 12"},"coordinates":[6105,1839]},{"type":"Point","properties":{"Station_ID":"MN-IT-1","Station_Nam":"GRAND RAPIDS 2.0 E, MN","Latitude":"47.22266","Longitude":"-93.49600","Snowdepth":"13.000","Units":"in","Rept_Date":"2020-03-13 12"},"coordinates":[878,5122]},{"type":"Point","properties":{"Station_ID":"ME-FR-4","Station_Nam":"NEW SHARON 2.0 NW, ME","Latitude":"44.66582","Longitude":"-70.02720","Snowdepth":"13.000","Units":"in","Rept_Date":"2020-03-13 12"},"coordinates":[6386,2353]},{"type":"Point","properties":{"Station_ID":"INDN6","Station_Nam":"INDIAN LAKE","Latitude":"43.75500","Longitude":"-74.27560","Snowdepth":"13.000","Units":"in","Rept_Date":"2020-03-13 12"},"coordinates":[5389,1367]},{"type":"Point","properties":{"Station_ID":"INDM5","Station_Nam":"INDUS,MN","Latitude":"48.61670","Longitude":"-93.90000","Snowdepth":"13.000","Units":"in","Rept_Date":"2020-03-13 13"},"coordinates":[784,6631]},{"type":"Point","properties":{"Station_ID":"FEDM5","Station_Nam":"LEECH LAKE DAM","Latitude":"47.24670","Longitude":"-94.22280","Snowdepth":"13.000","Units":"in","Rept_Date":"2020-03-13 13"},"coordinates":[708,5148]},{"type":"Point","properties":{"Station_ID":"AURW3","Station_Nam":"AURORA","Latitude":"45.77000","Longitude":"-88.11810","Snowdepth":"13.000","Units":"in","Rept_Date":"2020-03-13 12"},"coordinates":[2141,3549]},{"type":"Point","properties":{"Station_ID":"ASTW3","Station_Nam":"ATHELSTANE","Latitude":"45.42500","Longitude":"-88.05750","Snowdepth":"13.000","Units":"in","Rept_Date":"2020-03-13 11"},"coordinates":[2155,3175]},{"type":"Point","properties":{"Station_ID":"VT-OL-1","Station_Nam":"WESTFIELD 0.7 WNW, VT","Latitude":"44.89160","Longitude":"-72.44350","Snowdepth":"12.500","Units":"in","Rept_Date":"2020-03-13 13"},"coordinates":[5819,2598]},{"type":"Point","properties":{"Station_ID":"MN-SL-108","Station_Nam":"IRON JUNCTION 3.4 NNW, MN","Latitude":"47.46150","Longitude":"-92.63130","Snowdepth":"12.500","Units":"in","Rept_Date":"2020-03-13 13"},"coordinates":[1081,5380]},{"type":"Point","properties":{"Station_ID":"CAN-NB-64","Station_Nam":"KESWICK RIDGE 4.0 SE, CAN","Latitude":"45.97014","Longitude":"-66.85538","Snowdepth":"12.400","Units":"in","Rept_Date":"2020-03-13 13"},"coordinates":[7131,3765]},{"type":"Point","properties":{"Station_ID":"PTBN3","Station_Nam":"PITTSBURG RESERVOIR","Latitude":"45.04690","Longitude":"-71.38300","Snowdepth":"12.000","Units":"in","Rept_Date":"2020-03-13 12"},"coordinates":[6068,2766]},{"type":"Point","properties":{"Station_ID":"PRNW3","Station_Nam":"PRENTICE,WI","Latitude":"45.54780","Longitude":"-90.30000","Snowdepth":"12.000","Units":"in","Rept_Date":"2020-03-13 13"},"coordinates":[1628,3308]},{"type":"Point","properties":{"Station_ID":"MN2EOYHJ","Station_Nam":"OGILVIE 5.6 N","Latitude":"45.91288","Longitude":"-93.42259","Snowdepth":"12.000","Units":"in","Rept_Date":"2020-03-13 13"},"coordinates":[896,3703]},{"type":"Point","properties":{"Station_ID":"MN-IT-7","Station_Nam":"GRAND RAPIDS 6.2 SSW, MN","Latitude":"47.13687","Longitude":"-93.56660","Snowdepth":"12.000","Units":"in","Rept_Date":"2020-03-13 12"},"coordinates":[862,5029]},{"type":"Point","properties":{"Station_ID":"MN-CW-22","Station_Nam":"FORT RIPLEY 0.8 N, MN","Latitude":"46.18089","Longitude":"-94.36510","Snowdepth":"12.000","Units":"in","Rept_Date":"2020-03-13 13"},"coordinates":[674,3994]},{"type":"Point","properties":{"Station_ID":"MN-CK-6","Station_Nam":"GRAND MARAIS 4.4 W, MN","Latitude":"47.74865","Longitude":"-90.43760","Snowdepth":"12.000","Units":"in","Rept_Date":"2020-03-13 13"},"coordinates":[1596,5691]},{"type":"Point","properties":{"Station_ID":"MI-OT-17","Station_Nam":"GAYLORD 4.1 S, MI","Latitude":"44.96388","Longitude":"-84.68467","Snowdepth":"12.000","Units":"in","Rept_Date":"2020-03-13 12"},"coordinates":[2946,2676]},{"type":"Point","properties":{"Station_ID":"MI-AT-6","Station_Nam":"MANCELONA 0.5 ESE, MI","Latitude":"44.89981","Longitude":"-85.05100","Snowdepth":"12.000","Units":"in","Rept_Date":"2020-03-13 13"},"coordinates":[2860,2606]},{"type":"Point","properties":{"Station_ID":"LBKV1","Station_Nam":"LYE BROOK","Latitude":"43.05000","Longitude":"-73.03330","Snowdepth":"12.000","Units":"in","Rept_Date":"2020-03-14 06"},"coordinates":[5681,603]},{"type":"Point","properties":{"Station_ID":"GRBM5","Station_Nam":"GRAND RAPIDS 12N","Latitude":"47.39800","Longitude":"-93.51330","Snowdepth":"12.000","Units":"in","Rept_Date":"2020-03-13 12"},"coordinates":[874,5312]},{"type":"Point","properties":{"Station_ID":"FLNW3","Station_Nam":"FLORENCE","Latitude":"45.93360","Longitude":"-88.25830","Snowdepth":"12.000","Units":"in","Rept_Date":"2020-03-13 12"},"coordinates":[2108,3726]},{"type":"Point","properties":{"Station_ID":"CORV1","Station_Nam":"CORINTH","Latitude":"44.00690","Longitude":"-72.31940","Snowdepth":"12.000","Units":"in","Rept_Date":"2020-03-13 11"},"coordinates":[5848,1640]},{"type":"Point","properties":{"Station_ID":"BTLN3","Station_Nam":"BARTLETT","Latitude":"44.08380","Longitude":"-71.29340","Snowdepth":"12.000","Units":"in","Rept_Date":"2020-03-13 11"},"coordinates":[6089,1723]},{"type":"Point","properties":{"Station_ID":"MN-IT-11","Station_Nam":"NASHWAUK 11.5 N, MN","Latitude":"47.54496","Longitude":"-93.19420","Snowdepth":"11.500","Units":"in","Rept_Date":"2020-03-13 10"},"coordinates":[949,5471]},{"type":"Point","properties":{"Station_ID":"ME-FR-22","Station_Nam":"FARMINGTON 4.8 NNW, ME","Latitude":"44.73396","Longitude":"-70.18007","Snowdepth":"11.500","Units":"in","Rept_Date":"2020-03-13 14"},"coordinates":[6350,2427]},{"type":"Point","properties":{"Station_ID":"WTRM4","Station_Nam":"WATERSMEET 12WSW","Latitude":"46.22310","Longitude":"-89.40850","Snowdepth":"11.000","Units":"in","Rept_Date":"2020-03-13 11"},"coordinates":[1838,4039]},{"type":"Point","properties":{"Station_ID":"WRUM5","Station_Nam":"WARROAD 4W","Latitude":"48.89600","Longitude":"-95.40700","Snowdepth":"11.000","Units":"in","Rept_Date":"2020-03-14 03"},"coordinates":[430,6934]},{"type":"Point","properties":{"Station_ID":"WI-SR-1","Station_Nam":"HAYWARD 9.2 NNE, WI","Latitude":"46.13255","Longitude":"-91.40500","Snowdepth":"11.000","Units":"in","Rept_Date":"2020-03-13 12"},"coordinates":[1369,3941]},{"type":"Point","properties":{"Station_ID":"WI-PR-2","Station_Nam":"BUTTERNUT 5.9 SW, WI","Latitude":"45.96501","Longitude":"-90.59750","Snowdepth":"11.000","Units":"in","Rept_Date":"2020-03-13 12"},"coordinates":[1559,3760]},{"type":"Point","properties":{"Station_ID":"WI-ON-6","Station_Nam":"RHINELANDER 5.2 N, WI","Latitude":"45.71388","Longitude":"-89.42150","Snowdepth":"11.000","Units":"in","Rept_Date":"2020-03-13 13"},"coordinates":[1835,3488]},{"type":"Point","properties":{"Station_ID":"VT-WS-15","Station_Nam":"EAST CALAIS 1.5 SW, VT","Latitude":"44.35523","Longitude":"-72.45540","Snowdepth":"11.000","Units":"in","Rept_Date":"2020-03-13 12"},"coordinates":[5816,2017]},{"type":"Point","properties":{"Station_ID":"RHIW3","Station_Nam":"RHINELANDER","Latitude":"45.59860","Longitude":"-89.45080","Snowdepth":"11.000","Units":"in","Rept_Date":"2020-03-13 12"},"coordinates":[1828,3363]},{"type":"Point","properties":{"Station_ID":"NH-CS-4","Station_Nam":"PITTSBURG 6.1 NE, NH","Latitude":"45.11060","Longitude":"-71.29760","Snowdepth":"11.000","Units":"in","Rept_Date":"2020-03-13 12"},"coordinates":[6088,2835]},{"type":"Point","properties":{"Station_ID":"NH-CR-41","Station_Nam":"ALBANY 2.8 SW, NH","Latitude":"43.92648","Longitude":"-71.21556","Snowdepth":"11.000","Units":"in","Rept_Date":"2020-03-13 13"},"coordinates":[6107,1553]},{"type":"Point","properties":{"Station_ID":"NH-CR-11","Station_Nam":"NORTH CONWAY 1.4 SSW, NH","Latitude":"44.03556","Longitude":"-71.14010","Snowdepth":"11.000","Units":"in","Rept_Date":"2020-03-13 12"},"coordinates":[6125,1671]},{"type":"Point","properties":{"Station_ID":"MWTM1","Station_Nam":"MILLINOCKET WWTP","Latitude":"45.64030","Longitude":"-68.67480","Snowdepth":"11.000","Units":"in","Rept_Date":"2020-03-13 11"},"coordinates":[6704,3408]},{"type":"Point","properties":{"Station_ID":"MRAM4","Station_Nam":"MORAN","Latitude":"45.99030","Longitude":"-84.83610","Snowdepth":"11.000","Units":"in","Rept_Date":"2020-03-13 12"},"coordinates":[2911,3787]},{"type":"Point","properties":{"Station_ID":"MN-PK-15","Station_Nam":"MENTOR 2.5 SSW, MN","Latitude":"47.66625","Longitude":"-96.17328","Snowdepth":"11.000","Units":"in","Rept_Date":"2020-03-13 14"},"coordinates":[250,5602]},{"type":"Point","properties":{"Station_ID":"MN-IT-19","Station_Nam":"COHASSET 7.6 NNW, MN","Latitude":"47.34204","Longitude":"-93.69765","Snowdepth":"11.000","Units":"in","Rept_Date":"2020-03-13 14"},"coordinates":[831,5251]},{"type":"Point","properties":{"Station_ID":"LNKM1","Station_Nam":"LINCOLN SANITARY DISTRICT/WTP","Latitude":"45.37520","Longitude":"-68.50820","Snowdepth":"11.000","Units":"in","Rept_Date":"2020-03-13 11"},"coordinates":[6743,3121]},{"type":"Point","properties":{"Station_ID":"LBRM5","Station_Nam":"LAKE BRONSON DAM","Latitude":"48.72410","Longitude":"-96.62180","Snowdepth":"11.000","Units":"in","Rept_Date":"2020-03-13 13"},"coordinates":[145,6747]},{"type":"Point","properties":{"Station_ID":"HUBN3","Station_Nam":"HUBBARD BROOK","Latitude":"43.93330","Longitude":"-71.71670","Snowdepth":"11.000","Units":"in","Rept_Date":"2020-03-13 14"},"coordinates":[5990,1560]},{"type":"Point","properties":{"Station_ID":"HOKN6","Station_Nam":"HOOKER 12 NNW","Latitude":"43.85240","Longitude":"-75.71580","Snowdepth":"11.000","Units":"in","Rept_Date":"2020-03-13 10"},"coordinates":[5051,1472]},{"type":"Point","properties":{"Station_ID":"CAN-ON-245","Station_Nam":"PHELPSTON 3.1 ESE, CAN","Latitude":"44.50564","Longitude":"-79.81035","Snowdepth":"11.000","Units":"in","Rept_Date":"2020-03-13 14"},"coordinates":[4090,2180]},{"type":"Point","properties":{"Station_ID":"CAN-NS-163","Station_Nam":"SYDNEY MINES 2.2 WNW, CAN","Latitude":"46.24851","Longitude":"-60.25161","Snowdepth":"11.000","Units":"in","Rept_Date":"2020-03-13 12"},"coordinates":[8681,4067]},{"type":"Point","properties":{"Station_ID":"BRAM5","Station_Nam":"BRAINERD","Latitude":"46.34320","Longitude":"-94.20900","Snowdepth":"11.000","Units":"in","Rept_Date":"2020-03-13 12"},"coordinates":[711,4169]},{"type":"Point","properties":{"Station_ID":"CAN-NB-1","Station_Nam":"FREDERICTON 4.0 SSE, CA","Latitude":"45.92897","Longitude":"-66.62830","Snowdepth":"10.800","Units":"in","Rept_Date":"2020-03-13 12"},"coordinates":[7184,3721]},{"type":"Point","properties":{"Station_ID":"WI-BN-6","Station_Nam":"SUAMICO 4.4 WNW, WI","Latitude":"44.66111","Longitude":"-88.11780","Snowdepth":"10.700","Units":"in","Rept_Date":"2020-03-13 13"},"coordinates":[2141,2348]},{"type":"Point","properties":{"Station_ID":"VT-CL-18","Station_Nam":"WHEELOCK 1.6 S, VT","Latitude":"44.56491","Longitude":"-72.08830","Snowdepth":"10.500","Units":"in","Rept_Date":"2020-03-13 12"},"coordinates":[5903,2244]},{"type":"Point","properties":{"Station_ID":"CAN-PE-7","Station_Nam":"MORELL 1.4 NNW, CA","Latitude":"46.42741","Longitude":"-62.70870","Snowdepth":"10.400","Units":"in","Rept_Date":"2020-03-13 12"},"coordinates":[8104,4261]},{"type":"Point","properties":{"Station_ID":"RSTW3","Station_Nam":"ROSHOLT","Latitude":"44.62710","Longitude":"-89.30600","Snowdepth":"10.000","Units":"in","Rept_Date":"2020-03-13 10"},"coordinates":[1862,2311]},{"type":"Point","properties":{"Station_ID":"PKGM5","Station_Nam":"POKEGANA LK DAM","Latitude":"47.25080","Longitude":"-93.58610","Snowdepth":"10.000","Units":"in","Rept_Date":"2020-03-13 13"},"coordinates":[857,5152]},{"type":"Point","properties":{"Station_ID":"NH-CR-26","Station_Nam":"CENTER SANDWICH 4.9 E, NH","Latitude":"43.80976","Longitude":"-71.34150","Snowdepth":"10.000","Units":"in","Rept_Date":"2020-03-13 11"},"coordinates":[6078,1426]},{"type":"Point","properties":{"Station_ID":"MN-BK-10","Station_Nam":"DETROIT LAKES 5.7 N, MN","Latitude":"46.88666","Longitude":"-95.84444","Snowdepth":"10.000","Units":"in","Rept_Date":"2020-03-13 10"},"coordinates":[327,4758]},{"type":"Point","properties":{"Station_ID":"MI-OT-16","Station_Nam":"GAYLORD 2.2 SSE, MI","Latitude":"44.99441","Longitude":"-84.65820","Snowdepth":"10.000","Units":"in","Rept_Date":"2020-03-13 14"},"coordinates":[2953,2709]},{"type":"Point","properties":{"Station_ID":"LNGM5","Station_Nam":"LONG PRAIRIE","Latitude":"45.96460","Longitude":"-94.88920","Snowdepth":"10.000","Units":"in","Rept_Date":"2020-03-13 11"},"coordinates":[551,3759]},{"type":"Point","properties":{"Station_ID":"ISLV1","Station_Nam":"ISLAND POND","Latitude":"44.81280","Longitude":"-71.89020","Snowdepth":"10.000","Units":"in","Rept_Date":"2020-03-13 14"},"coordinates":[5949,2512]},{"type":"Point","properties":{"Station_ID":"GRFN8","Station_Nam":"UNIVERSITY","Latitude":"47.93330","Longitude":"-97.08330","Snowdepth":"10.000","Units":"in","Rept_Date":"2020-03-14 05"},"coordinates":[36,5891]},{"type":"Point","properties":{"Station_ID":"ESGM1","Station_Nam":"EAST SANGERVILLE","Latitude":"45.13690","Longitude":"-69.28060","Snowdepth":"10.000","Units":"in","Rept_Date":"2020-03-13 11"},"coordinates":[6562,2863]},{"type":"Point","properties":{"Station_ID":"ESDN3","Station_Nam":"EAST SANDWICH","Latitude":"43.80990","Longitude":"-71.34250","Snowdepth":"10.000","Units":"in","Rept_Date":"2020-03-13 10"},"coordinates":[6078,1426]},{"type":"Point","properties":{"Station_ID":"COTM5","Station_Nam":"COTTON","Latitude":"47.16870","Longitude":"-92.46290","Snowdepth":"10.000","Units":"in","Rept_Date":"2020-03-13 12"},"coordinates":[1121,5063]},{"type":"Point","properties":{"Station_ID":"CAN-NB-98","Station_Nam":"HOYT 4.2 S, CAN","Latitude":"45.54763","Longitude":"-66.55440","Snowdepth":"10.000","Units":"in","Rept_Date":"2020-03-13 11"},"coordinates":[7201,3308]},{"type":"Point","properties":{"Station_ID":"BREW3","Station_Nam":"SURING","Latitude":"44.99580","Longitude":"-88.37860","Snowdepth":"10.000","Units":"in","Rept_Date":"2020-03-13 12"},"coordinates":[2079,2710]},{"type":"Point","properties":{"Station_ID":"WLKW3","Station_Nam":"WHITE LAKE 1 SE","Latitude":"45.14520","Longitude":"-88.74160","Snowdepth":"9.000","Units":"in","Rept_Date":"2020-03-13 13"},"coordinates":[1994,2872]},{"type":"Point","properties":{"Station_ID":"WLKM5","Station_Nam":"AH-GWAH-CHING","Latitude":"47.15000","Longitude":"-94.65000","Snowdepth":"9.000","Units":"in","Rept_Date":"2020-03-13 10"},"coordinates":[608,5043]},{"type":"Point","properties":{"Station_ID":"WI-SR-5","Station_Nam":"HAYWARD 9.7 NE, WI","Latitude":"46.12030","Longitude":"-91.35370","Snowdepth":"9.000","Units":"in","Rept_Date":"2020-03-13 14"},"coordinates":[1381,3928]},{"type":"Point","properties":{"Station_ID":"RRVM4","Station_Nam":"RAPID RIVER 9S","Latitude":"45.78750","Longitude":"-86.93920","Snowdepth":"9.000","Units":"in","Rept_Date":"2020-03-13 15"},"coordinates":[2417,3568]},{"type":"Point","properties":{"Station_ID":"PELW3","Station_Nam":"PELLA 3SE","Latitude":"44.73580","Longitude":"-88.73780","Snowdepth":"9.000","Units":"in","Rept_Date":"2020-03-13 10"},"coordinates":[1995,2429]},{"type":"Point","properties":{"Station_ID":"PBAN8","Station_Nam":"SITE 1-3MI.N","Latitude":"48.97420","Longitude":"-97.23860","Snowdepth":"9.000","Units":"in","Rept_Date":"2020-03-13 12"},"coordinates":[0,7018]},{"type":"Point","properties":{"Station_ID":"NY-HR-18","Station_Nam":"SALISBURY CENTER 1.8 NW, NY","Latitude":"43.16260","Longitude":"-74.80880","Snowdepth":"9.000","Units":"in","Rept_Date":"2020-03-13 11"},"coordinates":[5264,725]},{"type":"Point","properties":{"Station_ID":"NH-GR-49","Station_Nam":"PLYMOUTH 3.7 N, NH","Latitude":"43.79048","Longitude":"-71.68413","Snowdepth":"9.000","Units":"in","Rept_Date":"2020-03-13 11"},"coordinates":[5997,1405]},{"type":"Point","properties":{"Station_ID":"MNP0GYWA","Station_Nam":"WALKER 2.0 SSE","Latitude":"47.07505","Longitude":"-94.56757","Snowdepth":"9.000","Units":"in","Rept_Date":"2020-03-13 10"},"coordinates":[627,4962]},{"type":"Point","properties":{"Station_ID":"MN7M8EBJ","Station_Nam":"LUTSEN 15.7 NNW","Latitude":"47.85324","Longitude":"-89.92908","Snowdepth":"9.000","Units":"in","Rept_Date":"2020-03-13 13"},"coordinates":[1715,5805]},{"type":"Point","properties":{"Station_ID":"HOLW3","Station_Nam":"HOLCOMBE","Latitude":"45.22370","Longitude":"-91.12700","Snowdepth":"9.000","Units":"in","Rept_Date":"2020-03-13 12"},"coordinates":[1434,2957]},{"type":"Point","properties":{"Station_ID":"FARM1","Station_Nam":"FARMINGTON","Latitude":"44.68930","Longitude":"-70.15640","Snowdepth":"9.000","Units":"in","Rept_Date":"2020-03-13 12"},"coordinates":[6356,2379]},{"type":"Point","properties":{"Station_ID":"EGRW3","Station_Nam":"EAGLE RIVER-SOUTH","Latitude":"45.91360","Longitude":"-89.24360","Snowdepth":"9.000","Units":"in","Rept_Date":"2020-03-13 12"},"coordinates":[1876,3704]},{"type":"Point","properties":{"Station_ID":"COUW3","Station_Nam":"COUDERAY,WI","Latitude":"45.86670","Longitude":"-91.45000","Snowdepth":"9.000","Units":"in","Rept_Date":"2020-03-13 21"},"coordinates":[1359,3653]},{"type":"Point","properties":{"Station_ID":"BOWW3","Station_Nam":"STOCKBRIDGE-MUNSEE RESERVATION","Latitude":"44.87000","Longitude":"-88.90440","Snowdepth":"9.000","Units":"in","Rept_Date":"2020-03-13 13"},"coordinates":[1956,2574]},{"type":"Point","properties":{"Station_ID":"NH-CR-27","Station_Nam":"TAMWORTH 0.4 NNW, NH","Latitude":"43.86449","Longitude":"-71.26610","Snowdepth":"8.500","Units":"in","Rept_Date":"2020-03-13 12"},"coordinates":[6096,1485]},{"type":"Point","properties":{"Station_ID":"MN-BM-15","Station_Nam":"BEMIDJI 7.8 ENE, MN","Latitude":"47.52043","Longitude":"-94.72121","Snowdepth":"8.500","Units":"in","Rept_Date":"2020-03-13 13"},"coordinates":[591,5444]},{"type":"Point","properties":{"Station_ID":"MN-AT-5","Station_Nam":"TAMARACK 1.4 SW, MN","Latitude":"46.63760","Longitude":"-93.14554","Snowdepth":"8.500","Units":"in","Rept_Date":"2020-03-13 13"},"coordinates":[961,4488]},{"type":"Point","properties":{"Station_ID":"CAN-PE-10","Station_Nam":"NEW LONDON 1.6 ENE, CA","Latitude":"46.46985","Longitude":"-63.49200","Snowdepth":"8.500","Units":"in","Rept_Date":"2020-03-13 12"},"coordinates":[7920,4307]},{"type":"Point","properties":{"Station_ID":"WI-WB-2","Station_Nam":"STONE LAKE 2.0 NW, WI","Latitude":"45.85960","Longitude":"-91.57710","Snowdepth":"8.000","Units":"in","Rept_Date":"2020-03-13 13"},"coordinates":[1329,3646]},{"type":"Point","properties":{"Station_ID":"WI-PR-6","Station_Nam":"PHILLIPS 1.3 S, WI","Latitude":"45.67677","Longitude":"-90.39543","Snowdepth":"8.000","Units":"in","Rept_Date":"2020-03-13 12"},"coordinates":[1606,3448]},{"type":"Point","properties":{"Station_ID":"WI-MT-14","Station_Nam":"MOSINEE 2.7 WSW, WI","Latitude":"44.77240","Longitude":"-89.73441","Snowdepth":"8.000","Units":"in","Rept_Date":"2020-03-13 13"},"coordinates":[1761,2468]},{"type":"Point","properties":{"Station_ID":"WI-AS-4","Station_Nam":"ASHLAND 0.5 WNW, WI","Latitude":"46.58240","Longitude":"-90.88390","Snowdepth":"8.000","Units":"in","Rept_Date":"2020-03-13 13"},"coordinates":[1491,4428]},{"type":"Point","properties":{"Station_ID":"WHFN6","Station_Nam":"WILMINGTON 2W","Latitude":"44.39310","Longitude":"-73.85890","Snowdepth":"8.000","Units":"in","Rept_Date":"2020-03-13 12"},"coordinates":[5487,2058]},{"type":"Point","properties":{"Station_ID":"VT-WS-30","Station_Nam":"WOODBURY 3.4 NNW, VT","Latitude":"44.48825","Longitude":"-72.43258","Snowdepth":"8.000","Units":"in","Rept_Date":"2020-03-13 12"},"coordinates":[5822,2161]},{"type":"Point","properties":{"Station_ID":"VT-CL-14","Station_Nam":"LYNDONVILLE 1.1 W, VT","Latitude":"44.53582","Longitude":"-72.02867","Snowdepth":"8.000","Units":"in","Rept_Date":"2020-03-13 13"},"coordinates":[5917,2212]},{"type":"Point","properties":{"Station_ID":"TOPM1","Station_Nam":"TOPSFIELD","Latitude":"45.43470","Longitude":"-67.72020","Snowdepth":"8.000","Units":"in","Rept_Date":"2020-03-13 11"},"coordinates":[6928,3186]},{"type":"Point","properties":{"Station_ID":"TMWN3","Station_Nam":"TAMWORTH 4","Latitude":"43.86390","Longitude":"-71.26610","Snowdepth":"8.000","Units":"in","Rept_Date":"2020-03-13 11"},"coordinates":[6096,1485]},{"type":"Point","properties":{"Station_ID":"STMM4","Station_Nam":"STAMBAUGH 2SSE","Latitude":"46.05550","Longitude":"-88.62780","Snowdepth":"8.000","Units":"in","Rept_Date":"2020-03-13 12"},"coordinates":[2021,3858]},{"type":"Point","properties":{"Station_ID":"OTTM5","Station_Nam":"OTTERTAIL,MN","Latitude":"46.41670","Longitude":"-95.56670","Snowdepth":"8.000","Units":"in","Rept_Date":"2020-03-13 12"},"coordinates":[392,4249]},{"type":"Point","properties":{"Station_ID":"NUMN3","Station_Nam":"NORTHUMBERLAND","Latitude":"44.52830","Longitude":"-71.50440","Snowdepth":"8.000","Units":"in","Rept_Date":"2020-03-13 11"},"coordinates":[6040,2204]},{"type":"Point","properties":{"Station_ID":"MQRW3","Station_Nam":"MINOCQUA","Latitude":"45.88630","Longitude":"-89.73220","Snowdepth":"8.000","Units":"in","Rept_Date":"2020-03-13 11"},"coordinates":[1762,3675]},{"type":"Point","properties":{"Station_ID":"MI-OT-4","Station_Nam":"GAYLORD 1.7 WNW, MI","Latitude":"45.03280","Longitude":"-84.71090","Snowdepth":"8.000","Units":"in","Rept_Date":"2020-03-13 13"},"coordinates":[2940,2750]},{"type":"Point","properties":{"Station_ID":"KSEM4","Station_Nam":"KALKASKA 11SE","Latitude":"44.58970","Longitude":"-85.04860","Snowdepth":"8.000","Units":"in","Rept_Date":"2020-03-13 12"},"coordinates":[2861,2271]},{"type":"Point","properties":{"Station_ID":"GAYM4","Station_Nam":"GAYLORD","Latitude":"45.03320","Longitude":"-84.71130","Snowdepth":"8.000","Units":"in","Rept_Date":"2020-03-13 12"},"coordinates":[2940,2751]},{"type":"Point","properties":{"Station_ID":"ENGM4","Station_Nam":"ENGADINE MDOT","Latitude":"46.12800","Longitude":"-85.56960","Snowdepth":"8.000","Units":"in","Rept_Date":"2020-03-13 11"},"coordinates":[2739,3936]},{"type":"Point","properties":{"Station_ID":"CAN-ON-42","Station_Nam":"VANKLEEK HILL 3.4 S, CA","Latitude":"45.48987","Longitude":"-74.64570","Snowdepth":"8.000","Units":"in","Rept_Date":"2020-03-13 12"},"coordinates":[5302,3245]},{"type":"Point","properties":{"Station_ID":"BRUM5","Station_Nam":"BRUNO,MN","Latitude":"46.28330","Longitude":"-92.50000","Snowdepth":"8.000","Units":"in","Rept_Date":"2020-03-13 13"},"coordinates":[1112,4105]},{"type":"Point","properties":{"Station_ID":"AWXW3","Station_Nam":"ASHLAND","Latitude":"46.58240","Longitude":"-90.88390","Snowdepth":"8.000","Units":"in","Rept_Date":"2020-03-13 12"},"coordinates":[1491,4428]},{"type":"Point","properties":{"Station_ID":"ND-CS-1","Station_Nam":"WEST FARGO 3.8 SSE, ND","Latitude":"46.82750","Longitude":"-96.85280","Snowdepth":"7.500","Units":"in","Rept_Date":"2020-03-13 13"},"coordinates":[91,4694]},{"type":"Point","properties":{"Station_ID":"MI-CX-7","Station_Nam":"EAST JORDAN 2.1 NNW, MI","Latitude":"45.18639","Longitude":"-85.14750","Snowdepth":"7.500","Units":"in","Rept_Date":"2020-03-13 13"},"coordinates":[2838,2917]},{"type":"Point","properties":{"Station_ID":"CAN-ON-120","Station_Nam":"DUNROBIN 5.8 NE MIVCA, CA","Latitude":"45.46243","Longitude":"-75.97120","Snowdepth":"7.100","Units":"in","Rept_Date":"2020-03-13 19"},"coordinates":[4991,3216]},{"type":"Point","properties":{"Station_ID":"WI-RS-1","Station_Nam":"LADYSMITH 2.8 WNW, WI","Latitude":"45.48180","Longitude":"-91.14680","Snowdepth":"7.000","Units":"in","Rept_Date":"2020-03-13 13"},"coordinates":[1430,3237]},{"type":"Point","properties":{"Station_ID":"SULW3","Station_Nam":"SUMMIT LAKE","Latitude":"45.37880","Longitude":"-89.19410","Snowdepth":"7.000","Units":"in","Rept_Date":"2020-03-13 10"},"coordinates":[1888,3125]},{"type":"Point","properties":{"Station_ID":"SBNM5","Station_Nam":"SABIN","Latitude":"46.77690","Longitude":"-96.65610","Snowdepth":"7.000","Units":"in","Rept_Date":"2020-03-13 13"},"coordinates":[137,4639]},{"type":"Point","properties":{"Station_ID":"RHLW3","Station_Nam":"RHINELANDER 4NE","Latitude":"45.65270","Longitude":"-89.30740","Snowdepth":"7.000","Units":"in","Rept_Date":"2020-03-13 11"},"coordinates":[1861,3422]},{"type":"Point","properties":{"Station_ID":"NY-ES-11","Station_Nam":"VERMONTVILLE 2.8 S, NY","Latitude":"44.41205","Longitude":"-74.06760","Snowdepth":"7.000","Units":"in","Rept_Date":"2020-03-13 12"},"coordinates":[5438,2078]},{"type":"Point","properties":{"Station_ID":"ND-CS-25","Station_Nam":"FARGO 2.1 N, ND","Latitude":"46.90816","Longitude":"-96.77937","Snowdepth":"7.000","Units":"in","Rept_Date":"2020-03-13 14"},"coordinates":[108,4781]},{"type":"Point","properties":{"Station_ID":"MN-DS-9","Station_Nam":"ALEXANDRIA 0.5 W, MN","Latitude":"45.87828","Longitude":"-95.38273","Snowdepth":"7.000","Units":"in","Rept_Date":"2020-03-13 12"},"coordinates":[436,3666]},{"type":"Point","properties":{"Station_ID":"KGFK","Station_Nam":"GRAND FORKS INTERNATIONAL","Latitude":"47.95000","Longitude":"-97.18333","Snowdepth":"7.000","Units":"in","Rept_Date":"2020-03-14 00"},"coordinates":[13,5909]},{"type":"Point","properties":{"Station_ID":"JEFV1","Station_Nam":"JEFFERSONVILLE","Latitude":"44.58430","Longitude":"-72.78700","Snowdepth":"7.000","Units":"in","Rept_Date":"2020-03-13 11"},"coordinates":[5739,2265]},{"type":"Point","properties":{"Station_ID":"GFK","Station_Nam":"GRAND FORKS INTERNATIONAL AIRPORT","Latitude":"47.94920","Longitude":"-97.17610","Snowdepth":"7.000","Units":"in","Rept_Date":"2020-03-14 00"},"coordinates":[15,5908]},{"type":"Point","properties":{"Station_ID":"EJNM4","Station_Nam":"EAST JORDAN 2NW","Latitude":"45.18630","Longitude":"-85.14770","Snowdepth":"7.000","Units":"in","Rept_Date":"2020-03-13 12"},"coordinates":[2838,2917]},{"type":"Point","properties":{"Station_ID":"ALXM5","Station_Nam":"ALEXANDRIA","Latitude":"45.87820","Longitude":"-95.38270","Snowdepth":"7.000","Units":"in","Rept_Date":"2020-03-13 11"},"coordinates":[436,3666]},{"type":"Point","properties":{"Station_ID":"VT-WR-2","Station_Nam":"POMFRET 2.6 N, VT","Latitude":"43.74230","Longitude":"-72.52550","Snowdepth":"6.500","Units":"in","Rept_Date":"2020-03-13 12"},"coordinates":[5800,1353]},{"type":"Point","properties":{"Station_ID":"MI-CP-7","Station_Nam":"DRUMMOND 2.9 NE, MI","Latitude":"46.05329","Longitude":"-83.69060","Snowdepth":"6.500","Units":"in","Rept_Date":"2020-03-13 12"},"coordinates":[3180,3855]},{"type":"Point","properties":{"Station_ID":"WILW3","Station_Nam":"RESERVOIR","Latitude":"45.70000","Longitude":"-89.83330","Snowdepth":"6.000","Units":"in","Rept_Date":"2020-03-13 11"},"coordinates":[1738,3473]},{"type":"Point","properties":{"Station_ID":"WI-TY-2","Station_Nam":"SHELDON 8.1 ENE, WI","Latitude":"45.35598","Longitude":"-90.80296","Snowdepth":"6.000","Units":"in","Rept_Date":"2020-03-13 13"},"coordinates":[1510,3100]},{"type":"Point","properties":{"Station_ID":"VT-ES-3","Station_Nam":"LUNENBURG 2.3 NNW, VT","Latitude":"44.49324","Longitude":"-71.70446","Snowdepth":"6.000","Units":"in","Rept_Date":"2020-03-13 11"},"coordinates":[5993,2166]},{"type":"Point","properties":{"Station_ID":"VT-BN-3","Station_Nam":"LANDGROVE 1.1 NNE, VT","Latitude":"43.29092","Longitude":"-72.83260","Snowdepth":"6.000","Units":"in","Rept_Date":"2020-03-13 12"},"coordinates":[5728,864]},{"type":"Point","properties":{"Station_ID":"RHRW3","Station_Nam":"RHINELANDER WJFW TV-12","Latitude":"45.62220","Longitude":"-89.41000","Snowdepth":"6.000","Units":"in","Rept_Date":"2020-03-14 03"},"coordinates":[1837,3389]},{"type":"Point","properties":{"Station_ID":"RHI","Station_Nam":"RHINELANDER-ONEIDA COUNTY AIRPORT","Latitude":"45.63080","Longitude":"-89.46530","Snowdepth":"6.000","Units":"in","Rept_Date":"2020-03-14 00"},"coordinates":[1824,3398]},{"type":"Point","properties":{"Station_ID":"PERV1","Station_Nam":"PERU","Latitude":"43.26670","Longitude":"-72.90000","Snowdepth":"6.000","Units":"in","Rept_Date":"2020-03-13 11"},"coordinates":[5712,838]},{"type":"Point","properties":{"Station_ID":"ONMM5","Station_Nam":"ONAMIA RANGER STATION","Latitude":"46.06770","Longitude":"-93.66660","Snowdepth":"6.000","Units":"in","Rept_Date":"2020-03-13 13"},"coordinates":[838,3871]},{"type":"Point","properties":{"Station_ID":"NYMM5","Station_Nam":"NEW YORK MILLS","Latitude":"46.50920","Longitude":"-95.37990","Snowdepth":"6.000","Units":"in","Rept_Date":"2020-03-13 12"},"coordinates":[436,4349]},{"type":"Point","properties":{"Station_ID":"NCKN6","Station_Nam":"NORTH CREEK 5 SE","Latitude":"43.66110","Longitude":"-73.89690","Snowdepth":"6.000","Units":"in","Rept_Date":"2020-03-13 11"},"coordinates":[5478,1265]},{"type":"Point","properties":{"Station_ID":"MTQM4","Station_Nam":"MANISTIQUE WWTP","Latitude":"45.95120","Longitude":"-86.25130","Snowdepth":"6.000","Units":"in","Rept_Date":"2020-03-13 11"},"coordinates":[2579,3745]},{"type":"Point","properties":{"Station_ID":"LNCM1","Station_Nam":"LINCOLN WATER DISTRICT","Latitude":"45.32410","Longitude":"-68.58300","Snowdepth":"6.000","Units":"in","Rept_Date":"2020-03-13 12"},"coordinates":[6725,3066]},{"type":"Point","properties":{"Station_ID":"HMYM1","Station_Nam":"HARMONY","Latitude":"44.94660","Longitude":"-69.54560","Snowdepth":"6.000","Units":"in","Rept_Date":"2020-03-13 11"},"coordinates":[6499,2657]},{"type":"Point","properties":{"Station_ID":"FDRN8","Station_Nam":"FARGO 3S","Latitude":"46.82930","Longitude":"-96.79620","Snowdepth":"6.000","Units":"in","Rept_Date":"2020-03-14 05"},"coordinates":[104,4696]},{"type":"Point","properties":{"Station_ID":"FAR","Station_Nam":"HECTOR INTERNATIONAL ARPT","Latitude":"46.91560","Longitude":"-96.81440","Snowdepth":"6.000","Units":"in","Rept_Date":"2020-03-14 00"},"coordinates":[100,4789]},{"type":"Point","properties":{"Station_ID":"ESAM4","Station_Nam":"ESCANABA","Latitude":"45.74380","Longitude":"-87.04060","Snowdepth":"6.000","Units":"in","Rept_Date":"2020-03-13 11"},"coordinates":[2393,3520]},{"type":"Point","properties":{"Station_ID":"DTVM4","Station_Nam":"DETOUR VILLAGE","Latitude":"45.99830","Longitude":"-83.90130","Snowdepth":"6.000","Units":"in","Rept_Date":"2020-03-13 12"},"coordinates":[3130,3796]},{"type":"Point","properties":{"Station_ID":"CNNW3","Station_Nam":"CRANDON","Latitude":"45.55110","Longitude":"-88.89830","Snowdepth":"6.000","Units":"in","Rept_Date":"2020-03-13 11"},"coordinates":[1957,3312]},{"type":"Point","properties":{"Station_ID":"CAN-ON-208","Station_Nam":"PAKENHAM 7.8 NNW, CAN","Latitude":"45.39166","Longitude":"-76.34111","Snowdepth":"6.000","Units":"in","Rept_Date":"2020-03-13 12"},"coordinates":[4904,3139]},{"type":"Point","properties":{"Station_ID":"APXM4","Station_Nam":"GAYLORD 9SSW","Latitude":"44.90720","Longitude":"-84.71880","Snowdepth":"6.000","Units":"in","Rept_Date":"2020-03-14 06"},"coordinates":[2938,2614]},{"type":"Point","properties":{"Station_ID":"WI-PR-8","Station_Nam":"PHILLIPS 0.4 SSW, WI","Latitude":"45.69086","Longitude":"-90.40200","Snowdepth":"5.500","Units":"in","Rept_Date":"2020-03-13 13"},"coordinates":[1605,3463]},{"type":"Point","properties":{"Station_ID":"VT-WS-10","Station_Nam":"NORTHFIELD 1.5 N, VT","Latitude":"44.16986","Longitude":"-72.65200","Snowdepth":"5.500","Units":"in","Rept_Date":"2020-03-13 12"},"coordinates":[5770,1816]},{"type":"Point","properties":{"Station_ID":"NH-MR-60","Station_Nam":"SOUTH SUTTON 1.3 SE, NH","Latitude":"43.29531","Longitude":"-71.90238","Snowdepth":"5.500","Units":"in","Rept_Date":"2020-03-13 13"},"coordinates":[5946,869]},{"type":"Point","properties":{"Station_ID":"WI-SC-21","Station_Nam":"CLEAR LAKE 4.0 S, WI","Latitude":"45.19250","Longitude":"-92.27860","Snowdepth":"5.000","Units":"in","Rept_Date":"2020-03-13 15"},"coordinates":[1164,2923]},{"type":"Point","properties":{"Station_ID":"WI-BT-14","Station_Nam":"OAKLAND 9.0 ENE, WI","Latitude":"45.95184","Longitude":"-92.21653","Snowdepth":"5.000","Units":"in","Rept_Date":"2020-03-13 13"},"coordinates":[1179,3746]},{"type":"Point","properties":{"Station_ID":"VT-OL-2","Station_Nam":"BARTON 3.0 ENE, VT","Latitude":"44.75863","Longitude":"-72.11680","Snowdepth":"5.000","Units":"in","Rept_Date":"2020-03-13 12"},"coordinates":[5896,2454]},{"type":"Point","properties":{"Station_ID":"TOHM5","Station_Nam":"TWO HARBORS WWTP","Latitude":"47.01760","Longitude":"-91.66480","Snowdepth":"5.000","Units":"in","Rept_Date":"2020-03-13 12"},"coordinates":[1308,4900]},{"type":"Point","properties":{"Station_ID":"RLKW3","Station_Nam":"REST LAKE","Latitude":"46.12220","Longitude":"-89.87720","Snowdepth":"5.000","Units":"in","Rept_Date":"2020-03-13 13"},"coordinates":[1728,3930]},{"type":"Point","properties":{"Station_ID":"PEKN6","Station_Nam":"PECK LAKE","Latitude":"43.11500","Longitude":"-74.42360","Snowdepth":"5.000","Units":"in","Rept_Date":"2020-03-13 11"},"coordinates":[5355,674]},{"type":"Point","properties":{"Station_ID":"PARM4","Station_Nam":"PARENT BAY","Latitude":"45.79610","Longitude":"-86.40110","Snowdepth":"5.000","Units":"in","Rept_Date":"2020-03-13 16"},"coordinates":[2543,3577]},{"type":"Point","properties":{"Station_ID":"MN1867TA","Station_Nam":"LAKE FREMONT 0.9 NW","Latitude":"45.45049","Longitude":"-93.60337","Snowdepth":"5.000","Units":"in","Rept_Date":"2020-03-13 12"},"coordinates":[853,3203]},{"type":"Point","properties":{"Station_ID":"HRTM1","Station_Nam":"HARTFORD","Latitude":"44.37440","Longitude":"-70.31620","Snowdepth":"5.000","Units":"in","Rept_Date":"2020-03-13 11"},"coordinates":[6318,2038]},{"type":"Point","properties":{"Station_ID":"FLDM5","Station_Nam":"FLOODWOOD,MN","Latitude":"47.00000","Longitude":"-92.91670","Snowdepth":"5.000","Units":"in","Rept_Date":"2020-03-13 13"},"coordinates":[1014,4881]},{"type":"Point","properties":{"Station_ID":"COLN3","Station_Nam":"COLEBROOK 3SW","Latitude":"44.86100","Longitude":"-71.53920","Snowdepth":"5.000","Units":"in","Rept_Date":"2020-03-13 12"},"coordinates":[6031,2564]},{"type":"Point","properties":{"Station_ID":"CLGM5","Station_Nam":"COLLEGEVILLE ST JOHN","Latitude":"45.57940","Longitude":"-94.39200","Snowdepth":"5.000","Units":"in","Rept_Date":"2020-03-13 23"},"coordinates":[668,3342]},{"type":"Point","properties":{"Station_ID":"BRLN3","Station_Nam":"BERLIN","Latitude":"44.45350","Longitude":"-71.18540","Snowdepth":"5.000","Units":"in","Rept_Date":"2020-03-13 11"},"coordinates":[6115,2123]},{"type":"Point","properties":{"Station_ID":"BETM1","Station_Nam":"BETHEL 6 SSE","Latitude":"44.32000","Longitude":"-70.75680","Snowdepth":"5.000","Units":"in","Rept_Date":"2020-03-13 11"},"coordinates":[6215,1979]},{"type":"Point","properties":{"Station_ID":"AMDW3","Station_Nam":"ALMOND-5 NE","Latitude":"44.30830","Longitude":"-89.34640","Snowdepth":"5.000","Units":"in","Rept_Date":"2020-03-13 13"},"coordinates":[1852,1966]},{"type":"Point","properties":{"Station_ID":"ABGW3","Station_Nam":"AMBERG 9 E","Latitude":"45.48250","Longitude":"-87.81190","Snowdepth":"5.000","Units":"in","Rept_Date":"2020-03-13 11"},"coordinates":[2212,3237]},{"type":"Point","properties":{"Station_ID":"VT-WS-19","Station_Nam":"WATERBURY 3.0 NW, VT","Latitude":"44.36060","Longitude":"-72.80770","Snowdepth":"4.500","Units":"in","Rept_Date":"2020-03-13 11"},"coordinates":[5734,2023]},{"type":"Point","properties":{"Station_ID":"WUNW3","Station_Nam":"WAUSAU-NORTHEAST","Latitude":"44.97310","Longitude":"-89.61690","Snowdepth":"4.000","Units":"in","Rept_Date":"2020-03-13 11"},"coordinates":[1789,2686]},{"type":"Point","properties":{"Station_ID":"WRTS2","Station_Nam":"WATERTOWN,SD","Latitude":"44.90280","Longitude":"-97.11360","Snowdepth":"4.000","Units":"in","Rept_Date":"2020-03-13 14"},"coordinates":[29,2610]},{"type":"Point","properties":{"Station_ID":"VT-OG-11","Station_Nam":"VERSHIRE 1.5 ESE, VT","Latitude":"43.96138","Longitude":"-72.29777","Snowdepth":"4.000","Units":"in","Rept_Date":"2020-03-13 13"},"coordinates":[5853,1590]},{"type":"Point","properties":{"Station_ID":"RARM4","Station_Nam":"RAPID RIVER 1 SW","Latitude":"45.91500","Longitude":"-86.98800","Snowdepth":"4.000","Units":"in","Rept_Date":"2020-03-13 11"},"coordinates":[2406,3706]},{"type":"Point","properties":{"Station_ID":"NWSM1","Station_Nam":"NEW SHARON","Latitude":"44.63520","Longitude":"-70.00020","Snowdepth":"4.000","Units":"in","Rept_Date":"2020-03-13 11"},"coordinates":[6393,2320]},{"type":"Point","properties":{"Station_ID":"MN-MR-4","Station_Nam":"LITTLE FALLS 1.2 SW, MN","Latitude":"45.96886","Longitude":"-94.37720","Snowdepth":"4.000","Units":"in","Rept_Date":"2020-03-13 13"},"coordinates":[672,3764]},{"type":"Point","properties":{"Station_ID":"MLLW3","Station_Nam":"MERRILL 8W","Latitude":"45.17810","Longitude":"-89.84810","Snowdepth":"4.000","Units":"in","Rept_Date":"2020-03-13 11"},"coordinates":[1735,2908]},{"type":"Point","properties":{"Station_ID":"MCLN8","Station_Nam":"MC LEOD,ND","Latitude":"46.40250","Longitude":"-97.23810","Snowdepth":"4.000","Units":"in","Rept_Date":"2020-03-13 15"},"coordinates":[0,4234]},{"type":"Point","properties":{"Station_ID":"ISEM5","Station_Nam":"ISLE 12N","Latitude":"46.31970","Longitude":"-93.50140","Snowdepth":"4.000","Units":"in","Rept_Date":"2020-03-13 13"},"coordinates":[877,4144]},{"type":"Point","properties":{"Station_ID":"EPTW3","Station_Nam":"EAU PLEINE TENDER","Latitude":"44.77220","Longitude":"-89.76720","Snowdepth":"4.000","Units":"in","Rept_Date":"2020-03-13 12"},"coordinates":[1753,2468]},{"type":"Point","properties":{"Station_ID":"CORM1","Station_Nam":"CORINNA","Latitude":"44.91980","Longitude":"-69.24180","Snowdepth":"4.000","Units":"in","Rept_Date":"2020-03-13 13"},"coordinates":[6571,2628]},{"type":"Point","properties":{"Station_ID":"CAN-ON-5","Station_Nam":"OWEN SOUND 1.5 NW - GSCA, CAN","Latitude":"44.57837","Longitude":"-80.95461","Snowdepth":"4.000","Units":"in","Rept_Date":"2020-03-13 13"},"coordinates":[3822,2258]},{"type":"Point","properties":{"Station_ID":"CAN-ON-109","Station_Nam":"MILDMAY 5.9 SSE, CA","Latitude":"43.98733","Longitude":"-81.10330","Snowdepth":"4.000","Units":"in","Rept_Date":"2020-03-13 13"},"coordinates":[3787,1618]},{"type":"Point","properties":{"Station_ID":"AUW","Station_Nam":"WAUSAU MUNICIPAL AIRPORT","Latitude":"44.92580","Longitude":"-89.62560","Snowdepth":"4.000","Units":"in","Rept_Date":"2020-03-14 00"},"coordinates":[1787,2635]},{"type":"Point","properties":{"Station_ID":"CAN-NB-29","Station_Nam":"SUSSEX 1.0 WNW - KWRC, CAN","Latitude":"45.72670","Longitude":"-65.52858","Snowdepth":"3.600","Units":"in","Rept_Date":"2020-03-13 12"},"coordinates":[7442,3502]},{"type":"Point","properties":{"Station_ID":"WI-LN-2","Station_Nam":"MERRILL 7.0 W, WI","Latitude":"45.17746","Longitude":"-89.84820","Snowdepth":"3.500","Units":"in","Rept_Date":"2020-03-13 12"},"coordinates":[1734,2907]},{"type":"Point","properties":{"Station_ID":"VT-WR-17","Station_Nam":"ROCHESTER 2.3 NE, VT","Latitude":"43.89418","Longitude":"-72.76992","Snowdepth":"3.500","Units":"in","Rept_Date":"2020-03-13 12"},"coordinates":[5743,1518]},{"type":"Point","properties":{"Station_ID":"MN-MR-13","Station_Nam":"LITTLE FALLS 8.0 NE, MN","Latitude":"46.06785","Longitude":"-94.24789","Snowdepth":"3.500","Units":"in","Rept_Date":"2020-03-13 13"},"coordinates":[702,3871]},{"type":"Point","properties":{"Station_ID":"WENN3","Station_Nam":"P.O. BOX 197 WENTWORTH, NH","Latitude":"43.95190","Longitude":"-71.91560","Snowdepth":"3.000","Units":"in","Rept_Date":"2020-03-13 11"},"coordinates":[5943,1580]},{"type":"Point","properties":{"Station_ID":"VT-WH-9","Station_Nam":"WEST HALIFAX 0.2 SE, VT","Latitude":"42.78561","Longitude":"-72.76950","Snowdepth":"3.000","Units":"in","Rept_Date":"2020-03-13 13"},"coordinates":[5743,317]},{"type":"Point","properties":{"Station_ID":"ROWM3","Station_Nam":"ROWE 3NE","Latitude":"42.73500","Longitude":"-72.86920","Snowdepth":"3.000","Units":"in","Rept_Date":"2020-03-13 11"},"coordinates":[5719,262]},{"type":"Point","properties":{"Station_ID":"RCEM5","Station_Nam":"RICE","Latitude":"45.75760","Longitude":"-94.20720","Snowdepth":"3.000","Units":"in","Rept_Date":"2020-03-13 12"},"coordinates":[711,3535]},{"type":"Point","properties":{"Station_ID":"PLFV1","Station_Nam":"PLAINFIELD","Latitude":"44.27610","Longitude":"-72.41500","Snowdepth":"3.000","Units":"in","Rept_Date":"2020-03-13 11"},"coordinates":[5826,1931]},{"type":"Point","properties":{"Station_ID":"NH-MR-6","Station_Nam":"DANBURY 2.2 ESE, NH","Latitude":"43.52000","Longitude":"-71.81900","Snowdepth":"3.000","Units":"in","Rept_Date":"2020-03-13 13"},"coordinates":[5966,1112]},{"type":"Point","properties":{"Station_ID":"NH-MR-45","Station_Nam":"NORTHFIELD 2.8 E, NH","Latitude":"43.43945","Longitude":"-71.53730","Snowdepth":"3.000","Units":"in","Rept_Date":"2020-03-13 11"},"coordinates":[6032,1025]},{"type":"Point","properties":{"Station_ID":"NH-MR-41","Station_Nam":"NEWBURY 1.6 NW, NH","Latitude":"43.33667","Longitude":"-72.06060","Snowdepth":"3.000","Units":"in","Rept_Date":"2020-03-13 11"},"coordinates":[5909,914]},{"type":"Point","properties":{"Station_ID":"NCON3","Station_Nam":"NORTH CONWAY","Latitude":"44.05620","Longitude":"-71.12970","Snowdepth":"3.000","Units":"in","Rept_Date":"2020-03-13 12"},"coordinates":[6128,1693]},{"type":"Point","properties":{"Station_ID":"MYOM4","Station_Nam":"MIO WWTP","Latitude":"44.64660","Longitude":"-84.11580","Snowdepth":"3.000","Units":"in","Rept_Date":"2020-03-13 12"},"coordinates":[3080,2332]},{"type":"Point","properties":{"Station_ID":"MN76ACVS","Station_Nam":"GRAND MARAIS 3.0 WNW","Latitude":"47.76602","Longitude":"-90.26427","Snowdepth":"3.000","Units":"in","Rept_Date":"2020-03-13 12"},"coordinates":[1637,5710]},{"type":"Point","properties":{"Station_ID":"MN-SH-10","Station_Nam":"BIG LAKE 5.6 NNE, MN","Latitude":"45.41409","Longitude":"-93.69190","Snowdepth":"3.000","Units":"in","Rept_Date":"2020-03-13 13"},"coordinates":[832,3163]},{"type":"Point","properties":{"Station_ID":"JEFN3","Station_Nam":"JEFFERSON","Latitude":"44.41690","Longitude":"-71.50080","Snowdepth":"3.000","Units":"in","Rept_Date":"2020-03-13 11"},"coordinates":[6040,2084]},{"type":"Point","properties":{"Station_ID":"HGHN6","Station_Nam":"HIGHMARKET","Latitude":"43.57520","Longitude":"-75.52070","Snowdepth":"3.000","Units":"in","Rept_Date":"2020-03-13 10"},"coordinates":[5097,1172]},{"type":"Point","properties":{"Station_ID":"FLAM4","Station_Nam":"FIFE LAKE 2WNW","Latitude":"44.58480","Longitude":"-85.36530","Snowdepth":"3.000","Units":"in","Rept_Date":"2020-03-13 11"},"coordinates":[2787,2265]},{"type":"Point","properties":{"Station_ID":"BOON6","Station_Nam":"BOONVILLE 4 SSW","Latitude":"43.43610","Longitude":"-75.36970","Snowdepth":"3.000","Units":"in","Rept_Date":"2020-03-13 11"},"coordinates":[5132,1022]},{"type":"Point","properties":{"Station_ID":"VT-LM-7","Station_Nam":"HYDE PARK 2.9 NE, VT","Latitude":"44.62080","Longitude":"-72.57250","Snowdepth":"2.500","Units":"in","Rept_Date":"2020-03-13 13"},"coordinates":[5789,2304]},{"type":"Point","properties":{"Station_ID":"VT-LM-1","Station_Nam":"STOWE 0.2 SW, VT","Latitude":"44.46399","Longitude":"-72.69070","Snowdepth":"2.500","Units":"in","Rept_Date":"2020-03-13 12"},"coordinates":[5761,2135]},{"type":"Point","properties":{"Station_ID":"VT-AD-20","Station_Nam":"HANCOCK 0.3 S, VT","Latitude":"43.92166","Longitude":"-72.84042","Snowdepth":"2.500","Units":"in","Rept_Date":"2020-03-13 13"},"coordinates":[5726,1547]},{"type":"Point","properties":{"Station_ID":"MI-GT-21","Station_Nam":"KINGSLEY 2.7 ENE, MI","Latitude":"44.59871","Longitude":"-85.48426","Snowdepth":"2.500","Units":"in","Rept_Date":"2020-03-13 13"},"coordinates":[2759,2280]},{"type":"Point","properties":{"Station_ID":"MI-BZ-1","Station_Nam":"BENZONIA 5.3 S, MI","Latitude":"44.53976","Longitude":"-86.10650","Snowdepth":"2.500","Units":"in","Rept_Date":"2020-03-13 14"},"coordinates":[2613,2217]},{"type":"Point","properties":{"Station_ID":"CAN-NB-5","Station_Nam":"OAK POINT 0.9 SSW, CA","Latitude":"45.50752","Longitude":"-66.09860","Snowdepth":"2.400","Units":"in","Rept_Date":"2020-03-13 12"},"coordinates":[7308,3265]},{"type":"Point","properties":{"Station_ID":"VT-FR-21","Station_Nam":"FAIRFAX 4.9 WNW, VT","Latitude":"44.68880","Longitude":"-73.10340","Snowdepth":"2.000","Units":"in","Rept_Date":"2020-03-13 14"},"coordinates":[5664,2378]},{"type":"Point","properties":{"Station_ID":"STRW3","Station_Nam":"STRATFORD 1NW","Latitude":"44.81750","Longitude":"-90.08990","Snowdepth":"2.000","Units":"in","Rept_Date":"2020-03-13 11"},"coordinates":[1678,2517]},{"type":"Point","properties":{"Station_ID":"STPW3","Station_Nam":"STEVENS POINT","Latitude":"44.51130","Longitude":"-89.58550","Snowdepth":"2.000","Units":"in","Rept_Date":"2020-03-13 12"},"coordinates":[1796,2186]},{"type":"Point","properties":{"Station_ID":"STIM4","Station_Nam":"ST IGNACE","Latitude":"45.86080","Longitude":"-84.71960","Snowdepth":"2.000","Units":"in","Rept_Date":"2020-03-13 11"},"coordinates":[2938,3647]},{"type":"Point","properties":{"Station_ID":"RRLW3","Station_Nam":"MERRILL,WI","Latitude":"45.17860","Longitude":"-89.66170","Snowdepth":"2.000","Units":"in","Rept_Date":"2020-03-13 13"},"coordinates":[1778,2908]},{"type":"Point","properties":{"Station_ID":"ORAN3","Station_Nam":"ORANGE","Latitude":"43.66880","Longitude":"-71.94830","Snowdepth":"2.000","Units":"in","Rept_Date":"2020-03-13 11"},"coordinates":[5935,1273]},{"type":"Point","properties":{"Station_ID":"NY-WR-15","Station_Nam":"LAKE GEORGE 5.0 ESE, NY","Latitude":"43.40039","Longitude":"-73.62266","Snowdepth":"2.000","Units":"in","Rept_Date":"2020-03-13 12"},"coordinates":[5542,983]},{"type":"Point","properties":{"Station_ID":"NY-WR-10","Station_Nam":"WARRENSBURG 2.1 WNW, NY","Latitude":"43.51784","Longitude":"-73.81069","Snowdepth":"2.000","Units":"in","Rept_Date":"2020-03-13 13"},"coordinates":[5498,1110]},{"type":"Point","properties":{"Station_ID":"NY-OD-2","Station_Nam":"POINT ROCK 0.6 SE, NY","Latitude":"43.37335","Longitude":"-75.53840","Snowdepth":"2.000","Units":"in","Rept_Date":"2020-03-13 13"},"coordinates":[5093,954]},{"type":"Point","properties":{"Station_ID":"MRAM5","Station_Nam":"MORA","Latitude":"45.87760","Longitude":"-93.31470","Snowdepth":"2.000","Units":"in","Rept_Date":"2020-03-13 12"},"coordinates":[921,3665]},{"type":"Point","properties":{"Station_ID":"MNEY8CTB","Station_Nam":"MIDLAND JUNCTION 2.2 ENE","Latitude":"44.33041","Longitude":"-91.95891","Snowdepth":"2.000","Units":"in","Rept_Date":"2020-03-13 13"},"coordinates":[1239,1990]},{"type":"Point","properties":{"Station_ID":"MN-AA-76","Station_Nam":"NOWTHEN 2.9 SSE, MN","Latitude":"45.30360","Longitude":"-93.42620","Snowdepth":"2.000","Units":"in","Rept_Date":"2020-03-13 13"},"coordinates":[895,3044]},{"type":"Point","properties":{"Station_ID":"MLRM5","Station_Nam":"MELROSE","Latitude":"45.67710","Longitude":"-94.80200","Snowdepth":"2.000","Units":"in","Rept_Date":"2020-03-13 12"},"coordinates":[572,3448]},{"type":"Point","properties":{"Station_ID":"MI-MC-4","Station_Nam":"ST. IGNACE 0.5SE, MI","Latitude":"45.86057","Longitude":"-84.71980","Snowdepth":"2.000","Units":"in","Rept_Date":"2020-03-13 12"},"coordinates":[2938,3647]},{"type":"Point","properties":{"Station_ID":"ME-CM-3","Station_Nam":"NEW GLOUCESTER 3.0 SE, ME","Latitude":"43.92372","Longitude":"-70.25790","Snowdepth":"2.000","Units":"in","Rept_Date":"2020-03-13 12"},"coordinates":[6332,1550]},{"type":"Point","properties":{"Station_ID":"ME-AN-32","Station_Nam":"WINTHROP 9.4 W, ME","Latitude":"44.30476","Longitude":"-70.15835","Snowdepth":"2.000","Units":"in","Rept_Date":"2020-03-13 11"},"coordinates":[6356,1962]},{"type":"Point","properties":{"Station_ID":"LUCW3","Station_Nam":"LUCK","Latitude":"45.57330","Longitude":"-92.48520","Snowdepth":"2.000","Units":"in","Rept_Date":"2020-03-13 21"},"coordinates":[1116,3336]},{"type":"Point","properties":{"Station_ID":"ILEW3","Station_Nam":"STILES 1S","Latitude":"44.84190","Longitude":"-88.05420","Snowdepth":"2.000","Units":"in","Rept_Date":"2020-03-13 12"},"coordinates":[2156,2544]},{"type":"Point","properties":{"Station_ID":"FRKM4","Station_Nam":"FRANKFORT 2NE","Latitude":"44.64800","Longitude":"-86.21000","Snowdepth":"2.000","Units":"in","Rept_Date":"2020-03-13 22"},"coordinates":[2588,2334]},{"type":"Point","properties":{"Station_ID":"CVZW3","Station_Nam":"WISCONSIN PUBLIC SERVICE","Latitude":"45.23530","Longitude":"-88.01360","Snowdepth":"2.000","Units":"in","Rept_Date":"2020-03-13 11"},"coordinates":[2165,2970]},{"type":"Point","properties":{"Station_ID":"BKEM5","Station_Nam":"BRECKENRIDGE 4NE","Latitude":"46.30470","Longitude":"-96.52170","Snowdepth":"2.000","Units":"in","Rept_Date":"2020-03-13 12"},"coordinates":[168,4128]},{"type":"Point","properties":{"Station_ID":"BFSW3","Station_Nam":"BIG FALLS-5 NW","Latitude":"44.63980","Longitude":"-89.11330","Snowdepth":"2.000","Units":"in","Rept_Date":"2020-03-13 12"},"coordinates":[1907,2325]},{"type":"Point","properties":{"Station_ID":"BENN6","Station_Nam":"BENNETTS BRIDGE","Latitude":"43.53180","Longitude":"-75.95260","Snowdepth":"2.000","Units":"in","Rept_Date":"2020-03-13 11"},"coordinates":[4996,1125]},{"type":"Point","properties":{"Station_ID":"APN","Station_Nam":"PHELPS COLLINS FIELD","Latitude":"45.07810","Longitude":"-83.56030","Snowdepth":"2.000","Units":"in","Rept_Date":"2020-03-14 00"},"coordinates":[3210,2800]},{"type":"Point","properties":{"Station_ID":"ANTW3","Station_Nam":"ANTIGO,WI","Latitude":"45.13330","Longitude":"-89.15000","Snowdepth":"2.000","Units":"in","Rept_Date":"2020-03-13 13"},"coordinates":[1898,2859]},{"type":"Point","properties":{"Station_ID":"ALPM4","Station_Nam":"SNOW PAID OBSERVER FOR KAPN","Latitude":"45.03110","Longitude":"-83.55970","Snowdepth":"2.000","Units":"in","Rept_Date":"2020-03-13 18"},"coordinates":[3210,2749]},{"type":"Point","properties":{"Station_ID":"WI-WN-9","Station_Nam":"NEENAH 1.1 ENE, WI","Latitude":"44.17370","Longitude":"-88.45130","Snowdepth":"1.500","Units":"in","Rept_Date":"2020-03-13 13"},"coordinates":[2062,1820]},{"type":"Point","properties":{"Station_ID":"MN-SR-24","Station_Nam":"PAYNESVILLE 1.9 SSW, MN","Latitude":"45.35170","Longitude":"-94.73120","Snowdepth":"1.500","Units":"in","Rept_Date":"2020-03-13 13"},"coordinates":[588,3096]},{"type":"Point","properties":{"Station_ID":"ME-CM-125","Station_Nam":"CUMBERLAND CENTER 4.4 NW, ME","Latitude":"43.84640","Longitude":"-70.31340","Snowdepth":"1.500","Units":"in","Rept_Date":"2020-03-13 12"},"coordinates":[6319,1466]},{"type":"Point","properties":{"Station_ID":"CAN-NB-84","Station_Nam":"NORTON 7.1 WNW - KWRC, CAN","Latitude":"45.66195","Longitude":"-65.78279","Snowdepth":"1.200","Units":"in","Rept_Date":"2020-03-13 12"},"coordinates":[7382,3432]},{"type":"Point","properties":{"Station_ID":"WORV1","Station_Nam":"WORCESTER 2 W","Latitude":"44.37470","Longitude":"-72.58220","Snowdepth":"1.000","Units":"in","Rept_Date":"2020-03-13 11"},"coordinates":[5787,2038]},{"type":"Point","properties":{"Station_ID":"WMRM5","Station_Nam":"WILLMAR 5N","Latitude":"45.19010","Longitude":"-95.05860","Snowdepth":"1.000","Units":"in","Rept_Date":"2020-03-13 11"},"coordinates":[512,2921]},{"type":"Point","properties":{"Station_ID":"WIRW3","Station_Nam":"WIS RAPIDS GRAND AV B","Latitude":"44.39940","Longitude":"-89.83050","Snowdepth":"1.000","Units":"in","Rept_Date":"2020-03-13 12"},"coordinates":[1739,2065]},{"type":"Point","properties":{"Station_ID":"WIPW3","Station_Nam":"WISCONSIN RAPIDS-SOUTHEAST","Latitude":"44.38190","Longitude":"-89.80470","Snowdepth":"1.000","Units":"in","Rept_Date":"2020-03-13 11"},"coordinates":[1745,2046]},{"type":"Point","properties":{"Station_ID":"WI-WD-2","Station_Nam":"WISCONSIN RAPIDS 4.6 SSE, WI","Latitude":"44.33823","Longitude":"-89.78200","Snowdepth":"1.000","Units":"in","Rept_Date":"2020-03-13 14"},"coordinates":[1750,1998]},{"type":"Point","properties":{"Station_ID":"WHTM5","Station_Nam":"WHEATON,MN","Latitude":"45.80000","Longitude":"-96.48330","Snowdepth":"1.000","Units":"in","Rept_Date":"2020-03-13 13"},"coordinates":[177,3581]},{"type":"Point","properties":{"Station_ID":"WELM4","Station_Nam":"WELLSTON TIPPY DAM","Latitude":"44.25860","Longitude":"-85.93940","Snowdepth":"1.000","Units":"in","Rept_Date":"2020-03-13 12"},"coordinates":[2652,1912]},{"type":"Point","properties":{"Station_ID":"VT-GI-3","Station_Nam":"ALBURGH 4.6 SSE, VT","Latitude":"44.91280","Longitude":"-73.26890","Snowdepth":"1.000","Units":"in","Rept_Date":"2020-03-13 15"},"coordinates":[5626,2621]},{"type":"Point","properties":{"Station_ID":"TOPN6","Station_Nam":"TUPPER LAKE SUNMOUNT","Latitude":"44.23070","Longitude":"-74.43820","Snowdepth":"1.000","Units":"in","Rept_Date":"2020-03-13 11"},"coordinates":[5351,1882]},{"type":"Point","properties":{"Station_ID":"THLM5","Station_Nam":"THEILMAN 1SSW","Latitude":"44.28130","Longitude":"-92.19430","Snowdepth":"1.000","Units":"in","Rept_Date":"2020-03-13 12"},"coordinates":[1184,1937]},{"type":"Point","properties":{"Station_ID":"RWGM5","Station_Nam":"RED WING","Latitude":"44.57120","Longitude":"-92.52830","Snowdepth":"1.000","Units":"in","Rept_Date":"2020-03-13 13"},"coordinates":[1105,2251]},{"type":"Point","properties":{"Station_ID":"ROBM1","Station_Nam":"ROBBINSTON","Latitude":"45.08520","Longitude":"-67.12050","Snowdepth":"1.000","Units":"in","Rept_Date":"2020-03-14 04"},"coordinates":[7069,2807]},{"type":"Point","properties":{"Station_ID":"PSHW3","Station_Nam":"PESHTIGO","Latitude":"45.02810","Longitude":"-87.73560","Snowdepth":"1.000","Units":"in","Rept_Date":"2020-03-13 12"},"coordinates":[2230,2745]},{"type":"Point","properties":{"Station_ID":"PLOW3","Station_Nam":"PLOVER","Latitude":"44.44280","Longitude":"-89.54530","Snowdepth":"1.000","Units":"in","Rept_Date":"2020-03-13 12"},"coordinates":[1806,2112]},{"type":"Point","properties":{"Station_ID":"OONW3","Station_Nam":"OCONTO-1 NW-HWY. DEPT.","Latitude":"44.89470","Longitude":"-87.88030","Snowdepth":"1.000","Units":"in","Rept_Date":"2020-03-13 12"},"coordinates":[2196,2601]},{"type":"Point","properties":{"Station_ID":"OCON6","Station_Nam":"OSCEOLA","Latitude":"43.49910","Longitude":"-75.71210","Snowdepth":"1.000","Units":"in","Rept_Date":"2020-03-13 11"},"coordinates":[5052,1090]},{"type":"Point","properties":{"Station_ID":"NVLV1","Station_Nam":"NASHVILLE","Latitude":"44.44970","Longitude":"-72.92640","Snowdepth":"1.000","Units":"in","Rept_Date":"2020-03-13 11"},"coordinates":[5706,2119]},{"type":"Point","properties":{"Station_ID":"NUMM5","Station_Nam":"NEW ULM 3SE","Latitude":"44.29450","Longitude":"-94.40840","Snowdepth":"1.000","Units":"in","Rept_Date":"2020-03-13 11"},"coordinates":[664,1951]},{"type":"Point","properties":{"Station_ID":"NPTM4","Station_Nam":"NORTHPORT 2W","Latitude":"45.13220","Longitude":"-85.64720","Snowdepth":"1.000","Units":"in","Rept_Date":"2020-03-13 12"},"coordinates":[2720,2858]},{"type":"Point","properties":{"Station_ID":"NOHV1","Station_Nam":"NORTH HARTLAND LAKE","Latitude":"43.60270","Longitude":"-72.36210","Snowdepth":"1.000","Units":"in","Rept_Date":"2020-03-13 11"},"coordinates":[5838,1202]},{"type":"Point","properties":{"Station_ID":"MRRM5","Station_Nam":"MORRIS WC EXP STA","Latitude":"45.59010","Longitude":"-95.87450","Snowdepth":"1.000","Units":"in","Rept_Date":"2020-03-13 13"},"coordinates":[320,3354]},{"type":"Point","properties":{"Station_ID":"MNF74YNU","Station_Nam":"NEW ULM 3.3 ESE","Latitude":"44.29029","Longitude":"-94.40196","Snowdepth":"1.000","Units":"in","Rept_Date":"2020-03-13 10"},"coordinates":[666,1946]},{"type":"Point","properties":{"Station_ID":"MN-SR-29","Station_Nam":"ALBANY 3.8 S, MN","Latitude":"45.57441","Longitude":"-94.55543","Snowdepth":"1.000","Units":"in","Rept_Date":"2020-03-13 13"},"coordinates":[630,3337]},{"type":"Point","properties":{"Station_ID":"MN-SH-985","Station_Nam":"PRINCETON 3.3 WSW, MN","Latitude":"45.55211","Longitude":"-93.64481","Snowdepth":"1.000","Units":"in","Rept_Date":"2020-03-13 10"},"coordinates":[843,3313]},{"type":"Point","properties":{"Station_ID":"MIAM5","Station_Nam":"MILAN 1NW","Latitude":"45.12190","Longitude":"-95.92690","Snowdepth":"1.000","Units":"in","Rept_Date":"2020-03-13 23"},"coordinates":[308,2847]},{"type":"Point","properties":{"Station_ID":"MEDW3","Station_Nam":"MEDFORD","Latitude":"45.13080","Longitude":"-90.34390","Snowdepth":"1.000","Units":"in","Rept_Date":"2020-03-13 13"},"coordinates":[1618,2857]},{"type":"Point","properties":{"Station_ID":"ME-YK-3","Station_Nam":"HOLLIS CENTER 5.4 NW, ME","Latitude":"43.64750","Longitude":"-70.67510","Snowdepth":"1.000","Units":"in","Rept_Date":"2020-03-13 11"},"coordinates":[6234,1250]},{"type":"Point","properties":{"Station_ID":"MAPM4","Station_Nam":"MAPLE CITY 1E","Latitude":"44.85500","Longitude":"-85.83520","Snowdepth":"1.000","Units":"in","Rept_Date":"2020-03-13 23"},"coordinates":[2676,2558]},{"type":"Point","properties":{"Station_ID":"MA-HS-7","Station_Nam":"PLAINFIELD 2.2 SW, MA","Latitude":"42.49272","Longitude":"-72.94540","Snowdepth":"1.000","Units":"in","Rept_Date":"2020-03-13 13"},"coordinates":[5701,0]},{"type":"Point","properties":{"Station_ID":"LADW3","Station_Nam":"LADYSMITH WTP","Latitude":"45.44290","Longitude":"-91.08970","Snowdepth":"1.000","Units":"in","Rept_Date":"2020-03-13 12"},"coordinates":[1443,3195]},{"type":"Point","properties":{"Station_ID":"HYTS2","Station_Nam":"HAYTI 1W","Latitude":"44.66330","Longitude":"-97.22670","Snowdepth":"1.000","Units":"in","Rept_Date":"2020-03-13 13"},"coordinates":[3,2350]},{"type":"Point","properties":{"Station_ID":"HRSM4","Station_Nam":"HARRISVILLE 2NNE","Latitude":"44.68190","Longitude":"-83.28080","Snowdepth":"1.000","Units":"in","Rept_Date":"2020-03-13 12"},"coordinates":[3276,2371]},{"type":"Point","properties":{"Station_ID":"HOLM1","Station_Nam":"HOLLIS","Latitude":"43.64750","Longitude":"-70.67490","Snowdepth":"1.000","Units":"in","Rept_Date":"2020-03-13 10"},"coordinates":[6234,1250]},{"type":"Point","properties":{"Station_ID":"FORM5","Station_Nam":"FOREST LAKE 5NE","Latitude":"45.33170","Longitude":"-92.89820","Snowdepth":"1.000","Units":"in","Rept_Date":"2020-03-13 12"},"coordinates":[1019,3074]},{"type":"Point","properties":{"Station_ID":"EJDM4","Station_Nam":"EAST JORDAN","Latitude":"45.15190","Longitude":"-85.13220","Snowdepth":"1.000","Units":"in","Rept_Date":"2020-03-13 12"},"coordinates":[2841,2879]}]}},"arcs":[],"transform":{"scale":[0.004260890089008902,0.0009235103510351038],"translate":[-97.2386,42.49272]}}