{"type":"Topology","objects":{"snowdepth_geo":{"type":"GeometryCollection","name":"snowdepth","crs":{"type":"name","properties":{"name":"urn:ogc:def:crs:OGC:1.3:CRS84"}},"geometries":[{"type":"Point","properties":{"Station_ID":"PRKM4","Station_Nam":"MUNISING EAST","Latitude":"46.42580","Longitude":"-86.62000","Snowdepth":"76.500","Units":"in","Rept_Date":"2019-11-04 06"},"coordinates":[3066,6701]},{"type":"Point","properties":{"Station_ID":"MMSV1","Station_Nam":"MOUNT MANSFIELD","Latitude":"44.53330","Longitude":"-72.83330","Snowdepth":"76.000","Units":"in","Rept_Date":"2019-11-04 05"},"coordinates":[9305,5524]},{"type":"Point","properties":{"Station_ID":"OGIQ6","Station_Nam":"OGOKI CAMP","Latitude":"50.76680","Longitude":"-87.85820","Snowdepth":"61.100","Units":"in","Rept_Date":"2019-11-04 06"},"coordinates":[2506,9402]},{"type":"Point","properties":{"Station_ID":"AUDQ6","Station_Nam":"AUDEN","Latitude":"48.52600","Longitude":"-82.57570","Snowdepth":"47.640","Units":"in","Rept_Date":"2019-11-04 06"},"coordinates":[4897,8008]},{"type":"Point","properties":{"Station_ID":"DVLQ6","Station_Nam":"DEVIOUS LAKE","Latitude":"49.19890","Longitude":"-87.76440","Snowdepth":"43.460","Units":"in","Rept_Date":"2019-11-04 06"},"coordinates":[2549,8426]},{"type":"Point","properties":{"Station_ID":"PRDM4","Station_Nam":"PARADISE","Latitude":"46.60380","Longitude":"-85.03960","Snowdepth":"9.000","Units":"in","Rept_Date":"2019-11-03 11"},"coordinates":[3782,6812]},{"type":"Point","properties":{"Station_ID":"IL-SC-23","Station_Nam":"BELLEVILLE 2.7 SSE, IL","Latitude":"38.49485","Longitude":"-89.98110","Snowdepth":"9.000","Units":"in","Rept_Date":"2019-11-03 13"},"coordinates":[1545,1767]},{"type":"Point","properties":{"Station_ID":"MI-OT-4","Station_Nam":"GAYLORD 1.7 WNW, MI","Latitude":"45.03280","Longitude":"-84.71090","Snowdepth":"6.000","Units":"in","Rept_Date":"2019-11-03 13"},"coordinates":[3930,5834]},{"type":"Point","properties":{"Station_ID":"MI-OT-16","Station_Nam":"GAYLORD 2.2 SSE, MI","Latitude":"44.99441","Longitude":"-84.65820","Snowdepth":"6.000","Units":"in","Rept_Date":"2019-11-03 13"},"coordinates":[3954,5810]},{"type":"Point","properties":{"Station_ID":"GAYM4","Station_Nam":"GAYLORD","Latitude":"45.03320","Longitude":"-84.71130","Snowdepth":"6.000","Units":"in","Rept_Date":"2019-11-03 13"},"coordinates":[3930,5835]},{"type":"Point","properties":{"Station_ID":"MI-AT-6","Station_Nam":"MANCELONA 0.5 ESE, MI","Latitude":"44.89981","Longitude":"-85.05100","Snowdepth":"5.300","Units":"in","Rept_Date":"2019-11-03 13"},"coordinates":[3776,5752]},{"type":"Point","properties":{"Station_ID":"MI-OT-17","Station_Nam":"GAYLORD 4.1 S, MI","Latitude":"44.96388","Longitude":"-84.68467","Snowdepth":"5.000","Units":"in","Rept_Date":"2019-11-03 12"},"coordinates":[3942,5791]},{"type":"Point","properties":{"Station_ID":"LEWM4","Station_Nam":"LEWISTON 3W","Latitude":"44.88210","Longitude":"-84.36540","Snowdepth":"5.000","Units":"in","Rept_Date":"2019-11-03 12"},"coordinates":[4087,5741]},{"type":"Point","properties":{"Station_ID":"HERM4","Station_Nam":"HERMAN,MI","Latitude":"46.65000","Longitude":"-88.33330","Snowdepth":"5.000","Units":"in","Rept_Date":"2019-11-03 13"},"coordinates":[2291,6840]},{"type":"Point","properties":{"Station_ID":"SVBQ6","Station_Nam":"SAVANT BASE","Latitude":"50.28730","Longitude":"-90.65670","Snowdepth":"4.800","Units":"in","Rept_Date":"2019-11-04 06"},"coordinates":[1240,9103]},{"type":"Point","properties":{"Station_ID":"SOCQ6","Station_Nam":"SOCKET LAKE","Latitude":"50.77870","Longitude":"-91.79300","Snowdepth":"4.170","Units":"in","Rept_Date":"2019-11-04 06"},"coordinates":[726,9409]},{"type":"Point","properties":{"Station_ID":"MI-HG-18","Station_Nam":"CALUMET 0.7 W (TAMARACK), MI","Latitude":"47.24560","Longitude":"-88.46791","Snowdepth":"4.000","Units":"in","Rept_Date":"2019-11-03 13"},"coordinates":[2230,7211]},{"type":"Point","properties":{"Station_ID":"APXM4","Station_Nam":"GAYLORD 9SSW","Latitude":"44.90720","Longitude":"-84.71880","Snowdepth":"4.000","Units":"in","Rept_Date":"2019-11-04 06"},"coordinates":[3927,5756]},{"type":"Point","properties":{"Station_ID":"QNCM4","Station_Nam":"QUINCY HILL","Latitude":"47.13640","Longitude":"-88.57950","Snowdepth":"3.000","Units":"in","Rept_Date":"2019-11-03 12"},"coordinates":[2180,7143]},{"type":"Point","properties":{"Station_ID":"NY-ER-77","Station_Nam":"COLDEN 2.4 ENE, NY","Latitude":"42.65088","Longitude":"-78.61060","Snowdepth":"3.000","Units":"in","Rept_Date":"2019-11-03 13"},"coordinates":[6691,4352]},{"type":"Point","properties":{"Station_ID":"NY-ER-65","Station_Nam":"BOSTON 1.5 NE, NY","Latitude":"42.65470","Longitude":"-78.72010","Snowdepth":"3.000","Units":"in","Rept_Date":"2019-11-03 12"},"coordinates":[6641,4355]},{"type":"Point","properties":{"Station_ID":"NY-ER-166","Station_Nam":"BOSTON 2.5 NE, NY","Latitude":"42.65480","Longitude":"-78.70300","Snowdepth":"3.000","Units":"in","Rept_Date":"2019-11-03 12"},"coordinates":[6649,4355]},{"type":"Point","properties":{"Station_ID":"MI-HG-14","Station_Nam":"HOUGHTON 0.6 SE, MI","Latitude":"47.10847","Longitude":"-88.55235","Snowdepth":"3.000","Units":"in","Rept_Date":"2019-11-03 13"},"coordinates":[2192,7126]},{"type":"Point","properties":{"Station_ID":"MI-HG-11","Station_Nam":"HOUGHTON 3.0 SSW, MI","Latitude":"47.07704","Longitude":"-88.59680","Snowdepth":"3.000","Units":"in","Rept_Date":"2019-11-03 13"},"coordinates":[2172,7106]},{"type":"Point","properties":{"Station_ID":"MI-HG-1","Station_Nam":"HOUGHTON 1.6 ESE, MI","Latitude":"47.10774","Longitude":"-88.52940","Snowdepth":"3.000","Units":"in","Rept_Date":"2019-11-03 13"},"coordinates":[2202,7125]},{"type":"Point","properties":{"Station_ID":"MI-CF-9","Station_Nam":"GRAYLING 15.8 NE, MI","Latitude":"44.80464","Longitude":"-84.46313","Snowdepth":"3.000","Units":"in","Rept_Date":"2019-11-03 11"},"coordinates":[4042,5692]},{"type":"Point","properties":{"Station_ID":"KSGM4","Station_Nam":"KEARSARGE","Latitude":"47.27520","Longitude":"-88.41700","Snowdepth":"3.000","Units":"in","Rept_Date":"2019-11-03 13"},"coordinates":[2253,7229]},{"type":"Point","properties":{"Station_ID":"CAN-ON-118","Station_Nam":"DURHAM 1.4 S, CAN","Latitude":"44.16525","Longitude":"-80.82064","Snowdepth":"3.000","Units":"in","Rept_Date":"2019-11-03 12"},"coordinates":[5691,5295]},{"type":"Point","properties":{"Station_ID":"ATAN6","Station_Nam":"ATTICA 7 SW","Latitude":"42.81070","Longitude":"-78.39790","Snowdepth":"3.000","Units":"in","Rept_Date":"2019-11-03 11"},"coordinates":[6787,4452]},{"type":"Point","properties":{"Station_ID":"CATQ6","Station_Nam":"CAT LAKE","Latitude":"51.72690","Longitude":"-91.82210","Snowdepth":"2.910","Units":"in","Rept_Date":"2019-11-04 06"},"coordinates":[712,9999]},{"type":"Point","properties":{"Station_ID":"FTHQ6","Station_Nam":"FORT HOPE","Latitude":"51.55820","Longitude":"-87.90510","Snowdepth":"2.440","Units":"in","Rept_Date":"2019-11-04 06"},"coordinates":[2485,9894]},{"type":"Point","properties":{"Station_ID":"WTNM4","Station_Nam":"WATTON 2WSW","Latitude":"46.52660","Longitude":"-88.64240","Snowdepth":"2.000","Units":"in","Rept_Date":"2019-11-03 13"},"coordinates":[2151,6764]},{"type":"Point","properties":{"Station_ID":"PDLM4","Station_Nam":"PAINESDALE","Latitude":"47.04160","Longitude":"-88.67170","Snowdepth":"2.000","Units":"in","Rept_Date":"2019-11-03 13"},"coordinates":[2138,7084]},{"type":"Point","properties":{"Station_ID":"MI-HG-17","Station_Nam":"CALUMET 0.5 NE (CALUMET LAKE), MI","Latitude":"47.25300","Longitude":"-88.44652","Snowdepth":"2.000","Units":"in","Rept_Date":"2019-11-03 13"},"coordinates":[2240,7216]},{"type":"Point","properties":{"Station_ID":"MI-HG-12","Station_Nam":"DOLLAR BAY 0.2 ENE, MI","Latitude":"47.12067","Longitude":"-88.49895","Snowdepth":"2.000","Units":"in","Rept_Date":"2019-11-03 13"},"coordinates":[2216,7133]},{"type":"Point","properties":{"Station_ID":"MI-BG-3","Station_Nam":"L'ANSE 17.8 SE, MI","Latitude":"46.55730","Longitude":"-88.20770","Snowdepth":"2.000","Units":"in","Rept_Date":"2019-11-03 13"},"coordinates":[2348,6783]},{"type":"Point","properties":{"Station_ID":"COVM4","Station_Nam":"COVINGTON","Latitude":"46.55880","Longitude":"-88.54190","Snowdepth":"2.000","Units":"in","Rept_Date":"2019-11-03 13"},"coordinates":[2197,6784]},{"type":"Point","properties":{"Station_ID":"CODN6","Station_Nam":"COLDEN 1W","Latitude":"42.64720","Longitude":"-78.71110","Snowdepth":"2.000","Units":"in","Rept_Date":"2019-11-03 12"},"coordinates":[6645,4350]},{"type":"Point","properties":{"Station_ID":"ATLM4","Station_Nam":"ATLANTA","Latitude":"45.00470","Longitude":"-84.14040","Snowdepth":"2.000","Units":"in","Rept_Date":"2019-11-03 12"},"coordinates":[4189,5817]},{"type":"Point","properties":{"Station_ID":"TRIQ6","Station_Nam":"TRIO LAKE","Latitude":"49.22880","Longitude":"-87.22920","Snowdepth":"1.730","Units":"in","Rept_Date":"2019-11-04 06"},"coordinates":[2791,8445]},{"type":"Point","properties":{"Station_ID":"WI-WK-65","Station_Nam":"EAGLE 3.4 SW, WI","Latitude":"42.85067","Longitude":"-88.52596","Snowdepth":"1.500","Units":"in","Rept_Date":"2019-11-03 13"},"coordinates":[2204,4477]},{"type":"Point","properties":{"Station_ID":"NY-ER-158","Station_Nam":"EAST AURORA 2.7 SSE, NY","Latitude":"42.72936","Longitude":"-78.60561","Snowdepth":"1.400","Units":"in","Rept_Date":"2019-11-03 12"},"coordinates":[6693,4401]},{"type":"Point","properties":{"Station_ID":"MBGM7","Station_Nam":"MISSOURI BOTANICAL GARDENS","Latitude":"38.61280","Longitude":"-90.26080","Snowdepth":"1.300","Units":"in","Rept_Date":"2019-11-04 05"},"coordinates":[1419,1840]},{"type":"Point","properties":{"Station_ID":"WYON6","Station_Nam":"WYOMING 3W","Latitude":"42.81750","Longitude":"-78.14810","Snowdepth":"1.000","Units":"in","Rept_Date":"2019-11-03 12"},"coordinates":[6900,4456]},{"type":"Point","properties":{"Station_ID":"WRSN6","Station_Nam":"WARSAW 6SW","Latitude":"42.68550","Longitude":"-78.22020","Snowdepth":"1.000","Units":"in","Rept_Date":"2019-11-03 12"},"coordinates":[6867,4374]},{"type":"Point","properties":{"Station_ID":"WLSN6","Station_Nam":"WALES","Latitude":"42.73920","Longitude":"-78.58780","Snowdepth":"1.000","Units":"in","Rept_Date":"2019-11-03 12"},"coordinates":[6701,4407]},{"type":"Point","properties":{"Station_ID":"WI-WS-1","Station_Nam":"HARTFORD 3.8 E, WI","Latitude":"43.32410","Longitude":"-88.31340","Snowdepth":"1.000","Units":"in","Rept_Date":"2019-11-03 13"},"coordinates":[2300,4771]},{"type":"Point","properties":{"Station_ID":"SSMM4","Station_Nam":"SAULT STE MARIE","Latitude":"46.48660","Longitude":"-84.40250","Snowdepth":"1.000","Units":"in","Rept_Date":"2019-11-03 13"},"coordinates":[4070,6739]},{"type":"Point","properties":{"Station_ID":"NY-WY-10","Station_Nam":"WYOMING COOP, NY","Latitude":"42.82060","Longitude":"-78.14810","Snowdepth":"1.000","Units":"in","Rept_Date":"2019-11-03 12"},"coordinates":[6900,4458]},{"type":"Point","properties":{"Station_ID":"NY-ER-50","Station_Nam":"EAST AURORA 0.1 ENE, NY","Latitude":"42.76750","Longitude":"-78.61580","Snowdepth":"1.000","Units":"in","Rept_Date":"2019-11-03 12"},"coordinates":[6688,4425]},{"type":"Point","properties":{"Station_ID":"NALN6","Station_Nam":"CATTARAUGUS","Latitude":"42.32450","Longitude":"-78.86700","Snowdepth":"1.000","Units":"in","Rept_Date":"2019-11-03 13"},"coordinates":[6575,4149]},{"type":"Point","properties":{"Station_ID":"MWN","Station_Nam":"MOUNT WASHINGTON","Latitude":"44.26670","Longitude":"-71.30000","Snowdepth":"1.000","Units":"in","Rept_Date":"2019-11-04 05"},"coordinates":[9999,5358]},{"type":"Point","properties":{"Station_ID":"MTLT1","Station_Nam":"GATLINBURG,TN","Latitude":"35.65500","Longitude":"-83.44110","Snowdepth":"1.000","Units":"in","Rept_Date":"2019-11-03 13"},"coordinates":[4505,0]},{"type":"Point","properties":{"Station_ID":"MQT","Station_Nam":"MARQUETTE, MI","Latitude":"46.53140","Longitude":"-87.54920","Snowdepth":"1.000","Units":"in","Rept_Date":"2019-11-04 06"},"coordinates":[2646,6767]},{"type":"Point","properties":{"Station_ID":"MIEM4","Station_Nam":"MICHIGAMME 3WNW","Latitude":"46.54530","Longitude":"-88.18000","Snowdepth":"1.000","Units":"in","Rept_Date":"2019-11-03 13"},"coordinates":[2361,6775]},{"type":"Point","properties":{"Station_ID":"MI-HG-13","Station_Nam":"HOUGHTON 1.2 WNW, MI","Latitude":"47.12035","Longitude":"-88.58525","Snowdepth":"1.000","Units":"in","Rept_Date":"2019-11-03 13"},"coordinates":[2177,7133]},{"type":"Point","properties":{"Station_ID":"KMWN","Station_Nam":"MOUNT WASHINGTON","Latitude":"44.26666","Longitude":"-71.30000","Snowdepth":"1.000","Units":"in","Rept_Date":"2019-11-04 06"},"coordinates":[9999,5358]},{"type":"Point","properties":{"Station_ID":"JCBM4","Station_Nam":"JACOBSVILLE","Latitude":"47.00830","Longitude":"-88.43180","Snowdepth":"1.000","Units":"in","Rept_Date":"2019-11-03 12"},"coordinates":[2247,7063]},{"type":"Point","properties":{"Station_ID":"IFSM5","Station_Nam":"INTERNATIONAL FALLS SNOW","Latitude":"48.57780","Longitude":"-93.39640","Snowdepth":"1.000","Units":"in","Rept_Date":"2019-11-04 06"},"coordinates":[0,8040]},{"type":"Point","properties":{"Station_ID":"IBLM5","Station_Nam":"ISABELLA 14W","Latitude":"47.59360","Longitude":"-91.65140","Snowdepth":"1.000","Units":"in","Rept_Date":"2019-11-03 15"},"coordinates":[790,7428]},{"type":"Point","properties":{"Station_ID":"HUBN3","Station_Nam":"HUBBARD BROOK","Latitude":"43.93330","Longitude":"-71.71670","Snowdepth":"1.000","Units":"in","Rept_Date":"2019-11-04 06"},"coordinates":[9810,5150]},{"type":"Point","properties":{"Station_ID":"FLAM4","Station_Nam":"FIFE LAKE 2WNW","Latitude":"44.58480","Longitude":"-85.36530","Snowdepth":"1.000","Units":"in","Rept_Date":"2019-11-03 12"},"coordinates":[3634,5556]},{"type":"Point","properties":{"Station_ID":"EJNM4","Station_Nam":"EAST JORDAN 2NW","Latitude":"45.18630","Longitude":"-85.14770","Snowdepth":"1.000","Units":"in","Rept_Date":"2019-11-03 13"},"coordinates":[3733,5930]},{"type":"Point","properties":{"Station_ID":"CLKM4","Station_Nam":"CLARKSBURG","Latitude":"46.49910","Longitude":"-87.84500","Snowdepth":"1.000","Units":"in","Rept_Date":"2019-11-03 12"},"coordinates":[2512,6747]},{"type":"Point","properties":{"Station_ID":"CAN-ON-5","Station_Nam":"OWEN SOUND 1.5 NW - GSCA, CAN","Latitude":"44.57837","Longitude":"-80.95461","Snowdepth":"1.000","Units":"in","Rept_Date":"2019-11-03 13"},"coordinates":[5630,5552]},{"type":"Point","properties":{"Station_ID":"BGBM4","Station_Nam":"BIG BAY 1NW","Latitude":"46.83250","Longitude":"-87.75040","Snowdepth":"1.000","Units":"in","Rept_Date":"2019-11-03 13"},"coordinates":[2555,6954]},{"type":"Point","properties":{"Station_ID":"ALLW3","Station_Nam":"ALLENTON","Latitude":"43.42360","Longitude":"-88.35110","Snowdepth":"1.000","Units":"in","Rept_Date":"2019-11-03 13"},"coordinates":[2283,4833]},{"type":"Point","properties":{"Station_ID":"41.8966_080.1567","Station_Nam":"2 NW EDINBORO  SNOW SPOTTER (CLE0251)","Latitude":"41.89660","Longitude":"-80.15670","Snowdepth":"1.000","Units":"in","Rept_Date":"2019-11-03 11"},"coordinates":[5991,3883]}]}},"arcs":[],"transform":{"scale":[0.00220986098609861,0.0016073507350735073],"translate":[-93.3964,35.655]}}