{"type":"Topology","objects":{"snowdepth_geo":{"type":"GeometryCollection","name":"snowdepth","crs":{"type":"name","properties":{"name":"urn:ogc:def:crs:OGC:1.3:CRS84"}},"geometries":[{"type":"Point","properties":{"Station_ID":"PRKM4","Station_Nam":"MUNISING EAST","Latitude":"46.42580","Longitude":"-86.62000","Snowdepth":"76.500","Units":"in","Rept_Date":"2020-03-25 06"},"coordinates":[2492,4886]},{"type":"Point","properties":{"Station_ID":"HTLN3","Station_Nam":"HERMIT LAKE SNOWPLOT","Latitude":"44.26130","Longitude":"-71.28330","Snowdepth":"67.000","Units":"in","Rept_Date":"2020-03-24 09"},"coordinates":[6092,2798]},{"type":"Point","properties":{"Station_ID":"OGIQ6","Station_Nam":"OGOKI CAMP","Latitude":"50.76680","Longitude":"-87.85820","Snowdepth":"61.100","Units":"in","Rept_Date":"2020-03-25 06"},"coordinates":[2202,9073]},{"type":"Point","properties":{"Station_ID":"PDLM4","Station_Nam":"PAINESDALE","Latitude":"47.04160","Longitude":"-88.67170","Snowdepth":"47.000","Units":"in","Rept_Date":"2020-03-24 12"},"coordinates":[2011,5480]},{"type":"Point","properties":{"Station_ID":"DVLQ6","Station_Nam":"DEVIOUS LAKE","Latitude":"49.19890","Longitude":"-87.76440","Snowdepth":"43.460","Units":"in","Rept_Date":"2020-03-25 06"},"coordinates":[2224,7561]},{"type":"Point","properties":{"Station_ID":"MNSM4","Station_Nam":"MUNISING","Latitude":"46.41210","Longitude":"-86.66250","Snowdepth":"36.000","Units":"in","Rept_Date":"2020-03-24 10"},"coordinates":[2482,4873]},{"type":"Point","properties":{"Station_ID":"KSGM4","Station_Nam":"KEARSARGE","Latitude":"47.27520","Longitude":"-88.41700","Snowdepth":"35.000","Units":"in","Rept_Date":"2020-03-24 12"},"coordinates":[2070,5705]},{"type":"Point","properties":{"Station_ID":"CAN-NS-39","Station_Nam":"ST. ANNS 2.8 NW, CA","Latitude":"46.25082","Longitude":"-60.64340","Snowdepth":"35.000","Units":"in","Rept_Date":"2020-03-24 13"},"coordinates":[8589,4717]},{"type":"Point","properties":{"Station_ID":"WLFM5","Station_Nam":"WOLF RIDGE ENVIRON LEARNING CENTER","Latitude":"47.38240","Longitude":"-91.19730","Snowdepth":"34.000","Units":"in","Rept_Date":"2020-03-24 12"},"coordinates":[1418,5809]},{"type":"Point","properties":{"Station_ID":"ME-AR-18","Station_Nam":"NEW SWEDEN 4.9 NNW, ME","Latitude":"47.01080","Longitude":"-68.14390","Snowdepth":"34.000","Units":"in","Rept_Date":"2020-03-24 12"},"coordinates":[6828,5450]},{"type":"Point","properties":{"Station_ID":"MI-BG-3","Station_Nam":"L'ANSE 17.8 SE, MI","Latitude":"46.55730","Longitude":"-88.20770","Snowdepth":"33.000","Units":"in","Rept_Date":"2020-03-24 13"},"coordinates":[2119,5013]},{"type":"Point","properties":{"Station_ID":"PTLQ6","Station_Nam":"PORTAGE LAKE","Latitude":"49.06950","Longitude":"-86.65940","Snowdepth":"31.610","Units":"in","Rept_Date":"2020-03-25 06"},"coordinates":[2483,7436]},{"type":"Point","properties":{"Station_ID":"CAN-NB-105","Station_Nam":"SISSON BROOK 3.8 E, CAN","Latitude":"46.98305","Longitude":"-67.32532","Snowdepth":"31.100","Units":"in","Rept_Date":"2020-03-24 12"},"coordinates":[7020,5424]},{"type":"Point","properties":{"Station_ID":"MQT","Station_Nam":"MARQUETTE, MI","Latitude":"46.53140","Longitude":"-87.54920","Snowdepth":"31.000","Units":"in","Rept_Date":"2020-03-25 06"},"coordinates":[2274,4988]},{"type":"Point","properties":{"Station_ID":"CAN-QC-47","Station_Nam":"SAINTE-FOY 1.8 ENE, CAN","Latitude":"46.76934","Longitude":"-71.27124","Snowdepth":"30.700","Units":"in","Rept_Date":"2020-03-24 12"},"coordinates":[6094,5217]},{"type":"Point","properties":{"Station_ID":"HERM4","Station_Nam":"HERMAN,MI","Latitude":"46.65000","Longitude":"-88.33330","Snowdepth":"30.000","Units":"in","Rept_Date":"2020-03-24 13"},"coordinates":[2090,5102]},{"type":"Point","properties":{"Station_ID":"GLRM5","Station_Nam":"GLACIAL RIDGE","Latitude":"47.71670","Longitude":"-96.26670","Snowdepth":"30.000","Units":"in","Rept_Date":"2020-03-24 22"},"coordinates":[228,6131]},{"type":"Point","properties":{"Station_ID":"TWOM5","Station_Nam":"TWO HARBORS,MN","Latitude":"47.12580","Longitude":"-91.70750","Snowdepth":"29.000","Units":"in","Rept_Date":"2020-03-25 00"},"coordinates":[1298,5561]},{"type":"Point","properties":{"Station_ID":"STEM4","Station_Nam":"STEUBEN","Latitude":"46.18530","Longitude":"-86.46410","Snowdepth":"29.000","Units":"in","Rept_Date":"2020-03-24 13"},"coordinates":[2529,4654]},{"type":"Point","properties":{"Station_ID":"IBLM5","Station_Nam":"ISABELLA 14W","Latitude":"47.59360","Longitude":"-91.65140","Snowdepth":"29.000","Units":"in","Rept_Date":"2020-03-24 14"},"coordinates":[1311,6012]},{"type":"Point","properties":{"Station_ID":"CAN-NB-13","Station_Nam":"BATHURST 3.8 NW, CAN","Latitude":"47.64212","Longitude":"-65.68756","Snowdepth":"28.500","Units":"in","Rept_Date":"2020-03-24 09"},"coordinates":[7405,6059]},{"type":"Point","properties":{"Station_ID":"TRIQ6","Station_Nam":"TRIO LAKE","Latitude":"49.22880","Longitude":"-87.22920","Snowdepth":"28.390","Units":"in","Rept_Date":"2020-03-25 06"},"coordinates":[2349,7590]},{"type":"Point","properties":{"Station_ID":"CAN-NL-82","Station_Nam":"GANDER 2.7 NW, CAN","Latitude":"48.97737","Longitude":"-54.63396","Snowdepth":"28.300","Units":"in","Rept_Date":"2020-03-24 10"},"coordinates":[9999,7347]},{"type":"Point","properties":{"Station_ID":"CARM1","Station_Nam":"CARIBOU WFO","Latitude":"46.86810","Longitude":"-68.01250","Snowdepth":"28.000","Units":"in","Rept_Date":"2020-03-24 12"},"coordinates":[6859,5313]},{"type":"Point","properties":{"Station_ID":"CAR","Station_Nam":"CARIBOU, ME","Latitude":"46.86830","Longitude":"-68.01360","Snowdepth":"28.000","Units":"in","Rept_Date":"2020-03-24 12"},"coordinates":[6859,5313]},{"type":"Point","properties":{"Station_ID":"AUDQ6","Station_Nam":"AUDEN","Latitude":"48.52600","Longitude":"-82.57570","Snowdepth":"27.760","Units":"in","Rept_Date":"2020-03-25 06"},"coordinates":[3441,6912]},{"type":"Point","properties":{"Station_ID":"VANM1","Station_Nam":"VAN BUREN","Latitude":"47.16600","Longitude":"-67.93900","Snowdepth":"27.000","Units":"in","Rept_Date":"2020-03-24 11"},"coordinates":[6876,5600]},{"type":"Point","properties":{"Station_ID":"KISM4","Station_Nam":"K.I. SAWYER WWTP","Latitude":"46.33410","Longitude":"-87.37790","Snowdepth":"27.000","Units":"in","Rept_Date":"2020-03-24 12"},"coordinates":[2314,4798]},{"type":"Point","properties":{"Station_ID":"KNCM1","Station_Nam":"KNOWLES CORNER - MCOOP","Latitude":"46.20780","Longitude":"-68.31420","Snowdepth":"26.900","Units":"in","Rept_Date":"2020-03-24 17"},"coordinates":[6788,4676]},{"type":"Point","properties":{"Station_ID":"SVBQ6","Station_Nam":"SAVANT BASE","Latitude":"50.28730","Longitude":"-90.65670","Snowdepth":"26.540","Units":"in","Rept_Date":"2020-03-25 06"},"coordinates":[1545,8611]},{"type":"Point","properties":{"Station_ID":"CAN-NB-11","Station_Nam":"MIRAMICHI 3.3 S, CAN","Latitude":"46.99343","Longitude":"-65.50690","Snowdepth":"26.500","Units":"in","Rept_Date":"2020-03-24 12"},"coordinates":[7447,5434]},{"type":"Point","properties":{"Station_ID":"MI-HG-6","Station_Nam":"CALUMET 5.8 ENE, MI","Latitude":"47.27200","Longitude":"-88.33400","Snowdepth":"25.000","Units":"in","Rept_Date":"2020-03-24 11"},"coordinates":[2090,5702]},{"type":"Point","properties":{"Station_ID":"FISM1","Station_Nam":"FORT KENT COOP","Latitude":"47.23850","Longitude":"-68.61240","Snowdepth":"25.000","Units":"in","Rept_Date":"2020-03-24 11"},"coordinates":[6718,5670]},{"type":"Point","properties":{"Station_ID":"VT-CL-3","Station_Nam":"GROTON 4.4 WSW, VT","Latitude":"44.19440","Longitude":"-72.28240","Snowdepth":"24.900","Units":"in","Rept_Date":"2020-03-24 18"},"coordinates":[5857,2734]},{"type":"Point","properties":{"Station_ID":"MN-CK-18","Station_Nam":"GRAND MARAIS 4.4 WSW, MN","Latitude":"47.74462","Longitude":"-90.43796","Snowdepth":"24.000","Units":"in","Rept_Date":"2020-03-24 13"},"coordinates":[1596,6158]},{"type":"Point","properties":{"Station_ID":"MTCM1","Station_Nam":"MONTICELLO SNOW COURSE","Latitude":"46.33280","Longitude":"-67.84190","Snowdepth":"23.800","Units":"in","Rept_Date":"2020-03-24 19"},"coordinates":[6899,4796]},{"type":"Point","properties":{"Station_ID":"CAN-NB-96","Station_Nam":"SAINT-IGNACE 2.6 NE, CAN","Latitude":"46.71424","Longitude":"-65.05609","Snowdepth":"23.100","Units":"in","Rept_Date":"2020-03-24 11"},"coordinates":[7553,5164]},{"type":"Point","properties":{"Station_ID":"VT-OL-12","Station_Nam":"GREENSBORO 3.9 NNE, VT","Latitude":"44.63100","Longitude":"-72.28000","Snowdepth":"23.000","Units":"in","Rept_Date":"2020-03-24 11"},"coordinates":[5858,3155]},{"type":"Point","properties":{"Station_ID":"RGNM1","Station_Nam":"RANGELEY 2NW","Latitude":"44.98940","Longitude":"-70.67220","Snowdepth":"23.000","Units":"in","Rept_Date":"2020-03-24 10"},"coordinates":[6235,3501]},{"type":"Point","properties":{"Station_ID":"MI-HG-1","Station_Nam":"HOUGHTON 1.6 ESE, MI","Latitude":"47.10774","Longitude":"-88.52940","Snowdepth":"23.000","Units":"in","Rept_Date":"2020-03-24 13"},"coordinates":[2044,5544]},{"type":"Point","properties":{"Station_ID":"DFXM1","Station_Nam":"DOVER-FOXCROFT","Latitude":"45.18720","Longitude":"-69.18350","Snowdepth":"23.000","Units":"in","Rept_Date":"2020-03-24 11"},"coordinates":[6584,3691]},{"type":"Point","properties":{"Station_ID":"WRPW3","Station_Nam":"WATER PURIFICATION PLANT","Latitude":"44.38800","Longitude":"-89.80550","Snowdepth":"22.000","Units":"in","Rept_Date":"2020-03-24 11"},"coordinates":[1744,2921]},{"type":"Point","properties":{"Station_ID":"GHMN3","Station_Nam":"PINKHAM NOTCH","Latitude":"44.25800","Longitude":"-71.25250","Snowdepth":"22.000","Units":"in","Rept_Date":"2020-03-24 10"},"coordinates":[6099,2795]},{"type":"Point","properties":{"Station_ID":"KABQ6","Station_Nam":"CAB LAKE","Latitude":"49.59950","Longitude":"-89.17990","Snowdepth":"21.810","Units":"in","Rept_Date":"2020-03-25 06"},"coordinates":[1891,7947]},{"type":"Point","properties":{"Station_ID":"SOCQ6","Station_Nam":"SOCKET LAKE","Latitude":"50.77870","Longitude":"-91.79300","Snowdepth":"21.460","Units":"in","Rept_Date":"2020-03-25 06"},"coordinates":[1278,9084]},{"type":"Point","properties":{"Station_ID":"WI-VL-9","Station_Nam":"LAND O' LAKES 11.7 W, WI","Latitude":"46.19023","Longitude":"-89.45790","Snowdepth":"21.000","Units":"in","Rept_Date":"2020-03-24 12"},"coordinates":[1826,4659]},{"type":"Point","properties":{"Station_ID":"WI-VL-10","Station_Nam":"LAND O LAKES 4.3 WNW, WI","Latitude":"46.17440","Longitude":"-89.30380","Snowdepth":"21.000","Units":"in","Rept_Date":"2020-03-24 13"},"coordinates":[1862,4644]},{"type":"Point","properties":{"Station_ID":"ME-FR-4","Station_Nam":"NEW SHARON 2.0 NW, ME","Latitude":"44.66582","Longitude":"-70.02720","Snowdepth":"21.000","Units":"in","Rept_Date":"2020-03-24 12"},"coordinates":[6386,3189]},{"type":"Point","properties":{"Station_ID":"ME-AR-15","Station_Nam":"PRESQUE ISLE 1.3 WSW, ME","Latitude":"46.67960","Longitude":"-68.01270","Snowdepth":"21.000","Units":"in","Rept_Date":"2020-03-24 12"},"coordinates":[6859,5131]},{"type":"Point","properties":{"Station_ID":"LNOW3","Station_Nam":"LAND O LAKES","Latitude":"46.19000","Longitude":"-89.45700","Snowdepth":"21.000","Units":"in","Rept_Date":"2020-03-24 11"},"coordinates":[1826,4659]},{"type":"Point","properties":{"Station_ID":"GNLM4","Station_Nam":"GREENLAND 6N","Latitude":"46.87360","Longitude":"-89.10060","Snowdepth":"21.000","Units":"in","Rept_Date":"2020-03-24 12"},"coordinates":[1910,5318]},{"type":"Point","properties":{"Station_ID":"BRAM1","Station_Nam":"BRASSUA DAM","Latitude":"45.66020","Longitude":"-69.81190","Snowdepth":"21.000","Units":"in","Rept_Date":"2020-03-24 11"},"coordinates":[6437,4148]},{"type":"Point","properties":{"Station_ID":"NH-CS-10","Station_Nam":"RANDOLPH 1.4 NE, NH","Latitude":"44.38824","Longitude":"-71.26950","Snowdepth":"20.500","Units":"in","Rept_Date":"2020-03-24 12"},"coordinates":[6095,2921]},{"type":"Point","properties":{"Station_ID":"VT-CL-40","Station_Nam":"LYNDONVILLE 4.2 NNW, VT","Latitude":"44.59440","Longitude":"-72.02389","Snowdepth":"20.000","Units":"in","Rept_Date":"2020-03-24 23"},"coordinates":[5918,3120]},{"type":"Point","properties":{"Station_ID":"MN-IT-23","Station_Nam":"BOVEY 13.4 N, MN","Latitude":"47.48855","Longitude":"-93.43497","Snowdepth":"20.000","Units":"in","Rept_Date":"2020-03-24 13"},"coordinates":[893,5911]},{"type":"Point","properties":{"Station_ID":"KABM5","Station_Nam":"KABETOGAMA LAKE VISITOR CTR","Latitude":"48.40880","Longitude":"-93.04840","Snowdepth":"20.000","Units":"in","Rept_Date":"2020-03-24 12"},"coordinates":[983,6799]},{"type":"Point","properties":{"Station_ID":"INL","Station_Nam":"FALLS INTERNATIONAL ARPT","Latitude":"48.56640","Longitude":"-93.40310","Snowdepth":"20.000","Units":"in","Rept_Date":"2020-03-25 00"},"coordinates":[900,6951]},{"type":"Point","properties":{"Station_ID":"IFSM5","Station_Nam":"INTERNATIONAL FALLS SNOW","Latitude":"48.57780","Longitude":"-93.39640","Snowdepth":"20.000","Units":"in","Rept_Date":"2020-03-24 12"},"coordinates":[902,6962]},{"type":"Point","properties":{"Station_ID":"CRVW3","Station_Nam":"CRIVITZ HIGH FALLS","Latitude":"45.35750","Longitude":"-88.19190","Snowdepth":"20.000","Units":"in","Rept_Date":"2020-03-24 12"},"coordinates":[2123,3856]},{"type":"Point","properties":{"Station_ID":"OXBM1","Station_Nam":"OXBOW - MCOOP","Latitude":"46.42700","Longitude":"-68.55300","Snowdepth":"19.600","Units":"in","Rept_Date":"2020-03-24 16"},"coordinates":[6732,4887]},{"type":"Point","properties":{"Station_ID":"DYRM1","Station_Nam":"DYER BROOK SNOWCOR","Latitude":"46.04820","Longitude":"-68.22600","Snowdepth":"19.400","Units":"in","Rept_Date":"2020-03-24 18"},"coordinates":[6809,4522]},{"type":"Point","properties":{"Station_ID":"SUAW3","Station_Nam":"SUAMICO","Latitude":"44.60190","Longitude":"-88.09780","Snowdepth":"19.000","Units":"in","Rept_Date":"2020-03-24 11"},"coordinates":[2145,3127]},{"type":"Point","properties":{"Station_ID":"PDGM4","Station_Nam":"PAULDING","Latitude":"46.39760","Longitude":"-89.17940","Snowdepth":"19.000","Units":"in","Rept_Date":"2020-03-24 12"},"coordinates":[1891,4859]},{"type":"Point","properties":{"Station_ID":"MN-IT-17","Station_Nam":"GRAND RAPIDS 6.1 N, MN","Latitude":"47.31165","Longitude":"-93.55036","Snowdepth":"19.000","Units":"in","Rept_Date":"2020-03-24 13"},"coordinates":[866,5740]},{"type":"Point","properties":{"Station_ID":"EVRW3","Station_Nam":"EAGLE RIVER-4 E","Latitude":"45.91890","Longitude":"-89.15280","Snowdepth":"19.000","Units":"in","Rept_Date":"2020-03-24 12"},"coordinates":[1898,4397]},{"type":"Point","properties":{"Station_ID":"CAN-NB-18","Station_Nam":"MCLEOD HILL 1.1 ENE, CA","Latitude":"46.02725","Longitude":"-66.67460","Snowdepth":"19.000","Units":"in","Rept_Date":"2020-03-24 12"},"coordinates":[7173,4502]},{"type":"Point","properties":{"Station_ID":"BABM5","Station_Nam":"BABBITT","Latitude":"47.71210","Longitude":"-91.95330","Snowdepth":"19.000","Units":"in","Rept_Date":"2020-03-24 12"},"coordinates":[1240,6127]},{"type":"Point","properties":{"Station_ID":"CATQ6","Station_Nam":"CAT LAKE","Latitude":"51.72690","Longitude":"-91.82210","Snowdepth":"18.940","Units":"in","Rept_Date":"2020-03-25 06"},"coordinates":[1271,9999]},{"type":"Point","properties":{"Station_ID":"SUTV1","Station_Nam":"SUTTON","Latitude":"44.61220","Longitude":"-72.04810","Snowdepth":"18.000","Units":"in","Rept_Date":"2020-03-24 12"},"coordinates":[5912,3137]},{"type":"Point","properties":{"Station_ID":"SSMM4","Station_Nam":"SAULT STE MARIE","Latitude":"46.48660","Longitude":"-84.40250","Snowdepth":"18.000","Units":"in","Rept_Date":"2020-03-24 12"},"coordinates":[3013,4945]},{"type":"Point","properties":{"Station_ID":"RKWM1","Station_Nam":"MOOSEHEAD LAKE","Latitude":"45.58330","Longitude":"-69.71670","Snowdepth":"18.000","Units":"in","Rept_Date":"2020-03-24 11"},"coordinates":[6459,4073]},{"type":"Point","properties":{"Station_ID":"LILM1","Station_Nam":"LILLE","Latitude":"47.27770","Longitude":"-68.10520","Snowdepth":"18.000","Units":"in","Rept_Date":"2020-03-24 11"},"coordinates":[6837,5708]},{"type":"Point","properties":{"Station_ID":"LEIM5","Station_Nam":"ORR 3E","Latitude":"48.05810","Longitude":"-92.75220","Snowdepth":"18.000","Units":"in","Rept_Date":"2020-03-24 11"},"coordinates":[1053,6460]},{"type":"Point","properties":{"Station_ID":"KINM1","Station_Nam":"KINGFIELD","Latitude":"44.95950","Longitude":"-70.17530","Snowdepth":"18.000","Units":"in","Rept_Date":"2020-03-24 10"},"coordinates":[6352,3472]},{"type":"Point","properties":{"Station_ID":"IWOM4","Station_Nam":"IRONWOOD#2","Latitude":"46.46520","Longitude":"-90.13820","Snowdepth":"18.000","Units":"in","Rept_Date":"2020-03-24 12"},"coordinates":[1666,4924]},{"type":"Point","properties":{"Station_ID":"HURW3","Station_Nam":"HURLEY","Latitude":"46.46250","Longitude":"-90.19550","Snowdepth":"18.000","Units":"in","Rept_Date":"2020-03-24 13"},"coordinates":[1653,4921]},{"type":"Point","properties":{"Station_ID":"GLDM4","Station_Nam":"GLADSTONE NO. 2","Latitude":"45.84330","Longitude":"-87.03910","Snowdepth":"18.000","Units":"in","Rept_Date":"2020-03-24 11"},"coordinates":[2394,4324]},{"type":"Point","properties":{"Station_ID":"ELYM5","Station_Nam":"ELY","Latitude":"47.90560","Longitude":"-91.82830","Snowdepth":"18.000","Units":"in","Rept_Date":"2020-03-24 13"},"coordinates":[1270,6313]},{"type":"Point","properties":{"Station_ID":"CSLM5","Station_Nam":"CASS LAKE,MN","Latitude":"47.38470","Longitude":"-94.61470","Snowdepth":"18.000","Units":"in","Rept_Date":"2020-03-24 13"},"coordinates":[616,5811]},{"type":"Point","properties":{"Station_ID":"BRDM1","Station_Nam":"BRIDGEWATER","Latitude":"46.42870","Longitude":"-67.84370","Snowdepth":"18.000","Units":"in","Rept_Date":"2020-03-24 22"},"coordinates":[6899,4889]},{"type":"Point","properties":{"Station_ID":"ANJM4","Station_Nam":"SNOW PAID OBSERVER FOR KANJ","Latitude":"46.48670","Longitude":"-84.40260","Snowdepth":"18.000","Units":"in","Rept_Date":"2020-03-24 18"},"coordinates":[3013,4945]},{"type":"Point","properties":{"Station_ID":"ANJ","Station_Nam":"SAULT STE MARIE","Latitude":"46.46670","Longitude":"-84.36670","Snowdepth":"18.000","Units":"in","Rept_Date":"2020-03-25 00"},"coordinates":[3021,4926]},{"type":"Point","properties":{"Station_ID":"VT-ES-1","Station_Nam":"GRANBY 1.4 NW, VT","Latitude":"44.58330","Longitude":"-71.77870","Snowdepth":"17.500","Units":"in","Rept_Date":"2020-03-24 13"},"coordinates":[5975,3109]},{"type":"Point","properties":{"Station_ID":"NH-CR-15","Station_Nam":"JACKSON 3.7 NW, NH","Latitude":"44.19069","Longitude":"-71.22598","Snowdepth":"17.500","Units":"in","Rept_Date":"2020-03-24 12"},"coordinates":[6105,2730]},{"type":"Point","properties":{"Station_ID":"ME-OX-2","Station_Nam":"HARTFORD 1.4 N, ME","Latitude":"44.39318","Longitude":"-70.34760","Snowdepth":"17.500","Units":"in","Rept_Date":"2020-03-24 12"},"coordinates":[6311,2926]},{"type":"Point","properties":{"Station_ID":"ME-FR-22","Station_Nam":"FARMINGTON 4.8 NNW, ME","Latitude":"44.73396","Longitude":"-70.18007","Snowdepth":"17.500","Units":"in","Rept_Date":"2020-03-24 14"},"coordinates":[6350,3254]},{"type":"Point","properties":{"Station_ID":"WI-VL-14","Station_Nam":"BOULDER JUNCTION 1.4 NE, WI","Latitude":"46.12840","Longitude":"-89.62470","Snowdepth":"17.000","Units":"in","Rept_Date":"2020-03-24 13"},"coordinates":[1787,4599]},{"type":"Point","properties":{"Station_ID":"STGW3","Station_Nam":"ST GERMAIN","Latitude":"45.91550","Longitude":"-89.48940","Snowdepth":"17.000","Units":"in","Rept_Date":"2020-03-24 11"},"coordinates":[1819,4394]},{"type":"Point","properties":{"Station_ID":"NOHM5","Station_Nam":"NORTHOME","Latitude":"47.83590","Longitude":"-94.25550","Snowdepth":"17.000","Units":"in","Rept_Date":"2020-03-24 12"},"coordinates":[700,6246]},{"type":"Point","properties":{"Station_ID":"MIEM4","Station_Nam":"MICHIGAMME 3WNW","Latitude":"46.54530","Longitude":"-88.18000","Snowdepth":"17.000","Units":"in","Rept_Date":"2020-03-24 12"},"coordinates":[2126,5001]},{"type":"Point","properties":{"Station_ID":"EAHV1","Station_Nam":"EAST HAVEN","Latitude":"44.64250","Longitude":"-71.89120","Snowdepth":"17.000","Units":"in","Rept_Date":"2020-03-24 11"},"coordinates":[5949,3166]},{"type":"Point","properties":{"Station_ID":"CORV1","Station_Nam":"CORINTH","Latitude":"44.00690","Longitude":"-72.31940","Snowdepth":"17.000","Units":"in","Rept_Date":"2020-03-24 11"},"coordinates":[5848,2553]},{"type":"Point","properties":{"Station_ID":"BTLN3","Station_Nam":"BARTLETT","Latitude":"44.08380","Longitude":"-71.29340","Snowdepth":"17.000","Units":"in","Rept_Date":"2020-03-24 11"},"coordinates":[6089,2627]},{"type":"Point","properties":{"Station_ID":"BNDM5","Station_Nam":"ELY 25E","Latitude":"47.97190","Longitude":"-91.44860","Snowdepth":"17.000","Units":"in","Rept_Date":"2020-03-24 12"},"coordinates":[1359,6377]},{"type":"Point","properties":{"Station_ID":"WTNM4","Station_Nam":"WATTON 2WSW","Latitude":"46.52660","Longitude":"-88.64240","Snowdepth":"16.000","Units":"in","Rept_Date":"2020-03-24 12"},"coordinates":[2017,4983]},{"type":"Point","properties":{"Station_ID":"TOGM5","Station_Nam":"CELINA 2E","Latitude":"47.86630","Longitude":"-93.02660","Snowdepth":"16.000","Units":"in","Rept_Date":"2020-03-24 14"},"coordinates":[989,6275]},{"type":"Point","properties":{"Station_ID":"RANM1","Station_Nam":"RANGELEY","Latitude":"44.98910","Longitude":"-70.67190","Snowdepth":"16.000","Units":"in","Rept_Date":"2020-03-24 10"},"coordinates":[6235,3500]},{"type":"Point","properties":{"Station_ID":"PRDM4","Station_Nam":"PARADISE","Latitude":"46.60380","Longitude":"-85.03960","Snowdepth":"16.000","Units":"in","Rept_Date":"2020-03-24 10"},"coordinates":[2863,5058]},{"type":"Point","properties":{"Station_ID":"MNV905PW","Station_Nam":"ROOSEVELT 5.3 N","Latitude":"48.87933","Longitude":"-95.08224","Snowdepth":"16.000","Units":"in","Rept_Date":"2020-03-24 12"},"coordinates":[506,7253]},{"type":"Point","properties":{"Station_ID":"MI-GG-4","Station_Nam":"WATERSMEET 5.0 SE, MI","Latitude":"46.20333","Longitude":"-89.13170","Snowdepth":"16.000","Units":"in","Rept_Date":"2020-03-24 14"},"coordinates":[1903,4672]},{"type":"Point","properties":{"Station_ID":"GGRM4","Station_Nam":"GREEN GARDEN NO.2","Latitude":"46.45330","Longitude":"-87.30380","Snowdepth":"16.000","Units":"in","Rept_Date":"2020-03-24 11"},"coordinates":[2332,4913]},{"type":"Point","properties":{"Station_ID":"EMBM5","Station_Nam":"EMBARASS,MN","Latitude":"47.65810","Longitude":"-92.19580","Snowdepth":"16.000","Units":"in","Rept_Date":"2020-03-24 11"},"coordinates":[1184,6075]},{"type":"Point","properties":{"Station_ID":"COKM5","Station_Nam":"COOK","Latitude":"47.85060","Longitude":"-92.69250","Snowdepth":"16.000","Units":"in","Rept_Date":"2020-03-24 11"},"coordinates":[1067,6260]},{"type":"Point","properties":{"Station_ID":"MN-SL-15","Station_Nam":"CHISHOLM 0.4 WSW, MN","Latitude":"47.48557","Longitude":"-92.88690","Snowdepth":"15.500","Units":"in","Rept_Date":"2020-03-24 13"},"coordinates":[1021,5908]},{"type":"Point","properties":{"Station_ID":"MI-CP-14","Station_Nam":"SAULT STE. MARIE 2.2 E, MI","Latitude":"46.48933","Longitude":"-84.31971","Snowdepth":"15.500","Units":"in","Rept_Date":"2020-03-24 13"},"coordinates":[3032,4947]},{"type":"Point","properties":{"Station_ID":"WNBM5","Station_Nam":"DAM","Latitude":"47.43060","Longitude":"-94.05000","Snowdepth":"15.000","Units":"in","Rept_Date":"2020-03-24 13"},"coordinates":[748,5855]},{"type":"Point","properties":{"Station_ID":"WI-ON-8","Station_Nam":"HAZELHURST 2.1 SSE, WI","Latitude":"45.78186","Longitude":"-89.70330","Snowdepth":"15.000","Units":"in","Rept_Date":"2020-03-24 13"},"coordinates":[1768,4265]},{"type":"Point","properties":{"Station_ID":"WI-BY-2","Station_Nam":"MELLEN 18.6 SW, WI","Latitude":"46.16937","Longitude":"-90.98090","Snowdepth":"15.000","Units":"in","Rept_Date":"2020-03-24 13"},"coordinates":[1469,4639]},{"type":"Point","properties":{"Station_ID":"VT-ES-3","Station_Nam":"LUNENBURG 2.3 NNW, VT","Latitude":"44.49324","Longitude":"-71.70446","Snowdepth":"15.000","Units":"in","Rept_Date":"2020-03-24 12"},"coordinates":[5993,3022]},{"type":"Point","properties":{"Station_ID":"VT-BN-12","Station_Nam":"STAMFORD 5.0 NNE, VT","Latitude":"42.82000","Longitude":"-73.02000","Snowdepth":"15.000","Units":"in","Rept_Date":"2020-03-24 21"},"coordinates":[5684,1408]},{"type":"Point","properties":{"Station_ID":"NUMN3","Station_Nam":"NORTHUMBERLAND","Latitude":"44.52830","Longitude":"-71.50440","Snowdepth":"15.000","Units":"in","Rept_Date":"2020-03-24 11"},"coordinates":[6040,3056]},{"type":"Point","properties":{"Station_ID":"MWN","Station_Nam":"MOUNT WASHINGTON","Latitude":"44.26670","Longitude":"-71.30000","Snowdepth":"15.000","Units":"in","Rept_Date":"2020-03-25 04"},"coordinates":[6088,2804]},{"type":"Point","properties":{"Station_ID":"CRLM5","Station_Nam":"CROSS LAKE DAM","Latitude":"46.66930","Longitude":"-94.11060","Snowdepth":"15.000","Units":"in","Rept_Date":"2020-03-24 13"},"coordinates":[734,5121]},{"type":"Point","properties":{"Station_ID":"CMKW3","Station_Nam":"CLAM LAKE 4W","Latitude":"46.16940","Longitude":"-90.98080","Snowdepth":"15.000","Units":"in","Rept_Date":"2020-03-24 12"},"coordinates":[1469,4639]},{"type":"Point","properties":{"Station_ID":"CAN-NB-2","Station_Nam":"GRAFTON 2.7 NNE, CA","Latitude":"46.17062","Longitude":"-67.55330","Snowdepth":"15.000","Units":"in","Rept_Date":"2020-03-24 10"},"coordinates":[6967,4640]},{"type":"Point","properties":{"Station_ID":"CAN-MB-298","Station_Nam":"GARDENTON 4.2 W - SRRCD, CAN","Latitude":"49.09480","Longitude":"-96.75446","Snowdepth":"15.000","Units":"in","Rept_Date":"2020-03-24 14"},"coordinates":[114,7460]},{"type":"Point","properties":{"Station_ID":"AMAM4","Station_Nam":"AMASA 1W","Latitude":"46.23470","Longitude":"-88.45440","Snowdepth":"15.000","Units":"in","Rept_Date":"2020-03-24 13"},"coordinates":[2062,4702]},{"type":"Point","properties":{"Station_ID":"MN-SL-108","Station_Nam":"IRON JUNCTION 3.4 NNW, MN","Latitude":"47.46150","Longitude":"-92.63130","Snowdepth":"14.500","Units":"in","Rept_Date":"2020-03-24 13"},"coordinates":[1081,5885]},{"type":"Point","properties":{"Station_ID":"MN-IT-7","Station_Nam":"GRAND RAPIDS 6.2 SSW, MN","Latitude":"47.13687","Longitude":"-93.56660","Snowdepth":"14.500","Units":"in","Rept_Date":"2020-03-24 12"},"coordinates":[862,5572]},{"type":"Point","properties":{"Station_ID":"CAN-NB-64","Station_Nam":"KESWICK RIDGE 4.0 SE, CAN","Latitude":"45.97014","Longitude":"-66.85538","Snowdepth":"14.300","Units":"in","Rept_Date":"2020-03-24 13"},"coordinates":[7131,4447]},{"type":"Point","properties":{"Station_ID":"WI-OC-1","Station_Nam":"MOUNTAIN 1.1 SW, WI","Latitude":"45.17239","Longitude":"-88.48990","Snowdepth":"14.000","Units":"in","Rept_Date":"2020-03-24 13"},"coordinates":[2053,3677]},{"type":"Point","properties":{"Station_ID":"WI-IR-3","Station_Nam":"PENCE 0.1 E, WI","Latitude":"46.41555","Longitude":"-90.27013","Snowdepth":"14.000","Units":"in","Rept_Date":"2020-03-24 13"},"coordinates":[1635,4876]},{"type":"Point","properties":{"Station_ID":"RPDM4","Station_Nam":"RAPID RIVER 4SSE","Latitude":"45.87270","Longitude":"-86.94960","Snowdepth":"14.000","Units":"in","Rept_Date":"2020-03-24 13"},"coordinates":[2415,4353]},{"type":"Point","properties":{"Station_ID":"NH-CR-26","Station_Nam":"CENTER SANDWICH 4.9 E, NH","Latitude":"43.80976","Longitude":"-71.34150","Snowdepth":"14.000","Units":"in","Rept_Date":"2020-03-24 11"},"coordinates":[6078,2363]},{"type":"Point","properties":{"Station_ID":"MOUW3","Station_Nam":"MOUNTAIN 1 SW","Latitude":"45.17220","Longitude":"-88.49390","Snowdepth":"14.000","Units":"in","Rept_Date":"2020-03-24 12"},"coordinates":[2052,3677]},{"type":"Point","properties":{"Station_ID":"MN-CK-6","Station_Nam":"GRAND MARAIS 4.4 W, MN","Latitude":"47.74865","Longitude":"-90.43760","Snowdepth":"14.000","Units":"in","Rept_Date":"2020-03-24 13"},"coordinates":[1596,6162]},{"type":"Point","properties":{"Station_ID":"INDN6","Station_Nam":"INDIAN LAKE","Latitude":"43.75500","Longitude":"-74.27560","Snowdepth":"14.000","Units":"in","Rept_Date":"2020-03-24 12"},"coordinates":[5389,2310]},{"type":"Point","properties":{"Station_ID":"ESDN3","Station_Nam":"EAST SANDWICH","Latitude":"43.80990","Longitude":"-71.34250","Snowdepth":"14.000","Units":"in","Rept_Date":"2020-03-24 10"},"coordinates":[6078,2363]},{"type":"Point","properties":{"Station_ID":"DLHM5","Station_Nam":"DULUTH NWS","Latitude":"46.83680","Longitude":"-92.21080","Snowdepth":"14.000","Units":"in","Rept_Date":"2020-03-25 06"},"coordinates":[1180,5282]},{"type":"Point","properties":{"Station_ID":"DLH","Station_Nam":"DULUTH, MN","Latitude":"46.83690","Longitude":"-92.21030","Snowdepth":"14.000","Units":"in","Rept_Date":"2020-03-25 00"},"coordinates":[1180,5283]},{"type":"Point","properties":{"Station_ID":"CLKM4","Station_Nam":"CLARKSBURG","Latitude":"46.49910","Longitude":"-87.84500","Snowdepth":"14.000","Units":"in","Rept_Date":"2020-03-24 11"},"coordinates":[2205,4957]},{"type":"Point","properties":{"Station_ID":"CAN-NS-60","Station_Nam":"SYDNEY FORKS, CAN","Latitude":"46.05645","Longitude":"-60.31510","Snowdepth":"14.000","Units":"in","Rept_Date":"2020-03-24 14"},"coordinates":[8666,4530]},{"type":"Point","properties":{"Station_ID":"AVTW3","Station_Nam":"ARBOR VITAE-JOHNSON LAKE","Latitude":"45.89940","Longitude":"-89.72670","Snowdepth":"14.000","Units":"in","Rept_Date":"2020-03-24 11"},"coordinates":[1763,4378]},{"type":"Point","properties":{"Station_ID":"AVLV1","Station_Nam":"AVERILL","Latitude":"45.00570","Longitude":"-71.69030","Snowdepth":"14.000","Units":"in","Rept_Date":"2020-03-24 12"},"coordinates":[5996,3516]},{"type":"Point","properties":{"Station_ID":"VT-WS-7","Station_Nam":"MIDDLESEX 3.1 ENE, VT","Latitude":"44.31799","Longitude":"-72.62650","Snowdepth":"13.500","Units":"in","Rept_Date":"2020-03-24 13"},"coordinates":[5776,2853]},{"type":"Point","properties":{"Station_ID":"VT-OL-9","Station_Nam":"GREENSBORO 2.1 NNW, VT","Latitude":"44.60528","Longitude":"-72.30940","Snowdepth":"13.500","Units":"in","Rept_Date":"2020-03-24 12"},"coordinates":[5851,3130]},{"type":"Point","properties":{"Station_ID":"MN-IT-1","Station_Nam":"GRAND RAPIDS 2.0 E, MN","Latitude":"47.22266","Longitude":"-93.49600","Snowdepth":"13.500","Units":"in","Rept_Date":"2020-03-24 12"},"coordinates":[878,5655]},{"type":"Point","properties":{"Station_ID":"CAN-PE-19","Station_Nam":"CHARLOTTETOWN 6.5 NNW, CAN","Latitude":"46.29235","Longitude":"-63.17271","Snowdepth":"13.400","Units":"in","Rept_Date":"2020-03-24 12"},"coordinates":[7995,4757]},{"type":"Point","properties":{"Station_ID":"FTHQ6","Station_Nam":"FORT HOPE","Latitude":"51.55820","Longitude":"-87.90510","Snowdepth":"13.310","Units":"in","Rept_Date":"2020-03-25 06"},"coordinates":[2191,9836]},{"type":"Point","properties":{"Station_ID":"WI-BY-22","Station_Nam":"MASON 11.5 WNW, WI","Latitude":"46.50198","Longitude":"-91.28339","Snowdepth":"13.000","Units":"in","Rept_Date":"2020-03-24 14"},"coordinates":[1398,4960]},{"type":"Point","properties":{"Station_ID":"WI-BY-14","Station_Nam":"ASHLAND 9.8 W, WI","Latitude":"46.59742","Longitude":"-91.07856","Snowdepth":"13.000","Units":"in","Rept_Date":"2020-03-24 12"},"coordinates":[1446,5052]},{"type":"Point","properties":{"Station_ID":"RFDM1","Station_Nam":"RUMFORD 7SW","Latitude":"44.49470","Longitude":"-70.65640","Snowdepth":"13.000","Units":"in","Rept_Date":"2020-03-24 13"},"coordinates":[6239,3024]},{"type":"Point","properties":{"Station_ID":"PTBN3","Station_Nam":"PITTSBURG RESERVOIR","Latitude":"45.04690","Longitude":"-71.38300","Snowdepth":"13.000","Units":"in","Rept_Date":"2020-03-24 12"},"coordinates":[6068,3556]},{"type":"Point","properties":{"Station_ID":"NH-CR-41","Station_Nam":"ALBANY 2.8 SW, NH","Latitude":"43.92648","Longitude":"-71.21556","Snowdepth":"13.000","Units":"in","Rept_Date":"2020-03-24 13"},"coordinates":[6107,2475]},{"type":"Point","properties":{"Station_ID":"LNKM1","Station_Nam":"LINCOLN SANITARY DISTRICT/WTP","Latitude":"45.37520","Longitude":"-68.50820","Snowdepth":"13.000","Units":"in","Rept_Date":"2020-03-24 11"},"coordinates":[6743,3873]},{"type":"Point","properties":{"Station_ID":"JKMM1","Station_Nam":"JACKMAN","Latitude":"45.62600","Longitude":"-70.24600","Snowdepth":"13.000","Units":"in","Rept_Date":"2020-03-24 11"},"coordinates":[6335,4115]},{"type":"Point","properties":{"Station_ID":"JCBM4","Station_Nam":"JACOBSVILLE","Latitude":"47.00830","Longitude":"-88.43180","Snowdepth":"13.000","Units":"in","Rept_Date":"2020-03-24 11"},"coordinates":[2067,5448]},{"type":"Point","properties":{"Station_ID":"IRMM4","Station_Nam":"WWTP","Latitude":"46.46670","Longitude":"-90.18330","Snowdepth":"13.000","Units":"in","Rept_Date":"2020-03-24 12"},"coordinates":[1656,4926]},{"type":"Point","properties":{"Station_ID":"INDM5","Station_Nam":"INDUS,MN","Latitude":"48.61670","Longitude":"-93.90000","Snowdepth":"13.000","Units":"in","Rept_Date":"2020-03-24 13"},"coordinates":[784,6999]},{"type":"Point","properties":{"Station_ID":"ESGM1","Station_Nam":"EAST SANGERVILLE","Latitude":"45.13690","Longitude":"-69.28060","Snowdepth":"13.000","Units":"in","Rept_Date":"2020-03-24 11"},"coordinates":[6562,3643]},{"type":"Point","properties":{"Station_ID":"CAN-ON-526","Station_Nam":"HILTON BEACH 0.7 SW - MNRF, CAN","Latitude":"46.25357","Longitude":"-83.90014","Snowdepth":"13.000","Units":"in","Rept_Date":"2020-03-24 12"},"coordinates":[3130,4720]},{"type":"Point","properties":{"Station_ID":"CAN-NS-103","Station_Nam":"TRAFALGAR 4.9 WSW, CAN","Latitude":"45.26217","Longitude":"-62.72285","Snowdepth":"13.000","Units":"in","Rept_Date":"2020-03-24 11"},"coordinates":[8101,3764]},{"type":"Point","properties":{"Station_ID":"VT-CL-18","Station_Nam":"WHEELOCK 1.6 S, VT","Latitude":"44.56491","Longitude":"-72.08830","Snowdepth":"12.500","Units":"in","Rept_Date":"2020-03-24 12"},"coordinates":[5903,3091]},{"type":"Point","properties":{"Station_ID":"NH-HL-48","Station_Nam":"GREENVILLE 1.1 ENE, NH","Latitude":"42.77674","Longitude":"-71.77990","Snowdepth":"12.500","Units":"in","Rept_Date":"2020-03-24 11"},"coordinates":[5975,1367]},{"type":"Point","properties":{"Station_ID":"NH-GR-49","Station_Nam":"PLYMOUTH 3.7 N, NH","Latitude":"43.79048","Longitude":"-71.68413","Snowdepth":"12.500","Units":"in","Rept_Date":"2020-03-24 12"},"coordinates":[5997,2344]},{"type":"Point","properties":{"Station_ID":"CAN-MB-32","Station_Nam":"PINAWA 1.0 SW, CA","Latitude":"50.14747","Longitude":"-95.89020","Snowdepth":"12.500","Units":"in","Rept_Date":"2020-03-24 13"},"coordinates":[316,8476]},{"type":"Point","properties":{"Station_ID":"CAN-ON-757","Station_Nam":"SAULT STE. MARIE 2.8 ESE - GLFC, CAN","Latitude":"46.50300","Longitude":"-84.30300","Snowdepth":"12.200","Units":"in","Rept_Date":"2020-03-24 13"},"coordinates":[3036,4961]},{"type":"Point","properties":{"Station_ID":"ZNOM4","Station_Nam":"NORWAY","Latitude":"45.77810","Longitude":"-87.89560","Snowdepth":"12.000","Units":"in","Rept_Date":"2020-03-24 12"},"coordinates":[2193,4261]},{"type":"Point","properties":{"Station_ID":"WI-DG-20","Station_Nam":"SOLON SPRINGS 1.2 W, WI","Latitude":"46.35217","Longitude":"-91.84405","Snowdepth":"12.000","Units":"in","Rept_Date":"2020-03-24 13"},"coordinates":[1266,4815]},{"type":"Point","properties":{"Station_ID":"TOPM1","Station_Nam":"TOPSFIELD","Latitude":"45.43470","Longitude":"-67.72020","Snowdepth":"12.000","Units":"in","Rept_Date":"2020-03-24 12"},"coordinates":[6928,3930]},{"type":"Point","properties":{"Station_ID":"PRNW3","Station_Nam":"PRENTICE,WI","Latitude":"45.54780","Longitude":"-90.30000","Snowdepth":"12.000","Units":"in","Rept_Date":"2020-03-24 13"},"coordinates":[1628,4039]},{"type":"Point","properties":{"Station_ID":"NH-CR-11","Station_Nam":"NORTH CONWAY 1.4 SSW, NH","Latitude":"44.03556","Longitude":"-71.14010","Snowdepth":"12.000","Units":"in","Rept_Date":"2020-03-24 12"},"coordinates":[6125,2581]},{"type":"Point","properties":{"Station_ID":"MI-DL-1","Station_Nam":"GARDEN CORNERS 0.8 NW, MI","Latitude":"45.89815","Longitude":"-86.54850","Snowdepth":"12.000","Units":"in","Rept_Date":"2020-03-24 13"},"coordinates":[2509,4377]},{"type":"Point","properties":{"Station_ID":"LPLN6","Station_Nam":"LAKE PLACID 2 S","Latitude":"44.30420","Longitude":"-73.98390","Snowdepth":"12.000","Units":"in","Rept_Date":"2020-03-24 12"},"coordinates":[5458,2840]},{"type":"Point","properties":{"Station_ID":"LBKV1","Station_Nam":"LYE BROOK","Latitude":"43.05000","Longitude":"-73.03330","Snowdepth":"12.000","Units":"in","Rept_Date":"2020-03-25 04"},"coordinates":[5681,1630]},{"type":"Point","properties":{"Station_ID":"KMWN","Station_Nam":"MOUNT WASHINGTON","Latitude":"44.26666","Longitude":"-71.30000","Snowdepth":"12.000","Units":"in","Rept_Date":"2020-03-25 00"},"coordinates":[6088,2804]},{"type":"Point","properties":{"Station_ID":"HMYM1","Station_Nam":"HARMONY","Latitude":"44.94660","Longitude":"-69.54560","Snowdepth":"12.000","Units":"in","Rept_Date":"2020-03-24 11"},"coordinates":[6499,3459]},{"type":"Point","properties":{"Station_ID":"GDCM4","Station_Nam":"GARDEN CORNERS","Latitude":"45.89830","Longitude":"-86.54850","Snowdepth":"12.000","Units":"in","Rept_Date":"2020-03-24 12"},"coordinates":[2509,4377]},{"type":"Point","properties":{"Station_ID":"FEDM5","Station_Nam":"LEECH LAKE DAM","Latitude":"47.24670","Longitude":"-94.22280","Snowdepth":"12.000","Units":"in","Rept_Date":"2020-03-24 13"},"coordinates":[708,5678]},{"type":"Point","properties":{"Station_ID":"FARM1","Station_Nam":"FARMINGTON","Latitude":"44.68930","Longitude":"-70.15640","Snowdepth":"12.000","Units":"in","Rept_Date":"2020-03-24 12"},"coordinates":[6356,3211]},{"type":"Point","properties":{"Station_ID":"AURW3","Station_Nam":"AURORA","Latitude":"45.77000","Longitude":"-88.11810","Snowdepth":"12.000","Units":"in","Rept_Date":"2020-03-24 12"},"coordinates":[2141,4254]},{"type":"Point","properties":{"Station_ID":"AGNW3","Station_Nam":"ARGONNE-1.5 NW","Latitude":"45.67360","Longitude":"-88.90380","Snowdepth":"12.000","Units":"in","Rept_Date":"2020-03-24 12"},"coordinates":[1956,4161]},{"type":"Point","properties":{"Station_ID":"CAN-NB-97","Station_Nam":"NEW MARYLAND 0.6 NW, CAN","Latitude":"45.90112","Longitude":"-66.68739","Snowdepth":"11.600","Units":"in","Rept_Date":"2020-03-24 11"},"coordinates":[7170,4380]},{"type":"Point","properties":{"Station_ID":"VT-WR-2","Station_Nam":"POMFRET 2.6 N, VT","Latitude":"43.74230","Longitude":"-72.52550","Snowdepth":"11.500","Units":"in","Rept_Date":"2020-03-24 12"},"coordinates":[5800,2298]},{"type":"Point","properties":{"Station_ID":"VT-WR-17","Station_Nam":"ROCHESTER 2.3 NE, VT","Latitude":"43.89418","Longitude":"-72.76992","Snowdepth":"11.500","Units":"in","Rept_Date":"2020-03-24 12"},"coordinates":[5743,2444]},{"type":"Point","properties":{"Station_ID":"NH-CR-46","Station_Nam":"NORTH CONWAY 1.8 SSE, NH","Latitude":"44.02955","Longitude":"-71.11664","Snowdepth":"11.500","Units":"in","Rept_Date":"2020-03-24 15"},"coordinates":[6131,2575]},{"type":"Point","properties":{"Station_ID":"CAN-MB-368","Station_Nam":"WHITESHELL 1.3 NE, CAN","Latitude":"49.74405","Longitude":"-95.19123","Snowdepth":"11.200","Units":"in","Rept_Date":"2020-03-24 14"},"coordinates":[481,8087]},{"type":"Point","properties":{"Station_ID":"WTRM4","Station_Nam":"WATERSMEET 12WSW","Latitude":"46.22310","Longitude":"-89.40850","Snowdepth":"11.000","Units":"in","Rept_Date":"2020-03-24 11"},"coordinates":[1838,4691]},{"type":"Point","properties":{"Station_ID":"WRUM5","Station_Nam":"WARROAD 4W","Latitude":"48.89600","Longitude":"-95.40700","Snowdepth":"11.000","Units":"in","Rept_Date":"2020-03-25 03"},"coordinates":[430,7269]},{"type":"Point","properties":{"Station_ID":"VT-BN-3","Station_Nam":"LANDGROVE 1.1 NNE, VT","Latitude":"43.29092","Longitude":"-72.83260","Snowdepth":"11.000","Units":"in","Rept_Date":"2020-03-24 12"},"coordinates":[5728,1862]},{"type":"Point","properties":{"Station_ID":"NWSM1","Station_Nam":"NEW SHARON","Latitude":"44.63520","Longitude":"-70.00020","Snowdepth":"11.000","Units":"in","Rept_Date":"2020-03-24 11"},"coordinates":[6393,3159]},{"type":"Point","properties":{"Station_ID":"NSFN3","Station_Nam":"NORTH STRATFORD","Latitude":"44.68190","Longitude":"-71.58570","Snowdepth":"11.000","Units":"in","Rept_Date":"2020-03-24 11"},"coordinates":[6021,3204]},{"type":"Point","properties":{"Station_ID":"MWTM1","Station_Nam":"MILLINOCKET WWTP","Latitude":"45.64030","Longitude":"-68.67480","Snowdepth":"11.000","Units":"in","Rept_Date":"2020-03-24 10"},"coordinates":[6704,4128]},{"type":"Point","properties":{"Station_ID":"MN7M8EBJ","Station_Nam":"LUTSEN 15.7 NNW","Latitude":"47.85324","Longitude":"-89.92908","Snowdepth":"11.000","Units":"in","Rept_Date":"2020-03-24 13"},"coordinates":[1715,6263]},{"type":"Point","properties":{"Station_ID":"MN-BK-6","Station_Nam":"LAKE PARK 6.0 S, MN","Latitude":"46.79850","Longitude":"-96.12180","Snowdepth":"11.000","Units":"in","Rept_Date":"2020-03-24 13"},"coordinates":[262,5246]},{"type":"Point","properties":{"Station_ID":"JEFN3","Station_Nam":"JEFFERSON","Latitude":"44.41690","Longitude":"-71.50080","Snowdepth":"11.000","Units":"in","Rept_Date":"2020-03-24 11"},"coordinates":[6040,2948]},{"type":"Point","properties":{"Station_ID":"GRBM5","Station_Nam":"GRAND RAPIDS 12N","Latitude":"47.39800","Longitude":"-93.51330","Snowdepth":"11.000","Units":"in","Rept_Date":"2020-03-24 12"},"coordinates":[874,5824]},{"type":"Point","properties":{"Station_ID":"FLNW3","Station_Nam":"FLORENCE","Latitude":"45.93360","Longitude":"-88.25830","Snowdepth":"11.000","Units":"in","Rept_Date":"2020-03-24 12"},"coordinates":[2108,4411]},{"type":"Point","properties":{"Station_ID":"COTM5","Station_Nam":"COTTON","Latitude":"47.16870","Longitude":"-92.46290","Snowdepth":"11.000","Units":"in","Rept_Date":"2020-03-24 11"},"coordinates":[1121,5603]},{"type":"Point","properties":{"Station_ID":"WI-BY-1","Station_Nam":"BAYFIELD 8.8 N, WI","Latitude":"46.93855","Longitude":"-90.83490","Snowdepth":"10.500","Units":"in","Rept_Date":"2020-03-24 13"},"coordinates":[1503,5381]},{"type":"Point","properties":{"Station_ID":"ME-SM-3","Station_Nam":"PALMYRA 3.5 NW, ME","Latitude":"44.87180","Longitude":"-69.41952","Snowdepth":"10.500","Units":"in","Rept_Date":"2020-03-24 12"},"coordinates":[6529,3387]},{"type":"Point","properties":{"Station_ID":"CAN-PE-3","Station_Nam":"WELLINGTON 1.6 NE, CA","Latitude":"46.46672","Longitude":"-63.98920","Snowdepth":"10.500","Units":"in","Rept_Date":"2020-03-24 11"},"coordinates":[7803,4926]},{"type":"Point","properties":{"Station_ID":"WI-ON-6","Station_Nam":"RHINELANDER 5.2 N, WI","Latitude":"45.71388","Longitude":"-89.42150","Snowdepth":"10.000","Units":"in","Rept_Date":"2020-03-24 15"},"coordinates":[1835,4199]},{"type":"Point","properties":{"Station_ID":"WDSV1","Station_Nam":"WOODSTOCK","Latitude":"43.63030","Longitude":"-72.50720","Snowdepth":"10.000","Units":"in","Rept_Date":"2020-03-24 12"},"coordinates":[5804,2190]},{"type":"Point","properties":{"Station_ID":"PKGM5","Station_Nam":"POKEGANA LK DAM","Latitude":"47.25080","Longitude":"-93.58610","Snowdepth":"10.000","Units":"in","Rept_Date":"2020-03-24 13"},"coordinates":[857,5682]},{"type":"Point","properties":{"Station_ID":"PERV1","Station_Nam":"PERU","Latitude":"43.26670","Longitude":"-72.90000","Snowdepth":"10.000","Units":"in","Rept_Date":"2020-03-24 11"},"coordinates":[5712,1839]},{"type":"Point","properties":{"Station_ID":"NH-MR-60","Station_Nam":"SOUTH SUTTON 1.3 SE, NH","Latitude":"43.29531","Longitude":"-71.90238","Snowdepth":"10.000","Units":"in","Rept_Date":"2020-03-24 13"},"coordinates":[5946,1867]},{"type":"Point","properties":{"Station_ID":"NH-CS-4","Station_Nam":"PITTSBURG 6.1 NE, NH","Latitude":"45.11060","Longitude":"-71.29760","Snowdepth":"10.000","Units":"in","Rept_Date":"2020-03-24 12"},"coordinates":[6088,3618]},{"type":"Point","properties":{"Station_ID":"NCBN6","Station_Nam":"NEWCOMB","Latitude":"43.97070","Longitude":"-74.22200","Snowdepth":"10.000","Units":"in","Rept_Date":"2020-03-24 12"},"coordinates":[5402,2518]},{"type":"Point","properties":{"Station_ID":"MRAM4","Station_Nam":"MORAN","Latitude":"45.99030","Longitude":"-84.83610","Snowdepth":"10.000","Units":"in","Rept_Date":"2020-03-24 12"},"coordinates":[2911,4466]},{"type":"Point","properties":{"Station_ID":"LVRM1","Station_Nam":"LIVERMORE FALLS 1 E","Latitude":"44.47160","Longitude":"-70.15940","Snowdepth":"10.000","Units":"in","Rept_Date":"2020-03-24 11"},"coordinates":[6355,3001]},{"type":"Point","properties":{"Station_ID":"LBRM5","Station_Nam":"LAKE BRONSON DAM","Latitude":"48.72410","Longitude":"-96.62180","Snowdepth":"10.000","Units":"in","Rept_Date":"2020-03-24 13"},"coordinates":[145,7103]},{"type":"Point","properties":{"Station_ID":"GREN3","Station_Nam":"GREENVILLE 1 NNE","Latitude":"42.78270","Longitude":"-71.79850","Snowdepth":"10.000","Units":"in","Rept_Date":"2020-03-24 12"},"coordinates":[5971,1372]},{"type":"Point","properties":{"Station_ID":"EHYM3","Station_Nam":"EAST HAWLEY","Latitude":"42.57410","Longitude":"-72.86790","Snowdepth":"10.000","Units":"in","Rept_Date":"2020-03-24 13"},"coordinates":[5720,1171]},{"type":"Point","properties":{"Station_ID":"BRLN3","Station_Nam":"BERLIN","Latitude":"44.45350","Longitude":"-71.18540","Snowdepth":"10.000","Units":"in","Rept_Date":"2020-03-24 11"},"coordinates":[6115,2984]},{"type":"Point","properties":{"Station_ID":"BETM1","Station_Nam":"BETHEL 6 SSE","Latitude":"44.32000","Longitude":"-70.75680","Snowdepth":"10.000","Units":"in","Rept_Date":"2020-03-24 11"},"coordinates":[6215,2855]},{"type":"Point","properties":{"Station_ID":"VT-WR-10","Station_Nam":"WEST WINDSOR 1.7 S, VT","Latitude":"43.46164","Longitude":"-72.49197","Snowdepth":"9.500","Units":"in","Rept_Date":"2020-03-24 12"},"coordinates":[5808,2027]},{"type":"Point","properties":{"Station_ID":"VT-CL-14","Station_Nam":"LYNDONVILLE 1.1 W, VT","Latitude":"44.53582","Longitude":"-72.02867","Snowdepth":"9.500","Units":"in","Rept_Date":"2020-03-24 13"},"coordinates":[5917,3063]},{"type":"Point","properties":{"Station_ID":"MI-DL-4","Station_Nam":"GLADSTONE 2.1 SW, MI","Latitude":"45.83218","Longitude":"-87.05727","Snowdepth":"9.500","Units":"in","Rept_Date":"2020-03-24 12"},"coordinates":[2389,4314]},{"type":"Point","properties":{"Station_ID":"NH-GR-47","Station_Nam":"LITTLETON 7.3 W, NH","Latitude":"44.31847","Longitude":"-71.91086","Snowdepth":"9.200","Units":"in","Rept_Date":"2020-03-24 13"},"coordinates":[5944,2854]},{"type":"Point","properties":{"Station_ID":"ME-AN-32","Station_Nam":"WINTHROP 9.4 W, ME","Latitude":"44.30476","Longitude":"-70.15835","Snowdepth":"9.200","Units":"in","Rept_Date":"2020-03-24 12"},"coordinates":[6356,2840]},{"type":"Point","properties":{"Station_ID":"WORV1","Station_Nam":"WORCESTER 2 W","Latitude":"44.37470","Longitude":"-72.58220","Snowdepth":"9.000","Units":"in","Rept_Date":"2020-03-24 11"},"coordinates":[5787,2908]},{"type":"Point","properties":{"Station_ID":"WAIV1","Station_Nam":"WAITSFIELD","Latitude":"44.17560","Longitude":"-72.79610","Snowdepth":"9.000","Units":"in","Rept_Date":"2020-03-24 11"},"coordinates":[5736,2716]},{"type":"Point","properties":{"Station_ID":"VT-WS-33","Station_Nam":"WAITSFIELD 3.5 WNW, VT","Latitude":"44.20052","Longitude":"-72.89421","Snowdepth":"9.000","Units":"in","Rept_Date":"2020-03-24 13"},"coordinates":[5713,2740]},{"type":"Point","properties":{"Station_ID":"VT-WS-19","Station_Nam":"WATERBURY 3.0 NW, VT","Latitude":"44.36060","Longitude":"-72.80770","Snowdepth":"9.000","Units":"in","Rept_Date":"2020-03-24 11"},"coordinates":[5734,2894]},{"type":"Point","properties":{"Station_ID":"VT-WS-11","Station_Nam":"WAITSFIELD 1.8 SE, VT","Latitude":"44.17551","Longitude":"-72.79540","Snowdepth":"9.000","Units":"in","Rept_Date":"2020-03-24 12"},"coordinates":[5737,2716]},{"type":"Point","properties":{"Station_ID":"VT-WR-19","Station_Nam":"HARTLAND 1.4 SW, VT","Latitude":"43.52591","Longitude":"-72.41903","Snowdepth":"9.000","Units":"in","Rept_Date":"2020-03-24 12"},"coordinates":[5825,2089]},{"type":"Point","properties":{"Station_ID":"VT-WR-13","Station_Nam":"PROCTORSVILLE 0.3 NNE, VT","Latitude":"43.38618","Longitude":"-72.63591","Snowdepth":"9.000","Units":"in","Rept_Date":"2020-03-24 12"},"coordinates":[5774,1954]},{"type":"Point","properties":{"Station_ID":"VT-OG-13","Station_Nam":"WEST FAIRLEE 1.8 ENE, VT","Latitude":"43.92138","Longitude":"-72.23051","Snowdepth":"9.000","Units":"in","Rept_Date":"2020-03-24 12"},"coordinates":[5869,2471]},{"type":"Point","properties":{"Station_ID":"VT-OG-11","Station_Nam":"VERSHIRE 1.5 ESE, VT","Latitude":"43.96138","Longitude":"-72.29777","Snowdepth":"9.000","Units":"in","Rept_Date":"2020-03-24 13"},"coordinates":[5853,2509]},{"type":"Point","properties":{"Station_ID":"VT-AD-20","Station_Nam":"HANCOCK 0.3 S, VT","Latitude":"43.92166","Longitude":"-72.84042","Snowdepth":"9.000","Units":"in","Rept_Date":"2020-03-24 12"},"coordinates":[5726,2471]},{"type":"Point","properties":{"Station_ID":"UVDV1","Station_Nam":"NERON SITE AT UNION VILLAGE DAM","Latitude":"43.79140","Longitude":"-72.25720","Snowdepth":"9.000","Units":"in","Rept_Date":"2020-03-24 11"},"coordinates":[5863,2345]},{"type":"Point","properties":{"Station_ID":"RHIW3","Station_Nam":"RHINELANDER","Latitude":"45.59860","Longitude":"-89.45080","Snowdepth":"9.000","Units":"in","Rept_Date":"2020-03-24 12"},"coordinates":[1828,4088]},{"type":"Point","properties":{"Station_ID":"POLM1","Station_Nam":"POLAND","Latitude":"44.00700","Longitude":"-70.36140","Snowdepth":"9.000","Units":"in","Rept_Date":"2020-03-24 11"},"coordinates":[6308,2553]},{"type":"Point","properties":{"Station_ID":"PEKN6","Station_Nam":"PECK LAKE","Latitude":"43.11500","Longitude":"-74.42360","Snowdepth":"9.000","Units":"in","Rept_Date":"2020-03-24 12"},"coordinates":[5355,1693]},{"type":"Point","properties":{"Station_ID":"PBAN8","Station_Nam":"SITE 1-3MI.N","Latitude":"48.97420","Longitude":"-97.23860","Snowdepth":"9.000","Units":"in","Rept_Date":"2020-03-24 12"},"coordinates":[0,7344]},{"type":"Point","properties":{"Station_ID":"NY-WR-10","Station_Nam":"WARRENSBURG 2.1 WNW, NY","Latitude":"43.51784","Longitude":"-73.81069","Snowdepth":"9.000","Units":"in","Rept_Date":"2020-03-24 13"},"coordinates":[5498,2081]},{"type":"Point","properties":{"Station_ID":"NY-FK-7","Station_Nam":"SARANAC LAKE 6.2 N, NY","Latitude":"44.41359","Longitude":"-74.15211","Snowdepth":"9.000","Units":"in","Rept_Date":"2020-03-24 12"},"coordinates":[5418,2945]},{"type":"Point","properties":{"Station_ID":"NSNM1","Station_Nam":"NEW SHARON","Latitude":"44.63330","Longitude":"-70.00000","Snowdepth":"9.000","Units":"in","Rept_Date":"2020-03-24 12"},"coordinates":[6393,3157]},{"type":"Point","properties":{"Station_ID":"NHBN6","Station_Nam":"HEBRON","Latitude":"43.29540","Longitude":"-73.39830","Snowdepth":"9.000","Units":"in","Rept_Date":"2020-03-24 11"},"coordinates":[5595,1867]},{"type":"Point","properties":{"Station_ID":"NH-GR-52","Station_Nam":"HANOVER 4.8 NE, NH","Latitude":"43.75099","Longitude":"-72.21056","Snowdepth":"9.000","Units":"in","Rept_Date":"2020-03-24 12"},"coordinates":[5874,2306]},{"type":"Point","properties":{"Station_ID":"NH-CS-7","Station_Nam":"LANCASTER 0.5 N, NH","Latitude":"44.49611","Longitude":"-71.57640","Snowdepth":"9.000","Units":"in","Rept_Date":"2020-03-24 11"},"coordinates":[6023,3025]},{"type":"Point","properties":{"Station_ID":"NCKN6","Station_Nam":"NORTH CREEK 5 SE","Latitude":"43.66110","Longitude":"-73.89690","Snowdepth":"9.000","Units":"in","Rept_Date":"2020-03-24 11"},"coordinates":[5478,2220]},{"type":"Point","properties":{"Station_ID":"MN-PK-15","Station_Nam":"MENTOR 2.5 SSW, MN","Latitude":"47.66625","Longitude":"-96.17328","Snowdepth":"9.000","Units":"in","Rept_Date":"2020-03-24 13"},"coordinates":[250,6082]},{"type":"Point","properties":{"Station_ID":"ME-PN-47","Station_Nam":"MILFORD 0.8 SSW, ME","Latitude":"44.94108","Longitude":"-68.64154","Snowdepth":"9.000","Units":"in","Rept_Date":"2020-03-24 11"},"coordinates":[6712,3454]},{"type":"Point","properties":{"Station_ID":"ME-CM-3","Station_Nam":"NEW GLOUCESTER 3.0 SE, ME","Latitude":"43.92372","Longitude":"-70.25790","Snowdepth":"9.000","Units":"in","Rept_Date":"2020-03-24 12"},"coordinates":[6332,2473]},{"type":"Point","properties":{"Station_ID":"HRTM1","Station_Nam":"HARTFORD","Latitude":"44.37440","Longitude":"-70.31620","Snowdepth":"9.000","Units":"in","Rept_Date":"2020-03-24 11"},"coordinates":[6318,2907]},{"type":"Point","properties":{"Station_ID":"HCKN3","Station_Nam":"HANCOCK","Latitude":"42.96940","Longitude":"-71.95290","Snowdepth":"9.000","Units":"in","Rept_Date":"2020-03-24 11"},"coordinates":[5934,1552]},{"type":"Point","properties":{"Station_ID":"CWLV1","Station_Nam":"CORNWALL","Latitude":"43.95730","Longitude":"-73.21060","Snowdepth":"9.000","Units":"in","Rept_Date":"2020-03-24 11"},"coordinates":[5639,2505]},{"type":"Point","properties":{"Station_ID":"VT-CL-35","Station_Nam":"LYNDONVILLE 1.8 N, VT","Latitude":"44.56031","Longitude":"-72.00844","Snowdepth":"8.800","Units":"in","Rept_Date":"2020-03-24 12"},"coordinates":[5921,3087]},{"type":"Point","properties":{"Station_ID":"CAN-NB-1","Station_Nam":"FREDERICTON 4.0 SSE, CA","Latitude":"45.92897","Longitude":"-66.62830","Snowdepth":"8.700","Units":"in","Rept_Date":"2020-03-24 12"},"coordinates":[7184,4407]},{"type":"Point","properties":{"Station_ID":"VT-WS-15","Station_Nam":"EAST CALAIS 1.5 SW, VT","Latitude":"44.35523","Longitude":"-72.45540","Snowdepth":"8.500","Units":"in","Rept_Date":"2020-03-24 12"},"coordinates":[5816,2889]},{"type":"Point","properties":{"Station_ID":"VT-WS-10","Station_Nam":"NORTHFIELD 1.5 N, VT","Latitude":"44.16986","Longitude":"-72.65200","Snowdepth":"8.500","Units":"in","Rept_Date":"2020-03-24 12"},"coordinates":[5770,2710]},{"type":"Point","properties":{"Station_ID":"NY-SR-22","Station_Nam":"GREENFIELD CENTER 1.6 W, NY","Latitude":"43.12684","Longitude":"-73.87860","Snowdepth":"8.500","Units":"in","Rept_Date":"2020-03-24 12"},"coordinates":[5482,1704]},{"type":"Point","properties":{"Station_ID":"MN-CW-22","Station_Nam":"FORT RIPLEY 0.8 N, MN","Latitude":"46.18089","Longitude":"-94.36510","Snowdepth":"8.500","Units":"in","Rept_Date":"2020-03-24 13"},"coordinates":[674,4650]},{"type":"Point","properties":{"Station_ID":"MN-BK-10","Station_Nam":"DETROIT LAKES 5.7 N, MN","Latitude":"46.88666","Longitude":"-95.84444","Snowdepth":"8.500","Units":"in","Rept_Date":"2020-03-24 13"},"coordinates":[327,5331]},{"type":"Point","properties":{"Station_ID":"ME-YK-18","Station_Nam":"WELLS 3.5 SW, ME","Latitude":"43.30140","Longitude":"-70.64470","Snowdepth":"8.500","Units":"in","Rept_Date":"2020-03-24 12"},"coordinates":[6241,1873]},{"type":"Point","properties":{"Station_ID":"ME-PN-30","Station_Nam":"OLD TOWN 4.1 ESE, ME","Latitude":"44.93543","Longitude":"-68.65840","Snowdepth":"8.500","Units":"in","Rept_Date":"2020-03-24 14"},"coordinates":[6708,3449]},{"type":"Point","properties":{"Station_ID":"MA-FR-13","Station_Nam":"CONWAY 2.9 NW, MA","Latitude":"42.54419","Longitude":"-72.72743","Snowdepth":"8.500","Units":"in","Rept_Date":"2020-03-24 12"},"coordinates":[5753,1142]},{"type":"Point","properties":{"Station_ID":"VT-CL-23","Station_Nam":"RYEGATE 1.5 N, VT","Latitude":"44.23024","Longitude":"-72.10523","Snowdepth":"8.400","Units":"in","Rept_Date":"2020-03-24 12"},"coordinates":[5899,2768]},{"type":"Point","properties":{"Station_ID":"CAN-PE-7","Station_Nam":"MORELL 1.4 NNW, CA","Latitude":"46.42741","Longitude":"-62.70870","Snowdepth":"8.400","Units":"in","Rept_Date":"2020-03-24 11"},"coordinates":[8104,4888]},{"type":"Point","properties":{"Station_ID":"WNDM1","Station_Nam":"WINDHAM 2NW","Latitude":"43.85670","Longitude":"-70.46630","Snowdepth":"8.000","Units":"in","Rept_Date":"2020-03-24 11"},"coordinates":[6283,2408]},{"type":"Point","properties":{"Station_ID":"WI-SR-1","Station_Nam":"HAYWARD 9.2 NNE, WI","Latitude":"46.13255","Longitude":"-91.40500","Snowdepth":"8.000","Units":"in","Rept_Date":"2020-03-24 12"},"coordinates":[1369,4603]},{"type":"Point","properties":{"Station_ID":"VT-BN-7","Station_Nam":"MANCHESTER 2.8 ENE, VT","Latitude":"43.17274","Longitude":"-73.01811","Snowdepth":"8.000","Units":"in","Rept_Date":"2020-03-24 12"},"coordinates":[5684,1748]},{"type":"Point","properties":{"Station_ID":"TMWN3","Station_Nam":"TAMWORTH 4","Latitude":"43.86390","Longitude":"-71.26610","Snowdepth":"8.000","Units":"in","Rept_Date":"2020-03-24 11"},"coordinates":[6096,2415]},{"type":"Point","properties":{"Station_ID":"STMM4","Station_Nam":"STAMBAUGH 2SSE","Latitude":"46.05550","Longitude":"-88.62780","Snowdepth":"8.000","Units":"in","Rept_Date":"2020-03-24 12"},"coordinates":[2021,4529]},{"type":"Point","properties":{"Station_ID":"PLFV1","Station_Nam":"PLAINFIELD","Latitude":"44.27610","Longitude":"-72.41500","Snowdepth":"8.000","Units":"in","Rept_Date":"2020-03-24 11"},"coordinates":[5826,2813]},{"type":"Point","properties":{"Station_ID":"NY-WS-8","Station_Nam":"GRANVILLE 9.5 SW, NY","Latitude":"43.31163","Longitude":"-73.39613","Snowdepth":"8.000","Units":"in","Rept_Date":"2020-03-24 11"},"coordinates":[5596,1882]},{"type":"Point","properties":{"Station_ID":"NY-WR-13","Station_Nam":"QUEENSBURY 2.5 E, NY","Latitude":"43.35877","Longitude":"-73.62849","Snowdepth":"8.000","Units":"in","Rept_Date":"2020-03-24 12"},"coordinates":[5541,1928]},{"type":"Point","properties":{"Station_ID":"NOSV1","Station_Nam":"NORTH SPRINGFIELD LAKE","Latitude":"43.33920","Longitude":"-72.50560","Snowdepth":"8.000","Units":"in","Rept_Date":"2020-03-24 11"},"coordinates":[5805,1909]},{"type":"Point","properties":{"Station_ID":"NOHV1","Station_Nam":"NORTH HARTLAND LAKE","Latitude":"43.60270","Longitude":"-72.36210","Snowdepth":"8.000","Units":"in","Rept_Date":"2020-03-24 11"},"coordinates":[5838,2163]},{"type":"Point","properties":{"Station_ID":"MNPV1","Station_Nam":"MONTPELIER 2","Latitude":"44.25530","Longitude":"-72.60060","Snowdepth":"8.000","Units":"in","Rept_Date":"2020-03-24 11"},"coordinates":[5782,2793]},{"type":"Point","properties":{"Station_ID":"MI-OT-17","Station_Nam":"GAYLORD 4.1 S, MI","Latitude":"44.96388","Longitude":"-84.68467","Snowdepth":"8.000","Units":"in","Rept_Date":"2020-03-24 12"},"coordinates":[2946,3476]},{"type":"Point","properties":{"Station_ID":"ME-YK-67","Station_Nam":"CORNISH 5.6 ESE, ME","Latitude":"43.78308","Longitude":"-70.69539","Snowdepth":"8.000","Units":"in","Rept_Date":"2020-03-24 12"},"coordinates":[6230,2337]},{"type":"Point","properties":{"Station_ID":"ME-YK-5","Station_Nam":"KENNEBUNK 1.8 WNW, ME","Latitude":"43.39320","Longitude":"-70.58060","Snowdepth":"8.000","Units":"in","Rept_Date":"2020-03-24 12"},"coordinates":[6256,1961]},{"type":"Point","properties":{"Station_ID":"ME-YK-3","Station_Nam":"HOLLIS CENTER 5.4 NW, ME","Latitude":"43.64750","Longitude":"-70.67510","Snowdepth":"8.000","Units":"in","Rept_Date":"2020-03-24 12"},"coordinates":[6234,2206]},{"type":"Point","properties":{"Station_ID":"ME-YK-25","Station_Nam":"PARSONSFIELD 4.2 NE, ME","Latitude":"43.76687","Longitude":"-70.86570","Snowdepth":"8.000","Units":"in","Rept_Date":"2020-03-24 12"},"coordinates":[6190,2322]},{"type":"Point","properties":{"Station_ID":"ME-CM-15","Station_Nam":"FREEPORT 2.6 WNW, ME","Latitude":"43.86683","Longitude":"-70.15070","Snowdepth":"8.000","Units":"in","Rept_Date":"2020-03-24 12"},"coordinates":[6357,2418]},{"type":"Point","properties":{"Station_ID":"ME-CM-137","Station_Nam":"GRAY 1.5 NE, ME","Latitude":"43.90034","Longitude":"-70.30883","Snowdepth":"8.000","Units":"in","Rept_Date":"2020-03-24 12"},"coordinates":[6320,2450]},{"type":"Point","properties":{"Station_ID":"ME-CM-125","Station_Nam":"CUMBERLAND CENTER 4.4 NW, ME","Latitude":"43.84640","Longitude":"-70.31340","Snowdepth":"8.000","Units":"in","Rept_Date":"2020-03-24 12"},"coordinates":[6319,2398]},{"type":"Point","properties":{"Station_ID":"MA-FR-31","Station_Nam":"COLRAIN 3.7 WNW, MA","Latitude":"42.68716","Longitude":"-72.75112","Snowdepth":"8.000","Units":"in","Rept_Date":"2020-03-24 12"},"coordinates":[5747,1280]},{"type":"Point","properties":{"Station_ID":"MA-FR-17","Station_Nam":"BUCKLAND 1.8 ESE, MA","Latitude":"42.58900","Longitude":"-72.75110","Snowdepth":"8.000","Units":"in","Rept_Date":"2020-03-24 13"},"coordinates":[5747,1185]},{"type":"Point","properties":{"Station_ID":"LNCM1","Station_Nam":"LINCOLN WATER DISTRICT","Latitude":"45.32410","Longitude":"-68.58300","Snowdepth":"8.000","Units":"in","Rept_Date":"2020-03-24 11"},"coordinates":[6725,3823]},{"type":"Point","properties":{"Station_ID":"JAPN3","Station_Nam":"JAFFREY SILVER RANCH AIRPARK","Latitude":"42.80880","Longitude":"-72.00530","Snowdepth":"8.000","Units":"in","Rept_Date":"2020-03-24 11"},"coordinates":[5922,1397]},{"type":"Point","properties":{"Station_ID":"HOLM1","Station_Nam":"HOLLIS","Latitude":"43.64750","Longitude":"-70.67490","Snowdepth":"8.000","Units":"in","Rept_Date":"2020-03-24 11"},"coordinates":[6234,2206]},{"type":"Point","properties":{"Station_ID":"HMPN3","Station_Nam":"WEST HAMPSTEAD","Latitude":"42.91080","Longitude":"-71.20200","Snowdepth":"8.000","Units":"in","Rept_Date":"2020-03-24 10"},"coordinates":[6111,1496]},{"type":"Point","properties":{"Station_ID":"GRFN8","Station_Nam":"UNIVERSITY","Latitude":"47.93330","Longitude":"-97.08330","Snowdepth":"8.000","Units":"in","Rept_Date":"2020-03-25 05"},"coordinates":[36,6340]},{"type":"Point","properties":{"Station_ID":"DURM1","Station_Nam":"DURHAM","Latitude":"43.99960","Longitude":"-70.09630","Snowdepth":"8.000","Units":"in","Rept_Date":"2020-03-24 11"},"coordinates":[6370,2546]},{"type":"Point","properties":{"Station_ID":"DHMM1","Station_Nam":"DEDHAM","Latitude":"44.67880","Longitude":"-68.63560","Snowdepth":"8.000","Units":"in","Rept_Date":"2020-03-24 11"},"coordinates":[6713,3201]},{"type":"Point","properties":{"Station_ID":"CORM1","Station_Nam":"CORINNA","Latitude":"44.91980","Longitude":"-69.24180","Snowdepth":"8.000","Units":"in","Rept_Date":"2020-03-24 15"},"coordinates":[6571,3434]},{"type":"Point","properties":{"Station_ID":"CNKN6","Station_Nam":"CONKLINGVILLE DAM","Latitude":"43.32030","Longitude":"-73.92560","Snowdepth":"8.000","Units":"in","Rept_Date":"2020-03-24 12"},"coordinates":[5471,1891]},{"type":"Point","properties":{"Station_ID":"CAN-ON-245","Station_Nam":"PHELPSTON 3.1 ESE, CAN","Latitude":"44.50564","Longitude":"-79.81035","Snowdepth":"8.000","Units":"in","Rept_Date":"2020-03-24 14"},"coordinates":[4090,3034]},{"type":"Point","properties":{"Station_ID":"ME-CM-54","Station_Nam":"WINDHAM 3.9 NW, ME","Latitude":"43.85787","Longitude":"-70.46200","Snowdepth":"7.900","Units":"in","Rept_Date":"2020-03-24 12"},"coordinates":[6284,2409]},{"type":"Point","properties":{"Station_ID":"VT-AD-24","Station_Nam":"MIDDLEBURY 0.3 N, VT","Latitude":"44.01808","Longitude":"-73.16844","Snowdepth":"7.800","Units":"in","Rept_Date":"2020-03-24 09"},"coordinates":[5649,2564]},{"type":"Point","properties":{"Station_ID":"NY-FL-7","Station_Nam":"BROADALBIN 4.7 ESE, NY","Latitude":"43.03940","Longitude":"-74.10845","Snowdepth":"7.800","Units":"in","Rept_Date":"2020-03-24 14"},"coordinates":[5428,1620]},{"type":"Point","properties":{"Station_ID":"ME-AN-41","Station_Nam":"AUBURN 2.1 NNW, ME","Latitude":"44.11275","Longitude":"-70.26452","Snowdepth":"7.800","Units":"in","Rept_Date":"2020-03-24 12"},"coordinates":[6331,2655]},{"type":"Point","properties":{"Station_ID":"NY-SR-4","Station_Nam":"SARATOGA SPRINGS 0.5 S, NY","Latitude":"43.06032","Longitude":"-73.78010","Snowdepth":"7.700","Units":"in","Rept_Date":"2020-03-24 11"},"coordinates":[5506,1640]},{"type":"Point","properties":{"Station_ID":"CAN-NB-16","Station_Nam":"DORCHESTER 1.0 SSE, CAN","Latitude":"45.89160","Longitude":"-64.51269","Snowdepth":"7.600","Units":"in","Rept_Date":"2020-03-24 11"},"coordinates":[7681,4371]},{"type":"Point","properties":{"Station_ID":"VT-WS-30","Station_Nam":"WOODBURY 3.4 NNW, VT","Latitude":"44.48825","Longitude":"-72.43258","Snowdepth":"7.500","Units":"in","Rept_Date":"2020-03-24 12"},"coordinates":[5822,3017]},{"type":"Point","properties":{"Station_ID":"NY-WR-17","Station_Nam":"LAKE GEORGE 1.0 N, NY","Latitude":"43.44030","Longitude":"-73.71260","Snowdepth":"7.500","Units":"in","Rept_Date":"2020-03-24 11"},"coordinates":[5521,2007]},{"type":"Point","properties":{"Station_ID":"NY-OD-2","Station_Nam":"POINT ROCK 0.6 SE, NY","Latitude":"43.37335","Longitude":"-75.53840","Snowdepth":"7.500","Units":"in","Rept_Date":"2020-03-24 13"},"coordinates":[5093,1942]},{"type":"Point","properties":{"Station_ID":"NH-MR-4","Station_Nam":"BOW 1.6 NW, NH","Latitude":"43.14994","Longitude":"-71.55650","Snowdepth":"7.500","Units":"in","Rept_Date":"2020-03-24 12"},"coordinates":[6027,1727]},{"type":"Point","properties":{"Station_ID":"NH-CR-27","Station_Nam":"TAMWORTH 0.4 NNW, NH","Latitude":"43.86449","Longitude":"-71.26610","Snowdepth":"7.500","Units":"in","Rept_Date":"2020-03-24 12"},"coordinates":[6096,2416]},{"type":"Point","properties":{"Station_ID":"ME-WL-8","Station_Nam":"WINTERPORT 2.9 N, ME","Latitude":"44.69369","Longitude":"-68.84800","Snowdepth":"7.500","Units":"in","Rept_Date":"2020-03-24 12"},"coordinates":[6663,3215]},{"type":"Point","properties":{"Station_ID":"ME-PN-55","Station_Nam":"ORONO 1.1 SSW, ME","Latitude":"44.87005","Longitude":"-68.69446","Snowdepth":"7.500","Units":"in","Rept_Date":"2020-03-24 12"},"coordinates":[6699,3386]},{"type":"Point","properties":{"Station_ID":"WI-BN-6","Station_Nam":"SUAMICO 4.4 WNW, WI","Latitude":"44.66111","Longitude":"-88.11780","Snowdepth":"7.300","Units":"in","Rept_Date":"2020-03-24 13"},"coordinates":[2141,3184]},{"type":"Point","properties":{"Station_ID":"ME-YK-65","Station_Nam":"NORTH BERWICK 5.3 W, ME","Latitude":"43.29801","Longitude":"-70.83956","Snowdepth":"7.300","Units":"in","Rept_Date":"2020-03-24 11"},"coordinates":[6196,1869]},{"type":"Point","properties":{"Station_ID":"NH-MR-47","Station_Nam":"DUNBARTON 3.8 SE, NH","Latitude":"43.08532","Longitude":"-71.54419","Snowdepth":"7.100","Units":"in","Rept_Date":"2020-03-24 11"},"coordinates":[6030,1664]},{"type":"Point","properties":{"Station_ID":"WTHN6","Station_Nam":"WHITEHALL LOCK C12","Latitude":"43.55000","Longitude":"-73.40000","Snowdepth":"7.000","Units":"in","Rept_Date":"2020-03-24 12"},"coordinates":[5595,2112]},{"type":"Point","properties":{"Station_ID":"WI-SR-5","Station_Nam":"HAYWARD 9.7 NE, WI","Latitude":"46.12030","Longitude":"-91.35370","Snowdepth":"7.000","Units":"in","Rept_Date":"2020-03-24 14"},"coordinates":[1381,4591]},{"type":"Point","properties":{"Station_ID":"WI-PR-6","Station_Nam":"PHILLIPS 1.3 S, WI","Latitude":"45.67677","Longitude":"-90.39543","Snowdepth":"7.000","Units":"in","Rept_Date":"2020-03-24 12"},"coordinates":[1606,4164]},{"type":"Point","properties":{"Station_ID":"WENN3","Station_Nam":"P.O. BOX 197 WENTWORTH, NH","Latitude":"43.95190","Longitude":"-71.91560","Snowdepth":"7.000","Units":"in","Rept_Date":"2020-03-24 11"},"coordinates":[5943,2500]},{"type":"Point","properties":{"Station_ID":"VT-WR-20","Station_Nam":"QUECHEE 0.7 N, VT","Latitude":"43.65661","Longitude":"-72.41884","Snowdepth":"7.000","Units":"in","Rept_Date":"2020-03-24 12"},"coordinates":[5825,2215]},{"type":"Point","properties":{"Station_ID":"VT-WH-17","Station_Nam":"ROCKINGHAM 1.1 NNE, VT","Latitude":"43.20388","Longitude":"-72.48222","Snowdepth":"7.000","Units":"in","Rept_Date":"2020-03-24 12"},"coordinates":[5810,1779]},{"type":"Point","properties":{"Station_ID":"VT-OL-1","Station_Nam":"WESTFIELD 0.7 WNW, VT","Latitude":"44.89160","Longitude":"-72.44350","Snowdepth":"7.000","Units":"in","Rept_Date":"2020-03-24 12"},"coordinates":[5819,3406]},{"type":"Point","properties":{"Station_ID":"VRGV1","Station_Nam":"VERGENNES","Latitude":"44.17190","Longitude":"-73.24720","Snowdepth":"7.000","Units":"in","Rept_Date":"2020-03-24 10"},"coordinates":[5631,2712]},{"type":"Point","properties":{"Station_ID":"SLNV1","Station_Nam":"SOUTH LINCOLN","Latitude":"44.07460","Longitude":"-72.97180","Snowdepth":"7.000","Units":"in","Rept_Date":"2020-03-24 11"},"coordinates":[5695,2618]},{"type":"Point","properties":{"Station_ID":"SJBV1","Station_Nam":"SAINT JOHNSBURY","Latitude":"44.42000","Longitude":"-72.01940","Snowdepth":"7.000","Units":"in","Rept_Date":"2020-03-24 20"},"coordinates":[5919,2951]},{"type":"Point","properties":{"Station_ID":"NY-SR-16","Station_Nam":"BALLSTON SPA 2.9 ESE, NY","Latitude":"42.99000","Longitude":"-73.80000","Snowdepth":"7.000","Units":"in","Rept_Date":"2020-03-24 13"},"coordinates":[5501,1572]},{"type":"Point","properties":{"Station_ID":"NY-SC-2","Station_Nam":"SCOTIA 1.1 NW, NY","Latitude":"42.84473","Longitude":"-73.97480","Snowdepth":"7.000","Units":"in","Rept_Date":"2020-03-24 11"},"coordinates":[5460,1432]},{"type":"Point","properties":{"Station_ID":"NY-OD-43","Station_Nam":"HOLLAND PATENT 1.1 WNW, NY","Latitude":"43.24707","Longitude":"-75.27750","Snowdepth":"7.000","Units":"in","Rept_Date":"2020-03-24 12"},"coordinates":[5154,1820]},{"type":"Point","properties":{"Station_ID":"NY-GR-7","Station_Nam":"GREENVILLE 0.7 E, NY","Latitude":"42.41400","Longitude":"-74.00900","Snowdepth":"7.000","Units":"in","Rept_Date":"2020-03-24 12"},"coordinates":[5452,1017]},{"type":"Point","properties":{"Station_ID":"NVLN6","Station_Nam":"NORTHVILLE","Latitude":"43.23330","Longitude":"-74.16670","Snowdepth":"7.000","Units":"in","Rept_Date":"2020-03-24 12"},"coordinates":[5415,1807]},{"type":"Point","properties":{"Station_ID":"NH-ST-40","Station_Nam":"BARRINGTON 3.2 E, NH","Latitude":"43.21353","Longitude":"-70.98472","Snowdepth":"7.000","Units":"in","Rept_Date":"2020-03-24 12"},"coordinates":[6162,1788]},{"type":"Point","properties":{"Station_ID":"NH-ST-31","Station_Nam":"STRAFFORD 2.9 N, NH","Latitude":"43.31175","Longitude":"-71.13510","Snowdepth":"7.000","Units":"in","Rept_Date":"2020-03-24 13"},"coordinates":[6126,1883]},{"type":"Point","properties":{"Station_ID":"NH-SL-3","Station_Nam":"WEST UNITY 0.7 WSW, NH","Latitude":"43.28652","Longitude":"-72.32970","Snowdepth":"7.000","Units":"in","Rept_Date":"2020-03-24 12"},"coordinates":[5846,1858]},{"type":"Point","properties":{"Station_ID":"NH-RC-48","Station_Nam":"NORTHWOOD 2.9 WSW, NH","Latitude":"43.20114","Longitude":"-71.25750","Snowdepth":"7.000","Units":"in","Rept_Date":"2020-03-24 12"},"coordinates":[6098,1776]},{"type":"Point","properties":{"Station_ID":"NH-MR-6","Station_Nam":"DANBURY 2.2 ESE, NH","Latitude":"43.52000","Longitude":"-71.81900","Snowdepth":"7.000","Units":"in","Rept_Date":"2020-03-24 13"},"coordinates":[5966,2083]},{"type":"Point","properties":{"Station_ID":"NH-MR-45","Station_Nam":"NORTHFIELD 2.8 E, NH","Latitude":"43.43945","Longitude":"-71.53730","Snowdepth":"7.000","Units":"in","Rept_Date":"2020-03-24 11"},"coordinates":[6032,2006]},{"type":"Point","properties":{"Station_ID":"NH-HL-49","Station_Nam":"MONT VERNON 1.3 SSW, NH","Latitude":"42.87616","Longitude":"-71.68280","Snowdepth":"7.000","Units":"in","Rept_Date":"2020-03-24 11"},"coordinates":[5998,1462]},{"type":"Point","properties":{"Station_ID":"NCON3","Station_Nam":"NORTH CONWAY","Latitude":"44.05620","Longitude":"-71.12970","Snowdepth":"7.000","Units":"in","Rept_Date":"2020-03-24 12"},"coordinates":[6128,2601]},{"type":"Point","properties":{"Station_ID":"MRLV1","Station_Nam":"MARLBORO","Latitude":"42.86000","Longitude":"-72.72000","Snowdepth":"7.000","Units":"in","Rept_Date":"2020-03-24 13"},"coordinates":[5754,1447]},{"type":"Point","properties":{"Station_ID":"MN-BM-15","Station_Nam":"BEMIDJI 7.8 ENE, MN","Latitude":"47.52043","Longitude":"-94.72121","Snowdepth":"7.000","Units":"in","Rept_Date":"2020-03-24 13"},"coordinates":[591,5942]},{"type":"Point","properties":{"Station_ID":"MN-AT-5","Station_Nam":"TAMARACK 1.4 SW, MN","Latitude":"46.63760","Longitude":"-93.14554","Snowdepth":"7.000","Units":"in","Rept_Date":"2020-03-24 11"},"coordinates":[961,5090]},{"type":"Point","properties":{"Station_ID":"MI-OT-16","Station_Nam":"GAYLORD 2.2 SSE, MI","Latitude":"44.99441","Longitude":"-84.65820","Snowdepth":"7.000","Units":"in","Rept_Date":"2020-03-24 14"},"coordinates":[2953,3505]},{"type":"Point","properties":{"Station_ID":"ME-YK-48","Station_Nam":"ACTON 2.7 NW, ME","Latitude":"43.56581","Longitude":"-70.94300","Snowdepth":"7.000","Units":"in","Rept_Date":"2020-03-24 10"},"coordinates":[6171,2128]},{"type":"Point","properties":{"Station_ID":"ME-WL-27","Station_Nam":"PROSPECT 2.6 W, ME","Latitude":"44.55719","Longitude":"-68.91732","Snowdepth":"7.000","Units":"in","Rept_Date":"2020-03-24 11"},"coordinates":[6647,3084]},{"type":"Point","properties":{"Station_ID":"ME-CM-98","Station_Nam":"SEBAGO 2.4 ESE, ME","Latitude":"43.88000","Longitude":"-70.63000","Snowdepth":"7.000","Units":"in","Rept_Date":"2020-03-24 13"},"coordinates":[6245,2431]},{"type":"Point","properties":{"Station_ID":"ME-CM-18","Station_Nam":"PORTLAND 5.5 WNW, ME","Latitude":"43.70288","Longitude":"-70.30550","Snowdepth":"7.000","Units":"in","Rept_Date":"2020-03-24 12"},"coordinates":[6321,2260]},{"type":"Point","properties":{"Station_ID":"KGFK","Station_Nam":"GRAND FORKS INTERNATIONAL","Latitude":"47.95000","Longitude":"-97.18333","Snowdepth":"7.000","Units":"in","Rept_Date":"2020-03-25 00"},"coordinates":[13,6356]},{"type":"Point","properties":{"Station_ID":"ISLV1","Station_Nam":"ISLAND POND","Latitude":"44.81280","Longitude":"-71.89020","Snowdepth":"7.000","Units":"in","Rept_Date":"2020-03-24 11"},"coordinates":[5949,3330]},{"type":"Point","properties":{"Station_ID":"GYX","Station_Nam":"PORTLAND, ME","Latitude":"43.89250","Longitude":"-70.25500","Snowdepth":"7.000","Units":"in","Rept_Date":"2020-03-24 12"},"coordinates":[6333,2443]},{"type":"Point","properties":{"Station_ID":"GFK","Station_Nam":"GRAND FORKS INTERNATIONAL AIRPORT","Latitude":"47.94920","Longitude":"-97.17610","Snowdepth":"7.000","Units":"in","Rept_Date":"2020-03-25 00"},"coordinates":[15,6355]},{"type":"Point","properties":{"Station_ID":"EGRW3","Station_Nam":"EAGLE RIVER-SOUTH","Latitude":"45.91360","Longitude":"-89.24360","Snowdepth":"7.000","Units":"in","Rept_Date":"2020-03-24 12"},"coordinates":[1876,4392]},{"type":"Point","properties":{"Station_ID":"CON","Station_Nam":"CONCORD MUNI ARPT","Latitude":"43.20280","Longitude":"-71.50220","Snowdepth":"7.000","Units":"in","Rept_Date":"2020-03-24 12"},"coordinates":[6040,1777]},{"type":"Point","properties":{"Station_ID":"BREW3","Station_Nam":"SURING","Latitude":"44.99580","Longitude":"-88.37860","Snowdepth":"7.000","Units":"in","Rept_Date":"2020-03-24 11"},"coordinates":[2079,3507]},{"type":"Point","properties":{"Station_ID":"BRAM5","Station_Nam":"BRAINERD","Latitude":"46.34320","Longitude":"-94.20900","Snowdepth":"7.000","Units":"in","Rept_Date":"2020-03-24 12"},"coordinates":[711,4806]},{"type":"Point","properties":{"Station_ID":"BGR","Station_Nam":"BANGOR INTERNATIONAL AIRPORT","Latitude":"44.79780","Longitude":"-68.81840","Snowdepth":"7.000","Units":"in","Rept_Date":"2020-03-24 12"},"coordinates":[6670,3316]},{"type":"Point","properties":{"Station_ID":"BDDN3","Station_Nam":"BRADFORD 2","Latitude":"43.25880","Longitude":"-72.00210","Snowdepth":"7.000","Units":"in","Rept_Date":"2020-03-24 14"},"coordinates":[5923,1831]},{"type":"Point","properties":{"Station_ID":"BAGM4","Station_Nam":"BARAGA 7NW","Latitude":"46.82100","Longitude":"-88.60590","Snowdepth":"7.000","Units":"in","Rept_Date":"2020-03-24 12"},"coordinates":[2026,5267]},{"type":"Point","properties":{"Station_ID":"ASTW3","Station_Nam":"ATHELSTANE","Latitude":"45.42500","Longitude":"-88.05750","Snowdepth":"7.000","Units":"in","Rept_Date":"2020-03-24 11"},"coordinates":[2155,3921]},{"type":"Point","properties":{"Station_ID":"AROM4","Station_Nam":"ARNOLD,MI","Latitude":"46.06670","Longitude":"-87.48330","Snowdepth":"7.000","Units":"in","Rept_Date":"2020-03-24 12"},"coordinates":[2290,4540]},{"type":"Point","properties":{"Station_ID":"NH-MR-55","Station_Nam":"CANTERBURY 2.5 SSW, NH","Latitude":"43.30277","Longitude":"-71.57893","Snowdepth":"6.800","Units":"in","Rept_Date":"2020-03-24 13"},"coordinates":[6022,1874]},{"type":"Point","properties":{"Station_ID":"CAN-NB-98","Station_Nam":"HOYT 4.2 S, CAN","Latitude":"45.54763","Longitude":"-66.55440","Snowdepth":"6.700","Units":"in","Rept_Date":"2020-03-24 10"},"coordinates":[7201,4039]},{"type":"Point","properties":{"Station_ID":"VT-RT-13","Station_Nam":"WEST RUTLAND 0.9 SSE, VT","Latitude":"43.58063","Longitude":"-73.04067","Snowdepth":"6.600","Units":"in","Rept_Date":"2020-03-24 13"},"coordinates":[5679,2142]},{"type":"Point","properties":{"Station_ID":"VT-WH-29","Station_Nam":"BRATTLEBORO 0.7 S, VT","Latitude":"42.84030","Longitude":"-72.55580","Snowdepth":"6.500","Units":"in","Rept_Date":"2020-03-24 12"},"coordinates":[5793,1428]},{"type":"Point","properties":{"Station_ID":"VT-LM-7","Station_Nam":"HYDE PARK 2.9 NE, VT","Latitude":"44.62080","Longitude":"-72.57250","Snowdepth":"6.500","Units":"in","Rept_Date":"2020-03-24 13"},"coordinates":[5789,3145]},{"type":"Point","properties":{"Station_ID":"NY-SR-35","Station_Nam":"ROUND LAKE 4.1 NE, NY","Latitude":"42.97760","Longitude":"-73.73750","Snowdepth":"6.500","Units":"in","Rept_Date":"2020-03-24 12"},"coordinates":[5516,1560]},{"type":"Point","properties":{"Station_ID":"NY-OD-23","Station_Nam":"DURHAMVILLE 3.5 NNW, NY","Latitude":"43.17115","Longitude":"-75.68280","Snowdepth":"6.500","Units":"in","Rept_Date":"2020-03-24 12"},"coordinates":[5059,1747]},{"type":"Point","properties":{"Station_ID":"NY-MG-5","Station_Nam":"AMSTERDAM 1.0 NNW, NY","Latitude":"42.95467","Longitude":"-74.20085","Snowdepth":"6.500","Units":"in","Rept_Date":"2020-03-24 13"},"coordinates":[5407,1538]},{"type":"Point","properties":{"Station_ID":"NH-MR-41","Station_Nam":"NEWBURY 1.6 NW, NH","Latitude":"43.33667","Longitude":"-72.06060","Snowdepth":"6.500","Units":"in","Rept_Date":"2020-03-24 12"},"coordinates":[5909,1907]},{"type":"Point","properties":{"Station_ID":"NH-HL-19","Station_Nam":"BROOKLINE 2.1 SW, NH","Latitude":"42.71235","Longitude":"-71.69760","Snowdepth":"6.500","Units":"in","Rept_Date":"2020-03-24 12"},"coordinates":[5994,1304]},{"type":"Point","properties":{"Station_ID":"NH-BK-7","Station_Nam":"LACONIA 7.9 E, NH","Latitude":"43.55415","Longitude":"-71.32310","Snowdepth":"6.500","Units":"in","Rept_Date":"2020-03-24 12"},"coordinates":[6082,2116]},{"type":"Point","properties":{"Station_ID":"ME-AN-43","Station_Nam":"LISBON 0.6 S, ME","Latitude":"44.02320","Longitude":"-70.10550","Snowdepth":"6.500","Units":"in","Rept_Date":"2020-03-24 12"},"coordinates":[6368,2569]},{"type":"Point","properties":{"Station_ID":"ME-AN-40","Station_Nam":"MECHANIC FALLS 2.7 S, ME","Latitude":"44.07342","Longitude":"-70.40151","Snowdepth":"6.500","Units":"in","Rept_Date":"2020-03-24 22"},"coordinates":[6298,2617]},{"type":"Point","properties":{"Station_ID":"MA-HS-7","Station_Nam":"PLAINFIELD 2.2 SW, MA","Latitude":"42.49272","Longitude":"-72.94540","Snowdepth":"6.500","Units":"in","Rept_Date":"2020-03-24 13"},"coordinates":[5701,1093]},{"type":"Point","properties":{"Station_ID":"MA-HS-14","Station_Nam":"PLAINFIELD 2.4 ESE, MA","Latitude":"42.49792","Longitude":"-72.87769","Snowdepth":"6.500","Units":"in","Rept_Date":"2020-03-24 12"},"coordinates":[5717,1098]},{"type":"Point","properties":{"Station_ID":"NH-HL-25","Station_Nam":"AMHERST 3.7 NNE, NH","Latitude":"42.91409","Longitude":"-71.61020","Snowdepth":"6.300","Units":"in","Rept_Date":"2020-03-24 11"},"coordinates":[6015,1499]},{"type":"Point","properties":{"Station_ID":"NY-SC-20","Station_Nam":"ROTTERDAM 0.9 NW, NY","Latitude":"42.78862","Longitude":"-73.96671","Snowdepth":"6.200","Units":"in","Rept_Date":"2020-03-24 11"},"coordinates":[5462,1378]},{"type":"Point","properties":{"Station_ID":"MA-HS-8","Station_Nam":"WILLIAMSBURG 1.2 WSW, MA","Latitude":"42.39169","Longitude":"-72.73840","Snowdepth":"6.200","Units":"in","Rept_Date":"2020-03-24 11"},"coordinates":[5750,995]},{"type":"Point","properties":{"Station_ID":"WORM3","Station_Nam":"WORTHINGTON","Latitude":"42.38690","Longitude":"-72.92100","Snowdepth":"6.000","Units":"in","Rept_Date":"2020-03-24 11"},"coordinates":[5707,991]},{"type":"Point","properties":{"Station_ID":"WOLN3","Station_Nam":"WOLFEBORO","Latitude":"43.59020","Longitude":"-71.20190","Snowdepth":"6.000","Units":"in","Rept_Date":"2020-03-24 12"},"coordinates":[6111,2151]},{"type":"Point","properties":{"Station_ID":"WI-WB-2","Station_Nam":"STONE LAKE 2.0 NW, WI","Latitude":"45.85960","Longitude":"-91.57710","Snowdepth":"6.000","Units":"in","Rept_Date":"2020-03-24 13"},"coordinates":[1329,4340]},{"type":"Point","properties":{"Station_ID":"WHPN3","Station_Nam":"HOPKINTON LAKE","Latitude":"43.18900","Longitude":"-71.74600","Snowdepth":"6.000","Units":"in","Rept_Date":"2020-03-24 11"},"coordinates":[5983,1764]},{"type":"Point","properties":{"Station_ID":"VT-WS-23","Station_Nam":"CABOT 2.3 E, VT","Latitude":"44.39807","Longitude":"-72.26570","Snowdepth":"6.000","Units":"in","Rept_Date":"2020-03-24 12"},"coordinates":[5861,2930]},{"type":"Point","properties":{"Station_ID":"VT-RT-7","Station_Nam":"RUTLAND 1.2 N, VT","Latitude":"43.62533","Longitude":"-72.97790","Snowdepth":"6.000","Units":"in","Rept_Date":"2020-03-24 12"},"coordinates":[5694,2185]},{"type":"Point","properties":{"Station_ID":"VT-RT-24","Station_Nam":"MIDDLETOWN SPRINGS 0.9 WNW, VT","Latitude":"43.49194","Longitude":"-73.13350","Snowdepth":"6.000","Units":"in","Rept_Date":"2020-03-24 12"},"coordinates":[5657,2056]},{"type":"Point","properties":{"Station_ID":"VT-OL-2","Station_Nam":"BARTON 3.0 ENE, VT","Latitude":"44.75863","Longitude":"-72.11680","Snowdepth":"6.000","Units":"in","Rept_Date":"2020-03-24 12"},"coordinates":[5896,3278]},{"type":"Point","properties":{"Station_ID":"VT-LM-1","Station_Nam":"STOWE 0.2 SW, VT","Latitude":"44.46399","Longitude":"-72.69070","Snowdepth":"6.000","Units":"in","Rept_Date":"2020-03-24 12"},"coordinates":[5761,2994]},{"type":"Point","properties":{"Station_ID":"VT-CH-38","Station_Nam":"WILLISTON 0.2 WSW, VT","Latitude":"44.43669","Longitude":"-73.07154","Snowdepth":"6.000","Units":"in","Rept_Date":"2020-03-24 12"},"coordinates":[5672,2968]},{"type":"Point","properties":{"Station_ID":"SURN3","Station_Nam":"SURRY MOUNTAIN LAKE","Latitude":"42.99630","Longitude":"-72.31310","Snowdepth":"6.000","Units":"in","Rept_Date":"2020-03-24 11"},"coordinates":[5850,1578]},{"type":"Point","properties":{"Station_ID":"RUTV1","Station_Nam":"RUTLAND","Latitude":"43.62530","Longitude":"-72.97810","Snowdepth":"6.000","Units":"in","Rept_Date":"2020-03-24 11"},"coordinates":[5694,2185]},{"type":"Point","properties":{"Station_ID":"ROWM3","Station_Nam":"ROWE 3NE","Latitude":"42.73500","Longitude":"-72.86920","Snowdepth":"6.000","Units":"in","Rept_Date":"2020-03-24 13"},"coordinates":[5719,1326]},{"type":"Point","properties":{"Station_ID":"PHON6","Station_Nam":"PHOENICIA 2SW","Latitude":"42.06420","Longitude":"-74.34080","Snowdepth":"6.000","Units":"in","Rept_Date":"2020-03-24 10"},"coordinates":[5374,679]},{"type":"Point","properties":{"Station_ID":"OCON6","Station_Nam":"OSCEOLA","Latitude":"43.49910","Longitude":"-75.71210","Snowdepth":"6.000","Units":"in","Rept_Date":"2020-03-24 11"},"coordinates":[5052,2063]},{"type":"Point","properties":{"Station_ID":"NY-RN-20","Station_Nam":"TROY 2.1 NNE, NY","Latitude":"42.75930","Longitude":"-73.65283","Snowdepth":"6.000","Units":"in","Rept_Date":"2020-03-24 13"},"coordinates":[5535,1350]},{"type":"Point","properties":{"Station_ID":"NY-OG-12","Station_Nam":"CLAY 4.6 NW, NY","Latitude":"43.20000","Longitude":"-76.26000","Snowdepth":"6.000","Units":"in","Rept_Date":"2020-03-24 12"},"coordinates":[4924,1775]},{"type":"Point","properties":{"Station_ID":"NY-MD-22","Station_Nam":"ONEIDA 0.4 NW, NY","Latitude":"43.08012","Longitude":"-75.66860","Snowdepth":"6.000","Units":"in","Rept_Date":"2020-03-24 12"},"coordinates":[5062,1659]},{"type":"Point","properties":{"Station_ID":"NY-GR-13","Station_Nam":"TANNERSVILLE 4.5 SSE, NY","Latitude":"42.13884","Longitude":"-74.08697","Snowdepth":"6.000","Units":"in","Rept_Date":"2020-03-24 14"},"coordinates":[5434,751]},{"type":"Point","properties":{"Station_ID":"NY-AB-54","Station_Nam":"ALTAMONT 2.9 SW, NY","Latitude":"42.68182","Longitude":"-74.08326","Snowdepth":"6.000","Units":"in","Rept_Date":"2020-03-24 12"},"coordinates":[5434,1275]},{"type":"Point","properties":{"Station_ID":"NSKN6","Station_Nam":"NISKAYUNA","Latitude":"42.79580","Longitude":"-73.87670","Snowdepth":"6.000","Units":"in","Rept_Date":"2020-03-24 11"},"coordinates":[5483,1385]},{"type":"Point","properties":{"Station_ID":"NH-ST-19","Station_Nam":"DOVER 0.8 E, NH","Latitude":"43.18762","Longitude":"-70.86850","Snowdepth":"6.000","Units":"in","Rept_Date":"2020-03-24 13"},"coordinates":[6189,1763]},{"type":"Point","properties":{"Station_ID":"NH-RC-18","Station_Nam":"DEERFIELD 3.2 WSW, NH","Latitude":"43.13350","Longitude":"-71.27940","Snowdepth":"6.000","Units":"in","Rept_Date":"2020-03-24 12"},"coordinates":[6092,1711]},{"type":"Point","properties":{"Station_ID":"NH-MR-63","Station_Nam":"SUTTON MILLS 0.1 ENE, NH","Latitude":"43.33522","Longitude":"-71.95126","Snowdepth":"6.000","Units":"in","Rept_Date":"2020-03-24 12"},"coordinates":[5935,1905]},{"type":"Point","properties":{"Station_ID":"NH-GR-1","Station_Nam":"BRISTOL 0.4 SSE, NH","Latitude":"43.59490","Longitude":"-71.74140","Snowdepth":"6.000","Units":"in","Rept_Date":"2020-03-24 12"},"coordinates":[5984,2156]},{"type":"Point","properties":{"Station_ID":"NH-BK-9","Station_Nam":"MEREDITH 2.9 SSW, NH","Latitude":"43.62245","Longitude":"-71.53510","Snowdepth":"6.000","Units":"in","Rept_Date":"2020-03-24 11"},"coordinates":[6032,2182]},{"type":"Point","properties":{"Station_ID":"NH-BK-1","Station_Nam":"TILTON NORTHFIELD 3.3 NE, NH","Latitude":"43.48000","Longitude":"-71.55000","Snowdepth":"6.000","Units":"in","Rept_Date":"2020-03-24 12"},"coordinates":[6029,2045]},{"type":"Point","properties":{"Station_ID":"MI-OT-4","Station_Nam":"GAYLORD 1.7 WNW, MI","Latitude":"45.03280","Longitude":"-84.71090","Snowdepth":"6.000","Units":"in","Rept_Date":"2020-03-24 13"},"coordinates":[2940,3543]},{"type":"Point","properties":{"Station_ID":"MHT","Station_Nam":"MANCHESTER AIRPORT GRENIER INDSTRL ARPK","Latitude":"42.93440","Longitude":"-71.43690","Snowdepth":"6.000","Units":"in","Rept_Date":"2020-03-24 12"},"coordinates":[6055,1519]},{"type":"Point","properties":{"Station_ID":"ME-YK-52","Station_Nam":"YORK 5.2 N, ME","Latitude":"43.23585","Longitude":"-70.63400","Snowdepth":"6.000","Units":"in","Rept_Date":"2020-03-24 12"},"coordinates":[6244,1809]},{"type":"Point","properties":{"Station_ID":"ME-WL-24","Station_Nam":"SWANVILLE 2.7 S, ME","Latitude":"44.48374","Longitude":"-69.00646","Snowdepth":"6.000","Units":"in","Rept_Date":"2020-03-24 12"},"coordinates":[6626,3013]},{"type":"Point","properties":{"Station_ID":"ME-WL-12","Station_Nam":"SEARSMONT 3.5 WNW, ME","Latitude":"44.37680","Longitude":"-69.26160","Snowdepth":"6.000","Units":"in","Rept_Date":"2020-03-24 12"},"coordinates":[6566,2910]},{"type":"Point","properties":{"Station_ID":"ME-LN-21","Station_Nam":"WESTPORT ISLAND 2.2 SSW, ME","Latitude":"43.88806","Longitude":"-69.70890","Snowdepth":"6.000","Units":"in","Rept_Date":"2020-03-24 13"},"coordinates":[6461,2438]},{"type":"Point","properties":{"Station_ID":"ME-KX-10","Station_Nam":"UNION 2.1 NNE, ME","Latitude":"44.23693","Longitude":"-69.27170","Snowdepth":"6.000","Units":"in","Rept_Date":"2020-03-24 12"},"coordinates":[6564,2775]},{"type":"Point","properties":{"Station_ID":"ME-KB-6","Station_Nam":"WINSLOW 1.2 SSE, ME","Latitude":"44.53579","Longitude":"-69.60290","Snowdepth":"6.000","Units":"in","Rept_Date":"2020-03-24 12"},"coordinates":[6486,3063]},{"type":"Point","properties":{"Station_ID":"ME-KB-25","Station_Nam":"SIDNEY 2.6 NNW, ME","Latitude":"44.44985","Longitude":"-69.73840","Snowdepth":"6.000","Units":"in","Rept_Date":"2020-03-24 12"},"coordinates":[6454,2980]},{"type":"Point","properties":{"Station_ID":"MA-FR-10","Station_Nam":"CONWAY 0.9 SW, MA","Latitude":"42.50879","Longitude":"-72.69730","Snowdepth":"6.000","Units":"in","Rept_Date":"2020-03-24 13"},"coordinates":[5760,1108]},{"type":"Point","properties":{"Station_ID":"LKPN3","Station_Nam":"LAKEPORT 2","Latitude":"43.54910","Longitude":"-71.46450","Snowdepth":"6.000","Units":"in","Rept_Date":"2020-03-24 11"},"coordinates":[6049,2111]},{"type":"Point","properties":{"Station_ID":"LACN3","Station_Nam":"LACONIA","Latitude":"43.53010","Longitude":"-71.46260","Snowdepth":"6.000","Units":"in","Rept_Date":"2020-03-24 12"},"coordinates":[6049,2093]},{"type":"Point","properties":{"Station_ID":"JOHV1","Station_Nam":"JOHNSON 2 N","Latitude":"44.65790","Longitude":"-72.67850","Snowdepth":"6.000","Units":"in","Rept_Date":"2020-03-24 11"},"coordinates":[5764,3181]},{"type":"Point","properties":{"Station_ID":"JEFV1","Station_Nam":"JEFFERSONVILLE","Latitude":"44.58430","Longitude":"-72.78700","Snowdepth":"6.000","Units":"in","Rept_Date":"2020-03-24 11"},"coordinates":[5739,3110]},{"type":"Point","properties":{"Station_ID":"GRMM1","Station_Nam":"GORHAM","Latitude":"43.67440","Longitude":"-70.43900","Snowdepth":"6.000","Units":"in","Rept_Date":"2020-03-24 12"},"coordinates":[6290,2232]},{"type":"Point","properties":{"Station_ID":"GAYM4","Station_Nam":"GAYLORD","Latitude":"45.03320","Longitude":"-84.71130","Snowdepth":"6.000","Units":"in","Rept_Date":"2020-03-24 12"},"coordinates":[2940,3543]},{"type":"Point","properties":{"Station_ID":"EMLN3","Station_Nam":"EAST MILFORD","Latitude":"42.82660","Longitude":"-71.62600","Snowdepth":"6.000","Units":"in","Rept_Date":"2020-03-24 11"},"coordinates":[6011,1415]},{"type":"Point","properties":{"Station_ID":"EJNM4","Station_Nam":"EAST JORDAN 2NW","Latitude":"45.18630","Longitude":"-85.14770","Snowdepth":"6.000","Units":"in","Rept_Date":"2020-03-24 12"},"coordinates":[2838,3691]},{"type":"Point","properties":{"Station_ID":"DLSN6","Station_Nam":"DELANSON 2NE","Latitude":"42.76720","Longitude":"-74.17110","Snowdepth":"6.000","Units":"in","Rept_Date":"2020-03-24 11"},"coordinates":[5414,1357]},{"type":"Point","properties":{"Station_ID":"CNNW3","Station_Nam":"CRANDON","Latitude":"45.55110","Longitude":"-88.89830","Snowdepth":"6.000","Units":"in","Rept_Date":"2020-03-24 11"},"coordinates":[1957,4042]},{"type":"Point","properties":{"Station_ID":"BSKN6","Station_Nam":"BUSKIRK","Latitude":"42.93610","Longitude":"-73.43250","Snowdepth":"6.000","Units":"in","Rept_Date":"2020-03-24 11"},"coordinates":[5587,1520]},{"type":"Point","properties":{"Station_ID":"BOON6","Station_Nam":"BOONVILLE 4 SSW","Latitude":"43.43610","Longitude":"-75.36970","Snowdepth":"6.000","Units":"in","Rept_Date":"2020-03-24 11"},"coordinates":[5132,2003]},{"type":"Point","properties":{"Station_ID":"BIRM3","Station_Nam":"BIRCH HILL DAM","Latitude":"42.63240","Longitude":"-72.12270","Snowdepth":"6.000","Units":"in","Rept_Date":"2020-03-24 11"},"coordinates":[5895,1227]},{"type":"Point","properties":{"Station_ID":"ABNM3","Station_Nam":"ASHBURNHAM NORTH","Latitude":"42.66170","Longitude":"-71.93590","Snowdepth":"6.000","Units":"in","Rept_Date":"2020-03-24 11"},"coordinates":[5938,1256]},{"type":"Point","properties":{"Station_ID":"CAN-ON-92","Station_Nam":"DUNROBIN 1.9 W - MVCA, CAN","Latitude":"45.42318","Longitude":"-76.04525","Snowdepth":"5.800","Units":"in","Rept_Date":"2020-03-24 12"},"coordinates":[4974,3919]},{"type":"Point","properties":{"Station_ID":"VT-RT-23","Station_Nam":"POULTNEY 3.5 E, VT","Latitude":"43.52631","Longitude":"-73.16514","Snowdepth":"5.600","Units":"in","Rept_Date":"2020-03-24 12"},"coordinates":[5650,2090]},{"type":"Point","properties":{"Station_ID":"ME-HN-57","Station_Nam":"ELLSWORTH 2.9 E, ME","Latitude":"44.58545","Longitude":"-68.43757","Snowdepth":"5.600","Units":"in","Rept_Date":"2020-03-24 12"},"coordinates":[6759,3111]},{"type":"Point","properties":{"Station_ID":"NY-MD-16","Station_Nam":"CHITTENANGO 2.1 ESE, NY","Latitude":"43.03297","Longitude":"-75.83480","Snowdepth":"5.500","Units":"in","Rept_Date":"2020-03-24 13"},"coordinates":[5023,1614]},{"type":"Point","properties":{"Station_ID":"NY-AB-1","Station_Nam":"ALTAMONT 2.7 SSW, NY","Latitude":"42.66696","Longitude":"-74.05090","Snowdepth":"5.500","Units":"in","Rept_Date":"2020-03-24 12"},"coordinates":[5442,1261]},{"type":"Point","properties":{"Station_ID":"NH-MR-65","Station_Nam":"EPSOM 3.2 SSW, NH","Latitude":"43.18162","Longitude":"-71.36560","Snowdepth":"5.500","Units":"in","Rept_Date":"2020-03-24 12"},"coordinates":[6072,1757]},{"type":"Point","properties":{"Station_ID":"NH-CR-16","Station_Nam":"WOLFEBORO 0.6 SW, NH","Latitude":"43.58464","Longitude":"-71.21760","Snowdepth":"5.500","Units":"in","Rept_Date":"2020-03-24 12"},"coordinates":[6107,2146]},{"type":"Point","properties":{"Station_ID":"NH-BK-29","Station_Nam":"SANBORNTON 2.3 WNW, NH","Latitude":"43.49730","Longitude":"-71.62800","Snowdepth":"5.500","Units":"in","Rept_Date":"2020-03-24 12"},"coordinates":[6011,2062]},{"type":"Point","properties":{"Station_ID":"MI-CX-7","Station_Nam":"EAST JORDAN 2.1 NNW, MI","Latitude":"45.18639","Longitude":"-85.14750","Snowdepth":"5.500","Units":"in","Rept_Date":"2020-03-24 13"},"coordinates":[2838,3691]},{"type":"Point","properties":{"Station_ID":"ME-WL-3","Station_Nam":"BELMONT 2.7 SSE, ME","Latitude":"44.38350","Longitude":"-69.14250","Snowdepth":"5.500","Units":"in","Rept_Date":"2020-03-24 11"},"coordinates":[6594,2916]},{"type":"Point","properties":{"Station_ID":"ME-LN-1","Station_Nam":"NEWCASTLE 2.1 SW, ME","Latitude":"44.02767","Longitude":"-69.56860","Snowdepth":"5.500","Units":"in","Rept_Date":"2020-03-24 12"},"coordinates":[6494,2573]},{"type":"Point","properties":{"Station_ID":"ME-KX-12","Station_Nam":"UNION 3.0 W, ME","Latitude":"44.21320","Longitude":"-69.34160","Snowdepth":"5.500","Units":"in","Rept_Date":"2020-03-24 12"},"coordinates":[6547,2752]},{"type":"Point","properties":{"Station_ID":"ME-HN-4","Station_Nam":"MARIAVILLE 1.4 ESE, ME","Latitude":"44.71810","Longitude":"-68.38810","Snowdepth":"5.500","Units":"in","Rept_Date":"2020-03-24 13"},"coordinates":[6771,3239]},{"type":"Point","properties":{"Station_ID":"ME-CM-128","Station_Nam":"SOUTH PORTLAND 1.6 S, ME","Latitude":"43.60900","Longitude":"-70.28600","Snowdepth":"5.500","Units":"in","Rept_Date":"2020-03-24 12"},"coordinates":[6326,2169]},{"type":"Point","properties":{"Station_ID":"MA-WR-56","Station_Nam":"STERLING 4.3 NW, MA","Latitude":"42.47540","Longitude":"-71.81140","Snowdepth":"5.300","Units":"in","Rept_Date":"2020-03-24 12"},"coordinates":[5968,1076]},{"type":"Point","properties":{"Station_ID":"NH-CH-21","Station_Nam":"KEENE 2.0 SE, NH","Latitude":"42.93133","Longitude":"-72.26822","Snowdepth":"5.100","Units":"in","Rept_Date":"2020-03-24 12"},"coordinates":[5860,1516]},{"type":"Point","properties":{"Station_ID":"CAN-ON-120","Station_Nam":"DUNROBIN 5.8 NE MIVCA, CA","Latitude":"45.46243","Longitude":"-75.97120","Snowdepth":"5.100","Units":"in","Rept_Date":"2020-03-24 12"},"coordinates":[4991,3957]},{"type":"Point","properties":{"Station_ID":"ZBWN3","Station_Nam":"NASHUA CWSU","Latitude":"42.73440","Longitude":"-71.48030","Snowdepth":"5.000","Units":"in","Rept_Date":"2020-03-24 11"},"coordinates":[6045,1326]},{"type":"Point","properties":{"Station_ID":"WSTN6","Station_Nam":"WESTMORELAND 4 N","Latitude":"43.15950","Longitude":"-75.46110","Snowdepth":"5.000","Units":"in","Rept_Date":"2020-03-24 11"},"coordinates":[5111,1736]},{"type":"Point","properties":{"Station_ID":"WPHN6","Station_Nam":"GEORGETOWN SNOW","Latitude":"42.76670","Longitude":"-75.70000","Snowdepth":"5.000","Units":"in","Rept_Date":"2020-03-24 12"},"coordinates":[5055,1357]},{"type":"Point","properties":{"Station_ID":"WPGN6","Station_Nam":"GEORGETOWN 2SE SNOW","Latitude":"42.75000","Longitude":"-75.70000","Snowdepth":"5.000","Units":"in","Rept_Date":"2020-03-24 12"},"coordinates":[5055,1341]},{"type":"Point","properties":{"Station_ID":"WPFN6","Station_Nam":"MARIPOSA 1NNW SNOW","Latitude":"42.73330","Longitude":"-75.81670","Snowdepth":"5.000","Units":"in","Rept_Date":"2020-03-24 12"},"coordinates":[5028,1325]},{"type":"Point","properties":{"Station_ID":"WLKW3","Station_Nam":"WHITE LAKE 1 SE","Latitude":"45.14520","Longitude":"-88.74160","Snowdepth":"5.000","Units":"in","Rept_Date":"2020-03-24 13"},"coordinates":[1994,3651]},{"type":"Point","properties":{"Station_ID":"WILW3","Station_Nam":"RESERVOIR","Latitude":"45.70000","Longitude":"-89.83330","Snowdepth":"5.000","Units":"in","Rept_Date":"2020-03-24 11"},"coordinates":[1738,4186]},{"type":"Point","properties":{"Station_ID":"WI-TY-2","Station_Nam":"SHELDON 8.1 ENE, WI","Latitude":"45.35598","Longitude":"-90.80296","Snowdepth":"5.000","Units":"in","Rept_Date":"2020-03-24 13"},"coordinates":[1510,3854]},{"type":"Point","properties":{"Station_ID":"WI-RS-1","Station_Nam":"LADYSMITH 2.8 WNW, WI","Latitude":"45.48180","Longitude":"-91.14680","Snowdepth":"5.000","Units":"in","Rept_Date":"2020-03-24 13"},"coordinates":[1430,3976]},{"type":"Point","properties":{"Station_ID":"WHFN6","Station_Nam":"WILMINGTON 2W","Latitude":"44.39310","Longitude":"-73.85890","Snowdepth":"5.000","Units":"in","Rept_Date":"2020-03-24 12"},"coordinates":[5487,2926]},{"type":"Point","properties":{"Station_ID":"VT-CH-4","Station_Nam":"UNDERHILL 4.4 NNE, VT","Latitude":"44.58774","Longitude":"-72.92250","Snowdepth":"5.000","Units":"in","Rept_Date":"2020-03-24 12"},"coordinates":[5707,3113]},{"type":"Point","properties":{"Station_ID":"TLLM3","Station_Nam":"TULLY LAKE","Latitude":"42.63940","Longitude":"-72.22440","Snowdepth":"5.000","Units":"in","Rept_Date":"2020-03-24 11"},"coordinates":[5871,1234]},{"type":"Point","properties":{"Station_ID":"RHRW3","Station_Nam":"RHINELANDER WJFW TV-12","Latitude":"45.62220","Longitude":"-89.41000","Snowdepth":"5.000","Units":"in","Rept_Date":"2020-03-25 03"},"coordinates":[1837,4111]},{"type":"Point","properties":{"Station_ID":"RHLW3","Station_Nam":"RHINELANDER 4NE","Latitude":"45.65270","Longitude":"-89.30740","Snowdepth":"5.000","Units":"in","Rept_Date":"2020-03-24 11"},"coordinates":[1861,4140]},{"type":"Point","properties":{"Station_ID":"PWM","Station_Nam":"RESIDUAL OFFICE TO PORTLAND WSFO (GYX)","Latitude":"43.64610","Longitude":"-70.30920","Snowdepth":"5.000","Units":"in","Rept_Date":"2020-03-24 12"},"coordinates":[6320,2205]},{"type":"Point","properties":{"Station_ID":"PSM","Station_Nam":"PEASE INTL TRADEPORT AP","Latitude":"43.07810","Longitude":"-70.82330","Snowdepth":"5.000","Units":"in","Rept_Date":"2020-03-24 12"},"coordinates":[6199,1657]},{"type":"Point","properties":{"Station_ID":"PELW3","Station_Nam":"PELLA 3SE","Latitude":"44.73580","Longitude":"-88.73780","Snowdepth":"5.000","Units":"in","Rept_Date":"2020-03-24 10"},"coordinates":[1995,3256]},{"type":"Point","properties":{"Station_ID":"OTTM5","Station_Nam":"OTTERTAIL,MN","Latitude":"46.41670","Longitude":"-95.56670","Snowdepth":"5.000","Units":"in","Rept_Date":"2020-03-24 11"},"coordinates":[392,4877]},{"type":"Point","properties":{"Station_ID":"NYMM5","Station_Nam":"NEW YORK MILLS","Latitude":"46.50920","Longitude":"-95.37990","Snowdepth":"5.000","Units":"in","Rept_Date":"2020-03-24 12"},"coordinates":[436,4967]},{"type":"Point","properties":{"Station_ID":"NY-SC-27","Station_Nam":"NISKAYUNA 2.9 SSE, NY","Latitude":"42.77911","Longitude":"-73.87242","Snowdepth":"5.000","Units":"in","Rept_Date":"2020-03-24 12"},"coordinates":[5484,1369]},{"type":"Point","properties":{"Station_ID":"NY-SC-11","Station_Nam":"SCHENECTADY 3.3 E, NY","Latitude":"42.79382","Longitude":"-73.86390","Snowdepth":"5.000","Units":"in","Rept_Date":"2020-03-24 14"},"coordinates":[5486,1383]},{"type":"Point","properties":{"Station_ID":"NY-OT-11","Station_Nam":"HARTWICK, NY","Latitude":"42.65990","Longitude":"-75.05000","Snowdepth":"5.000","Units":"in","Rept_Date":"2020-03-24 16"},"coordinates":[5208,1254]},