{"type":"Topology","objects":{"snowdepth_geo":{"type":"GeometryCollection","name":"snowdepth","crs":{"type":"name","properties":{"name":"urn:ogc:def:crs:OGC:1.3:CRS84"}},"geometries":[{"type":"Point","properties":{"Station_ID":"PRKM4","Station_Nam":"MUNISING EAST","Latitude":"46.42580","Longitude":"-86.62000","Snowdepth":"76.500","Units":"in","Rept_Date":"2021-01-08 06"},"coordinates":[2871,6921]},{"type":"Point","properties":{"Station_ID":"TRIQ6","Station_Nam":"TRIO LAKE","Latitude":"49.22880","Longitude":"-87.22920","Snowdepth":"20.470","Units":"in","Rept_Date":"2021-01-08 06"},"coordinates":[2706,8549]},{"type":"Point","properties":{"Station_ID":"QLB","Station_Nam":"QLB","Latitude":"50.72360","Longitude":"-75.10000","Snowdepth":"20.118","Units":"in","Rept_Date":"2021-01-07 12"},"coordinates":[5985,9416]},{"type":"Point","properties":{"Station_ID":"QGO","Station_Nam":"QGO","Latitude":"48.85500","Longitude":"-74.20640","Snowdepth":"20.039","Units":"in","Rept_Date":"2021-01-07 12"},"coordinates":[6226,8331]},{"type":"Point","properties":{"Station_ID":"PTLQ6","Station_Nam":"PORTAGE LAKE","Latitude":"49.06950","Longitude":"-86.65940","Snowdepth":"19.680","Units":"in","Rept_Date":"2021-01-08 06"},"coordinates":[2860,8456]},{"type":"Point","properties":{"Station_ID":"QCU","Station_Nam":"QCU","Latitude":"47.82750","Longitude":"-76.59830","Snowdepth":"19.173","Units":"in","Rept_Date":"2021-01-07 12"},"coordinates":[5580,7735]},{"type":"Point","properties":{"Station_ID":"AUDQ6","Station_Nam":"AUDEN","Latitude":"48.52600","Longitude":"-82.57570","Snowdepth":"19.170","Units":"in","Rept_Date":"2021-01-08 06"},"coordinates":[3964,8140]},{"type":"Point","properties":{"Station_ID":"QCO","Station_Nam":"QCO","Latitude":"51.45280","Longitude":"-72.20110","Snowdepth":"18.858","Units":"in","Rept_Date":"2021-01-07 12"},"coordinates":[6769,9840]},{"type":"Point","properties":{"Station_ID":"PDLM4","Station_Nam":"PAINESDALE","Latitude":"47.04160","Longitude":"-88.67170","Snowdepth":"18.000","Units":"in","Rept_Date":"2021-01-07 13"},"coordinates":[2316,7279]},{"type":"Point","properties":{"Station_ID":"HTLN3","Station_Nam":"HERMIT LAKE SNOWPLOT","Latitude":"44.26130","Longitude":"-71.28330","Snowdepth":"18.000","Units":"in","Rept_Date":"2021-01-07 10"},"coordinates":[7017,5664]},{"type":"Point","properties":{"Station_ID":"DVLQ6","Station_Nam":"DEVIOUS LAKE","Latitude":"49.19890","Longitude":"-87.76440","Snowdepth":"17.680","Units":"in","Rept_Date":"2021-01-08 06"},"coordinates":[2561,8531]},{"type":"Point","properties":{"Station_ID":"QTM","Station_Nam":"QTM","Latitude":"51.05780","Longitude":"-72.57190","Snowdepth":"17.087","Units":"in","Rept_Date":"2021-01-07 12"},"coordinates":[6668,9610]},{"type":"Point","properties":{"Station_ID":"CAN-ON-245","Station_Nam":"PHELPSTON 3.1 ESE, CAN","Latitude":"44.50564","Longitude":"-79.81035","Snowdepth":"17.000","Units":"in","Rept_Date":"2021-01-07 13"},"coordinates":[4712,5806]},{"type":"Point","properties":{"Station_ID":"IWOM4","Station_Nam":"IRONWOOD#2","Latitude":"46.46520","Longitude":"-90.13820","Snowdepth":"16.000","Units":"in","Rept_Date":"2021-01-07 13"},"coordinates":[1920,6944]},{"type":"Point","properties":{"Station_ID":"MMNV1","Station_Nam":"MT. MANSFIELD","Latitude":"44.52480","Longitude":"-72.81540","Snowdepth":"15.000","Units":"in","Rept_Date":"2021-01-07 21"},"coordinates":[6603,5817]},{"type":"Point","properties":{"Station_ID":"HVCN3","Station_Nam":"HARVARD CABIN SNOWPLOT","Latitude":"44.26630","Longitude":"-71.27790","Snowdepth":"15.000","Units":"in","Rept_Date":"2021-01-07 10"},"coordinates":[7018,5667]},{"type":"Point","properties":{"Station_ID":"HURW3","Station_Nam":"HURLEY","Latitude":"46.46250","Longitude":"-90.19550","Snowdepth":"15.000","Units":"in","Rept_Date":"2021-01-07 14"},"coordinates":[1904,6942]},{"type":"Point","properties":{"Station_ID":"QOU","Station_Nam":"QOU","Latitude":"50.79250","Longitude":"-69.67470","Snowdepth":"14.842","Units":"in","Rept_Date":"2021-01-07 12"},"coordinates":[7452,9456]},{"type":"Point","properties":{"Station_ID":"WLFM5","Station_Nam":"WOLF RIDGE ENVIRON LEARNING CENTER","Latitude":"47.38240","Longitude":"-91.19730","Snowdepth":"14.000","Units":"in","Rept_Date":"2021-01-07 13"},"coordinates":[1633,7476]},{"type":"Point","properties":{"Station_ID":"HERM4","Station_Nam":"HERMAN,MI","Latitude":"46.65000","Longitude":"-88.33330","Snowdepth":"14.000","Units":"in","Rept_Date":"2021-01-07 13"},"coordinates":[2407,7051]},{"type":"Point","properties":{"Station_ID":"OGIQ6","Station_Nam":"OGOKI CAMP","Latitude":"50.76680","Longitude":"-87.85820","Snowdepth":"13.350","Units":"in","Rept_Date":"2021-01-08 06"},"coordinates":[2536,9442]},{"type":"Point","properties":{"Station_ID":"KSGM4","Station_Nam":"KEARSARGE","Latitude":"47.27520","Longitude":"-88.41700","Snowdepth":"13.000","Units":"in","Rept_Date":"2021-01-07 13"},"coordinates":[2385,7414]},{"type":"Point","properties":{"Station_ID":"MN-IS-18","Station_Nam":"BRAHAM 0.7 SW, MN","Latitude":"45.71379","Longitude":"-93.18095","Snowdepth":"12.000","Units":"in","Rept_Date":"2021-01-07 14"},"coordinates":[1097,6508]},{"type":"Point","properties":{"Station_ID":"MI-OG-6","Station_Nam":"WEST BRANCH 2.1 SSW, MI","Latitude":"44.24814","Longitude":"-84.25089","Snowdepth":"12.000","Units":"in","Rept_Date":"2021-01-07 13"},"coordinates":[3511,5657]},{"type":"Point","properties":{"Station_ID":"LNCM1","Station_Nam":"LINCOLN WATER DISTRICT","Latitude":"45.32410","Longitude":"-68.58300","Snowdepth":"12.000","Units":"in","Rept_Date":"2021-01-07 12"},"coordinates":[7747,6281]},{"type":"Point","properties":{"Station_ID":"KABM5","Station_Nam":"KABETOGAMA LAKE VISITOR CTR","Latitude":"48.40880","Longitude":"-93.04840","Snowdepth":"12.000","Units":"in","Rept_Date":"2021-01-07 12"},"coordinates":[1133,8072]},{"type":"Point","properties":{"Station_ID":"HLSN3","Station_Nam":"HERMIT LAKE SNOTEL","Latitude":"44.26130","Longitude":"-71.28320","Snowdepth":"11.970","Units":"in","Rept_Date":"2021-01-08 06"},"coordinates":[7017,5664]},{"type":"Point","properties":{"Station_ID":"QMD","Station_Nam":"QMD","Latitude":"49.29060","Longitude":"-75.84500","Snowdepth":"11.457","Units":"in","Rept_Date":"2021-01-07 12"},"coordinates":[5784,8584]},{"type":"Point","properties":{"Station_ID":"KABQ6","Station_Nam":"CAB LAKE","Latitude":"49.59950","Longitude":"-89.17990","Snowdepth":"11.420","Units":"in","Rept_Date":"2021-01-08 06"},"coordinates":[2179,8764]},{"type":"Point","properties":{"Station_ID":"QLI","Station_Nam":"QLI","Latitude":"50.27080","Longitude":"-73.92280","Snowdepth":"11.299","Units":"in","Rept_Date":"2021-01-07 12"},"coordinates":[6303,9154]},{"type":"Point","properties":{"Station_ID":"SVBQ6","Station_Nam":"SAVANT BASE","Latitude":"50.28730","Longitude":"-90.65670","Snowdepth":"11.180","Units":"in","Rept_Date":"2021-01-08 06"},"coordinates":[1779,9163]},{"type":"Point","properties":{"Station_ID":"MLZ","Station_Nam":"MLZ","Latitude":"50.66170","Longitude":"-68.82360","Snowdepth":"11.024","Units":"in","Rept_Date":"2021-01-07 12"},"coordinates":[7682,9381]},{"type":"Point","properties":{"Station_ID":"WRSM5","Station_Nam":"WRENSHALL","Latitude":"46.61550","Longitude":"-92.38380","Snowdepth":"11.000","Units":"in","Rept_Date":"2021-01-07 14"},"coordinates":[1312,7031]},{"type":"Point","properties":{"Station_ID":"MONW3","Station_Nam":"MONROE,WI","Latitude":"42.60000","Longitude":"-89.66670","Snowdepth":"11.000","Units":"in","Rept_Date":"2021-01-07 13"},"coordinates":[2047,4700]},{"type":"Point","properties":{"Station_ID":"MN-SL-15","Station_Nam":"CHISHOLM 0.4 WSW, MN","Latitude":"47.48557","Longitude":"-92.88690","Snowdepth":"11.000","Units":"in","Rept_Date":"2021-01-07 13"},"coordinates":[1176,7536]},{"type":"Point","properties":{"Station_ID":"MI-HG-20","Station_Nam":"CALUMET 1.1 SSW, MI","Latitude":"47.23165","Longitude":"-88.45823","Snowdepth":"11.000","Units":"in","Rept_Date":"2021-01-07 11"},"coordinates":[2374,7389]},{"type":"Point","properties":{"Station_ID":"MI-BG-3","Station_Nam":"THREE LAKES, MI","Latitude":"46.55730","Longitude":"-88.20770","Snowdepth":"11.000","Units":"in","Rept_Date":"2021-01-07 13"},"coordinates":[2441,6997]},{"type":"Point","properties":{"Station_ID":"HGHN6","Station_Nam":"HIGHMARKET","Latitude":"43.60510","Longitude":"-75.55430","Snowdepth":"11.000","Units":"in","Rept_Date":"2021-01-07 11"},"coordinates":[5862,5283]},{"type":"Point","properties":{"Station_ID":"GNLM4","Station_Nam":"GREENLAND 6N","Latitude":"46.87360","Longitude":"-89.10060","Snowdepth":"11.000","Units":"in","Rept_Date":"2021-01-07 13"},"coordinates":[2200,7181]},{"type":"Point","properties":{"Station_ID":"FLDM5","Station_Nam":"FLOODWOOD,MN","Latitude":"47.00000","Longitude":"-92.91670","Snowdepth":"11.000","Units":"in","Rept_Date":"2021-01-07 14"},"coordinates":[1168,7254]},{"type":"Point","properties":{"Station_ID":"COTM5","Station_Nam":"COTTON","Latitude":"47.16870","Longitude":"-92.46290","Snowdepth":"11.000","Units":"in","Rept_Date":"2021-01-07 12"},"coordinates":[1291,7352]},{"type":"Point","properties":{"Station_ID":"BNDM5","Station_Nam":"ELY 25E","Latitude":"47.97190","Longitude":"-91.44860","Snowdepth":"11.000","Units":"in","Rept_Date":"2021-01-07 13"},"coordinates":[1565,7819]},{"type":"Point","properties":{"Station_ID":"MN-CK-18","Station_Nam":"GRAND MARAIS 4.4 WSW, MN","Latitude":"47.74462","Longitude":"-90.43796","Snowdepth":"10.500","Units":"in","Rept_Date":"2021-01-07 13"},"coordinates":[1838,7687]},{"type":"Point","properties":{"Station_ID":"SOCQ6","Station_Nam":"SOCKET LAKE","Latitude":"50.77870","Longitude":"-91.79300","Snowdepth":"10.470","Units":"in","Rept_Date":"2021-01-08 06"},"coordinates":[1472,9448]},{"type":"Point","properties":{"Station_ID":"WI-WB-2","Station_Nam":"STONE LAKE 2.0 NW, WI","Latitude":"45.85960","Longitude":"-91.57710","Snowdepth":"10.000","Units":"in","Rept_Date":"2021-01-07 13"},"coordinates":[1531,6592]},{"type":"Point","properties":{"Station_ID":"WI-IR-3","Station_Nam":"PENCE 0.1 E, WI","Latitude":"46.41555","Longitude":"-90.27013","Snowdepth":"10.000","Units":"in","Rept_Date":"2021-01-07 13"},"coordinates":[1884,6915]},{"type":"Point","properties":{"Station_ID":"STOI2","Station_Nam":"STOCKTON 3 NNE","Latitude":"42.40050","Longitude":"-89.99580","Snowdepth":"10.000","Units":"in","Rept_Date":"2021-01-08 03"},"coordinates":[1958,4584]},{"type":"Point","properties":{"Station_ID":"NOHM5","Station_Nam":"NORTHOME","Latitude":"47.83590","Longitude":"-94.25550","Snowdepth":"10.000","Units":"in","Rept_Date":"2021-01-07 13"},"coordinates":[806,7740]},{"type":"Point","properties":{"Station_ID":"MWN","Station_Nam":"MOUNT WASHINGTON","Latitude":"44.26670","Longitude":"-71.30000","Snowdepth":"10.000","Units":"in","Rept_Date":"2021-01-07 12"},"coordinates":[7012,5667]},{"type":"Point","properties":{"Station_ID":"MN-SL-108","Station_Nam":"IRON JUNCTION 3.4 NNW, MN","Latitude":"47.46150","Longitude":"-92.63130","Snowdepth":"10.000","Units":"in","Rept_Date":"2021-01-07 13"},"coordinates":[1246,7522]},{"type":"Point","properties":{"Station_ID":"LEIM5","Station_Nam":"ORR 3E","Latitude":"48.05810","Longitude":"-92.75220","Snowdepth":"10.000","Units":"in","Rept_Date":"2021-01-07 12"},"coordinates":[1213,7869]},{"type":"Point","properties":{"Station_ID":"IL-SP-27","Station_Nam":"DAVIS 2.7 N, IL","Latitude":"42.46110","Longitude":"-89.40890","Snowdepth":"10.000","Units":"in","Rept_Date":"2021-01-07 13"},"coordinates":[2117,4619]},{"type":"Point","properties":{"Station_ID":"IL-JD-8","Station_Nam":"STOCKTON 3.4 NNE, IL","Latitude":"42.39960","Longitude":"-89.99020","Snowdepth":"10.000","Units":"in","Rept_Date":"2021-01-07 13"},"coordinates":[1960,4583]},{"type":"Point","properties":{"Station_ID":"CAN-ON-5","Station_Nam":"OWEN SOUND 1.5 NW - GSCA, CAN","Latitude":"44.57837","Longitude":"-80.95461","Snowdepth":"10.000","Units":"in","Rept_Date":"2021-01-07 13"},"coordinates":[4402,5848]},{"type":"Point","properties":{"Station_ID":"CAN-ON-451","Station_Nam":"OWEN SOUND 1.2 N - GSCA, CAN","Latitude":"44.58092","Longitude":"-80.93025","Snowdepth":"10.000","Units":"in","Rept_Date":"2021-01-07 13"},"coordinates":[4409,5850]},{"type":"Point","properties":{"Station_ID":"BABM5","Station_Nam":"BABBITT","Latitude":"47.71210","Longitude":"-91.95330","Snowdepth":"10.000","Units":"in","Rept_Date":"2021-01-07 13"},"coordinates":[1429,7668]},{"type":"Point","properties":{"Station_ID":"QWE","Station_Nam":"QWE","Latitude":"47.84610","Longitude":"-73.80670","Snowdepth":"9.882","Units":"in","Rept_Date":"2021-01-07 12"},"coordinates":[6335,7746]},{"type":"Point","properties":{"Station_ID":"WI-BY-29","Station_Nam":"BAYFIELD 5.1 NNW, WI","Latitude":"46.88063","Longitude":"-90.85854","Snowdepth":"9.500","Units":"in","Rept_Date":"2021-01-07 13"},"coordinates":[1725,7185]},{"type":"Point","properties":{"Station_ID":"CAN-ON-452","Station_Nam":"CHATSWORTH 1.8 ENE - GSCA, CAN","Latitude":"44.46118","Longitude":"-80.87506","Snowdepth":"9.400","Units":"in","Rept_Date":"2021-01-07 12"},"coordinates":[4424,5780]},{"type":"Point","properties":{"Station_ID":"CATQ6","Station_Nam":"CAT LAKE","Latitude":"51.72690","Longitude":"-91.82210","Snowdepth":"9.170","Units":"in","Rept_Date":"2021-01-08 06"},"coordinates":[1464,9999]},{"type":"Point","properties":{"Station_ID":"WI-WK-65","Station_Nam":"EAGLE 3.4 SW, WI","Latitude":"42.85067","Longitude":"-88.52596","Snowdepth":"9.000","Units":"in","Rept_Date":"2021-01-07 13"},"coordinates":[2355,4845]},{"type":"Point","properties":{"Station_ID":"WI-RK-12","Station_Nam":"JANESVILLE 3.1 W, WI","Latitude":"42.67576","Longitude":"-89.07614","Snowdepth":"9.000","Units":"in","Rept_Date":"2021-01-07 13"},"coordinates":[2207,4744]},{"type":"Point","properties":{"Station_ID":"VT-CL-14","Station_Nam":"LYNDONVILLE 1.1 W, VT","Latitude":"44.53582","Longitude":"-72.02867","Snowdepth":"9.000","Units":"in","Rept_Date":"2021-01-07 12"},"coordinates":[6815,5824]},{"type":"Point","properties":{"Station_ID":"TOPM1","Station_Nam":"TOPSFIELD","Latitude":"45.43470","Longitude":"-67.72020","Snowdepth":"9.000","Units":"in","Rept_Date":"2021-01-07 12"},"coordinates":[7980,6346]},{"type":"Point","properties":{"Station_ID":"STOW3","Station_Nam":"STOUGHTON,WI","Latitude":"42.91670","Longitude":"-89.21670","Snowdepth":"9.000","Units":"in","Rept_Date":"2021-01-07 13"},"coordinates":[2169,4883]},{"type":"Point","properties":{"Station_ID":"NH-MR-60","Station_Nam":"SOUTH SUTTON 1.3 SE, NH","Latitude":"43.29531","Longitude":"-71.90238","Snowdepth":"9.000","Units":"in","Rept_Date":"2021-01-07 13"},"coordinates":[6849,5103]},{"type":"Point","properties":{"Station_ID":"MN-SL-115","Station_Nam":"COTTON 5.7 ESE, MN","Latitude":"47.15142","Longitude":"-92.35772","Snowdepth":"9.000","Units":"in","Rept_Date":"2021-01-07 14"},"coordinates":[1319,7342]},{"type":"Point","properties":{"Station_ID":"MN-CV-22","Station_Nam":"VICTORIA 1.6 WSW, MN","Latitude":"44.85670","Longitude":"-93.68640","Snowdepth":"9.000","Units":"in","Rept_Date":"2021-01-07 13"},"coordinates":[960,6010]},{"type":"Point","properties":{"Station_ID":"MN-CN-36","Station_Nam":"CLOQUET 3.4 ENE, MN","Latitude":"46.74146","Longitude":"-92.42698","Snowdepth":"9.000","Units":"in","Rept_Date":"2021-01-07 13"},"coordinates":[1301,7104]},{"type":"Point","properties":{"Station_ID":"MN-CK-6","Station_Nam":"GRAND MARAIS 4.4 W, MN","Latitude":"47.74865","Longitude":"-90.43760","Snowdepth":"9.000","Units":"in","Rept_Date":"2021-01-07 12"},"coordinates":[1839,7689]},{"type":"Point","properties":{"Station_ID":"MIEM4","Station_Nam":"MICHIGAMME 3WNW","Latitude":"46.54530","Longitude":"-88.18000","Snowdepth":"9.000","Units":"in","Rept_Date":"2021-01-07 13"},"coordinates":[2449,6990]},{"type":"Point","properties":{"Station_ID":"MI-HG-1","Station_Nam":"HOUGHTON 1.6 ESE, MI","Latitude":"47.10774","Longitude":"-88.52940","Snowdepth":"9.000","Units":"in","Rept_Date":"2021-01-07 13"},"coordinates":[2354,7317]},{"type":"Point","properties":{"Station_ID":"LUCW3","Station_Nam":"LUCK","Latitude":"45.57330","Longitude":"-92.48520","Snowdepth":"9.000","Units":"in","Rept_Date":"2021-01-07 22"},"coordinates":[1285,6426]},{"type":"Point","properties":{"Station_ID":"KMWN","Station_Nam":"MOUNT WASHINGTON","Latitude":"44.26666","Longitude":"-71.30000","Snowdepth":"9.000","Units":"in","Rept_Date":"2021-01-08 06"},"coordinates":[7012,5667]},{"type":"Point","properties":{"Station_ID":"IRMM4","Station_Nam":"WWTP","Latitude":"46.46670","Longitude":"-90.18330","Snowdepth":"9.000","Units":"in","Rept_Date":"2021-01-07 13"},"coordinates":[1907,6945]},{"type":"Point","properties":{"Station_ID":"HUBN3","Station_Nam":"HUBBARD BROOK","Latitude":"43.93330","Longitude":"-71.71670","Snowdepth":"9.000","Units":"in","Rept_Date":"2021-01-08 06"},"coordinates":[6900,5474]},{"type":"Point","properties":{"Station_ID":"ELKM5","Station_Nam":"ELK RIVER","Latitude":"45.30470","Longitude":"-93.58420","Snowdepth":"9.000","Units":"in","Rept_Date":"2021-01-07 13"},"coordinates":[988,6270]},{"type":"Point","properties":{"Station_ID":"COKM5","Station_Nam":"COOK","Latitude":"47.85060","Longitude":"-92.69250","Snowdepth":"9.000","Units":"in","Rept_Date":"2021-01-07 11"},"coordinates":[1229,7748]},{"type":"Point","properties":{"Station_ID":"CAN-NS-103","Station_Nam":"TRAFALGAR 4.9 WSW, CAN","Latitude":"45.26217","Longitude":"-62.72285","Snowdepth":"9.000","Units":"in","Rept_Date":"2021-01-07 12"},"coordinates":[9331,6245]},{"type":"Point","properties":{"Station_ID":"CAN-NB-18","Station_Nam":"MCLEOD HILL 1.1 ENE, CA","Latitude":"46.02725","Longitude":"-66.67460","Snowdepth":"9.000","Units":"in","Rept_Date":"2021-01-07 12"},"coordinates":[8263,6690]},{"type":"Point","properties":{"Station_ID":"BBEM4","Station_Nam":"BIG BAY 9SW","Latitude":"46.74620","Longitude":"-87.88160","Snowdepth":"9.000","Units":"in","Rept_Date":"2021-01-07 13"},"coordinates":[2530,7107]},{"type":"Point","properties":{"Station_ID":"CAN-NB-29","Station_Nam":"SUSSEX 1.0 WNW - KWRC, CAN","Latitude":"45.72670","Longitude":"-65.52858","Snowdepth":"8.600","Units":"in","Rept_Date":"2021-01-07 12"},"coordinates":[8572,6515]},{"type":"Point","properties":{"Station_ID":"WI-SR-1","Station_Nam":"HAYWARD 9.2 NNE, WI","Latitude":"46.13255","Longitude":"-91.40500","Snowdepth":"8.500","Units":"in","Rept_Date":"2021-01-07 12"},"coordinates":[1577,6751]},{"type":"Point","properties":{"Station_ID":"WI-BY-1","Station_Nam":"BAYFIELD 8.8 N, WI","Latitude":"46.93855","Longitude":"-90.83490","Snowdepth":"8.500","Units":"in","Rept_Date":"2021-01-07 13"},"coordinates":[1731,7219]},{"type":"Point","properties":{"Station_ID":"NY-SR-22","Station_Nam":"GREENFIELD CENTER 1.6 W, NY","Latitude":"43.12684","Longitude":"-73.87860","Snowdepth":"8.500","Units":"in","Rept_Date":"2021-01-07 12"},"coordinates":[6315,5005]},{"type":"Point","properties":{"Station_ID":"IA-JH-20","Station_Nam":"CORALVILLE 1.4 S, IA","Latitude":"41.67016","Longitude":"-91.60296","Snowdepth":"8.500","Units":"in","Rept_Date":"2021-01-07 14"},"coordinates":[1524,4160]},{"type":"Point","properties":{"Station_ID":"CAN-MB-368","Station_Nam":"WHITESHELL 1.3 NE, CAN","Latitude":"49.74405","Longitude":"-95.19123","Snowdepth":"8.300","Units":"in","Rept_Date":"2021-01-07 14"},"coordinates":[553,8848]},{"type":"Point","properties":{"Station_ID":"WTNM4","Station_Nam":"WATTON 2WSW","Latitude":"46.52660","Longitude":"-88.64240","Snowdepth":"8.000","Units":"in","Rept_Date":"2021-01-07 13"},"coordinates":[2324,6980]},{"type":"Point","properties":{"Station_ID":"WNDP1","Station_Nam":"WINDBER COUNTY CLUB","Latitude":"40.28780","Longitude":"-78.77530","Snowdepth":"8.000","Units":"in","Rept_Date":"2021-01-07 12"},"coordinates":[4991,3357]},{"type":"Point","properties":{"Station_ID":"WI-PR-2","Station_Nam":"BUTTERNUT 5.9 SW, WI","Latitude":"45.96501","Longitude":"-90.59750","Snowdepth":"8.000","Units":"in","Rept_Date":"2021-01-07 12"},"coordinates":[1795,6653]},{"type":"Point","properties":{"Station_ID":"WI-BY-2","Station_Nam":"MELLEN 18.6 SW, WI","Latitude":"46.16937","Longitude":"-90.98090","Snowdepth":"8.000","Units":"in","Rept_Date":"2021-01-07 13"},"coordinates":[1692,6772]},{"type":"Point","properties":{"Station_ID":"WI-BY-14","Station_Nam":"ASHLAND 9.8 W, WI","Latitude":"46.59742","Longitude":"-91.07856","Snowdepth":"8.000","Units":"in","Rept_Date":"2021-01-07 12"},"coordinates":[1665,7021]},{"type":"Point","properties":{"Station_ID":"VT-WS-30","Station_Nam":"WOODBURY 3.4 NNW, VT","Latitude":"44.48825","Longitude":"-72.43258","Snowdepth":"8.000","Units":"in","Rept_Date":"2021-01-07 12"},"coordinates":[6706,5796]},{"type":"Point","properties":{"Station_ID":"VT-WS-23","Station_Nam":"CABOT 2.3 E, VT","Latitude":"44.39807","Longitude":"-72.26570","Snowdepth":"8.000","Units":"in","Rept_Date":"2021-01-07 12"},"coordinates":[6751,5744]},{"type":"Point","properties":{"Station_ID":"TOHM5","Station_Nam":"TWO HARBORS WWTP","Latitude":"47.01760","Longitude":"-91.66480","Snowdepth":"8.000","Units":"in","Rept_Date":"2021-01-07 13"},"coordinates":[1507,7265]},{"type":"Point","properties":{"Station_ID":"SUTV1","Station_Nam":"SUTTON","Latitude":"44.61220","Longitude":"-72.04810","Snowdepth":"8.000","Units":"in","Rept_Date":"2021-01-07 13"},"coordinates":[6810,5868]},{"type":"Point","properties":{"Station_ID":"RLKW3","Station_Nam":"REST LAKE","Latitude":"46.12220","Longitude":"-89.87720","Snowdepth":"8.000","Units":"in","Rept_Date":"2021-01-07 13"},"coordinates":[1990,6745]},{"type":"Point","properties":{"Station_ID":"RGNM1","Station_Nam":"RANGELEY 2NW","Latitude":"44.98940","Longitude":"-70.67220","Snowdepth":"8.000","Units":"in","Rept_Date":"2021-01-07 11"},"coordinates":[7182,6087]},{"type":"Point","properties":{"Station_ID":"NY-FK-7","Station_Nam":"SARANAC LAKE 6.2 N, NY","Latitude":"44.41359","Longitude":"-74.15211","Snowdepth":"8.000","Units":"in","Rept_Date":"2021-01-07 11"},"coordinates":[6241,5753]},{"type":"Point","properties":{"Station_ID":"MTCI2","Station_Nam":"MOUNT CARROLL","Latitude":"42.09800","Longitude":"-89.98410","Snowdepth":"8.000","Units":"in","Rept_Date":"2021-01-07 14"},"coordinates":[1961,4408]},{"type":"Point","properties":{"Station_ID":"MSP","Station_Nam":"MINNEAPOLIS-ST PAUL INTL AP","Latitude":"44.88310","Longitude":"-93.22890","Snowdepth":"8.000","Units":"in","Rept_Date":"2021-01-08 00"},"coordinates":[1084,6025]},{"type":"Point","properties":{"Station_ID":"MQT","Station_Nam":"MARQUETTE, MI","Latitude":"46.53140","Longitude":"-87.54920","Snowdepth":"8.000","Units":"in","Rept_Date":"2021-01-08 06"},"coordinates":[2619,6982]},{"type":"Point","properties":{"Station_ID":"MN-WR-25","Station_Nam":"SAINT MICHAEL 2.0 ENE, MN","Latitude":"45.20820","Longitude":"-93.65280","Snowdepth":"8.000","Units":"in","Rept_Date":"2021-01-07 12"},"coordinates":[969,6214]},{"type":"Point","properties":{"Station_ID":"MN-CW-22","Station_Nam":"FORT RIPLEY 0.8 N, MN","Latitude":"46.18089","Longitude":"-94.36510","Snowdepth":"8.000","Units":"in","Rept_Date":"2021-01-07 13"},"coordinates":[777,6779]},{"type":"Point","properties":{"Station_ID":"MN-CG-16","Station_Nam":"NORTH BRANCH 1.3 NNW, MN","Latitude":"45.53121","Longitude":"-92.97110","Snowdepth":"8.000","Units":"in","Rept_Date":"2021-01-07 12"},"coordinates":[1154,6402]},{"type":"Point","properties":{"Station_ID":"MN-BK-6","Station_Nam":"LAKE PARK 6.0 S, MN","Latitude":"46.79850","Longitude":"-96.12180","Snowdepth":"8.000","Units":"in","Rept_Date":"2021-01-07 13"},"coordinates":[302,7137]},{"type":"Point","properties":{"Station_ID":"MKTI4","Station_Nam":"MAQUOKETA","Latitude":"42.07710","Longitude":"-90.66470","Snowdepth":"8.000","Units":"in","Rept_Date":"2021-01-07 13"},"coordinates":[1777,4396]},{"type":"Point","properties":{"Station_ID":"ME-PN-55","Station_Nam":"ORONO 1.1 SSW, ME","Latitude":"44.87005","Longitude":"-68.69446","Snowdepth":"8.000","Units":"in","Rept_Date":"2021-01-07 12"},"coordinates":[7717,6018]},{"type":"Point","properties":{"Station_ID":"LNOW3","Station_Nam":"LAND O LAKES","Latitude":"46.19000","Longitude":"-89.45700","Snowdepth":"8.000","Units":"in","Rept_Date":"2021-01-07 13"},"coordinates":[2104,6784]},{"type":"Point","properties":{"Station_ID":"LEWM4","Station_Nam":"LEWISTON 3W","Latitude":"44.88210","Longitude":"-84.36540","Snowdepth":"8.000","Units":"in","Rept_Date":"2021-01-07 13"},"coordinates":[3480,6025]},{"type":"Point","properties":{"Station_ID":"KMSP","Station_Nam":"MINNEAPOLIS-ST PAUL INTERNATIONAL","Latitude":"44.86666","Longitude":"-93.21666","Snowdepth":"8.000","Units":"in","Rept_Date":"2021-01-08 06"},"coordinates":[1087,6016]},{"type":"Point","properties":{"Station_ID":"JCBM4","Station_Nam":"JACOBSVILLE","Latitude":"47.00830","Longitude":"-88.43180","Snowdepth":"8.000","Units":"in","Rept_Date":"2021-01-07 12"},"coordinates":[2381,7259]},{"type":"Point","properties":{"Station_ID":"INL","Station_Nam":"FALLS INTERNATIONAL ARPT","Latitude":"48.56640","Longitude":"-93.40310","Snowdepth":"8.000","Units":"in","Rept_Date":"2021-01-08 00"},"coordinates":[1037,8164]},{"type":"Point","properties":{"Station_ID":"INDM5","Station_Nam":"INDUS,MN","Latitude":"48.61670","Longitude":"-93.90000","Snowdepth":"8.000","Units":"in","Rept_Date":"2021-01-07 14"},"coordinates":[903,8193]},{"type":"Point","properties":{"Station_ID":"IL-SP-6","Station_Nam":"FREEPORT 2.0 NW, IL","Latitude":"42.30955","Longitude":"-89.66370","Snowdepth":"8.000","Units":"in","Rept_Date":"2021-01-07 13"},"coordinates":[2048,4531]},{"type":"Point","properties":{"Station_ID":"IL-SP-25","Station_Nam":"FREEPORT 1.7 NW, IL","Latitude":"42.30427","Longitude":"-89.66285","Snowdepth":"8.000","Units":"in","Rept_Date":"2021-01-07 13"},"coordinates":[2048,4528]},{"type":"Point","properties":{"Station_ID":"IL-SP-14","Station_Nam":"FREEPORT 1.7 ESE, IL","Latitude":"42.28257","Longitude":"-89.60360","Snowdepth":"8.000","Units":"in","Rept_Date":"2021-01-07 13"},"coordinates":[2064,4515]},{"type":"Point","properties":{"Station_ID":"IFSM5","Station_Nam":"INTERNATIONAL FALLS SNOW","Latitude":"48.57780","Longitude":"-93.39640","Snowdepth":"8.000","Units":"in","Rept_Date":"2021-01-07 12"},"coordinates":[1039,8171]},{"type":"Point","properties":{"Station_ID":"ICYI4","Station_Nam":"IOWA CITY","Latitude":"41.60930","Longitude":"-91.50510","Snowdepth":"8.000","Units":"in","Rept_Date":"2021-01-07 13"},"coordinates":[1550,4124]},{"type":"Point","properties":{"Station_ID":"IA-ST-1","Station_Nam":"LE CLAIRE 1.8 NNE, IA","Latitude":"41.62355","Longitude":"-90.35140","Snowdepth":"8.000","Units":"in","Rept_Date":"2021-01-07 14"},"coordinates":[1862,4133]},{"type":"Point","properties":{"Station_ID":"HTLM4","Station_Nam":"SNOW PAID OBSERVER FOR KHTL","Latitude":"44.34470","Longitude":"-84.67730","Snowdepth":"8.000","Units":"in","Rept_Date":"2021-01-07 18"},"coordinates":[3396,5713]},{"type":"Point","properties":{"Station_ID":"HTL","Station_Nam":"ROSCOMMON COUNTY AIRPORT","Latitude":"44.35000","Longitude":"-84.66670","Snowdepth":"8.000","Units":"in","Rept_Date":"2021-01-08 00"},"coordinates":[3399,5716]},{"type":"Point","properties":{"Station_ID":"GHMN3","Station_Nam":"PINKHAM NOTCH","Latitude":"44.25800","Longitude":"-71.25250","Snowdepth":"8.000","Units":"in","Rept_Date":"2021-01-07 09"},"coordinates":[7025,5662]},{"type":"Point","properties":{"Station_ID":"FORM5","Station_Nam":"FOREST LAKE 5NE","Latitude":"45.33170","Longitude":"-92.89820","Snowdepth":"8.000","Units":"in","Rept_Date":"2021-01-07 13"},"coordinates":[1173,6286]},{"type":"Point","properties":{"Station_ID":"ESGM1","Station_Nam":"EAST SANGERVILLE","Latitude":"45.13690","Longitude":"-69.28060","Snowdepth":"8.000","Units":"in","Rept_Date":"2021-01-07 12"},"coordinates":[7558,6173]},{"type":"Point","properties":{"Station_ID":"EMBM5","Station_Nam":"EMBARASS,MN","Latitude":"47.65810","Longitude":"-92.19580","Snowdepth":"8.000","Units":"in","Rept_Date":"2021-01-07 12"},"coordinates":[1363,7637]},{"type":"Point","properties":{"Station_ID":"DLHM5","Station_Nam":"DULUTH NWS","Latitude":"46.83680","Longitude":"-92.21080","Snowdepth":"8.000","Units":"in","Rept_Date":"2021-01-08 06"},"coordinates":[1359,7160]},{"type":"Point","properties":{"Station_ID":"DLH","Station_Nam":"DULUTH, MN","Latitude":"46.83690","Longitude":"-92.21030","Snowdepth":"8.000","Units":"in","Rept_Date":"2021-01-08 00"},"coordinates":[1359,7160]},{"type":"Point","properties":{"Station_ID":"CSLM5","Station_Nam":"CASS LAKE,MN","Latitude":"47.38470","Longitude":"-94.61470","Snowdepth":"8.000","Units":"in","Rept_Date":"2021-01-07 14"},"coordinates":[709,7478]},{"type":"Point","properties":{"Station_ID":"CMKW3","Station_Nam":"CLAM LAKE 4W","Latitude":"46.16940","Longitude":"-90.98080","Snowdepth":"8.000","Units":"in","Rept_Date":"2021-01-07 13"},"coordinates":[1692,6772]},{"type":"Point","properties":{"Station_ID":"CLKM4","Station_Nam":"CLARKSBURG","Latitude":"46.49910","Longitude":"-87.84500","Snowdepth":"8.000","Units":"in","Rept_Date":"2021-01-07 12"},"coordinates":[2539,6964]},{"type":"Point","properties":{"Station_ID":"CLIW3","Station_Nam":"CLINTON,WI","Latitude":"42.60000","Longitude":"-88.88330","Snowdepth":"8.000","Units":"in","Rept_Date":"2021-01-07 13"},"coordinates":[2259,4700]},{"type":"Point","properties":{"Station_ID":"CBLW3","Station_Nam":"CUMBERLAND","Latitude":"45.53310","Longitude":"-92.02260","Snowdepth":"8.000","Units":"in","Rept_Date":"2021-01-07 13"},"coordinates":[1410,6403]},{"type":"Point","properties":{"Station_ID":"CAN-ON-118","Station_Nam":"DURHAM 1.4 S, CAN","Latitude":"44.16525","Longitude":"-80.82064","Snowdepth":"8.000","Units":"in","Rept_Date":"2021-01-07 12"},"coordinates":[4438,5608]},{"type":"Point","properties":{"Station_ID":"CAN-MB-56","Station_Nam":"WINNIPEG 7.6 ENE, CAN","Latitude":"49.93264","Longitude":"-97.04752","Snowdepth":"8.000","Units":"in","Rept_Date":"2021-01-07 14"},"coordinates":[52,8957]},{"type":"Point","properties":{"Station_ID":"BLGW3","Station_Nam":"BELGIUM WWTP","Latitude":"43.51310","Longitude":"-87.85440","Snowdepth":"8.000","Units":"in","Rept_Date":"2021-01-07 13"},"coordinates":[2537,5230]},{"type":"Point","properties":{"Station_ID":"FTHQ6","Station_Nam":"FORT HOPE","Latitude":"51.55820","Longitude":"-87.90510","Snowdepth":"7.870","Units":"in","Rept_Date":"2021-01-08 06"},"coordinates":[2523,9901]},{"type":"Point","properties":{"Station_ID":"NY-HR-18","Station_Nam":"SALISBURY CENTER 1.8 NW, NY","Latitude":"43.16260","Longitude":"-74.80880","Snowdepth":"7.800","Units":"in","Rept_Date":"2021-01-07 10"},"coordinates":[6064,5026]},{"type":"Point","properties":{"Station_ID":"WI-VL-9","Station_Nam":"LAND O' LAKES 11.7 W, WI","Latitude":"46.19023","Longitude":"-89.45790","Snowdepth":"7.500","Units":"in","Rept_Date":"2021-01-07 13"},"coordinates":[2103,6784]},{"type":"Point","properties":{"Station_ID":"WI-MW-18","Station_Nam":"WEST ALLIS 0.7 SSE, WI","Latitude":"42.99802","Longitude":"-88.02380","Snowdepth":"7.500","Units":"in","Rept_Date":"2021-01-07 14"},"coordinates":[2491,4931]},{"type":"Point","properties":{"Station_ID":"WI-BY-6","Station_Nam":"BARNES 2.2 S, WI","Latitude":"46.30264","Longitude":"-91.50320","Snowdepth":"7.500","Units":"in","Rept_Date":"2021-01-07 13"},"coordinates":[1551,6849]},{"type":"Point","properties":{"Station_ID":"NY-FK-9","Station_Nam":"GABRIELS 1.3 SE, NY","Latitude":"44.41934","Longitude":"-74.16194","Snowdepth":"7.500","Units":"in","Rept_Date":"2021-01-07 12"},"coordinates":[6239,5756]},{"type":"Point","properties":{"Station_ID":"IL-JD-6","Station_Nam":"HANOVER 0.2 NW, IL","Latitude":"42.25640","Longitude":"-90.28109","Snowdepth":"7.500","Units":"in","Rept_Date":"2021-01-07 13"},"coordinates":[1881,4500]},{"type":"Point","properties":{"Station_ID":"IA-JH-14","Station_Nam":"SWISHER 0.4 NNE, IA","Latitude":"41.84830","Longitude":"-91.69210","Snowdepth":"7.500","Units":"in","Rept_Date":"2021-01-07 14"},"coordinates":[1499,4263]},{"type":"Point","properties":{"Station_ID":"CAN-NB-98","Station_Nam":"HOYT 4.2 S, CAN","Latitude":"45.54763","Longitude":"-66.55440","Snowdepth":"7.500","Units":"in","Rept_Date":"2021-01-07 12"},"coordinates":[8295,6411]},{"type":"Point","properties":{"Station_ID":"CAN-NB-97","Station_Nam":"NEW MARYLAND 0.6 NW, CAN","Latitude":"45.90112","Longitude":"-66.68739","Snowdepth":"7.500","Units":"in","Rept_Date":"2021-01-07 12"},"coordinates":[8259,6616]},{"type":"Point","properties":{"Station_ID":"CAN-NB-64","Station_Nam":"KESWICK RIDGE 4.0 SE, CAN","Latitude":"45.97014","Longitude":"-66.85538","Snowdepth":"7.500","Units":"in","Rept_Date":"2021-01-07 12"},"coordinates":[8214,6656]},{"type":"Point","properties":{"Station_ID":"CAN-QC-47","Station_Nam":"SAINTE-FOY 1.8 ENE, CAN","Latitude":"46.76934","Longitude":"-71.27124","Snowdepth":"7.300","Units":"in","Rept_Date":"2021-01-07 12"},"coordinates":[7020,7120]},{"type":"Point","properties":{"Station_ID":"CAN-QC-56","Station_Nam":"SUTTON 2.6 N, CAN","Latitude":"45.13119","Longitude":"-72.61218","Snowdepth":"7.100","Units":"in","Rept_Date":"2021-01-07 12"},"coordinates":[6657,6169]},{"type":"Point","properties":{"Station_ID":"CAN-ON-804","Station_Nam":"KEMBLE 1.6 S - GSCA, CAN","Latitude":"44.71013","Longitude":"-80.92735","Snowdepth":"7.100","Units":"in","Rept_Date":"2021-01-07 13"},"coordinates":[4410,5925]},{"type":"Point","properties":{"Station_ID":"CAN-NB-84","Station_Nam":"NORTON 7.1 WNW - KWRC, CAN","Latitude":"45.66195","Longitude":"-65.78279","Snowdepth":"7.100","Units":"in","Rept_Date":"2021-01-07 11"},"coordinates":[8504,6477]},{"type":"Point","properties":{"Station_ID":"CAN-NB-108","Station_Nam":"LINCOLN 2.7 SSE, CAN","Latitude":"45.88222","Longitude":"-66.57032","Snowdepth":"7.100","Units":"in","Rept_Date":"2021-01-07 12"},"coordinates":[8291,6605]},{"type":"Point","properties":{"Station_ID":"WI-WK-34","Station_Nam":"MUKWONAGO 5.3 W, WI","Latitude":"42.85380","Longitude":"-88.43550","Snowdepth":"7.000","Units":"in","Rept_Date":"2021-01-07 13"},"coordinates":[2380,4847]},{"type":"Point","properties":{"Station_ID":"WI-PR-6","Station_Nam":"PHILLIPS 1.3 S, WI","Latitude":"45.67677","Longitude":"-90.39543","Snowdepth":"7.000","Units":"in","Rept_Date":"2021-01-07 12"},"coordinates":[1850,6486]},{"type":"Point","properties":{"Station_ID":"WI-PC-5","Station_Nam":"RIVER FALLS 1.2 SSW, WI","Latitude":"44.84032","Longitude":"-92.63500","Snowdepth":"7.000","Units":"in","Rept_Date":"2021-01-07 13"},"coordinates":[1245,6000]},{"type":"Point","properties":{"Station_ID":"WI-OZ-17","Station_Nam":"WEST BEND 7.3 E, WI","Latitude":"43.42860","Longitude":"-88.03870","Snowdepth":"7.000","Units":"in","Rept_Date":"2021-01-07 13"},"coordinates":[2487,5181]},{"type":"Point","properties":{"Station_ID":"WI-DA-99","Station_Nam":"FITCHBURG 1.1 NW, WI","Latitude":"42.99740","Longitude":"-89.44046","Snowdepth":"7.000","Units":"in","Rept_Date":"2021-01-07 13"},"coordinates":[2108,4930]},{"type":"Point","properties":{"Station_ID":"WI-BT-14","Station_Nam":"OAKLAND 9.0 ENE, WI","Latitude":"45.95184","Longitude":"-92.21653","Snowdepth":"7.000","Units":"in","Rept_Date":"2021-01-07 13"},"coordinates":[1358,6646]},{"type":"Point","properties":{"Station_ID":"VT-WS-19","Station_Nam":"WATERBURY 3.0 NW, VT","Latitude":"44.36060","Longitude":"-72.80770","Snowdepth":"7.000","Units":"in","Rept_Date":"2021-01-07 11"},"coordinates":[6605,5722]},{"type":"Point","properties":{"Station_ID":"VT-OL-2","Station_Nam":"BARTON 3.0 ENE, VT","Latitude":"44.75863","Longitude":"-72.11680","Snowdepth":"7.000","Units":"in","Rept_Date":"2021-01-07 12"},"coordinates":[6791,5953]},{"type":"Point","properties":{"Station_ID":"VT-OL-1","Station_Nam":"WESTFIELD 0.7 WNW, VT","Latitude":"44.89160","Longitude":"-72.44350","Snowdepth":"7.000","Units":"in","Rept_Date":"2021-01-07 12"},"coordinates":[6703,6030]},{"type":"Point","properties":{"Station_ID":"VT-OG-14","Station_Nam":"BRADFORD 2.2 NNW, VT","Latitude":"44.02268","Longitude":"-72.14756","Snowdepth":"7.000","Units":"in","Rept_Date":"2021-01-07 13"},"coordinates":[6783,5526]},{"type":"Point","properties":{"Station_ID":"TILA4","Station_Nam":"WITTS SPRING","Latitude":"35.76920","Longitude":"-92.86960","Snowdepth":"7.000","Units":"in","Rept_Date":"2021-01-07 13"},"coordinates":[1181,733]},{"type":"Point","properties":{"Station_ID":"SUAW3","Station_Nam":"SUAMICO","Latitude":"44.60190","Longitude":"-88.09780","Snowdepth":"7.000","Units":"in","Rept_Date":"2021-01-07 12"},"coordinates":[2471,5862]},{"type":"Point","properties":{"Station_ID":"SSMM4","Station_Nam":"SAULT STE MARIE","Latitude":"46.48660","Longitude":"-84.40250","Snowdepth":"7.000","Units":"in","Rept_Date":"2021-01-07 13"},"coordinates":[3470,6956]},{"type":"Point","properties":{"Station_ID":"SCRW3","Station_Nam":"ST CROIX FALLS","Latitude":"45.41170","Longitude":"-92.64660","Snowdepth":"7.000","Units":"in","Rept_Date":"2021-01-07 13"},"coordinates":[1241,6332]},{"type":"Point","properties":{"Station_ID":"RKWM1","Station_Nam":"MOOSEHEAD LAKE","Latitude":"45.58330","Longitude":"-69.71670","Snowdepth":"7.000","Units":"in","Rept_Date":"2021-01-07 12"},"coordinates":[7440,6432]},{"type":"Point","properties":{"Station_ID":"RANM1","Station_Nam":"RANGELEY","Latitude":"44.98910","Longitude":"-70.67190","Snowdepth":"7.000","Units":"in","Rept_Date":"2021-01-07 12"},"coordinates":[7182,6087]},{"type":"Point","properties":{"Station_ID":"PTBN3","Station_Nam":"PITTSBURG RESERVOIR","Latitude":"45.04690","Longitude":"-71.38300","Snowdepth":"7.000","Units":"in","Rept_Date":"2021-01-07 12"},"coordinates":[6990,6120]},{"type":"Point","properties":{"Station_ID":"PLEP1","Station_Nam":"PLEASANT MOUNT 1 W","Latitude":"41.73940","Longitude":"-75.44650","Snowdepth":"7.000","Units":"in","Rept_Date":"2021-01-07 14"},"coordinates":[5891,4200]},{"type":"Point","properties":{"Station_ID":"PHEW3","Station_Nam":"PHELPS","Latitude":"46.06630","Longitude":"-89.07520","Snowdepth":"7.000","Units":"in","Rept_Date":"2021-01-07 13"},"coordinates":[2207,6712]},{"type":"Point","properties":{"Station_ID":"PDGM4","Station_Nam":"PAULDING","Latitude":"46.39760","Longitude":"-89.17940","Snowdepth":"7.000","Units":"in","Rept_Date":"2021-01-07 13"},"coordinates":[2179,6905]},{"type":"Point","properties":{"Station_ID":"OTTM5","Station_Nam":"OTTERTAIL,MN","Latitude":"46.41670","Longitude":"-95.56670","Snowdepth":"7.000","Units":"in","Rept_Date":"2021-01-07 11"},"coordinates":[452,6916]},{"type":"Point","properties":{"Station_ID":"OLNI4","Station_Nam":"OELWEIN 1E","Latitude":"42.68010","Longitude":"-91.87510","Snowdepth":"7.000","Units":"in","Rept_Date":"2021-01-07 12"},"coordinates":[1450,4746]},{"type":"Point","properties":{"Station_ID":"NY-HM-9","Station_Nam":"HOFFMEISTER 2.0 E, NY","Latitude":"43.38695","Longitude":"-74.67723","Snowdepth":"7.000","Units":"in","Rept_Date":"2021-01-07 13"},"coordinates":[6099,5157]},{"type":"Point","properties":{"Station_ID":"NY-ES-11","Station_Nam":"VERMONTVILLE 2.8 S, NY","Latitude":"44.41205","Longitude":"-74.06760","Snowdepth":"7.000","Units":"in","Rept_Date":"2021-01-07 12"},"coordinates":[6264,5752]},{"type":"Point","properties":{"Station_ID":"NY-CR-5","Station_Nam":"MARATHON 1.0 NW, NY","Latitude":"42.45161","Longitude":"-76.04370","Snowdepth":"7.000","Units":"in","Rept_Date":"2021-01-07 12"},"coordinates":[5730,4613]},{"type":"Point","properties":{"Station_ID":"NH-GR-47","Station_Nam":"LITTLETON 7.3 W, NH","Latitude":"44.31847","Longitude":"-71.91086","Snowdepth":"7.000","Units":"in","Rept_Date":"2021-01-07 13"},"coordinates":[6847,5697]},{"type":"Point","properties":{"Station_ID":"NCBN6","Station_Nam":"NEWCOMB","Latitude":"43.97070","Longitude":"-74.22200","Snowdepth":"7.000","Units":"in","Rept_Date":"2021-01-07 12"},"coordinates":[6222,5495]},{"type":"Point","properties":{"Station_ID":"MWOW3","Station_Nam":"MUKWONAGO","Latitude":"42.85380","Longitude":"-88.43550","Snowdepth":"7.000","Units":"in","Rept_Date":"2021-01-07 13"},"coordinates":[2380,4847]},{"type":"Point","properties":{"Station_ID":"MPXM5","Station_Nam":"CHANHASSEN WSFO","Latitude":"44.84960","Longitude":"-93.56440","Snowdepth":"7.000","Units":"in","Rept_Date":"2021-01-08 06"},"coordinates":[993,6006]},{"type":"Point","properties":{"Station_ID":"MN-RM-56","Station_Nam":"ROSEVILLE 1.6 NW, MN","Latitude":"45.03303","Longitude":"-93.17523","Snowdepth":"7.000","Units":"in","Rept_Date":"2021-01-07 13"},"coordinates":[1098,6112]},{"type":"Point","properties":{"Station_ID":"MN-RM-15","Station_Nam":"ROSEVILLE 2.1 NW, MN","Latitude":"45.03502","Longitude":"-93.18620","Snowdepth":"7.000","Units":"in","Rept_Date":"2021-01-07 12"},"coordinates":[1096,6113]},{"type":"Point","properties":{"Station_ID":"MN-IT-7","Station_Nam":"GRAND RAPIDS 6.2 SSW, MN","Latitude":"47.13687","Longitude":"-93.56660","Snowdepth":"7.000","Units":"in","Rept_Date":"2021-01-07 12"},"coordinates":[993,7334]},{"type":"Point","properties":{"Station_ID":"MN-IT-23","Station_Nam":"BOVEY 13.4 N, MN","Latitude":"47.48855","Longitude":"-93.43497","Snowdepth":"7.000","Units":"in","Rept_Date":"2021-01-07 13"},"coordinates":[1028,7538]},{"type":"Point","properties":{"Station_ID":"MN-IT-1","Station_Nam":"GRAND RAPIDS 2.0 E, MN","Latitude":"47.22266","Longitude":"-93.49600","Snowdepth":"7.000","Units":"in","Rept_Date":"2021-01-07 14"},"coordinates":[1012,7384]},{"type":"Point","properties":{"Station_ID":"MN-IS-21","Station_Nam":"ISANTI 5.0 SW, MN","Latitude":"45.43360","Longitude":"-93.30200","Snowdepth":"7.000","Units":"in","Rept_Date":"2021-01-07 14"},"coordinates":[1064,6345]},{"type":"Point","properties":{"Station_ID":"MN-GH-28","Station_Nam":"CANNON FALLS 0.5 SE, MN","Latitude":"44.50866","Longitude":"-92.89526","Snowdepth":"7.000","Units":"in","Rept_Date":"2021-01-07 14"},"coordinates":[1174,5808]},{"type":"Point","properties":{"Station_ID":"MN-CW-44","Station_Nam":"CROSBY 1.1 SW, MN","Latitude":"46.47772","Longitude":"-93.97293","Snowdepth":"7.000","Units":"in","Rept_Date":"2021-01-07 13"},"coordinates":[883,6951]},{"type":"Point","properties":{"Station_ID":"MKX","Station_Nam":"MILWAUKEE, WI","Latitude":"42.96810","Longitude":"-88.54920","Snowdepth":"7.000","Units":"in","Rept_Date":"2021-01-08 06"},"coordinates":[2349,4913]},{"type":"Point","properties":{"Station_ID":"MI-OT-17","Station_Nam":"GAYLORD 4.1 S, MI","Latitude":"44.96388","Longitude":"-84.68467","Snowdepth":"7.000","Units":"in","Rept_Date":"2021-01-07 12"},"coordinates":[3394,6072]},{"type":"Point","properties":{"Station_ID":"MI-GL-4","Station_Nam":"GLADWIN 10.4 NNW, MI","Latitude":"44.11865","Longitude":"-84.58470","Snowdepth":"7.000","Units":"in","Rept_Date":"2021-01-07 14"},"coordinates":[3421,5581]},{"type":"Point","properties":{"Station_ID":"ME-KB-53","Station_Nam":"READFIELD 2.0 NNE, ME","Latitude":"44.41620","Longitude":"-69.95190","Snowdepth":"7.000","Units":"in","Rept_Date":"2021-01-07 13"},"coordinates":[7377,5754]},{"type":"Point","properties":{"Station_ID":"ME-FR-2","Station_Nam":"TEMPLE 1.8 W, ME","Latitude":"44.68329","Longitude":"-70.26420","Snowdepth":"7.000","Units":"in","Rept_Date":"2021-01-07 12"},"coordinates":[7292,5909]},{"type":"Point","properties":{"Station_ID":"LPLN6","Station_Nam":"LAKE PLACID 2 S","Latitude":"44.30420","Longitude":"-73.98390","Snowdepth":"7.000","Units":"in","Rept_Date":"2021-01-07 13"},"coordinates":[6287,5689]},{"type":"Point","properties":{"Station_ID":"LNKM1","Station_Nam":"LINCOLN SANITARY DISTRICT/WTP","Latitude":"45.37520","Longitude":"-68.50820","Snowdepth":"7.000","Units":"in","Rept_Date":"2021-01-07 12"},"coordinates":[7767,6311]},{"type":"Point","properties":{"Station_ID":"JOHV1","Station_Nam":"JOHNSON 2 N","Latitude":"44.65790","Longitude":"-72.67850","Snowdepth":"7.000","Units":"in","Rept_Date":"2021-01-07 12"},"coordinates":[6640,5894]},{"type":"Point","properties":{"Station_ID":"ISEM5","Station_Nam":"ISLE 12N","Latitude":"46.31970","Longitude":"-93.50140","Snowdepth":"7.000","Units":"in","Rept_Date":"2021-01-07 14"},"coordinates":[1010,6859]},{"type":"Point","properties":{"Station_ID":"IL-WN-26","Station_Nam":"ROCKFORD 1.5 ENE, IL","Latitude":"42.27775","Longitude":"-89.03590","Snowdepth":"7.000","Units":"in","Rept_Date":"2021-01-07 15"},"coordinates":[2218,4512]},{"type":"Point","properties":{"Station_ID":"IL-SP-26","Station_Nam":"FREEPORT 2.9 WSW, IL","Latitude":"42.26779","Longitude":"-89.68323","Snowdepth":"7.000","Units":"in","Rept_Date":"2021-01-07 14"},"coordinates":[2043,4507]},{"type":"Point","properties":{"Station_ID":"HPN11_MADIS","Station_Nam":"SAINT BONIFACIUS","Latitude":"44.89792","Longitude":"-93.73460","Snowdepth":"7.000","Units":"in","Rept_Date":"2021-01-08 06"},"coordinates":[947,6034]},{"type":"Point","properties":{"Station_ID":"HMYM1","Station_Nam":"HARMONY","Latitude":"44.94660","Longitude":"-69.54560","Snowdepth":"7.000","Units":"in","Rept_Date":"2021-01-07 12"},"coordinates":[7486,6062]},{"type":"Point","properties":{"Station_ID":"GERW3","Station_Nam":"GERMANTOWN,WI","Latitude":"43.21670","Longitude":"-88.11670","Snowdepth":"7.000","Units":"in","Rept_Date":"2021-01-07 13"},"coordinates":[2466,5058]},{"type":"Point","properties":{"Station_ID":"FISM1","Station_Nam":"FORT KENT COOP","Latitude":"47.23850","Longitude":"-68.61240","Snowdepth":"7.000","Units":"in","Rept_Date":"2021-01-07 12"},"coordinates":[7739,7393]},{"type":"Point","properties":{"Station_ID":"FEEI2","Station_Nam":"PECATONICA RIVER","Latitude":"42.30000","Longitude":"-89.61670","Snowdepth":"7.000","Units":"in","Rept_Date":"2021-01-07 13"},"coordinates":[2060,4525]},{"type":"Point","properties":{"Station_ID":"FEDM5","Station_Nam":"LEECH LAKE DAM","Latitude":"47.24670","Longitude":"-94.22280","Snowdepth":"7.000","Units":"in","Rept_Date":"2021-01-07 14"},"coordinates":[815,7398]},{"type":"Point","properties":{"Station_ID":"DFXM1","Station_Nam":"DOVER-FOXCROFT","Latitude":"45.18720","Longitude":"-69.18350","Snowdepth":"7.000","Units":"in","Rept_Date":"2021-01-07 12"},"coordinates":[7584,6202]},{"type":"Point","properties":{"Station_ID":"COUW3","Station_Nam":"COUDERAY,WI","Latitude":"45.86670","Longitude":"-91.45000","Snowdepth":"7.000","Units":"in","Rept_Date":"2021-01-07 22"},"coordinates":[1565,6596]},{"type":"Point","properties":{"Station_ID":"CORV1","Station_Nam":"CORINTH","Latitude":"44.00690","Longitude":"-72.31940","Snowdepth":"7.000","Units":"in","Rept_Date":"2021-01-07 12"},"coordinates":[6737,5516]},{"type":"Point","properties":{"Station_ID":"CORM1","Station_Nam":"CORINNA","Latitude":"44.91980","Longitude":"-69.24180","Snowdepth":"7.000","Units":"in","Rept_Date":"2021-01-07 15"},"coordinates":[7569,6047]},{"type":"Point","properties":{"Station_ID":"CARM1","Station_Nam":"CARIBOU WFO","Latitude":"46.86810","Longitude":"-68.01250","Snowdepth":"7.000","Units":"in","Rept_Date":"2021-01-08 05"},"coordinates":[7901,7178]},{"type":"Point","properties":{"Station_ID":"CAR","Station_Nam":"CARIBOU, ME","Latitude":"46.86830","Longitude":"-68.01360","Snowdepth":"7.000","Units":"in","Rept_Date":"2021-01-07 12"},"coordinates":[7901,7178]},{"type":"Point","properties":{"Station_ID":"BROW3","Station_Nam":"BRODHEAD,WI","Latitude":"42.61720","Longitude":"-89.38970","Snowdepth":"7.000","Units":"in","Rept_Date":"2021-01-07 13"},"coordinates":[2122,4710]},{"type":"Point","properties":{"Station_ID":"BRAM1","Station_Nam":"BRASSUA DAM","Latitude":"45.66020","Longitude":"-69.81190","Snowdepth":"7.000","Units":"in","Rept_Date":"2021-01-07 12"},"coordinates":[7414,6476]},{"type":"Point","properties":{"Station_ID":"BLVI4","Station_Nam":"MISSISSIPPI RIVER","Latitude":"42.26670","Longitude":"-90.41670","Snowdepth":"7.000","Units":"in","Rept_Date":"2021-01-07 12"},"coordinates":[1844,4506]},{"type":"Point","properties":{"Station_ID":"BLTW3","Station_Nam":"BELOIT,WI","Latitude":"42.50000","Longitude":"-89.03330","Snowdepth":"7.000","Units":"in","Rept_Date":"2021-01-07 12"},"coordinates":[2218,4642]},{"type":"Point","properties":{"Station_ID":"ANJM4","Station_Nam":"SNOW PAID OBSERVER FOR KANJ","Latitude":"46.48670","Longitude":"-84.40260","Snowdepth":"7.000","Units":"in","Rept_Date":"2021-01-07 18"},"coordinates":[3470,6956]},{"type":"Point","properties":{"Station_ID":"ANJ","Station_Nam":"SAULT STE MARIE","Latitude":"46.46670","Longitude":"-84.36670","Snowdepth":"7.000","Units":"in","Rept_Date":"2021-01-08 00"},"coordinates":[3480,6945]},{"type":"Point","properties":{"Station_ID":"AFTW3","Station_Nam":"ROCK RIVER","Latitude":"42.61670","Longitude":"-89.06670","Snowdepth":"7.000","Units":"in","Rept_Date":"2021-01-07 13"},"coordinates":[2209,4709]},{"type":"Point","properties":{"Station_ID":"QCX","Station_Nam":"QCX","Latitude":"51.32830","Longitude":"-70.08060","Snowdepth":"6.929","Units":"in","Rept_Date":"2021-01-07 12"},"coordinates":[7342,9768]},{"type":"Point","properties":{"Station_ID":"WI-OZ-22","Station_Nam":"SAUKVILLE 0.9 SSW, WI","Latitude":"43.37254","Longitude":"-87.95009","Snowdepth":"6.500","Units":"in","Rept_Date":"2021-01-07 13"},"coordinates":[2511,5148]},{"type":"Point","properties":{"Station_ID":"WI-JF-24","Station_Nam":"LAC LABELLE 1.2 SW, WI","Latitude":"43.13126","Longitude":"-88.53959","Snowdepth":"6.500","Units":"in","Rept_Date":"2021-01-07 12"},"coordinates":[2352,5008]},{"type":"Point","properties":{"Station_ID":"WI-JF-10","Station_Nam":"PALMYRA 1.5 N, WI","Latitude":"42.90084","Longitude":"-88.58620","Snowdepth":"6.500","Units":"in","Rept_Date":"2021-01-07 13"},"coordinates":[2339,4874]},{"type":"Point","properties":{"Station_ID":"WI-DA-87","Station_Nam":"DUNKIRK 0.1 NW, WI","Latitude":"42.88356","Longitude":"-89.21056","Snowdepth":"6.500","Units":"in","Rept_Date":"2021-01-07 12"},"coordinates":[2170,4864]},{"type":"Point","properties":{"Station_ID":"VT-WS-10","Station_Nam":"NORTHFIELD 1.5 N, VT","Latitude":"44.16986","Longitude":"-72.65200","Snowdepth":"6.500","Units":"in","Rept_Date":"2021-01-07 12"},"coordinates":[6647,5611]},{"type":"Point","properties":{"Station_ID":"VT-WR-2","Station_Nam":"POMFRET 2.6 N, VT","Latitude":"43.74230","Longitude":"-72.52550","Snowdepth":"6.500","Units":"in","Rept_Date":"2021-01-07 12"},"coordinates":[6681,5363]},{"type":"Point","properties":{"Station_ID":"VT-WR-17","Station_Nam":"ROCHESTER 2.3 NE, VT","Latitude":"43.89418","Longitude":"-72.76992","Snowdepth":"6.500","Units":"in","Rept_Date":"2021-01-07 12"},"coordinates":[6615,5451]},{"type":"Point","properties":{"Station_ID":"VT-OL-9","Station_Nam":"GREENSBORO 2.1 NNW, VT","Latitude":"44.60528","Longitude":"-72.30940","Snowdepth":"6.500","Units":"in","Rept_Date":"2021-01-07 12"},"coordinates":[6739,5864]},{"type":"Point","properties":{"Station_ID":"NY-ES-6","Station_Nam":"OLMSTEDVILLE 4.6 NNE, NY","Latitude":"43.83350","Longitude":"-73.89780","Snowdepth":"6.500","Units":"in","Rept_Date":"2021-01-07 13"},"coordinates":[6310,5416]},{"type":"Point","properties":{"Station_ID":"NH-GR-49","Station_Nam":"PLYMOUTH 3.7 N, NH","Latitude":"43.79048","Longitude":"-71.68413","Snowdepth":"6.500","Units":"in","Rept_Date":"2021-01-07 12"},"coordinates":[6908,5391]},{"type":"Point","properties":{"Station_ID":"MN-RM-120","Station_Nam":"MAPLEWOOD 5.6 SSE, MN","Latitude":"44.90588","Longitude":"-92.99712","Snowdepth":"6.500","Units":"in","Rept_Date":"2021-01-07 15"},"coordinates":[1147,6038]},{"type":"Point","properties":{"Station_ID":"MN-HN-31","Station_Nam":"MAPLE GROVE 1.0 NNE, MN","Latitude":"45.12261","Longitude":"-93.45790","Snowdepth":"6.500","Units":"in","Rept_Date":"2021-01-07 16"},"coordinates":[1022,6164]},{"type":"Point","properties":{"Station_ID":"ME-AR-18","Station_Nam":"NEW SWEDEN 4.9 NNW, ME","Latitude":"47.01080","Longitude":"-68.14390","Snowdepth":"6.500","Units":"in","Rept_Date":"2021-01-07 12"},"coordinates":[7865,7261]},{"type":"Point","properties":{"Station_ID":"IA-LS-5","Station_Nam":"WAPELLO 5.4 SE, IA","Latitude":"41.11441","Longitude":"-91.13017","Snowdepth":"6.500","Units":"in","Rept_Date":"2021-01-07 13"},"coordinates":[1651,3837]},{"type":"Point","properties":{"Station_ID":"CAN-ON-771","Station_Nam":"KENORA 8.7 NNE - CANWARN, CAN","Latitude":"49.84171","Longitude":"-94.44386","Snowdepth":"6.500","Units":"in","Rept_Date":"2021-01-07 13"},"coordinates":[756,8904]},{"type":"Point","properties":{"Station_ID":"CAN-NB-11","Station_Nam":"MIRAMICHI 3.3 S, CAN","Latitude":"46.99343","Longitude":"-65.50690","Snowdepth":"6.500","Units":"in","Rept_Date":"2021-01-07 12"},"coordinates":[8578,7251]},{"type":"Point","properties":{"Station_ID":"HPN02_MADIS","Station_Nam":"MAPLE GROVE","Latitude":"45.11820","Longitude":"-93.42830","Snowdepth":"6.300","Units":"in","Rept_Date":"2021-01-08 00"},"coordinates":[1030,6162]},{"type":"Point","properties":{"Station_ID":"CAN-QC-51","Station_Nam":"BELOEIL 0.7 NW, CAN","Latitude":"45.58049","Longitude":"-73.21218","Snowdepth":"6.300","Units":"in","Rept_Date":"2021-01-07 12"},"coordinates":[6495,6430]},{"type":"Point","properties":{"Station_ID":"CAN-NB-5","Station_Nam":"OAK POINT 0.9 SSW, CA","Latitude":"45.50752","Longitude":"-66.09860","Snowdepth":"6.300","Units":"in","Rept_Date":"2021-01-07 12"},"coordinates":[8418,6388]},{"type":"Point","properties":{"Station_ID":"IL-CK-288","Station_Nam":"ROSELLE 0.8 N, IL","Latitude":"41.99255","Longitude":"-88.08422","Snowdepth":"6.200","Units":"in","Rept_Date":"2021-01-07 13"},"coordinates":[2475,4347]},{"type":"Point","properties":{"Station_ID":"CAN-MB-298","Station_Nam":"GARDENTON 4.2 W - SRRCD, CAN","Latitude":"49.09480","Longitude":"-96.75446","Snowdepth":"6.100","Units":"in","Rept_Date":"2021-01-07 14"},"coordinates":[131,8471]},{"type":"Point","properties":{"Station_ID":"QLP","Station_Nam":"QLP","Latitude":"48.13920","Longitude":"-72.63830","Snowdepth":"6.063","Units":"in","Rept_Date":"2021-01-07 12"},"coordinates":[6650,7916]},{"type":"Point","properties":{"Station_ID":"WVLM1","Station_Nam":"WATERVILLE TREATMENT PLT","Latitude":"44.52720","Longitude":"-69.65440","Snowdepth":"6.000","Units":"in","Rept_Date":"2021-01-07 15"},"coordinates":[7457,5819]},{"type":"Point","properties":{"Station_ID":"WTBW3","Station_Nam":"WEST BEND PUBLIC WORKS","Latitude":"43.41110","Longitude":"-88.19380","Snowdepth":"6.000","Units":"in","Rept_Date":"2021-01-07 15"},"coordinates":[2445,5171]},{"type":"Point","properties":{"Station_ID":"WSTW3","Station_Nam":"WEST BEND -FIRE","Latitude":"43.43138","Longitude":"-88.16111","Snowdepth":"6.000","Units":"in","Rept_Date":"2021-01-07 13"},"coordinates":[2454,5182]},{"type":"Point","properties":{"Station_ID":"WSHI4","Station_Nam":"WASHINGTON","Latitude":"41.28240","Longitude":"-91.70780","Snowdepth":"6.000","Units":"in","Rept_Date":"2021-01-07 13"},"coordinates":[1495,3935]},{"type":"Point","properties":{"Station_ID":"WRUM5","Station_Nam":"WARROAD 4W","Latitude":"48.89600","Longitude":"-95.40700","Snowdepth":"6.000","Units":"in","Rept_Date":"2021-01-08 04"},"coordinates":[495,8355]},{"type":"Point","properties":{"Station_ID":"WORV1","Station_Nam":"WORCESTER 2 W","Latitude":"44.37470","Longitude":"-72.58220","Snowdepth":"6.000","Units":"in","Rept_Date":"2021-01-07 12"},"coordinates":[6666,5730]},{"type":"Point","properties":{"Station_ID":"WLLP1","Station_Nam":"WELLSBORO 4 SW","Latitude":"41.70030","Longitude":"-77.38940","Snowdepth":"6.000","Units":"in","Rept_Date":"2021-01-07 12"},"coordinates":[5366,4177]},{"type":"Point","properties":{"Station_ID":"WI-WS-5","Station_Nam":"JACKSON 0.2 WSW, WI","Latitude":"43.32007","Longitude":"-88.16820","Snowdepth":"6.000","Units":"in","Rept_Date":"2021-01-07 12"},"coordinates":[2452,5118]},{"type":"Point","properties":{"Station_ID":"WI-WK-73","Station_Nam":"MENOMONEE FALLS 3.2 NNW, WI","Latitude":"43.18817","Longitude":"-88.15555","Snowdepth":"6.000","Units":"in","Rept_Date":"2021-01-07 13"},"coordinates":[2456,5041]},{"type":"Point","properties":{"Station_ID":"WI-WK-68","Station_Nam":"OCONOMOWOC 1.0 S, WI","Latitude":"43.09530","Longitude":"-88.48590","Snowdepth":"6.000","Units":"in","Rept_Date":"2021-01-07 14"},"coordinates":[2366,4987]},{"type":"Point","properties":{"Station_ID":"WI-WK-61","Station_Nam":"HARTLAND 5.0 NNE, WI","Latitude":"43.16351","Longitude":"-88.30400","Snowdepth":"6.000","Units":"in","Rept_Date":"2021-01-07 13"},"coordinates":[2415,5027]},{"type":"Point","properties":{"Station_ID":"WI-WK-42","Station_Nam":"OCONOMOWOC 1.2 W, WI","Latitude":"43.10560","Longitude":"-88.52044","Snowdepth":"6.000","Units":"in","Rept_Date":"2021-01-07 13"},"coordinates":[2357,4993]},{"type":"Point","properties":{"Station_ID":"WI-WK-29","Station_Nam":"OCONOMOWOC 4.6 NE, WI","Latitude":"43.14621","Longitude":"-88.42860","Snowdepth":"6.000","Units":"in","Rept_Date":"2021-01-07 15"},"coordinates":[2382,5017]},{"type":"Point","properties":{"Station_ID":"WI-WK-20","Station_Nam":"MUKWONAGO 0.5 N, WI","Latitude":"42.87385","Longitude":"-88.33180","Snowdepth":"6.000","Units":"in","Rept_Date":"2021-01-07 13"},"coordinates":[2408,4859]},{"type":"Point","properties":{"Station_ID":"WI-PC-10","Station_Nam":"RIVER FALLS 1.4 S, WI","Latitude":"44.83580","Longitude":"-92.62100","Snowdepth":"6.000","Units":"in","Rept_Date":"2021-01-07 13"},"coordinates":[1248,5998]},{"type":"Point","properties":{"Station_ID":"WI-OZ-12","Station_Nam":"PORT WASHINGTON 0.5 S, WI","Latitude":"43.38610","Longitude":"-87.87900","Snowdepth":"6.000","Units":"in","Rept_Date":"2021-01-07 13"},"coordinates":[2530,5156]},{"type":"Point","properties":{"Station_ID":"WI-MW-14","Station_Nam":"MILWAUKEE 3.6 NNW, WI","Latitude":"43.11300","Longitude":"-87.98730","Snowdepth":"6.000","Units":"in","Rept_Date":"2021-01-07 11"},"coordinates":[2501,4997]},{"type":"Point","properties":{"Station_ID":"WI-JF-22","Station_Nam":"SULLIVAN 2.6 SW, WI","Latitude":"42.98562","Longitude":"-88.62498","Snowdepth":"6.000","Units":"in","Rept_Date":"2021-01-07 14"},"coordinates":[2329,4923]},{"type":"Point","properties":{"Station_ID":"WI-JF-17","Station_Nam":"JOHNSON CREEK 2.7 SSW, WI","Latitude":"43.04559","Longitude":"-88.79925","Snowdepth":"6.000","Units":"in","Rept_Date":"2021-01-07 13"},"coordinates":[2281,4958]},{"type":"Point","properties":{"Station_ID":"WI-DD-16","Station_Nam":"BEAVER DAM 2.4 WNW, WI","Latitude":"43.47210","Longitude":"-88.88280","Snowdepth":"6.000","Units":"in","Rept_Date":"2021-01-07 13"},"coordinates":[2259,5206]},{"type":"Point","properties":{"Station_ID":"WI-BR-2","Station_Nam":"CHETEK 2.0 SE, WI","Latitude":"45.29427","Longitude":"-91.62470","Snowdepth":"6.000","Units":"in","Rept_Date":"2021-01-07 13"},"coordinates":[1518,6264]},{"type":"Point","properties":{"Station_ID":"WHTW3","Station_Nam":"WHITEWATER,WI","Latitude":"42.85670","Longitude":"-88.72940","Snowdepth":"6.000","Units":"in","Rept_Date":"2021-01-07 13"},"coordinates":[2300,4849]},{"type":"Point","properties":{"Station_ID":"WHFN6","Station_Nam":"WILMINGTON 2W","Latitude":"44.39310","Longitude":"-73.85890","Snowdepth":"6.000","Units":"in","Rept_Date":"2021-01-07 13"},"coordinates":[6320,5741]},{"type":"Point","properties":{"Station_ID":"WELM5","Station_Nam":"WELLS","Latitude":"43.74680","Longitude":"-93.73680","Snowdepth":"6.000","Units":"in","Rept_Date":"2021-01-07 14"},"coordinates":[947,5365]},{"type":"Point","properties":{"Station_ID":"WBRM4","Station_Nam":"WEST BRANCH 3SE","Latitude":"44.25410","Longitude":"-84.20110","Snowdepth":"6.000","Units":"in","Rept_Date":"2021-01-07 13"},"coordinates":[3525,5660]},{"type":"Point","properties":{"Station_ID":"WAIV1","Station_Nam":"WAITSFIELD","Latitude":"44.17560","Longitude":"-72.79610","Snowdepth":"6.000","Units":"in","Rept_Date":"2021-01-07 12"},"coordinates":[6608,5614]},{"type":"Point","properties":{"Station_ID":"VT-WS-11","Station_Nam":"WAITSFIELD 1.8 SE, VT","Latitude":"44.17551","Longitude":"-72.79540","Snowdepth":"6.000","Units":"in","Rept_Date":"2021-01-07 12"},"coordinates":[6608,5614]},{"type":"Point","properties":{"Station_ID":"VT-OL-25","Station_Nam":"NEWPORT 1.5 WSW, VT","Latitude":"44.93059","Longitude":"-72.23731","Snowdepth":"6.000","Units":"in","Rept_Date":"2021-01-07 12"},"coordinates":[6759,6053]},{"type":"Point","properties":{"Station_ID":"VT-CL-18","Station_Nam":"WHEELOCK 1.6 S, VT","Latitude":"44.56491","Longitude":"-72.08830","Snowdepth":"6.000","Units":"in","Rept_Date":"2021-01-07 12"},"coordinates":[6799,5840]},{"type":"Point","properties":{"Station_ID":"VNTI4","Station_Nam":"VINTON","Latitude":"42.17020","Longitude":"-92.00770","Snowdepth":"6.000","Units":"in","Rept_Date":"2021-01-07 13"},"coordinates":[1414,4450]},{"type":"Point","properties":{"Station_ID":"VANM1","Station_Nam":"VAN BUREN","Latitude":"47.16600","Longitude":"-67.93900","Snowdepth":"6.000","Units":"in","Rept_Date":"2021-01-07 12"},"coordinates":[7921,7351]},{"type":"Point","properties":{"Station_ID":"UMNM5","Station_Nam":"UNIVERSITY OF MN ST. PAUL","Latitude":"44.99020","Longitude":"-93.17990","Snowdepth":"6.000","Units":"in","Rept_Date":"2021-01-07 14"},"coordinates":[1097,6087]},{"type":"Point","properties":{"Station_ID":"UGRW3","Station_Nam":"UNION GROVE,WI","Latitude":"42.70000","Longitude":"-88.03220","Snowdepth":"6.000","Units":"in","Rept_Date":"2021-01-07 14"},"coordinates":[2489,4758]},{"type":"Point","properties":{"Station_ID":"STGW3","Station_Nam":"ST GERMAIN","Latitude":"45.91550","Longitude":"-89.48940","Snowdepth":"6.000","Units":"in","Rept_Date":"2021-01-07 12"},"coordinates":[2095,6625]},{"type":"Point","properties":{"Station_ID":"SLRW3","Station_Nam":"SLINGER","Latitude":"43.33390","Longitude":"-88.29780","Snowdepth":"6.000","Units":"in","Rept_Date":"2021-01-07 13"},"coordinates":[2417,5126]},{"type":"Point","properties":{"Station_ID":"SJBV1","Station_Nam":"SAINT JOHNSBURY","Latitude":"44.42000","Longitude":"-72.01940","Snowdepth":"6.000","Units":"in","Rept_Date":"2021-01-07 21"},"coordinates":[6818,5756]},{"type":"Point","properties":{"Station_ID":"SAVW3","Station_Nam":"SAUKVILLE WWTP","Latitude":"43.37470","Longitude":"-87.93940","Snowdepth":"6.000","Units":"in","Rept_Date":"2021-01-07 12"},"coordinates":[2514,5149]},{"type":"Point","properties":{"Station_ID":"ROWM3","Station_Nam":"ROWE 3NE","Latitude":"42.73500","Longitude":"-72.86920","Snowdepth":"6.000","Units":"in","Rept_Date":"2021-01-07 14"},"coordinates":[6588,4778]},{"type":"Point","properties":{"Station_ID":"ROCW3","Station_Nam":"ROCHESTER WWTP","Latitude":"42.72690","Longitude":"-88.22580","Snowdepth":"6.000","Units":"in","Rept_Date":"2021-01-07 11"},"coordinates":[2437,4773]},{"type":"Point","properties":{"Station_ID":"RCKI2","Station_Nam":"MISSISSIPPI RIVER","Latitude":"41.51670","Longitude":"-90.56670","Snowdepth":"6.000","Units":"in","Rept_Date":"2021-01-08 06"},"coordinates":[1804,4071]},{"type":"Point","properties":{"Station_ID":"PRDM4","Station_Nam":"PARADISE","Latitude":"46.60380","Longitude":"-85.03960","Snowdepth":"6.000","Units":"in","Rept_Date":"2021-01-07 12"},"coordinates":[3298,7024]},{"type":"Point","properties":{"Station_ID":"PERV1","Station_Nam":"PERU","Latitude":"43.26670","Longitude":"-72.90000","Snowdepth":"6.000","Units":"in","Rept_Date":"2021-01-07 12"},"coordinates":[6580,5087]},{"type":"Point","properties":{"Station_ID":"PEKN6","Station_Nam":"PECK LAKE","Latitude":"43.11500","Longitude":"-74.42360","Snowdepth":"6.000","Units":"in","Rept_Date":"2021-01-07 12"},"coordinates":[6168,4999]},{"type":"Point","properties":{"Station_ID":"PBAN8","Station_Nam":"SITE 1-3MI.N","Latitude":"48.97420","Longitude":"-97.23860","Snowdepth":"6.000","Units":"in","Rept_Date":"2021-01-07 13"},"coordinates":[0,8401]},{"type":"Point","properties":{"Station_ID":"ONCW3","Station_Nam":"SOUTH","Latitude":"43.11170","Longitude":"-88.49970","Snowdepth":"6.000","Units":"in","Rept_Date":"2021-01-07 14"},"coordinates":[2362,4997]},{"type":"Point","properties":{"Station_ID":"OCOW3","Station_Nam":"OCONOMOWOC,WI","Latitude":"43.10190","Longitude":"-88.50330","Snowdepth":"6.000","Units":"in","Rept_Date":"2021-01-07 13"},"coordinates":[2361,4991]},{"type":"Point","properties":{"Station_ID":"NYMM5","Station_Nam":"NEW YORK MILLS","Latitude":"46.50920","Longitude":"-95.37990","Snowdepth":"6.000","Units":"in","Rept_Date":"2021-01-07 13"},"coordinates":[502,6969]},{"type":"Point","properties":{"Station_ID":"NY-HM-10","Station_Nam":"LAKE PLEASANT 2.3 WSW, NY","Latitude":"43.45490","Longitude":"-74.45287","Snowdepth":"6.000","Units":"in","Rept_Date":"2021-01-07 12"},"coordinates":[6160,5196]},{"type":"Point","properties":{"Station_ID":"NY-DL-23","Station_Nam":"LONG EDDY 6.5 NNE, NY","Latitude":"41.93510","Longitude":"-75.07840","Snowdepth":"6.000","Units":"in","Rept_Date":"2021-01-07 13"},"coordinates":[5991,4314]},{"type":"Point","properties":{"Station_ID":"NWSM1","Station_Nam":"NEW SHARON","Latitude":"44.63520","Longitude":"-70.00020","Snowdepth":"6.000","Units":"in","Rept_Date":"2021-01-07 12"},"coordinates":[7364,5881]},{"type":"Point","properties":{"Station_ID":"NUMN3","Station_Nam":"NORTHUMBERLAND","Latitude":"44.52830","Longitude":"-71.50440","Snowdepth":"6.000","Units":"in","Rept_Date":"2021-01-07 12"},"coordinates":[6957,5819]},{"type":"Point","properties":{"Station_ID":"NUMM5","Station_Nam":"NEW ULM 3SE","Latitude":"44.29450","Longitude":"-94.40840","Snowdepth":"6.000","Units":"in","Rept_Date":"2021-01-07 12"},"coordinates":[765,5683]},{"type":"Point","properties":{"Station_ID":"NH-MR-4","Station_Nam":"BOW 1.6 NW, NH","Latitude":"43.14994","Longitude":"-71.55650","Snowdepth":"6.000","Units":"in","Rept_Date":"2021-01-07 13"},"coordinates":[6943,5019]},{"type":"Point","properties":{"Station_ID":"NCON3","Station_Nam":"NORTH CONWAY","Latitude":"44.05620","Longitude":"-71.12970","Snowdepth":"6.000","Units":"in","Rept_Date":"2021-01-07 13"},"coordinates":[7058,5545]},{"type":"Point","properties":{"Station_ID":"MYOM4","Station_Nam":"MIO WWTP","Latitude":"44.64660","Longitude":"-84.11580","Snowdepth":"6.000","Units":"in","Rept_Date":"2021-01-07 13"},"coordinates":[3548,5888]},{"type":"Point","properties":{"Station_ID":"MWTM1","Station_Nam":"MILLINOCKET WWTP","Latitude":"45.64030","Longitude":"-68.67480","Snowdepth":"6.000","Units":"in","Rept_Date":"2021-01-07 11"},"coordinates":[7722,6465]},{"type":"Point","properties":{"Station_ID":"MSTI4","Station_Nam":"MUSCATINE 2N","Latitude":"41.47130","Longitude":"-91.04630","Snowdepth":"6.000","Units":"in","Rept_Date":"2021-01-07 13"},"coordinates":[1674,4044]},{"type":"Point","properties":{"Station_ID":"MSN","Station_Nam":"MADISON DANE COUNTY RGNL","Latitude":"43.13970","Longitude":"-89.33750","Snowdepth":"6.000","Units":"in","Rept_Date":"2021-01-08 00"},"coordinates":[2136,5013]},{"type":"Point","properties":{"Station_ID":"MRAM5","Station_Nam":"MORA","Latitude":"45.87760","Longitude":"-93.31470","Snowdepth":"6.000","Units":"in","Rept_Date":"2021-01-07 13"},"coordinates":[1061,6603]},{"type":"Point","properties":{"Station_ID":"MNSM4","Station_Nam":"MUNISING","Latitude":"46.41210","Longitude":"-86.66250","Snowdepth":"6.000","Units":"in","Rept_Date":"2021-01-07 11"},"coordinates":[2859,6913]},{"type":"Point","properties":{"Station_ID":"MN-SH-10","Station_Nam":"BIG LAKE 5.6 NNE, MN","Latitude":"45.41409","Longitude":"-93.69190","Snowdepth":"6.000","Units":"in","Rept_Date":"2021-01-07 13"},"coordinates":[959,6334]},{"type":"Point","properties":{"Station_ID":"MN-SE-2","Station_Nam":"OWATONNA 0.8 E, MN","Latitude":"44.09170","Longitude":"-93.21380","Snowdepth":"6.000","Units":"in","Rept_Date":"2021-01-07 13"},"coordinates":[1088,5566]},{"type":"Point","properties":{"Station_ID":"MN-MR-4","Station_Nam":"LITTLE FALLS 1.2 SW, MN","Latitude":"45.96886","Longitude":"-94.37720","Snowdepth":"6.000","Units":"in","Rept_Date":"2021-01-07 13"},"coordinates":[774,6656]},{"type":"Point","properties":{"Station_ID":"MN-HN-240","Station_Nam":"BLOOMINGTON 3.1 E, MN","Latitude":"44.83704","Longitude":"-93.25318","Snowdepth":"6.000","Units":"in","Rept_Date":"2021-01-07 13"},"coordinates":[1077,5998]},{"type":"Point","properties":{"Station_ID":"MN-BK-10","Station_Nam":"DETROIT LAKES 5.7 N, MN","Latitude":"46.88666","Longitude":"-95.84444","Snowdepth":"6.000","Units":"in","Rept_Date":"2021-01-07 14"},"coordinates":[377,7189]},{"type":"Point","properties":{"Station_ID":"MLCM5","Station_Nam":"MILACA","Latitude":"45.75320","Longitude":"-93.66170","Snowdepth":"6.000","Units":"in","Rept_Date":"2021-01-07 13"},"coordinates":[967,6530]},{"type":"Point","properties":{"Station_ID":"MI-OT-4","Station_Nam":"GAYLORD 1.7 WNW, MI","Latitude":"45.03280","Longitude":"-84.71090","Snowdepth":"6.000","Units":"in","Rept_Date":"2021-01-07 13"},"coordinates":[3387,6112]},{"type":"Point","properties":{"Station_ID":"MI-OT-16","Station_Nam":"GAYLORD 2.2 SSE, MI","Latitude":"44.99441","Longitude":"-84.65820","Snowdepth":"6.000","Units":"in","Rept_Date":"2021-01-07 13"},"coordinates":[3401,6090]},{"type":"Point","properties":{"Station_ID":"MI-MQ-19","Station_Nam":"ISHPEMING 7.2 SW, MI","Latitude":"46.40550","Longitude":"-87.75670","Snowdepth":"6.000","Units":"in","Rept_Date":"2021-01-07 11"},"coordinates":[2563,6909]},{"type":"Point","properties":{"Station_ID":"MI-EM-8","Station_Nam":"PETOSKEY 1.7 SSW, MI","Latitude":"45.34209","Longitude":"-84.96530","Snowdepth":"6.000","Units":"in","Rept_Date":"2021-01-07 11"},"coordinates":[3318,6292]},{"type":"Point","properties":{"Station_ID":"ME-WL-8","Station_Nam":"WINTERPORT 2.9 N, ME","Latitude":"44.69369","Longitude":"-68.84800","Snowdepth":"6.000","Units":"in","Rept_Date":"2021-01-07 12"},"coordinates":[7675,5915]},{"type":"Point","properties":{"Station_ID":"ME-WL-27","Station_Nam":"PROSPECT 2.6 W, ME","Latitude":"44.55719","Longitude":"-68.91732","Snowdepth":"6.000","Units":"in","Rept_Date":"2021-01-07 12"},"coordinates":[7656,5836]},{"type":"Point","properties":{"Station_ID":"ME-SM-45","Station_Nam":"BRIGHTON PLANTATION 2.1 N, ME","Latitude":"45.07098","Longitude":"-69.69860","Snowdepth":"6.000","Units":"in","Rept_Date":"2021-01-07 12"},"coordinates":[7445,6134]},{"type":"Point","properties":{"Station_ID":"ME-SM-4","Station_Nam":"SOLON 3.9 ESE, ME","Latitude":"44.94705","Longitude":"-69.77790","Snowdepth":"6.000","Units":"in","Rept_Date":"2021-01-07 12"},"coordinates":[7424,6062]},{"type":"Point","properties":{"Station_ID":"ME-SM-10","Station_Nam":"NORTH NEW PORTLAND 0.3 WSW, ME","Latitude":"44.92353","Longitude":"-70.02788","Snowdepth":"6.000","Units":"in","Rept_Date":"2021-01-07 12"},"coordinates":[7356,6049]},{"type":"Point","properties":{"Station_ID":"ME-PN-47","Station_Nam":"MILFORD 0.8 SSW, ME","Latitude":"44.94108","Longitude":"-68.64154","Snowdepth":"6.000","Units":"in","Rept_Date":"2021-01-07 12"},"coordinates":[7731,6059]},{"type":"Point","properties":{"Station_ID":"ME-PN-43","Station_Nam":"ORONO 0.9 NE, ME","Latitude":"44.89261","Longitude":"-68.66903","Snowdepth":"6.000","Units":"in","Rept_Date":"2021-01-07 11"},"coordinates":[7723,6031]},{"type":"Point","properties":{"Station_ID":"ME-FR-4","Station_Nam":"NEW SHARON 2.0 NW, ME","Latitude":"44.66582","Longitude":"-70.02720","Snowdepth":"6.000","Units":"in","Rept_Date":"2021-01-07 12"},"coordinates":[7356,5899]},{"type":"Point","properties":{"Station_ID":"LVRM1","Station_Nam":"LIVERMORE FALLS 1 E","Latitude":"44.47160","Longitude":"-70.15940","Snowdepth":"6.000","Units":"in","Rept_Date":"2021-01-07 12"},"coordinates":[7321,5786]},{"type":"Point","properties":{"Station_ID":"LVDW3","Station_Nam":"LAC VIEUX DESERT","Latitude":"46.12110","Longitude":"-89.07580","Snowdepth":"6.000","Units":"in","Rept_Date":"2021-01-07 14"},"coordinates":[2207,6744]},{"type":"Point","properties":{"Station_ID":"LODW3","Station_Nam":"LODI","Latitude":"43.32170","Longitude":"-89.53110","Snowdepth":"6.000","Units":"in","Rept_Date":"2021-01-07 13"},"coordinates":[2084,5119]},{"type":"Point","properties":{"Station_ID":"LBRM5","Station_Nam":"LAKE BRONSON DAM","Latitude":"48.72410","Longitude":"-96.62180","Snowdepth":"6.000","Units":"in","Rept_Date":"2021-01-07 14"},"coordinates":[167,8255]},{"type":"Point","properties":{"Station_ID":"KMSN","Station_Nam":"MADISON DANE COUNTY RGNL","Latitude":"43.13333","Longitude":"-89.35000","Snowdepth":"6.000","Units":"in","Rept_Date":"2021-01-08 06"},"coordinates":[2133,5009]},{"type":"Point","properties":{"Station_ID":"KINM1","Station_Nam":"KINGFIELD","Latitude":"44.95950","Longitude":"-70.17530","Snowdepth":"6.000","Units":"in","Rept_Date":"2021-01-07 13"},"coordinates":[7316,6070]},{"type":"Point","properties":{"Station_ID":"JKMM1","Station_Nam":"JACKMAN","Latitude":"45.62600","Longitude":"-70.24600","Snowdepth":"6.000","Units":"in","Rept_Date":"2021-01-07 12"},"coordinates":[7297,6457]},{"type":"Point","properties":{"Station_ID":"JFNW3","Station_Nam":"JEFFERSON - WWTP","Latitude":"42.99470","Longitude":"-88.80390","Snowdepth":"6.000","Units":"in","Rept_Date":"2021-01-07 13"},"coordinates":[2280,4929]},{"type":"Point","properties":{"Station_ID":"JEFV1","Station_Nam":"JEFFERSONVILLE","Latitude":"44.58430","Longitude":"-72.78700","Snowdepth":"6.000","Units":"in","Rept_Date":"2021-01-07 12"},"coordinates":[6610,5852]},{"type":"Point","properties":{"Station_ID":"JACW3","Station_Nam":"JACKSON","Latitude":"43.31940","Longitude":"-88.16810","Snowdepth":"6.000","Units":"in","Rept_Date":"2021-01-07 12"},"coordinates":[2452,5117]},{"type":"Point","properties":{"Station_ID":"ISLV1","Station_Nam":"ISLAND POND","Latitude":"44.81280","Longitude":"-71.89020","Snowdepth":"6.000","Units":"in","Rept_Date":"2021-01-07 14"},"coordinates":[6853,5984]},{"type":"Point","properties":{"Station_ID":"IL-HY-5","Station_Nam":"COAL VALLEY 1.9 SE, IL","Latitude":"41.43339","Longitude":"-90.41750","Snowdepth":"6.000","Units":"in","Rept_Date":"2021-01-07 13"},"coordinates":[1844,4022]},{"type":"Point","properties":{"Station_ID":"IL-BN-19","Station_Nam":"BELVIDERE 5.0 NNW, IL","Latitude":"42.32071","Longitude":"-88.88282","Snowdepth":"6.000","Units":"in","Rept_Date":"2021-01-07 13"},"coordinates":[2259,4537]},{"type":"Point","properties":{"Station_ID":"IA-MC-13","Station_Nam":"MUSCATINE 2.1 N, IA","Latitude":"41.44808","Longitude":"-91.07428","Snowdepth":"6.000","Units":"in","Rept_Date":"2021-01-07 13"},"coordinates":[1666,4031]},{"type":"Point","properties":{"Station_ID":"IA-JH-1","Station_Nam":"SOLON 0.3 ESE, IA","Latitude":"41.80398","Longitude":"-91.48910","Snowdepth":"6.000","Units":"in","Rept_Date":"2021-01-07 13"},"coordinates":[1554,4237]},{"type":"Point","properties":{"Station_ID":"HRTM1","Station_Nam":"HARTFORD","Latitude":"44.37440","Longitude":"-70.31620","Snowdepth":"6.000","Units":"in","Rept_Date":"2021-01-07 12"},"coordinates":[7278,5730]},{"type":"Point","properties":{"Station_ID":"GTTI4","Station_Nam":"LOCK & DAM 10","Latitude":"42.78580","Longitude":"-91.09970","Snowdepth":"6.000","Units":"in","Rept_Date":"2021-01-07 14"},"coordinates":[1660,4807]},{"type":"Point","properties":{"Station_ID":"GAYM4","Station_Nam":"GAYLORD","Latitude":"45.03320","Longitude":"-84.71130","Snowdepth":"6.000","Units":"in","Rept_Date":"2021-01-07 13"},"coordinates":[3387,6112]},{"type":"Point","properties":{"Station_ID":"GATW3","Station_Nam":"GRAFTON WWTP","Latitude":"43.30810","Longitude":"-87.95530","Snowdepth":"6.000","Units":"in","Rept_Date":"2021-01-07 13"},"coordinates":[2510,5111]},{"type":"Point","properties":{"Station_ID":"FATW3","Station_Nam":"FORT ATKINSON,WI","Latitude":"42.88330","Longitude":"-88.83330","Snowdepth":"6.000","Units":"in","Rept_Date":"2021-01-07 13"},"coordinates":[2272,4864]},{"type":"Point","properties":{"Station_ID":"FARM1","Station_Nam":"FARMINGTON","Latitude":"44.68930","Longitude":"-70.15640","Snowdepth":"6.000","Units":"in","Rept_Date":"2021-01-07 12"},"coordinates":[7321,5913]},{"type":"Point","properties":{"Station_ID":"EZBI2","Station_Nam":"ELIZABETH","Latitude":"42.31620","Longitude":"-90.22690","Snowdepth":"6.000","Units":"in","Rept_Date":"2021-01-07 12"},"coordinates":[1896,4535]},{"type":"Point","properties":{"Station_ID":"EVRW3","Station_Nam":"EAGLE RIVER-4 E","Latitude":"45.91890","Longitude":"-89.15280","Snowdepth":"6.000","Units":"in","Rept_Date":"2021-01-07 13"},"coordinates":[2186,6627]},{"type":"Point","properties":{"Station_ID":"EGRW3","Station_Nam":"EAGLE RIVER-SOUTH","Latitude":"45.91360","Longitude":"-89.24360","Snowdepth":"6.000","Units":"in","Rept_Date":"2021-01-07 13"},"coordinates":[2161,6624]},{"type":"Point","properties":{"Station_ID":"DLNW3","Station_Nam":"WALWORTH COUNTYMETROPOLITAN SEWERAGE DISTRICT (DELEVAN)","Latitude":"42.63440","Longitude":"-88.66280","Snowdepth":"6.000","Units":"in","Rept_Date":"2021-01-07 15"},"coordinates":[2318,4720]},{"type":"Point","properties":{"Station_ID":"DLDI4","Station_Nam":"MISSISSIPPI RIVER","Latitude":"42.51670","Longitude":"-90.65000","Snowdepth":"6.000","Units":"in","Rept_Date":"2021-01-07 12"},"coordinates":[1781,4651]},{"type":"Point","properties":{"Station_ID":"DARW3","Station_Nam":"DARLINGTON","Latitude":"42.67780","Longitude":"-90.11860","Snowdepth":"6.000","Units":"in","Rept_Date":"2021-01-07 13"},"coordinates":[1925,4745]},{"type":"Point","properties":{"Station_ID":"CRLM5","Station_Nam":"CROSS LAKE DAM","Latitude":"46.66930","Longitude":"-94.11060","Snowdepth":"6.000","Units":"in","Rept_Date":"2021-01-07 14"},"coordinates":[846,7062]},{"type":"Point","properties":{"Station_ID":"CLNI4","Station_Nam":"CLINTON NO 1","Latitude":"41.79470","Longitude":"-90.26390","Snowdepth":"6.000","Units":"in","Rept_Date":"2021-01-08 00"},"coordinates":[1886,4232]},{"type":"Point","properties":{"Station_ID":"CCTI4","Station_Nam":"CENTRAL CITY","Latitude":"42.21480","Longitude":"-91.52230","Snowdepth":"6.000","Units":"in","Rept_Date":"2021-01-07 15"},"coordinates":[1545,4476]},{"type":"Point","properties":{"Station_ID":"CCON6","Station_Nam":"CALLICOON CENTER","Latitude":"41.82750","Longitude":"-74.95060","Snowdepth":"6.000","Units":"in","Rept_Date":"2021-01-07 12"},"coordinates":[6025,4251]},{"type":"Point","properties":{"Station_ID":"CAN-NS-39","Station_Nam":"ST. ANNS 2.8 NW, CA","Latitude":"46.25082","Longitude":"-60.64340","Snowdepth":"6.000","Units":"in","Rept_Date":"2021-01-07 12"},"coordinates":[9893,6819]},{"type":"Point","properties":{"Station_ID":"BRAM5","Station_Nam":"BRAINERD","Latitude":"46.34320","Longitude":"-94.20900","Snowdepth":"6.000","Units":"in","Rept_Date":"2021-01-07 13"},"coordinates":[819,6873]},{"type":"Point","properties":{"Station_ID":"BKEM5","Station_Nam":"BRECKENRIDGE 4NE","Latitude":"46.30470","Longitude":"-96.52170","Snowdepth":"6.000","Units":"in","Rept_Date":"2021-01-07 13"},"coordinates":[194,6851]},{"type":"Point","properties":{"Station_ID":"BGR","Station_Nam":"BANGOR INTERNATIONAL AIRPORT","Latitude":"44.79780","Longitude":"-68.81840","Snowdepth":"6.000","Units":"in","Rept_Date":"2021-01-07 12"},"coordinates":[7683,5976]},{"type":"Point","properties":{"Station_ID":"BBDW3","Station_Nam":"BIG BEND","Latitude":"42.88140","Longitude":"-88.20670","Snowdepth":"6.000","Units":"in","Rept_Date":"2021-01-07 13"},"coordinates":[2442,4863]},{"type":"Point","properties":{"Station_ID":"AWXW3","Station_Nam":"ASHLAND","Latitude":"46.58240","Longitude":"-90.88390","Snowdepth":"6.000","Units":"in","Rept_Date":"2021-01-07 13"},"coordinates":[1718,7012]},{"type":"Point","properties":{"Station_ID":"AVTW3","Station_Nam":"ARBOR VITAE-JOHNSON LAKE","Latitude":"45.89940","Longitude":"-89.72670","Snowdepth":"6.000","Units":"in","Rept_Date":"2021-01-07 12"},"coordinates":[2031,6615]},{"type":"Point","properties":{"Station_ID":"AVLV1","Station_Nam":"AVERILL","Latitude":"45.00570","Longitude":"-71.69030","Snowdepth":"6.000","Units":"in","Rept_Date":"2021-01-07 13"},"coordinates":[6907,6096]},{"type":"Point","properties":{"Station_ID":"AMOI4","Station_Nam":"ANAMOSA 3 SSW","Latitude":"42.07630","Longitude":"-91.30190","Snowdepth":"6.000","Units":"in","Rept_Date":"2021-01-07 12"},"coordinates":[1605,4395]},{"type":"Point","properties":{"Station_ID":"AMAM4","Station_Nam":"AMASA 1W","Latitude":"46.23470","Longitude":"-88.45440","Snowdepth":"6.000","Units":"in","Rept_Date":"2021-01-07 14"},"coordinates":[2375,6810]},{"type":"Point","properties":{"Station_ID":"CAN-PE-19","Station_Nam":"CHARLOTTETOWN 6.5 NNW, CAN","Latitude":"46.29235","Longitude":"-63.17271","Snowdepth":"5.900","Units":"in","Rept_Date":"2021-01-07 12"},"coordinates":[9209,6843]},{"type":"Point","properties":{"Station_ID":"CAN-NS-159","Station_Nam":"NORTHPORT 0.1 NE, CAN","Latitude":"45.93299","Longitude":"-63.86711","Snowdepth":"5.900","Units":"in","Rept_Date":"2021-01-07 11"},"coordinates":[9022,6635]},{"type":"Point","properties":{"Station_ID":"CAN-NB-105","Station_Nam":"SISSON BROOK 3.8 E, CAN","Latitude":"46.98305","Longitude":"-67.32532","Snowdepth":"5.900","Units":"in","Rept_Date":"2021-01-07 12"},"coordinates":[8087,7245]},{"type":"Point","properties":{"Station_ID":"CAN-NB-1","Station_Nam":"FREDERICTON 4.0 SSE, CA","Latitude":"45.92897","Longitude":"-66.62830","Snowdepth":"5.900","Units":"in","Rept_Date":"2021-01-07 12"},"coordinates":[8275,6633]},{"type":"Point","properties":{"Station_ID":"HPN20_MADIS","Station_Nam":"HOPKINS","Latitude":"44.95556","Longitude":"-93.41140","Snowdepth":"5.800","Units":"in","Rept_Date":"2021-01-08 06"},"coordinates":[1035,6067]},{"type":"Point","properties":{"Station_ID":"PA-CR-1","Station_Nam":"EMPORIUM 2.6 S, PA","Latitude":"41.47342","Longitude":"-78.24330","Snowdepth":"5.700","Units":"in","Rept_Date":"2021-01-07 13"},"coordinates":[5135,4045]},{"type":"Point","properties":{"Station_ID":"NY-JF-30","Station_Nam":"WEST CARTHAGE 0.3 ENE, NY","Latitude":"43.97493","Longitude":"-75.61640","Snowdepth":"5.700","Units":"in","Rept_Date":"2021-01-07 12"},"coordinates":[5845,5498]},{"type":"Point","properties":{"Station_ID":"CAN-PE-43","Station_Nam":"GLENCOE 0.3 W, CAN","Latitude":"46.20115","Longitude":"-62.81740","Snowdepth":"5.700","Units":"in","Rept_Date":"2021-01-07 12"},"coordinates":[9305,6791]},{"type":"Point","properties":{"Station_ID":"CAN-NB-55","Station_Nam":"FREDERICTON 4.5 N, CAN","Latitude":"45.99547","Longitude":"-66.64252","Snowdepth":"5.700","Units":"in","Rept_Date":"2021-01-07 12"},"coordinates":[8271,6671]},{"type":"Point","properties":{"Station_ID":"QLM","Station_Nam":"QLM","Latitude":"48.92030","Longitude":"-70.25280","Snowdepth":"5.630","Units":"in","Rept_Date":"2021-01-07 12"},"coordinates":[7295,8369]},{"type":"Point","properties":{"Station_ID":"MI-AG-6","Station_Nam":"MUNISING 11.1 SSW, MI","Latitude":"46.27805","Longitude":"-86.75747","Snowdepth":"5.600","Units":"in","Rept_Date":"2021-01-07 12"},"coordinates":[2833,6835]},{"type":"Point","properties":{"Station_ID":"WI-VR-1","Station_Nam":"HILLSBORO 0.5 WSW, WI","Latitude":"43.65138","Longitude":"-90.34753","Snowdepth":"5.500","Units":"in","Rept_Date":"2021-01-07 14"},"coordinates":[1863,5310]},{"type":"Point","properties":{"Station_ID":"WI-VL-14","Station_Nam":"BOULDER JUNCTION 1.4 NE, WI","Latitude":"46.12840","Longitude":"-89.62470","Snowdepth":"5.500","Units":"in","Rept_Date":"2021-01-07 13"},"coordinates":[2058,6748]},{"type":"Point","properties":{"Station_ID":"WI-RC-3","Station_Nam":"RACINE 2.3 WSW, WI","Latitude":"42.71124","Longitude":"-87.84570","Snowdepth":"5.500","Units":"in","Rept_Date":"2021-01-07 13"},"coordinates":[2539,4764]},{"type":"Point","properties":{"Station_ID":"WI-MW-43","Station_Nam":"BROWN DEER 0.8 NW, WI","Latitude":"43.18438","Longitude":"-87.98401","Snowdepth":"5.500","Units":"in","Rept_Date":"2021-01-07 13"},"coordinates":[2502,5039]},{"type":"Point","properties":{"Station_ID":"WI-DA-39","Station_Nam":"MADISON 4.0 W, WI","Latitude":"43.07741","Longitude":"-89.46757","Snowdepth":"5.500","Units":"in","Rept_Date":"2021-01-07 13"},"coordinates":[2101,4977]},{"type":"Point","properties":{"Station_ID":"WI-DA-33","Station_Nam":"OREGON 0.4 SSW, WI","Latitude":"42.92080","Longitude":"-89.38540","Snowdepth":"5.500","Units":"in","Rept_Date":"2021-01-07 13"},"coordinates":[2123,4886]},{"type":"Point","properties":{"Station_ID":"WI-DA-13","Station_Nam":"MADISON 3.7 WSW, WI","Latitude":"43.06230","Longitude":"-89.45650","Snowdepth":"5.500","Units":"in","Rept_Date":"2021-01-07 13"},"coordinates":[2104,4968]},{"type":"Point","properties":{"Station_ID":"WI-CB-4","Station_Nam":"PORTAGE 5.7 WSW, WI","Latitude":"43.51411","Longitude":"-89.56910","Snowdepth":"5.500","Units":"in","Rept_Date":"2021-01-07 12"},"coordinates":[2073,5230]},{"type":"Point","properties":{"Station_ID":"WI-AS-4","Station_Nam":"ASHLAND 0.5 WNW, WI","Latitude":"46.58240","Longitude":"-90.88390","Snowdepth":"5.500","Units":"in","Rept_Date":"2021-01-07 13"},"coordinates":[1718,7012]},{"type":"Point","properties":{"Station_ID":"VT-WS-33","Station_Nam":"WAITSFIELD 3.5 WNW, VT","Latitude":"44.20052","Longitude":"-72.89421","Snowdepth":"5.500","Units":"in","Rept_Date":"2021-01-07 13"},"coordinates":[6581,5629]},{"type":"Point","properties":{"Station_ID":"VT-CH-13","Station_Nam":"RICHMOND 3.4 SSE, VT","Latitude":"44.36084","Longitude":"-72.96400","Snowdepth":"5.500","Units":"in","Rept_Date":"2021-01-07 12"},"coordinates":[6562,5722]},{"type":"Point","properties":{"Station_ID":"VT-BN-12","Station_Nam":"STAMFORD 5.0 NNE, VT","Latitude":"42.82000","Longitude":"-73.02000","Snowdepth":"5.500","Units":"in","Rept_Date":"2021-01-07 21"},"coordinates":[6547,4827]},{"type":"Point","properties":{"Station_ID":"NY-DL-28","Station_Nam":"FLEISCHMANNS 5.7 N, NY","Latitude":"42.23779","Longitude":"-74.52335","Snowdepth":"5.500","Units":"in","Rept_Date":"2021-01-07 12"},"coordinates":[6141,4489]},{"type":"Point","properties":{"Station_ID":"NY-BM-14","Station_Nam":"WHITNEY POINT 1.7 SSE, NY","Latitude":"42.30837","Longitude":"-75.95690","Snowdepth":"5.500","Units":"in","Rept_Date":"2021-01-07 12"},"coordinates":[5753,4530]},{"type":"Point","properties":{"Station_ID":"MN-OT-36","Station_Nam":"BATTLE LAKE 3.3 SSE, MN","Latitude":"46.23918","Longitude":"-95.69718","Snowdepth":"5.500","Units":"in","Rept_Date":"2021-01-07 13"},"coordinates":[417,6813]},{"type":"Point","properties":{"Station_ID":"MN-IT-17","Station_Nam":"GRAND RAPIDS 6.1 N, MN","Latitude":"47.31165","Longitude":"-93.55036","Snowdepth":"5.500","Units":"in","Rept_Date":"2021-01-07 13"},"coordinates":[997,7435]},{"type":"Point","properties":{"Station_ID":"MN-DK-53","Station_Nam":"LAKEVILLE 3.8 ENE, MN","Latitude":"44.70423","Longitude":"-93.18460","Snowdepth":"5.500","Units":"in","Rept_Date":"2021-01-07 13"},"coordinates":[1096,5921]},{"type":"Point","properties":{"Station_ID":"MN-CW-54","Station_Nam":"AITKIN 9.6 W, MN","Latitude":"46.53711","Longitude":"-93.90688","Snowdepth":"5.500","Units":"in","Rept_Date":"2021-01-07 14"},"coordinates":[901,6986]},{"type":"Point","properties":{"Station_ID":"ME-FR-22","Station_Nam":"FARMINGTON 4.8 NNW, ME","Latitude":"44.73396","Longitude":"-70.18007","Snowdepth":"5.500","Units":"in","Rept_Date":"2021-01-07 14"},"coordinates":[7315,5939]},{"type":"Point","properties":{"Station_ID":"CAN-NB-16","Station_Nam":"DORCHESTER 1.0 SSE, CAN","Latitude":"45.89160","Longitude":"-64.51269","Snowdepth":"5.500","Units":"in","Rept_Date":"2021-01-07 11"},"coordinates":[8847,6611]},{"type":"Point","properties":{"Station_ID":"CAN-NB-13","Station_Nam":"BATHURST 3.8 NW, CAN","Latitude":"47.64212","Longitude":"-65.68756","Snowdepth":"5.500","Units":"in","Rept_Date":"2021-01-07 11"},"coordinates":[8529,7627]},{"type":"Point","properties":{"Station_ID":"MFU","Station_Nam":"MFU","Latitude":"51.52170","Longitude":"-66.91110","Snowdepth":"5.472","Units":"in","Rept_Date":"2021-01-07 12"},"coordinates":[8199,9880]},{"type":"Point","properties":{"Station_ID":"WI-WW-2","Station_Nam":"LAKE GENEVA 0.6 ENE, WI","Latitude":"42.59169","Longitude":"-88.41770","Snowdepth":"5.400","Units":"in","Rept_Date":"2021-01-07 13"},"coordinates":[2385,4695]},{"type":"Point","properties":{"Station_ID":"WI-RK-6","Station_Nam":"EVANSVILLE 0.4 E, WI","Latitude":"42.77913","Longitude":"-89.29020","Snowdepth":"5.400","Units":"in","Rept_Date":"2021-01-07 12"},"coordinates":[2149,4804]},{"type":"Point","properties":{"Station_ID":"HPN09_MADIS","Station_Nam":"PLYMOUTH","Latitude":"44.98992","Longitude":"-93.47910","Snowdepth":"5.400","Units":"in","Rept_Date":"2021-01-08 06"},"coordinates":[1016,6087]},{"type":"Point","properties":{"Station_ID":"QIQ","Station_Nam":"QIQ","Latitude":"49.82390","Longitude":"-68.54310","Snowdepth":"5.315","Units":"in","Rept_Date":"2021-01-07 12"},"coordinates":[7757,8894]},{"type":"Point","properties":{"Station_ID":"MN-RM-121","Station_Nam":"ROSEVILLE 0.4 ENE, MN","Latitude":"45.01701","Longitude":"-93.14711","Snowdepth":"5.300","Units":"in","Rept_Date":"2021-01-07 14"},"coordinates":[1106,6103]},{"type":"Point","properties":{"Station_ID":"CAN-QC-16","Station_Nam":"SAINT-ARMAND 3.6 W, CAN","Latitude":"45.02631","Longitude":"-73.08795","Snowdepth":"5.300","Units":"in","Rept_Date":"2021-01-07 12"},"coordinates":[6529,6108]},{"type":"Point","properties":{"Station_ID":"CAN-NS-60","Station_Nam":"SYDNEY FORKS, CAN","Latitude":"46.05645","Longitude":"-60.31510","Snowdepth":"5.300","Units":"in","Rept_Date":"2021-01-07 13"},"coordinates":[9982,6707]},{"type":"Point","properties":{"Station_ID":"CAN-NB-83","Station_Nam":"ST. STEPHEN 1.5 SW, CAN","Latitude":"45.18806","Longitude":"-67.29431","Snowdepth":"5.300","Units":"in","Rept_Date":"2021-01-07 12"},"coordinates":[8095,6202]},{"type":"Point","properties":{"Station_ID":"QGA","Station_Nam":"QGA","Latitude":"47.25640","Longitude":"-73.73810","Snowdepth":"5.236","Units":"in","Rept_Date":"2021-01-07 12"},"coordinates":[6353,7403]},{"type":"Point","properties":{"Station_ID":"CAN-ON-526","Station_Nam":"HILTON BEACH 0.7 SW - MNRF, CAN","Latitude":"46.25357","Longitude":"-83.90014","Snowdepth":"5.100","Units":"in","Rept_Date":"2021-01-07 12"},"coordinates":[3606,6821]},{"type":"Point","properties":{"Station_ID":"CAN-NB-28","Station_Nam":"SUSSEX CORNER 1.4 NE - KWRC, CAN","Latitude":"45.71691","Longitude":"-65.46217","Snowdepth":"5.100","Units":"in","Rept_Date":"2021-01-07 10"},"coordinates":[8590,6509]},{"type":"Point","properties":{"Station_ID":"WTRM4","Station_Nam":"WATERSMEET 12WSW","Latitude":"46.22310","Longitude":"-89.40850","Snowdepth":"5.000","Units":"in","Rept_Date":"2021-01-07 12"},"coordinates":[2117,6803]},{"type":"Point","properties":{"Station_ID":"WTHM1","Station_Nam":"WINTHROP","Latitude":"44.30650","Longitude":"-69.97010","Snowdepth":"5.000","Units":"in","Rept_Date":"2021-01-07 13"},"coordinates":[7372,5690]},{"type":"Point","properties":{"Station_ID":"WRTS2","Station_Nam":"WATERTOWN,SD","Latitude":"44.90280","Longitude":"-97.11360","Snowdepth":"5.000","Units":"in","Rept_Date":"2021-01-07 15"},"coordinates":[34,6037]},{"type":"Point","properties":{"Station_ID":"WODI2","Station_Nam":"WOODSTOCK","Latitude":"42.36280","Longitude":"-88.53140","Snowdepth":"5.000","Units":"in","Rept_Date":"2021-01-07 13"},"coordinates":[2354,4562]},{"type":"Point","properties":{"Station_ID":"WNBM5","Station_Nam":"DAM","Latitude":"47.43060","Longitude":"-94.05000","Snowdepth":"5.000","Units":"in","Rept_Date":"2021-01-07 14"},"coordinates":[862,7504]},{"type":"Point","properties":{"Station_ID":"WI-WW-12","Station_Nam":"ELKHORN 0.4 ESE, WI","Latitude":"42.66970","Longitude":"-88.53170","Snowdepth":"5.000","Units":"in","Rept_Date":"2021-01-07 11"},"coordinates":[2354,4740]},{"type":"Point","properties":{"Station_ID":"WI-VR-2","Station_Nam":"VIROQUA 0.8 ESE, WI","Latitude":"43.55304","Longitude":"-90.87100","Snowdepth":"5.000","Units":"in","Rept_Date":"2021-01-07 14"},"coordinates":[1721,5253]},{"type":"Point","properties":{"Station_ID":"WI-RS-1","Station_Nam":"LADYSMITH 2.8 WNW, WI","Latitude":"45.48180","Longitude":"-91.14680","Snowdepth":"5.000","Units":"in","Rept_Date":"2021-01-07 13"},"coordinates":[1647,6373]},{"type":"Point","properties":{"Station_ID":"WI-JF-2","Station_Nam":"WATERTOWN 1.6 ESE, WI","Latitude":"43.17916","Longitude":"-88.69720","Snowdepth":"5.000","Units":"in","Rept_Date":"2021-01-07 14"},"coordinates":[2309,5036]},{"type":"Point","properties":{"Station_ID":"WI-IW-3","Station_Nam":"MINERAL POINT 7.3 ENE, WI","Latitude":"42.91400","Longitude":"-90.05700","Snowdepth":"5.000","Units":"in","Rept_Date":"2021-01-07 13"},"coordinates":[1941,4882]},{"type":"Point","properties":{"Station_ID":"WI-DA-31","Station_Nam":"DEERFIELD 0.6 N, WI","Latitude":"43.05958","Longitude":"-89.07340","Snowdepth":"5.000","Units":"in","Rept_Date":"2021-01-07 14"},"coordinates":[2207,4966]},{"type":"Point","properties":{"Station_ID":"WDOM5","Station_Nam":"WINDOM","Latitude":"43.87700","Longitude":"-95.11590","Snowdepth":"5.000","Units":"in","Rept_Date":"2021-01-07 14"},"coordinates":[574,5441]},{"type":"Point","properties":{"Station_ID":"VT-OL-24","Station_Nam":"DERBY LINE 1.9 W, VT","Latitude":"45.00454","Longitude":"-72.14170","Snowdepth":"5.000","Units":"in","Rept_Date":"2021-01-07 12"},"coordinates":[6785,6096]},{"type":"Point","properties":{"Station_ID":"VT-OG-13","Station_Nam":"WEST FAIRLEE 1.8 ENE, VT","Latitude":"43.92138","Longitude":"-72.23051","Snowdepth":"5.000","Units":"in","Rept_Date":"2021-01-07 12"},"coordinates":[6761,5467]},{"type":"Point","properties":{"Station_ID":"VT-AD-20","Station_Nam":"HANCOCK 0.3 S, VT","Latitude":"43.92166","Longitude":"-72.84042","Snowdepth":"5.000","Units":"in","Rept_Date":"2021-01-07 12"},"coordinates":[6596,5467]},{"type":"Point","properties":{"Station_ID":"VRGV1","Station_Nam":"VERGENNES","Latitude":"44.17190","Longitude":"-73.24720","Snowdepth":"5.000","Units":"in","Rept_Date":"2021-01-07 12"},"coordinates":[6486,5612]},{"type":"Point","properties":{"Station_ID":"VQAW3","Station_Nam":"VIROQUA","Latitude":"43.55970","Longitude":"-90.87560","Snowdepth":"5.000","Units":"in","Rept_Date":"2021-01-07 13"},"coordinates":[1720,5257]},{"type":"Point","properties":{"Station_ID":"VOLI4","Station_Nam":"VOLGA 1NE","Latitude":"42.81150","Longitude":"-91.52300","Snowdepth":"5.000","Units":"in","Rept_Date":"2021-01-07 12"},"coordinates":[1545,4822]},{"type":"Point","properties":{"Station_ID":"UVDV1","Station_Nam":"NERON SITE AT UNION VILLAGE DAM","Latitude":"43.79140","Longitude":"-72.25720","Snowdepth":"5.000","Units":"in","Rept_Date":"2021-01-07 12"},"coordinates":[6753,5391]},{"type":"Point","properties":{"Station_ID":"TOPN6","Station_Nam":"TUPPER LAKE SUNMOUNT","Latitude":"44.23070","Longitude":"-74.43820","Snowdepth":"5.000","Units":"in","Rept_Date":"2021-01-07 12"},"coordinates":[6164,5646]},{"type":"Point","properties":{"Station_ID":"TMWN3","Station_Nam":"TAMWORTH 4","Latitude":"43.86390","Longitude":"-71.26610","Snowdepth":"5.000","Units":"in","Rept_Date":"2021-01-07 12"},"coordinates":[7021,5433]},{"type":"Point","properties":{"Station_ID":"TLDI4","Station_Nam":"TOLEDO,IA","Latitude":"41.98330","Longitude":"-92.58330","Snowdepth":"5.000","Units":"in","Rept_Date":"2021-01-07 13"},"coordinates":[1259,4341]},{"type":"Point","properties":{"Station_ID":"TETM5","Station_Nam":"TETTEGOUCHE STATE PARK","Latitude":"47.33900","Longitude":"-91.19590","Snowdepth":"5.000","Units":"in","Rept_Date":"2021-01-07 14"},"coordinates":[1634,7451]},{"type":"Point","properties":{"Station_ID":"SNYI4","Station_Nam":"STANLEY","Latitude":"42.63330","Longitude":"-91.86320","Snowdepth":"5.000","Units":"in","Rept_Date":"2021-01-07 13"},"coordinates":[1453,4719]},{"type":"Point","properties":{"Station_ID":"SHIW3","Station_Nam":"SHIOCTON","Latitude":"44.43890","Longitude":"-88.58390","Snowdepth":"5.000","Units":"in","Rept_Date":"2021-01-07 13"},"coordinates":[2340,5767]},{"type":"Point","properties":{"Station_ID":"SHHW3","Station_Nam":"SHAWANO 2SSW","Latitude":"44.76310","Longitude":"-88.61830","Snowdepth":"5.000","Units":"in","Rept_Date":"2021-01-07 14"},"coordinates":[2330,5956]},{"type":"Point","properties":{"Station_ID":"RCHW3","Station_Nam":"RICHRIELD,WI","Latitude":"43.21080","Longitude":"-88.20940","Snowdepth":"5.000","Units":"in","Rept_Date":"2021-01-07 12"},"coordinates":[2441,5054]},{"type":"Point","properties":{"Station_ID":"RARM4","Station_Nam":"RAPID RIVER 1 SW","Latitude":"45.91500","Longitude":"-86.98800","Snowdepth":"5.000","Units":"in","Rept_Date":"2021-01-08 00"},"coordinates":[2771,6624]},{"type":"Point","properties":{"Station_ID":"RADI4","Station_Nam":"TAILWATER","Latitude":"40.82280","Longitude":"-92.88940","Snowdepth":"5.000","Units":"in","Rept_Date":"2021-01-07 13"},"coordinates":[1176,3668]},{"type":"Point","properties":{"Station_ID":"QCAI2","Station_Nam":"MOLINE SNOW","Latitude":"41.39990","Longitude":"-90.54800","Snowdepth":"5.000","Units":"in","Rept_Date":"2021-01-08 00"},"coordinates":[1809,4003]},{"type":"Point","properties":{"Station_ID":"PTNI2","Station_Nam":"PRINCETON","Latitude":"41.37610","Longitude":"-89.46420","Snowdepth":"5.000","Units":"in","Rept_Date":"2021-01-07 13"},"coordinates":[2102,3989]},{"type":"Point","properties":{"Station_ID":"PSHW3","Station_Nam":"PESHTIGO","Latitude":"45.02810","Longitude":"-87.73560","Snowdepth":"5.000","Units":"in","Rept_Date":"2021-01-07 13"},"coordinates":[2569,6109]},{"type":"Point","properties":{"Station_ID":"PORW3","Station_Nam":"PORTAGE,WI","Latitude":"43.53190","Longitude":"-89.43780","Snowdepth":"5.000","Units":"in","Rept_Date":"2021-01-07 14"},"coordinates":[2109,5241]},{"type":"Point","properties":{"Station_ID":"PLLW3","Station_Nam":"PELL LAKE","Latitude":"42.53220","Longitude":"-88.33280","Snowdepth":"5.000","Units":"in","Rept_Date":"2021-01-07 13"},"coordinates":[2408,4660]},{"type":"Point","properties":{"Station_ID":"PLFV1","Station_Nam":"PLAINFIELD","Latitude":"44.27610","Longitude":"-72.41500","Snowdepth":"5.000","Units":"in","Rept_Date":"2021-01-07 12"},"coordinates":[6711,5673]},{"type":"Point","properties":{"Station_ID":"PLBN6","Station_Nam":"PLATTSBURGH COOP","Latitude":"44.69180","Longitude":"-73.45560","Snowdepth":"5.000","Units":"in","Rept_Date":"2021-01-07 12"},"coordinates":[6429,5914]},{"type":"Point","properties":{"Station_ID":"PKGM5","Station_Nam":"POKEGANA LK DAM","Latitude":"47.25080","Longitude":"-93.58610","Snowdepth":"5.000","Units":"in","Rept_Date":"2021-01-07 14"},"coordinates":[987,7400]},{"type":"Point","properties":{"Station_ID":"PELW3","Station_Nam":"PELLA 3SE","Latitude":"44.73580","Longitude":"-88.73780","Snowdepth":"5.000","Units":"in","Rept_Date":"2021-01-07 11"},"coordinates":[2298,5940]},{"type":"Point","properties":{"Station_ID":"PEAI4","Station_Nam":"PELLA,IA","Latitude":"41.46670","Longitude":"-92.91670","Snowdepth":"5.000","Units":"in","Rept_Date":"2021-01-07 13"},"coordinates":[1168,4042]},{"type":"Point","properties":{"Station_ID":"NY-SL-6","Station_Nam":"HANNAWA FALLS 0.1 SW, NY","Latitude":"44.61154","Longitude":"-74.97190","Snowdepth":"5.000","Units":"in","Rept_Date":"2021-01-07 12"},"coordinates":[6020,5868]},{"type":"Point","properties":{"Station_ID":"NY-SC-30","Station_Nam":"AMSTERDAM 6.4 E, NY","Latitude":"42.93462","Longitude":"-74.06502","Snowdepth":"5.000","Units":"in","Rept_Date":"2021-01-07 14"},"coordinates":[6265,4894]},{"type":"Point","properties":{"Station_ID":"NY-OD-2","Station_Nam":"POINT ROCK 0.6 SE, NY","Latitude":"43.37335","Longitude":"-75.53840","Snowdepth":"5.000","Units":"in","Rept_Date":"2021-01-07 12"},"coordinates":[5866,5149]},{"type":"Point","properties":{"Station_ID":"NY-LW-12","Station_Nam":"CHASES LAKE COOP, NY","Latitude":"43.75924","Longitude":"-75.29982","Snowdepth":"5.000","Units":"in","Rept_Date":"2021-01-07 11"},"coordinates":[5931,5373]},{"type":"Point","properties":{"Station_ID":"NY-FL-7","Station_Nam":"BROADALBIN 4.7 ESE, NY","Latitude":"43.03940","Longitude":"-74.10845","Snowdepth":"5.000","Units":"in","Rept_Date":"2021-01-07 14"},"coordinates":[6253,4955]},{"type":"Point","properties":{"Station_ID":"NY-ER-166","Station_Nam":"BOSTON 2.5 NE, NY","Latitude":"42.65480","Longitude":"-78.70300","Snowdepth":"5.000","Units":"in","Rept_Date":"2021-01-07 12"},"coordinates":[5011,4731]},{"type":"Point","properties":{"Station_ID":"NY-DL-25","Station_Nam":"HOBART 4.8 ESE, NY","Latitude":"42.35230","Longitude":"-74.57830","Snowdepth":"5.000","Units":"in","Rept_Date":"2021-01-07 12"},"coordinates":[6126,4556]},{"type":"Point","properties":{"Station_ID":"NY-CL-12","Station_Nam":"SARANAC 0.8 SSE, NY","Latitude":"44.63980","Longitude":"-73.73848","Snowdepth":"5.000","Units":"in","Rept_Date":"2021-01-07 12"},"coordinates":[6353,5884]},{"type":"Point","properties":{"Station_ID":"NPTV1","Station_Nam":"NEWPORT","Latitude":"44.94900","Longitude":"-72.19120","Snowdepth":"5.000","Units":"in","Rept_Date":"2021-01-07 12"},"coordinates":[6771,6063]},