{"type":"Topology","objects":{"snowdepth_geo":{"type":"GeometryCollection","name":"snowdepth","crs":{"type":"name","properties":{"name":"urn:ogc:def:crs:OGC:1.3:CRS84"}},"geometries":[{"type":"Point","properties":{"Station_ID":"PRKM4","Station_Nam":"MUNISING EAST","Latitude":"46.42580","Longitude":"-86.62000","Snowdepth":"76.500","Units":"in","Rept_Date":"2020-12-31 06"},"coordinates":[2553,6735]},{"type":"Point","properties":{"Station_ID":"IL-KN-96","Station_Nam":"ELBURN 0.3 NW, IL","Latitude":"41.89390","Longitude":"-88.47610","Snowdepth":"30.000","Units":"in","Rept_Date":"2020-12-30 13"},"coordinates":[2107,3945]},{"type":"Point","properties":{"Station_ID":"TRIQ6","Station_Nam":"TRIO LAKE","Latitude":"49.22880","Longitude":"-87.22920","Snowdepth":"24.490","Units":"in","Rept_Date":"2020-12-31 06"},"coordinates":[2407,8461]},{"type":"Point","properties":{"Station_ID":"PTLQ6","Station_Nam":"PORTAGE LAKE","Latitude":"49.06950","Longitude":"-86.65940","Snowdepth":"23.820","Units":"in","Rept_Date":"2020-12-31 06"},"coordinates":[2544,8363]},{"type":"Point","properties":{"Station_ID":"AUDQ6","Station_Nam":"AUDEN","Latitude":"48.52600","Longitude":"-82.57570","Snowdepth":"22.520","Units":"in","Rept_Date":"2020-12-31 06"},"coordinates":[3526,8028]},{"type":"Point","properties":{"Station_ID":"CAN-ON-245","Station_Nam":"PHELPSTON 3.1 ESE, CAN","Latitude":"44.50564","Longitude":"-79.81035","Snowdepth":"22.500","Units":"in","Rept_Date":"2020-12-30 12"},"coordinates":[4191,5553]},{"type":"Point","properties":{"Station_ID":"DVLQ6","Station_Nam":"DEVIOUS LAKE","Latitude":"49.19890","Longitude":"-87.76440","Snowdepth":"21.460","Units":"in","Rept_Date":"2020-12-31 06"},"coordinates":[2278,8443]},{"type":"Point","properties":{"Station_ID":"QLB","Station_Nam":"QLB","Latitude":"50.72360","Longitude":"-75.10000","Snowdepth":"21.339","Units":"in","Rept_Date":"2020-12-30 12"},"coordinates":[5323,9381]},{"type":"Point","properties":{"Station_ID":"QCO","Station_Nam":"QCO","Latitude":"51.45280","Longitude":"-72.20110","Snowdepth":"21.299","Units":"in","Rept_Date":"2020-12-30 12"},"coordinates":[6020,9830]},{"type":"Point","properties":{"Station_ID":"QGO","Station_Nam":"QGO","Latitude":"48.85500","Longitude":"-74.20640","Snowdepth":"20.433","Units":"in","Rept_Date":"2020-12-30 12"},"coordinates":[5538,8231]},{"type":"Point","properties":{"Station_ID":"CLUM4","Station_Nam":"CALUMET-TAMARACK","Latitude":"47.24550","Longitude":"-88.46790","Snowdepth":"20.000","Units":"in","Rept_Date":"2020-12-30 14"},"coordinates":[2109,7240]},{"type":"Point","properties":{"Station_ID":"QTM","Station_Nam":"QTM","Latitude":"51.05780","Longitude":"-72.57190","Snowdepth":"19.016","Units":"in","Rept_Date":"2020-12-30 12"},"coordinates":[5931,9587]},{"type":"Point","properties":{"Station_ID":"PDLM4","Station_Nam":"PAINESDALE","Latitude":"47.04160","Longitude":"-88.67170","Snowdepth":"19.000","Units":"in","Rept_Date":"2020-12-30 13"},"coordinates":[2060,7114]},{"type":"Point","properties":{"Station_ID":"MI-KW-2","Station_Nam":"DELAWARE 5.2 SW, MI","Latitude":"47.36928","Longitude":"-88.17919","Snowdepth":"18.000","Units":"in","Rept_Date":"2020-12-30 09"},"coordinates":[2178,7316]},{"type":"Point","properties":{"Station_ID":"IWOM4","Station_Nam":"IRONWOOD#2","Latitude":"46.46520","Longitude":"-90.13820","Snowdepth":"18.000","Units":"in","Rept_Date":"2020-12-30 13"},"coordinates":[1707,6760]},{"type":"Point","properties":{"Station_ID":"HURW3","Station_Nam":"HURLEY","Latitude":"46.46250","Longitude":"-90.19550","Snowdepth":"18.000","Units":"in","Rept_Date":"2020-12-30 14"},"coordinates":[1693,6758]},{"type":"Point","properties":{"Station_ID":"HERM4","Station_Nam":"HERMAN,MI","Latitude":"46.65000","Longitude":"-88.33330","Snowdepth":"18.000","Units":"in","Rept_Date":"2020-12-30 13"},"coordinates":[2141,6873]},{"type":"Point","properties":{"Station_ID":"QFT","Station_Nam":"QFT","Latitude":"50.83280","Longitude":"-74.40390","Snowdepth":"17.559","Units":"in","Rept_Date":"2020-12-30 12"},"coordinates":[5491,9449]},{"type":"Point","properties":{"Station_ID":"CLQM5","Station_Nam":"CLOQUET","Latitude":"46.70470","Longitude":"-92.52530","Snowdepth":"17.000","Units":"in","Rept_Date":"2020-12-30 14"},"coordinates":[1133,6907]},{"type":"Point","properties":{"Station_ID":"QNCM4","Station_Nam":"QUINCY HILL","Latitude":"47.13640","Longitude":"-88.57950","Snowdepth":"16.000","Units":"in","Rept_Date":"2020-12-30 14"},"coordinates":[2082,7173]},{"type":"Point","properties":{"Station_ID":"QOU","Station_Nam":"QOU","Latitude":"50.79250","Longitude":"-69.67470","Snowdepth":"15.551","Units":"in","Rept_Date":"2020-12-30 12"},"coordinates":[6628,9424]},{"type":"Point","properties":{"Station_ID":"WI-BY-29","Station_Nam":"BAYFIELD 5.1 NNW, WI","Latitude":"46.88063","Longitude":"-90.85854","Snowdepth":"15.500","Units":"in","Rept_Date":"2020-12-30 13"},"coordinates":[1534,7015]},{"type":"Point","properties":{"Station_ID":"NOHM5","Station_Nam":"NORTHOME","Latitude":"47.83590","Longitude":"-94.25550","Snowdepth":"15.000","Units":"in","Rept_Date":"2020-12-30 13"},"coordinates":[717,7603]},{"type":"Point","properties":{"Station_ID":"GNLM4","Station_Nam":"GREENLAND 6N","Latitude":"46.87360","Longitude":"-89.10060","Snowdepth":"15.000","Units":"in","Rept_Date":"2020-12-30 13"},"coordinates":[1957,7011]},{"type":"Point","properties":{"Station_ID":"BFHW3","Station_Nam":"BAYFIELD FISH HATCHERY","Latitude":"46.78670","Longitude":"-90.86420","Snowdepth":"15.000","Units":"in","Rept_Date":"2020-12-30 14"},"coordinates":[1533,6957]},{"type":"Point","properties":{"Station_ID":"OGIQ6","Station_Nam":"OGOKI CAMP","Latitude":"50.76680","Longitude":"-87.85820","Snowdepth":"14.370","Units":"in","Rept_Date":"2020-12-31 06"},"coordinates":[2255,9408]},{"type":"Point","properties":{"Station_ID":"CAN-ON-451","Station_Nam":"OWEN SOUND 1.2 N - GSCA, CAN","Latitude":"44.58092","Longitude":"-80.93025","Snowdepth":"14.200","Units":"in","Rept_Date":"2020-12-30 13"},"coordinates":[3921,5599]},{"type":"Point","properties":{"Station_ID":"WI-BY-1","Station_Nam":"BAYFIELD 8.8 N, WI","Latitude":"46.93855","Longitude":"-90.83490","Snowdepth":"14.000","Units":"in","Rept_Date":"2020-12-30 13"},"coordinates":[1540,7051]},{"type":"Point","properties":{"Station_ID":"SWTW3","Station_Nam":"SUPERIOR WWTP","Latitude":"46.72700","Longitude":"-92.07200","Snowdepth":"14.000","Units":"in","Rept_Date":"2020-12-31 06"},"coordinates":[1242,6921]},{"type":"Point","properties":{"Station_ID":"PRDM4","Station_Nam":"PARADISE","Latitude":"46.60380","Longitude":"-85.03960","Snowdepth":"14.000","Units":"in","Rept_Date":"2020-12-30 11"},"coordinates":[2933,6845]},{"type":"Point","properties":{"Station_ID":"MN-SL-190","Station_Nam":"DULUTH 2.9 NE, MN","Latitude":"46.81230","Longitude":"-92.06170","Snowdepth":"14.000","Units":"in","Rept_Date":"2020-12-30 14"},"coordinates":[1245,6973]},{"type":"Point","properties":{"Station_ID":"MN-SL-105","Station_Nam":"DULUTH 11.8 NNE, MN","Latitude":"46.94680","Longitude":"-92.03925","Snowdepth":"14.000","Units":"in","Rept_Date":"2020-12-30 14"},"coordinates":[1250,7056]},{"type":"Point","properties":{"Station_ID":"MI-BG-3","Station_Nam":"THREE LAKES, MI","Latitude":"46.55730","Longitude":"-88.20770","Snowdepth":"14.000","Units":"in","Rept_Date":"2020-12-30 13"},"coordinates":[2171,6816]},{"type":"Point","properties":{"Station_ID":"BERM4","Station_Nam":"BERGLAND DAM","Latitude":"46.58690","Longitude":"-89.54750","Snowdepth":"14.000","Units":"in","Rept_Date":"2020-12-30 13"},"coordinates":[1849,6834]},{"type":"Point","properties":{"Station_ID":"SVBQ6","Station_Nam":"SAVANT BASE","Latitude":"50.28730","Longitude":"-90.65670","Snowdepth":"13.820","Units":"in","Rept_Date":"2020-12-31 06"},"coordinates":[1583,9113]},{"type":"Point","properties":{"Station_ID":"QMD","Station_Nam":"QMD","Latitude":"49.29060","Longitude":"-75.84500","Snowdepth":"13.504","Units":"in","Rept_Date":"2020-12-30 12"},"coordinates":[5144,8499]},{"type":"Point","properties":{"Station_ID":"WI-BY-30","Station_Nam":"WASHBURN 1.1 NW, WI","Latitude":"46.68430","Longitude":"-90.91057","Snowdepth":"13.500","Units":"in","Rept_Date":"2020-12-30 13"},"coordinates":[1522,6894]},{"type":"Point","properties":{"Station_ID":"MN-SL-15","Station_Nam":"CHISHOLM 0.4 WSW, MN","Latitude":"47.48557","Longitude":"-92.88690","Snowdepth":"13.500","Units":"in","Rept_Date":"2020-12-30 12"},"coordinates":[1046,7388]},{"type":"Point","properties":{"Station_ID":"CAN-ON-452","Station_Nam":"CHATSWORTH 1.8 ENE - GSCA, CAN","Latitude":"44.46118","Longitude":"-80.87506","Snowdepth":"13.400","Units":"in","Rept_Date":"2020-12-30 12"},"coordinates":[3935,5526]},{"type":"Point","properties":{"Station_ID":"QLI","Station_Nam":"QLI","Latitude":"50.27080","Longitude":"-73.92280","Snowdepth":"13.268","Units":"in","Rept_Date":"2020-12-30 12"},"coordinates":[5606,9103]},{"type":"Point","properties":{"Station_ID":"WRSM5","Station_Nam":"WRENSHALL","Latitude":"46.61550","Longitude":"-92.38380","Snowdepth":"13.000","Units":"in","Rept_Date":"2020-12-30 14"},"coordinates":[1167,6852]},{"type":"Point","properties":{"Station_ID":"WI-BY-15","Station_Nam":"BAYFIELD 1.7 SW, WI","Latitude":"46.79294","Longitude":"-90.84343","Snowdepth":"13.000","Units":"in","Rept_Date":"2020-12-30 13"},"coordinates":[1538,6961]},{"type":"Point","properties":{"Station_ID":"TOHM5","Station_Nam":"TWO HARBORS WWTP","Latitude":"47.01760","Longitude":"-91.66480","Snowdepth":"13.000","Units":"in","Rept_Date":"2020-12-30 13"},"coordinates":[1340,7100]},{"type":"Point","properties":{"Station_ID":"SNOW2","Station_Nam":"SNOWSHOE","Latitude":"38.39900","Longitude":"-79.99490","Snowdepth":"13.000","Units":"in","Rept_Date":"2020-12-30 11"},"coordinates":[4146,1793]},{"type":"Point","properties":{"Station_ID":"MN-CK-6","Station_Nam":"GRAND MARAIS 4.4 W, MN","Latitude":"47.74865","Longitude":"-90.43760","Snowdepth":"13.000","Units":"in","Rept_Date":"2020-12-30 13"},"coordinates":[1635,7550]},{"type":"Point","properties":{"Station_ID":"LUCW3","Station_Nam":"LUCK","Latitude":"45.57330","Longitude":"-92.48520","Snowdepth":"13.000","Units":"in","Rept_Date":"2020-12-30 17"},"coordinates":[1143,6210]},{"type":"Point","properties":{"Station_ID":"KSGM4","Station_Nam":"KEARSARGE","Latitude":"47.27520","Longitude":"-88.41700","Snowdepth":"13.000","Units":"in","Rept_Date":"2020-12-30 13"},"coordinates":[2121,7258]},{"type":"Point","properties":{"Station_ID":"KABM5","Station_Nam":"KABETOGAMA LAKE VISITOR CTR","Latitude":"48.40880","Longitude":"-93.04840","Snowdepth":"13.000","Units":"in","Rept_Date":"2020-12-30 13"},"coordinates":[1008,7956]},{"type":"Point","properties":{"Station_ID":"SOCQ6","Station_Nam":"SOCKET LAKE","Latitude":"50.77870","Longitude":"-91.79300","Snowdepth":"12.950","Units":"in","Rept_Date":"2020-12-31 06"},"coordinates":[1309,9415]},{"type":"Point","properties":{"Station_ID":"KABQ6","Station_Nam":"CAB LAKE","Latitude":"49.59950","Longitude":"-89.17990","Snowdepth":"12.910","Units":"in","Rept_Date":"2020-12-31 06"},"coordinates":[1938,8689]},{"type":"Point","properties":{"Station_ID":"MN-IS-18","Station_Nam":"BRAHAM 0.7 SW, MN","Latitude":"45.71379","Longitude":"-93.18095","Snowdepth":"12.500","Units":"in","Rept_Date":"2020-12-30 14"},"coordinates":[976,6297]},{"type":"Point","properties":{"Station_ID":"CAN-ON-741","Station_Nam":"KIMBERLEY 2.7 WSW, CAN","Latitude":"44.37820","Longitude":"-80.56956","Snowdepth":"12.200","Units":"in","Rept_Date":"2020-12-30 13"},"coordinates":[4008,5475]},{"type":"Point","properties":{"Station_ID":"WI-LF-6","Station_Nam":"SOUTH WAYNE 3.9 SSW, WI","Latitude":"42.51173","Longitude":"-89.89555","Snowdepth":"12.000","Units":"in","Rept_Date":"2020-12-30 10"},"coordinates":[1766,4325]},{"type":"Point","properties":{"Station_ID":"NYMM5","Station_Nam":"NEW YORK MILLS","Latitude":"46.50920","Longitude":"-95.37990","Snowdepth":"12.000","Units":"in","Rept_Date":"2020-12-30 13"},"coordinates":[447,6787]},{"type":"Point","properties":{"Station_ID":"MNSM4","Station_Nam":"MUNISING","Latitude":"46.41210","Longitude":"-86.66250","Snowdepth":"12.000","Units":"in","Rept_Date":"2020-12-30 11"},"coordinates":[2543,6727]},{"type":"Point","properties":{"Station_ID":"MN-SL-139","Station_Nam":"DULUTH 1.2 SE, MN","Latitude":"46.77000","Longitude":"-92.08826","Snowdepth":"12.000","Units":"in","Rept_Date":"2020-12-30 12"},"coordinates":[1238,6947]},{"type":"Point","properties":{"Station_ID":"MN-SL-115","Station_Nam":"COTTON 5.7 ESE, MN","Latitude":"47.15142","Longitude":"-92.35772","Snowdepth":"12.000","Units":"in","Rept_Date":"2020-12-30 14"},"coordinates":[1174,7182]},{"type":"Point","properties":{"Station_ID":"MN-SL-108","Station_Nam":"IRON JUNCTION 3.4 NNW, MN","Latitude":"47.46150","Longitude":"-92.63130","Snowdepth":"12.000","Units":"in","Rept_Date":"2020-12-30 13"},"coordinates":[1108,7373]},{"type":"Point","properties":{"Station_ID":"MN-CV-40","Station_Nam":"EXCELSIOR 0.8 S, MN","Latitude":"44.88996","Longitude":"-93.56646","Snowdepth":"12.000","Units":"in","Rept_Date":"2020-12-30 13"},"coordinates":[883,5790]},{"type":"Point","properties":{"Station_ID":"MI-HG-20","Station_Nam":"CALUMET 1.1 SSW, MI","Latitude":"47.23165","Longitude":"-88.45823","Snowdepth":"12.000","Units":"in","Rept_Date":"2020-12-30 11"},"coordinates":[2111,7231]},{"type":"Point","properties":{"Station_ID":"LEIM5","Station_Nam":"ORR 3E","Latitude":"48.05810","Longitude":"-92.75220","Snowdepth":"12.000","Units":"in","Rept_Date":"2020-12-30 12"},"coordinates":[1079,7740]},{"type":"Point","properties":{"Station_ID":"GNFM5","Station_Nam":"GUNFLINT LAKE","Latitude":"48.16670","Longitude":"-90.88750","Snowdepth":"12.000","Units":"in","Rept_Date":"2020-12-30 13"},"coordinates":[1527,7807]},{"type":"Point","properties":{"Station_ID":"FLDM5","Station_Nam":"FLOODWOOD,MN","Latitude":"47.00000","Longitude":"-92.91670","Snowdepth":"12.000","Units":"in","Rept_Date":"2020-12-30 14"},"coordinates":[1039,7089]},{"type":"Point","properties":{"Station_ID":"CAN-ON-5","Station_Nam":"OWEN SOUND 1.5 NW - GSCA, CAN","Latitude":"44.57837","Longitude":"-80.95461","Snowdepth":"12.000","Units":"in","Rept_Date":"2020-12-30 13"},"coordinates":[3915,5598]},{"type":"Point","properties":{"Station_ID":"BNDM5","Station_Nam":"ELY 25E","Latitude":"47.97190","Longitude":"-91.44860","Snowdepth":"12.000","Units":"in","Rept_Date":"2020-12-30 13"},"coordinates":[1392,7687]},{"type":"Point","properties":{"Station_ID":"BLVI4","Station_Nam":"MISSISSIPPI RIVER","Latitude":"42.26670","Longitude":"-90.41670","Snowdepth":"12.000","Units":"in","Rept_Date":"2020-12-30 12"},"coordinates":[1640,4175]},{"type":"Point","properties":{"Station_ID":"NY-JF-30","Station_Nam":"WEST CARTHAGE 0.3 ENE, NY","Latitude":"43.97493","Longitude":"-75.61640","Snowdepth":"11.600","Units":"in","Rept_Date":"2020-12-30 12"},"coordinates":[5199,5226]},{"type":"Point","properties":{"Station_ID":"WI-WB-2","Station_Nam":"STONE LAKE 2.0 NW, WI","Latitude":"45.85960","Longitude":"-91.57710","Snowdepth":"11.500","Units":"in","Rept_Date":"2020-12-30 13"},"coordinates":[1361,6387]},{"type":"Point","properties":{"Station_ID":"WI-DG-20","Station_Nam":"SOLON SPRINGS 1.2 W, WI","Latitude":"46.35217","Longitude":"-91.84405","Snowdepth":"11.500","Units":"in","Rept_Date":"2020-12-30 13"},"coordinates":[1297,6690]},{"type":"Point","properties":{"Station_ID":"WI-BY-14","Station_Nam":"ASHLAND 9.8 W, WI","Latitude":"46.59742","Longitude":"-91.07856","Snowdepth":"11.500","Units":"in","Rept_Date":"2020-12-30 12"},"coordinates":[1481,6841]},{"type":"Point","properties":{"Station_ID":"MN-SL-18","Station_Nam":"DULUTH 1.4 NNW, MN","Latitude":"46.80321","Longitude":"-92.11240","Snowdepth":"11.500","Units":"in","Rept_Date":"2020-12-30 13"},"coordinates":[1233,6968]},{"type":"Point","properties":{"Station_ID":"MN-SL-175","Station_Nam":"DULUTH 4.6 NE, MN","Latitude":"46.83860","Longitude":"-92.05140","Snowdepth":"11.500","Units":"in","Rept_Date":"2020-12-30 14"},"coordinates":[1247,6989]},{"type":"Point","properties":{"Station_ID":"MN-CW-22","Station_Nam":"FORT RIPLEY 0.8 N, MN","Latitude":"46.18089","Longitude":"-94.36510","Snowdepth":"11.500","Units":"in","Rept_Date":"2020-12-30 13"},"coordinates":[691,6584]},{"type":"Point","properties":{"Station_ID":"MI-OG-6","Station_Nam":"WEST BRANCH 2.1 SSW, MI","Latitude":"44.24814","Longitude":"-84.25089","Snowdepth":"11.500","Units":"in","Rept_Date":"2020-12-30 12"},"coordinates":[3123,5395]},{"type":"Point","properties":{"Station_ID":"CAN-ON-804","Station_Nam":"KEMBLE 1.6 S - GSCA, CAN","Latitude":"44.71013","Longitude":"-80.92735","Snowdepth":"11.400","Units":"in","Rept_Date":"2020-12-30 13"},"coordinates":[3922,5679]},{"type":"Point","properties":{"Station_ID":"IL-CR-12","Station_Nam":"MOUNT CARROLL 6.8 NNW, IL","Latitude":"42.18735","Longitude":"-90.02185","Snowdepth":"11.200","Units":"in","Rept_Date":"2020-12-30 13"},"coordinates":[1735,4126]},{"type":"Point","properties":{"Station_ID":"WTNM4","Station_Nam":"WATTON 2WSW","Latitude":"46.52660","Longitude":"-88.64240","Snowdepth":"11.000","Units":"in","Rept_Date":"2020-12-30 13"},"coordinates":[2067,6797]},{"type":"Point","properties":{"Station_ID":"WI-SR-1","Station_Nam":"HAYWARD 9.2 NNE, WI","Latitude":"46.13255","Longitude":"-91.40500","Snowdepth":"11.000","Units":"in","Rept_Date":"2020-12-30 12"},"coordinates":[1403,6555]},{"type":"Point","properties":{"Station_ID":"WI-BY-6","Station_Nam":"BARNES 2.2 S, WI","Latitude":"46.30264","Longitude":"-91.50320","Snowdepth":"11.000","Units":"in","Rept_Date":"2020-12-30 13"},"coordinates":[1379,6659]},{"type":"Point","properties":{"Station_ID":"WI-BY-22","Station_Nam":"MASON 11.5 WNW, WI","Latitude":"46.50198","Longitude":"-91.28339","Snowdepth":"11.000","Units":"in","Rept_Date":"2020-12-30 14"},"coordinates":[1432,6782]},{"type":"Point","properties":{"Station_ID":"SWHI4","Station_Nam":"SWISHER #2","Latitude":"41.84970","Longitude":"-91.67650","Snowdepth":"11.000","Units":"in","Rept_Date":"2020-12-30 15"},"coordinates":[1337,3918]},{"type":"Point","properties":{"Station_ID":"SRAW3","Station_Nam":"SARONA","Latitude":"45.80250","Longitude":"-91.86700","Snowdepth":"11.000","Units":"in","Rept_Date":"2020-12-30 14"},"coordinates":[1292,6352]},{"type":"Point","properties":{"Station_ID":"NE-SN-3","Station_Nam":"WESTON 0.2 ENE, NE","Latitude":"41.19322","Longitude":"-96.73740","Snowdepth":"11.000","Units":"in","Rept_Date":"2020-12-30 13"},"coordinates":[121,3514]},{"type":"Point","properties":{"Station_ID":"MN-SL-14","Station_Nam":"DULUTH 4.1 NNE, MN","Latitude":"46.83569","Longitude":"-92.06600","Snowdepth":"11.000","Units":"in","Rept_Date":"2020-12-30 12"},"coordinates":[1244,6988]},{"type":"Point","properties":{"Station_ID":"MN-CV-22","Station_Nam":"VICTORIA 1.6 WSW, MN","Latitude":"44.85670","Longitude":"-93.68640","Snowdepth":"11.000","Units":"in","Rept_Date":"2020-12-30 13"},"coordinates":[854,5769]},{"type":"Point","properties":{"Station_ID":"MN-CN-36","Station_Nam":"CLOQUET 3.4 ENE, MN","Latitude":"46.74146","Longitude":"-92.42698","Snowdepth":"11.000","Units":"in","Rept_Date":"2020-12-30 13"},"coordinates":[1157,6930]},{"type":"Point","properties":{"Station_ID":"MN-CG-16","Station_Nam":"NORTH BRANCH 1.3 NNW, MN","Latitude":"45.53121","Longitude":"-92.97110","Snowdepth":"11.000","Units":"in","Rept_Date":"2020-12-30 12"},"coordinates":[1026,6184]},{"type":"Point","properties":{"Station_ID":"MN-AA-76","Station_Nam":"NOWTHEN 2.9 SSE, MN","Latitude":"45.30360","Longitude":"-93.42620","Snowdepth":"11.000","Units":"in","Rept_Date":"2020-12-30 13"},"coordinates":[917,6044]},{"type":"Point","properties":{"Station_ID":"MMNV1","Station_Nam":"MT. MANSFIELD","Latitude":"44.52480","Longitude":"-72.81540","Snowdepth":"11.000","Units":"in","Rept_Date":"2020-12-30 21"},"coordinates":[5872,5565]},{"type":"Point","properties":{"Station_ID":"MIEM4","Station_Nam":"MICHIGAMME 3WNW","Latitude":"46.54530","Longitude":"-88.18000","Snowdepth":"11.000","Units":"in","Rept_Date":"2020-12-30 13"},"coordinates":[2178,6809]},{"type":"Point","properties":{"Station_ID":"IRMM4","Station_Nam":"WWTP","Latitude":"46.46670","Longitude":"-90.18330","Snowdepth":"11.000","Units":"in","Rept_Date":"2020-12-30 13"},"coordinates":[1696,6760]},{"type":"Point","properties":{"Station_ID":"IA-LN-31","Station_Nam":"CEDAR RAPIDS 2.7 NE, IA","Latitude":"42.00070","Longitude":"-91.63260","Snowdepth":"11.000","Units":"in","Rept_Date":"2020-12-30 12"},"coordinates":[1348,4011]},{"type":"Point","properties":{"Station_ID":"ELYM5","Station_Nam":"ELY","Latitude":"47.90560","Longitude":"-91.82830","Snowdepth":"11.000","Units":"in","Rept_Date":"2020-12-30 14"},"coordinates":[1301,7646]},{"type":"Point","properties":{"Station_ID":"ELKM5","Station_Nam":"ELK RIVER","Latitude":"45.30470","Longitude":"-93.58420","Snowdepth":"11.000","Units":"in","Rept_Date":"2020-12-30 13"},"coordinates":[879,6045]},{"type":"Point","properties":{"Station_ID":"COKM5","Station_Nam":"COOK","Latitude":"47.85060","Longitude":"-92.69250","Snowdepth":"11.000","Units":"in","Rept_Date":"2020-12-30 12"},"coordinates":[1093,7612]},{"type":"Point","properties":{"Station_ID":"CLKM4","Station_Nam":"CLARKSBURG","Latitude":"46.49910","Longitude":"-87.84500","Snowdepth":"11.000","Units":"in","Rept_Date":"2020-12-30 12"},"coordinates":[2259,6780]},{"type":"Point","properties":{"Station_ID":"CAN-ON-118","Station_Nam":"DURHAM 1.4 S, CAN","Latitude":"44.16525","Longitude":"-80.82064","Snowdepth":"11.000","Units":"in","Rept_Date":"2020-12-30 12"},"coordinates":[3948,5344]},{"type":"Point","properties":{"Station_ID":"CAN-MB-56","Station_Nam":"WINNIPEG 7.6 ENE, CAN","Latitude":"49.93264","Longitude":"-97.04752","Snowdepth":"11.000","Units":"in","Rept_Date":"2020-12-30 14"},"coordinates":[46,8894]},{"type":"Point","properties":{"Station_ID":"BGBM4","Station_Nam":"BIG BAY 1NW","Latitude":"46.83250","Longitude":"-87.75040","Snowdepth":"11.000","Units":"in","Rept_Date":"2020-12-30 13"},"coordinates":[2281,6986]},{"type":"Point","properties":{"Station_ID":"BBEM4","Station_Nam":"BIG BAY 9SW","Latitude":"46.74620","Longitude":"-87.88160","Snowdepth":"11.000","Units":"in","Rept_Date":"2020-12-30 13"},"coordinates":[2250,6933]},{"type":"Point","properties":{"Station_ID":"AFTW3","Station_Nam":"ROCK RIVER","Latitude":"42.61670","Longitude":"-89.06670","Snowdepth":"11.000","Units":"in","Rept_Date":"2020-12-30 13"},"coordinates":[1965,4390]},{"type":"Point","properties":{"Station_ID":"MLZ","Station_Nam":"MLZ","Latitude":"50.66170","Longitude":"-68.82360","Snowdepth":"10.984","Units":"in","Rept_Date":"2020-12-30 12"},"coordinates":[6832,9343]},{"type":"Point","properties":{"Station_ID":"IA-JH-14","Station_Nam":"SWISHER 0.4 NNE, IA","Latitude":"41.84830","Longitude":"-91.69210","Snowdepth":"10.900","Units":"in","Rept_Date":"2020-12-30 15"},"coordinates":[1334,3917]},{"type":"Point","properties":{"Station_ID":"WI-AS-6","Station_Nam":"ODANAH 1.6 E, WI","Latitude":"46.60462","Longitude":"-90.64920","Snowdepth":"10.500","Units":"in","Rept_Date":"2020-12-30 13"},"coordinates":[1584,6845]},{"type":"Point","properties":{"Station_ID":"MN-IS-21","Station_Nam":"ISANTI 5.0 SW, MN","Latitude":"45.43360","Longitude":"-93.30200","Snowdepth":"10.500","Units":"in","Rept_Date":"2020-12-30 14"},"coordinates":[947,6124]},{"type":"Point","properties":{"Station_ID":"CATQ6","Station_Nam":"CAT LAKE","Latitude":"51.72690","Longitude":"-91.82210","Snowdepth":"10.240","Units":"in","Rept_Date":"2020-12-31 06"},"coordinates":[1302,9999]},{"type":"Point","properties":{"Station_ID":"WRIM5","Station_Nam":"WRIGHT 3E","Latitude":"46.68040","Longitude":"-92.95420","Snowdepth":"10.000","Units":"in","Rept_Date":"2020-12-30 12"},"coordinates":[1030,6892]},{"type":"Point","properties":{"Station_ID":"WI-PR-2","Station_Nam":"BUTTERNUT 5.9 SW, WI","Latitude":"45.96501","Longitude":"-90.59750","Snowdepth":"10.000","Units":"in","Rept_Date":"2020-12-30 12"},"coordinates":[1597,6452]},{"type":"Point","properties":{"Station_ID":"WI-IR-2","Station_Nam":"MERCER 2.0 SE, WI","Latitude":"46.14749","Longitude":"-90.03097","Snowdepth":"10.000","Units":"in","Rept_Date":"2020-12-30 13"},"coordinates":[1733,6564]},{"type":"Point","properties":{"Station_ID":"WI-BY-2","Station_Nam":"MELLEN 18.6 SW, WI","Latitude":"46.16937","Longitude":"-90.98090","Snowdepth":"10.000","Units":"in","Rept_Date":"2020-12-30 13"},"coordinates":[1505,6577]},{"type":"Point","properties":{"Station_ID":"WI-BT-14","Station_Nam":"OAKLAND 9.0 ENE, WI","Latitude":"45.95184","Longitude":"-92.21653","Snowdepth":"10.000","Units":"in","Rept_Date":"2020-12-30 13"},"coordinates":[1208,6443]},{"type":"Point","properties":{"Station_ID":"TOGM5","Station_Nam":"CELINA 2E","Latitude":"47.86630","Longitude":"-93.02660","Snowdepth":"10.000","Units":"in","Rept_Date":"2020-12-30 15"},"coordinates":[1013,7622]},{"type":"Point","properties":{"Station_ID":"STOI2","Station_Nam":"STOCKTON 3 NNE","Latitude":"42.40050","Longitude":"-89.99580","Snowdepth":"10.000","Units":"in","Rept_Date":"2020-12-31 03"},"coordinates":[1742,4257]},{"type":"Point","properties":{"Station_ID":"PDGM4","Station_Nam":"PAULDING","Latitude":"46.39760","Longitude":"-89.17940","Snowdepth":"10.000","Units":"in","Rept_Date":"2020-12-30 13"},"coordinates":[1938,6718]},{"type":"Point","properties":{"Station_ID":"MQT","Station_Nam":"MARQUETTE, MI","Latitude":"46.53140","Longitude":"-87.54920","Snowdepth":"10.000","Units":"in","Rept_Date":"2020-12-31 06"},"coordinates":[2330,6800]},{"type":"Point","properties":{"Station_ID":"MONW3","Station_Nam":"MONROE,WI","Latitude":"42.60000","Longitude":"-89.66670","Snowdepth":"10.000","Units":"in","Rept_Date":"2020-12-30 13"},"coordinates":[1821,4380]},{"type":"Point","properties":{"Station_ID":"MN-IT-1","Station_Nam":"GRAND RAPIDS 2.0 E, MN","Latitude":"47.22266","Longitude":"-93.49600","Snowdepth":"10.000","Units":"in","Rept_Date":"2020-12-30 13"},"coordinates":[900,7226]},{"type":"Point","properties":{"Station_ID":"MN-HN-298","Station_Nam":"EXCELSIOR 1.8 W, MN","Latitude":"44.89722","Longitude":"-93.60286","Snowdepth":"10.000","Units":"in","Rept_Date":"2020-12-30 13"},"coordinates":[874,5794]},{"type":"Point","properties":{"Station_ID":"MN-HN-222","Station_Nam":"MAPLE GROVE 1.2 NE, MN","Latitude":"45.11960","Longitude":"-93.44410","Snowdepth":"10.000","Units":"in","Rept_Date":"2020-12-30 13"},"coordinates":[912,5931]},{"type":"Point","properties":{"Station_ID":"MN-HN-134","Station_Nam":"BROOKLYN CENTER 1.1 E, MN","Latitude":"45.06744","Longitude":"-93.29334","Snowdepth":"10.000","Units":"in","Rept_Date":"2020-12-30 13"},"coordinates":[949,5899]},{"type":"Point","properties":{"Station_ID":"MN-CW-54","Station_Nam":"AITKIN 9.6 W, MN","Latitude":"46.53711","Longitude":"-93.90688","Snowdepth":"10.000","Units":"in","Rept_Date":"2020-12-30 14"},"coordinates":[801,6804]},{"type":"Point","properties":{"Station_ID":"MN-CW-44","Station_Nam":"CROSBY 1.1 SW, MN","Latitude":"46.47772","Longitude":"-93.97293","Snowdepth":"10.000","Units":"in","Rept_Date":"2020-12-30 13"},"coordinates":[785,6767]},{"type":"Point","properties":{"Station_ID":"MN-BK-6","Station_Nam":"LAKE PARK 6.0 S, MN","Latitude":"46.79850","Longitude":"-96.12180","Snowdepth":"10.000","Units":"in","Rept_Date":"2020-12-30 13"},"coordinates":[269,6965]},{"type":"Point","properties":{"Station_ID":"MN-AT-5","Station_Nam":"TAMARACK 1.4 SW, MN","Latitude":"46.63760","Longitude":"-93.14554","Snowdepth":"10.000","Units":"in","Rept_Date":"2020-12-30 13"},"coordinates":[984,6866]},{"type":"Point","properties":{"Station_ID":"MKTI4","Station_Nam":"MAQUOKETA","Latitude":"42.07710","Longitude":"-90.66470","Snowdepth":"10.000","Units":"in","Rept_Date":"2020-12-30 13"},"coordinates":[1581,4058]},{"type":"Point","properties":{"Station_ID":"JCBM4","Station_Nam":"JACOBSVILLE","Latitude":"47.00830","Longitude":"-88.43180","Snowdepth":"10.000","Units":"in","Rept_Date":"2020-12-30 12"},"coordinates":[2118,7094]},{"type":"Point","properties":{"Station_ID":"INL","Station_Nam":"FALLS INTERNATIONAL ARPT","Latitude":"48.56640","Longitude":"-93.40310","Snowdepth":"10.000","Units":"in","Rept_Date":"2020-12-31 00"},"coordinates":[922,8053]},{"type":"Point","properties":{"Station_ID":"IL-SP-7","Station_Nam":"DAVIS 0.5 N, IL","Latitude":"42.42919","Longitude":"-89.41730","Snowdepth":"10.000","Units":"in","Rept_Date":"2020-12-30 14"},"coordinates":[1881,4275]},{"type":"Point","properties":{"Station_ID":"IL-SP-6","Station_Nam":"FREEPORT 2.0 NW, IL","Latitude":"42.30955","Longitude":"-89.66370","Snowdepth":"10.000","Units":"in","Rept_Date":"2020-12-30 14"},"coordinates":[1821,4201]},{"type":"Point","properties":{"Station_ID":"IL-SP-22","Station_Nam":"FREEPORT 1.2 E, IL","Latitude":"42.29008","Longitude":"-89.61035","Snowdepth":"10.000","Units":"in","Rept_Date":"2020-12-30 13"},"coordinates":[1834,4189]},{"type":"Point","properties":{"Station_ID":"IL-JD-8","Station_Nam":"STOCKTON 3.4 NNE, IL","Latitude":"42.39960","Longitude":"-89.99020","Snowdepth":"10.000","Units":"in","Rept_Date":"2020-12-30 13"},"coordinates":[1743,4256]},{"type":"Point","properties":{"Station_ID":"IFSM5","Station_Nam":"INTERNATIONAL FALLS SNOW","Latitude":"48.57780","Longitude":"-93.39640","Snowdepth":"10.000","Units":"in","Rept_Date":"2020-12-30 18"},"coordinates":[924,8060]},{"type":"Point","properties":{"Station_ID":"IA-JH-1","Station_Nam":"SOLON 0.3 ESE, IA","Latitude":"41.80398","Longitude":"-91.48910","Snowdepth":"10.000","Units":"in","Rept_Date":"2020-12-30 13"},"coordinates":[1382,3890]},{"type":"Point","properties":{"Station_ID":"IA-IA-2","Station_Nam":"MARENGO 2.6 SSW, IA","Latitude":"41.76208","Longitude":"-92.08470","Snowdepth":"10.000","Units":"in","Rept_Date":"2020-12-30 13"},"coordinates":[1239,3864]},{"type":"Point","properties":{"Station_ID":"FORM5","Station_Nam":"FOREST LAKE 5NE","Latitude":"45.33170","Longitude":"-92.89820","Snowdepth":"10.000","Units":"in","Rept_Date":"2020-12-30 13"},"coordinates":[1044,6062]},{"type":"Point","properties":{"Station_ID":"DLHM5","Station_Nam":"DULUTH NWS","Latitude":"46.83680","Longitude":"-92.21080","Snowdepth":"10.000","Units":"in","Rept_Date":"2020-12-31 06"},"coordinates":[1209,6988]},{"type":"Point","properties":{"Station_ID":"DLH","Station_Nam":"DULUTH, MN","Latitude":"46.83690","Longitude":"-92.21030","Snowdepth":"10.000","Units":"in","Rept_Date":"2020-12-31 00"},"coordinates":[1209,6988]},{"type":"Point","properties":{"Station_ID":"CSLM5","Station_Nam":"CASS LAKE,MN","Latitude":"47.38470","Longitude":"-94.61470","Snowdepth":"10.000","Units":"in","Rept_Date":"2020-12-30 14"},"coordinates":[631,7326]},{"type":"Point","properties":{"Station_ID":"CMKW3","Station_Nam":"CLAM LAKE 4W","Latitude":"46.16940","Longitude":"-90.98080","Snowdepth":"10.000","Units":"in","Rept_Date":"2020-12-30 13"},"coordinates":[1505,6577]},{"type":"Point","properties":{"Station_ID":"CBLW3","Station_Nam":"CUMBERLAND","Latitude":"45.53310","Longitude":"-92.02260","Snowdepth":"10.000","Units":"in","Rept_Date":"2020-12-30 13"},"coordinates":[1254,6186]},{"type":"Point","properties":{"Station_ID":"CAN-MB-32","Station_Nam":"PINAWA 1.0 SW, CA","Latitude":"50.14747","Longitude":"-95.89020","Snowdepth":"10.000","Units":"in","Rept_Date":"2020-12-30 13"},"coordinates":[324,9027]},{"type":"Point","properties":{"Station_ID":"BUTW3","Station_Nam":"BUTTERNUT 3SW","Latitude":"45.98080","Longitude":"-90.54170","Snowdepth":"10.000","Units":"in","Rept_Date":"2020-12-30 12"},"coordinates":[1610,6461]},{"type":"Point","properties":{"Station_ID":"BRAM5","Station_Nam":"BRAINERD","Latitude":"46.34320","Longitude":"-94.20900","Snowdepth":"10.000","Units":"in","Rept_Date":"2020-12-30 13"},"coordinates":[728,6684]},{"type":"Point","properties":{"Station_ID":"BKEM5","Station_Nam":"BRECKENRIDGE 4NE","Latitude":"46.30470","Longitude":"-96.52170","Snowdepth":"10.000","Units":"in","Rept_Date":"2020-12-30 13"},"coordinates":[172,6661]},{"type":"Point","properties":{"Station_ID":"BAGM4","Station_Nam":"BARAGA 7NW","Latitude":"46.82100","Longitude":"-88.60590","Snowdepth":"10.000","Units":"in","Rept_Date":"2020-12-30 13"},"coordinates":[2076,6979]},{"type":"Point","properties":{"Station_ID":"MN-IT-7","Station_Nam":"GRAND RAPIDS 6.2 SSW, MN","Latitude":"47.13687","Longitude":"-93.56660","Snowdepth":"9.500","Units":"in","Rept_Date":"2020-12-30 12"},"coordinates":[883,7173]},{"type":"Point","properties":{"Station_ID":"MN-CW-8","Station_Nam":"BRAINERD 11.5 E, MN","Latitude":"46.38556","Longitude":"-93.95720","Snowdepth":"9.500","Units":"in","Rept_Date":"2020-12-30 14"},"coordinates":[789,6710]},{"type":"Point","properties":{"Station_ID":"MN-AA-74","Station_Nam":"ANOKA 0.9 ENE, MN","Latitude":"45.21643","Longitude":"-93.37361","Snowdepth":"9.500","Units":"in","Rept_Date":"2020-12-30 11"},"coordinates":[929,5991]},{"type":"Point","properties":{"Station_ID":"IL-SP-25","Station_Nam":"FREEPORT 1.7 NW, IL","Latitude":"42.30427","Longitude":"-89.66285","Snowdepth":"9.500","Units":"in","Rept_Date":"2020-12-30 13"},"coordinates":[1822,4198]},{"type":"Point","properties":{"Station_ID":"CAN-MB-368","Station_Nam":"WHITESHELL 1.3 NE, CAN","Latitude":"49.74405","Longitude":"-95.19123","Snowdepth":"9.400","Units":"in","Rept_Date":"2020-12-30 14"},"coordinates":[492,8778]},{"type":"Point","properties":{"Station_ID":"HPN04_MADIS","Station_Nam":"HANOVER","Latitude":"45.16770","Longitude":"-93.63430","Snowdepth":"9.020","Units":"in","Rept_Date":"2020-12-31 06"},"coordinates":[867,5961]},{"type":"Point","properties":{"Station_ID":"WI-WB-16","Station_Nam":"SARONA 4.5 NNE, WI","Latitude":"45.77030","Longitude":"-91.76890","Snowdepth":"9.000","Units":"in","Rept_Date":"2020-12-30 13"},"coordinates":[1315,6332]},{"type":"Point","properties":{"Station_ID":"WI-VL-9","Station_Nam":"LAND O' LAKES 11.7 W, WI","Latitude":"46.19023","Longitude":"-89.45790","Snowdepth":"9.000","Units":"in","Rept_Date":"2020-12-30 13"},"coordinates":[1871,6590]},{"type":"Point","properties":{"Station_ID":"WI-RK-12","Station_Nam":"JANESVILLE 3.1 W, WI","Latitude":"42.67576","Longitude":"-89.07614","Snowdepth":"9.000","Units":"in","Rept_Date":"2020-12-30 13"},"coordinates":[1963,4426]},{"type":"Point","properties":{"Station_ID":"WI-PR-6","Station_Nam":"PHILLIPS 1.3 S, WI","Latitude":"45.67677","Longitude":"-90.39543","Snowdepth":"9.000","Units":"in","Rept_Date":"2020-12-30 12"},"coordinates":[1645,6274]},{"type":"Point","properties":{"Station_ID":"WI-AS-4","Station_Nam":"ASHLAND 0.5 WNW, WI","Latitude":"46.58240","Longitude":"-90.88390","Snowdepth":"9.000","Units":"in","Rept_Date":"2020-12-30 13"},"coordinates":[1528,6832]},{"type":"Point","properties":{"Station_ID":"WELM5","Station_Nam":"WELLS","Latitude":"43.74680","Longitude":"-93.73680","Snowdepth":"9.000","Units":"in","Rept_Date":"2020-12-30 14"},"coordinates":[842,5086]},{"type":"Point","properties":{"Station_ID":"SUAW3","Station_Nam":"SUAMICO","Latitude":"44.60190","Longitude":"-88.09780","Snowdepth":"9.000","Units":"in","Rept_Date":"2020-12-30 12"},"coordinates":[2198,5612]},{"type":"Point","properties":{"Station_ID":"PELW3","Station_Nam":"PELLA 3SE","Latitude":"44.73580","Longitude":"-88.73780","Snowdepth":"9.000","Units":"in","Rept_Date":"2020-12-30 11"},"coordinates":[2044,5695]},{"type":"Point","properties":{"Station_ID":"ONMM5","Station_Nam":"ONAMIA RANGER STATION","Latitude":"46.06770","Longitude":"-93.66660","Snowdepth":"9.000","Units":"in","Rept_Date":"2020-12-30 14"},"coordinates":[859,6515]},{"type":"Point","properties":{"Station_ID":"OCNW3","Station_Nam":"OCONTO 4 W","Latitude":"44.89190","Longitude":"-87.95500","Snowdepth":"9.000","Units":"in","Rept_Date":"2020-12-30 13"},"coordinates":[2232,5791]},{"type":"Point","properties":{"Station_ID":"MSP","Station_Nam":"MINNEAPOLIS-ST PAUL INTL AP","Latitude":"44.88310","Longitude":"-93.22890","Snowdepth":"9.000","Units":"in","Rept_Date":"2020-12-30 12"},"coordinates":[964,5785]},{"type":"Point","properties":{"Station_ID":"MPXM5","Station_Nam":"CHANHASSEN WSFO","Latitude":"44.84960","Longitude":"-93.56440","Snowdepth":"9.000","Units":"in","Rept_Date":"2020-12-31 06"},"coordinates":[883,5765]},{"type":"Point","properties":{"Station_ID":"MN-WR-25","Station_Nam":"SAINT MICHAEL 2.0 ENE, MN","Latitude":"45.20820","Longitude":"-93.65280","Snowdepth":"9.000","Units":"in","Rept_Date":"2020-12-30 12"},"coordinates":[862,5986]},{"type":"Point","properties":{"Station_ID":"MN-HN-31","Station_Nam":"MAPLE GROVE 1.0 NNE, MN","Latitude":"45.12261","Longitude":"-93.45790","Snowdepth":"9.000","Units":"in","Rept_Date":"2020-12-30 14"},"coordinates":[909,5933]},{"type":"Point","properties":{"Station_ID":"MN-HN-308","Station_Nam":"NEW HOPE 2.1 SSW, MN","Latitude":"45.00791","Longitude":"-93.39592","Snowdepth":"9.000","Units":"in","Rept_Date":"2020-12-30 16"},"coordinates":[924,5862]},{"type":"Point","properties":{"Station_ID":"MN-HN-30","Station_Nam":"PLYMOUTH 2.4 ENE, MN","Latitude":"45.04063","Longitude":"-93.41950","Snowdepth":"9.000","Units":"in","Rept_Date":"2020-12-30 13"},"coordinates":[918,5882]},{"type":"Point","properties":{"Station_ID":"MN-HN-241","Station_Nam":"MAPLE GROVE 1.4 WSW, MN","Latitude":"45.10451","Longitude":"-93.48950","Snowdepth":"9.000","Units":"in","Rept_Date":"2020-12-30 13"},"coordinates":[901,5922]},{"type":"Point","properties":{"Station_ID":"MN-CV-1","Station_Nam":"CARVER 0.7 W, MN","Latitude":"44.75728","Longitude":"-93.64160","Snowdepth":"9.000","Units":"in","Rept_Date":"2020-12-30 13"},"coordinates":[865,5708]},{"type":"Point","properties":{"Station_ID":"MI-OT-17","Station_Nam":"GAYLORD 4.1 S, MI","Latitude":"44.96388","Longitude":"-84.68467","Snowdepth":"9.000","Units":"in","Rept_Date":"2020-12-30 13"},"coordinates":[3019,5835]},{"type":"Point","properties":{"Station_ID":"MI-MQ-19","Station_Nam":"ISHPEMING 7.2 SW, MI","Latitude":"46.40550","Longitude":"-87.75670","Snowdepth":"9.000","Units":"in","Rept_Date":"2020-12-30 11"},"coordinates":[2280,6723]},{"type":"Point","properties":{"Station_ID":"MI-EM-8","Station_Nam":"PETOSKEY 1.7 SSW, MI","Latitude":"45.34209","Longitude":"-84.96530","Snowdepth":"9.000","Units":"in","Rept_Date":"2020-12-30 17"},"coordinates":[2951,6068]},{"type":"Point","properties":{"Station_ID":"LNOW3","Station_Nam":"LAND O LAKES","Latitude":"46.19000","Longitude":"-89.45700","Snowdepth":"9.000","Units":"in","Rept_Date":"2020-12-30 13"},"coordinates":[1871,6590]},{"type":"Point","properties":{"Station_ID":"KMSP","Station_Nam":"MINNEAPOLIS-ST PAUL INTERNATIONAL","Latitude":"44.86666","Longitude":"-93.21666","Snowdepth":"9.000","Units":"in","Rept_Date":"2020-12-31 00"},"coordinates":[967,5775]},{"type":"Point","properties":{"Station_ID":"INDM5","Station_Nam":"INDUS,MN","Latitude":"48.61670","Longitude":"-93.90000","Snowdepth":"9.000","Units":"in","Rept_Date":"2020-12-30 14"},"coordinates":[803,8084]},{"type":"Point","properties":{"Station_ID":"IL-SP-27","Station_Nam":"DAVIS 2.7 N, IL","Latitude":"42.46110","Longitude":"-89.40890","Snowdepth":"9.000","Units":"in","Rept_Date":"2020-12-30 13"},"coordinates":[1883,4294]},{"type":"Point","properties":{"Station_ID":"IA-IA-13","Station_Nam":"PARNELL 0.1 SSW, IA","Latitude":"41.58238","Longitude":"-92.00541","Snowdepth":"9.000","Units":"in","Rept_Date":"2020-12-30 13"},"coordinates":[1258,3753]},{"type":"Point","properties":{"Station_ID":"HTLM4","Station_Nam":"SNOW PAID OBSERVER FOR KHTL","Latitude":"44.34470","Longitude":"-84.67730","Snowdepth":"9.000","Units":"in","Rept_Date":"2020-12-30 18"},"coordinates":[3020,5454]},{"type":"Point","properties":{"Station_ID":"HTL","Station_Nam":"ROSCOMMON COUNTY AIRPORT","Latitude":"44.35000","Longitude":"-84.66670","Snowdepth":"9.000","Units":"in","Rept_Date":"2020-12-31 00"},"coordinates":[3023,5457]},{"type":"Point","properties":{"Station_ID":"CRLM5","Station_Nam":"CROSS LAKE DAM","Latitude":"46.66930","Longitude":"-94.11060","Snowdepth":"9.000","Units":"in","Rept_Date":"2020-12-30 14"},"coordinates":[752,6885]},{"type":"Point","properties":{"Station_ID":"COUW3","Station_Nam":"COUDERAY,WI","Latitude":"45.86670","Longitude":"-91.45000","Snowdepth":"9.000","Units":"in","Rept_Date":"2020-12-30 22"},"coordinates":[1392,6391]},{"type":"Point","properties":{"Station_ID":"BROW3","Station_Nam":"BRODHEAD,WI","Latitude":"42.61720","Longitude":"-89.38970","Snowdepth":"9.000","Units":"in","Rept_Date":"2020-12-30 13"},"coordinates":[1887,4390]},{"type":"Point","properties":{"Station_ID":"AWXW3","Station_Nam":"ASHLAND","Latitude":"46.58240","Longitude":"-90.88390","Snowdepth":"9.000","Units":"in","Rept_Date":"2020-12-30 13"},"coordinates":[1528,6832]},{"type":"Point","properties":{"Station_ID":"ANJM4","Station_Nam":"SNOW PAID OBSERVER FOR KANJ","Latitude":"46.48670","Longitude":"-84.40260","Snowdepth":"9.000","Units":"in","Rept_Date":"2020-12-31 00"},"coordinates":[3086,6773]},{"type":"Point","properties":{"Station_ID":"ANJ","Station_Nam":"SAULT STE MARIE","Latitude":"46.46670","Longitude":"-84.36670","Snowdepth":"9.000","Units":"in","Rept_Date":"2020-12-31 00"},"coordinates":[3095,6760]},{"type":"Point","properties":{"Station_ID":"IA-CN-17","Station_Nam":"CHARLOTTE 1.9 WNW, IA","Latitude":"41.97619","Longitude":"-90.49841","Snowdepth":"8.800","Units":"in","Rept_Date":"2020-12-30 13"},"coordinates":[1621,3996]},{"type":"Point","properties":{"Station_ID":"FTHQ6","Station_Nam":"FORT HOPE","Latitude":"51.55820","Longitude":"-87.90510","Snowdepth":"8.740","Units":"in","Rept_Date":"2020-12-31 06"},"coordinates":[2244,9895]},{"type":"Point","properties":{"Station_ID":"QWE","Station_Nam":"QWE","Latitude":"47.84610","Longitude":"-73.80670","Snowdepth":"8.583","Units":"in","Rept_Date":"2020-12-30 12"},"coordinates":[5634,7610]},{"type":"Point","properties":{"Station_ID":"WI-WK-65","Station_Nam":"EAGLE 3.4 SW, WI","Latitude":"42.85067","Longitude":"-88.52596","Snowdepth":"8.500","Units":"in","Rept_Date":"2020-12-30 14"},"coordinates":[2095,4534]},{"type":"Point","properties":{"Station_ID":"WI-WK-57","Station_Nam":"DOUSMAN 3.2 SSE, WI","Latitude":"42.97350","Longitude":"-88.44220","Snowdepth":"8.500","Units":"in","Rept_Date":"2020-12-30 13"},"coordinates":[2115,4610]},{"type":"Point","properties":{"Station_ID":"WI-RK-16","Station_Nam":"JANESVILLE 2.7 ENE, WI","Latitude":"42.69228","Longitude":"-88.96319","Snowdepth":"8.500","Units":"in","Rept_Date":"2020-12-30 14"},"coordinates":[1990,4437]},{"type":"Point","properties":{"Station_ID":"NY-ER-166","Station_Nam":"BOSTON 2.5 NE, NY","Latitude":"42.65480","Longitude":"-78.70300","Snowdepth":"8.500","Units":"in","Rept_Date":"2020-12-30 12"},"coordinates":[4457,4414]},{"type":"Point","properties":{"Station_ID":"MN-OT-36","Station_Nam":"BATTLE LAKE 3.3 SSE, MN","Latitude":"46.23918","Longitude":"-95.69718","Snowdepth":"8.500","Units":"in","Rept_Date":"2020-12-30 13"},"coordinates":[371,6620]},{"type":"Point","properties":{"Station_ID":"MN-HN-17","Station_Nam":"EDEN PRAIRIE 3.3 WSW, MN","Latitude":"44.82940","Longitude":"-93.52010","Snowdepth":"8.500","Units":"in","Rept_Date":"2020-12-30 14"},"coordinates":[894,5752]},{"type":"Point","properties":{"Station_ID":"MN-BM-14","Station_Nam":"SOLWAY 2.1 S, MN","Latitude":"47.49069","Longitude":"-95.12177","Snowdepth":"8.500","Units":"in","Rept_Date":"2020-12-30 15"},"coordinates":[509,7391]},{"type":"Point","properties":{"Station_ID":"IA-WR-22","Station_Nam":"PROLE 1.5 ENE, IA","Latitude":"41.41870","Longitude":"-93.70000","Snowdepth":"8.500","Units":"in","Rept_Date":"2020-12-30 13"},"coordinates":[851,3653]},{"type":"Point","properties":{"Station_ID":"IA-PK-73","Station_Nam":"DES MOINES 4.1 N, IA","Latitude":"41.63605","Longitude":"-93.60630","Snowdepth":"8.500","Units":"in","Rept_Date":"2020-12-30 13"},"coordinates":[873,3786]},{"type":"Point","properties":{"Station_ID":"HPN02_MADIS","Station_Nam":"MAPLE GROVE","Latitude":"45.11820","Longitude":"-93.42830","Snowdepth":"8.400","Units":"in","Rept_Date":"2020-12-31 06"},"coordinates":[916,5930]},{"type":"Point","properties":{"Station_ID":"MN-HN-239","Station_Nam":"MINNEAPOLIS 4.7 SSW, MN","Latitude":"44.90319","Longitude":"-93.31282","Snowdepth":"8.300","Units":"in","Rept_Date":"2020-12-30 13"},"coordinates":[944,5798]},{"type":"Point","properties":{"Station_ID":"WI-DA-87","Station_Nam":"DUNKIRK 0.1 NW, WI","Latitude":"42.88356","Longitude":"-89.21056","Snowdepth":"8.100","Units":"in","Rept_Date":"2020-12-30 12"},"coordinates":[1930,4554]},{"type":"Point","properties":{"Station_ID":"WNDP1","Station_Nam":"WINDBER COUNTY CLUB","Latitude":"40.28780","Longitude":"-78.77530","Snowdepth":"8.000","Units":"in","Rept_Date":"2020-12-30 12"},"coordinates":[4439,2956]},{"type":"Point","properties":{"Station_ID":"WI-PK-7","Station_Nam":"AMERY 6.5 NNW, WI","Latitude":"45.39373","Longitude":"-92.40780","Snowdepth":"8.000","Units":"in","Rept_Date":"2020-12-30 13"},"coordinates":[1162,6100]},{"type":"Point","properties":{"Station_ID":"WI-PK-4","Station_Nam":"DRESSER 6.1 ESE, WI","Latitude":"45.32436","Longitude":"-92.52080","Snowdepth":"8.000","Units":"in","Rept_Date":"2020-12-30 14"},"coordinates":[1134,6057]},{"type":"Point","properties":{"Station_ID":"WI-PC-5","Station_Nam":"RIVER FALLS 1.2 SSW, WI","Latitude":"44.84032","Longitude":"-92.63500","Snowdepth":"8.000","Units":"in","Rept_Date":"2020-12-30 13"},"coordinates":[1107,5759]},{"type":"Point","properties":{"Station_ID":"WI-PC-25","Station_Nam":"ELLSWORTH 2.6 SW, WI","Latitude":"44.71119","Longitude":"-92.51849","Snowdepth":"8.000","Units":"in","Rept_Date":"2020-12-30 13"},"coordinates":[1135,5680]},{"type":"Point","properties":{"Station_ID":"WI-PC-10","Station_Nam":"RIVER FALLS 1.4 S, WI","Latitude":"44.83580","Longitude":"-92.62100","Snowdepth":"8.000","Units":"in","Rept_Date":"2020-12-30 13"},"coordinates":[1110,5756]},{"type":"Point","properties":{"Station_ID":"WI-JF-15","Station_Nam":"PALMYRA 1.9 SW, WI","Latitude":"42.85656","Longitude":"-88.60881","Snowdepth":"8.000","Units":"in","Rept_Date":"2020-12-30 13"},"coordinates":[2075,4538]},{"type":"Point","properties":{"Station_ID":"WI-DA-45","Station_Nam":"MADISON 6.1 W, WI","Latitude":"43.06948","Longitude":"-89.50788","Snowdepth":"8.000","Units":"in","Rept_Date":"2020-12-30 13"},"coordinates":[1859,4669]},{"type":"Point","properties":{"Station_ID":"WHTM5","Station_Nam":"WHEATON,MN","Latitude":"45.80000","Longitude":"-96.48330","Snowdepth":"8.000","Units":"in","Rept_Date":"2020-12-30 14"},"coordinates":[182,6350]},{"type":"Point","properties":{"Station_ID":"SSMM4","Station_Nam":"SAULT STE MARIE","Latitude":"46.48660","Longitude":"-84.40250","Snowdepth":"8.000","Units":"in","Rept_Date":"2020-12-30 13"},"coordinates":[3086,6773]},{"type":"Point","properties":{"Station_ID":"SEBM5","Station_Nam":"SEBEKA","Latitude":"46.62540","Longitude":"-95.09670","Snowdepth":"8.000","Units":"in","Rept_Date":"2020-12-30 13"},"coordinates":[515,6858]},{"type":"Point","properties":{"Station_ID":"SCRW3","Station_Nam":"ST CROIX FALLS","Latitude":"45.41170","Longitude":"-92.64660","Snowdepth":"8.000","Units":"in","Rept_Date":"2020-12-30 13"},"coordinates":[1104,6111]},{"type":"Point","properties":{"Station_ID":"ROKI4","Station_Nam":"RED OAK,IA","Latitude":"41.00000","Longitude":"-95.23330","Snowdepth":"8.000","Units":"in","Rept_Date":"2020-12-30 13"},"coordinates":[482,3395]},{"type":"Point","properties":{"Station_ID":"RLKW3","Station_Nam":"REST LAKE","Latitude":"46.12220","Longitude":"-89.87720","Snowdepth":"8.000","Units":"in","Rept_Date":"2020-12-30 14"},"coordinates":[1770,6548]},{"type":"Point","properties":{"Station_ID":"RANI4","Station_Nam":"RANDOLPH,IA","Latitude":"40.86670","Longitude":"-95.56670","Snowdepth":"8.000","Units":"in","Rept_Date":"2020-12-30 14"},"coordinates":[402,3313]},{"type":"Point","properties":{"Station_ID":"PTYM4","Station_Nam":"PETOSKEY NCMC","Latitude":"45.36120","Longitude":"-84.95110","Snowdepth":"8.000","Units":"in","Rept_Date":"2020-12-30 13"},"coordinates":[2954,6080]},{"type":"Point","properties":{"Station_ID":"OTTM5","Station_Nam":"OTTERTAIL,MN","Latitude":"46.41670","Longitude":"-95.56670","Snowdepth":"8.000","Units":"in","Rept_Date":"2020-12-30 10"},"coordinates":[402,6730]},{"type":"Point","properties":{"Station_ID":"NY-OS-20","Station_Nam":"FULTON 0.2 W, NY","Latitude":"43.31650","Longitude":"-76.41850","Snowdepth":"8.000","Units":"in","Rept_Date":"2020-12-30 12"},"coordinates":[5006,4821]},{"type":"Point","properties":{"Station_ID":"NY-ER-65","Station_Nam":"BOSTON 1.5 NE, NY","Latitude":"42.65470","Longitude":"-78.72010","Snowdepth":"8.000","Units":"in","Rept_Date":"2020-12-30 12"},"coordinates":[4453,4414]},{"type":"Point","properties":{"Station_ID":"NY-CT-33","Station_Nam":"GREAT VALLEY 2.2 WNW, NY","Latitude":"42.22790","Longitude":"-78.67580","Snowdepth":"8.000","Units":"in","Rept_Date":"2020-12-30 12"},"coordinates":[4463,4151]},{"type":"Point","properties":{"Station_ID":"NISM5","Station_Nam":"NISSWA 3NE","Latitude":"46.50000","Longitude":"-94.26670","Snowdepth":"8.000","Units":"in","Rept_Date":"2020-12-30 14"},"coordinates":[715,6781]},{"type":"Point","properties":{"Station_ID":"NGLW3","Station_Nam":"NEW GLARUS","Latitude":"42.83500","Longitude":"-89.62080","Snowdepth":"8.000","Units":"in","Rept_Date":"2020-12-30 13"},"coordinates":[1832,4525]},{"type":"Point","properties":{"Station_ID":"ND-CS-25","Station_Nam":"FARGO 2.1 N, ND","Latitude":"46.90816","Longitude":"-96.77937","Snowdepth":"8.000","Units":"in","Rept_Date":"2020-12-30 14"},"coordinates":[110,7032]},{"type":"Point","properties":{"Station_ID":"MTCI2","Station_Nam":"MOUNT CARROLL","Latitude":"42.09800","Longitude":"-89.98410","Snowdepth":"8.000","Units":"in","Rept_Date":"2020-12-30 13"},"coordinates":[1744,4071]},{"type":"Point","properties":{"Station_ID":"MSN","Station_Nam":"MADISON DANE COUNTY RGNL","Latitude":"43.13970","Longitude":"-89.33750","Snowdepth":"8.000","Units":"in","Rept_Date":"2020-12-31 00"},"coordinates":[1900,4712]},{"type":"Point","properties":{"Station_ID":"MN-WK-5","Station_Nam":"WOLVERTON 1.1 ENE, MN","Latitude":"46.56920","Longitude":"-96.71540","Snowdepth":"8.000","Units":"in","Rept_Date":"2020-12-30 13"},"coordinates":[126,6824]},{"type":"Point","properties":{"Station_ID":"MN-SH-10","Station_Nam":"BIG LAKE 5.6 NNE, MN","Latitude":"45.41409","Longitude":"-93.69190","Snowdepth":"8.000","Units":"in","Rept_Date":"2020-12-30 13"},"coordinates":[853,6112]},{"type":"Point","properties":{"Station_ID":"MN-MR-13","Station_Nam":"LITTLE FALLS 8.0 NE, MN","Latitude":"46.06785","Longitude":"-94.24789","Snowdepth":"8.000","Units":"in","Rept_Date":"2020-12-30 13"},"coordinates":[719,6515]},{"type":"Point","properties":{"Station_ID":"MN-IT-23","Station_Nam":"BOVEY 13.4 N, MN","Latitude":"47.48855","Longitude":"-93.43497","Snowdepth":"8.000","Units":"in","Rept_Date":"2020-12-30 13"},"coordinates":[915,7390]},{"type":"Point","properties":{"Station_ID":"MN-IT-19","Station_Nam":"COHASSET 7.6 NNW, MN","Latitude":"47.34204","Longitude":"-93.69765","Snowdepth":"8.000","Units":"in","Rept_Date":"2020-12-30 13"},"coordinates":[851,7299]},{"type":"Point","properties":{"Station_ID":"MN-HN-6","Station_Nam":"LONG LAKE 0.2 WSW, MN","Latitude":"44.98290","Longitude":"-93.57360","Snowdepth":"8.000","Units":"in","Rept_Date":"2020-12-30 13"},"coordinates":[881,5847]},{"type":"Point","properties":{"Station_ID":"MN-HN-240","Station_Nam":"BLOOMINGTON 3.1 E, MN","Latitude":"44.83704","Longitude":"-93.25318","Snowdepth":"8.000","Units":"in","Rept_Date":"2020-12-30 14"},"coordinates":[958,5757]},{"type":"Point","properties":{"Station_ID":"MN-GH-28","Station_Nam":"CANNON FALLS 0.5 SE, MN","Latitude":"44.50866","Longitude":"-92.89526","Snowdepth":"8.000","Units":"in","Rept_Date":"2020-12-30 14"},"coordinates":[1044,5555]},{"type":"Point","properties":{"Station_ID":"MN-CW-16","Station_Nam":"TROMMALD 6.1 NW, MN","Latitude":"46.55849","Longitude":"-94.11723","Snowdepth":"8.000","Units":"in","Rept_Date":"2020-12-30 14"},"coordinates":[751,6817]},{"type":"Point","properties":{"Station_ID":"MN-BK-16","Station_Nam":"PARK RAPIDS 15.3 NW, MN","Latitude":"47.08653","Longitude":"-95.26951","Snowdepth":"8.000","Units":"in","Rept_Date":"2020-12-30 14"},"coordinates":[473,7142]},{"type":"Point","properties":{"Station_ID":"MLCM5","Station_Nam":"MILACA","Latitude":"45.75320","Longitude":"-93.66170","Snowdepth":"8.000","Units":"in","Rept_Date":"2020-12-30 13"},"coordinates":[860,6321]},{"type":"Point","properties":{"Station_ID":"MKX","Station_Nam":"MILWAUKEE, WI","Latitude":"42.96810","Longitude":"-88.54920","Snowdepth":"8.000","Units":"in","Rept_Date":"2020-12-31 06"},"coordinates":[2089,4606]},{"type":"Point","properties":{"Station_ID":"MI-BZ-6","Station_Nam":"LAKE ANN 2.0 N, MI","Latitude":"44.75487","Longitude":"-85.84505","Snowdepth":"8.000","Units":"in","Rept_Date":"2020-12-30 14"},"coordinates":[2740,5707]},{"type":"Point","properties":{"Station_ID":"LVDW3","Station_Nam":"LAC VIEUX DESERT","Latitude":"46.12110","Longitude":"-89.07580","Snowdepth":"8.000","Units":"in","Rept_Date":"2020-12-30 14"},"coordinates":[1963,6548]},{"type":"Point","properties":{"Station_ID":"LNGM5","Station_Nam":"LONG PRAIRIE","Latitude":"45.96460","Longitude":"-94.88920","Snowdepth":"8.000","Units":"in","Rept_Date":"2020-12-30 12"},"coordinates":[565,6451]},{"type":"Point","properties":{"Station_ID":"KSEM4","Station_Nam":"KALKASKA 11SE","Latitude":"44.58970","Longitude":"-85.04860","Snowdepth":"8.000","Units":"in","Rept_Date":"2020-12-30 13"},"coordinates":[2931,5605]},{"type":"Point","properties":{"Station_ID":"KNXI4","Station_Nam":"KNOXVILLE,IA","Latitude":"41.31670","Longitude":"-93.13330","Snowdepth":"8.000","Units":"in","Rept_Date":"2020-12-30 14"},"coordinates":[987,3590]},{"type":"Point","properties":{"Station_ID":"KISM4","Station_Nam":"K.I. SAWYER WWTP","Latitude":"46.33410","Longitude":"-87.37790","Snowdepth":"8.000","Units":"in","Rept_Date":"2020-12-30 13"},"coordinates":[2371,6679]},{"type":"Point","properties":{"Station_ID":"KDSM","Station_Nam":"DES MOINES INTERNATIONAL","Latitude":"41.53333","Longitude":"-93.66666","Snowdepth":"8.000","Units":"in","Rept_Date":"2020-12-31 06"},"coordinates":[859,3723]},{"type":"Point","properties":{"Station_ID":"ISEM5","Station_Nam":"ISLE 12N","Latitude":"46.31970","Longitude":"-93.50140","Snowdepth":"8.000","Units":"in","Rept_Date":"2020-12-30 13"},"coordinates":[899,6670]},{"type":"Point","properties":{"Station_ID":"ILNI2","Station_Nam":"MISSISSIPPI R, IL CITY LK & D 16","Latitude":"41.41670","Longitude":"-91.01670","Snowdepth":"8.000","Units":"in","Rept_Date":"2020-12-30 11"},"coordinates":[1496,3651]},{"type":"Point","properties":{"Station_ID":"IL-SP-26","Station_Nam":"FREEPORT 2.9 WSW, IL","Latitude":"42.26779","Longitude":"-89.68323","Snowdepth":"8.000","Units":"in","Rept_Date":"2020-12-30 14"},"coordinates":[1817,4175]},{"type":"Point","properties":{"Station_ID":"IA-ST-3","Station_Nam":"PARK VIEW 0.2 WSW, IA","Latitude":"41.68855","Longitude":"-90.54380","Snowdepth":"8.000","Units":"in","Rept_Date":"2020-12-30 13"},"coordinates":[1610,3819]},{"type":"Point","properties":{"Station_ID":"IA-ST-1","Station_Nam":"LE CLAIRE 1.8 NNE, IA","Latitude":"41.62355","Longitude":"-90.35140","Snowdepth":"8.000","Units":"in","Rept_Date":"2020-12-30 14"},"coordinates":[1656,3779]},{"type":"Point","properties":{"Station_ID":"IA-PW-4","Station_Nam":"GRINNELL 0.6 NW, IA","Latitude":"41.74647","Longitude":"-92.73100","Snowdepth":"8.000","Units":"in","Rept_Date":"2020-12-30 13"},"coordinates":[1084,3854]},{"type":"Point","properties":{"Station_ID":"IA-PK-3","Station_Nam":"DES MOINES 4.5 WNW, IA","Latitude":"41.60663","Longitude":"-93.69560","Snowdepth":"8.000","Units":"in","Rept_Date":"2020-12-30 13"},"coordinates":[852,3768]},{"type":"Point","properties":{"Station_ID":"IA-LN-23","Station_Nam":"ROBINS 0.4 SSE, IA","Latitude":"42.07339","Longitude":"-91.66630","Snowdepth":"8.000","Units":"in","Rept_Date":"2020-12-30 13"},"coordinates":[1340,4056]},{"type":"Point","properties":{"Station_ID":"HTLN3","Station_Nam":"HERMIT LAKE SNOWPLOT","Latitude":"44.26130","Longitude":"-71.28330","Snowdepth":"8.000","Units":"in","Rept_Date":"2020-12-30 09"},"coordinates":[6241,5403]},{"type":"Point","properties":{"Station_ID":"HRVM4","Station_Nam":"HARVEY","Latitude":"46.49080","Longitude":"-87.35470","Snowdepth":"8.000","Units":"in","Rept_Date":"2020-12-30 11"},"coordinates":[2377,6775]},{"type":"Point","properties":{"Station_ID":"HPN11_MADIS","Station_Nam":"SAINT BONIFACIUS","Latitude":"44.89792","Longitude":"-93.73460","Snowdepth":"8.000","Units":"in","Rept_Date":"2020-12-31 06"},"coordinates":[843,5795]},{"type":"Point","properties":{"Station_ID":"HPN08_MADIS","Station_Nam":"ORONO","Latitude":"44.93630","Longitude":"-93.62000","Snowdepth":"8.000","Units":"in","Rept_Date":"2020-12-31 06"},"coordinates":[870,5818]},{"type":"Point","properties":{"Station_ID":"HGHN6","Station_Nam":"HIGHMARKET","Latitude":"43.60510","Longitude":"-75.55430","Snowdepth":"8.000","Units":"in","Rept_Date":"2020-12-30 11"},"coordinates":[5214,4999]},{"type":"Point","properties":{"Station_ID":"GLAM4","Station_Nam":"GLADWIN","Latitude":"43.97580","Longitude":"-84.49080","Snowdepth":"8.000","Units":"in","Rept_Date":"2020-12-30 12"},"coordinates":[3065,5227]},{"type":"Point","properties":{"Station_ID":"GATW3","Station_Nam":"GRAFTON WWTP","Latitude":"43.30810","Longitude":"-87.95530","Snowdepth":"8.000","Units":"in","Rept_Date":"2020-12-30 14"},"coordinates":[2232,4816]},{"type":"Point","properties":{"Station_ID":"FEEI2","Station_Nam":"PECATONICA RIVER","Latitude":"42.30000","Longitude":"-89.61670","Snowdepth":"8.000","Units":"in","Rept_Date":"2020-12-30 13"},"coordinates":[1833,4195]},{"type":"Point","properties":{"Station_ID":"FCLN1","Station_Nam":"FT CALHOUN 4W","Latitude":"41.44670","Longitude":"-96.09190","Snowdepth":"8.000","Units":"in","Rept_Date":"2020-12-30 13"},"coordinates":[276,3670]},{"type":"Point","properties":{"Station_ID":"EMBM5","Station_Nam":"EMBARASS,MN","Latitude":"47.65810","Longitude":"-92.19580","Snowdepth":"8.000","Units":"in","Rept_Date":"2020-12-30 12"},"coordinates":[1213,7494]},{"type":"Point","properties":{"Station_ID":"DSXI4","Station_Nam":"DES MOINES SNOW","Latitude":"41.54130","Longitude":"-93.65570","Snowdepth":"8.000","Units":"in","Rept_Date":"2020-12-31 00"},"coordinates":[861,3728]},{"type":"Point","properties":{"Station_ID":"DSM","Station_Nam":"DES MOINES INTERNATIONAL","Latitude":"41.53340","Longitude":"-93.66300","Snowdepth":"8.000","Units":"in","Rept_Date":"2020-12-31 00"},"coordinates":[860,3723]},{"type":"Point","properties":{"Station_ID":"DBQ","Station_Nam":"DUBUQUE REGIONAL AIRPORT","Latitude":"42.40310","Longitude":"-90.70920","Snowdepth":"8.000","Units":"in","Rept_Date":"2020-12-30 12"},"coordinates":[1570,4259]},{"type":"Point","properties":{"Station_ID":"CRPI4","Station_Nam":"CEDAR RAPIDS NO 1","Latitude":"42.05000","Longitude":"-91.58810","Snowdepth":"8.000","Units":"in","Rept_Date":"2020-12-30 23"},"coordinates":[1359,4041]},{"type":"Point","properties":{"Station_ID":"CHRM4","Station_Nam":"CHARLEVOIX","Latitude":"45.31720","Longitude":"-85.26720","Snowdepth":"8.000","Units":"in","Rept_Date":"2020-12-30 13"},"coordinates":[2878,6053]},{"type":"Point","properties":{"Station_ID":"BWTN6","Station_Nam":"BREWERTON LOCK 23","Latitude":"43.23860","Longitude":"-76.19640","Snowdepth":"8.000","Units":"in","Rept_Date":"2020-12-30 12"},"coordinates":[5060,4773]},{"type":"Point","properties":{"Station_ID":"BLTW3","Station_Nam":"BELOIT,WI","Latitude":"42.50000","Longitude":"-89.03330","Snowdepth":"8.000","Units":"in","Rept_Date":"2020-12-30 11"},"coordinates":[1973,4318]},{"type":"Point","properties":{"Station_ID":"BLGW3","Station_Nam":"BELGIUM WWTP","Latitude":"43.51310","Longitude":"-87.85440","Snowdepth":"8.000","Units":"in","Rept_Date":"2020-12-30 13"},"coordinates":[2256,4942]},{"type":"Point","properties":{"Station_ID":"ARGW3","Station_Nam":"ARGYLE","Latitude":"42.70060","Longitude":"-89.01890","Snowdepth":"8.000","Units":"in","Rept_Date":"2020-12-30 14"},"coordinates":[1976,4442]},{"type":"Point","properties":{"Station_ID":"AMOI4","Station_Nam":"ANAMOSA 3 SSW","Latitude":"42.07630","Longitude":"-91.30190","Snowdepth":"8.000","Units":"in","Rept_Date":"2020-12-30 12"},"coordinates":[1427,4057]},{"type":"Point","properties":{"Station_ID":"QCX","Station_Nam":"QCX","Latitude":"51.32830","Longitude":"-70.08060","Snowdepth":"7.795","Units":"in","Rept_Date":"2020-12-30 12"},"coordinates":[6530,9754]},{"type":"Point","properties":{"Station_ID":"WI-MW-14","Station_Nam":"MILWAUKEE 3.6 NNW, WI","Latitude":"43.11300","Longitude":"-87.98730","Snowdepth":"7.700","Units":"in","Rept_Date":"2020-12-30 13"},"coordinates":[2224,4696]},{"type":"Point","properties":{"Station_ID":"NE-SY-11","Station_Nam":"LA VISTA 2.0 WSW, NE","Latitude":"41.17702","Longitude":"-96.07571","Snowdepth":"7.600","Units":"in","Rept_Date":"2020-12-30 13"},"coordinates":[280,3504]},{"type":"Point","properties":{"Station_ID":"CAN-ON-757","Station_Nam":"SAULT STE. MARIE 2.8 ESE - GLFC, CAN","Latitude":"46.50300","Longitude":"-84.30300","Snowdepth":"7.600","Units":"in","Rept_Date":"2020-12-30 13"},"coordinates":[3110,6783]},{"type":"Point","properties":{"Station_ID":"WI-WW-13","Station_Nam":"MUKWONAGO 3.4 SW, WI","Latitude":"42.83734","Longitude":"-88.38534","Snowdepth":"7.500","Units":"in","Rept_Date":"2020-12-30 12"},"coordinates":[2129,4526]},{"type":"Point","properties":{"Station_ID":"WI-SC-21","Station_Nam":"CLEAR LAKE 4.0 S, WI","Latitude":"45.19250","Longitude":"-92.27860","Snowdepth":"7.500","Units":"in","Rept_Date":"2020-12-30 14"},"coordinates":[1193,5976]},{"type":"Point","properties":{"Station_ID":"WI-IW-3","Station_Nam":"MINERAL POINT 7.3 ENE, WI","Latitude":"42.91400","Longitude":"-90.05700","Snowdepth":"7.500","Units":"in","Rept_Date":"2020-12-30 13"},"coordinates":[1727,4573]},{"type":"Point","properties":{"Station_ID":"WI-DA-63","Station_Nam":"MADISON 7.0 WSW, WI","Latitude":"43.04003","Longitude":"-89.51438","Snowdepth":"7.500","Units":"in","Rept_Date":"2020-12-30 14"},"coordinates":[1857,4651]},{"type":"Point","properties":{"Station_ID":"WI-DA-13","Station_Nam":"MADISON 3.7 WSW, WI","Latitude":"43.06230","Longitude":"-89.45650","Snowdepth":"7.500","Units":"in","Rept_Date":"2020-12-30 13"},"coordinates":[1871,4664]},{"type":"Point","properties":{"Station_ID":"NY-ER-56","Station_Nam":"COLDEN 1.4 NNW, NY","Latitude":"42.64740","Longitude":"-78.71120","Snowdepth":"7.500","Units":"in","Rept_Date":"2020-12-30 12"},"coordinates":[4455,4409]},{"type":"Point","properties":{"Station_ID":"MN-TD-12","Station_Nam":"LONG PRAIRIE 2.1 NNE, MN","Latitude":"46.00588","Longitude":"-94.84649","Snowdepth":"7.500","Units":"in","Rept_Date":"2020-12-30 15"},"coordinates":[575,6477]},{"type":"Point","properties":{"Station_ID":"MN-RM-56","Station_Nam":"ROSEVILLE 1.6 NW, MN","Latitude":"45.03303","Longitude":"-93.17523","Snowdepth":"7.500","Units":"in","Rept_Date":"2020-12-30 13"},"coordinates":[977,5878]},{"type":"Point","properties":{"Station_ID":"MN-IT-17","Station_Nam":"GRAND RAPIDS 6.1 N, MN","Latitude":"47.31165","Longitude":"-93.55036","Snowdepth":"7.500","Units":"in","Rept_Date":"2020-12-30 13"},"coordinates":[887,7281]},{"type":"Point","properties":{"Station_ID":"MN-HN-267","Station_Nam":"MINNEAPOLIS 2.5 SE, MN","Latitude":"44.93331","Longitude":"-93.23680","Snowdepth":"7.500","Units":"in","Rept_Date":"2020-12-30 13"},"coordinates":[962,5816]},{"type":"Point","properties":{"Station_ID":"MN-BM-15","Station_Nam":"BEMIDJI 7.8 ENE, MN","Latitude":"47.52043","Longitude":"-94.72121","Snowdepth":"7.500","Units":"in","Rept_Date":"2020-12-30 13"},"coordinates":[605,7409]},{"type":"Point","properties":{"Station_ID":"MN-BK-10","Station_Nam":"DETROIT LAKES 5.7 N, MN","Latitude":"46.88666","Longitude":"-95.84444","Snowdepth":"7.500","Units":"in","Rept_Date":"2020-12-30 10"},"coordinates":[335,7019]},{"type":"Point","properties":{"Station_ID":"MI-AG-6","Station_Nam":"MUNISING 11.1 SSW, MI","Latitude":"46.27805","Longitude":"-86.75747","Snowdepth":"7.500","Units":"in","Rept_Date":"2020-12-30 12"},"coordinates":[2520,6644]},{"type":"Point","properties":{"Station_ID":"IA-ST-37","Station_Nam":"DAVENPORT 0.9 WNW, IA","Latitude":"41.54450","Longitude":"-90.59100","Snowdepth":"7.500","Units":"in","Rept_Date":"2020-12-30 13"},"coordinates":[1598,3730]},{"type":"Point","properties":{"Station_ID":"IA-JH-22","Station_Nam":"CORALVILLE 1.3 SE, IA","Latitude":"41.68066","Longitude":"-91.58000","Snowdepth":"7.500","Units":"in","Rept_Date":"2020-12-30 13"},"coordinates":[1361,3814]},{"type":"Point","properties":{"Station_ID":"IA-DL-33","Station_Nam":"WAUKEE 1.6 N, IA","Latitude":"41.63119","Longitude":"-93.85778","Snowdepth":"7.500","Units":"in","Rept_Date":"2020-12-30 13"},"coordinates":[813,3783]},{"type":"Point","properties":{"Station_ID":"CASS001","Station_Nam":"PLATTSMOUTH 1.4 SW, NE","Latitude":"40.99460","Longitude":"-95.89760","Snowdepth":"7.500","Units":"in","Rept_Date":"2020-12-30 13"},"coordinates":[322,3391]},{"type":"Point","properties":{"Station_ID":"CAN-ON-717","Station_Nam":"BLIND RIVER 0.2 NNE, CAN","Latitude":"46.18781","Longitude":"-82.95945","Snowdepth":"7.500","Units":"in","Rept_Date":"2020-12-30 12"},"coordinates":[3433,6589]},{"type":"Point","properties":{"Station_ID":"NE-SY-18","Station_Nam":"PAPILLION 0.8 WSW, NE","Latitude":"41.15318","Longitude":"-96.05580","Snowdepth":"7.400","Units":"in","Rept_Date":"2020-12-30 13"},"coordinates":[284,3489]},{"type":"Point","properties":{"Station_ID":"MN-RM-121","Station_Nam":"ROSEVILLE 0.4 ENE, MN","Latitude":"45.01701","Longitude":"-93.14711","Snowdepth":"7.400","Units":"in","Rept_Date":"2020-12-30 14"},"coordinates":[984,5868]},{"type":"Point","properties":{"Station_ID":"WI-WK-62","Station_Nam":"MUSKEGO 0.9 N, WI","Latitude":"42.90434","Longitude":"-88.12260","Snowdepth":"7.300","Units":"in","Rept_Date":"2020-12-30 15"},"coordinates":[2192,4567]},{"type":"Point","properties":{"Station_ID":"CAN-ON-491","Station_Nam":"MILVERTON 1.1 ESE- CANWARN, CAN","Latitude":"43.56074","Longitude":"-80.90887","Snowdepth":"7.300","Units":"in","Rept_Date":"2020-12-30 11"},"coordinates":[3926,4971]},{"type":"Point","properties":{"Station_ID":"MN-HN-19","Station_Nam":"EDINA 1.3 SW, MN","Latitude":"44.87830","Longitude":"-93.37890","Snowdepth":"7.200","Units":"in","Rept_Date":"2020-12-30 13"},"coordinates":[928,5783]},{"type":"Point","properties":{"Station_ID":"CAN-ON-771","Station_Nam":"KENORA 8.7 NNE - CANWARN, CAN","Latitude":"49.84171","Longitude":"-94.44386","Snowdepth":"7.200","Units":"in","Rept_Date":"2020-12-30 14"},"coordinates":[672,8838]},{"type":"Point","properties":{"Station_ID":"HLSN3","Station_Nam":"HERMIT LAKE SNOTEL","Latitude":"44.26130","Longitude":"-71.28320","Snowdepth":"7.130","Units":"in","Rept_Date":"2020-12-31 06"},"coordinates":[6241,5403]},{"type":"Point","properties":{"Station_ID":"WI-WK-74","Station_Nam":"BROOKFIELD 2.8 SSW, WI","Latitude":"43.02390","Longitude":"-88.13760","Snowdepth":"7.100","Units":"in","Rept_Date":"2020-12-30 14"},"coordinates":[2188,4641]},{"type":"Point","properties":{"Station_ID":"NE-LA-22","Station_Nam":"RAYMOND 7.3 WNW, NE","Latitude":"40.99820","Longitude":"-96.90930","Snowdepth":"7.100","Units":"in","Rept_Date":"2020-12-30 13"},"coordinates":[79,3394]},{"type":"Point","properties":{"Station_ID":"WTRM4","Station_Nam":"WATERSMEET 12WSW","Latitude":"46.22310","Longitude":"-89.40850","Snowdepth":"7.000","Units":"in","Rept_Date":"2020-12-30 12"},"coordinates":[1883,6610]},{"type":"Point","properties":{"Station_ID":"WSFW3","Station_Nam":"TOWN OF WESTFORD","Latitude":"43.47190","Longitude":"-88.88250","Snowdepth":"7.000","Units":"in","Rept_Date":"2020-12-30 13"},"coordinates":[2009,4917]},{"type":"Point","properties":{"Station_ID":"WRUM5","Station_Nam":"WARROAD 4W","Latitude":"48.89600","Longitude":"-95.40700","Snowdepth":"7.000","Units":"in","Rept_Date":"2020-12-31 04"},"coordinates":[440,8256]},{"type":"Point","properties":{"Station_ID":"WRTS2","Station_Nam":"WATERTOWN,SD","Latitude":"44.90280","Longitude":"-97.11360","Snowdepth":"7.000","Units":"in","Rept_Date":"2020-12-30 15"},"coordinates":[30,5798]},{"type":"Point","properties":{"Station_ID":"WI-WK-34","Station_Nam":"MUKWONAGO 5.3 W, WI","Latitude":"42.85380","Longitude":"-88.43550","Snowdepth":"7.000","Units":"in","Rept_Date":"2020-12-30 13"},"coordinates":[2117,4536]},{"type":"Point","properties":{"Station_ID":"WI-PR-8","Station_Nam":"PHILLIPS 0.4 SSW, WI","Latitude":"45.69086","Longitude":"-90.40200","Snowdepth":"7.000","Units":"in","Rept_Date":"2020-12-30 13"},"coordinates":[1644,6283]},{"type":"Point","properties":{"Station_ID":"WI-PK-33","Station_Nam":"FREDERIC 4.8 NE, WI","Latitude":"45.70970","Longitude":"-92.39950","Snowdepth":"7.000","Units":"in","Rept_Date":"2020-12-30 13"},"coordinates":[1164,6294]},{"type":"Point","properties":{"Station_ID":"WI-MW-18","Station_Nam":"WEST ALLIS 0.7 SSE, WI","Latitude":"42.99802","Longitude":"-88.02380","Snowdepth":"7.000","Units":"in","Rept_Date":"2020-12-30 14"},"coordinates":[2216,4625]},{"type":"Point","properties":{"Station_ID":"WI-DD-16","Station_Nam":"BEAVER DAM 2.4 WNW, WI","Latitude":"43.47210","Longitude":"-88.88280","Snowdepth":"7.000","Units":"in","Rept_Date":"2020-12-30 13"},"coordinates":[2009,4917]},{"type":"Point","properties":{"Station_ID":"WI-DA-99","Station_Nam":"FITCHBURG 1.1 NW, WI","Latitude":"42.99740","Longitude":"-89.44046","Snowdepth":"7.000","Units":"in","Rept_Date":"2020-12-30 13"},"coordinates":[1875,4624]},{"type":"Point","properties":{"Station_ID":"WI-DA-39","Station_Nam":"MADISON 4.0 W, WI","Latitude":"43.07741","Longitude":"-89.46757","Snowdepth":"7.000","Units":"in","Rept_Date":"2020-12-30 13"},"coordinates":[1869,4674]},{"type":"Point","properties":{"Station_ID":"WI-BR-17","Station_Nam":"CLAYTON 2.9 ENE, WI","Latitude":"45.34073","Longitude":"-92.11158","Snowdepth":"7.000","Units":"in","Rept_Date":"2020-12-30 13"},"coordinates":[1233,6067]},{"type":"Point","properties":{"Station_ID":"WHTW3","Station_Nam":"WHITEWATER,WI","Latitude":"42.85670","Longitude":"-88.72940","Snowdepth":"7.000","Units":"in","Rept_Date":"2020-12-30 14"},"coordinates":[2046,4538]},{"type":"Point","properties":{"Station_ID":"WGCI4","Station_Nam":"WAVELAND","Latitude":"41.58330","Longitude":"-93.66670","Snowdepth":"7.000","Units":"in","Rept_Date":"2020-12-30 13"},"coordinates":[859,3754]},{"type":"Point","properties":{"Station_ID":"WBRM4","Station_Nam":"WEST BRANCH 3SE","Latitude":"44.25410","Longitude":"-84.20110","Snowdepth":"7.000","Units":"in","Rept_Date":"2020-12-30 13"},"coordinates":[3135,5398]},{"type":"Point","properties":{"Station_ID":"VOLI4","Station_Nam":"VOLGA 1NE","Latitude":"42.81150","Longitude":"-91.52300","Snowdepth":"7.000","Units":"in","Rept_Date":"2020-12-30 12"},"coordinates":[1374,4510]},{"type":"Point","properties":{"Station_ID":"VNTI4","Station_Nam":"VINTON","Latitude":"42.17020","Longitude":"-92.00770","Snowdepth":"7.000","Units":"in","Rept_Date":"2020-12-30 13"},"coordinates":[1258,4115]},{"type":"Point","properties":{"Station_ID":"TREI4","Station_Nam":"TRAER,IA","Latitude":"42.18530","Longitude":"-92.47060","Snowdepth":"7.000","Units":"in","Rept_Date":"2020-12-30 13"},"coordinates":[1146,4125]},{"type":"Point","properties":{"Station_ID":"TLDI4","Station_Nam":"TOLEDO,IA","Latitude":"41.98330","Longitude":"-92.58330","Snowdepth":"7.000","Units":"in","Rept_Date":"2020-12-30 13"},"coordinates":[1119,4000]},{"type":"Point","properties":{"Station_ID":"SWEI4","Station_Nam":"SWEA CITY,IA","Latitude":"43.38530","Longitude":"-94.25000","Snowdepth":"7.000","Units":"in","Rept_Date":"2020-12-30 12"},"coordinates":[719,4863]},{"type":"Point","properties":{"Station_ID":"STOW3","Station_Nam":"STOUGHTON,WI","Latitude":"42.91670","Longitude":"-89.21670","Snowdepth":"7.000","Units":"in","Rept_Date":"2020-12-30 13"},"coordinates":[1929,4575]},{"type":"Point","properties":{"Station_ID":"STMM4","Station_Nam":"STAMBAUGH 2SSE","Latitude":"46.05550","Longitude":"-88.62780","Snowdepth":"7.000","Units":"in","Rept_Date":"2020-12-30 13"},"coordinates":[2070,6507]},{"type":"Point","properties":{"Station_ID":"SPRI4","Station_Nam":"SPIRIT LAKE","Latitude":"43.42310","Longitude":"-95.10000","Snowdepth":"7.000","Units":"in","Rept_Date":"2020-12-30 13"},"coordinates":[514,4887]},{"type":"Point","properties":{"Station_ID":"SNYI4","Station_Nam":"STANLEY","Latitude":"42.63330","Longitude":"-91.86320","Snowdepth":"7.000","Units":"in","Rept_Date":"2020-12-30 13"},"coordinates":[1292,4400]},{"type":"Point","properties":{"Station_ID":"SHIW3","Station_Nam":"SHIOCTON","Latitude":"44.43890","Longitude":"-88.58390","Snowdepth":"7.000","Units":"in","Rept_Date":"2020-12-30 13"},"coordinates":[2081,5512]},{"type":"Point","properties":{"Station_ID":"SD-UN-2","Station_Nam":"ELK POINT 5.6 NNE, SD","Latitude":"42.76126","Longitude":"-96.65320","Snowdepth":"7.000","Units":"in","Rept_Date":"2020-12-30 15"},"coordinates":[141,4479]},{"type":"Point","properties":{"Station_ID":"SCOM4","Station_Nam":"SCOTTVILLE 2 SE","Latitude":"43.93310","Longitude":"-86.24530","Snowdepth":"7.000","Units":"in","Rept_Date":"2020-12-30 12"},"coordinates":[2643,5201]},{"type":"Point","properties":{"Station_ID":"PORW3","Station_Nam":"PORTAGE,WI","Latitude":"43.53190","Longitude":"-89.43780","Snowdepth":"7.000","Units":"in","Rept_Date":"2020-12-30 14"},"coordinates":[1876,4954]},{"type":"Point","properties":{"Station_ID":"PEAI4","Station_Nam":"PELLA,IA","Latitude":"41.46670","Longitude":"-92.91670","Snowdepth":"7.000","Units":"in","Rept_Date":"2020-12-30 13"},"coordinates":[1039,3682]},{"type":"Point","properties":{"Station_ID":"PBAN8","Station_Nam":"SITE 1-3MI.N","Latitude":"48.97420","Longitude":"-97.23860","Snowdepth":"7.000","Units":"in","Rept_Date":"2020-12-30 13"},"coordinates":[0,8304]},{"type":"Point","properties":{"Station_ID":"OLNI4","Station_Nam":"OELWEIN 1E","Latitude":"42.68010","Longitude":"-91.87510","Snowdepth":"7.000","Units":"in","Rept_Date":"2020-12-30 12"},"coordinates":[1290,4429]},{"type":"Point","properties":{"Station_ID":"NY-ER-39","Station_Nam":"HAMBURG 0.4 WSW, NY","Latitude":"42.72253","Longitude":"-78.84330","Snowdepth":"7.000","Units":"in","Rept_Date":"2020-12-30 12"},"coordinates":[4423,4455]},{"type":"Point","properties":{"Station_ID":"NY-CR-5","Station_Nam":"MARATHON 1.0 NW, NY","Latitude":"42.45161","Longitude":"-76.04370","Snowdepth":"7.000","Units":"in","Rept_Date":"2020-12-30 12"},"coordinates":[5096,4288]},{"type":"Point","properties":{"Station_ID":"NWTI4","Station_Nam":"NEWTON,IA","Latitude":"41.70000","Longitude":"-93.05000","Snowdepth":"7.000","Units":"in","Rept_Date":"2020-12-30 13"},"coordinates":[1007,3826]},{"type":"Point","properties":{"Station_ID":"NUMM5","Station_Nam":"NEW ULM 3SE","Latitude":"44.29450","Longitude":"-94.40840","Snowdepth":"7.000","Units":"in","Rept_Date":"2020-12-30 11"},"coordinates":[681,5423]},{"type":"Point","properties":{"Station_ID":"NE-DG-19","Station_Nam":"ELKHORN 0.7 ENE, NE","Latitude":"41.28780","Longitude":"-96.22450","Snowdepth":"7.000","Units":"in","Rept_Date":"2020-12-30 13"},"coordinates":[244,3572]},{"type":"Point","properties":{"Station_ID":"NE-DD-8","Station_Nam":"FREMONT 1.7 NW, NE","Latitude":"41.45588","Longitude":"-96.51884","Snowdepth":"7.000","Units":"in","Rept_Date":"2020-12-30 14"},"coordinates":[173,3675]},{"type":"Point","properties":{"Station_ID":"NE-DD-3","Station_Nam":"FREMONT 0.6 S, NE","Latitude":"41.43141","Longitude":"-96.49210","Snowdepth":"7.000","Units":"in","Rept_Date":"2020-12-30 13"},"coordinates":[179,3660]},{"type":"Point","properties":{"Station_ID":"ND-RC-15","Station_Nam":"KINDRED 1.7 SSE, ND","Latitude":"46.62998","Longitude":"-97.00099","Snowdepth":"7.000","Units":"in","Rept_Date":"2020-12-30 12"},"coordinates":[57,6861]},{"type":"Point","properties":{"Station_ID":"ND-CS-45","Station_Nam":"FARGO 3.6 NNE, ND","Latitude":"46.92599","Longitude":"-96.79321","Snowdepth":"7.000","Units":"in","Rept_Date":"2020-12-30 13"},"coordinates":[107,7043]},{"type":"Point","properties":{"Station_ID":"NCYN1","Station_Nam":"NEBRASKA CITY 2NW","Latitude":"40.69860","Longitude":"-95.88660","Snowdepth":"7.000","Units":"in","Rept_Date":"2020-12-30 13"},"coordinates":[325,3209]},{"type":"Point","properties":{"Station_ID":"MZUI4","Station_Nam":"MONTEZUMA,IA","Latitude":"41.58330","Longitude":"-92.53330","Snowdepth":"7.000","Units":"in","Rept_Date":"2020-12-30 13"},"coordinates":[1131,3754]},{"type":"Point","properties":{"Station_ID":"MWOW3","Station_Nam":"MUKWONAGO","Latitude":"42.85380","Longitude":"-88.43550","Snowdepth":"7.000","Units":"in","Rept_Date":"2020-12-30 13"},"coordinates":[2117,4536]},{"type":"Point","properties":{"Station_ID":"MRAM5","Station_Nam":"MORA","Latitude":"45.87760","Longitude":"-93.31470","Snowdepth":"7.000","Units":"in","Rept_Date":"2020-12-30 13"},"coordinates":[943,6398]},{"type":"Point","properties":{"Station_ID":"MN-WR-49","Station_Nam":"MONTICELLO 1.4 E, MN","Latitude":"45.29717","Longitude":"-93.77050","Snowdepth":"7.000","Units":"in","Rept_Date":"2020-12-30 14"},"coordinates":[834,6040]},{"type":"Point","properties":{"Station_ID":"MN-SH-985","Station_Nam":"PRINCETON 3.3 WSW, MN","Latitude":"45.55211","Longitude":"-93.64481","Snowdepth":"7.000","Units":"in","Rept_Date":"2020-12-30 10"},"coordinates":[864,6197]},{"type":"Point","properties":{"Station_ID":"MN-SH-39","Station_Nam":"ZIMMERMAN 3.7 N, MN","Latitude":"45.49450","Longitude":"-93.60430","Snowdepth":"7.000","Units":"in","Rept_Date":"2020-12-30 14"},"coordinates":[874,6162]},{"type":"Point","properties":{"Station_ID":"MN-SC-2","Station_Nam":"PRIOR LAKE 2.0 W, MN","Latitude":"44.71250","Longitude":"-93.46360","Snowdepth":"7.000","Units":"in","Rept_Date":"2020-12-30 11"},"coordinates":[908,5680]},{"type":"Point","properties":{"Station_ID":"MN-RM-2","Station_Nam":"NORTH SAINT PAUL 1.0 NNW, MN","Latitude":"45.02629","Longitude":"-93.00790","Snowdepth":"7.000","Units":"in","Rept_Date":"2020-12-30 13"},"coordinates":[1017,5874]},{"type":"Point","properties":{"Station_ID":"MN-RM-15","Station_Nam":"ROSEVILLE 2.1 NW, MN","Latitude":"45.03502","Longitude":"-93.18620","Snowdepth":"7.000","Units":"in","Rept_Date":"2020-12-30 12"},"coordinates":[974,5879]},{"type":"Point","properties":{"Station_ID":"MN-RM-120","Station_Nam":"MAPLEWOOD 5.6 SSE, MN","Latitude":"44.90588","Longitude":"-92.99712","Snowdepth":"7.000","Units":"in","Rept_Date":"2020-12-30 15"},"coordinates":[1020,5799]},{"type":"Point","properties":{"Station_ID":"MN-MR-4","Station_Nam":"LITTLE FALLS 1.2 SW, MN","Latitude":"45.96886","Longitude":"-94.37720","Snowdepth":"7.000","Units":"in","Rept_Date":"2020-12-30 13"},"coordinates":[688,6454]},{"type":"Point","properties":{"Station_ID":"MN-KB-17","Station_Nam":"MORA 2.5 S, MN","Latitude":"45.84100","Longitude":"-93.29700","Snowdepth":"7.000","Units":"in","Rept_Date":"2020-12-30 13"},"coordinates":[948,6375]},{"type":"Point","properties":{"Station_ID":"MN-HN-78","Station_Nam":"RICHFIELD 1.9 WNW, MN","Latitude":"44.89129","Longitude":"-93.31410","Snowdepth":"7.000","Units":"in","Rept_Date":"2020-12-30 11"},"coordinates":[944,5791]},{"type":"Point","properties":{"Station_ID":"MN-HB-12","Station_Nam":"LAPORTE 1.8 N, MN","Latitude":"47.24130","Longitude":"-94.75792","Snowdepth":"7.000","Units":"in","Rept_Date":"2020-12-30 13"},"coordinates":[596,7237]},{"type":"Point","properties":{"Station_ID":"MN-DK-73","Station_Nam":"LAKEVILLE 2.6 NNE, MN","Latitude":"44.71250","Longitude":"-93.23043","Snowdepth":"7.000","Units":"in","Rept_Date":"2020-12-30 13"},"coordinates":[964,5680]},{"type":"Point","properties":{"Station_ID":"MN-DK-53","Station_Nam":"LAKEVILLE 3.8 ENE, MN","Latitude":"44.70423","Longitude":"-93.18460","Snowdepth":"7.000","Units":"in","Rept_Date":"2020-12-30 13"},"coordinates":[975,5675]},{"type":"Point","properties":{"Station_ID":"MN-DK-44","Station_Nam":"ROSEMOUNT 4.5 WSW, MN","Latitude":"44.72079","Longitude":"-93.14970","Snowdepth":"7.000","Units":"in","Rept_Date":"2020-12-30 12"},"coordinates":[983,5686]},{"type":"Point","properties":{"Station_ID":"MN-CW-29","Station_Nam":"BRAINERD 7.7 SSE, MN","Latitude":"46.24996","Longitude":"-94.14576","Snowdepth":"7.000","Units":"in","Rept_Date":"2020-12-30 13"},"coordinates":[744,6627]},{"type":"Point","properties":{"Station_ID":"MN-CV-8","Station_Nam":"WATERTOWN 0.5 NNW, MN","Latitude":"44.96631","Longitude":"-93.84890","Snowdepth":"7.000","Units":"in","Rept_Date":"2020-12-30 11"},"coordinates":[815,5837]},{"type":"Point","properties":{"Station_ID":"MI-OT-4","Station_Nam":"GAYLORD 1.7 WNW, MI","Latitude":"45.03280","Longitude":"-84.71090","Snowdepth":"7.000","Units":"in","Rept_Date":"2020-12-30 13"},"coordinates":[3012,5878]},{"type":"Point","properties":{"Station_ID":"MI-OT-16","Station_Nam":"GAYLORD 2.2 SSE, MI","Latitude":"44.99441","Longitude":"-84.65820","Snowdepth":"7.000","Units":"in","Rept_Date":"2020-12-30 11"},"coordinates":[3025,5854]},{"type":"Point","properties":{"Station_ID":"MI-MQ-28","Station_Nam":"CARLSHEND, MI","Latitude":"46.31638","Longitude":"-87.19944","Snowdepth":"7.000","Units":"in","Rept_Date":"2020-12-30 13"},"coordinates":[2414,6668]},{"type":"Point","properties":{"Station_ID":"MI-IC-6","Station_Nam":"NATIONAL CITY 4.5 NNE, MI","Latitude":"44.29330","Longitude":"-83.68410","Snowdepth":"7.000","Units":"in","Rept_Date":"2020-12-30 14"},"coordinates":[3259,5422]},{"type":"Point","properties":{"Station_ID":"MI-CP-14","Station_Nam":"SAULT STE. MARIE 2.2 E, MI","Latitude":"46.48933","Longitude":"-84.31971","Snowdepth":"7.000","Units":"in","Rept_Date":"2020-12-30 14"},"coordinates":[3106,6774]},{"type":"Point","properties":{"Station_ID":"MI-AR-2","Station_Nam":"ALGER 2.4 ENE, MI","Latitude":"44.13373","Longitude":"-84.07430","Snowdepth":"7.000","Units":"in","Rept_Date":"2020-12-30 14"},"coordinates":[3165,5324]},{"type":"Point","properties":{"Station_ID":"LGRN8","Station_Nam":"LIDGERWOOD,ND","Latitude":"46.06670","Longitude":"-97.16670","Snowdepth":"7.000","Units":"in","Rept_Date":"2020-12-30 13"},"coordinates":[17,6514]},{"type":"Point","properties":{"Station_ID":"KMSN","Station_Nam":"MADISON DANE COUNTY RGNL","Latitude":"43.13333","Longitude":"-89.35000","Snowdepth":"7.000","Units":"in","Rept_Date":"2020-12-31 06"},"coordinates":[1897,4708]},{"type":"Point","properties":{"Station_ID":"JORM5","Station_Nam":"JORDAN 1SSW","Latitude":"44.65010","Longitude":"-93.63560","Snowdepth":"7.000","Units":"in","Rept_Date":"2020-12-30 11"},"coordinates":[866,5642]},{"type":"Point","properties":{"Station_ID":"ISPM4","Station_Nam":"WWTP","Latitude":"46.50000","Longitude":"-87.68330","Snowdepth":"7.000","Units":"in","Rept_Date":"2020-12-30 13"},"coordinates":[2298,6781]},{"type":"Point","properties":{"Station_ID":"IL-WN-26","Station_Nam":"ROCKFORD 1.5 ENE, IL","Latitude":"42.27775","Longitude":"-89.03590","Snowdepth":"7.000","Units":"in","Rept_Date":"2020-12-30 15"},"coordinates":[1972,4181]},{"type":"Point","properties":{"Station_ID":"ICYI4","Station_Nam":"IOWA CITY","Latitude":"41.60930","Longitude":"-91.50510","Snowdepth":"7.000","Units":"in","Rept_Date":"2020-12-30 13"},"coordinates":[1379,3770]},{"type":"Point","properties":{"Station_ID":"IA-WR-7","Station_Nam":"INDIANOLA 0.8 SSW, IA","Latitude":"41.35047","Longitude":"-93.57290","Snowdepth":"7.000","Units":"in","Rept_Date":"2020-12-30 13"},"coordinates":[881,3611]},{"type":"Point","properties":{"Station_ID":"IA-WR-5","Station_Nam":"HARTFORD 1.0 E, IA","Latitude":"41.46014","Longitude":"-93.38550","Snowdepth":"7.000","Units":"in","Rept_Date":"2020-12-30 14"},"coordinates":[926,3678]},{"type":"Point","properties":{"Station_ID":"IA-PK-88","Station_Nam":"DES MOINES 5.4 WNW, IA","Latitude":"41.61721","Longitude":"-93.70573","Snowdepth":"7.000","Units":"in","Rept_Date":"2020-12-30 13"},"coordinates":[849,3775]},{"type":"Point","properties":{"Station_ID":"IA-PK-108","Station_Nam":"DES MOINES 5.0 NNW, IA","Latitude":"41.63964","Longitude":"-93.66346","Snowdepth":"7.000","Units":"in","Rept_Date":"2020-12-30 15"},"coordinates":[860,3789]},{"type":"Point","properties":{"Station_ID":"IA-LN-7","Station_Nam":"CENTRAL CITY 6.7 W, IA","Latitude":"42.19830","Longitude":"-91.65430","Snowdepth":"7.000","Units":"in","Rept_Date":"2020-12-30 13"},"coordinates":[1343,4133]},{"type":"Point","properties":{"Station_ID":"IA-LN-53","Station_Nam":"ROBINS 0.8 SE, IA","Latitude":"42.06960","Longitude":"-91.66042","Snowdepth":"7.000","Units":"in","Rept_Date":"2020-12-30 13"},"coordinates":[1341,4053]},{"type":"Point","properties":{"Station_ID":"IA-DL-31","Station_Nam":"DALLAS CENTER 1.5 E, IA","Latitude":"41.68151","Longitude":"-93.95534","Snowdepth":"7.000","Units":"in","Rept_Date":"2020-12-30 14"},"coordinates":[789,3814]},{"type":"Point","properties":{"Station_ID":"IA-BT-16","Station_Nam":"SHELLSBURG 2.9 S, IA","Latitude":"42.05091","Longitude":"-91.87008","Snowdepth":"7.000","Units":"in","Rept_Date":"2020-12-30 13"},"coordinates":[1291,4042]},{"type":"Point","properties":{"Station_ID":"HRFI4","Station_Nam":"HARTFORD,IA","Latitude":"41.46670","Longitude":"-93.41670","Snowdepth":"7.000","Units":"in","Rept_Date":"2020-12-30 14"},"coordinates":[919,3682]},{"type":"Point","properties":{"Station_ID":"GTTI4","Station_Nam":"LOCK & DAM 10","Latitude":"42.78580","Longitude":"-91.09970","Snowdepth":"7.000","Units":"in","Rept_Date":"2020-12-30 14"},"coordinates":[1476,4494]},{"type":"Point","properties":{"Station_ID":"GRB","Station_Nam":"GREEN BAY, WI","Latitude":"44.49860","Longitude":"-88.11170","Snowdepth":"7.000","Units":"in","Rept_Date":"2020-12-31 00"},"coordinates":[2195,5549]},{"type":"Point","properties":{"Station_ID":"GMRM5","Station_Nam":"GRAND MARIAS WATER TREATMENT PLANT","Latitude":"47.75180","Longitude":"-90.32820","Snowdepth":"7.000","Units":"in","Rept_Date":"2020-12-30 14"},"coordinates":[1662,7552]},{"type":"Point","properties":{"Station_ID":"GAYM4","Station_Nam":"GAYLORD","Latitude":"45.03320","Longitude":"-84.71130","Snowdepth":"7.000","Units":"in","Rept_Date":"2020-12-30 13"},"coordinates":[3012,5878]},{"type":"Point","properties":{"Station_ID":"FUTN6","Station_Nam":"FULTON","Latitude":"43.30500","Longitude":"-76.39380","Snowdepth":"7.000","Units":"in","Rept_Date":"2020-12-30 12"},"coordinates":[5012,4814]},{"type":"Point","properties":{"Station_ID":"FREM4","Station_Nam":"FREMONT,MI","Latitude":"43.45000","Longitude":"-86.03330","Snowdepth":"7.000","Units":"in","Rept_Date":"2020-12-30 12"},"coordinates":[2694,4903]},{"type":"Point","properties":{"Station_ID":"FMTN1","Station_Nam":"FREMONT,NE","Latitude":"41.43330","Longitude":"-96.48330","Snowdepth":"7.000","Units":"in","Rept_Date":"2020-12-30 13"},"coordinates":[182,3662]},{"type":"Point","properties":{"Station_ID":"FLAM4","Station_Nam":"FIFE LAKE 2WNW","Latitude":"44.58480","Longitude":"-85.36530","Snowdepth":"7.000","Units":"in","Rept_Date":"2020-12-30 12"},"coordinates":[2855,5602]},{"type":"Point","properties":{"Station_ID":"FEDM5","Station_Nam":"LEECH LAKE DAM","Latitude":"47.24670","Longitude":"-94.22280","Snowdepth":"7.000","Units":"in","Rept_Date":"2020-12-30 14"},"coordinates":[725,7241]},{"type":"Point","properties":{"Station_ID":"FATW3","Station_Nam":"FORT ATKINSON,WI","Latitude":"42.88330","Longitude":"-88.83330","Snowdepth":"7.000","Units":"in","Rept_Date":"2020-12-30 13"},"coordinates":[2021,4554]},{"type":"Point","properties":{"Station_ID":"EZBI2","Station_Nam":"ELIZABETH","Latitude":"42.31620","Longitude":"-90.22690","Snowdepth":"7.000","Units":"in","Rept_Date":"2020-12-30 12"},"coordinates":[1686,4205]},{"type":"Point","properties":{"Station_ID":"EVRW3","Station_Nam":"EAGLE RIVER-4 E","Latitude":"45.91890","Longitude":"-89.15280","Snowdepth":"7.000","Units":"in","Rept_Date":"2020-12-30 13"},"coordinates":[1944,6423]},{"type":"Point","properties":{"Station_ID":"EGRW3","Station_Nam":"EAGLE RIVER-SOUTH","Latitude":"45.91360","Longitude":"-89.24360","Snowdepth":"7.000","Units":"in","Rept_Date":"2020-12-30 13"},"coordinates":[1922,6420]},{"type":"Point","properties":{"Station_ID":"DUBI4","Station_Nam":"DUBUQUE #3","Latitude":"42.40870","Longitude":"-90.73250","Snowdepth":"7.000","Units":"in","Rept_Date":"2020-12-30 18"},"coordinates":[1564,4262]},{"type":"Point","properties":{"Station_ID":"DOUG059","Station_Nam":"OMAHA 13.2 WSW, NE","Latitude":"41.20603","Longitude":"-96.18116","Snowdepth":"7.000","Units":"in","Rept_Date":"2020-12-30 13"},"coordinates":[254,3522]},{"type":"Point","properties":{"Station_ID":"DLNW3","Station_Nam":"WALWORTH COUNTYMETROPOLITAN SEWERAGE DISTRICT (DELEVAN)","Latitude":"42.63440","Longitude":"-88.66280","Snowdepth":"7.000","Units":"in","Rept_Date":"2020-12-30 15"},"coordinates":[2062,4401]},{"type":"Point","properties":{"Station_ID":"DLDI4","Station_Nam":"MISSISSIPPI RIVER","Latitude":"42.51670","Longitude":"-90.65000","Snowdepth":"7.000","Units":"in","Rept_Date":"2020-12-30 12"},"coordinates":[1584,4329]},{"type":"Point","properties":{"Station_ID":"DARW3","Station_Nam":"DARLINGTON","Latitude":"42.67780","Longitude":"-90.11860","Snowdepth":"7.000","Units":"in","Rept_Date":"2020-12-30 13"},"coordinates":[1712,4428]},{"type":"Point","properties":{"Station_ID":"CRTI4","Station_Nam":"CRESTON,IA","Latitude":"41.03690","Longitude":"-94.39440","Snowdepth":"7.000","Units":"in","Rept_Date":"2020-12-30 13"},"coordinates":[684,3417]},{"type":"Point","properties":{"Station_ID":"CRNI4","Station_Nam":"CORNING","Latitude":"40.98860","Longitude":"-94.74910","Snowdepth":"7.000","Units":"in","Rept_Date":"2020-12-30 13"},"coordinates":[599,3388]},{"type":"Point","properties":{"Station_ID":"CODN6","Station_Nam":"COLDEN","Latitude":"42.64720","Longitude":"-78.71110","Snowdepth":"7.000","Units":"in","Rept_Date":"2020-12-30 12"},"coordinates":[4455,4409]},{"type":"Point","properties":{"Station_ID":"CNNS2","Station_Nam":"CANTON","Latitude":"43.31120","Longitude":"-96.58770","Snowdepth":"7.000","Units":"in","Rept_Date":"2020-12-30 13"},"coordinates":[157,4818]},{"type":"Point","properties":{"Station_ID":"CLUI4","Station_Nam":"CLUTIER,IA","Latitude":"42.08330","Longitude":"-92.40000","Snowdepth":"7.000","Units":"in","Rept_Date":"2020-12-30 13"},"coordinates":[1163,4062]},{"type":"Point","properties":{"Station_ID":"CENS2","Station_Nam":"CENTERVILLE,SD","Latitude":"43.04310","Longitude":"-96.90330","Snowdepth":"7.000","Units":"in","Rept_Date":"2020-12-30 14"},"coordinates":[81,4653]},{"type":"Point","properties":{"Station_ID":"AVTW3","Station_Nam":"ARBOR VITAE-JOHNSON LAKE","Latitude":"45.89940","Longitude":"-89.72670","Snowdepth":"7.000","Units":"in","Rept_Date":"2020-12-30 12"},"coordinates":[1806,6411]},{"type":"Point","properties":{"Station_ID":"AUBN6","Station_Nam":"AUBURN","Latitude":"42.93270","Longitude":"-76.54470","Snowdepth":"7.000","Units":"in","Rept_Date":"2020-12-30 12"},"coordinates":[4976,4585]},{"type":"Point","properties":{"Station_ID":"AMAM4","Station_Nam":"AMASA 1W","Latitude":"46.23470","Longitude":"-88.45440","Snowdepth":"7.000","Units":"in","Rept_Date":"2020-12-30 14"},"coordinates":[2112,6618]},{"type":"Point","properties":{"Station_ID":"ADXI4","Station_Nam":"ADEL 2SE","Latitude":"41.59360","Longitude":"-93.97930","Snowdepth":"7.000","Units":"in","Rept_Date":"2020-12-30 13"},"coordinates":[784,3760]},{"type":"Point","properties":{"Station_ID":"MN-HN-307","Station_Nam":"MINNEAPOLIS 1.5 WNW, MN","Latitude":"44.96860","Longitude":"-93.29580","Snowdepth":"6.900","Units":"in","Rept_Date":"2020-12-30 13"},"coordinates":[948,5838]},{"type":"Point","properties":{"Station_ID":"IA-PK-37","Station_Nam":"WINDSOR HEIGHTS 0.8 SE, IA","Latitude":"41.59810","Longitude":"-93.69950","Snowdepth":"6.900","Units":"in","Rept_Date":"2020-12-30 13"},"coordinates":[851,3763]},{"type":"Point","properties":{"Station_ID":"HPN20_MADIS","Station_Nam":"HOPKINS","Latitude":"44.95556","Longitude":"-93.41140","Snowdepth":"6.890","Units":"in","Rept_Date":"2020-12-31 06"},"coordinates":[920,5830]},{"type":"Point","properties":{"Station_ID":"WI-RK-6","Station_Nam":"EVANSVILLE 0.4 E, WI","Latitude":"42.77913","Longitude":"-89.29020","Snowdepth":"6.700","Units":"in","Rept_Date":"2020-12-30 12"},"coordinates":[1911,4490]},{"type":"Point","properties":{"Station_ID":"IL-WN-32","Station_Nam":"ROCKFORD 5.5 S, IL","Latitude":"42.19058","Longitude":"-89.06040","Snowdepth":"6.700","Units":"in","Rept_Date":"2020-12-30 14"},"coordinates":[1966,4128]},{"type":"Point","properties":{"Station_ID":"WI-WW-14","Station_Nam":"DARIEN 1.6 NNE, WI","Latitude":"42.62361","Longitude":"-88.70083","Snowdepth":"6.600","Units":"in","Rept_Date":"2020-12-30 13"},"coordinates":[2053,4394]},{"type":"Point","properties":{"Station_ID":"HPN09_MADIS","Station_Nam":"PLYMOUTH","Latitude":"44.98992","Longitude":"-93.47910","Snowdepth":"6.600","Units":"in","Rept_Date":"2020-12-31 06"},"coordinates":[904,5851]},{"type":"Point","properties":{"Station_ID":"WI-VL-14","Station_Nam":"BOULDER JUNCTION 1.4 NE, WI","Latitude":"46.12840","Longitude":"-89.62470","Snowdepth":"6.500","Units":"in","Rept_Date":"2020-12-30 13"},"coordinates":[1831,6552]},{"type":"Point","properties":{"Station_ID":"WI-OZ-22","Station_Nam":"SAUKVILLE 0.9 SSW, WI","Latitude":"43.37254","Longitude":"-87.95009","Snowdepth":"6.500","Units":"in","Rept_Date":"2020-12-30 13"},"coordinates":[2233,4855]},{"type":"Point","properties":{"Station_ID":"WI-MW-43","Station_Nam":"BROWN DEER 0.8 NW, WI","Latitude":"43.18438","Longitude":"-87.98401","Snowdepth":"6.500","Units":"in","Rept_Date":"2020-12-30 13"},"coordinates":[2225,4740]},{"type":"Point","properties":{"Station_ID":"WI-JF-17","Station_Nam":"JOHNSON CREEK 2.7 SSW, WI","Latitude":"43.04559","Longitude":"-88.79925","Snowdepth":"6.500","Units":"in","Rept_Date":"2020-12-30 12"},"coordinates":[2029,4654]},{"type":"Point","properties":{"Station_ID":"WI-DA-60","Station_Nam":"MIDDLETON 0.8 SSW, WI","Latitude":"43.09292","Longitude":"-89.51258","Snowdepth":"6.500","Units":"in","Rept_Date":"2020-12-30 15"},"coordinates":[1858,4683]},{"type":"Point","properties":{"Station_ID":"SD-MH-35","Station_Nam":"SIOUX FALLS 3.7 WSW, SD","Latitude":"43.53140","Longitude":"-96.80160","Snowdepth":"6.500","Units":"in","Rept_Date":"2020-12-30 15"},"coordinates":[105,4953]},{"type":"Point","properties":{"Station_ID":"SARP006","Station_Nam":"BELLEVUE 3.3 WSW, NE","Latitude":"41.10560","Longitude":"-95.93860","Snowdepth":"6.500","Units":"in","Rept_Date":"2020-12-30 13"},"coordinates":[313,3460]},{"type":"Point","properties":{"Station_ID":"NE-WS-4","Station_Nam":"BLAIR 0.9 NNW, NE","Latitude":"41.55589","Longitude":"-96.14612","Snowdepth":"6.500","Units":"in","Rept_Date":"2020-12-30 14"},"coordinates":[263,3737]},{"type":"Point","properties":{"Station_ID":"NE-TN-1","Station_Nam":"WAKEFIELD 5.1 SSE, NE","Latitude":"42.20201","Longitude":"-96.82266","Snowdepth":"6.500","Units":"in","Rept_Date":"2020-12-30 13"},"coordinates":[100,4135]},{"type":"Point","properties":{"Station_ID":"NE-SY-25","Station_Nam":"GRETNA 2.9 NNE, NE","Latitude":"41.17831","Longitude":"-96.21984","Snowdepth":"6.500","Units":"in","Rept_Date":"2020-12-30 14"},"coordinates":[245,3505]},{"type":"Point","properties":{"Station_ID":"NE-LA-64","Station_Nam":"DAVEY 3.7 S, NE","Latitude":"40.92966","Longitude":"-96.65748","Snowdepth":"6.500","Units":"in","Rept_Date":"2020-12-30 13"},"coordinates":[140,3351]},{"type":"Point","properties":{"Station_ID":"MN-WG-66","Station_Nam":"MAHTOMEDI 1.3 S, MN","Latitude":"45.04298","Longitude":"-92.96567","Snowdepth":"6.500","Units":"in","Rept_Date":"2020-12-30 12"},"coordinates":[1027,5884]},{"type":"Point","properties":{"Station_ID":"MN-SR-48","Station_Nam":"SAINT AUGUSTA 2.1 S, MN","Latitude":"45.41950","Longitude":"-94.19737","Snowdepth":"6.500","Units":"in","Rept_Date":"2020-12-30 13"},"coordinates":[731,6116]},{"type":"Point","properties":{"Station_ID":"MN-MS-8","Station_Nam":"NEWFOLDEN 0.2 W, MN","Latitude":"48.35613","Longitude":"-96.33460","Snowdepth":"6.500","Units":"in","Rept_Date":"2020-12-30 14"},"coordinates":[217,7924]},{"type":"Point","properties":{"Station_ID":"MN-HN-272","Station_Nam":"RICHFIELD 1.1 WSW, MN","Latitude":"44.87052","Longitude":"-93.30394","Snowdepth":"6.500","Units":"in","Rept_Date":"2020-12-30 13"},"coordinates":[946,5778]},{"type":"Point","properties":{"Station_ID":"MI-GT-21","Station_Nam":"KINGSLEY 2.7 ENE, MI","Latitude":"44.59871","Longitude":"-85.48426","Snowdepth":"6.500","Units":"in","Rept_Date":"2020-12-30 13"},"coordinates":[2826,5610]},{"type":"Point","properties":{"Station_ID":"MI-CP-7","Station_Nam":"DRUMMOND 2.9 NE, MI","Latitude":"46.05329","Longitude":"-83.69060","Snowdepth":"6.500","Units":"in","Rept_Date":"2020-12-30 14"},"coordinates":[3258,6506]},{"type":"Point","properties":{"Station_ID":"IL-SP-3","Station_Nam":"ORANGEVILLE 2.8 NW, IL","Latitude":"42.49607","Longitude":"-89.68430","Snowdepth":"6.500","Units":"in","Rept_Date":"2020-12-30 13"},"coordinates":[1816,4316]},{"type":"Point","properties":{"Station_ID":"IL-BN-19","Station_Nam":"BELVIDERE 5.0 NNW, IL","Latitude":"42.32071","Longitude":"-88.88282","Snowdepth":"6.500","Units":"in","Rept_Date":"2020-12-30 13"},"coordinates":[2009,4208]},{"type":"Point","properties":{"Station_ID":"IA-PK-89","Station_Nam":"ANKENY 3.7 NNE, IA","Latitude":"41.77305","Longitude":"-93.57635","Snowdepth":"6.500","Units":"in","Rept_Date":"2020-12-30 13"},"coordinates":[881,3871]},{"type":"Point","properties":{"Station_ID":"IA-MC-13","Station_Nam":"MUSCATINE 2.1 N, IA","Latitude":"41.44808","Longitude":"-91.07428","Snowdepth":"6.500","Units":"in","Rept_Date":"2020-12-30 13"},"coordinates":[1482,3671]},{"type":"Point","properties":{"Station_ID":"WI-WW-2","Station_Nam":"LAKE GENEVA 0.6 ENE, WI","Latitude":"42.59169","Longitude":"-88.41770","Snowdepth":"6.400","Units":"in","Rept_Date":"2020-12-30 13"},"coordinates":[2121,4375]},{"type":"Point","properties":{"Station_ID":"MFU","Station_Nam":"MFU","Latitude":"51.52170","Longitude":"-66.91110","Snowdepth":"6.339","Units":"in","Rept_Date":"2020-12-30 12"},"coordinates":[7292,9873]},{"type":"Point","properties":{"Station_ID":"WI-WS-22","Station_Nam":"JACKSON 3.2 SE, WI","Latitude":"43.29373","Longitude":"-88.11280","Snowdepth":"6.300","Units":"in","Rept_Date":"2020-12-30 19"},"coordinates":[2194,4807]},{"type":"Point","properties":{"Station_ID":"WI-JF-22","Station_Nam":"SULLIVAN 2.6 SW, WI","Latitude":"42.98562","Longitude":"-88.62498","Snowdepth":"6.300","Units":"in","Rept_Date":"2020-12-30 14"},"coordinates":[2071,4617]},{"type":"Point","properties":{"Station_ID":"WI-DA-35","Station_Nam":"MADISON 5.5 N, WI","Latitude":"43.15858","Longitude":"-89.37280","Snowdepth":"6.300","Units":"in","Rept_Date":"2020-12-30 14"},"coordinates":[1891,4724]},{"type":"Point","properties":{"Station_ID":"CAN-ON-526","Station_Nam":"HILTON BEACH 0.7 SW - MNRF, CAN","Latitude":"46.25357","Longitude":"-83.90014","Snowdepth":"6.300","Units":"in","Rept_Date":"2020-12-30 12"},"coordinates":[3207,6629]},{"type":"Point","properties":{"Station_ID":"WI-DD-4","Station_Nam":"BEAVER DAM 1.4 SSW, WI","Latitude":"43.44719","Longitude":"-88.85260","Snowdepth":"6.200","Units":"in","Rept_Date":"2020-12-30 14"},"coordinates":[2016,4901]},{"type":"Point","properties":{"Station_ID":"IA-ST-42","Station_Nam":"RIVERDALE 0.5 N, IA","Latitude":"41.54319","Longitude":"-90.46752","Snowdepth":"6.200","Units":"in","Rept_Date":"2020-12-30 15"},"coordinates":[1628,3729]},{"type":"Point","properties":{"Station_ID":"HPN19_MADIS","Station_Nam":"GREENFIELD","Latitude":"45.20343","Longitude":"-93.69130","Snowdepth":"6.200","Units":"in","Rept_Date":"2020-12-31 06"},"coordinates":[853,5983]},{"type":"Point","properties":{"Station_ID":"WI-WK-84","Station_Nam":"WAUKESHA 2.5 NW, WI","Latitude":"43.03422","Longitude":"-88.27814","Snowdepth":"6.100","Units":"in","Rept_Date":"2020-12-30 13"},"coordinates":[2155,4647]},{"type":"Point","properties":{"Station_ID":"WI-WK-73","Station_Nam":"MENOMONEE FALLS 3.2 NNW, WI","Latitude":"43.18817","Longitude":"-88.15555","Snowdepth":"6.100","Units":"in","Rept_Date":"2020-12-30 13"},"coordinates":[2184,4742]},{"type":"Point","properties":{"Station_ID":"WI-WK-29","Station_Nam":"OCONOMOWOC 4.6 NE, WI","Latitude":"43.14621","Longitude":"-88.42860","Snowdepth":"6.100","Units":"in","Rept_Date":"2020-12-30 15"},"coordinates":[2118,4716]},