{"type":"Topology","objects":{"snowdepth_geo":{"type":"GeometryCollection","name":"snowdepth","crs":{"type":"name","properties":{"name":"urn:ogc:def:crs:OGC:1.3:CRS84"}},"geometries":[{"type":"Point","properties":{"Station_ID":"MMSV1","Station_Nam":"MOUNT MANSFIELD","Latitude":"44.53330","Longitude":"-72.83330","Snowdepth":"86.000","Units":"in","Rept_Date":"2019-12-11 05"},"coordinates":[5728,5787]},{"type":"Point","properties":{"Station_ID":"PRKM4","Station_Nam":"MUNISING EAST","Latitude":"46.42580","Longitude":"-86.62000","Snowdepth":"76.500","Units":"in","Rept_Date":"2019-12-11 06"},"coordinates":[2492,6895]},{"type":"Point","properties":{"Station_ID":"OGIQ6","Station_Nam":"OGOKI CAMP","Latitude":"50.76680","Longitude":"-87.85820","Snowdepth":"61.100","Units":"in","Rept_Date":"2019-12-11 06"},"coordinates":[2202,9437]},{"type":"Point","properties":{"Station_ID":"NY-SC-11","Station_Nam":"SCHENECTADY 3.3 E, NY","Latitude":"42.79382","Longitude":"-73.86390","Snowdepth":"50.000","Units":"in","Rept_Date":"2019-12-10 14"},"coordinates":[5486,4768]},{"type":"Point","properties":{"Station_ID":"AUDQ6","Station_Nam":"AUDEN","Latitude":"48.52600","Longitude":"-82.57570","Snowdepth":"47.640","Units":"in","Rept_Date":"2019-12-11 06"},"coordinates":[3441,8125]},{"type":"Point","properties":{"Station_ID":"DVLQ6","Station_Nam":"DEVIOUS LAKE","Latitude":"49.19890","Longitude":"-87.76440","Snowdepth":"43.460","Units":"in","Rept_Date":"2019-12-11 06"},"coordinates":[2224,8519]},{"type":"Point","properties":{"Station_ID":"IWOM4","Station_Nam":"IRONWOOD#2","Latitude":"46.46520","Longitude":"-90.13820","Snowdepth":"34.000","Units":"in","Rept_Date":"2019-12-10 13"},"coordinates":[1666,6918]},{"type":"Point","properties":{"Station_ID":"UPSW3","Station_Nam":"UPSON,WI","Latitude":"46.36780","Longitude":"-90.41220","Snowdepth":"32.000","Units":"in","Rept_Date":"2019-12-11 00"},"coordinates":[1602,6861]},{"type":"Point","properties":{"Station_ID":"WI-IR-3","Station_Nam":"PENCE 0.1 E, WI","Latitude":"46.41555","Longitude":"-90.27013","Snowdepth":"30.500","Units":"in","Rept_Date":"2019-12-10 13"},"coordinates":[1635,6889]},{"type":"Point","properties":{"Station_ID":"SWTW3","Station_Nam":"SUPERIOR WWTP","Latitude":"46.72700","Longitude":"-92.07200","Snowdepth":"30.000","Units":"in","Rept_Date":"2019-12-11 06"},"coordinates":[1213,7071]},{"type":"Point","properties":{"Station_ID":"PDLM4","Station_Nam":"PAINESDALE","Latitude":"47.04160","Longitude":"-88.67170","Snowdepth":"30.000","Units":"in","Rept_Date":"2019-12-10 13"},"coordinates":[2011,7256]},{"type":"Point","properties":{"Station_ID":"GMSM4","Station_Nam":"GRAND MARAIS 10S","Latitude":"46.50940","Longitude":"-85.96310","Snowdepth":"29.000","Units":"in","Rept_Date":"2019-12-10 12"},"coordinates":[2646,6944]},{"type":"Point","properties":{"Station_ID":"MI-HG-18","Station_Nam":"CALUMET 0.7 W (TAMARACK), MI","Latitude":"47.24560","Longitude":"-88.46791","Snowdepth":"28.000","Units":"in","Rept_Date":"2019-12-10 13"},"coordinates":[2058,7375]},{"type":"Point","properties":{"Station_ID":"QOU","Station_Nam":"QOU","Latitude":"50.79250","Longitude":"-69.67470","Snowdepth":"26.220","Units":"in","Rept_Date":"2019-12-10 12"},"coordinates":[6469,9452]},{"type":"Point","properties":{"Station_ID":"GNLM4","Station_Nam":"GREENLAND 6N","Latitude":"46.87360","Longitude":"-89.10060","Snowdepth":"26.000","Units":"in","Rept_Date":"2019-12-10 13"},"coordinates":[1910,7157]},{"type":"Point","properties":{"Station_ID":"BUTW3","Station_Nam":"BUTTERNUT 3SW","Latitude":"45.98080","Longitude":"-90.54170","Snowdepth":"26.000","Units":"in","Rept_Date":"2019-12-10 12"},"coordinates":[1572,6635]},{"type":"Point","properties":{"Station_ID":"WRSM5","Station_Nam":"WRENSHALL","Latitude":"46.61550","Longitude":"-92.38380","Snowdepth":"25.000","Units":"in","Rept_Date":"2019-12-10 14"},"coordinates":[1139,7006]},{"type":"Point","properties":{"Station_ID":"WI-BY-15","Station_Nam":"BAYFIELD 1.7 SW, WI","Latitude":"46.79294","Longitude":"-90.84343","Snowdepth":"25.000","Units":"in","Rept_Date":"2019-12-10 13"},"coordinates":[1501,7110]},{"type":"Point","properties":{"Station_ID":"QNCM4","Station_Nam":"QUINCY HILL","Latitude":"47.13640","Longitude":"-88.57950","Snowdepth":"25.000","Units":"in","Rept_Date":"2019-12-10 12"},"coordinates":[2032,7311]},{"type":"Point","properties":{"Station_ID":"MQT","Station_Nam":"MARQUETTE, MI","Latitude":"46.53140","Longitude":"-87.54920","Snowdepth":"25.000","Units":"in","Rept_Date":"2019-12-11 06"},"coordinates":[2274,6957]},{"type":"Point","properties":{"Station_ID":"MAIW3","Station_Nam":"MADELINE ISLAND","Latitude":"46.78330","Longitude":"-90.76670","Snowdepth":"25.000","Units":"in","Rept_Date":"2019-12-10 14"},"coordinates":[1519,7104]},{"type":"Point","properties":{"Station_ID":"MI-BG-3","Station_Nam":"L'ANSE 17.8 SE, MI","Latitude":"46.55730","Longitude":"-88.20770","Snowdepth":"24.800","Units":"in","Rept_Date":"2019-12-10 13"},"coordinates":[2119,6972]},{"type":"Point","properties":{"Station_ID":"MN-SL-138","Station_Nam":"DULUTH 4.8 NW, MN","Latitude":"46.83425","Longitude":"-92.17438","Snowdepth":"24.000","Units":"in","Rept_Date":"2019-12-10 14"},"coordinates":[1189,7134]},{"type":"Point","properties":{"Station_ID":"MI-KW-2","Station_Nam":"DELAWARE 5.2 SW, MI","Latitude":"47.36928","Longitude":"-88.17919","Snowdepth":"24.000","Units":"in","Rept_Date":"2019-12-10 09"},"coordinates":[2126,7447]},{"type":"Point","properties":{"Station_ID":"MI-HG-11","Station_Nam":"HOUGHTON 3.0 SSW, MI","Latitude":"47.07704","Longitude":"-88.59680","Snowdepth":"24.000","Units":"in","Rept_Date":"2019-12-10 13"},"coordinates":[2028,7276]},{"type":"Point","properties":{"Station_ID":"KSGM4","Station_Nam":"KEARSARGE","Latitude":"47.27520","Longitude":"-88.41700","Snowdepth":"24.000","Units":"in","Rept_Date":"2019-12-10 13"},"coordinates":[2070,7392]},{"type":"Point","properties":{"Station_ID":"ASXW3","Station_Nam":"ASHLAND,WI","Latitude":"46.55220","Longitude":"-90.91610","Snowdepth":"24.000","Units":"in","Rept_Date":"2019-12-10 14"},"coordinates":[1484,6969]},{"type":"Point","properties":{"Station_ID":"WI-DG-20","Station_Nam":"SOLON SPRINGS 1.2 W, WI","Latitude":"46.35217","Longitude":"-91.84405","Snowdepth":"23.000","Units":"in","Rept_Date":"2019-12-10 13"},"coordinates":[1266,6852]},{"type":"Point","properties":{"Station_ID":"IRMM4","Station_Nam":"WWTP","Latitude":"46.46670","Longitude":"-90.18330","Snowdepth":"23.000","Units":"in","Rept_Date":"2019-12-10 13"},"coordinates":[1656,6919]},{"type":"Point","properties":{"Station_ID":"IBLM5","Station_Nam":"ISABELLA 14W","Latitude":"47.59360","Longitude":"-91.65140","Snowdepth":"23.000","Units":"in","Rept_Date":"2019-12-10 15"},"coordinates":[1311,7579]},{"type":"Point","properties":{"Station_ID":"HTLN3","Station_Nam":"HERMIT LAKE SNOWPLOT","Latitude":"44.26130","Longitude":"-71.28330","Snowdepth":"23.000","Units":"in","Rept_Date":"2019-12-10 10"},"coordinates":[6092,5628]},{"type":"Point","properties":{"Station_ID":"CLQM5","Station_Nam":"CLOQUET","Latitude":"46.70470","Longitude":"-92.52530","Snowdepth":"23.000","Units":"in","Rept_Date":"2019-12-10 14"},"coordinates":[1106,7058]},{"type":"Point","properties":{"Station_ID":"BFHW3","Station_Nam":"BAYFIELD FISH HATCHERY","Latitude":"46.78670","Longitude":"-90.86420","Snowdepth":"23.000","Units":"in","Rept_Date":"2019-12-10 14"},"coordinates":[1496,7106]},{"type":"Point","properties":{"Station_ID":"AWXW3","Station_Nam":"ASHLAND","Latitude":"46.58240","Longitude":"-90.88390","Snowdepth":"23.000","Units":"in","Rept_Date":"2019-12-10 13"},"coordinates":[1491,6987]},{"type":"Point","properties":{"Station_ID":"WI-BY-1","Station_Nam":"BAYFIELD 8.8 N, WI","Latitude":"46.93855","Longitude":"-90.83490","Snowdepth":"22.500","Units":"in","Rept_Date":"2019-12-10 13"},"coordinates":[1503,7195]},{"type":"Point","properties":{"Station_ID":"WI-AS-4","Station_Nam":"ASHLAND 0.5 WNW, WI","Latitude":"46.58240","Longitude":"-90.88390","Snowdepth":"22.500","Units":"in","Rept_Date":"2019-12-10 13"},"coordinates":[1491,6987]},{"type":"Point","properties":{"Station_ID":"WRPW3","Station_Nam":"WATER PURIFICATION PLANT","Latitude":"44.38800","Longitude":"-89.80550","Snowdepth":"22.000","Units":"in","Rept_Date":"2019-12-10 12"},"coordinates":[1744,5702]},{"type":"Point","properties":{"Station_ID":"WI-WB-2","Station_Nam":"STONE LAKE 2.0 NW, WI","Latitude":"45.85960","Longitude":"-91.57710","Snowdepth":"22.000","Units":"in","Rept_Date":"2019-12-10 13"},"coordinates":[1329,6564]},{"type":"Point","properties":{"Station_ID":"WI-BY-14","Station_Nam":"ASHLAND 9.8 W, WI","Latitude":"46.59742","Longitude":"-91.07856","Snowdepth":"22.000","Units":"in","Rept_Date":"2019-12-10 12"},"coordinates":[1446,6996]},{"type":"Point","properties":{"Station_ID":"VT-WH-9","Station_Nam":"WEST HALIFAX 0.2 SE, VT","Latitude":"42.78561","Longitude":"-72.76950","Snowdepth":"22.000","Units":"in","Rept_Date":"2019-12-10 12"},"coordinates":[5743,4764]},{"type":"Point","properties":{"Station_ID":"PDGM4","Station_Nam":"PAULDING","Latitude":"46.39760","Longitude":"-89.17940","Snowdepth":"22.000","Units":"in","Rept_Date":"2019-12-10 13"},"coordinates":[1891,6879]},{"type":"Point","properties":{"Station_ID":"MI-HG-17","Station_Nam":"CALUMET 0.5 NE (CALUMET LAKE), MI","Latitude":"47.25300","Longitude":"-88.44652","Snowdepth":"22.000","Units":"in","Rept_Date":"2019-12-10 13"},"coordinates":[2063,7379]},{"type":"Point","properties":{"Station_ID":"WI-VL-9","Station_Nam":"LAND O' LAKES 11.7 W, WI","Latitude":"46.19023","Longitude":"-89.45790","Snowdepth":"21.000","Units":"in","Rept_Date":"2019-12-10 13"},"coordinates":[1826,6757]},{"type":"Point","properties":{"Station_ID":"MN-SL-18","Station_Nam":"DULUTH 1.4 NNW, MN","Latitude":"46.80321","Longitude":"-92.11240","Snowdepth":"21.000","Units":"in","Rept_Date":"2019-12-10 14"},"coordinates":[1203,7116]},{"type":"Point","properties":{"Station_ID":"LNOW3","Station_Nam":"LAND O LAKES","Latitude":"46.19000","Longitude":"-89.45700","Snowdepth":"21.000","Units":"in","Rept_Date":"2019-12-10 13"},"coordinates":[1826,6757]},{"type":"Point","properties":{"Station_ID":"ILIM5","Station_Nam":"ISLAND LAKE","Latitude":"47.02400","Longitude":"-92.07000","Snowdepth":"21.000","Units":"in","Rept_Date":"2019-12-10 15"},"coordinates":[1213,7245]},{"type":"Point","properties":{"Station_ID":"DLH","Station_Nam":"DULUTH, MN","Latitude":"46.83690","Longitude":"-92.21030","Snowdepth":"21.000","Units":"in","Rept_Date":"2019-12-11 00"},"coordinates":[1180,7136]},{"type":"Point","properties":{"Station_ID":"WI-VL-10","Station_Nam":"LAND O LAKES 4.3 WNW, WI","Latitude":"46.17440","Longitude":"-89.30380","Snowdepth":"20.000","Units":"in","Rept_Date":"2019-12-10 13"},"coordinates":[1862,6748]},{"type":"Point","properties":{"Station_ID":"WI-FL-3","Station_Nam":"FLORENCE 0.7 ESE, WI","Latitude":"45.91760","Longitude":"-88.23900","Snowdepth":"20.000","Units":"in","Rept_Date":"2019-12-10 11"},"coordinates":[2112,6597]},{"type":"Point","properties":{"Station_ID":"WI-BY-2","Station_Nam":"MELLEN 18.6 SW, WI","Latitude":"46.16937","Longitude":"-90.98090","Snowdepth":"20.000","Units":"in","Rept_Date":"2019-12-10 13"},"coordinates":[1469,6745]},{"type":"Point","properties":{"Station_ID":"TWOM5","Station_Nam":"TWO HARBORS,MN","Latitude":"47.12580","Longitude":"-91.70750","Snowdepth":"20.000","Units":"in","Rept_Date":"2019-12-11 01"},"coordinates":[1298,7305]},{"type":"Point","properties":{"Station_ID":"SUAW3","Station_Nam":"SUAMICO","Latitude":"44.60190","Longitude":"-88.09780","Snowdepth":"20.000","Units":"in","Rept_Date":"2019-12-10 12"},"coordinates":[2145,5827]},{"type":"Point","properties":{"Station_ID":"PHEW3","Station_Nam":"PHELPS","Latitude":"46.06630","Longitude":"-89.07520","Snowdepth":"20.000","Units":"in","Rept_Date":"2019-12-10 13"},"coordinates":[1916,6685]},{"type":"Point","properties":{"Station_ID":"MI-MQ-19","Station_Nam":"ISHPEMING 7.2 SW, MI","Latitude":"46.40550","Longitude":"-87.75670","Snowdepth":"20.000","Units":"in","Rept_Date":"2019-12-10 11"},"coordinates":[2225,6883]},{"type":"Point","properties":{"Station_ID":"MI-HG-14","Station_Nam":"HOUGHTON 0.6 SE, MI","Latitude":"47.10847","Longitude":"-88.55235","Snowdepth":"20.000","Units":"in","Rept_Date":"2019-12-10 13"},"coordinates":[2039,7295]},{"type":"Point","properties":{"Station_ID":"HWLM4","Station_Nam":"HALFWAY LAKE","Latitude":"46.47480","Longitude":"-85.59250","Snowdepth":"20.000","Units":"in","Rept_Date":"2019-12-10 14"},"coordinates":[2733,6924]},{"type":"Point","properties":{"Station_ID":"DLHM5","Station_Nam":"DULUTH NWS","Latitude":"46.83680","Longitude":"-92.21080","Snowdepth":"20.000","Units":"in","Rept_Date":"2019-12-11 06"},"coordinates":[1180,7136]},{"type":"Point","properties":{"Station_ID":"CMKW3","Station_Nam":"CLAM LAKE 4W","Latitude":"46.16940","Longitude":"-90.98080","Snowdepth":"20.000","Units":"in","Rept_Date":"2019-12-10 13"},"coordinates":[1469,6745]},{"type":"Point","properties":{"Station_ID":"QGD","Station_Nam":"QGD","Latitude":"51.11140","Longitude":"-67.13940","Snowdepth":"19.606","Units":"in","Rept_Date":"2019-12-10 12"},"coordinates":[7064,9639]},{"type":"Point","properties":{"Station_ID":"MLZ","Station_Nam":"MLZ","Latitude":"50.66170","Longitude":"-68.82360","Snowdepth":"19.173","Units":"in","Rept_Date":"2019-12-10 12"},"coordinates":[6669,9375]},{"type":"Point","properties":{"Station_ID":"WTRW3","Station_Nam":"WINTER","Latitude":"45.79920","Longitude":"-90.99470","Snowdepth":"19.000","Units":"in","Rept_Date":"2019-12-10 15"},"coordinates":[1465,6528]},{"type":"Point","properties":{"Station_ID":"WTRM4","Station_Nam":"WATERSMEET 12WSW","Latitude":"46.22310","Longitude":"-89.40850","Snowdepth":"19.000","Units":"in","Rept_Date":"2019-12-10 12"},"coordinates":[1838,6776]},{"type":"Point","properties":{"Station_ID":"MN-SL-15","Station_Nam":"CHISHOLM 0.4 WSW, MN","Latitude":"47.48557","Longitude":"-92.88690","Snowdepth":"19.000","Units":"in","Rept_Date":"2019-12-10 13"},"coordinates":[1021,7516]},{"type":"Point","properties":{"Station_ID":"MI-IR-1","Station_Nam":"TROUT CREEK 9.6 SSE, MI","Latitude":"46.35963","Longitude":"-88.91219","Snowdepth":"19.000","Units":"in","Rept_Date":"2019-12-10 13"},"coordinates":[1954,6856]},{"type":"Point","properties":{"Station_ID":"MI-HG-6","Station_Nam":"CALUMET 5.8 ENE, MI","Latitude":"47.27200","Longitude":"-88.33400","Snowdepth":"19.000","Units":"in","Rept_Date":"2019-12-10 11"},"coordinates":[2090,7391]},{"type":"Point","properties":{"Station_ID":"MI-HG-12","Station_Nam":"DOLLAR BAY 0.2 ENE, MI","Latitude":"47.12067","Longitude":"-88.49895","Snowdepth":"19.000","Units":"in","Rept_Date":"2019-12-10 13"},"coordinates":[2051,7302]},{"type":"Point","properties":{"Station_ID":"LTMW3","Station_Nam":"LAKE TOMAHAWK 2 SE","Latitude":"45.80750","Longitude":"-89.55830","Snowdepth":"19.000","Units":"in","Rept_Date":"2019-12-10 12"},"coordinates":[1803,6533]},{"type":"Point","properties":{"Station_ID":"HERM4","Station_Nam":"HERMAN,MI","Latitude":"46.65000","Longitude":"-88.33330","Snowdepth":"19.000","Units":"in","Rept_Date":"2019-12-10 13"},"coordinates":[2090,7026]},{"type":"Point","properties":{"Station_ID":"QLB","Station_Nam":"QLB","Latitude":"50.72360","Longitude":"-75.10000","Snowdepth":"18.543","Units":"in","Rept_Date":"2019-12-10 12"},"coordinates":[5196,9412]},{"type":"Point","properties":{"Station_ID":"WI-AS-6","Station_Nam":"ODANAH 1.6 E, WI","Latitude":"46.60462","Longitude":"-90.64920","Snowdepth":"18.500","Units":"in","Rept_Date":"2019-12-10 13"},"coordinates":[1546,7000]},{"type":"Point","properties":{"Station_ID":"MI-HG-1","Station_Nam":"HOUGHTON 1.6 ESE, MI","Latitude":"47.10774","Longitude":"-88.52940","Snowdepth":"18.500","Units":"in","Rept_Date":"2019-12-10 13"},"coordinates":[2044,7294]},{"type":"Point","properties":{"Station_ID":"WI-BY-6","Station_Nam":"BARNES 2.2 S, WI","Latitude":"46.30264","Longitude":"-91.50320","Snowdepth":"18.000","Units":"in","Rept_Date":"2019-12-10 13"},"coordinates":[1346,6823]},{"type":"Point","properties":{"Station_ID":"MN-SL-105","Station_Nam":"DULUTH 11.8 NNE, MN","Latitude":"46.94680","Longitude":"-92.03925","Snowdepth":"18.000","Units":"in","Rept_Date":"2019-12-10 13"},"coordinates":[1220,7200]},{"type":"Point","properties":{"Station_ID":"GLDM4","Station_Nam":"GLADSTONE NO. 2","Latitude":"45.84330","Longitude":"-87.03910","Snowdepth":"18.000","Units":"in","Rept_Date":"2019-12-10 12"},"coordinates":[2394,6554]},{"type":"Point","properties":{"Station_ID":"COUW3","Station_Nam":"COUDERAY,WI","Latitude":"45.86670","Longitude":"-91.45000","Snowdepth":"18.000","Units":"in","Rept_Date":"2019-12-10 22"},"coordinates":[1359,6568]},{"type":"Point","properties":{"Station_ID":"CEFM4","Station_Nam":"EXPERIMENT FARM #2","Latitude":"46.33330","Longitude":"-86.91670","Snowdepth":"18.000","Units":"in","Rept_Date":"2019-12-10 13"},"coordinates":[2422,6841]},{"type":"Point","properties":{"Station_ID":"BABM5","Station_Nam":"BABBITT","Latitude":"47.71210","Longitude":"-91.95330","Snowdepth":"18.000","Units":"in","Rept_Date":"2019-12-10 13"},"coordinates":[1240,7648]},{"type":"Point","properties":{"Station_ID":"QGO","Station_Nam":"QGO","Latitude":"48.85500","Longitude":"-74.20640","Snowdepth":"17.559","Units":"in","Rept_Date":"2019-12-10 12"},"coordinates":[5405,8317]},{"type":"Point","properties":{"Station_ID":"WI-ON-8","Station_Nam":"HAZELHURST 2.1 SSE, WI","Latitude":"45.78186","Longitude":"-89.70330","Snowdepth":"17.500","Units":"in","Rept_Date":"2019-12-10 13"},"coordinates":[1768,6518]},{"type":"Point","properties":{"Station_ID":"QFT","Station_Nam":"QFT","Latitude":"50.83280","Longitude":"-74.40390","Snowdepth":"17.323","Units":"in","Rept_Date":"2019-12-10 12"},"coordinates":[5359,9475]},{"type":"Point","properties":{"Station_ID":"WI-VL-14","Station_Nam":"BOULDER JUNCTION 1.4 NE, WI","Latitude":"46.12840","Longitude":"-89.62470","Snowdepth":"17.000","Units":"in","Rept_Date":"2019-12-10 13"},"coordinates":[1787,6721]},{"type":"Point","properties":{"Station_ID":"RRVM4","Station_Nam":"RAPID RIVER 9S","Latitude":"45.78750","Longitude":"-86.93920","Snowdepth":"17.000","Units":"in","Rept_Date":"2019-12-10 13"},"coordinates":[2417,6521]},{"type":"Point","properties":{"Station_ID":"NWCM4","Station_Nam":"NEWBERRY CITY","Latitude":"46.35720","Longitude":"-85.51780","Snowdepth":"17.000","Units":"in","Rept_Date":"2019-12-10 12"},"coordinates":[2751,6855]},{"type":"Point","properties":{"Station_ID":"MNSM4","Station_Nam":"MUNISING","Latitude":"46.41210","Longitude":"-86.66250","Snowdepth":"17.000","Units":"in","Rept_Date":"2019-12-10 11"},"coordinates":[2482,6887]},{"type":"Point","properties":{"Station_ID":"MI-MQ-2","Station_Nam":"MARQUETTE 6.5 SSE, MI","Latitude":"46.46461","Longitude":"-87.34064","Snowdepth":"17.000","Units":"in","Rept_Date":"2019-12-10 14"},"coordinates":[2323,6918]},{"type":"Point","properties":{"Station_ID":"HRVM4","Station_Nam":"HARVEY","Latitude":"46.49080","Longitude":"-87.35470","Snowdepth":"17.000","Units":"in","Rept_Date":"2019-12-10 12"},"coordinates":[2320,6933]},{"type":"Point","properties":{"Station_ID":"EVRW3","Station_Nam":"EAGLE RIVER-4 E","Latitude":"45.91890","Longitude":"-89.15280","Snowdepth":"17.000","Units":"in","Rept_Date":"2019-12-10 12"},"coordinates":[1898,6598]},{"type":"Point","properties":{"Station_ID":"ESAM4","Station_Nam":"ESCANABA","Latitude":"45.74380","Longitude":"-87.04060","Snowdepth":"17.000","Units":"in","Rept_Date":"2019-12-10 12"},"coordinates":[2393,6496]},{"type":"Point","properties":{"Station_ID":"CRVW3","Station_Nam":"CRIVITZ HIGH FALLS","Latitude":"45.35750","Longitude":"-88.19190","Snowdepth":"17.000","Units":"in","Rept_Date":"2019-12-10 13"},"coordinates":[2123,6270]},{"type":"Point","properties":{"Station_ID":"MFU","Station_Nam":"MFU","Latitude":"51.52170","Longitude":"-66.91110","Snowdepth":"16.772","Units":"in","Rept_Date":"2019-12-10 12"},"coordinates":[7118,9879]},{"type":"Point","properties":{"Station_ID":"WI-WB-16","Station_Nam":"SARONA 4.5 NNE, WI","Latitude":"45.77030","Longitude":"-91.76890","Snowdepth":"16.500","Units":"in","Rept_Date":"2019-12-10 13"},"coordinates":[1284,6511]},{"type":"Point","properties":{"Station_ID":"MN-IT-11","Station_Nam":"NASHWAUK 11.5 N, MN","Latitude":"47.54496","Longitude":"-93.19420","Snowdepth":"16.500","Units":"in","Rept_Date":"2019-12-10 13"},"coordinates":[949,7550]},{"type":"Point","properties":{"Station_ID":"MN-AT-5","Station_Nam":"TAMARACK 1.4 SW, MN","Latitude":"46.63760","Longitude":"-93.14554","Snowdepth":"16.500","Units":"in","Rept_Date":"2019-12-10 13"},"coordinates":[961,7019]},{"type":"Point","properties":{"Station_ID":"WI-SR-5","Station_Nam":"HAYWARD 9.7 NE, WI","Latitude":"46.12030","Longitude":"-91.35370","Snowdepth":"16.000","Units":"in","Rept_Date":"2019-12-10 14"},"coordinates":[1381,6716]},{"type":"Point","properties":{"Station_ID":"WI-PR-2","Station_Nam":"BUTTERNUT 5.9 SW, WI","Latitude":"45.96501","Longitude":"-90.59750","Snowdepth":"16.000","Units":"in","Rept_Date":"2019-12-10 12"},"coordinates":[1559,6625]},{"type":"Point","properties":{"Station_ID":"MI-HG-13","Station_Nam":"HOUGHTON 1.2 WNW, MI","Latitude":"47.12035","Longitude":"-88.58525","Snowdepth":"16.000","Units":"in","Rept_Date":"2019-12-10 13"},"coordinates":[2031,7302]},{"type":"Point","properties":{"Station_ID":"GGRM4","Station_Nam":"GREEN GARDEN NO.2","Latitude":"46.45330","Longitude":"-87.30380","Snowdepth":"16.000","Units":"in","Rept_Date":"2019-12-10 11"},"coordinates":[2332,6911]},{"type":"Point","properties":{"Station_ID":"CLGM5","Station_Nam":"COLLEGEVILLE ST JOHN","Latitude":"45.57940","Longitude":"-94.39200","Snowdepth":"16.000","Units":"in","Rept_Date":"2019-12-11 00"},"coordinates":[668,6399]},{"type":"Point","properties":{"Station_ID":"ASTW3","Station_Nam":"ATHELSTANE","Latitude":"45.42500","Longitude":"-88.05750","Snowdepth":"16.000","Units":"in","Rept_Date":"2019-12-10 12"},"coordinates":[2155,6309]},{"type":"Point","properties":{"Station_ID":"AROM4","Station_Nam":"ARNOLD,MI","Latitude":"46.06670","Longitude":"-87.48330","Snowdepth":"16.000","Units":"in","Rept_Date":"2019-12-10 13"},"coordinates":[2290,6685]},{"type":"Point","properties":{"Station_ID":"WI-RS-1","Station_Nam":"LADYSMITH 2.8 WNW, WI","Latitude":"45.48180","Longitude":"-91.14680","Snowdepth":"15.000","Units":"in","Rept_Date":"2019-12-10 13"},"coordinates":[1430,6342]},{"type":"Point","properties":{"Station_ID":"WI-BT-14","Station_Nam":"OAKLAND 9.0 ENE, WI","Latitude":"45.95184","Longitude":"-92.21653","Snowdepth":"15.000","Units":"in","Rept_Date":"2019-12-10 13"},"coordinates":[1179,6618]},{"type":"Point","properties":{"Station_ID":"RHIW3","Station_Nam":"RHINELANDER","Latitude":"45.59860","Longitude":"-89.45080","Snowdepth":"15.000","Units":"in","Rept_Date":"2019-12-10 13"},"coordinates":[1828,6411]},{"type":"Point","properties":{"Station_ID":"MI-HG-16","Station_Nam":"SOUTH RANGE 12.6 WSW, MI","Latitude":"47.02452","Longitude":"-88.90350","Snowdepth":"15.000","Units":"in","Rept_Date":"2019-12-10 13"},"coordinates":[1956,7246]},{"type":"Point","properties":{"Station_ID":"EMBM5","Station_Nam":"EMBARASS,MN","Latitude":"47.65810","Longitude":"-92.19580","Snowdepth":"15.000","Units":"in","Rept_Date":"2019-12-10 12"},"coordinates":[1184,7617]},{"type":"Point","properties":{"Station_ID":"EGRW3","Station_Nam":"EAGLE RIVER-SOUTH","Latitude":"45.91360","Longitude":"-89.24360","Snowdepth":"15.000","Units":"in","Rept_Date":"2019-12-10 13"},"coordinates":[1876,6595]},{"type":"Point","properties":{"Station_ID":"CNNW3","Station_Nam":"CRANDON","Latitude":"45.55110","Longitude":"-88.89830","Snowdepth":"15.000","Units":"in","Rept_Date":"2019-12-10 12"},"coordinates":[1957,6383]},{"type":"Point","properties":{"Station_ID":"CLKM4","Station_Nam":"CLARKSBURG","Latitude":"46.49910","Longitude":"-87.84500","Snowdepth":"15.000","Units":"in","Rept_Date":"2019-12-10 12"},"coordinates":[2205,6938]},{"type":"Point","properties":{"Station_ID":"BNDM5","Station_Nam":"ELY 25E","Latitude":"47.97190","Longitude":"-91.44860","Snowdepth":"15.000","Units":"in","Rept_Date":"2019-12-10 13"},"coordinates":[1359,7800]},{"type":"Point","properties":{"Station_ID":"AURW3","Station_Nam":"AURORA","Latitude":"45.77000","Longitude":"-88.11810","Snowdepth":"15.000","Units":"in","Rept_Date":"2019-12-10 13"},"coordinates":[2141,6511]},{"type":"Point","properties":{"Station_ID":"QCX","Station_Nam":"QCX","Latitude":"51.32830","Longitude":"-70.08060","Snowdepth":"14.921","Units":"in","Rept_Date":"2019-12-10 12"},"coordinates":[6374,9766]},{"type":"Point","properties":{"Station_ID":"QCO","Station_Nam":"QCO","Latitude":"51.45280","Longitude":"-72.20110","Snowdepth":"14.803","Units":"in","Rept_Date":"2019-12-10 12"},"coordinates":[5876,9839]},{"type":"Point","properties":{"Station_ID":"MN-SL-139","Station_Nam":"DULUTH 1.2 SE, MN","Latitude":"46.77000","Longitude":"-92.08826","Snowdepth":"14.500","Units":"in","Rept_Date":"2019-12-10 12"},"coordinates":[1209,7097]},{"type":"Point","properties":{"Station_ID":"MN-IT-23","Station_Nam":"BOVEY 13.4 N, MN","Latitude":"47.48855","Longitude":"-93.43497","Snowdepth":"14.500","Units":"in","Rept_Date":"2019-12-10 13"},"coordinates":[893,7517]},{"type":"Point","properties":{"Station_ID":"QCU","Station_Nam":"QCU","Latitude":"47.82750","Longitude":"-76.59830","Snowdepth":"14.134","Units":"in","Rept_Date":"2019-12-10 12"},"coordinates":[4844,7716]},{"type":"Point","properties":{"Station_ID":"WTNM4","Station_Nam":"WATTON 2WSW","Latitude":"46.52660","Longitude":"-88.64240","Snowdepth":"14.000","Units":"in","Rept_Date":"2019-12-10 13"},"coordinates":[2017,6954]},{"type":"Point","properties":{"Station_ID":"WI-PR-6","Station_Nam":"PHILLIPS 1.3 S, WI","Latitude":"45.67677","Longitude":"-90.39543","Snowdepth":"14.000","Units":"in","Rept_Date":"2019-12-10 12"},"coordinates":[1606,6456]},{"type":"Point","properties":{"Station_ID":"WI-ON-2","Station_Nam":"RHINELANDER 6.3 WNW, WI","Latitude":"45.67583","Longitude":"-89.53240","Snowdepth":"14.000","Units":"in","Rept_Date":"2019-12-10 13"},"coordinates":[1809,6456]},{"type":"Point","properties":{"Station_ID":"WI-OC-1","Station_Nam":"MOUNTAIN 1.1 SW, WI","Latitude":"45.17239","Longitude":"-88.48990","Snowdepth":"14.000","Units":"in","Rept_Date":"2019-12-10 18"},"coordinates":[2053,6161]},{"type":"Point","properties":{"Station_ID":"TOHM5","Station_Nam":"TWO HARBORS WWTP","Latitude":"47.01760","Longitude":"-91.66480","Snowdepth":"14.000","Units":"in","Rept_Date":"2019-12-10 13"},"coordinates":[1308,7242]},{"type":"Point","properties":{"Station_ID":"PRDM4","Station_Nam":"PARADISE","Latitude":"46.60380","Longitude":"-85.03960","Snowdepth":"14.000","Units":"in","Rept_Date":"2019-12-10 11"},"coordinates":[2863,6999]},{"type":"Point","properties":{"Station_ID":"MOUW3","Station_Nam":"MOUNTAIN 1 SW","Latitude":"45.17220","Longitude":"-88.49390","Snowdepth":"14.000","Units":"in","Rept_Date":"2019-12-10 18"},"coordinates":[2052,6161]},{"type":"Point","properties":{"Station_ID":"MMNV1","Station_Nam":"MT. MANSFIELD","Latitude":"44.52480","Longitude":"-72.81540","Snowdepth":"14.000","Units":"in","Rept_Date":"2019-12-10 21"},"coordinates":[5732,5782]},{"type":"Point","properties":{"Station_ID":"ME-AR-23","Station_Nam":"MADAWASKA 2.5 E, ME","Latitude":"47.34933","Longitude":"-68.28141","Snowdepth":"14.000","Units":"in","Rept_Date":"2019-12-10 12"},"coordinates":[6796,7436]},{"type":"Point","properties":{"Station_ID":"JCBM4","Station_Nam":"JACOBSVILLE","Latitude":"47.00830","Longitude":"-88.43180","Snowdepth":"14.000","Units":"in","Rept_Date":"2019-12-10 12"},"coordinates":[2067,7236]},{"type":"Point","properties":{"Station_ID":"ELYM5","Station_Nam":"ELY","Latitude":"47.90560","Longitude":"-91.82830","Snowdepth":"14.000","Units":"in","Rept_Date":"2019-12-10 14"},"coordinates":[1270,7762]},{"type":"Point","properties":{"Station_ID":"CGPM4","Station_Nam":"DOLLAR BAY","Latitude":"47.11670","Longitude":"-88.51370","Snowdepth":"14.000","Units":"in","Rept_Date":"2019-12-10 13"},"coordinates":[2048,7300]},{"type":"Point","properties":{"Station_ID":"AVTW3","Station_Nam":"ARBOR VITAE-JOHNSON LAKE","Latitude":"45.89940","Longitude":"-89.72670","Snowdepth":"14.000","Units":"in","Rept_Date":"2019-12-10 12"},"coordinates":[1763,6587]},{"type":"Point","properties":{"Station_ID":"ABGW3","Station_Nam":"AMBERG 9 E","Latitude":"45.48250","Longitude":"-87.81190","Snowdepth":"14.000","Units":"in","Rept_Date":"2019-12-10 12"},"coordinates":[2212,6343]},{"type":"Point","properties":{"Station_ID":"QTM","Station_Nam":"QTM","Latitude":"51.05780","Longitude":"-72.57190","Snowdepth":"13.937","Units":"in","Rept_Date":"2019-12-10 12"},"coordinates":[5789,9607]},{"type":"Point","properties":{"Station_ID":"QTV","Station_Nam":"QTV","Latitude":"49.66000","Longitude":"-69.35690","Snowdepth":"13.701","Units":"in","Rept_Date":"2019-12-10 12"},"coordinates":[6544,8789]},{"type":"Point","properties":{"Station_ID":"WI-PR-8","Station_Nam":"PHILLIPS 0.4 SSW, WI","Latitude":"45.69086","Longitude":"-90.40200","Snowdepth":"13.500","Units":"in","Rept_Date":"2019-12-10 13"},"coordinates":[1605,6465]},{"type":"Point","properties":{"Station_ID":"PTLQ6","Station_Nam":"PORTAGE LAKE","Latitude":"49.06950","Longitude":"-86.65940","Snowdepth":"13.500","Units":"in","Rept_Date":"2019-12-11 06"},"coordinates":[2483,8443]},{"type":"Point","properties":{"Station_ID":"QMD","Station_Nam":"QMD","Latitude":"49.29060","Longitude":"-75.84500","Snowdepth":"13.346","Units":"in","Rept_Date":"2019-12-10 12"},"coordinates":[5021,8572]},{"type":"Point","properties":{"Station_ID":"WILW3","Station_Nam":"RESERVOIR","Latitude":"45.70000","Longitude":"-89.83330","Snowdepth":"13.000","Units":"in","Rept_Date":"2019-12-10 12"},"coordinates":[1738,6470]},{"type":"Point","properties":{"Station_ID":"RHLW3","Station_Nam":"RHINELANDER 4NE","Latitude":"45.65270","Longitude":"-89.30740","Snowdepth":"13.000","Units":"in","Rept_Date":"2019-12-10 12"},"coordinates":[1861,6442]},{"type":"Point","properties":{"Station_ID":"MN2EOYHJ","Station_Nam":"OGILVIE 5.6 N","Latitude":"45.91288","Longitude":"-93.42259","Snowdepth":"13.000","Units":"in","Rept_Date":"2019-12-10 14"},"coordinates":[896,6595]},{"type":"Point","properties":{"Station_ID":"MN-SL-115","Station_Nam":"COTTON 5.7 ESE, MN","Latitude":"47.15142","Longitude":"-92.35772","Snowdepth":"13.000","Units":"in","Rept_Date":"2019-12-10 14"},"coordinates":[1146,7320]},{"type":"Point","properties":{"Station_ID":"MN-BM-15","Station_Nam":"BEMIDJI 7.8 ENE, MN","Latitude":"47.52043","Longitude":"-94.72121","Snowdepth":"13.000","Units":"in","Rept_Date":"2019-12-10 13"},"coordinates":[591,7536]},{"type":"Point","properties":{"Station_ID":"KGFK","Station_Nam":"GRAND FORKS INTERNATIONAL","Latitude":"47.95000","Longitude":"-97.18333","Snowdepth":"13.000","Units":"in","Rept_Date":"2019-12-11 06"},"coordinates":[13,7788]},{"type":"Point","properties":{"Station_ID":"GFK","Station_Nam":"GRAND FORKS INTERNATIONAL AIRPORT","Latitude":"47.94920","Longitude":"-97.17610","Snowdepth":"13.000","Units":"in","Rept_Date":"2019-12-11 00"},"coordinates":[15,7787]},{"type":"Point","properties":{"Station_ID":"CRLM5","Station_Nam":"CROSS LAKE DAM","Latitude":"46.66930","Longitude":"-94.11060","Snowdepth":"13.000","Units":"in","Rept_Date":"2019-12-10 14"},"coordinates":[734,7038]},{"type":"Point","properties":{"Station_ID":"BRAM5","Station_Nam":"BRAINERD","Latitude":"46.34320","Longitude":"-94.20900","Snowdepth":"13.000","Units":"in","Rept_Date":"2019-12-10 13"},"coordinates":[711,6847]},{"type":"Point","properties":{"Station_ID":"ANTW3","Station_Nam":"ANTIGO,WI","Latitude":"45.13330","Longitude":"-89.15000","Snowdepth":"13.000","Units":"in","Rept_Date":"2019-12-10 14"},"coordinates":[1898,6138]},{"type":"Point","properties":{"Station_ID":"AGNW3","Station_Nam":"ARGONNE-1.5 NW","Latitude":"45.67360","Longitude":"-88.90380","Snowdepth":"13.000","Units":"in","Rept_Date":"2019-12-10 14"},"coordinates":[1956,6455]},{"type":"Point","properties":{"Station_ID":"QMA","Station_Nam":"QMA","Latitude":"50.10330","Longitude":"-70.47190","Snowdepth":"12.716","Units":"in","Rept_Date":"2019-12-10 12"},"coordinates":[6282,9048]},{"type":"Point","properties":{"Station_ID":"WI-ON-6","Station_Nam":"RHINELANDER 5.2 N, WI","Latitude":"45.71388","Longitude":"-89.42150","Snowdepth":"12.500","Units":"in","Rept_Date":"2019-12-10 14"},"coordinates":[1835,6478]},{"type":"Point","properties":{"Station_ID":"MN-SL-108","Station_Nam":"IRON JUNCTION 3.4 NNW, MN","Latitude":"47.46150","Longitude":"-92.63130","Snowdepth":"12.500","Units":"in","Rept_Date":"2019-12-10 11"},"coordinates":[1081,7501]},{"type":"Point","properties":{"Station_ID":"QYR","Station_Nam":"QYR","Latitude":"48.87220","Longitude":"-75.61470","Snowdepth":"12.362","Units":"in","Rept_Date":"2019-12-10 12"},"coordinates":[5075,8327]},{"type":"Point","properties":{"Station_ID":"QLM","Station_Nam":"QLM","Latitude":"48.92030","Longitude":"-70.25280","Snowdepth":"12.008","Units":"in","Rept_Date":"2019-12-10 12"},"coordinates":[6333,8356]},{"type":"Point","properties":{"Station_ID":"WI-RS-3","Station_Nam":"BRUCE 1.9 E, WI","Latitude":"45.45415","Longitude":"-91.23510","Snowdepth":"12.000","Units":"in","Rept_Date":"2019-12-10 14"},"coordinates":[1409,6326]},{"type":"Point","properties":{"Station_ID":"VT-BN-12","Station_Nam":"STAMFORD 5.0 NNE, VT","Latitude":"42.82000","Longitude":"-73.02000","Snowdepth":"12.000","Units":"in","Rept_Date":"2019-12-10 21"},"coordinates":[5684,4784]},{"type":"Point","properties":{"Station_ID":"TAKW3","Station_Nam":"RICE RESERVOIR NO. 2","Latitude":"45.53770","Longitude":"-89.73220","Snowdepth":"12.000","Units":"in","Rept_Date":"2019-12-10 13"},"coordinates":[1762,6375]},{"type":"Point","properties":{"Station_ID":"RGNM1","Station_Nam":"RANGELEY 2NW","Latitude":"44.98940","Longitude":"-70.67220","Snowdepth":"12.000","Units":"in","Rept_Date":"2019-12-10 11"},"coordinates":[6235,6054]},{"type":"Point","properties":{"Station_ID":"NY-AB-54","Station_Nam":"ALTAMONT 2.9 SW, NY","Latitude":"42.68182","Longitude":"-74.08326","Snowdepth":"12.000","Units":"in","Rept_Date":"2019-12-10 12"},"coordinates":[5434,4703]},{"type":"Point","properties":{"Station_ID":"MN6J45LB","Station_Nam":"LUTSEN 4.1 WSW","Latitude":"47.62292","Longitude":"-90.75546","Snowdepth":"12.000","Units":"in","Rept_Date":"2019-12-10 13"},"coordinates":[1522,7596]},{"type":"Point","properties":{"Station_ID":"MN-CK-3","Station_Nam":"TOFTE 4.9 NE, MN","Latitude":"47.62394","Longitude":"-90.76100","Snowdepth":"12.000","Units":"in","Rept_Date":"2019-12-10 13"},"coordinates":[1520,7597]},{"type":"Point","properties":{"Station_ID":"MLLW3","Station_Nam":"MERRILL 8W","Latitude":"45.17810","Longitude":"-89.84810","Snowdepth":"12.000","Units":"in","Rept_Date":"2019-12-10 12"},"coordinates":[1735,6165]},{"type":"Point","properties":{"Station_ID":"MI-AT-6","Station_Nam":"MANCELONA 0.5 ESE, MI","Latitude":"44.89981","Longitude":"-85.05100","Snowdepth":"12.000","Units":"in","Rept_Date":"2019-12-10 13"},"coordinates":[2860,6002]},{"type":"Point","properties":{"Station_ID":"MCLN8","Station_Nam":"MC LEOD,ND","Latitude":"46.40250","Longitude":"-97.23810","Snowdepth":"12.000","Units":"in","Rept_Date":"2019-12-10 15"},"coordinates":[0,6881]},{"type":"Point","properties":{"Station_ID":"ISEM5","Station_Nam":"ISLE 12N","Latitude":"46.31970","Longitude":"-93.50140","Snowdepth":"12.000","Units":"in","Rept_Date":"2019-12-10 14"},"coordinates":[877,6833]},{"type":"Point","properties":{"Station_ID":"ESGM1","Station_Nam":"EAST SANGERVILLE","Latitude":"45.13690","Longitude":"-69.28060","Snowdepth":"12.000","Units":"in","Rept_Date":"2019-12-10 12"},"coordinates":[6562,6140]},{"type":"Point","properties":{"Station_ID":"ENGM4","Station_Nam":"ENGADINE MDOT","Latitude":"46.12800","Longitude":"-85.56960","Snowdepth":"12.000","Units":"in","Rept_Date":"2019-12-10 12"},"coordinates":[2739,6721]},{"type":"Point","properties":{"Station_ID":"CSLM5","Station_Nam":"CASS LAKE,MN","Latitude":"47.38470","Longitude":"-94.61470","Snowdepth":"12.000","Units":"in","Rept_Date":"2019-12-10 14"},"coordinates":[616,7457]},{"type":"Point","properties":{"Station_ID":"WI-LN-2","Station_Nam":"MERRILL 7.0 W, WI","Latitude":"45.17746","Longitude":"-89.84820","Snowdepth":"11.500","Units":"in","Rept_Date":"2019-12-10 12"},"coordinates":[1734,6164]},{"type":"Point","properties":{"Station_ID":"MN-CW-22","Station_Nam":"FORT RIPLEY 0.8 N, MN","Latitude":"46.18089","Longitude":"-94.36510","Snowdepth":"11.500","Units":"in","Rept_Date":"2019-12-10 13"},"coordinates":[674,6752]},{"type":"Point","properties":{"Station_ID":"WSKW3","Station_Nam":"WAUSAUKEE","Latitude":"45.38020","Longitude":"-87.95660","Snowdepth":"11.000","Units":"in","Rept_Date":"2019-12-10 14"},"coordinates":[2178,6283]},{"type":"Point","properties":{"Station_ID":"WLKW3","Station_Nam":"WHITE LAKE 1 SE","Latitude":"45.14520","Longitude":"-88.74160","Snowdepth":"11.000","Units":"in","Rept_Date":"2019-12-10 14"},"coordinates":[1994,6145]},{"type":"Point","properties":{"Station_ID":"WI-DN-1","Station_Nam":"BOYCEVILLE 3.3 N, WI","Latitude":"45.08913","Longitude":"-92.02760","Snowdepth":"11.000","Units":"in","Rept_Date":"2019-12-10 13"},"coordinates":[1223,6112]},{"type":"Point","properties":{"Station_ID":"WI-BR-2","Station_Nam":"CHETEK 2.0 SE, WI","Latitude":"45.29427","Longitude":"-91.62470","Snowdepth":"11.000","Units":"in","Rept_Date":"2019-12-10 13"},"coordinates":[1318,6233]},{"type":"Point","properties":{"Station_ID":"SULW3","Station_Nam":"SUMMIT LAKE","Latitude":"45.37880","Longitude":"-89.19410","Snowdepth":"11.000","Units":"in","Rept_Date":"2019-12-10 11"},"coordinates":[1888,6282]},{"type":"Point","properties":{"Station_ID":"STMM4","Station_Nam":"STAMBAUGH 2SSE","Latitude":"46.05550","Longitude":"-88.62780","Snowdepth":"11.000","Units":"in","Rept_Date":"2019-12-10 13"},"coordinates":[2021,6678]},{"type":"Point","properties":{"Station_ID":"SEBM5","Station_Nam":"SEBEKA","Latitude":"46.62540","Longitude":"-95.09670","Snowdepth":"11.000","Units":"in","Rept_Date":"2019-12-10 13"},"coordinates":[503,7012]},{"type":"Point","properties":{"Station_ID":"RBLW3","Station_Nam":"RIB LAKE","Latitude":"45.31530","Longitude":"-90.20640","Snowdepth":"11.000","Units":"in","Rept_Date":"2019-12-10 13"},"coordinates":[1650,6245]},{"type":"Point","properties":{"Station_ID":"NH-HL-19","Station_Nam":"BROOKLINE 2.1 SW, NH","Latitude":"42.71235","Longitude":"-71.69760","Snowdepth":"11.000","Units":"in","Rept_Date":"2019-12-10 14"},"coordinates":[5994,4721]},{"type":"Point","properties":{"Station_ID":"MQRW3","Station_Nam":"MINOCQUA","Latitude":"45.88630","Longitude":"-89.73220","Snowdepth":"11.000","Units":"in","Rept_Date":"2019-12-10 12"},"coordinates":[1762,6579]},{"type":"Point","properties":{"Station_ID":"MN-IT-17","Station_Nam":"GRAND RAPIDS 6.1 N, MN","Latitude":"47.31165","Longitude":"-93.55036","Snowdepth":"11.000","Units":"in","Rept_Date":"2019-12-10 13"},"coordinates":[866,7414]},{"type":"Point","properties":{"Station_ID":"MN-IT-1","Station_Nam":"GRAND RAPIDS 2.0 E, MN","Latitude":"47.22266","Longitude":"-93.49600","Snowdepth":"11.000","Units":"in","Rept_Date":"2019-12-10 12"},"coordinates":[878,7362]},{"type":"Point","properties":{"Station_ID":"MLCM5","Station_Nam":"MILACA","Latitude":"45.75320","Longitude":"-93.66170","Snowdepth":"11.000","Units":"in","Rept_Date":"2019-12-10 13"},"coordinates":[839,6501]},{"type":"Point","properties":{"Station_ID":"MIEM4","Station_Nam":"MICHIGAMME 3WNW","Latitude":"46.54530","Longitude":"-88.18000","Snowdepth":"11.000","Units":"in","Rept_Date":"2019-12-10 13"},"coordinates":[2126,6965]},{"type":"Point","properties":{"Station_ID":"ME-AR-18","Station_Nam":"NEW SWEDEN 4.9 NNW, ME","Latitude":"47.01080","Longitude":"-68.14390","Snowdepth":"11.000","Units":"in","Rept_Date":"2019-12-10 12"},"coordinates":[6828,7238]},{"type":"Point","properties":{"Station_ID":"MA-MD-47","Station_Nam":"WEST TOWNSEND 0.5 W, MA","Latitude":"42.67623","Longitude":"-71.74983","Snowdepth":"11.000","Units":"in","Rept_Date":"2019-12-10 11"},"coordinates":[5982,4700]},{"type":"Point","properties":{"Station_ID":"HOLW3","Station_Nam":"HOLCOMBE","Latitude":"45.22370","Longitude":"-91.12700","Snowdepth":"11.000","Units":"in","Rept_Date":"2019-12-10 13"},"coordinates":[1434,6191]},{"type":"Point","properties":{"Station_ID":"GRBM5","Station_Nam":"GRAND RAPIDS 12N","Latitude":"47.39800","Longitude":"-93.51330","Snowdepth":"11.000","Units":"in","Rept_Date":"2019-12-10 13"},"coordinates":[874,7464]},{"type":"Point","properties":{"Station_ID":"GDCM4","Station_Nam":"GARDEN CORNERS","Latitude":"45.89830","Longitude":"-86.54850","Snowdepth":"11.000","Units":"in","Rept_Date":"2019-12-10 13"},"coordinates":[2509,6586]},{"type":"Point","properties":{"Station_ID":"FEDM5","Station_Nam":"LEECH LAKE DAM","Latitude":"47.24670","Longitude":"-94.22280","Snowdepth":"11.000","Units":"in","Rept_Date":"2019-12-10 14"},"coordinates":[708,7376]},{"type":"Point","properties":{"Station_ID":"COTM5","Station_Nam":"COTTON","Latitude":"47.16870","Longitude":"-92.46290","Snowdepth":"11.000","Units":"in","Rept_Date":"2019-12-10 12"},"coordinates":[1121,7330]},{"type":"Point","properties":{"Station_ID":"CBVM1","Station_Nam":"CARRABASSETT VALLEY","Latitude":"45.08040","Longitude":"-70.30310","Snowdepth":"11.000","Units":"in","Rept_Date":"2019-12-10 12"},"coordinates":[6322,6107]},{"type":"Point","properties":{"Station_ID":"CBLW3","Station_Nam":"CUMBERLAND","Latitude":"45.53310","Longitude":"-92.02260","Snowdepth":"11.000","Units":"in","Rept_Date":"2019-12-10 13"},"coordinates":[1224,6372]},{"type":"Point","properties":{"Station_ID":"BRAM1","Station_Nam":"BRASSUA DAM","Latitude":"45.66020","Longitude":"-69.81190","Snowdepth":"11.000","Units":"in","Rept_Date":"2019-12-10 12"},"coordinates":[6437,6447]},{"type":"Point","properties":{"Station_ID":"BALW3","Station_Nam":"BALDWIN","Latitude":"44.96330","Longitude":"-92.39050","Snowdepth":"11.000","Units":"in","Rept_Date":"2019-12-10 13"},"coordinates":[1138,6039]},{"type":"Point","properties":{"Station_ID":"TRIQ6","Station_Nam":"TRIO LAKE","Latitude":"49.22880","Longitude":"-87.22920","Snowdepth":"10.710","Units":"in","Rept_Date":"2019-12-11 06"},"coordinates":[2349,8536]},{"type":"Point","properties":{"Station_ID":"SVBQ6","Station_Nam":"SAVANT BASE","Latitude":"50.28730","Longitude":"-90.65670","Snowdepth":"10.670","Units":"in","Rept_Date":"2019-12-11 06"},"coordinates":[1545,9156]},{"type":"Point","properties":{"Station_ID":"MN-IT-10","Station_Nam":"DEER RIVER 3.7 W, MN","Latitude":"47.33564","Longitude":"-93.87514","Snowdepth":"10.500","Units":"in","Rept_Date":"2019-12-10 14"},"coordinates":[789,7428]},{"type":"Point","properties":{"Station_ID":"MN-CW-29","Station_Nam":"BRAINERD 7.7 SSE, MN","Latitude":"46.24996","Longitude":"-94.14576","Snowdepth":"10.500","Units":"in","Rept_Date":"2019-12-10 13"},"coordinates":[726,6792]},{"type":"Point","properties":{"Station_ID":"SCRW3","Station_Nam":"ST CROIX FALLS","Latitude":"45.41170","Longitude":"-92.64660","Snowdepth":"10.000","Units":"in","Rept_Date":"2019-12-10 13"},"coordinates":[1078,6301]},{"type":"Point","properties":{"Station_ID":"RKWM1","Station_Nam":"MOOSEHEAD LAKE","Latitude":"45.58330","Longitude":"-69.71670","Snowdepth":"10.000","Units":"in","Rept_Date":"2019-12-10 12"},"coordinates":[6459,6402]},{"type":"Point","properties":{"Station_ID":"RHRW3","Station_Nam":"RHINELANDER WJFW TV-12","Latitude":"45.62220","Longitude":"-89.41000","Snowdepth":"10.000","Units":"in","Rept_Date":"2019-12-11 04"},"coordinates":[1837,6425]},{"type":"Point","properties":{"Station_ID":"RHI","Station_Nam":"RHINELANDER-ONEIDA COUNTY AIRPORT","Latitude":"45.63080","Longitude":"-89.46530","Snowdepth":"10.000","Units":"in","Rept_Date":"2019-12-10 12"},"coordinates":[1824,6430]},{"type":"Point","properties":{"Station_ID":"PHON6","Station_Nam":"PHOENICIA 2SW","Latitude":"42.06420","Longitude":"-74.34080","Snowdepth":"10.000","Units":"in","Rept_Date":"2019-12-10 11"},"coordinates":[5374,4341]},{"type":"Point","properties":{"Station_ID":"OTTM5","Station_Nam":"OTTERTAIL,MN","Latitude":"46.41670","Longitude":"-95.56670","Snowdepth":"10.000","Units":"in","Rept_Date":"2019-12-10 13"},"coordinates":[392,6890]},{"type":"Point","properties":{"Station_ID":"ONMM5","Station_Nam":"ONAMIA RANGER STATION","Latitude":"46.06770","Longitude":"-93.66660","Snowdepth":"10.000","Units":"in","Rept_Date":"2019-12-10 14"},"coordinates":[838,6685]},{"type":"Point","properties":{"Station_ID":"NYMM5","Station_Nam":"NEW YORK MILLS","Latitude":"46.50920","Longitude":"-95.37990","Snowdepth":"10.000","Units":"in","Rept_Date":"2019-12-10 13"},"coordinates":[436,6944]},{"type":"Point","properties":{"Station_ID":"NH-CS-10","Station_Nam":"RANDOLPH 1.4 NE, NH","Latitude":"44.38824","Longitude":"-71.26950","Snowdepth":"10.000","Units":"in","Rept_Date":"2019-12-10 12"},"coordinates":[6095,5702]},{"type":"Point","properties":{"Station_ID":"MN-IT-7","Station_Nam":"GRAND RAPIDS 6.2 SSW, MN","Latitude":"47.13687","Longitude":"-93.56660","Snowdepth":"10.000","Units":"in","Rept_Date":"2019-12-10 12"},"coordinates":[862,7311]},{"type":"Point","properties":{"Station_ID":"MN-IT-21","Station_Nam":"BOVEY 15.9 N, MN","Latitude":"47.52679","Longitude":"-93.40270","Snowdepth":"10.000","Units":"in","Rept_Date":"2019-12-10 09"},"coordinates":[900,7540]},{"type":"Point","properties":{"Station_ID":"MN-CV-40","Station_Nam":"EXCELSIOR 0.8 S, MN","Latitude":"44.88996","Longitude":"-93.56646","Snowdepth":"10.000","Units":"in","Rept_Date":"2019-12-10 13"},"coordinates":[862,5996]},{"type":"Point","properties":{"Station_ID":"LEIM5","Station_Nam":"ORR 3E","Latitude":"48.05810","Longitude":"-92.75220","Snowdepth":"10.000","Units":"in","Rept_Date":"2019-12-10 12"},"coordinates":[1053,7851]},{"type":"Point","properties":{"Station_ID":"HMYM1","Station_Nam":"HARMONY","Latitude":"44.94660","Longitude":"-69.54560","Snowdepth":"10.000","Units":"in","Rept_Date":"2019-12-10 11"},"coordinates":[6499,6029]},{"type":"Point","properties":{"Station_ID":"GHMN3","Station_Nam":"PINKHAM NOTCH","Latitude":"44.25800","Longitude":"-71.25250","Snowdepth":"10.000","Units":"in","Rept_Date":"2019-12-10 11"},"coordinates":[6099,5626]},{"type":"Point","properties":{"Station_ID":"DLSN6","Station_Nam":"DELANSON 2NE","Latitude":"42.76720","Longitude":"-74.17110","Snowdepth":"10.000","Units":"in","Rept_Date":"2019-12-10 12"},"coordinates":[5414,4753]},{"type":"Point","properties":{"Station_ID":"CORW3","Station_Nam":"CORNELL,WI","Latitude":"45.18330","Longitude":"-91.15000","Snowdepth":"10.000","Units":"in","Rept_Date":"2019-12-10 13"},"coordinates":[1429,6168]},{"type":"Point","properties":{"Station_ID":"CAN-NB-13","Station_Nam":"BATHURST 3.8 NW, CAN","Latitude":"47.64212","Longitude":"-65.68756","Snowdepth":"10.000","Units":"in","Rept_Date":"2019-12-10 11"},"coordinates":[7405,7607]},{"type":"Point","properties":{"Station_ID":"QLI","Station_Nam":"QLI","Latitude":"50.27080","Longitude":"-73.92280","Snowdepth":"9.685","Units":"in","Rept_Date":"2019-12-10 12"},"coordinates":[5472,9146]},{"type":"Point","properties":{"Station_ID":"NY-SR-22","Station_Nam":"GREENFIELD CENTER 1.6 W, NY","Latitude":"43.12684","Longitude":"-73.87860","Snowdepth":"9.500","Units":"in","Rept_Date":"2019-12-10 13"},"coordinates":[5482,4963]},{"type":"Point","properties":{"Station_ID":"NH-HL-48","Station_Nam":"GREENVILLE 1.1 ENE, NH","Latitude":"42.77674","Longitude":"-71.77990","Snowdepth":"9.500","Units":"in","Rept_Date":"2019-12-10 13"},"coordinates":[5975,4758]},{"type":"Point","properties":{"Station_ID":"MN-SH-10","Station_Nam":"BIG LAKE 5.6 NNE, MN","Latitude":"45.41409","Longitude":"-93.69190","Snowdepth":"9.500","Units":"in","Rept_Date":"2019-12-10 13"},"coordinates":[832,6303]},{"type":"Point","properties":{"Station_ID":"MA-HS-7","Station_Nam":"PLAINFIELD 2.2 SW, MA","Latitude":"42.49272","Longitude":"-72.94540","Snowdepth":"9.500","Units":"in","Rept_Date":"2019-12-10 14"},"coordinates":[5701,4592]},{"type":"Point","properties":{"Station_ID":"CAN-NB-105","Station_Nam":"SISSON BROOK 3.8 E, CAN","Latitude":"46.98305","Longitude":"-67.32532","Snowdepth":"9.300","Units":"in","Rept_Date":"2019-12-10 12"},"coordinates":[7020,7221]},{"type":"Point","properties":{"Station_ID":"SOCQ6","Station_Nam":"SOCKET LAKE","Latitude":"50.77870","Longitude":"-91.79300","Snowdepth":"9.250","Units":"in","Rept_Date":"2019-12-11 06"},"coordinates":[1278,9444]},{"type":"Point","properties":{"Station_ID":"ZNOM4","Station_Nam":"NORWAY","Latitude":"45.77810","Longitude":"-87.89560","Snowdepth":"9.000","Units":"in","Rept_Date":"2019-12-10 13"},"coordinates":[2193,6516]},{"type":"Point","properties":{"Station_ID":"WI-MT-4","Station_Nam":"WAUSAU 1.7 ENE, WI","Latitude":"44.96943","Longitude":"-89.61090","Snowdepth":"9.000","Units":"in","Rept_Date":"2019-12-10 13"},"coordinates":[1790,6042]},{"type":"Point","properties":{"Station_ID":"WI-CH-7","Station_Nam":"CHIPPEWA FALLS 1.2 E, WI","Latitude":"44.92920","Longitude":"-91.36730","Snowdepth":"9.000","Units":"in","Rept_Date":"2019-12-10 13"},"coordinates":[1378,6019]},{"type":"Point","properties":{"Station_ID":"WI-BR-17","Station_Nam":"CLAYTON 3.1 ENE, WI","Latitude":"45.34073","Longitude":"-92.11158","Snowdepth":"9.000","Units":"in","Rept_Date":"2019-12-10 13"},"coordinates":[1203,6260]},{"type":"Point","properties":{"Station_ID":"VANM1","Station_Nam":"VAN BUREN","Latitude":"47.16600","Longitude":"-67.93900","Snowdepth":"9.000","Units":"in","Rept_Date":"2019-12-10 12"},"coordinates":[6876,7328]},{"type":"Point","properties":{"Station_ID":"STIM4","Station_Nam":"ST IGNACE","Latitude":"45.86080","Longitude":"-84.71960","Snowdepth":"9.000","Units":"in","Rept_Date":"2019-12-10 12"},"coordinates":[2938,6564]},{"type":"Point","properties":{"Station_ID":"SHHN6","Station_Nam":"SCHOHARIE VILLAGE","Latitude":"42.66500","Longitude":"-74.30360","Snowdepth":"9.000","Units":"in","Rept_Date":"2019-12-10 12"},"coordinates":[5383,4693]},{"type":"Point","properties":{"Station_ID":"SBEW3","Station_Nam":"EXP. FARM","Latitude":"44.86670","Longitude":"-87.33330","Snowdepth":"9.000","Units":"in","Rept_Date":"2019-12-10 13"},"coordinates":[2325,5982]},{"type":"Point","properties":{"Station_ID":"OWEW3","Station_Nam":"OWEN 2N","Latitude":"44.98010","Longitude":"-90.55440","Snowdepth":"9.000","Units":"in","Rept_Date":"2019-12-10 13"},"coordinates":[1569,6049]},{"type":"Point","properties":{"Station_ID":"NY-SR-29","Station_Nam":"CLIFTON PARK 2.7 S, NY","Latitude":"42.82126","Longitude":"-73.78545","Snowdepth":"9.000","Units":"in","Rept_Date":"2019-12-10 11"},"coordinates":[5504,4785]},{"type":"Point","properties":{"Station_ID":"ND-CS-4","Station_Nam":"FARGO 3.0 NE, ND","Latitude":"46.91101","Longitude":"-96.77970","Snowdepth":"9.000","Units":"in","Rept_Date":"2019-12-10 14"},"coordinates":[108,7179]},{"type":"Point","properties":{"Station_ID":"MRAM4","Station_Nam":"MORAN","Latitude":"45.99030","Longitude":"-84.83610","Snowdepth":"9.000","Units":"in","Rept_Date":"2019-12-10 13"},"coordinates":[2911,6640]},{"type":"Point","properties":{"Station_ID":"MNOW3","Station_Nam":"CEDAR FALLS HYDRO PLANT","Latitude":"44.93550","Longitude":"-91.88850","Snowdepth":"9.000","Units":"in","Rept_Date":"2019-12-10 13"},"coordinates":[1256,6022]},{"type":"Point","properties":{"Station_ID":"MN6JKRHL","Station_Nam":"TOFTE 0.6 SSW","Latitude":"47.56557","Longitude":"-90.84117","Snowdepth":"9.000","Units":"in","Rept_Date":"2019-12-10 13"},"coordinates":[1501,7562]},{"type":"Point","properties":{"Station_ID":"MN-SR-9","Station_Nam":"SARTELL 1.4 SSE, MN","Latitude":"45.60179","Longitude":"-94.19910","Snowdepth":"9.000","Units":"in","Rept_Date":"2019-12-10 13"},"coordinates":[713,6413]},{"type":"Point","properties":{"Station_ID":"MN-SH-985","Station_Nam":"PRINCETON 3.3 WSW, MN","Latitude":"45.55211","Longitude":"-93.64481","Snowdepth":"9.000","Units":"in","Rept_Date":"2019-12-10 10"},"coordinates":[843,6383]},{"type":"Point","properties":{"Station_ID":"MN-MR-4","Station_Nam":"LITTLE FALLS 1.2 SW, MN","Latitude":"45.96886","Longitude":"-94.37720","Snowdepth":"9.000","Units":"in","Rept_Date":"2019-12-10 13"},"coordinates":[672,6628]},{"type":"Point","properties":{"Station_ID":"MN-MR-13","Station_Nam":"LITTLE FALLS 8.0 NE, MN","Latitude":"46.06785","Longitude":"-94.24789","Snowdepth":"9.000","Units":"in","Rept_Date":"2019-12-10 13"},"coordinates":[702,6685]},{"type":"Point","properties":{"Station_ID":"MN-CK-6","Station_Nam":"GRAND MARAIS 4.4 W, MN","Latitude":"47.74865","Longitude":"-90.43760","Snowdepth":"9.000","Units":"in","Rept_Date":"2019-12-10 13"},"coordinates":[1596,7670]},{"type":"Point","properties":{"Station_ID":"MN-CK-18","Station_Nam":"GRAND MARAIS 4.4 WSW, MN","Latitude":"47.74462","Longitude":"-90.43796","Snowdepth":"9.000","Units":"in","Rept_Date":"2019-12-10 13"},"coordinates":[1596,7667]},{"type":"Point","properties":{"Station_ID":"MI-MC-4","Station_Nam":"ST. IGNACE 0.5SE, MI","Latitude":"45.86057","Longitude":"-84.71980","Snowdepth":"9.000","Units":"in","Rept_Date":"2019-12-10 12"},"coordinates":[2938,6564]},{"type":"Point","properties":{"Station_ID":"MI-DL-4","Station_Nam":"GLADSTONE 2.1 SW, MI","Latitude":"45.83218","Longitude":"-87.05727","Snowdepth":"9.000","Units":"in","Rept_Date":"2019-12-10 12"},"coordinates":[2389,6547]},{"type":"Point","properties":{"Station_ID":"MEDW3","Station_Nam":"MEDFORD","Latitude":"45.13080","Longitude":"-90.34390","Snowdepth":"9.000","Units":"in","Rept_Date":"2019-12-10 14"},"coordinates":[1618,6137]},{"type":"Point","properties":{"Station_ID":"ME-SM-10","Station_Nam":"NORTH NEW PORTLAND 0.3 WSW, ME","Latitude":"44.92353","Longitude":"-70.02788","Snowdepth":"9.000","Units":"in","Rept_Date":"2019-12-10 12"},"coordinates":[6386,6015]},{"type":"Point","properties":{"Station_ID":"ME-PN-45","Station_Nam":"MILLINOCKET 2.7 ESE, ME","Latitude":"45.65002","Longitude":"-68.64472","Snowdepth":"9.000","Units":"in","Rept_Date":"2019-12-10 12"},"coordinates":[6711,6441]},{"type":"Point","properties":{"Station_ID":"ME-AR-15","Station_Nam":"PRESQUE ISLE 1.3 WSW, ME","Latitude":"46.67960","Longitude":"-68.01270","Snowdepth":"9.000","Units":"in","Rept_Date":"2019-12-10 12"},"coordinates":[6859,7044]},{"type":"Point","properties":{"Station_ID":"MA-WR-22","Station_Nam":"FITCHBURG 2.0 NNE, MA","Latitude":"42.61671","Longitude":"-71.80100","Snowdepth":"9.000","Units":"in","Rept_Date":"2019-12-10 13"},"coordinates":[5970,4665]},{"type":"Point","properties":{"Station_ID":"LNGM5","Station_Nam":"LONG PRAIRIE","Latitude":"45.96460","Longitude":"-94.88920","Snowdepth":"9.000","Units":"in","Rept_Date":"2019-12-10 12"},"coordinates":[551,6625]},{"type":"Point","properties":{"Station_ID":"JIMW3","Station_Nam":"JIM FALLS 3NW","Latitude":"45.08270","Longitude":"-91.33130","Snowdepth":"9.000","Units":"in","Rept_Date":"2019-12-10 12"},"coordinates":[1386,6109]},{"type":"Point","properties":{"Station_ID":"GRFN8","Station_Nam":"UNIVERSITY","Latitude":"47.93330","Longitude":"-97.08330","Snowdepth":"9.000","Units":"in","Rept_Date":"2019-12-11 06"},"coordinates":[36,7778]},{"type":"Point","properties":{"Station_ID":"FORM5","Station_Nam":"FOREST LAKE 5NE","Latitude":"45.33170","Longitude":"-92.89820","Snowdepth":"9.000","Units":"in","Rept_Date":"2019-12-10 13"},"coordinates":[1019,6254]},{"type":"Point","properties":{"Station_ID":"FCHM3","Station_Nam":"FITCHBURG COOP","Latitude":"42.61680","Longitude":"-71.80170","Snowdepth":"9.000","Units":"in","Rept_Date":"2019-12-10 13"},"coordinates":[5970,4665]},{"type":"Point","properties":{"Station_ID":"ELKM5","Station_Nam":"ELK RIVER","Latitude":"45.30470","Longitude":"-93.58420","Snowdepth":"9.000","Units":"in","Rept_Date":"2019-12-10 13"},"coordinates":[858,6239]},{"type":"Point","properties":{"Station_ID":"DFXM1","Station_Nam":"DOVER-FOXCROFT","Latitude":"45.18720","Longitude":"-69.18350","Snowdepth":"9.000","Units":"in","Rept_Date":"2019-12-10 12"},"coordinates":[6584,6170]},{"type":"Point","properties":{"Station_ID":"COKM5","Station_Nam":"COOK","Latitude":"47.85060","Longitude":"-92.69250","Snowdepth":"9.000","Units":"in","Rept_Date":"2019-12-10 12"},"coordinates":[1067,7729]},{"type":"Point","properties":{"Station_ID":"CARM1","Station_Nam":"CARIBOU WFO","Latitude":"46.86810","Longitude":"-68.01250","Snowdepth":"9.000","Units":"in","Rept_Date":"2019-12-11 05"},"coordinates":[6859,7154]},{"type":"Point","properties":{"Station_ID":"CAR","Station_Nam":"CARIBOU, ME","Latitude":"46.86830","Longitude":"-68.01360","Snowdepth":"9.000","Units":"in","Rept_Date":"2019-12-10 12"},"coordinates":[6859,7154]},{"type":"Point","properties":{"Station_ID":"AUW","Station_Nam":"WAUSAU MUNICIPAL AIRPORT","Latitude":"44.92580","Longitude":"-89.62560","Snowdepth":"9.000","Units":"in","Rept_Date":"2019-12-10 12"},"coordinates":[1787,6017]},{"type":"Point","properties":{"Station_ID":"ABNM3","Station_Nam":"ASHBURNHAM NORTH","Latitude":"42.66170","Longitude":"-71.93590","Snowdepth":"9.000","Units":"in","Rept_Date":"2019-12-10 12"},"coordinates":[5938,4691]},{"type":"Point","properties":{"Station_ID":"QWE","Station_Nam":"QWE","Latitude":"47.84610","Longitude":"-73.80670","Snowdepth":"8.819","Units":"in","Rept_Date":"2019-12-10 12"},"coordinates":[5499,7727]},{"type":"Point","properties":{"Station_ID":"QIQ","Station_Nam":"QIQ","Latitude":"49.82390","Longitude":"-68.54310","Snowdepth":"8.819","Units":"in","Rept_Date":"2019-12-10 12"},"coordinates":[6735,8885]},{"type":"Point","properties":{"Station_ID":"WI-CH-3","Station_Nam":"CORNELL 4.1 W, WI","Latitude":"45.17024","Longitude":"-91.23610","Snowdepth":"8.500","Units":"in","Rept_Date":"2019-12-10 14"},"coordinates":[1409,6160]},{"type":"Point","properties":{"Station_ID":"NY-SC-20","Station_Nam":"ROTTERDAM 0.9 NW, NY","Latitude":"42.78862","Longitude":"-73.96671","Snowdepth":"8.500","Units":"in","Rept_Date":"2019-12-10 14"},"coordinates":[5462,4765]},{"type":"Point","properties":{"Station_ID":"NY-HR-18","Station_Nam":"SALISBURY CENTER 1.8 NW, NY","Latitude":"43.16260","Longitude":"-74.80880","Snowdepth":"8.500","Units":"in","Rept_Date":"2019-12-10 11"},"coordinates":[5264,4984]},{"type":"Point","properties":{"Station_ID":"ND-CS-25","Station_Nam":"FARGO 2.1 N, ND","Latitude":"46.90816","Longitude":"-96.77937","Snowdepth":"8.500","Units":"in","Rept_Date":"2019-12-10 14"},"coordinates":[108,7177]},{"type":"Point","properties":{"Station_ID":"MN-WK-5","Station_Nam":"WOLVERTON 1.1 ENE, MN","Latitude":"46.56920","Longitude":"-96.71540","Snowdepth":"8.500","Units":"in","Rept_Date":"2019-12-10 13"},"coordinates":[123,6979]},{"type":"Point","properties":{"Station_ID":"ND-GF-8","Station_Nam":"GRAND FORKS 2.5 SE, ND","Latitude":"47.89136","Longitude":"-97.03386","Snowdepth":"8.400","Units":"in","Rept_Date":"2019-12-10 13"},"coordinates":[48,7753]},{"type":"Point","properties":{"Station_ID":"KABQ6","Station_Nam":"CAB LAKE","Latitude":"49.59950","Longitude":"-89.17990","Snowdepth":"8.070","Units":"in","Rept_Date":"2019-12-11 06"},"coordinates":[1891,8753]},{"type":"Point","properties":{"Station_ID":"WUNW3","Station_Nam":"WAUSAU-NORTHEAST","Latitude":"44.97310","Longitude":"-89.61690","Snowdepth":"8.000","Units":"in","Rept_Date":"2019-12-10 11"},"coordinates":[1789,6044]},{"type":"Point","properties":{"Station_ID":"WI-MT-14","Station_Nam":"MOSINEE 2.7 WSW, WI","Latitude":"44.77240","Longitude":"-89.73441","Snowdepth":"8.000","Units":"in","Rept_Date":"2019-12-10 13"},"coordinates":[1761,5927]},{"type":"Point","properties":{"Station_ID":"WI-MT-1","Station_Nam":"SCHOFIELD 3.3 E, WI","Latitude":"44.91806","Longitude":"-89.54470","Snowdepth":"8.000","Units":"in","Rept_Date":"2019-12-10 13"},"coordinates":[1806,6012]},{"type":"Point","properties":{"Station_ID":"VT-WH-16","Station_Nam":"WILMINGTON 0.6 WNW, VT","Latitude":"42.87064","Longitude":"-72.88180","Snowdepth":"8.000","Units":"in","Rept_Date":"2019-12-10 11"},"coordinates":[5716,4813]},{"type":"Point","properties":{"Station_ID":"STC","Station_Nam":"ST. CLOUD REGIONAL AIRPORT","Latitude":"45.54330","Longitude":"-94.05140","Snowdepth":"8.000","Units":"in","Rept_Date":"2019-12-11 00"},"coordinates":[748,6378]},{"type":"Point","properties":{"Station_ID":"SCSM5","Station_Nam":"ST CLOUD STATE","Latitude":"45.55100","Longitude":"-94.14950","Snowdepth":"8.000","Units":"in","Rept_Date":"2019-12-10 12"},"coordinates":[725,6383]},{"type":"Point","properties":{"Station_ID":"RSTW3","Station_Nam":"ROSHOLT","Latitude":"44.62710","Longitude":"-89.30600","Snowdepth":"8.000","Units":"in","Rept_Date":"2019-12-10 11"},"coordinates":[1862,5842]},{"type":"Point","properties":{"Station_ID":"RRLW3","Station_Nam":"MERRILL,WI","Latitude":"45.17860","Longitude":"-89.66170","Snowdepth":"8.000","Units":"in","Rept_Date":"2019-12-10 14"},"coordinates":[1778,6165]},{"type":"Point","properties":{"Station_ID":"ROWM3","Station_Nam":"ROWE 3NE","Latitude":"42.73500","Longitude":"-72.86920","Snowdepth":"8.000","Units":"in","Rept_Date":"2019-12-10 12"},"coordinates":[5719,4734]},{"type":"Point","properties":{"Station_ID":"PEKN6","Station_Nam":"PECK LAKE","Latitude":"43.11500","Longitude":"-74.42360","Snowdepth":"8.000","Units":"in","Rept_Date":"2019-12-10 13"},"coordinates":[5355,4956]},{"type":"Point","properties":{"Station_ID":"ND-CS-1","Station_Nam":"WEST FARGO 3.8 SSE, ND","Latitude":"46.82750","Longitude":"-96.85280","Snowdepth":"8.000","Units":"in","Rept_Date":"2019-12-10 13"},"coordinates":[91,7130]},{"type":"Point","properties":{"Station_ID":"MTQM4","Station_Nam":"MANISTIQUE WWTP","Latitude":"45.95120","Longitude":"-86.25130","Snowdepth":"8.000","Units":"in","Rept_Date":"2019-12-10 12"},"coordinates":[2579,6617]},{"type":"Point","properties":{"Station_ID":"MRLV1","Station_Nam":"MARLBORO","Latitude":"42.86000","Longitude":"-72.72000","Snowdepth":"8.000","Units":"in","Rept_Date":"2019-12-10 12"},"coordinates":[5754,4807]},{"type":"Point","properties":{"Station_ID":"MN-CY-1","Station_Nam":"MOORHEAD 2.0 N, MN","Latitude":"46.88766","Longitude":"-96.74800","Snowdepth":"8.000","Units":"in","Rept_Date":"2019-12-10 13"},"coordinates":[115,7165]},{"type":"Point","properties":{"Station_ID":"MN-CG-16","Station_Nam":"NORTH BRANCH 1.3 NNW, MN","Latitude":"45.53121","Longitude":"-92.97110","Snowdepth":"8.000","Units":"in","Rept_Date":"2019-12-10 12"},"coordinates":[1002,6371]},{"type":"Point","properties":{"Station_ID":"MN-AA-76","Station_Nam":"NOWTHEN 2.9 SSE, MN","Latitude":"45.30360","Longitude":"-93.42620","Snowdepth":"8.000","Units":"in","Rept_Date":"2019-12-10 11"},"coordinates":[895,6238]},{"type":"Point","properties":{"Station_ID":"MA-WR-54","Station_Nam":"BARRE 1.4 NNE, MA","Latitude":"42.44082","Longitude":"-72.09591","Snowdepth":"8.000","Units":"in","Rept_Date":"2019-12-10 12"},"coordinates":[5901,4562]},{"type":"Point","properties":{"Station_ID":"LGRN8","Station_Nam":"LIDGERWOOD,ND","Latitude":"46.06670","Longitude":"-97.16670","Snowdepth":"8.000","Units":"in","Rept_Date":"2019-12-10 13"},"coordinates":[17,6685]},{"type":"Point","properties":{"Station_ID":"LBKV1","Station_Nam":"LYE BROOK","Latitude":"43.05000","Longitude":"-73.03330","Snowdepth":"8.000","Units":"in","Rept_Date":"2019-12-11 06"},"coordinates":[5681,4918]},{"type":"Point","properties":{"Station_ID":"FDRN8","Station_Nam":"FARGO 3S","Latitude":"46.82930","Longitude":"-96.79620","Snowdepth":"8.000","Units":"in","Rept_Date":"2019-12-11 02"},"coordinates":[104,7131]},{"type":"Point","properties":{"Station_ID":"FAR","Station_Nam":"HECTOR INTERNATIONAL ARPT","Latitude":"46.91560","Longitude":"-96.81440","Snowdepth":"8.000","Units":"in","Rept_Date":"2019-12-11 00"},"coordinates":[100,7182]},{"type":"Point","properties":{"Station_ID":"ELWW3","Station_Nam":"ELLSWORTH 1E","Latitude":"44.73030","Longitude":"-92.45860","Snowdepth":"8.000","Units":"in","Rept_Date":"2019-12-10 13"},"coordinates":[1122,5902]},{"type":"Point","properties":{"Station_ID":"ELRW3","Station_Nam":"EAU CLAIRE 3SW","Latitude":"44.78780","Longitude":"-91.51650","Snowdepth":"8.000","Units":"in","Rept_Date":"2019-12-11 06"},"coordinates":[1343,5936]},{"type":"Point","properties":{"Station_ID":"CHPW3","Station_Nam":"CHIPPEWA FALLS","Latitude":"44.92770","Longitude":"-91.40810","Snowdepth":"8.000","Units":"in","Rept_Date":"2019-12-10 14"},"coordinates":[1368,6018]},{"type":"Point","properties":{"Station_ID":"BREW3","Station_Nam":"SURING","Latitude":"44.99580","Longitude":"-88.37860","Snowdepth":"8.000","Units":"in","Rept_Date":"2019-12-10 14"},"coordinates":[2079,6058]},{"type":"Point","properties":{"Station_ID":"41.8723_080.7363","Station_Nam":"Edgewood  Trained Spotter (X4190807)","Latitude":"41.87235","Longitude":"-80.73632","Snowdepth":"8.000","Units":"in","Rept_Date":"2019-12-11 03"},"coordinates":[3873,4229]},{"type":"Point","properties":{"Station_ID":"MRL","Station_Nam":"MRL","Latitude":"51.28330","Longitude":"-68.84060","Snowdepth":"7.835","Units":"in","Rept_Date":"2019-12-10 12"},"coordinates":[6665,9739]},{"type":"Point","properties":{"Station_ID":"FTHQ6","Station_Nam":"FORT HOPE","Latitude":"51.55820","Longitude":"-87.90510","Snowdepth":"7.680","Units":"in","Rept_Date":"2019-12-11 06"},"coordinates":[2191,9900]},{"type":"Point","properties":{"Station_ID":"WI-PC-5","Station_Nam":"RIVER FALLS 1.2 SSW, WI","Latitude":"44.84032","Longitude":"-92.63500","Snowdepth":"7.500","Units":"in","Rept_Date":"2019-12-10 13"},"coordinates":[1080,5967]},{"type":"Point","properties":{"Station_ID":"VT-WH-29","Station_Nam":"BRATTLEBORO 0.7 S, VT","Latitude":"42.84030","Longitude":"-72.55580","Snowdepth":"7.500","Units":"in","Rept_Date":"2019-12-10 12"},"coordinates":[5793,4796]},{"type":"Point","properties":{"Station_ID":"NY-HR-12","Station_Nam":"DOLGEVILLE 1.9 NW, NY","Latitude":"43.12320","Longitude":"-74.79740","Snowdepth":"7.500","Units":"in","Rept_Date":"2019-12-10 12"},"coordinates":[5267,4961]},{"type":"Point","properties":{"Station_ID":"MN-DK-53","Station_Nam":"LAKEVILLE 3.8 ENE, MN","Latitude":"44.70423","Longitude":"-93.18460","Snowdepth":"7.500","Units":"in","Rept_Date":"2019-12-10 12"},"coordinates":[951,5887]},{"type":"Point","properties":{"Station_ID":"MN-BN-7","Station_Nam":"SAINT CLOUD 1.1 NE, MN","Latitude":"45.56440","Longitude":"-94.12310","Snowdepth":"7.500","Units":"in","Rept_Date":"2019-12-10 14"},"coordinates":[731,6391]},{"type":"Point","properties":{"Station_ID":"MN-AA-56","Station_Nam":"BLAINE 2.2 NNW, MN","Latitude":"45.19838","Longitude":"-93.22812","Snowdepth":"7.500","Units":"in","Rept_Date":"2019-12-10 13"},"coordinates":[941,6176]},{"type":"Point","properties":{"Station_ID":"MA-FR-13","Station_Nam":"CONWAY 2.9 NW, MA","Latitude":"42.54419","Longitude":"-72.72743","Snowdepth":"7.500","Units":"in","Rept_Date":"2019-12-10 12"},"coordinates":[5753,4622]},{"type":"Point","properties":{"Station_ID":"CAN-NB-97","Station_Nam":"NEW MARYLAND 0.6 NW, CAN","Latitude":"45.90112","Longitude":"-66.68739","Snowdepth":"7.500","Units":"in","Rept_Date":"2019-12-10 11"},"coordinates":[7170,6588]},{"type":"Point","properties":{"Station_ID":"CATQ6","Station_Nam":"CAT LAKE","Latitude":"51.72690","Longitude":"-91.82210","Snowdepth":"7.200","Units":"in","Rept_Date":"2019-12-11 06"},"coordinates":[1271,9999]},{"type":"Point","properties":{"Station_ID":"CT-LT-15","Station_Nam":"COLEBROOK 1.0 NE, CT","Latitude":"42.00200","Longitude":"-73.08250","Snowdepth":"7.100","Units":"in","Rept_Date":"2019-12-10 12"},"coordinates":[5669,4305]},{"type":"Point","properties":{"Station_ID":"WMRM5","Station_Nam":"WILLMAR 5N","Latitude":"45.19010","Longitude":"-95.05860","Snowdepth":"7.000","Units":"in","Rept_Date":"2019-12-10 12"},"coordinates":[512,6172]},{"type":"Point","properties":{"Station_ID":"WLKM5","Station_Nam":"AH-GWAH-CHING","Latitude":"47.15000","Longitude":"-94.65000","Snowdepth":"7.000","Units":"in","Rept_Date":"2019-12-10 12"},"coordinates":[608,7319]},{"type":"Point","properties":{"Station_ID":"WI-PT-8","Station_Nam":"RUDOLPH 2.1 NNE, WI","Latitude":"44.52553","Longitude":"-89.78677","Snowdepth":"7.000","Units":"in","Rept_Date":"2019-12-10 11"},"coordinates":[1749,5782]},{"type":"Point","properties":{"Station_ID":"WI-DR-5","Station_Nam":"ELLISON BAY 2.2 E, WI","Latitude":"45.25750","Longitude":"-87.02670","Snowdepth":"7.000","Units":"in","Rept_Date":"2019-12-10 13"},"coordinates":[2397,6211]},{"type":"Point","properties":{"Station_ID":"WI-DN-5","Station_Nam":"ELK MOUND 1.3 NE, WI","Latitude":"44.88627","Longitude":"-91.66680","Snowdepth":"7.000","Units":"in","Rept_Date":"2019-12-10 13"},"coordinates":[1308,5994]},{"type":"Point","properties":{"Station_ID":"WI-DN-15","Station_Nam":"MENOMONIE 0.9 NW, WI","Latitude":"44.89832","Longitude":"-91.92398","Snowdepth":"7.000","Units":"in","Rept_Date":"2019-12-10 13"},"coordinates":[1247,6001]},{"type":"Point","properties":{"Station_ID":"WASW3","Station_Nam":"WASHINGTON IS","Latitude":"45.35800","Longitude":"-86.89110","Snowdepth":"7.000","Units":"in","Rept_Date":"2019-12-10 13"},"coordinates":[2428,6270]},{"type":"Point","properties":{"Station_ID":"STRW3","Station_Nam":"STRATFORD 1NW","Latitude":"44.81750","Longitude":"-90.08990","Snowdepth":"7.000","Units":"in","Rept_Date":"2019-12-10 12"},"coordinates":[1678,5953]},{"type":"Point","properties":{"Station_ID":"SSMM4","Station_Nam":"SAULT STE MARIE","Latitude":"46.48660","Longitude":"-84.40250","Snowdepth":"7.000","Units":"in","Rept_Date":"2019-12-10 13"},"coordinates":[3013,6931]},{"type":"Point","properties":{"Station_ID":"SIBI4","Station_Nam":"SIBLEY","Latitude":"43.40470","Longitude":"-95.74830","Snowdepth":"7.000","Units":"in","Rept_Date":"2019-12-10 13"},"coordinates":[350,5126]},{"type":"Point","properties":{"Station_ID":"SHHW3","Station_Nam":"SHAWANO 2SSW","Latitude":"44.76310","Longitude":"-88.61830","Snowdepth":"7.000","Units":"in","Rept_Date":"2019-12-10 14"},"coordinates":[2023,5922]},{"type":"Point","properties":{"Station_ID":"PSHW3","Station_Nam":"PESHTIGO","Latitude":"45.02810","Longitude":"-87.73560","Snowdepth":"7.000","Units":"in","Rept_Date":"2019-12-10 13"},"coordinates":[2230,6077]},{"type":"Point","properties":{"Station_ID":"MSP","Station_Nam":"MINNEAPOLIS-ST PAUL INTL AP","Latitude":"44.88310","Longitude":"-93.22890","Snowdepth":"7.000","Units":"in","Rept_Date":"2019-12-11 00"},"coordinates":[941,5992]},{"type":"Point","properties":{"Station_ID":"MRIW3","Station_Nam":"MARINETTE","Latitude":"45.09830","Longitude":"-87.62360","Snowdepth":"7.000","Units":"in","Rept_Date":"2019-12-10 13"},"coordinates":[2257,6118]},{"type":"Point","properties":{"Station_ID":"MNP0GYWA","Station_Nam":"WALKER 2.0 SSE","Latitude":"47.07505","Longitude":"-94.56757","Snowdepth":"7.000","Units":"in","Rept_Date":"2019-12-10 11"},"coordinates":[627,7275]},{"type":"Point","properties":{"Station_ID":"MNJLCQKL","Station_Nam":"KIMBALL 2.6 NNW","Latitude":"45.34917","Longitude":"-94.31303","Snowdepth":"7.000","Units":"in","Rept_Date":"2019-12-10 12"},"coordinates":[687,6265]},{"type":"Point","properties":{"Station_ID":"MNHZK4CP","Station_Nam":"WATERTOWN 0.8 NW","Latitude":"44.97073","Longitude":"-93.85906","Snowdepth":"7.000","Units":"in","Rept_Date":"2019-12-10 13"},"coordinates":[793,6043]},{"type":"Point","properties":{"Station_ID":"MN228YHJ","Station_Nam":"RICE 2.8 ESE","Latitude":"45.73609","Longitude":"-94.17230","Snowdepth":"7.000","Units":"in","Rept_Date":"2019-12-10 13"},"coordinates":[720,6491]},{"type":"Point","properties":{"Station_ID":"MN0GWSNW","Station_Nam":"LAKE ELMO 2.9 SE","Latitude":"44.97220","Longitude":"-92.83065","Snowdepth":"7.000","Units":"in","Rept_Date":"2019-12-10 13"},"coordinates":[1035,6044]},{"type":"Point","properties":{"Station_ID":"MN-MC-16","Station_Nam":"HUTCHINSON 0.1 ENE, MN","Latitude":"44.88633","Longitude":"-94.37503","Snowdepth":"7.000","Units":"in","Rept_Date":"2019-12-10 13"},"coordinates":[672,5994]},{"type":"Point","properties":{"Station_ID":"MN-HN-181","Station_Nam":"MINNEAPOLIS 0.4 NE, MN","Latitude":"44.96708","Longitude":"-93.26222","Snowdepth":"7.000","Units":"in","Rept_Date":"2019-12-10 13"},"coordinates":[933,6041]},{"type":"Point","properties":{"Station_ID":"MN-CV-8","Station_Nam":"WATERTOWN 0.5 NNW, MN","Latitude":"44.96631","Longitude":"-93.84890","Snowdepth":"7.000","Units":"in","Rept_Date":"2019-12-10 10"},"coordinates":[796,6040]},{"type":"Point","properties":{"Station_ID":"MN-CV-22","Station_Nam":"VICTORIA 1.6 WSW, MN","Latitude":"44.85670","Longitude":"-93.68640","Snowdepth":"7.000","Units":"in","Rept_Date":"2019-12-10 13"},"coordinates":[834,5976]},{"type":"Point","properties":{"Station_ID":"MN-BK-10","Station_Nam":"DETROIT LAKES 5.7 N, MN","Latitude":"46.88666","Longitude":"-95.84444","Snowdepth":"7.000","Units":"in","Rept_Date":"2019-12-10 10"},"coordinates":[327,7165]},{"type":"Point","properties":{"Station_ID":"MI-OT-17","Station_Nam":"GAYLORD 4.1 S, MI","Latitude":"44.96388","Longitude":"-84.68467","Snowdepth":"7.000","Units":"in","Rept_Date":"2019-12-10 12"},"coordinates":[2946,6039]},{"type":"Point","properties":{"Station_ID":"LILM1","Station_Nam":"LILLE","Latitude":"47.27770","Longitude":"-68.10520","Snowdepth":"7.000","Units":"in","Rept_Date":"2019-12-10 12"},"coordinates":[6837,7394]},{"type":"Point","properties":{"Station_ID":"KMSP","Station_Nam":"MINNEAPOLIS-ST PAUL INTERNATIONAL","Latitude":"44.86666","Longitude":"-93.21666","Snowdepth":"7.000","Units":"in","Rept_Date":"2019-12-10 18"},"coordinates":[944,5982]},{"type":"Point","properties":{"Station_ID":"KIMM5","Station_Nam":"KIMBALL 3N","Latitude":"45.35330","Longitude":"-94.30560","Snowdepth":"7.000","Units":"in","Rept_Date":"2019-12-10 12"},"coordinates":[688,6267]},{"type":"Point","properties":{"Station_ID":"JUDW3","Station_Nam":"FISH CREEK 3S - JUDDVILLE","Latitude":"45.08920","Longitude":"-87.25890","Snowdepth":"7.000","Units":"in","Rept_Date":"2019-12-10 14"},"coordinates":[2342,6112]},{"type":"Point","properties":{"Station_ID":"IA-DK-11","Station_Nam":"SPIRIT LAKE 1.7 SW, IA","Latitude":"43.40694","Longitude":"-95.13694","Snowdepth":"7.000","Units":"in","Rept_Date":"2019-12-10 14"},"coordinates":[493,5127]},{"type":"Point","properties":{"Station_ID":"GLDM5","Station_Nam":"GAYLORD","Latitude":"44.55640","Longitude":"-94.22070","Snowdepth":"7.000","Units":"in","Rept_Date":"2019-12-10 15"},"coordinates":[708,5800]},{"type":"Point","properties":{"Station_ID":"AVLV1","Station_Nam":"AVERILL","Latitude":"45.00570","Longitude":"-71.69030","Snowdepth":"7.000","Units":"in","Rept_Date":"2019-12-10 13"},"coordinates":[5996,6064]},{"type":"Point","properties":{"Station_ID":"ANJM4","Station_Nam":"SNOW PAID OBSERVER FOR KANJ","Latitude":"46.48670","Longitude":"-84.40260","Snowdepth":"7.000","Units":"in","Rept_Date":"2019-12-10 18"},"coordinates":[3013,6931]},{"type":"Point","properties":{"Station_ID":"ANJ","Station_Nam":"SAULT STE MARIE","Latitude":"46.46670","Longitude":"-84.36670","Snowdepth":"7.000","Units":"in","Rept_Date":"2019-12-11 00"},"coordinates":[3021,6919]},{"type":"Point","properties":{"Station_ID":"ANDM1","Station_Nam":"ANDOVER 2","Latitude":"44.65300","Longitude":"-70.79410","Snowdepth":"7.000","Units":"in","Rept_Date":"2019-12-10 11"},"coordinates":[6206,5857]},{"type":"Point","properties":{"Station_ID":"QGA","Station_Nam":"QGA","Latitude":"47.25640","Longitude":"-73.73810","Snowdepth":"6.693","Units":"in","Rept_Date":"2019-12-10 12"},"coordinates":[5515,7381]},{"type":"Point","properties":{"Station_ID":"WI-DR-6","Station_Nam":"SISTER BAY 1.3 NNE, WI","Latitude":"45.20296","Longitude":"-87.11326","Snowdepth":"6.500","Units":"in","Rept_Date":"2019-12-10 13"},"coordinates":[2376,6179]},{"type":"Point","properties":{"Station_ID":"NY-MG-1","Station_Nam":"FORT PLAIN 0.2 SE, NY","Latitude":"42.92999","Longitude":"-74.62640","Snowdepth":"6.500","Units":"in","Rept_Date":"2019-12-10 12"},"coordinates":[5307,4848]},{"type":"Point","properties":{"Station_ID":"MN-WR-25","Station_Nam":"SAINT MICHAEL 2.0 ENE, MN","Latitude":"45.20820","Longitude":"-93.65280","Snowdepth":"6.500","Units":"in","Rept_Date":"2019-12-10 12"},"coordinates":[842,6182]},{"type":"Point","properties":{"Station_ID":"MN-SR-32","Station_Nam":"SAINT CLOUD 2.2 NW, MN","Latitude":"45.57548","Longitude":"-94.17583","Snowdepth":"6.500","Units":"in","Rept_Date":"2019-12-10 13"},"coordinates":[719,6397]},{"type":"Point","properties":{"Station_ID":"MN-MK-12","Station_Nam":"WATKINS 3.2 WSW, MN","Latitude":"45.30107","Longitude":"-94.47460","Snowdepth":"6.500","Units":"in","Rept_Date":"2019-12-10 15"},"coordinates":[649,6237]},{"type":"Point","properties":{"Station_ID":"MN-HN-6","Station_Nam":"LONG LAKE 0.2 WSW, MN","Latitude":"44.98290","Longitude":"-93.57360","Snowdepth":"6.500","Units":"in","Rept_Date":"2019-12-10 14"},"coordinates":[860,6050]},{"type":"Point","properties":{"Station_ID":"MN-DK-73","Station_Nam":"LAKEVILLE 2.6 NNE, MN","Latitude":"44.71250","Longitude":"-93.23043","Snowdepth":"6.500","Units":"in","Rept_Date":"2019-12-10 13"},"coordinates":[941,5892]},{"type":"Point","properties":{"Station_ID":"MA-FR-17","Station_Nam":"BUCKLAND 1.8 ESE, MA","Latitude":"42.58900","Longitude":"-72.75110","Snowdepth":"6.500","Units":"in","Rept_Date":"2019-12-10 13"},"coordinates":[5747,4649]},{"type":"Point","properties":{"Station_ID":"CAN-NB-11","Station_Nam":"MIRAMICHI 3.3 S, CAN","Latitude":"46.99343","Longitude":"-65.50690","Snowdepth":"6.500","Units":"in","Rept_Date":"2019-12-10 11"},"coordinates":[7447,7227]},{"type":"Point","properties":{"Station_ID":"MN-RM-2","Station_Nam":"NORTH SAINT PAUL 1.0 NNW, MN","Latitude":"45.02629","Longitude":"-93.00790","Snowdepth":"6.400","Units":"in","Rept_Date":"2019-12-10 12"},"coordinates":[993,6076]},{"type":"Point","properties":{"Station_ID":"QLP","Station_Nam":"QLP","Latitude":"48.13920","Longitude":"-72.63830","Snowdepth":"6.220","Units":"in","Rept_Date":"2019-12-10 12"},"coordinates":[5774,7898]},{"type":"Point","properties":{"Station_ID":"ZBWN3","Station_Nam":"NASHUA CWSU","Latitude":"42.73440","Longitude":"-71.48030","Snowdepth":"6.000","Units":"in","Rept_Date":"2019-12-10 12"},"coordinates":[6045,4734]},{"type":"Point","properties":{"Station_ID":"WSKM5","Station_Nam":"WASKISH,MN","Latitude":"48.21670","Longitude":"-94.43330","Snowdepth":"6.000","Units":"in","Rept_Date":"2019-12-10 14"},"coordinates":[658,7944]},{"type":"Point","properties":{"Station_ID":"WRNM5","Station_Nam":"WORTHINGTON,MN","Latitude":"43.65440","Longitude":"-95.57920","Snowdepth":"6.000","Units":"in","Rept_Date":"2019-12-10 13"},"coordinates":[389,5272]},{"type":"Point","properties":{"Station_ID":"WPEN6","Station_Nam":"SOUTH OTSELIC 2NNW SNOW","Latitude":"42.66670","Longitude":"-75.80000","Snowdepth":"6.000","Units":"in","Rept_Date":"2019-12-10 13"},"coordinates":[5031,4694]},{"type":"Point","properties":{"Station_ID":"WORM3","Station_Nam":"WORTHINGTON","Latitude":"42.38690","Longitude":"-72.92100","Snowdepth":"6.000","Units":"in","Rept_Date":"2019-12-10 12"},"coordinates":[5707,4530]},{"type":"Point","properties":{"Station_ID":"WI-PK-4","Station_Nam":"DRESSER 6.1 ESE, WI","Latitude":"45.32436","Longitude":"-92.52080","Snowdepth":"6.000","Units":"in","Rept_Date":"2019-12-10 14"},"coordinates":[1107,6250]},{"type":"Point","properties":{"Station_ID":"WI-BN-6","Station_Nam":"SUAMICO 4.4 WNW, WI","Latitude":"44.66111","Longitude":"-88.11780","Snowdepth":"6.000","Units":"in","Rept_Date":"2019-12-10 13"},"coordinates":[2141,5862]},{"type":"Point","properties":{"Station_ID":"WDOM5","Station_Nam":"WINDOM","Latitude":"43.87700","Longitude":"-95.11590","Snowdepth":"6.000","Units":"in","Rept_Date":"2019-12-10 14"},"coordinates":[498,5403]},{"type":"Point","properties":{"Station_ID":"WABM5","Station_Nam":"WABASHA","Latitude":"44.38500","Longitude":"-92.04860","Snowdepth":"6.000","Units":"in","Rept_Date":"2019-12-10 13"},"coordinates":[1218,5700]},{"type":"Point","properties":{"Station_ID":"UMNM5","Station_Nam":"UNIVERSITY OF MN ST. PAUL","Latitude":"44.99020","Longitude":"-93.17990","Snowdepth":"6.000","Units":"in","Rept_Date":"2019-12-10 14"},"coordinates":[953,6054]},{"type":"Point","properties":{"Station_ID":"SDLM3","Station_Nam":"SUNDERLAND","Latitude":"42.44480","Longitude":"-72.55290","Snowdepth":"6.000","Units":"in","Rept_Date":"2019-12-10 12"},"coordinates":[5794,4564]},{"type":"Point","properties":{"Station_ID":"RSMM5","Station_Nam":"ROSEMOUNT RESEARCH AND OUTREACH CENTER","Latitude":"44.71660","Longitude":"-93.09800","Snowdepth":"6.000","Units":"in","Rept_Date":"2019-12-10 14"},"coordinates":[972,5894]},{"type":"Point","properties":{"Station_ID":"RLWM5","Station_Nam":"CAMP NORRIS DNR","Latitude":"48.61000","Longitude":"-95.18170","Snowdepth":"6.000","Units":"in","Rept_Date":"2019-12-10 13"},"coordinates":[483,8174]},{"type":"Point","properties":{"Station_ID":"RFDM5","Station_Nam":"ROCKFORD","Latitude":"45.08960","Longitude":"-93.73990","Snowdepth":"6.000","Units":"in","Rept_Date":"2019-12-10 13"},"coordinates":[821,6113]},{"type":"Point","properties":{"Station_ID":"RCEM5","Station_Nam":"RICE","Latitude":"45.75760","Longitude":"-94.20720","Snowdepth":"6.000","Units":"in","Rept_Date":"2019-12-10 13"},"coordinates":[711,6504]},{"type":"Point","properties":{"Station_ID":"RANM1","Station_Nam":"RANGELEY,ME","Latitude":"44.96670","Longitude":"-70.65000","Snowdepth":"6.000","Units":"in","Rept_Date":"2019-12-10 11"},"coordinates":[6240,6041]},{"type":"Point","properties":{"Station_ID":"PARM4","Station_Nam":"PARENT BAY","Latitude":"45.79610","Longitude":"-86.40110","Snowdepth":"6.000","Units":"in","Rept_Date":"2019-12-10 14"},"coordinates":[2543,6526]},{"type":"Point","properties":{"Station_ID":"NY-OD-2","Station_Nam":"POINT ROCK 0.6 SE, NY","Latitude":"43.37335","Longitude":"-75.53840","Snowdepth":"6.000","Units":"in","Rept_Date":"2019-12-10 13"},"coordinates":[5093,5108]},{"type":"Point","properties":{"Station_ID":"NVLN6","Station_Nam":"NORTHVILLE","Latitude":"43.23330","Longitude":"-74.16670","Snowdepth":"6.000","Units":"in","Rept_Date":"2019-12-10 13"},"coordinates":[5415,5026]},{"type":"Point","properties":{"Station_ID":"NH-HL-49","Station_Nam":"MONT VERNON 1.3 SSW, NH","Latitude":"42.87616","Longitude":"-71.68280","Snowdepth":"6.000","Units":"in","Rept_Date":"2019-12-10 12"},"coordinates":[5998,4817]},{"type":"Point","properties":{"Station_ID":"NEDM1","Station_Nam":"CAPE NEDDICK","Latitude":"43.22410","Longitude":"-70.63880","Snowdepth":"6.000","Units":"in","Rept_Date":"2019-12-10 12"},"coordinates":[6243,5020]},{"type":"Point","properties":{"Station_ID":"MWTM1","Station_Nam":"MILLINOCKET WWTP","Latitude":"45.64030","Longitude":"-68.67480","Snowdepth":"6.000","Units":"in","Rept_Date":"2019-12-10 11"},"coordinates":[6704,6435]},{"type":"Point","properties":{"Station_ID":"MNEY8CTB","Station_Nam":"MIDLAND JUNCTION 2.2 ENE","Latitude":"44.33041","Longitude":"-91.95891","Snowdepth":"6.000","Units":"in","Rept_Date":"2019-12-10 14"},"coordinates":[1239,5668]},{"type":"Point","properties":{"Station_ID":"MN7M8EBJ","Station_Nam":"LUTSEN 15.7 NNW","Latitude":"47.85324","Longitude":"-89.92908","Snowdepth":"6.000","Units":"in","Rept_Date":"2019-12-10 14"},"coordinates":[1715,7731]},{"type":"Point","properties":{"Station_ID":"MN-SR-24","Station_Nam":"PAYNESVILLE 1.9 SSW, MN","Latitude":"45.35170","Longitude":"-94.73120","Snowdepth":"6.000","Units":"in","Rept_Date":"2019-12-10 13"},"coordinates":[588,6266]},{"type":"Point","properties":{"Station_ID":"MN-RM-54","Station_Nam":"SAINT PAUL 5.1 SW, MN","Latitude":"44.90390","Longitude":"-93.18820","Snowdepth":"6.000","Units":"in","Rept_Date":"2019-12-10 13"},"coordinates":[951,6004]},{"type":"Point","properties":{"Station_ID":"MN-HN-78","Station_Nam":"RICHFIELD 1.9 WNW, MN","Latitude":"44.89129","Longitude":"-93.31410","Snowdepth":"6.000","Units":"in","Rept_Date":"2019-12-10 11"},"coordinates":[921,5997]},{"type":"Point","properties":{"Station_ID":"MN-HN-30","Station_Nam":"PLYMOUTH 2.4 ENE, MN","Latitude":"45.04063","Longitude":"-93.41950","Snowdepth":"6.000","Units":"in","Rept_Date":"2019-12-10 13"},"coordinates":[896,6084]},{"type":"Point","properties":{"Station_ID":"MN-DK-70","Station_Nam":"EAGAN 2.0 NNW, MN","Latitude":"44.84322","Longitude":"-93.17899","Snowdepth":"6.000","Units":"in","Rept_Date":"2019-12-10 16"},"coordinates":[953,5968]},{"type":"Point","properties":{"Station_ID":"MLBS2","Station_Nam":"MILBANK","Latitude":"45.22040","Longitude":"-96.62530","Snowdepth":"6.000","Units":"in","Rept_Date":"2019-12-10 13"},"coordinates":[144,6189]},{"type":"Point","properties":{"Station_ID":"MI-CP-7","Station_Nam":"DRUMMOND 2.9 NE, MI","Latitude":"46.05329","Longitude":"-83.69060","Snowdepth":"6.000","Units":"in","Rept_Date":"2019-12-10 14"},"coordinates":[3180,6677]},{"type":"Point","properties":{"Station_ID":"ME-FR-22","Station_Nam":"FARMINGTON 4.8 NNW, ME","Latitude":"44.73396","Longitude":"-70.18007","Snowdepth":"6.000","Units":"in","Rept_Date":"2019-12-10 14"},"coordinates":[6350,5904]},{"type":"Point","properties":{"Station_ID":"MA-HS-2","Station_Nam":"WESTHAMPTON 1.8 SW, MA","Latitude":"42.27943","Longitude":"-72.78700","Snowdepth":"6.000","Units":"in","Rept_Date":"2019-12-10 13"},"coordinates":[5739,4467]},{"type":"Point","properties":{"Station_ID":"MA-HD-28","Station_Nam":"WESTFIELD 2.8 SE, MA","Latitude":"42.10685","Longitude":"-72.72148","Snowdepth":"6.000","Units":"in","Rept_Date":"2019-12-10 11"},"coordinates":[5754,4366]},{"type":"Point","properties":{"Station_ID":"LKFM5","Station_Nam":"LAKEFIELD,MN","Latitude":"43.68330","Longitude":"-95.18330","Snowdepth":"6.000","Units":"in","Rept_Date":"2019-12-10 13"},"coordinates":[482,5289]},{"type":"Point","properties":{"Station_ID":"LEVM3","Station_Nam":"LEVERETT NO.2","Latitude":"42.44680","Longitude":"-72.53000","Snowdepth":"6.000","Units":"in","Rept_Date":"2019-12-10 12"},"coordinates":[5799,4565]},{"type":"Point","properties":{"Station_ID":"KABM5","Station_Nam":"KABETOGAMA LAKE VISITOR CTR","Latitude":"48.40880","Longitude":"-93.04840","Snowdepth":"6.000","Units":"in","Rept_Date":"2019-12-10 13"},"coordinates":[983,8056]},{"type":"Point","properties":{"Station_ID":"INL","Station_Nam":"FALLS INTERNATIONAL ARPT","Latitude":"48.56640","Longitude":"-93.40310","Snowdepth":"6.000","Units":"in","Rept_Date":"2019-12-11 00"},"coordinates":[900,8148]},{"type":"Point","properties":{"Station_ID":"IFSM5","Station_Nam":"INTERNATIONAL FALLS SNOW","Latitude":"48.57780","Longitude":"-93.39640","Snowdepth":"6.000","Units":"in","Rept_Date":"2019-12-11 06"},"coordinates":[902,8155]},{"type":"Point","properties":{"Station_ID":"HMPN3","Station_Nam":"WEST HAMPSTEAD","Latitude":"42.91080","Longitude":"-71.20200","Snowdepth":"6.000","Units":"in","Rept_Date":"2019-12-10 12"},"coordinates":[6111,4837]},{"type":"Point","properties":{"Station_ID":"FARM1","Station_Nam":"FARMINGTON","Latitude":"44.68930","Longitude":"-70.15640","Snowdepth":"6.000","Units":"in","Rept_Date":"2019-12-10 12"},"coordinates":[6356,5878]},{"type":"Point","properties":{"Station_ID":"ETTW3","Station_Nam":"ETTRICK 4WNW","Latitude":"44.19000","Longitude":"-91.34240","Snowdepth":"6.000","Units":"in","Rept_Date":"2019-12-10 13"},"coordinates":[1384,5586]},{"type":"Point","properties":{"Station_ID":"EPTW3","Station_Nam":"EAU PLEINE TENDER","Latitude":"44.77220","Longitude":"-89.76720","Snowdepth":"6.000","Units":"in","Rept_Date":"2019-12-10 13"},"coordinates":[1753,5927]},{"type":"Point","properties":{"Station_ID":"EMLN3","Station_Nam":"EAST MILFORD","Latitude":"42.82660","Longitude":"-71.62600","Snowdepth":"6.000","Units":"in","Rept_Date":"2019-12-10 12"},"coordinates":[6011,4788]},{"type":"Point","properties":{"Station_ID":"EHYM3","Station_Nam":"EAST HAWLEY","Latitude":"42.57410","Longitude":"-72.86790","Snowdepth":"6.000","Units":"in","Rept_Date":"2019-12-10 13"},"coordinates":[5720,4640]},{"type":"Point","properties":{"Station_ID":"EGNM5","Station_Nam":"ELGIN 2SSW","Latitude":"44.09700","Longitude":"-92.27010","Snowdepth":"6.000","Units":"in","Rept_Date":"2019-12-10 13"},"coordinates":[1166,5531]},{"type":"Point","properties":{"Station_ID":"EAU","Station_Nam":"CHIPPEWA VALLEY REGIONAL AIRPORT","Latitude":"44.86650","Longitude":"-91.48790","Snowdepth":"6.000","Units":"in","Rept_Date":"2019-12-11 00"},"coordinates":[1350,5982]},{"type":"Point","properties":{"Station_ID":"BMRW3","Station_Nam":"BLOOMER","Latitude":"45.09070","Longitude":"-91.48640","Snowdepth":"6.000","Units":"in","Rept_Date":"2019-12-10 14"},"coordinates":[1350,6113]},{"type":"Point","properties":{"Station_ID":"BARM3","Station_Nam":"BARRE FALLS DAM","Latitude":"42.42800","Longitude":"-72.02750","Snowdepth":"6.000","Units":"in","Rept_Date":"2019-12-10 12"},"coordinates":[5917,4554]},{"type":"Point","properties":{"Station_ID":"ASBM3","Station_Nam":"ASHBURNHAM","Latitude":"42.61780","Longitude":"-71.91590","Snowdepth":"6.000","Units":"in","Rept_Date":"2019-12-10 12"},"coordinates":[5943,4665]},{"type":"Point","properties":{"Station_ID":"ARTM5","Station_Nam":"ARTICHOKE LAKE 1 E","Latitude":"45.38560","Longitude":"-96.12570","Snowdepth":"6.000","Units":"in","Rept_Date":"2019-12-11 00"},"coordinates":[261,6286]},{"type":"Point","properties":{"Station_ID":"APXM4","Station_Nam":"GAYLORD 9SSW","Latitude":"44.90720","Longitude":"-84.71880","Snowdepth":"6.000","Units":"in","Rept_Date":"2019-12-11 06"},"coordinates":[2938,6006]},{"type":"Point","properties":{"Station_ID":"41.9263_080.5702","Station_Nam":"Conneaut  Trained Spotter (X4190806)","Latitude":"41.92630","Longitude":"-80.57020","Snowdepth":"6.000","Units":"in","Rept_Date":"2019-12-11 02"},"coordinates":[3912,4260]},{"type":"Point","properties":{"Station_ID":"MA-WR-58","Station_Nam":"LUNENBURG 0.6 NE, MA","Latitude":"42.60180","Longitude":"-71.71653","Snowdepth":"5.800","Units":"in","Rept_Date":"2019-12-10 13"},"coordinates":[5990,4656]},{"type":"Point","properties":{"Station_ID":"QWG","Station_Nam":"QWG","Latitude":"48.48890","Longitude":"-73.45940","Snowdepth":"5.669","Units":"in","Rept_Date":"2019-12-10 12"},"coordinates":[5581,8103]},{"type":"Point","properties":{"Station_ID":"WI-PC-10","Station_Nam":"RIVER FALLS 1.4 S, WI","Latitude":"44.83580","Longitude":"-92.62100","Snowdepth":"5.500","Units":"in","Rept_Date":"2019-12-10 13"},"coordinates":[1084,5964]},{"type":"Point","properties":{"Station_ID":"SD-CD-8","Station_Nam":"WATERTOWN 2.7 E, SD","Latitude":"44.90740","Longitude":"-97.11160","Snowdepth":"5.500","Units":"in","Rept_Date":"2019-12-10 15"},"coordinates":[30,6006]},{"type":"Point","properties":{"Station_ID":"NY-SR-35","Station_Nam":"ROUND LAKE 4.1 NE, NY","Latitude":"42.97760","Longitude":"-73.73750","Snowdepth":"5.500","Units":"in","Rept_Date":"2019-12-10 12"},"coordinates":[5516,4876]},{"type":"Point","properties":{"Station_ID":"NY-SC-16","Station_Nam":"NISKAYUNA 2.0 N, NY","Latitude":"42.84645","Longitude":"-73.89920","Snowdepth":"5.500","Units":"in","Rept_Date":"2019-12-10 12"},"coordinates":[5478,4799]},{"type":"Point","properties":{"Station_ID":"MN-SV-4","Station_Nam":"DONNELLY 2.9 NW, MN","Latitude":"45.71649","Longitude":"-96.06043","Snowdepth":"5.500","Units":"in","Rept_Date":"2019-12-10 13"},"coordinates":[277,6480]},{"type":"Point","properties":{"Station_ID":"MN-SE-2","Station_Nam":"OWATONNA 0.8 E, MN","Latitude":"44.09170","Longitude":"-93.21380","Snowdepth":"5.500","Units":"in","Rept_Date":"2019-12-10 12"},"coordinates":[945,5528]},{"type":"Point","properties":{"Station_ID":"MN-PK-15","Station_Nam":"MENTOR 2.5 SSW, MN","Latitude":"47.66625","Longitude":"-96.17328","Snowdepth":"5.500","Units":"in","Rept_Date":"2019-12-10 13"},"coordinates":[250,7621]},{"type":"Point","properties":{"Station_ID":"MN-HN-31","Station_Nam":"MAPLE GROVE 1.0 NNE, MN","Latitude":"45.12261","Longitude":"-93.45790","Snowdepth":"5.500","Units":"in","Rept_Date":"2019-12-10 16"},"coordinates":[887,6132]},{"type":"Point","properties":{"Station_ID":"MN-HN-110","Station_Nam":"EDINA 1.9 SSE, MN","Latitude":"44.86875","Longitude":"-93.33940","Snowdepth":"5.500","Units":"in","Rept_Date":"2019-12-10 13"},"coordinates":[915,5983]},{"type":"Point","properties":{"Station_ID":"MI-CX-7","Station_Nam":"EAST JORDAN 2.1 NNW, MI","Latitude":"45.18639","Longitude":"-85.14750","Snowdepth":"5.500","Units":"in","Rept_Date":"2019-12-10 13"},"coordinates":[2838,6169]},{"type":"Point","properties":{"Station_ID":"ME-YK-52","Station_Nam":"YORK 5.2 N, ME","Latitude":"43.23585","Longitude":"-70.63400","Snowdepth":"5.500","Units":"in","Rept_Date":"2019-12-10 12"},"coordinates":[6244,5027]},{"type":"Point","properties":{"Station_ID":"MA-HS-26","Station_Nam":"EASTHAMPTON 0.5 SW, MA","Latitude":"42.26110","Longitude":"-72.68920","Snowdepth":"5.500","Units":"in","Rept_Date":"2019-12-10 12"},"coordinates":[5762,4457]},{"type":"Point","properties":{"Station_ID":"CAN-ON-757","Station_Nam":"SAULT STE. MARIE 2.8 ESE - GLFC, CAN","Latitude":"46.50300","Longitude":"-84.30300","Snowdepth":"5.400","Units":"in","Rept_Date":"2019-12-10 13"},"coordinates":[3036,6940]},{"type":"Point","properties":{"Station_ID":"WPHN6","Station_Nam":"GEORGETOWN SNOW","Latitude":"42.76670","Longitude":"-75.70000","Snowdepth":"5.000","Units":"in","Rept_Date":"2019-12-10 13"},"coordinates":[5055,4753]},{"type":"Point","properties":{"Station_ID":"WPFN6","Station_Nam":"MARIPOSA 1NNW SNOW","Latitude":"42.73330","Longitude":"-75.81670","Snowdepth":"5.000","Units":"in","Rept_Date":"2019-12-10 13"},"coordinates":[5028,4733]},{"type":"Point","properties":{"Station_ID":"WPDN6","Station_Nam":"CINCINNATUS 2NW SNOW","Latitude":"42.55000","Longitude":"-75.93330","Snowdepth":"5.000","Units":"in","Rept_Date":"2019-12-10 13"},"coordinates":[5000,4626]},{"type":"Point","properties":{"Station_ID":"WNNM5","Station_Nam":"WINNEBAGO","Latitude":"43.76920","Longitude":"-94.18730","Snowdepth":"5.000","Units":"in","Rept_Date":"2019-12-10 14"},"coordinates":[716,5340]},{"type":"Point","properties":{"Station_ID":"WACM5","Station_Nam":"WACONIA","Latitude":"44.85330","Longitude":"-93.80260","Snowdepth":"5.000","Units":"in","Rept_Date":"2019-12-10 12"},"coordinates":[806,5974]},{"type":"Point","properties":{"Station_ID":"VT-WS-10","Station_Nam":"NORTHFIELD 1.5 N, VT","Latitude":"44.16986","Longitude":"-72.65200","Snowdepth":"5.000","Units":"in","Rept_Date":"2019-12-10 12"},"coordinates":[5770,5574]},{"type":"Point","properties":{"Station_ID":"VT-WR-2","Station_Nam":"POMFRET 2.6 N, VT","Latitude":"43.74230","Longitude":"-72.52550","Snowdepth":"5.000","Units":"in","Rept_Date":"2019-12-10 12"},"coordinates":[5800,5324]},{"type":"Point","properties":{"Station_ID":"VT-CL-3","Station_Nam":"GROTON 4.4 WSW, VT","Latitude":"44.19440","Longitude":"-72.28240","Snowdepth":"5.000","Units":"in","Rept_Date":"2019-12-10 21"},"coordinates":[5857,5589]},{"type":"Point","properties":{"Station_ID":"STIM5","Station_Nam":"STILLWATER 2SW","Latitude":"45.04540","Longitude":"-92.85220","Snowdepth":"5.000","Units":"in","Rept_Date":"2019-12-10 14"},"coordinates":[1029,6087]},{"type":"Point","properties":{"Station_ID":"SPRI4","Station_Nam":"SPIRIT LAKE","Latitude":"43.42310","Longitude":"-95.10000","Snowdepth":"5.000","Units":"in","Rept_Date":"2019-12-10 13"},"coordinates":[502,5137]},{"type":"Point","properties":{"Station_ID":"SNBI4","Station_Nam":"SANBORN,IA","Latitude":"43.18170","Longitude":"-95.66030","Snowdepth":"5.000","Units":"in","Rept_Date":"2019-12-10 14"},"coordinates":[370,4996]},{"type":"Point","properties":{"Station_ID":"SBNM5","Station_Nam":"SABIN","Latitude":"46.77690","Longitude":"-96.65610","Snowdepth":"5.000","Units":"in","Rept_Date":"2019-12-10 14"},"coordinates":[137,7101]},{"type":"Point","properties":{"Station_ID":"SANI4","Station_Nam":"ST ANSGAR","Latitude":"43.38170","Longitude":"-92.92320","Snowdepth":"5.000","Units":"in","Rept_Date":"2019-12-10 12"},"coordinates":[1013,5113]},{"type":"Point","properties":{"Station_ID":"ROBW3","Station_Nam":"ROBERTS WWTP","Latitude":"44.97070","Longitude":"-92.56200","Snowdepth":"5.000","Units":"in","Rept_Date":"2019-12-10 14"},"coordinates":[1098,6043]},{"type":"Point","properties":{"Station_ID":"OCON6","Station_Nam":"OSCEOLA","Latitude":"43.49910","Longitude":"-75.71210","Snowdepth":"5.000","Units":"in","Rept_Date":"2019-12-10 12"},"coordinates":[5052,5181]},{"type":"Point","properties":{"Station_ID":"NY-WR-10","Station_Nam":"WARRENSBURG 2.1 WNW, NY","Latitude":"43.51784","Longitude":"-73.81069","Snowdepth":"5.000","Units":"in","Rept_Date":"2019-12-10 13"},"coordinates":[5498,5192]},{"type":"Point","properties":{"Station_ID":"NY-UL-16","Station_Nam":"ROSENDALE VILLAGE 1.8 WNW, NY","Latitude":"41.86083","Longitude":"-74.10750","Snowdepth":"5.000","Units":"in","Rept_Date":"2019-12-10 12"},"coordinates":[5429,4222]},{"type":"Point","properties":{"Station_ID":"NY-JF-30","Station_Nam":"WEST CARTHAGE 0.3 ENE, NY","Latitude":"43.97493","Longitude":"-75.61640","Snowdepth":"5.000","Units":"in","Rept_Date":"2019-12-10 12"},"coordinates":[5075,5460]},{"type":"Point","properties":{"Station_ID":"NY-GR-14","Station_Nam":"LEXINGTON 1.5 N, NY","Latitude":"42.26024","Longitude":"-74.35875","Snowdepth":"5.000","Units":"in","Rept_Date":"2019-12-10 12"},"coordinates":[5370,4456]},{"type":"Point","properties":{"Station_ID":"NY-AB-23","Station_Nam":"ALBANY 0.7 SW, NY","Latitude":"42.66019","Longitude":"-73.81030","Snowdepth":"5.000","Units":"in","Rept_Date":"2019-12-10 12"},"coordinates":[5498,4690]},{"type":"Point","properties":{"Station_ID":"NUMM5","Station_Nam":"NEW ULM 3SE","Latitude":"44.29450","Longitude":"-94.40840","Snowdepth":"5.000","Units":"in","Rept_Date":"2019-12-10 11"},"coordinates":[664,5647]},{"type":"Point","properties":{"Station_ID":"MPXM5","Station_Nam":"CHANHASSEN WSFO","Latitude":"44.84960","Longitude":"-93.56440","Snowdepth":"5.000","Units":"in","Rept_Date":"2019-12-11 06"},"coordinates":[862,5972]},{"type":"Point","properties":{"Station_ID":"MNG0GYSN","Station_Nam":"LONSDALE 1.1 SSW","Latitude":"44.46445","Longitude":"-93.43293","Snowdepth":"5.000","Units":"in","Rept_Date":"2019-12-10 12"},"coordinates":[893,5747]},{"type":"Point","properties":{"Station_ID":"MNF74YNU","Station_Nam":"NEW ULM 3.3 ESE","Latitude":"44.29029","Longitude":"-94.40196","Snowdepth":"5.000","Units":"in","Rept_Date":"2019-12-10 11"},"coordinates":[666,5645]},{"type":"Point","properties":{"Station_ID":"MN0HS1SL","Station_Nam":"NORTH SAINT PAUL 1.6 NW","Latitude":"45.02800","Longitude":"-93.01506","Snowdepth":"5.000","Units":"in","Rept_Date":"2019-12-10 13"},"coordinates":[991,6077]},{"type":"Point","properties":{"Station_ID":"MN-SC-33","Station_Nam":"SHAKOPEE 2.6 W, MN","Latitude":"44.78173","Longitude":"-93.52868","Snowdepth":"5.000","Units":"in","Rept_Date":"2019-12-10 13"},"coordinates":[871,5932]},{"type":"Point","properties":{"Station_ID":"MN-SC-2","Station_Nam":"PRIOR LAKE 2.0 W, MN","Latitude":"44.71250","Longitude":"-93.46360","Snowdepth":"5.000","Units":"in","Rept_Date":"2019-12-10 12"},"coordinates":[886,5892]},{"type":"Point","properties":{"Station_ID":"MN-RC-1","Station_Nam":"MONTGOMERY 3.2 ENE, MN","Latitude":"44.46400","Longitude":"-93.51980","Snowdepth":"5.000","Units":"in","Rept_Date":"2019-12-10 11"},"coordinates":[873,5746]},{"type":"Point","properties":{"Station_ID":"MN-GH-4","Station_Nam":"NERSTRAND 4.2 E, MN","Latitude":"44.34247","Longitude":"-92.97920","Snowdepth":"5.000","Units":"in","Rept_Date":"2019-12-10 13"},"coordinates":[1000,5675]},{"type":"Point","properties":{"Station_ID":"MN-GH-28","Station_Nam":"CANNON FALLS 0.5 SE, MN","Latitude":"44.50866","Longitude":"-92.89526","Snowdepth":"5.000","Units":"in","Rept_Date":"2019-12-10 14"},"coordinates":[1019,5773]},{"type":"Point","properties":{"Station_ID":"MN-FM-10","Station_Nam":"WYKOFF 3.1 NW, MN","Latitude":"43.74340","Longitude":"-92.30650","Snowdepth":"5.000","Units":"in","Rept_Date":"2019-12-10 13"},"coordinates":[1158,5324]},{"type":"Point","properties":{"Station_ID":"MN-BW-8","Station_Nam":"COMFREY 6.5 ENE, MN","Latitude":"44.15109","Longitude":"-94.78516","Snowdepth":"5.000","Units":"in","Rept_Date":"2019-12-10 14"},"coordinates":[576,5563]},{"type":"Point","properties":{"Station_ID":"MLRM5","Station_Nam":"MELROSE","Latitude":"45.67710","Longitude":"-94.80200","Snowdepth":"5.000","Units":"in","Rept_Date":"2019-12-10 13"},"coordinates":[572,6457]},