{"type":"Topology","objects":{"snowdepth_geo":{"type":"GeometryCollection","geometries":[{"type":"Point","coordinates":[-72.8154,44.5248],"properties":{"Station_ID":"MMNV1","Station_Nam":"MT. MANSFIELD","Latitude":"44.52480","Longitude":"-72.81540","Snowdepth":"91.000","Units":"in","Rept_Date":"2025-04-10 20"}},{"type":"Point","coordinates":[-86.62,46.4258],"properties":{"Station_ID":"PRKM4","Station_Nam":"MUNISING EAST","Latitude":"46.42580","Longitude":"-86.62000","Snowdepth":"76.500","Units":"in","Rept_Date":"2025-04-11 06"}},{"type":"Point","coordinates":[-69.6747,50.7925],"properties":{"Station_ID":"CQOU","Station_Nam":"CQOU","Latitude":"50.79250","Longitude":"-69.67470","Snowdepth":"42.874","Units":"in","Rept_Date":"2025-04-10 12"}},{"type":"Point","coordinates":[-86.6625,46.4121],"properties":{"Station_ID":"MNSM4","Station_Nam":"MUNISING","Latitude":"46.41210","Longitude":"-86.66250","Snowdepth":"41.000","Units":"in","Rept_Date":"2025-04-10 11"}},{"type":"Point","coordinates":[-67.1394,51.1114],"properties":{"Station_ID":"CQGD","Station_Nam":"CQGD","Latitude":"51.11140","Longitude":"-67.13940","Snowdepth":"40.236","Units":"in","Rept_Date":"2025-04-10 12"}},{"type":"Point","coordinates":[-68.8236,50.6617],"properties":{"Station_ID":"CMLZ","Station_Nam":"CMLZ","Latitude":"50.66170","Longitude":"-68.82360","Snowdepth":"39.764","Units":"in","Rept_Date":"2025-04-10 12"}},{"type":"Point","coordinates":[-88.6717,47.0416],"properties":{"Station_ID":"PDLM4","Station_Nam":"PAINESDALE","Latitude":"47.04160","Longitude":"-88.67170","Snowdepth":"39.000","Units":"in","Rept_Date":"2025-04-10 12"}},{"type":"Point","coordinates":[-71.7031,44.1382],"properties":{"Station_ID":"LLHN3","Station_Nam":"LONESOME LAKE HUT","Latitude":"44.13820","Longitude":"-71.70310","Snowdepth":"35.000","Units":"in","Rept_Date":"2025-04-10 11"}},{"type":"Point","coordinates":[-71.2833,44.2613],"properties":{"Station_ID":"HTLN3","Station_Nam":"HERMIT LAKE SNOWPLOT","Latitude":"44.26130","Longitude":"-71.28330","Snowdepth":"35.000","Units":"in","Rept_Date":"2025-04-10 09"}},{"type":"Point","coordinates":[-75.1,50.7236],"properties":{"Station_ID":"CQLB","Station_Nam":"CQLB","Latitude":"50.72360","Longitude":"-75.10000","Snowdepth":"32.716","Units":"in","Rept_Date":"2025-04-10 12"}},{"type":"Point","coordinates":[-74.2064,48.855],"properties":{"Station_ID":"CQGO","Station_Nam":"CQGO","Latitude":"48.85500","Longitude":"-74.20640","Snowdepth":"29.764","Units":"in","Rept_Date":"2025-04-10 12"}},{"type":"Point","coordinates":[-69.3569,49.66],"properties":{"Station_ID":"CQTV","Station_Nam":"CQTV","Latitude":"49.66000","Longitude":"-69.35690","Snowdepth":"29.449","Units":"in","Rept_Date":"2025-04-10 12"}},{"type":"Point","coordinates":[-76.7767,38.86236],"properties":{"Station_ID":"009MD_MADIS","Station_Nam":"UPPER MARLBORO 3 NNW","Latitude":"38.86236","Longitude":"-76.77670","Snowdepth":"28.900","Units":"in","Rept_Date":"2025-04-11 06"}},{"type":"Point","coordinates":[-74.4039,50.8328],"properties":{"Station_ID":"CQFT","Station_Nam":"CQFT","Latitude":"50.83280","Longitude":"-74.40390","Snowdepth":"28.150","Units":"in","Rept_Date":"2025-04-10 12"}},{"type":"Point","coordinates":[-71.1955,44.2594],"properties":{"Station_ID":"CRNN3","Station_Nam":"CARTER NOTCH","Latitude":"44.25940","Longitude":"-71.19550","Snowdepth":"28.000","Units":"in","Rept_Date":"2025-04-10 11"}},{"type":"Point","coordinates":[-70.0806,51.3283],"properties":{"Station_ID":"CQCX","Station_Nam":"CQCX","Latitude":"51.32830","Longitude":"-70.08060","Snowdepth":"27.835","Units":"in","Rept_Date":"2025-04-10 12"}},{"type":"Point","coordinates":[-87.2292,49.2288],"properties":{"Station_ID":"TRIQ6","Station_Nam":"TRIO LAKE","Latitude":"49.22880","Longitude":"-87.22920","Snowdepth":"27.280","Units":"in","Rept_Date":"2025-04-11 06"}},{"type":"Point","coordinates":[-67.6264,49.6472],"properties":{"Station_ID":"CQGT","Station_Nam":"CQGT","Latitude":"49.64720","Longitude":"-67.62640","Snowdepth":"27.165","Units":"in","Rept_Date":"2025-04-10 12"}},{"type":"Point","coordinates":[-82.5757,48.526],"properties":{"Station_ID":"AUDQ6","Station_Nam":"AUDEN","Latitude":"48.52600","Longitude":"-82.57570","Snowdepth":"27.010","Units":"in","Rept_Date":"2025-04-11 06"}},{"type":"Point","coordinates":[-88.2077,46.5573],"properties":{"Station_ID":"MI-BG-3","Station_Nam":"THREE LAKES, MI","Latitude":"46.55730","Longitude":"-88.20770","Snowdepth":"27.000","Units":"in","Rept_Date":"2025-04-10 12"}},{"type":"Point","coordinates":[-86.6594,49.0695],"properties":{"Station_ID":"PTLQ6","Station_Nam":"PORTAGE LAKE","Latitude":"49.06950","Longitude":"-86.65940","Snowdepth":"24.800","Units":"in","Rept_Date":"2025-04-11 06"}},{"type":"Point","coordinates":[-87.7644,49.1989],"properties":{"Station_ID":"DVLQ6","Station_Nam":"DEVIOUS LAKE","Latitude":"49.19890","Longitude":"-87.76440","Snowdepth":"23.700","Units":"in","Rept_Date":"2025-04-11 06"}},{"type":"Point","coordinates":[-88.417,47.2752],"properties":{"Station_ID":"KSGM4","Station_Nam":"KEARSARGE","Latitude":"47.27520","Longitude":"-88.41700","Snowdepth":"23.000","Units":"in","Rept_Date":"2025-04-10 11"}},{"type":"Point","coordinates":[-91.793,50.7787],"properties":{"Station_ID":"SOCQ6","Station_Nam":"SOCKET LAKE","Latitude":"50.77870","Longitude":"-91.79300","Snowdepth":"22.830","Units":"in","Rept_Date":"2025-04-11 06"}},{"type":"Point","coordinates":[-76.5983,47.8275],"properties":{"Station_ID":"CQCU","Station_Nam":"CQCU","Latitude":"47.82750","Longitude":"-76.59830","Snowdepth":"22.598","Units":"in","Rept_Date":"2025-04-10 12"}},{"type":"Point","coordinates":[-70.2528,48.9203],"properties":{"Station_ID":"CQLM","Station_Nam":"CQLM","Latitude":"48.92030","Longitude":"-70.25280","Snowdepth":"22.165","Units":"in","Rept_Date":"2025-04-10 12"}},{"type":"Point","coordinates":[-88.3333,46.65],"properties":{"Station_ID":"HERM4","Station_Nam":"HERMAN,MI","Latitude":"46.65000","Longitude":"-88.33330","Snowdepth":"22.000","Units":"in","Rept_Date":"2025-04-10 12"}},{"type":"Point","coordinates":[-71.3093,44.3326],"properties":{"Station_ID":"GKBN3","Station_Nam":"GRAY KNOB","Latitude":"44.33260","Longitude":"-71.30930","Snowdepth":"22.000","Units":"in","Rept_Date":"2025-04-10 15"}},{"type":"Point","coordinates":[-72.5719,51.0578],"properties":{"Station_ID":"CQTM","Station_Nam":"CQTM","Latitude":"51.05780","Longitude":"-72.57190","Snowdepth":"21.575","Units":"in","Rept_Date":"2025-04-10 12"}},{"type":"Point","coordinates":[-87.8582,50.7668],"properties":{"Station_ID":"OGIQ6","Station_Nam":"OGOKI CAMP","Latitude":"50.76680","Longitude":"-87.85820","Snowdepth":"21.300","Units":"in","Rept_Date":"2025-04-11 06"}},{"type":"Point","coordinates":[-90.6567,50.2873],"properties":{"Station_ID":"SVBQ6","Station_Nam":"SAVANT BASE","Latitude":"50.28730","Longitude":"-90.65670","Snowdepth":"21.180","Units":"in","Rept_Date":"2025-04-11 06"}},{"type":"Point","coordinates":[-66.9111,51.5217],"properties":{"Station_ID":"CMFU","Station_Nam":"CMFU","Latitude":"51.52170","Longitude":"-66.91110","Snowdepth":"20.905","Units":"in","Rept_Date":"2025-04-10 12"}},{"type":"Point","coordinates":[-70.4719,50.1033],"properties":{"Station_ID":"CQMA","Station_Nam":"CQMA","Latitude":"50.10330","Longitude":"-70.47190","Snowdepth":"20.787","Units":"in","Rept_Date":"2025-04-10 12"}},{"type":"Point","coordinates":[-68.8406,51.2833],"properties":{"Station_ID":"CMRL","Station_Nam":"CMRL","Latitude":"51.28330","Longitude":"-68.84060","Snowdepth":"20.433","Units":"in","Rept_Date":"2025-04-10 12"}},{"type":"Point","coordinates":[-88.6926,47.13156],"properties":{"Station_ID":"MI-HG-21","Station_Nam":"ATLANTIC MINE 3.9 NW, MI","Latitude":"47.13156","Longitude":"-88.69260","Snowdepth":"20.000","Units":"in","Rept_Date":"2025-04-10 11"}},{"type":"Point","coordinates":[-87.45705,46.47288],"properties":{"Station_ID":"MI-MQ-30","Station_Nam":"MARQUETTE 6.1 SSW, MI","Latitude":"46.47288","Longitude":"-87.45705","Snowdepth":"19.500","Units":"in","Rept_Date":"2025-04-10 12"}},{"type":"Point","coordinates":[-86.95857,46.5029],"properties":{"Station_ID":"MI-AG-8","Station_Nam":"AU TRAIN 7.8 NW, MI","Latitude":"46.50290","Longitude":"-86.95857","Snowdepth":"19.500","Units":"in","Rept_Date":"2025-04-10 13"}},{"type":"Point","coordinates":[-88.5294,47.10774],"properties":{"Station_ID":"MI-HG-1","Station_Nam":"HOUGHTON 1.6 ESE, MI","Latitude":"47.10774","Longitude":"-88.52940","Snowdepth":"19.000","Units":"in","Rept_Date":"2025-04-10 12"}},{"type":"Point","coordinates":[-66.13279,47.90803],"properties":{"Station_ID":"CAN-NB-50","Station_Nam":"DOYLEVILLE 2.4 WNW, CAN","Latitude":"47.90803","Longitude":"-66.13279","Snowdepth":"18.900","Units":"in","Rept_Date":"2025-04-10 12"}},{"type":"Point","coordinates":[-73.8067,47.8461],"properties":{"Station_ID":"CQWE","Station_Nam":"CQWE","Latitude":"47.84610","Longitude":"-73.80670","Snowdepth":"18.661","Units":"in","Rept_Date":"2025-04-10 12"}},{"type":"Point","coordinates":[-90.30508,47.8062],"properties":{"Station_ID":"MN-CK-29","Station_Nam":"GRAND MARAIS 3.8 NNE, MN","Latitude":"47.80620","Longitude":"-90.30508","Snowdepth":"18.000","Units":"in","Rept_Date":"2025-04-10 12"}},{"type":"Point","coordinates":[-73.9228,50.2708],"properties":{"Station_ID":"CQLI","Station_Nam":"CQLI","Latitude":"50.27080","Longitude":"-73.92280","Snowdepth":"17.283","Units":"in","Rept_Date":"2025-04-10 12"}},{"type":"Point","coordinates":[-84.4025,46.4866],"properties":{"Station_ID":"SSMM4","Station_Nam":"SAULT STE MARIE","Latitude":"46.48660","Longitude":"-84.40250","Snowdepth":"17.000","Units":"in","Rept_Date":"2025-04-10 11"}},{"type":"Point","coordinates":[-87.5492,46.5314],"properties":{"Station_ID":"MQT","Station_Nam":"MARQUETTE, MI","Latitude":"46.53140","Longitude":"-87.54920","Snowdepth":"17.000","Units":"in","Rept_Date":"2025-04-11 06"}},{"type":"Point","coordinates":[-84.31971,46.48933],"properties":{"Station_ID":"MI-CP-14","Station_Nam":"SAULT STE. MARIE 2.2 E, MI","Latitude":"46.48933","Longitude":"-84.31971","Snowdepth":"17.000","Units":"in","Rept_Date":"2025-04-10 11"}},{"type":"Point","coordinates":[-84.4026,46.4867],"properties":{"Station_ID":"ANJM4","Station_Nam":"SNOW PAID OBSERVER FOR KANJ","Latitude":"46.48670","Longitude":"-84.40260","Snowdepth":"17.000","Units":"in","Rept_Date":"2025-04-10 12"}},{"type":"Point","coordinates":[-86.9375,50.6386],"properties":{"Station_ID":"ANAQ6","Station_Nam":"ANACONDA","Latitude":"50.63860","Longitude":"-86.93750","Snowdepth":"16.970","Units":"in","Rept_Date":"2025-04-11 01"}},{"type":"Point","coordinates":[-91.8221,51.7269],"properties":{"Station_ID":"CATQ6","Station_Nam":"CAT LAKE","Latitude":"51.72690","Longitude":"-91.82210","Snowdepth":"16.180","Units":"in","Rept_Date":"2025-04-11 06"}},{"type":"Point","coordinates":[-72.2011,51.4528],"properties":{"Station_ID":"CQCO","Station_Nam":"CQCO","Latitude":"51.45280","Longitude":"-72.20110","Snowdepth":"15.905","Units":"in","Rept_Date":"2025-04-10 12"}},{"type":"Point","coordinates":[-75.845,49.2906],"properties":{"Station_ID":"CQMD","Station_Nam":"CQMD","Latitude":"49.29060","Longitude":"-75.84500","Snowdepth":"15.157","Units":"in","Rept_Date":"2025-04-10 12"}},{"type":"Point","coordinates":[-87.4503,46.28397],"properties":{"Station_ID":"61591_MADIS","Station_Nam":"GWINN 0.7 SW, MI","Latitude":"46.28397","Longitude":"-87.45030","Snowdepth":"15.000","Units":"in","Rept_Date":"2025-04-10 13"}},{"type":"Point","coordinates":[-89.5475,46.5869],"properties":{"Station_ID":"BERM4","Station_Nam":"BERGLAND DAM","Latitude":"46.58690","Longitude":"-89.54750","Snowdepth":"14.000","Units":"in","Rept_Date":"2025-04-10 12"}},{"type":"Point","coordinates":[-68.5431,49.8239],"properties":{"Station_ID":"CQIQ","Station_Nam":"CQIQ","Latitude":"49.82390","Longitude":"-68.54310","Snowdepth":"13.976","Units":"in","Rept_Date":"2025-04-10 12"}},{"type":"Point","coordinates":[-88.7038,49.19],"properties":{"Station_ID":"NONQ6","Station_Nam":"NONWATIN","Latitude":"49.19000","Longitude":"-88.70380","Snowdepth":"13.620","Units":"in","Rept_Date":"2025-04-11 06"}},{"type":"Point","coordinates":[-90.87444,48.14388],"properties":{"Station_ID":"MN-CK-56","Station_Nam":"GRAND MARAIS 36.2 NW, MN","Latitude":"48.14388","Longitude":"-90.87444","Snowdepth":"13.000","Units":"in","Rept_Date":"2025-04-10 12"}},{"type":"Point","coordinates":[-89.1799,49.5995],"properties":{"Station_ID":"KABQ6","Station_Nam":"CAB LAKE","Latitude":"49.59950","Longitude":"-89.17990","Snowdepth":"12.830","Units":"in","Rept_Date":"2025-04-11 06"}},{"type":"Point","coordinates":[-84.28515,46.50299],"properties":{"Station_ID":"CAN-ON-915","Station_Nam":"SAULT STE. MARIE 3.9 ESE, CAN","Latitude":"46.50299","Longitude":"-84.28515","Snowdepth":"12.600","Units":"in","Rept_Date":"2025-04-10 12"}},{"type":"Point","coordinates":[-72.2824,44.1944],"properties":{"Station_ID":"VT-CL-3","Station_Nam":"GROTON 4.4 WSW, VT","Latitude":"44.19440","Longitude":"-72.28240","Snowdepth":"12.500","Units":"in","Rept_Date":"2025-04-10 10"}},{"type":"Point","coordinates":[-71.4127,44.2196],"properties":{"Station_ID":"CAWN3","Station_Nam":"CRAWFORD NOTCH","Latitude":"44.21960","Longitude":"-71.41270","Snowdepth":"12.000","Units":"in","Rept_Date":"2025-04-10 11"}},{"type":"Point","coordinates":[-87.9051,51.5582],"properties":{"Station_ID":"FTHQ6","Station_Nam":"FORT HOPE","Latitude":"51.55820","Longitude":"-87.90510","Snowdepth":"11.220","Units":"in","Rept_Date":"2025-04-11 06"}},{"type":"Point","coordinates":[-87.7567,46.4055],"properties":{"Station_ID":"MI-MQ-19","Station_Nam":"ISHPEMING 7.2 SW, MI","Latitude":"46.40550","Longitude":"-87.75670","Snowdepth":"11.000","Units":"in","Rept_Date":"2025-04-10 10"}},{"type":"Point","coordinates":[-87.845,46.4991],"properties":{"Station_ID":"CLKM4","Station_Nam":"CLARKSBURG","Latitude":"46.49910","Longitude":"-87.84500","Snowdepth":"11.000","Units":"in","Rept_Date":"2025-04-10 11"}},{"type":"Point","coordinates":[-91.4716,48.7067],"properties":{"Station_ID":"ATIQ6","Station_Nam":"ATIKOKAN","Latitude":"48.70670","Longitude":"-91.47160","Snowdepth":"10.790","Units":"in","Rept_Date":"2025-04-11 06"}},{"type":"Point","coordinates":[-91.86862,47.88254],"properties":{"Station_ID":"MN-SL-328","Station_Nam":"ELY 1.8 SSW, MN","Latitude":"47.88254","Longitude":"-91.86862","Snowdepth":"10.000","Units":"in","Rept_Date":"2025-04-10 12"}},{"type":"Point","coordinates":[-84.303,46.503],"properties":{"Station_ID":"CAN-ON-757","Station_Nam":"SAULT STE. MARIE 2.8 ESE - GLFC, CAN","Latitude":"46.50300","Longitude":"-84.30300","Snowdepth":"9.400","Units":"in","Rept_Date":"2025-04-10 12"}},{"type":"Point","coordinates":[-73.7381,47.2564],"properties":{"Station_ID":"CQGA","Station_Nam":"CQGA","Latitude":"47.25640","Longitude":"-73.73810","Snowdepth":"9.213","Units":"in","Rept_Date":"2025-04-10 12"}},{"type":"Point","coordinates":[-69.8119,45.6602],"properties":{"Station_ID":"BRAM1","Station_Nam":"BRASSUA DAM","Latitude":"45.66020","Longitude":"-69.81190","Snowdepth":"9.000","Units":"in","Rept_Date":"2025-04-10 11"}},{"type":"Point","coordinates":[-94.2577,52.1145],"properties":{"Station_ID":"POPQ6","Station_Nam":"POPLAR HILL","Latitude":"52.11450","Longitude":"-94.25770","Snowdepth":"8.110","Units":"in","Rept_Date":"2025-04-11 06"}},{"type":"Point","coordinates":[-90.27013,46.41555],"properties":{"Station_ID":"WI-IR-3","Station_Nam":"PENCE 0.1 E, WI","Latitude":"46.41555","Longitude":"-90.27013","Snowdepth":"7.500","Units":"in","Rept_Date":"2025-04-10 12"}},{"type":"Point","coordinates":[-91.246,47.413],"properties":{"Station_ID":"MN-LK-52","Station_Nam":"FINLAND 0.1 S, MN","Latitude":"47.41300","Longitude":"-91.24600","Snowdepth":"7.300","Units":"in","Rept_Date":"2025-04-10 15"}},{"type":"Point","coordinates":[-73.4594,48.4889],"properties":{"Station_ID":"CQWG","Station_Nam":"CQWG","Latitude":"48.48890","Longitude":"-73.45940","Snowdepth":"7.047","Units":"in","Rept_Date":"2025-04-10 12"}},{"type":"Point","coordinates":[-69.7167,45.5833],"properties":{"Station_ID":"RKWM1","Station_Nam":"MOOSEHEAD LAKE","Latitude":"45.58330","Longitude":"-69.71670","Snowdepth":"7.000","Units":"in","Rept_Date":"2025-04-10 11"}},{"type":"Point","coordinates":[-90.08287,46.54936],"properties":{"Station_ID":"MI-GG-11","Station_Nam":"IRONWOOD 7.3 NNE, MI","Latitude":"46.54936","Longitude":"-90.08287","Snowdepth":"7.000","Units":"in","Rept_Date":"2025-04-10 12"}},{"type":"Point","coordinates":[-75.6147,48.8722],"properties":{"Station_ID":"CQYR","Station_Nam":"CQYR","Latitude":"48.87220","Longitude":"-75.61470","Snowdepth":"6.772","Units":"in","Rept_Date":"2025-04-10 12"}},{"type":"Point","coordinates":[-91.1973,47.3824],"properties":{"Station_ID":"WLFM5","Station_Nam":"WOLF RIDGE ENVIRON LEARNING CENTER","Latitude":"47.38240","Longitude":"-91.19730","Snowdepth":"6.000","Units":"in","Rept_Date":"2025-04-10 12"}},{"type":"Point","coordinates":[-71.3,44.2667],"properties":{"Station_ID":"MWN","Station_Nam":"MOUNT WASHINGTON","Latitude":"44.26670","Longitude":"-71.30000","Snowdepth":"6.000","Units":"in","Rept_Date":"2025-04-10 12"}},{"type":"Point","coordinates":[-90.4376,47.74865],"properties":{"Station_ID":"MN-CK-6","Station_Nam":"GRAND MARAIS 4.4 W, MN","Latitude":"47.74865","Longitude":"-90.43760","Snowdepth":"6.000","Units":"in","Rept_Date":"2025-04-10 12"}},{"type":"Point","coordinates":[-71.3,44.26666],"properties":{"Station_ID":"KMWN","Station_Nam":"MOUNT WASHINGTON","Latitude":"44.26666","Longitude":"-71.30000","Snowdepth":"6.000","Units":"in","Rept_Date":"2025-04-11 06"}},{"type":"Point","coordinates":[-87.3038,46.4533],"properties":{"Station_ID":"GGRM4","Station_Nam":"GREEN GARDEN NO.2","Latitude":"46.45330","Longitude":"-87.30380","Snowdepth":"6.000","Units":"in","Rept_Date":"2025-04-10 11"}},{"type":"Point","coordinates":[-86.9167,46.3333],"properties":{"Station_ID":"CEFM4","Station_Nam":"EXPERIMENT FARM #2","Latitude":"46.33330","Longitude":"-86.91670","Snowdepth":"6.000","Units":"in","Rept_Date":"2025-04-10 12"}},{"type":"Point","coordinates":[-84.3239,46.1864],"properties":{"Station_ID":"PICM4","Station_Nam":"PICKFORD 3NE","Latitude":"46.18640","Longitude":"-84.32390","Snowdepth":"5.000","Units":"in","Rept_Date":"2025-04-10 22"}},{"type":"Point","coordinates":[-89.0752,46.0663],"properties":{"Station_ID":"PHEW3","Station_Nam":"PHELPS","Latitude":"46.06630","Longitude":"-89.07520","Snowdepth":"5.000","Units":"in","Rept_Date":"2025-04-10 12"}},{"type":"Point","coordinates":[-71.22598,44.19069],"properties":{"Station_ID":"NH-CR-15","Station_Nam":"JACKSON 3.7 NW, NH","Latitude":"44.19069","Longitude":"-71.22598","Snowdepth":"5.000","Units":"in","Rept_Date":"2025-04-10 11"}},{"type":"Point","coordinates":[-93.216,48.59631],"properties":{"Station_ID":"MN-KC-20","Station_Nam":"INTERNATIONAL FALLS 8.8 E, MN","Latitude":"48.59631","Longitude":"-93.21600","Snowdepth":"5.000","Units":"in","Rept_Date":"2025-04-10 12"}},{"type":"Point","coordinates":[-90.43796,47.74462],"properties":{"Station_ID":"MN-CK-18","Station_Nam":"GRAND MARAIS 4.4 WSW, MN","Latitude":"47.74462","Longitude":"-90.43796","Snowdepth":"5.000","Units":"in","Rept_Date":"2025-04-10 12"}},{"type":"Point","coordinates":[-72.787,44.5843],"properties":{"Station_ID":"JEFV1","Station_Nam":"JEFFERSONVILLE","Latitude":"44.58430","Longitude":"-72.78700","Snowdepth":"5.000","Units":"in","Rept_Date":"2025-04-10 11"}},{"type":"Point","coordinates":[-75.5543,43.6051],"properties":{"Station_ID":"HGHN6","Station_Nam":"HIGHMARKET","Latitude":"43.60510","Longitude":"-75.55430","Snowdepth":"5.000","Units":"in","Rept_Date":"2025-04-10 10"}},{"type":"Point","coordinates":[-66.112,43.77063],"properties":{"Station_ID":"CAN-NS-82","Station_Nam":"YARMOUTH 7.4 S, CA","Latitude":"43.77063","Longitude":"-66.11200","Snowdepth":"5.000","Units":"in","Rept_Date":"2025-04-10 11"}},{"type":"Point","coordinates":[-72.6383,48.1392],"properties":{"Station_ID":"CQLP","Station_Nam":"CQLP","Latitude":"48.13920","Longitude":"-72.63830","Snowdepth":"4.882","Units":"in","Rept_Date":"2025-04-10 12"}},{"type":"Point","coordinates":[-76.1453,38.91833],"properties":{"Station_ID":"007MD_MADIS","Station_Nam":"WYE MILLS 4 WSW","Latitude":"38.91833","Longitude":"-76.14530","Snowdepth":"4.690","Units":"in","Rept_Date":"2025-04-11 06"}},{"type":"Point","coordinates":[-75.5384,43.37335],"properties":{"Station_ID":"NY-OD-2","Station_Nam":"POINT ROCK 0.6 SE, NY","Latitude":"43.37335","Longitude":"-75.53840","Snowdepth":"4.500","Units":"in","Rept_Date":"2025-04-10 12"}},{"type":"Point","coordinates":[-72.8326,43.29092],"properties":{"Station_ID":"VT-BN-3","Station_Nam":"LANDGROVE 1.1 NNE, VT","Latitude":"43.29092","Longitude":"-72.83260","Snowdepth":"4.000","Units":"in","Rept_Date":"2025-04-10 11"}},{"type":"Point","coordinates":[-94.10155,47.82442],"properties":{"Station_ID":"MN-IT-80","Station_Nam":"NORTHOME 8.4 ESE, MN","Latitude":"47.82442","Longitude":"-94.10155","Snowdepth":"4.000","Units":"in","Rept_Date":"2025-04-10 13"}},{"type":"Point","coordinates":[-72.8333,44.5333],"properties":{"Station_ID":"MMSV1","Station_Nam":"MOUNT MANSFIELD","Latitude":"44.53330","Longitude":"-72.83330","Snowdepth":"4.000","Units":"in","Rept_Date":"2025-04-11 06"}},{"type":"Point","coordinates":[-89.0758,46.1211],"properties":{"Station_ID":"LVDW3","Station_Nam":"LAC VIEUX DESERT","Latitude":"46.12110","Longitude":"-89.07580","Snowdepth":"4.000","Units":"in","Rept_Date":"2025-04-10 14"}},{"type":"Point","coordinates":[-73.9839,44.3042],"properties":{"Station_ID":"LPLN6","Station_Nam":"LAKE PLACID 2 S","Latitude":"44.30420","Longitude":"-73.98390","Snowdepth":"4.000","Units":"in","Rept_Date":"2025-04-10 12"}},{"type":"Point","coordinates":[-92.6925,47.8506],"properties":{"Station_ID":"COKM5","Station_Nam":"COOK","Latitude":"47.85060","Longitude":"-92.69250","Snowdepth":"4.000","Units":"in","Rept_Date":"2025-04-10 11"}},{"type":"Point","coordinates":[-60.6434,46.25082],"properties":{"Station_ID":"CAN-NS-39","Station_Nam":"ST. ANNS 2.8 NW, CA","Latitude":"46.25082","Longitude":"-60.64340","Snowdepth":"4.000","Units":"in","Rept_Date":"2025-04-10 11"}},{"type":"Point","coordinates":[-91.4486,47.9719],"properties":{"Station_ID":"BNDM5","Station_Nam":"ELY 25E","Latitude":"47.97190","Longitude":"-91.44860","Snowdepth":"4.000","Units":"in","Rept_Date":"2025-04-10 14"}},{"type":"Point","coordinates":[-88.4544,46.2347],"properties":{"Station_ID":"AMAM4","Station_Nam":"AMASA 1W","Latitude":"46.23470","Longitude":"-88.45440","Snowdepth":"4.000","Units":"in","Rept_Date":"2025-04-10 13"}},{"type":"Point","coordinates":[-71.27124,46.76934],"properties":{"Station_ID":"CAN-QC-47","Station_Nam":"SAINTE-FOY 1.8 ENE, CAN","Latitude":"46.76934","Longitude":"-71.27124","Snowdepth":"3.900","Units":"in","Rept_Date":"2025-04-10 11"}},{"type":"Point","coordinates":[-84.4936,41.90071],"properties":{"Station_ID":"MI-HL-13","Station_Nam":"OSSEO 2.7 NE, MI","Latitude":"41.90071","Longitude":"-84.49360","Snowdepth":"3.500","Units":"in","Rept_Date":"2025-04-10 12"}},{"type":"Point","coordinates":[-70.18007,44.73396],"properties":{"Station_ID":"ME-FR-22","Station_Nam":"FARMINGTON 4.8 NNW, ME","Latitude":"44.73396","Longitude":"-70.18007","Snowdepth":"3.500","Units":"in","Rept_Date":"2025-04-10 13"}},{"type":"Point","coordinates":[-89.4579,46.19023],"properties":{"Station_ID":"WI-VL-9","Station_Nam":"LAND O' LAKES 11.7 W, WI","Latitude":"46.19023","Longitude":"-89.45790","Snowdepth":"3.000","Units":"in","Rept_Date":"2025-04-10 12"}},{"type":"Point","coordinates":[-88.6278,46.0555],"properties":{"Station_ID":"STMM4","Station_Nam":"STAMBAUGH 2SSE","Latitude":"46.05550","Longitude":"-88.62780","Snowdepth":"3.000","Units":"in","Rept_Date":"2025-04-10 12"}},{"type":"Point","coordinates":[-71.5044,44.5283],"properties":{"Station_ID":"NUMN3","Station_Nam":"NORTHUMBERLAND","Latitude":"44.52830","Longitude":"-71.50440","Snowdepth":"3.000","Units":"in","Rept_Date":"2025-04-10 11"}},{"type":"Point","coordinates":[-90.84932,47.56499],"properties":{"Station_ID":"MN-CK-31","Station_Nam":"TOFTE 0.9 SW, MN","Latitude":"47.56499","Longitude":"-90.84932","Snowdepth":"3.000","Units":"in","Rept_Date":"2025-04-10 12"}},{"type":"Point","coordinates":[-88.18,46.5453],"properties":{"Station_ID":"MIEM4","Station_Nam":"MICHIGAMME 3WNW","Latitude":"46.54530","Longitude":"-88.18000","Snowdepth":"3.000","Units":"in","Rept_Date":"2025-04-10 12"}},{"type":"Point","coordinates":[-89.457,46.19],"properties":{"Station_ID":"LNOW3","Station_Nam":"LAND O LAKES","Latitude":"46.19000","Longitude":"-89.45700","Snowdepth":"3.000","Units":"in","Rept_Date":"2025-04-10 12"}},{"type":"Point","coordinates":[-90.1382,46.4652],"properties":{"Station_ID":"IWOM4","Station_Nam":"IRONWOOD#2","Latitude":"46.46520","Longitude":"-90.13820","Snowdepth":"3.000","Units":"in","Rept_Date":"2025-04-10 12"}},{"type":"Point","coordinates":[-90.1955,46.4625],"properties":{"Station_ID":"HURW3","Station_Nam":"HURLEY","Latitude":"46.46250","Longitude":"-90.19550","Snowdepth":"3.000","Units":"in","Rept_Date":"2025-04-10 13"}},{"type":"Point","coordinates":[-63.791,44.75181],"properties":{"Station_ID":"CAN-NS-18","Station_Nam":"HAMMONDS PLAINS 2.1 NNW, CA","Latitude":"44.75181","Longitude":"-63.79100","Snowdepth":"3.000","Units":"in","Rept_Date":"2025-04-10 10"}},{"type":"Point","coordinates":[-63.5336,44.67708],"properties":{"Station_ID":"CAN-NS-160","Station_Nam":"DARTMOUTH 2.3 ENE, CAN","Latitude":"44.67708","Longitude":"-63.53360","Snowdepth":"2.800","Units":"in","Rept_Date":"2025-04-10 10"}},{"type":"Point","coordinates":[-71.46461,44.33765],"properties":{"Station_ID":"NH-CS-19","Station_Nam":"CARROLL 4.6 NE, NH","Latitude":"44.33765","Longitude":"-71.46461","Snowdepth":"2.600","Units":"in","Rept_Date":"2025-04-10 11"}},{"type":"Point","coordinates":[-91.0109,46.689],"properties":{"Station_ID":"WI-BY-56","Station_Nam":"WASHBURN 5.7 W, WI","Latitude":"46.68900","Longitude":"-91.01090","Snowdepth":"2.500","Units":"in","Rept_Date":"2025-04-10 12"}},{"type":"Point","coordinates":[-72.43258,44.48825],"properties":{"Station_ID":"VT-WS-30","Station_Nam":"WOODBURY 3.4 NNW, VT","Latitude":"44.48825","Longitude":"-72.43258","Snowdepth":"2.500","Units":"in","Rept_Date":"2025-04-10 11"}},{"type":"Point","coordinates":[-72.88108,44.50112],"properties":{"Station_ID":"VT-CH-57","Station_Nam":"UNDERHILL 3.6 ESE, VT","Latitude":"44.50112","Longitude":"-72.88108","Snowdepth":"2.500","Units":"in","Rept_Date":"2025-04-10 11"}},{"type":"Point","coordinates":[-72.9225,44.58774],"properties":{"Station_ID":"VT-CH-4","Station_Nam":"UNDERHILL 4.4 NNE, VT","Latitude":"44.58774","Longitude":"-72.92250","Snowdepth":"2.500","Units":"in","Rept_Date":"2025-04-10 11"}},{"type":"Point","coordinates":[-86.413,45.80105],"properties":{"Station_ID":"75281_MADIS","Station_Nam":"MANISTIQUE 13.4 SW, MI","Latitude":"45.80105","Longitude":"-86.41300","Snowdepth":"2.500","Units":"in","Rept_Date":"2025-04-10 12"}},{"type":"Point","coordinates":[-72.70871,45.06024],"properties":{"Station_ID":"CAN-QC-69","Station_Nam":"FRELIGHSBURG 10.3 E - MOUNT PINNACLE LAND TRUST, CAN","Latitude":"45.06024","Longitude":"-72.70871","Snowdepth":"2.400","Units":"in","Rept_Date":"2025-04-10 12"}},{"type":"Point","coordinates":[-77.9385,39.69766],"properties":{"Station_ID":"015MD_MADIS","Station_Nam":"CLEAR SPRING 3 N","Latitude":"39.69766","Longitude":"-77.93850","Snowdepth":"2.090","Units":"in","Rept_Date":"2025-04-11 06"}},{"type":"Point","coordinates":[-90.85854,46.88063],"properties":{"Station_ID":"WI-BY-29","Station_Nam":"BAYFIELD 5.1 NNW, WI","Latitude":"46.88063","Longitude":"-90.85854","Snowdepth":"2.000","Units":"in","Rept_Date":"2025-04-10 12"}},{"type":"Point","coordinates":[-72.56234,44.87663],"properties":{"Station_ID":"VT-FR-30","Station_Nam":"MONTGOMERY 4.1 ESE, VT","Latitude":"44.87663","Longitude":"-72.56234","Snowdepth":"2.000","Units":"in","Rept_Date":"2025-04-10 11"}},{"type":"Point","coordinates":[-90.4122,46.3678],"properties":{"Station_ID":"UPSW3","Station_Nam":"UPSON,WI","Latitude":"46.36780","Longitude":"-90.41220","Snowdepth":"2.000","Units":"in","Rept_Date":"2025-04-10 23"}},{"type":"Point","coordinates":[-67.7213,45.4353],"properties":{"Station_ID":"TOPM1","Station_Nam":"TOPSFIELD","Latitude":"45.43530","Longitude":"-67.72130","Snowdepth":"2.000","Units":"in","Rept_Date":"2025-04-10 10"}},{"type":"Point","coordinates":[-83.8167,42.1333],"properties":{"Station_ID":"SLNM4","Station_Nam":"SALINE,MI","Latitude":"42.13330","Longitude":"-83.81670","Snowdepth":"2.000","Units":"in","Rept_Date":"2025-04-10 12"}},{"type":"Point","coordinates":[-71.383,45.0469],"properties":{"Station_ID":"PTBN3","Station_Nam":"PITTSBURG RESERVOIR","Latitude":"45.04690","Longitude":"-71.38300","Snowdepth":"2.000","Units":"in","Rept_Date":"2025-04-10 11"}},{"type":"Point","coordinates":[-85.5162,46.3515],"properties":{"Station_ID":"NCFM4","Station_Nam":"NEWBERRY-LUCE COUNTY ROAD COMMISSION","Latitude":"46.35150","Longitude":"-85.51620","Snowdepth":"2.000","Units":"in","Rept_Date":"2025-04-10 12"}},{"type":"Point","coordinates":[-90.761,47.62394],"properties":{"Station_ID":"MN-CK-3","Station_Nam":"TOFTE 4.9 NE, MN","Latitude":"47.62394","Longitude":"-90.76100","Snowdepth":"2.000","Units":"in","Rept_Date":"2025-04-10 12"}},{"type":"Point","coordinates":[-83.5456,42.33372],"properties":{"Station_ID":"MI-WY-147","Station_Nam":"CANTON 3.7 WNW, MI","Latitude":"42.33372","Longitude":"-83.54560","Snowdepth":"2.000","Units":"in","Rept_Date":"2025-04-10 11"}},{"type":"Point","coordinates":[-83.9933,42.3636],"properties":{"Station_ID":"MI-WS-53","Station_Nam":"CHELSEA 3.7 NNE, MI","Latitude":"42.36360","Longitude":"-83.99330","Snowdepth":"2.000","Units":"in","Rept_Date":"2025-04-10 12"}},{"type":"Point","coordinates":[-84.73582,45.86422],"properties":{"Station_ID":"MI-MC-5","Station_Nam":"ST. IGNACE 0.6 WSW, MI","Latitude":"45.86422","Longitude":"-84.73582","Snowdepth":"2.000","Units":"in","Rept_Date":"2025-04-10 11"}},{"type":"Point","coordinates":[-84.34709,42.4455],"properties":{"Station_ID":"MI-IH-61","Station_Nam":"LESLIE 4.3 E, MI","Latitude":"42.44550","Longitude":"-84.34709","Snowdepth":"2.000","Units":"in","Rept_Date":"2025-04-10 12"}},{"type":"Point","coordinates":[-68.1439,47.0108],"properties":{"Station_ID":"ME-AR-18","Station_Nam":"NEW SWEDEN 4.9 NNW, ME","Latitude":"47.01080","Longitude":"-68.14390","Snowdepth":"2.000","Units":"in","Rept_Date":"2025-04-10 11"}},{"type":"Point","coordinates":[-93.9,48.6167],"properties":{"Station_ID":"INDM5","Station_Nam":"INDUS,MN","Latitude":"48.61670","Longitude":"-93.90000","Snowdepth":"2.000","Units":"in","Rept_Date":"2025-04-10 11"}},{"type":"Point","coordinates":[-83.0881,42.13151],"properties":{"Station_ID":"CAN-ON-324","Station_Nam":"AMHERSTBURG 4.0 NNE, CAN","Latitude":"42.13151","Longitude":"-83.08810","Snowdepth":"2.000","Units":"in","Rept_Date":"2025-04-10 11"}},{"type":"Point","coordinates":[-63.67521,44.72917],"properties":{"Station_ID":"CAN-NS-43","Station_Nam":"BEDFORD 0.6 WNW, CAN","Latitude":"44.72917","Longitude":"-63.67521","Snowdepth":"2.000","Units":"in","Rept_Date":"2025-04-10 11"}},{"type":"Point","coordinates":[-95.8902,50.14747],"properties":{"Station_ID":"CAN-MB-32","Station_Nam":"PINAWA 1.0 SW, CA","Latitude":"50.14747","Longitude":"-95.89020","Snowdepth":"2.000","Units":"in","Rept_Date":"2025-04-10 12"}},{"type":"Point","coordinates":[-83.6933,42.2416],"properties":{"Station_ID":"AASM4","Station_Nam":"ANN ARBOR SE","Latitude":"42.24160","Longitude":"-83.69330","Snowdepth":"2.000","Units":"in","Rept_Date":"2025-04-10 11"}},{"type":"Point","coordinates":[-76.6234,39.39474],"properties":{"Station_ID":"013MD_MADIS","Station_Nam":"TOWSON 1 WSW","Latitude":"39.39474","Longitude":"-76.62340","Snowdepth":"1.850","Units":"in","Rept_Date":"2025-04-11 06"}},{"type":"Point","coordinates":[-83.5712,42.38279],"properties":{"Station_ID":"MI-WS-3","Station_Nam":"PLYMOUTH 5.4 W, MI","Latitude":"42.38279","Longitude":"-83.57120","Snowdepth":"1.800","Units":"in","Rept_Date":"2025-04-10 11"}},{"type":"Point","coordinates":[-76.8431,38.59709],"properties":{"Station_ID":"010MD_MADIS","Station_Nam":"WALDORF 4 ESE","Latitude":"38.59709","Longitude":"-76.84310","Snowdepth":"1.730","Units":"in","Rept_Date":"2025-04-11 06"}},{"type":"Point","coordinates":[-83.40139,42.74955],"properties":{"Station_ID":"MI-OK-107","Station_Nam":"CLARKSTON 1.4 NE, MI","Latitude":"42.74955","Longitude":"-83.40139","Snowdepth":"1.600","Units":"in","Rept_Date":"2025-04-10 11"}},{"type":"Point","coordinates":[-75.48952,45.27286],"properties":{"Station_ID":"CAN-ON-791","Station_Nam":"METCALFE 4.4 NNW, CAN","Latitude":"45.27286","Longitude":"-75.48952","Snowdepth":"1.600","Units":"in","Rept_Date":"2025-04-10 11"}},{"type":"Point","coordinates":[-63.5264,44.49914],"properties":{"Station_ID":"CAN-NS-6","Station_Nam":"DUNCANS COVE 0.4 ESE, CAN","Latitude":"44.49914","Longitude":"-63.52640","Snowdepth":"1.600","Units":"in","Rept_Date":"2025-04-10 10"}},{"type":"Point","coordinates":[-89.6247,46.1284],"properties":{"Station_ID":"WI-VL-14","Station_Nam":"BOULDER JUNCTION 1.4 NE, WI","Latitude":"46.12840","Longitude":"-89.62470","Snowdepth":"1.500","Units":"in","Rept_Date":"2025-04-10 12"}},{"type":"Point","coordinates":[-90.1696,46.388],"properties":{"Station_ID":"WI-IR-6","Station_Nam":"HURLEY 4.1 SSE, WI","Latitude":"46.38800","Longitude":"-90.16960","Snowdepth":"1.500","Units":"in","Rept_Date":"2025-04-10 12"}},{"type":"Point","coordinates":[-83.22323,42.7868],"properties":{"Station_ID":"MI-OK-121","Station_Nam":"LAKE ORION 1.1 ENE, MI","Latitude":"42.78680","Longitude":"-83.22323","Snowdepth":"1.500","Units":"in","Rept_Date":"2025-04-10 10"}},{"type":"Point","coordinates":[-83.9653,42.0771],"properties":{"Station_ID":"MI-LN-16","Station_Nam":"CLINTON 0.5 NE, MI","Latitude":"42.07710","Longitude":"-83.96530","Snowdepth":"1.500","Units":"in","Rept_Date":"2025-04-10 11"}},{"type":"Point","coordinates":[-63.81922,44.72455],"properties":{"Station_ID":"CAN-NS-56","Station_Nam":"HAMMOND PLAINS 2.9 WSW, CAN","Latitude":"44.72455","Longitude":"-63.81922","Snowdepth":"1.500","Units":"in","Rept_Date":"2025-04-10 11"}},{"type":"Point","coordinates":[-83.767,42.27112],"properties":{"Station_ID":"76551_MADIS","Station_Nam":"ANN ARBOR 1.9 W, MI","Latitude":"42.27112","Longitude":"-83.76700","Snowdepth":"1.500","Units":"in","Rept_Date":"2025-04-10 11"}},{"type":"Point","coordinates":[-63.5907,44.6513],"properties":{"Station_ID":"CAN-NS-134","Station_Nam":"HALIFAX 0.9 ENE, CAN","Latitude":"44.65130","Longitude":"-63.59070","Snowdepth":"1.400","Units":"in","Rept_Date":"2025-04-10 11"}},{"type":"Point","coordinates":[-63.91481,44.64129],"properties":{"Station_ID":"CAN-NS-182","Station_Nam":"GLEN HAVEN 0.4 WSW, CAN","Latitude":"44.64129","Longitude":"-63.91481","Snowdepth":"1.200","Units":"in","Rept_Date":"2025-04-10 10"}},{"type":"Point","coordinates":[-67.32532,46.98305],"properties":{"Station_ID":"CAN-NB-105","Station_Nam":"SISSON BROOK 3.8 E, CAN","Latitude":"46.98305","Longitude":"-67.32532","Snowdepth":"1.200","Units":"in","Rept_Date":"2025-04-10 11"}},{"type":"Point","coordinates":[-84.5619,42.01472],"properties":{"Station_ID":"MI-HL-4","Station_Nam":"JONESVILLE 5.9 ENE, MI","Latitude":"42.01472","Longitude":"-84.56190","Snowdepth":"1.100","Units":"in","Rept_Date":"2025-04-10 12"}},{"type":"Point","coordinates":[-83.5771,42.22766],"properties":{"Station_ID":"73651_MADIS","Station_Nam":"YPSILANTI 2.5 ESE, MI","Latitude":"42.22766","Longitude":"-83.57710","Snowdepth":"1.100","Units":"in","Rept_Date":"2025-04-10 11"}},{"type":"Point","coordinates":[-76.9258,39.26249],"properties":{"Station_ID":"001MD_MADIS","Station_Nam":"CLARKSVILLE 4 NNE","Latitude":"39.26249","Longitude":"-76.92580","Snowdepth":"1.100","Units":"in","Rept_Date":"2025-04-11 06"}},{"type":"Point","coordinates":[-83.1683,42.2011],"properties":{"Station_ID":"WYTM4","Station_Nam":"WYANDOTTE","Latitude":"42.20110","Longitude":"-83.16830","Snowdepth":"1.000","Units":"in","Rept_Date":"2025-04-10 12"}},{"type":"Point","coordinates":[-88.7416,45.1452],"properties":{"Station_ID":"WLKW3","Station_Nam":"WHITE LAKE 1 SE","Latitude":"45.14520","Longitude":"-88.74160","Snowdepth":"1.000","Units":"in","Rept_Date":"2025-04-10 13"}},{"type":"Point","coordinates":[-88.1415,45.89369],"properties":{"Station_ID":"WI-FL-4","Station_Nam":"FLORENCE 5.6 ESE, WI","Latitude":"45.89369","Longitude":"-88.14150","Snowdepth":"1.000","Units":"in","Rept_Date":"2025-04-10 12"}},{"type":"Point","coordinates":[-89.84798,44.20533],"properties":{"Station_ID":"WI-AD-5","Station_Nam":"NEKOOSA 8.0 SSE, WI","Latitude":"44.20533","Longitude":"-89.84798","Snowdepth":"1.000","Units":"in","Rept_Date":"2025-04-10 12"}},{"type":"Point","coordinates":[-72.28,44.631],"properties":{"Station_ID":"VT-OL-12","Station_Nam":"GREENSBORO 3.9 NNE, VT","Latitude":"44.63100","Longitude":"-72.28000","Snowdepth":"1.000","Units":"in","Rept_Date":"2025-04-10 12"}},{"type":"Point","coordinates":[-72.9657,44.32488],"properties":{"Station_ID":"VT-CH-7","Station_Nam":"HUNTINGTON 1.1 E, VT","Latitude":"44.32488","Longitude":"-72.96570","Snowdepth":"1.000","Units":"in","Rept_Date":"2025-04-10 11"}},{"type":"Point","coordinates":[-73.02,42.82],"properties":{"Station_ID":"VT-BN-12","Station_Nam":"STAMFORD 5.0 NNE, VT","Latitude":"42.82000","Longitude":"-73.02000","Snowdepth":"1.000","Units":"in","Rept_Date":"2025-04-10 20"}},{"type":"Point","coordinates":[-85.6385,41.9299],"properties":{"Station_ID":"TRJM4","Station_Nam":"THREE RIVERS","Latitude":"41.92990","Longitude":"-85.63850","Snowdepth":"1.000","Units":"in","Rept_Date":"2025-04-10 11"}},{"type":"Point","coordinates":[-70.6722,44.9894],"properties":{"Station_ID":"RGNM1","Station_Nam":"RANGELEY 2NW","Latitude":"44.98940","Longitude":"-70.67220","Snowdepth":"1.000","Units":"in","Rept_Date":"2025-04-10 10"}},{"type":"Point","coordinates":[-72.9,43.2667],"properties":{"Station_ID":"PERV1","Station_Nam":"PERU","Latitude":"43.26670","Longitude":"-72.90000","Snowdepth":"1.000","Units":"in","Rept_Date":"2025-04-10 11"}},{"type":"Point","coordinates":[-74.4236,43.115],"properties":{"Station_ID":"PEKN6","Station_Nam":"PECK LAKE","Latitude":"43.11500","Longitude":"-74.42360","Snowdepth":"1.000","Units":"in","Rept_Date":"2025-04-10 11"}},{"type":"Point","coordinates":[-86.4011,45.7961],"properties":{"Station_ID":"PARM4","Station_Nam":"PARENT BAY","Latitude":"45.79610","Longitude":"-86.40110","Snowdepth":"1.000","Units":"in","Rept_Date":"2025-04-10 16"}},{"type":"Point","coordinates":[-72.9264,44.4497],"properties":{"Station_ID":"NVLV1","Station_Nam":"NASHVILLE","Latitude":"44.44970","Longitude":"-72.92640","Snowdepth":"1.000","Units":"in","Rept_Date":"2025-04-10 11"}},{"type":"Point","coordinates":[-89.7322,45.8863],"properties":{"Station_ID":"MQRW3","Station_Nam":"MINOCQUA","Latitude":"45.88630","Longitude":"-89.73220","Snowdepth":"1.000","Units":"in","Rept_Date":"2025-04-10 11"}},{"type":"Point","coordinates":[-91.86218,47.24692],"properties":{"Station_ID":"MN-SL-160","Station_Nam":"BRIMSON 2.0 S, MN","Latitude":"47.24692","Longitude":"-91.86218","Snowdepth":"1.000","Units":"in","Rept_Date":"2025-04-10 12"}},{"type":"Point","coordinates":[-83.47286,42.34732],"properties":{"Station_ID":"MI-WY-125","Station_Nam":"CANTON 2.7 N, MI","Latitude":"42.34732","Longitude":"-83.47286","Snowdepth":"1.000","Units":"in","Rept_Date":"2025-04-10 11"}},{"type":"Point","coordinates":[-83.8694,42.2639],"properties":{"Station_ID":"MI-WS-41","Station_Nam":"ANN ARBOR 7.1 W, MI","Latitude":"42.26390","Longitude":"-83.86940","Snowdepth":"1.000","Units":"in","Rept_Date":"2025-04-10 11"}},{"type":"Point","coordinates":[-83.8109,42.12618],"properties":{"Station_ID":"MI-WS-25","Station_Nam":"SALINE 3.8 SSW, MI","Latitude":"42.12618","Longitude":"-83.81090","Snowdepth":"1.000","Units":"in","Rept_Date":"2025-04-10 11"}},{"type":"Point","coordinates":[-86.28266,45.99042],"properties":{"Station_ID":"MI-SH-1","Station_Nam":"MANISTIQUE 2.7 NW, MI","Latitude":"45.99042","Longitude":"-86.28266","Snowdepth":"1.000","Units":"in","Rept_Date":"2025-04-10 10"}},{"type":"Point","coordinates":[-89.28143,46.85396],"properties":{"Station_ID":"MI-ON-4","Station_Nam":"ONTONAGON 1.8 ESE, MI","Latitude":"46.85396","Longitude":"-89.28143","Snowdepth":"1.000","Units":"in","Rept_Date":"2025-04-10 12"}},{"type":"Point","coordinates":[-83.5174,42.74434],"properties":{"Station_ID":"MI-OK-66","Station_Nam":"DAVISBURG 1.3 ESE, MI","Latitude":"42.74434","Longitude":"-83.51740","Snowdepth":"1.000","Units":"in","Rept_Date":"2025-04-10 12"}},{"type":"Point","coordinates":[-83.455,42.5692],"properties":{"Station_ID":"MI-OK-149","Station_Nam":"COMMERCE CHARTER TWP 1.8 ESE, MI","Latitude":"42.56920","Longitude":"-83.45500","Snowdepth":"1.000","Units":"in","Rept_Date":"2025-04-10 11"}},{"type":"Point","coordinates":[-85.659,42.20613],"properties":{"Station_ID":"MI-KZ-1","Station_Nam":"KALAMAZOO 6.0 SW, MI","Latitude":"42.20613","Longitude":"-85.65900","Snowdepth":"1.000","Units":"in","Rept_Date":"2025-04-10 12"}},{"type":"Point","coordinates":[-89.1317,46.20333],"properties":{"Station_ID":"MI-GG-4","Station_Nam":"WATERSMEET 5.0 SE, MI","Latitude":"46.20333","Longitude":"-89.13170","Snowdepth":"1.000","Units":"in","Rept_Date":"2025-04-10 13"}},{"type":"Point","coordinates":[-85.5379,42.45066],"properties":{"Station_ID":"MI-BR-9","Station_Nam":"PLAINWELL 5.4 E, MI","Latitude":"42.45066","Longitude":"-85.53790","Snowdepth":"1.000","Units":"in","Rept_Date":"2025-04-10 12"}},{"type":"Point","coordinates":[-85.65374,42.44318],"properties":{"Station_ID":"MI-AN-25","Station_Nam":"PLAINWELL 0.5 WSW, MI","Latitude":"42.44318","Longitude":"-85.65374","Snowdepth":"1.000","Units":"in","Rept_Date":"2025-04-10 11"}},{"type":"Point","coordinates":[-90.0722,46.1683],"properties":{"Station_ID":"MERW3","Station_Nam":"MERCER,WI","Latitude":"46.16830","Longitude":"-90.07220","Snowdepth":"1.000","Units":"in","Rept_Date":"2025-04-10 14"}},{"type":"Point","coordinates":[-69.85635,44.33008],"properties":{"Station_ID":"ME-KB-55","Station_Nam":"MANCHESTER 0.5 NE, ME","Latitude":"44.33008","Longitude":"-69.85635","Snowdepth":"1.000","Units":"in","Rept_Date":"2025-04-10 11"}},{"type":"Point","coordinates":[-84.0236,42.1508],"properties":{"Station_ID":"MCHM4","Station_Nam":"MANCHESTER","Latitude":"42.15080","Longitude":"-84.02360","Snowdepth":"1.000","Units":"in","Rept_Date":"2025-04-10 11"}},{"type":"Point","coordinates":[-73.0333,43.05],"properties":{"Station_ID":"LBKV1","Station_Nam":"LYE BROOK","Latitude":"43.05000","Longitude":"-73.03330","Snowdepth":"1.000","Units":"in","Rept_Date":"2025-04-11 06"}},{"type":"Point","coordinates":[-85.8596,42.3563],"properties":{"Station_ID":"GOBM4","Station_Nam":"GOBLES 1 ESE","Latitude":"42.35630","Longitude":"-85.85960","Snowdepth":"1.000","Units":"in","Rept_Date":"2025-04-10 12"}},{"type":"Point","coordinates":[-92.1958,47.6581],"properties":{"Station_ID":"EMBM5","Station_Nam":"EMBARASS,MN","Latitude":"47.65810","Longitude":"-92.19580","Snowdepth":"1.000","Units":"in","Rept_Date":"2025-04-10 11"}},{"type":"Point","coordinates":[-72.8679,42.5741],"properties":{"Station_ID":"EHYM3","Station_Nam":"EAST HAWLEY","Latitude":"42.57410","Longitude":"-72.86790","Snowdepth":"1.000","Units":"in","Rept_Date":"2025-04-10 12"}},{"type":"Point","coordinates":[-71.8912,44.6425],"properties":{"Station_ID":"EAHV1","Station_Nam":"EAST HAVEN","Latitude":"44.64250","Longitude":"-71.89120","Snowdepth":"1.000","Units":"in","Rept_Date":"2025-04-10 11"}},{"type":"Point","coordinates":[-83.9013,45.9983],"properties":{"Station_ID":"DTVM4","Station_Nam":"DETOUR VILLAGE","Latitude":"45.99830","Longitude":"-83.90130","Snowdepth":"1.000","Units":"in","Rept_Date":"2025-04-10 12"}},{"type":"Point","coordinates":[-84.8333,42.55],"properties":{"Station_ID":"CLTM4","Station_Nam":"CHARLOTTE,MI","Latitude":"42.55000","Longitude":"-84.83330","Snowdepth":"1.000","Units":"in","Rept_Date":"2025-04-10 11"}},{"type":"Point","coordinates":[-84.0133,42.3263],"properties":{"Station_ID":"CHLM4","Station_Nam":"CHELSEA","Latitude":"42.32630","Longitude":"-84.01330","Snowdepth":"1.000","Units":"in","Rept_Date":"2025-04-10 13"}},{"type":"Point","coordinates":[-84.9925,41.9622],"properties":{"Station_ID":"CDWM4","Station_Nam":"COLDWATER ST SCHOOL","Latitude":"41.96220","Longitude":"-84.99250","Snowdepth":"1.000","Units":"in","Rept_Date":"2025-04-10 11"}},{"type":"Point","coordinates":[-91.8624,47.2472],"properties":{"Station_ID":"BRMM5","Station_Nam":"BRIMSON 2S","Latitude":"47.24720","Longitude":"-91.86240","Snowdepth":"1.000","Units":"in","Rept_Date":"2025-04-10 12"}},{"type":"Point","coordinates":[-89.7267,45.8994],"properties":{"Station_ID":"AVTW3","Station_Nam":"ARBOR VITAE-JOHNSON LAKE","Latitude":"45.89940","Longitude":"-89.72670","Snowdepth":"1.000","Units":"in","Rept_Date":"2025-04-10 11"}},{"type":"Point","coordinates":[-84.4273,42.23506],"properties":{"Station_ID":"71971_MADIS","Station_Nam":"JACKSON 1.3 WSW, MI","Latitude":"42.23506","Longitude":"-84.42730","Snowdepth":"1.000","Units":"in","Rept_Date":"2025-04-10 10"}}]}},"arcs":[],"bbox":[-95.8902,38.59709,-60.6434,52.1145]}
