{"type":"Topology","objects":{"snowdepth_geo":{"type":"GeometryCollection","name":"snowdepth","crs":{"type":"name","properties":{"name":"urn:ogc:def:crs:OGC:1.3:CRS84"}},"geometries":[{"type":"Point","properties":{"Station_ID":"PRKM4","Station_Nam":"MUNISING EAST","Latitude":"46.42580","Longitude":"-86.62000","Snowdepth":"76.500","Units":"in","Rept_Date":"2020-02-25 06"},"coordinates":[2492,6701]},{"type":"Point","properties":{"Station_ID":"OGIQ6","Station_Nam":"OGOKI CAMP","Latitude":"50.76680","Longitude":"-87.85820","Snowdepth":"61.100","Units":"in","Rept_Date":"2020-02-25 06"},"coordinates":[2202,9402]},{"type":"Point","properties":{"Station_ID":"HTLN3","Station_Nam":"HERMIT LAKE SNOWPLOT","Latitude":"44.26130","Longitude":"-71.28330","Snowdepth":"58.000","Units":"in","Rept_Date":"2020-02-24 10"},"coordinates":[6092,5354]},{"type":"Point","properties":{"Station_ID":"PDLM4","Station_Nam":"PAINESDALE","Latitude":"47.04160","Longitude":"-88.67170","Snowdepth":"49.000","Units":"in","Rept_Date":"2020-02-24 13"},"coordinates":[2011,7084]},{"type":"Point","properties":{"Station_ID":"DVLQ6","Station_Nam":"DEVIOUS LAKE","Latitude":"49.19890","Longitude":"-87.76440","Snowdepth":"43.460","Units":"in","Rept_Date":"2020-02-25 06"},"coordinates":[2224,8426]},{"type":"Point","properties":{"Station_ID":"CAN-NS-39","Station_Nam":"ST. ANNS 2.8 NW, CA","Latitude":"46.25082","Longitude":"-60.64340","Snowdepth":"39.000","Units":"in","Rept_Date":"2020-02-24 12"},"coordinates":[8589,6592]},{"type":"Point","properties":{"Station_ID":"NWCM4","Station_Nam":"NEWBERRY CITY","Latitude":"46.35720","Longitude":"-85.51780","Snowdepth":"38.000","Units":"in","Rept_Date":"2020-02-24 12"},"coordinates":[2751,6658]},{"type":"Point","properties":{"Station_ID":"WLFM5","Station_Nam":"WOLF RIDGE ENVIRON LEARNING CENTER","Latitude":"47.38240","Longitude":"-91.19730","Snowdepth":"37.000","Units":"in","Rept_Date":"2020-02-24 13"},"coordinates":[1418,7296]},{"type":"Point","properties":{"Station_ID":"KSGM4","Station_Nam":"KEARSARGE","Latitude":"47.27520","Longitude":"-88.41700","Snowdepth":"36.000","Units":"in","Rept_Date":"2020-02-24 13"},"coordinates":[2070,7229]},{"type":"Point","properties":{"Station_ID":"CAN-NL-82","Station_Nam":"GANDER 2.7 NW, CAN","Latitude":"48.97737","Longitude":"-54.63396","Snowdepth":"35.000","Units":"in","Rept_Date":"2020-02-24 10"},"coordinates":[9999,8288]},{"type":"Point","properties":{"Station_ID":"CAN-NL-65","Station_Nam":"KIPPENS 0.7 NE, CA","Latitude":"48.55436","Longitude":"-58.61850","Snowdepth":"34.500","Units":"in","Rept_Date":"2020-02-24 12"},"coordinates":[9064,8025]},{"type":"Point","properties":{"Station_ID":"MNSM4","Station_Nam":"MUNISING","Latitude":"46.41210","Longitude":"-86.66250","Snowdepth":"34.000","Units":"in","Rept_Date":"2020-02-24 11"},"coordinates":[2482,6692]},{"type":"Point","properties":{"Station_ID":"PHEW3","Station_Nam":"PHELPS","Latitude":"46.06630","Longitude":"-89.07520","Snowdepth":"33.000","Units":"in","Rept_Date":"2020-02-24 13"},"coordinates":[1916,6477]},{"type":"Point","properties":{"Station_ID":"IBLM5","Station_Nam":"ISABELLA 14W","Latitude":"47.59360","Longitude":"-91.65140","Snowdepth":"33.000","Units":"in","Rept_Date":"2020-02-24 15"},"coordinates":[1311,7428]},{"type":"Point","properties":{"Station_ID":"STEM4","Station_Nam":"STEUBEN","Latitude":"46.18530","Longitude":"-86.46410","Snowdepth":"32.000","Units":"in","Rept_Date":"2020-02-24 14"},"coordinates":[2529,6551]},{"type":"Point","properties":{"Station_ID":"MQT","Station_Nam":"MARQUETTE, MI","Latitude":"46.53140","Longitude":"-87.54920","Snowdepth":"32.000","Units":"in","Rept_Date":"2020-02-25 06"},"coordinates":[2274,6767]},{"type":"Point","properties":{"Station_ID":"MI-BG-3","Station_Nam":"L'ANSE 17.8 SE, MI","Latitude":"46.55730","Longitude":"-88.20770","Snowdepth":"32.000","Units":"in","Rept_Date":"2020-02-24 13"},"coordinates":[2119,6783]},{"type":"Point","properties":{"Station_ID":"QNCM4","Station_Nam":"QUINCY HILL","Latitude":"47.13640","Longitude":"-88.57950","Snowdepth":"31.000","Units":"in","Rept_Date":"2020-02-24 12"},"coordinates":[2032,7143]},{"type":"Point","properties":{"Station_ID":"CAN-QC-47","Station_Nam":"SAINTE-FOY 1.8 ENE, CAN","Latitude":"46.76934","Longitude":"-71.27124","Snowdepth":"29.500","Units":"in","Rept_Date":"2020-02-24 12"},"coordinates":[6094,6915]},{"type":"Point","properties":{"Station_ID":"ME-AR-18","Station_Nam":"NEW SWEDEN 4.9 NNW, ME","Latitude":"47.01080","Longitude":"-68.14390","Snowdepth":"29.000","Units":"in","Rept_Date":"2020-02-24 12"},"coordinates":[6828,7065]},{"type":"Point","properties":{"Station_ID":"CAN-NB-11","Station_Nam":"MIRAMICHI 3.3 S, CAN","Latitude":"46.99343","Longitude":"-65.50690","Snowdepth":"29.000","Units":"in","Rept_Date":"2020-02-24 11"},"coordinates":[7447,7054]},{"type":"Point","properties":{"Station_ID":"ME-AR-23","Station_Nam":"MADAWASKA 2.5 E, ME","Latitude":"47.34933","Longitude":"-68.28141","Snowdepth":"28.500","Units":"in","Rept_Date":"2020-02-24 12"},"coordinates":[6796,7276]},{"type":"Point","properties":{"Station_ID":"PTLQ6","Station_Nam":"PORTAGE LAKE","Latitude":"49.06950","Longitude":"-86.65940","Snowdepth":"28.310","Units":"in","Rept_Date":"2020-02-25 06"},"coordinates":[2483,8346]},{"type":"Point","properties":{"Station_ID":"CAN-NB-105","Station_Nam":"SISSON BROOK 3.8 E, CAN","Latitude":"46.98305","Longitude":"-67.32532","Snowdepth":"28.300","Units":"in","Rept_Date":"2020-02-24 12"},"coordinates":[7020,7048]},{"type":"Point","properties":{"Station_ID":"WRPW3","Station_Nam":"WATER PURIFICATION PLANT","Latitude":"44.38800","Longitude":"-89.80550","Snowdepth":"28.000","Units":"in","Rept_Date":"2020-02-24 12"},"coordinates":[1744,5433]},{"type":"Point","properties":{"Station_ID":"NH-CS-10","Station_Nam":"RANDOLPH 1.4 NE, NH","Latitude":"44.38824","Longitude":"-71.26950","Snowdepth":"28.000","Units":"in","Rept_Date":"2020-02-24 12"},"coordinates":[6095,5433]},{"type":"Point","properties":{"Station_ID":"KISM4","Station_Nam":"K.I. SAWYER WWTP","Latitude":"46.33410","Longitude":"-87.37790","Snowdepth":"28.000","Units":"in","Rept_Date":"2020-02-24 13"},"coordinates":[2314,6644]},{"type":"Point","properties":{"Station_ID":"CRVW3","Station_Nam":"CRIVITZ HIGH FALLS","Latitude":"45.35750","Longitude":"-88.19190","Snowdepth":"28.000","Units":"in","Rept_Date":"2020-02-24 13"},"coordinates":[2123,6036]},{"type":"Point","properties":{"Station_ID":"MI-HG-6","Station_Nam":"CALUMET 5.8 ENE, MI","Latitude":"47.27200","Longitude":"-88.33400","Snowdepth":"27.500","Units":"in","Rept_Date":"2020-02-24 11"},"coordinates":[2090,7227]},{"type":"Point","properties":{"Station_ID":"WI-VL-10","Station_Nam":"LAND O LAKES 4.3 WNW, WI","Latitude":"46.17440","Longitude":"-89.30380","Snowdepth":"27.000","Units":"in","Rept_Date":"2020-02-24 13"},"coordinates":[1862,6545]},{"type":"Point","properties":{"Station_ID":"VT-CL-3","Station_Nam":"GROTON 4.4 WSW, VT","Latitude":"44.19440","Longitude":"-72.28240","Snowdepth":"27.000","Units":"in","Rept_Date":"2020-02-24 11"},"coordinates":[5857,5313]},{"type":"Point","properties":{"Station_ID":"LVDW3","Station_Nam":"LAC VIEUX DESERT","Latitude":"46.12110","Longitude":"-89.07580","Snowdepth":"27.000","Units":"in","Rept_Date":"2020-02-24 14"},"coordinates":[1916,6511]},{"type":"Point","properties":{"Station_ID":"HURW3","Station_Nam":"HURLEY","Latitude":"46.46250","Longitude":"-90.19550","Snowdepth":"27.000","Units":"in","Rept_Date":"2020-02-24 14"},"coordinates":[1653,6724]},{"type":"Point","properties":{"Station_ID":"HERM4","Station_Nam":"HERMAN,MI","Latitude":"46.65000","Longitude":"-88.33330","Snowdepth":"27.000","Units":"in","Rept_Date":"2020-02-24 13"},"coordinates":[2090,6840]},{"type":"Point","properties":{"Station_ID":"BRAM1","Station_Nam":"BRASSUA DAM","Latitude":"45.66020","Longitude":"-69.81190","Snowdepth":"27.000","Units":"in","Rept_Date":"2020-02-24 12"},"coordinates":[6437,6225]},{"type":"Point","properties":{"Station_ID":"ANTW3","Station_Nam":"ANTIGO,WI","Latitude":"45.13330","Longitude":"-89.15000","Snowdepth":"27.000","Units":"in","Rept_Date":"2020-02-24 14"},"coordinates":[1898,5897]},{"type":"Point","properties":{"Station_ID":"SVBQ6","Station_Nam":"SAVANT BASE","Latitude":"50.28730","Longitude":"-90.65670","Snowdepth":"26.180","Units":"in","Rept_Date":"2020-02-25 06"},"coordinates":[1545,9103]},{"type":"Point","properties":{"Station_ID":"SUTV1","Station_Nam":"SUTTON","Latitude":"44.61220","Longitude":"-72.04810","Snowdepth":"26.000","Units":"in","Rept_Date":"2020-02-24 13"},"coordinates":[5912,5573]},{"type":"Point","properties":{"Station_ID":"IWOM4","Station_Nam":"IRONWOOD#2","Latitude":"46.46520","Longitude":"-90.13820","Snowdepth":"26.000","Units":"in","Rept_Date":"2020-02-24 13"},"coordinates":[1666,6725]},{"type":"Point","properties":{"Station_ID":"GLDM4","Station_Nam":"GLADSTONE NO. 2","Latitude":"45.84330","Longitude":"-87.03910","Snowdepth":"26.000","Units":"in","Rept_Date":"2020-02-24 12"},"coordinates":[2394,6339]},{"type":"Point","properties":{"Station_ID":"GHMN3","Station_Nam":"PINKHAM NOTCH","Latitude":"44.25800","Longitude":"-71.25250","Snowdepth":"26.000","Units":"in","Rept_Date":"2020-02-24 10"},"coordinates":[6099,5352]},{"type":"Point","properties":{"Station_ID":"WI-VL-9","Station_Nam":"LAND O' LAKES 11.7 W, WI","Latitude":"46.19023","Longitude":"-89.45790","Snowdepth":"25.000","Units":"in","Rept_Date":"2020-02-24 13"},"coordinates":[1826,6554]},{"type":"Point","properties":{"Station_ID":"VT-OL-1","Station_Nam":"WESTFIELD 0.7 WNW, VT","Latitude":"44.89160","Longitude":"-72.44350","Snowdepth":"25.000","Units":"in","Rept_Date":"2020-02-24 12"},"coordinates":[5819,5746]},{"type":"Point","properties":{"Station_ID":"RKWM1","Station_Nam":"MOOSEHEAD LAKE","Latitude":"45.58330","Longitude":"-69.71670","Snowdepth":"25.000","Units":"in","Rept_Date":"2020-02-24 12"},"coordinates":[6459,6177]},{"type":"Point","properties":{"Station_ID":"LNOW3","Station_Nam":"LAND O LAKES","Latitude":"46.19000","Longitude":"-89.45700","Snowdepth":"25.000","Units":"in","Rept_Date":"2020-02-24 13"},"coordinates":[1826,6554]},{"type":"Point","properties":{"Station_ID":"ISLV1","Station_Nam":"ISLAND POND","Latitude":"44.81280","Longitude":"-71.89020","Snowdepth":"25.000","Units":"in","Rept_Date":"2020-02-24 15"},"coordinates":[5949,5697]},{"type":"Point","properties":{"Station_ID":"ILIM5","Station_Nam":"ISLAND LAKE","Latitude":"47.02400","Longitude":"-92.07000","Snowdepth":"25.000","Units":"in","Rept_Date":"2020-02-24 15"},"coordinates":[1213,7073]},{"type":"Point","properties":{"Station_ID":"EVRW3","Station_Nam":"EAGLE RIVER-4 E","Latitude":"45.91890","Longitude":"-89.15280","Snowdepth":"25.000","Units":"in","Rept_Date":"2020-02-24 12"},"coordinates":[1898,6386]},{"type":"Point","properties":{"Station_ID":"CLQM5","Station_Nam":"CLOQUET","Latitude":"46.70470","Longitude":"-92.52530","Snowdepth":"25.000","Units":"in","Rept_Date":"2020-02-24 14"},"coordinates":[1106,6874]},{"type":"Point","properties":{"Station_ID":"CARM1","Station_Nam":"CARIBOU WFO","Latitude":"46.86810","Longitude":"-68.01250","Snowdepth":"25.000","Units":"in","Rept_Date":"2020-02-25 05"},"coordinates":[6859,6976]},{"type":"Point","properties":{"Station_ID":"BHB","Station_Nam":"HANCOCK COUNTY-BAR HARBOR AIRPORT","Latitude":"44.44970","Longitude":"-68.36190","Snowdepth":"25.000","Units":"in","Rept_Date":"2020-02-24 12"},"coordinates":[6777,5472]},{"type":"Point","properties":{"Station_ID":"BABM5","Station_Nam":"BABBITT","Latitude":"47.71210","Longitude":"-91.95330","Snowdepth":"25.000","Units":"in","Rept_Date":"2020-02-24 13"},"coordinates":[1240,7501]},{"type":"Point","properties":{"Station_ID":"ME-FR-2","Station_Nam":"TEMPLE 1.8 W, ME","Latitude":"44.68329","Longitude":"-70.26420","Snowdepth":"24.500","Units":"in","Rept_Date":"2020-02-24 12"},"coordinates":[6331,5617]},{"type":"Point","properties":{"Station_ID":"TRIQ6","Station_Nam":"TRIO LAKE","Latitude":"49.22880","Longitude":"-87.22920","Snowdepth":"24.170","Units":"in","Rept_Date":"2020-02-25 06"},"coordinates":[2349,8445]},{"type":"Point","properties":{"Station_ID":"WI-WB-2","Station_Nam":"STONE LAKE 2.0 NW, WI","Latitude":"45.85960","Longitude":"-91.57710","Snowdepth":"24.000","Units":"in","Rept_Date":"2020-02-24 13"},"coordinates":[1329,6349]},{"type":"Point","properties":{"Station_ID":"VT-ES-1","Station_Nam":"GRANBY 1.4 NW, VT","Latitude":"44.58330","Longitude":"-71.77870","Snowdepth":"24.000","Units":"in","Rept_Date":"2020-02-24 12"},"coordinates":[5975,5555]},{"type":"Point","properties":{"Station_ID":"VANM1","Station_Nam":"VAN BUREN","Latitude":"47.16600","Longitude":"-67.93900","Snowdepth":"24.000","Units":"in","Rept_Date":"2020-02-24 12"},"coordinates":[6876,7161]},{"type":"Point","properties":{"Station_ID":"SUAW3","Station_Nam":"SUAMICO","Latitude":"44.60190","Longitude":"-88.09780","Snowdepth":"24.000","Units":"in","Rept_Date":"2020-02-24 12"},"coordinates":[2145,5566]},{"type":"Point","properties":{"Station_ID":"STGW3","Station_Nam":"ST GERMAIN","Latitude":"45.91550","Longitude":"-89.48940","Snowdepth":"24.000","Units":"in","Rept_Date":"2020-02-24 12"},"coordinates":[1819,6383]},{"type":"Point","properties":{"Station_ID":"RANM1","Station_Nam":"RANGELEY","Latitude":"44.98910","Longitude":"-70.67190","Snowdepth":"24.000","Units":"in","Rept_Date":"2020-02-24 11"},"coordinates":[6235,5807]},{"type":"Point","properties":{"Station_ID":"PDGM4","Station_Nam":"PAULDING","Latitude":"46.39760","Longitude":"-89.17940","Snowdepth":"24.000","Units":"in","Rept_Date":"2020-02-24 14"},"coordinates":[1891,6683]},{"type":"Point","properties":{"Station_ID":"OCNW3","Station_Nam":"OCONTO 4 W","Latitude":"44.89190","Longitude":"-87.95500","Snowdepth":"24.000","Units":"in","Rept_Date":"2020-02-24 13"},"coordinates":[2179,5747]},{"type":"Point","properties":{"Station_ID":"MN-SL-105","Station_Nam":"DULUTH 11.8 NNE, MN","Latitude":"46.94680","Longitude":"-92.03925","Snowdepth":"24.000","Units":"in","Rept_Date":"2020-02-24 13"},"coordinates":[1220,7025]},{"type":"Point","properties":{"Station_ID":"MI-HG-1","Station_Nam":"HOUGHTON 1.6 ESE, MI","Latitude":"47.10774","Longitude":"-88.52940","Snowdepth":"24.000","Units":"in","Rept_Date":"2020-02-24 13"},"coordinates":[2044,7125]},{"type":"Point","properties":{"Station_ID":"AVLV1","Station_Nam":"AVERILL","Latitude":"45.00570","Longitude":"-71.69030","Snowdepth":"24.000","Units":"in","Rept_Date":"2020-02-24 13"},"coordinates":[5996,5817]},{"type":"Point","properties":{"Station_ID":"AUDQ6","Station_Nam":"AUDEN","Latitude":"48.52600","Longitude":"-82.57570","Snowdepth":"23.620","Units":"in","Rept_Date":"2020-02-25 06"},"coordinates":[3441,8008]},{"type":"Point","properties":{"Station_ID":"MN-SL-108","Station_Nam":"IRON JUNCTION 3.4 NNW, MN","Latitude":"47.46150","Longitude":"-92.63130","Snowdepth":"23.500","Units":"in","Rept_Date":"2020-02-24 13"},"coordinates":[1081,7345]},{"type":"Point","properties":{"Station_ID":"MN-IT-23","Station_Nam":"BOVEY 13.4 N, MN","Latitude":"47.48855","Longitude":"-93.43497","Snowdepth":"23.500","Units":"in","Rept_Date":"2020-02-24 13"},"coordinates":[893,7362]},{"type":"Point","properties":{"Station_ID":"CAN-NS-60","Station_Nam":"SYDNEY FORKS, CAN","Latitude":"46.05645","Longitude":"-60.31510","Snowdepth":"23.500","Units":"in","Rept_Date":"2020-02-24 13"},"coordinates":[8666,6471]},{"type":"Point","properties":{"Station_ID":"WRSM5","Station_Nam":"WRENSHALL","Latitude":"46.61550","Longitude":"-92.38380","Snowdepth":"23.000","Units":"in","Rept_Date":"2020-02-24 14"},"coordinates":[1139,6819]},{"type":"Point","properties":{"Station_ID":"VT-BN-12","Station_Nam":"STAMFORD 5.0 NNE, VT","Latitude":"42.82000","Longitude":"-73.02000","Snowdepth":"23.000","Units":"in","Rept_Date":"2020-02-24 21"},"coordinates":[5684,4458]},{"type":"Point","properties":{"Station_ID":"NY-HR-18","Station_Nam":"SALISBURY CENTER 1.8 NW, NY","Latitude":"43.16260","Longitude":"-74.80880","Snowdepth":"23.000","Units":"in","Rept_Date":"2020-02-24 12"},"coordinates":[5264,4671]},{"type":"Point","properties":{"Station_ID":"MN-IT-17","Station_Nam":"GRAND RAPIDS 6.1 N, MN","Latitude":"47.31165","Longitude":"-93.55036","Snowdepth":"23.000","Units":"in","Rept_Date":"2020-02-24 13"},"coordinates":[866,7252]},{"type":"Point","properties":{"Station_ID":"MI-MQ-19","Station_Nam":"ISHPEMING 7.2 SW, MI","Latitude":"46.40550","Longitude":"-87.75670","Snowdepth":"23.000","Units":"in","Rept_Date":"2020-02-24 11"},"coordinates":[2225,6688]},{"type":"Point","properties":{"Station_ID":"LNCM1","Station_Nam":"LINCOLN WATER DISTRICT","Latitude":"45.32410","Longitude":"-68.58300","Snowdepth":"23.000","Units":"in","Rept_Date":"2020-02-24 12"},"coordinates":[6725,6016]},{"type":"Point","properties":{"Station_ID":"DLHM5","Station_Nam":"DULUTH NWS","Latitude":"46.83680","Longitude":"-92.21080","Snowdepth":"23.000","Units":"in","Rept_Date":"2020-02-25 00"},"coordinates":[1180,6957]},{"type":"Point","properties":{"Station_ID":"DLH","Station_Nam":"DULUTH, MN","Latitude":"46.83690","Longitude":"-92.21030","Snowdepth":"23.000","Units":"in","Rept_Date":"2020-02-25 00"},"coordinates":[1180,6957]},{"type":"Point","properties":{"Station_ID":"BRMM5","Station_Nam":"BRIMSON 2S","Latitude":"47.24720","Longitude":"-91.86240","Snowdepth":"23.000","Units":"in","Rept_Date":"2020-02-25 01"},"coordinates":[1262,7212]},{"type":"Point","properties":{"Station_ID":"BNDM5","Station_Nam":"ELY 25E","Latitude":"47.97190","Longitude":"-91.44860","Snowdepth":"23.000","Units":"in","Rept_Date":"2020-02-24 13"},"coordinates":[1359,7663]},{"type":"Point","properties":{"Station_ID":"MN-CK-18","Station_Nam":"GRAND MARAIS 4.4 WSW, MN","Latitude":"47.74462","Longitude":"-90.43796","Snowdepth":"22.500","Units":"in","Rept_Date":"2020-02-24 13"},"coordinates":[1596,7521]},{"type":"Point","properties":{"Station_ID":"KABQ6","Station_Nam":"CAB LAKE","Latitude":"49.59950","Longitude":"-89.17990","Snowdepth":"22.130","Units":"in","Rept_Date":"2020-02-25 06"},"coordinates":[1891,8675]},{"type":"Point","properties":{"Station_ID":"WI-BY-14","Station_Nam":"ASHLAND 9.8 W, WI","Latitude":"46.59742","Longitude":"-91.07856","Snowdepth":"22.000","Units":"in","Rept_Date":"2020-02-24 12"},"coordinates":[1446,6808]},{"type":"Point","properties":{"Station_ID":"TOHM5","Station_Nam":"TWO HARBORS WWTP","Latitude":"47.01760","Longitude":"-91.66480","Snowdepth":"22.000","Units":"in","Rept_Date":"2020-02-24 13"},"coordinates":[1308,7069]},{"type":"Point","properties":{"Station_ID":"PRDM4","Station_Nam":"PARADISE","Latitude":"46.60380","Longitude":"-85.03960","Snowdepth":"22.000","Units":"in","Rept_Date":"2020-02-24 11"},"coordinates":[2863,6812]},{"type":"Point","properties":{"Station_ID":"NY-FK-7","Station_Nam":"SARANAC LAKE 6.2 N, NY","Latitude":"44.41359","Longitude":"-74.15211","Snowdepth":"22.000","Units":"in","Rept_Date":"2020-02-24 12"},"coordinates":[5418,5449]},{"type":"Point","properties":{"Station_ID":"MN-SL-18","Station_Nam":"DULUTH 1.4 NNW, MN","Latitude":"46.80321","Longitude":"-92.11240","Snowdepth":"22.000","Units":"in","Rept_Date":"2020-02-24 13"},"coordinates":[1203,6936]},{"type":"Point","properties":{"Station_ID":"MN-SL-15","Station_Nam":"CHISHOLM 0.4 WSW, MN","Latitude":"47.48557","Longitude":"-92.88690","Snowdepth":"22.000","Units":"in","Rept_Date":"2020-02-24 13"},"coordinates":[1021,7360]},{"type":"Point","properties":{"Station_ID":"MN-CK-3","Station_Nam":"TOFTE 4.9 NE, MN","Latitude":"47.62394","Longitude":"-90.76100","Snowdepth":"22.000","Units":"in","Rept_Date":"2020-02-24 13"},"coordinates":[1520,7446]},{"type":"Point","properties":{"Station_ID":"ME-PN-45","Station_Nam":"MILLINOCKET 2.7 ESE, ME","Latitude":"45.65002","Longitude":"-68.64472","Snowdepth":"22.000","Units":"in","Rept_Date":"2020-02-24 12"},"coordinates":[6711,6218]},{"type":"Point","properties":{"Station_ID":"MAIW3","Station_Nam":"MADELINE ISLAND","Latitude":"46.78330","Longitude":"-90.76670","Snowdepth":"22.000","Units":"in","Rept_Date":"2020-02-24 14"},"coordinates":[1519,6923]},{"type":"Point","properties":{"Station_ID":"LPLN6","Station_Nam":"LAKE PLACID 2 S","Latitude":"44.30420","Longitude":"-73.98390","Snowdepth":"22.000","Units":"in","Rept_Date":"2020-02-24 13"},"coordinates":[5458,5381]},{"type":"Point","properties":{"Station_ID":"LBKV1","Station_Nam":"LYE BROOK","Latitude":"43.05000","Longitude":"-73.03330","Snowdepth":"22.000","Units":"in","Rept_Date":"2020-02-25 06"},"coordinates":[5681,4601]},{"type":"Point","properties":{"Station_ID":"CORV1","Station_Nam":"CORINTH","Latitude":"44.00690","Longitude":"-72.31940","Snowdepth":"22.000","Units":"in","Rept_Date":"2020-02-24 12"},"coordinates":[5848,5196]},{"type":"Point","properties":{"Station_ID":"SOCQ6","Station_Nam":"SOCKET LAKE","Latitude":"50.77870","Longitude":"-91.79300","Snowdepth":"21.610","Units":"in","Rept_Date":"2020-02-25 06"},"coordinates":[1278,9409]},{"type":"Point","properties":{"Station_ID":"WI-PR-7","Station_Nam":"BRANTWOOD 7.4 S, WI","Latitude":"45.45450","Longitude":"-90.10249","Snowdepth":"21.000","Units":"in","Rept_Date":"2020-02-24 10"},"coordinates":[1675,6097]},{"type":"Point","properties":{"Station_ID":"TOGM5","Station_Nam":"CELINA 2E","Latitude":"47.86630","Longitude":"-93.02660","Snowdepth":"21.000","Units":"in","Rept_Date":"2020-02-24 15"},"coordinates":[989,7597]},{"type":"Point","properties":{"Station_ID":"RGNM1","Station_Nam":"RANGELEY 2NW","Latitude":"44.98940","Longitude":"-70.67220","Snowdepth":"21.000","Units":"in","Rept_Date":"2020-02-24 11"},"coordinates":[6235,5807]},{"type":"Point","properties":{"Station_ID":"PTBN3","Station_Nam":"PITTSBURG RESERVOIR","Latitude":"45.04690","Longitude":"-71.38300","Snowdepth":"21.000","Units":"in","Rept_Date":"2020-02-24 12"},"coordinates":[6068,5843]},{"type":"Point","properties":{"Station_ID":"NH-CS-4","Station_Nam":"PITTSBURG 6.1 NE, NH","Latitude":"45.11060","Longitude":"-71.29760","Snowdepth":"21.000","Units":"in","Rept_Date":"2020-02-24 12"},"coordinates":[6088,5883]},{"type":"Point","properties":{"Station_ID":"NH-CR-11","Station_Nam":"NORTH CONWAY 1.4 SSW, NH","Latitude":"44.03556","Longitude":"-71.14010","Snowdepth":"21.000","Units":"in","Rept_Date":"2020-02-24 12"},"coordinates":[6125,5214]},{"type":"Point","properties":{"Station_ID":"MN-CK-6","Station_Nam":"GRAND MARAIS 4.4 W, MN","Latitude":"47.74865","Longitude":"-90.43760","Snowdepth":"21.000","Units":"in","Rept_Date":"2020-02-24 12"},"coordinates":[1596,7524]},{"type":"Point","properties":{"Station_ID":"IRMM4","Station_Nam":"WWTP","Latitude":"46.46670","Longitude":"-90.18330","Snowdepth":"21.000","Units":"in","Rept_Date":"2020-02-24 13"},"coordinates":[1656,6726]},{"type":"Point","properties":{"Station_ID":"INDN6","Station_Nam":"INDIAN LAKE","Latitude":"43.75500","Longitude":"-74.27560","Snowdepth":"21.000","Units":"in","Rept_Date":"2020-02-24 13"},"coordinates":[5389,5039]},{"type":"Point","properties":{"Station_ID":"HRVM4","Station_Nam":"HARVEY","Latitude":"46.49080","Longitude":"-87.35470","Snowdepth":"21.000","Units":"in","Rept_Date":"2020-02-24 12"},"coordinates":[2320,6741]},{"type":"Point","properties":{"Station_ID":"GGRM4","Station_Nam":"GREEN GARDEN NO.2","Latitude":"46.45330","Longitude":"-87.30380","Snowdepth":"21.000","Units":"in","Rept_Date":"2020-02-24 11"},"coordinates":[2332,6718]},{"type":"Point","properties":{"Station_ID":"DFXM1","Station_Nam":"DOVER-FOXCROFT","Latitude":"45.18720","Longitude":"-69.18350","Snowdepth":"21.000","Units":"in","Rept_Date":"2020-02-24 12"},"coordinates":[6584,5930]},{"type":"Point","properties":{"Station_ID":"CSLM5","Station_Nam":"CASS LAKE,MN","Latitude":"47.38470","Longitude":"-94.61470","Snowdepth":"21.000","Units":"in","Rept_Date":"2020-02-24 14"},"coordinates":[616,7298]},{"type":"Point","properties":{"Station_ID":"COKM5","Station_Nam":"COOK","Latitude":"47.85060","Longitude":"-92.69250","Snowdepth":"21.000","Units":"in","Rept_Date":"2020-02-24 12"},"coordinates":[1067,7587]},{"type":"Point","properties":{"Station_ID":"CMKW3","Station_Nam":"CLAM LAKE 4W","Latitude":"46.16940","Longitude":"-90.98080","Snowdepth":"21.000","Units":"in","Rept_Date":"2020-02-24 13"},"coordinates":[1469,6541]},{"type":"Point","properties":{"Station_ID":"BRSW3","Station_Nam":"BRULE,WI","Latitude":"46.53780","Longitude":"-91.59190","Snowdepth":"21.000","Units":"in","Rept_Date":"2020-02-24 16"},"coordinates":[1325,6771]},{"type":"Point","properties":{"Station_ID":"BRDM1","Station_Nam":"BRIDGEWATER","Latitude":"46.42870","Longitude":"-67.84370","Snowdepth":"21.000","Units":"in","Rept_Date":"2020-02-24 23"},"coordinates":[6899,6703]},{"type":"Point","properties":{"Station_ID":"CAN-PE-19","Station_Nam":"CHARLOTTETOWN 6.5 NNW, CAN","Latitude":"46.29235","Longitude":"-63.17271","Snowdepth":"20.900","Units":"in","Rept_Date":"2020-02-24 12"},"coordinates":[7995,6618]},{"type":"Point","properties":{"Station_ID":"WI-BY-2","Station_Nam":"MELLEN 18.6 SW, WI","Latitude":"46.16937","Longitude":"-90.98090","Snowdepth":"20.500","Units":"in","Rept_Date":"2020-02-24 13"},"coordinates":[1469,6541]},{"type":"Point","properties":{"Station_ID":"NH-CR-15","Station_Nam":"JACKSON 3.7 NW, NH","Latitude":"44.19069","Longitude":"-71.22598","Snowdepth":"20.500","Units":"in","Rept_Date":"2020-02-24 12"},"coordinates":[6105,5310]},{"type":"Point","properties":{"Station_ID":"WI-TY-3","Station_Nam":"MEDFORD 0.8 ENE, WI","Latitude":"45.14421","Longitude":"-90.33349","Snowdepth":"20.000","Units":"in","Rept_Date":"2020-02-24 14"},"coordinates":[1621,5904]},{"type":"Point","properties":{"Station_ID":"WI-DG-20","Station_Nam":"SOLON SPRINGS 1.2 W, WI","Latitude":"46.35217","Longitude":"-91.84405","Snowdepth":"20.000","Units":"in","Rept_Date":"2020-02-24 13"},"coordinates":[1266,6655]},{"type":"Point","properties":{"Station_ID":"VT-OL-9","Station_Nam":"GREENSBORO 2.1 NNW, VT","Latitude":"44.60528","Longitude":"-72.30940","Snowdepth":"20.000","Units":"in","Rept_Date":"2020-02-24 12"},"coordinates":[5851,5568]},{"type":"Point","properties":{"Station_ID":"NH-CR-26","Station_Nam":"CENTER SANDWICH 4.9 E, NH","Latitude":"43.80976","Longitude":"-71.34150","Snowdepth":"20.000","Units":"in","Rept_Date":"2020-02-24 12"},"coordinates":[6078,5073]},{"type":"Point","properties":{"Station_ID":"KINM1","Station_Nam":"KINGFIELD","Latitude":"44.95950","Longitude":"-70.17530","Snowdepth":"20.000","Units":"in","Rept_Date":"2020-02-24 13"},"coordinates":[6352,5789]},{"type":"Point","properties":{"Station_ID":"KABM5","Station_Nam":"KABETOGAMA LAKE VISITOR CTR","Latitude":"48.40880","Longitude":"-93.04840","Snowdepth":"20.000","Units":"in","Rept_Date":"2020-02-24 13"},"coordinates":[983,7935]},{"type":"Point","properties":{"Station_ID":"FLNW3","Station_Nam":"FLORENCE","Latitude":"45.93360","Longitude":"-88.25830","Snowdepth":"20.000","Units":"in","Rept_Date":"2020-02-24 13"},"coordinates":[2108,6395]},{"type":"Point","properties":{"Station_ID":"ESDN3","Station_Nam":"EAST SANDWICH","Latitude":"43.80990","Longitude":"-71.34250","Snowdepth":"20.000","Units":"in","Rept_Date":"2020-02-24 11"},"coordinates":[6078,5074]},{"type":"Point","properties":{"Station_ID":"EMBM5","Station_Nam":"EMBARASS,MN","Latitude":"47.65810","Longitude":"-92.19580","Snowdepth":"20.000","Units":"in","Rept_Date":"2020-02-24 12"},"coordinates":[1184,7468]},{"type":"Point","properties":{"Station_ID":"ELYM5","Station_Nam":"ELY","Latitude":"47.90560","Longitude":"-91.82830","Snowdepth":"20.000","Units":"in","Rept_Date":"2020-02-24 15"},"coordinates":[1270,7622]},{"type":"Point","properties":{"Station_ID":"COUW3","Station_Nam":"COUDERAY,WI","Latitude":"45.86670","Longitude":"-91.45000","Snowdepth":"20.000","Units":"in","Rept_Date":"2020-02-24 22"},"coordinates":[1359,6353]},{"type":"Point","properties":{"Station_ID":"CAN-NB-2","Station_Nam":"GRAFTON 2.7 NNE, CA","Latitude":"46.17062","Longitude":"-67.55330","Snowdepth":"20.000","Units":"in","Rept_Date":"2020-02-24 11"},"coordinates":[6967,6542]},{"type":"Point","properties":{"Station_ID":"BTLN3","Station_Nam":"BARTLETT","Latitude":"44.08380","Longitude":"-71.29340","Snowdepth":"20.000","Units":"in","Rept_Date":"2020-02-24 12"},"coordinates":[6089,5244]},{"type":"Point","properties":{"Station_ID":"BBEM4","Station_Nam":"BIG BAY 9SW","Latitude":"46.74620","Longitude":"-87.88160","Snowdepth":"20.000","Units":"in","Rept_Date":"2020-02-24 13"},"coordinates":[2196,6900]},{"type":"Point","properties":{"Station_ID":"AURW3","Station_Nam":"AURORA","Latitude":"45.77000","Longitude":"-88.11810","Snowdepth":"20.000","Units":"in","Rept_Date":"2020-02-24 13"},"coordinates":[2141,6293]},{"type":"Point","properties":{"Station_ID":"AMAM4","Station_Nam":"AMASA 1W","Latitude":"46.23470","Longitude":"-88.45440","Snowdepth":"20.000","Units":"in","Rept_Date":"2020-02-24 14"},"coordinates":[2062,6582]},{"type":"Point","properties":{"Station_ID":"VT-BN-3","Station_Nam":"LANDGROVE 1.1 NNE, VT","Latitude":"43.29092","Longitude":"-72.83260","Snowdepth":"19.500","Units":"in","Rept_Date":"2020-02-24 11"},"coordinates":[5728,4751]},{"type":"Point","properties":{"Station_ID":"NY-ES-6","Station_Nam":"OLMSTEDVILLE 4.6 NNE, NY","Latitude":"43.83350","Longitude":"-73.89780","Snowdepth":"19.500","Units":"in","Rept_Date":"2020-02-24 13"},"coordinates":[5478,5088]},{"type":"Point","properties":{"Station_ID":"MN-CS-1","Station_Nam":"PILLAGER 5.1 N, MN","Latitude":"46.40250","Longitude":"-94.46310","Snowdepth":"19.500","Units":"in","Rept_Date":"2020-02-24 12"},"coordinates":[651,6686]},{"type":"Point","properties":{"Station_ID":"CAN-NB-13","Station_Nam":"BATHURST 3.8 NW, CAN","Latitude":"47.64212","Longitude":"-65.68756","Snowdepth":"19.500","Units":"in","Rept_Date":"2020-02-24 09"},"coordinates":[7405,7458]},{"type":"Point","properties":{"Station_ID":"WI-BY-22","Station_Nam":"MASON 11.5 WNW, WI","Latitude":"46.50198","Longitude":"-91.28339","Snowdepth":"19.000","Units":"in","Rept_Date":"2020-02-24 14"},"coordinates":[1398,6748]},{"type":"Point","properties":{"Station_ID":"VT-WS-30","Station_Nam":"WOODBURY 3.4 NNW, VT","Latitude":"44.48825","Longitude":"-72.43258","Snowdepth":"19.000","Units":"in","Rept_Date":"2020-02-24 12"},"coordinates":[5822,5496]},{"type":"Point","properties":{"Station_ID":"VT-OL-2","Station_Nam":"BARTON 3.0 ENE, VT","Latitude":"44.75863","Longitude":"-72.11680","Snowdepth":"19.000","Units":"in","Rept_Date":"2020-02-24 12"},"coordinates":[5896,5664]},{"type":"Point","properties":{"Station_ID":"SULW3","Station_Nam":"SUMMIT LAKE","Latitude":"45.37880","Longitude":"-89.19410","Snowdepth":"19.000","Units":"in","Rept_Date":"2020-02-24 11"},"coordinates":[1888,6050]},{"type":"Point","properties":{"Station_ID":"RSTW3","Station_Nam":"ROSHOLT","Latitude":"44.62710","Longitude":"-89.30600","Snowdepth":"19.000","Units":"in","Rept_Date":"2020-02-24 14"},"coordinates":[1862,5582]},{"type":"Point","properties":{"Station_ID":"RHIW3","Station_Nam":"RHINELANDER","Latitude":"45.59860","Longitude":"-89.45080","Snowdepth":"19.000","Units":"in","Rept_Date":"2020-02-24 13"},"coordinates":[1828,6186]},{"type":"Point","properties":{"Station_ID":"PEKN6","Station_Nam":"PECK LAKE","Latitude":"43.11500","Longitude":"-74.42360","Snowdepth":"19.000","Units":"in","Rept_Date":"2020-02-24 12"},"coordinates":[5355,4641]},{"type":"Point","properties":{"Station_ID":"NUMN3","Station_Nam":"NORTHUMBERLAND","Latitude":"44.52830","Longitude":"-71.50440","Snowdepth":"19.000","Units":"in","Rept_Date":"2020-02-24 13"},"coordinates":[6040,5520]},{"type":"Point","properties":{"Station_ID":"NSFN3","Station_Nam":"NORTH STRATFORD","Latitude":"44.68190","Longitude":"-71.58570","Snowdepth":"19.000","Units":"in","Rept_Date":"2020-02-24 12"},"coordinates":[6021,5616]},{"type":"Point","properties":{"Station_ID":"MN-IT-11","Station_Nam":"NASHWAUK 11.5 N, MN","Latitude":"47.54496","Longitude":"-93.19420","Snowdepth":"19.000","Units":"in","Rept_Date":"2020-02-24 13"},"coordinates":[949,7397]},{"type":"Point","properties":{"Station_ID":"MN-IT-1","Station_Nam":"GRAND RAPIDS 2.0 E, MN","Latitude":"47.22266","Longitude":"-93.49600","Snowdepth":"19.000","Units":"in","Rept_Date":"2020-02-24 12"},"coordinates":[878,7197]},{"type":"Point","properties":{"Station_ID":"MI-OT-17","Station_Nam":"GAYLORD 4.1 S, MI","Latitude":"44.96388","Longitude":"-84.68467","Snowdepth":"19.000","Units":"in","Rept_Date":"2020-02-24 12"},"coordinates":[2946,5791]},{"type":"Point","properties":{"Station_ID":"LEIM5","Station_Nam":"ORR 3E","Latitude":"48.05810","Longitude":"-92.75220","Snowdepth":"19.000","Units":"in","Rept_Date":"2020-02-24 12"},"coordinates":[1053,7716]},{"type":"Point","properties":{"Station_ID":"INL","Station_Nam":"FALLS INTERNATIONAL ARPT","Latitude":"48.56640","Longitude":"-93.40310","Snowdepth":"19.000","Units":"in","Rept_Date":"2020-02-25 00"},"coordinates":[900,8033]},{"type":"Point","properties":{"Station_ID":"IFSM5","Station_Nam":"INTERNATIONAL FALLS SNOW","Latitude":"48.57780","Longitude":"-93.39640","Snowdepth":"19.000","Units":"in","Rept_Date":"2020-02-24 12"},"coordinates":[902,8040]},{"type":"Point","properties":{"Station_ID":"CEFM4","Station_Nam":"EXPERIMENT FARM #2","Latitude":"46.33330","Longitude":"-86.91670","Snowdepth":"19.000","Units":"in","Rept_Date":"2020-02-24 13"},"coordinates":[2422,6643]},{"type":"Point","properties":{"Station_ID":"CAN-NS-103","Station_Nam":"TRAFALGAR 4.9 WSW, CAN","Latitude":"45.26217","Longitude":"-62.72285","Snowdepth":"19.000","Units":"in","Rept_Date":"2020-02-24 12"},"coordinates":[8101,5977]},{"type":"Point","properties":{"Station_ID":"CAN-NB-18","Station_Nam":"MCLEOD HILL 1.1 ENE, CA","Latitude":"46.02725","Longitude":"-66.67460","Snowdepth":"19.000","Units":"in","Rept_Date":"2020-02-24 12"},"coordinates":[7173,6453]},{"type":"Point","properties":{"Station_ID":"BOON6","Station_Nam":"BOONVILLE 4 SSW","Latitude":"43.43610","Longitude":"-75.36970","Snowdepth":"19.000","Units":"in","Rept_Date":"2020-02-24 12"},"coordinates":[5132,4841]},{"type":"Point","properties":{"Station_ID":"AVTW3","Station_Nam":"ARBOR VITAE-JOHNSON LAKE","Latitude":"45.89940","Longitude":"-89.72670","Snowdepth":"19.000","Units":"in","Rept_Date":"2020-02-24 12"},"coordinates":[1763,6373]},{"type":"Point","properties":{"Station_ID":"AGNW3","Station_Nam":"ARGONNE-1.5 NW","Latitude":"45.67360","Longitude":"-88.90380","Snowdepth":"19.000","Units":"in","Rept_Date":"2020-02-24 13"},"coordinates":[1956,6233]},{"type":"Point","properties":{"Station_ID":"NY-FK-9","Station_Nam":"GABRIELS 1.3 SE, NY","Latitude":"44.41934","Longitude":"-74.16194","Snowdepth":"18.500","Units":"in","Rept_Date":"2020-02-24 12"},"coordinates":[5416,5453]},{"type":"Point","properties":{"Station_ID":"NH-GR-49","Station_Nam":"PLYMOUTH 3.7 N, NH","Latitude":"43.79048","Longitude":"-71.68413","Snowdepth":"18.500","Units":"in","Rept_Date":"2020-02-24 12"},"coordinates":[5997,5061]},{"type":"Point","properties":{"Station_ID":"NH-CR-27","Station_Nam":"TAMWORTH 0.4 NNW, NH","Latitude":"43.86449","Longitude":"-71.26610","Snowdepth":"18.500","Units":"in","Rept_Date":"2020-02-24 12"},"coordinates":[6096,5107]},{"type":"Point","properties":{"Station_ID":"WTRM4","Station_Nam":"WATERSMEET 12WSW","Latitude":"46.22310","Longitude":"-89.40850","Snowdepth":"18.000","Units":"in","Rept_Date":"2020-02-24 12"},"coordinates":[1838,6575]},{"type":"Point","properties":{"Station_ID":"WI-DG-16","Station_Nam":"POPLAR 2.0 E, WI","Latitude":"46.58390","Longitude":"-91.74620","Snowdepth":"18.000","Units":"in","Rept_Date":"2020-02-24 13"},"coordinates":[1289,6799]},{"type":"Point","properties":{"Station_ID":"VT-OL-5","Station_Nam":"DERBY CENTER 1.8 NW, VT","Latitude":"44.97200","Longitude":"-72.14780","Snowdepth":"18.000","Units":"in","Rept_Date":"2020-02-24 12"},"coordinates":[5889,5796]},{"type":"Point","properties":{"Station_ID":"VT-ES-3","Station_Nam":"LUNENBURG 2.3 NNW, VT","Latitude":"44.49324","Longitude":"-71.70446","Snowdepth":"18.000","Units":"in","Rept_Date":"2020-02-24 11"},"coordinates":[5993,5499]},{"type":"Point","properties":{"Station_ID":"TMWN3","Station_Nam":"TAMWORTH 4","Latitude":"43.86390","Longitude":"-71.26610","Snowdepth":"18.000","Units":"in","Rept_Date":"2020-02-24 12"},"coordinates":[6096,5107]},{"type":"Point","properties":{"Station_ID":"TAKW3","Station_Nam":"RICE RESERVOIR NO. 2","Latitude":"45.53770","Longitude":"-89.73220","Snowdepth":"18.000","Units":"in","Rept_Date":"2020-02-24 13"},"coordinates":[1762,6148]},{"type":"Point","properties":{"Station_ID":"SSMM4","Station_Nam":"SAULT STE MARIE","Latitude":"46.48660","Longitude":"-84.40250","Snowdepth":"18.000","Units":"in","Rept_Date":"2020-02-24 13"},"coordinates":[3013,6739]},{"type":"Point","properties":{"Station_ID":"SHIW3","Station_Nam":"SHIOCTON","Latitude":"44.43890","Longitude":"-88.58390","Snowdepth":"18.000","Units":"in","Rept_Date":"2020-02-24 13"},"coordinates":[2031,5465]},{"type":"Point","properties":{"Station_ID":"RHLW3","Station_Nam":"RHINELANDER 4NE","Latitude":"45.65270","Longitude":"-89.30740","Snowdepth":"18.000","Units":"in","Rept_Date":"2020-02-24 12"},"coordinates":[1861,6220]},{"type":"Point","properties":{"Station_ID":"NY-OD-2","Station_Nam":"POINT ROCK 0.6 SE, NY","Latitude":"43.37335","Longitude":"-75.53840","Snowdepth":"18.000","Units":"in","Rept_Date":"2020-02-24 13"},"coordinates":[5093,4802]},{"type":"Point","properties":{"Station_ID":"MI-AT-6","Station_Nam":"MANCELONA 0.5 ESE, MI","Latitude":"44.89981","Longitude":"-85.05100","Snowdepth":"18.000","Units":"in","Rept_Date":"2020-02-24 13"},"coordinates":[2860,5752]},{"type":"Point","properties":{"Station_ID":"ME-FR-4","Station_Nam":"NEW SHARON 2.0 NW, ME","Latitude":"44.66582","Longitude":"-70.02720","Snowdepth":"18.000","Units":"in","Rept_Date":"2020-02-24 12"},"coordinates":[6386,5606]},{"type":"Point","properties":{"Station_ID":"LILM1","Station_Nam":"LILLE","Latitude":"47.27770","Longitude":"-68.10520","Snowdepth":"18.000","Units":"in","Rept_Date":"2020-02-24 12"},"coordinates":[6837,7231]},{"type":"Point","properties":{"Station_ID":"INDM5","Station_Nam":"INDUS,MN","Latitude":"48.61670","Longitude":"-93.90000","Snowdepth":"18.000","Units":"in","Rept_Date":"2020-02-24 14"},"coordinates":[784,8064]},{"type":"Point","properties":{"Station_ID":"FARM1","Station_Nam":"FARMINGTON","Latitude":"44.68930","Longitude":"-70.15640","Snowdepth":"18.000","Units":"in","Rept_Date":"2020-02-24 12"},"coordinates":[6356,5621]},{"type":"Point","properties":{"Station_ID":"CLKM4","Station_Nam":"CLARKSBURG","Latitude":"46.49910","Longitude":"-87.84500","Snowdepth":"18.000","Units":"in","Rept_Date":"2020-02-24 12"},"coordinates":[2205,6747]},{"type":"Point","properties":{"Station_ID":"ASTW3","Station_Nam":"ATHELSTANE","Latitude":"45.42500","Longitude":"-88.05750","Snowdepth":"18.000","Units":"in","Rept_Date":"2020-02-24 12"},"coordinates":[2155,6078]},{"type":"Point","properties":{"Station_ID":"ANJM4","Station_Nam":"SNOW PAID OBSERVER FOR KANJ","Latitude":"46.48670","Longitude":"-84.40260","Snowdepth":"18.000","Units":"in","Rept_Date":"2020-02-24 18"},"coordinates":[3013,6739]},{"type":"Point","properties":{"Station_ID":"ANJ","Station_Nam":"SAULT STE MARIE","Latitude":"46.46670","Longitude":"-84.36670","Snowdepth":"18.000","Units":"in","Rept_Date":"2020-02-25 00"},"coordinates":[3021,6726]},{"type":"Point","properties":{"Station_ID":"WI-BN-6","Station_Nam":"SUAMICO 4.4 WNW, WI","Latitude":"44.66111","Longitude":"-88.11780","Snowdepth":"17.500","Units":"in","Rept_Date":"2020-02-24 17"},"coordinates":[2141,5603]},{"type":"Point","properties":{"Station_ID":"WI-AS-4","Station_Nam":"ASHLAND 0.5 WNW, WI","Latitude":"46.58240","Longitude":"-90.88390","Snowdepth":"17.500","Units":"in","Rept_Date":"2020-02-24 13"},"coordinates":[1491,6798]},{"type":"Point","properties":{"Station_ID":"NH-CS-7","Station_Nam":"LANCASTER 0.5 N, NH","Latitude":"44.49611","Longitude":"-71.57640","Snowdepth":"17.500","Units":"in","Rept_Date":"2020-02-24 12"},"coordinates":[6023,5500]},{"type":"Point","properties":{"Station_ID":"MN-CW-22","Station_Nam":"FORT RIPLEY 0.8 N, MN","Latitude":"46.18089","Longitude":"-94.36510","Snowdepth":"17.500","Units":"in","Rept_Date":"2020-02-24 13"},"coordinates":[674,6549]},{"type":"Point","properties":{"Station_ID":"ZNOM4","Station_Nam":"NORWAY","Latitude":"45.77810","Longitude":"-87.89560","Snowdepth":"17.000","Units":"in","Rept_Date":"2020-02-25 01"},"coordinates":[2193,6298]},{"type":"Point","properties":{"Station_ID":"WTRW3","Station_Nam":"WINTER","Latitude":"45.79920","Longitude":"-90.99470","Snowdepth":"17.000","Units":"in","Rept_Date":"2020-02-24 16"},"coordinates":[1465,6311]},{"type":"Point","properties":{"Station_ID":"WTNM4","Station_Nam":"WATTON 2WSW","Latitude":"46.52660","Longitude":"-88.64240","Snowdepth":"17.000","Units":"in","Rept_Date":"2020-02-24 13"},"coordinates":[2017,6764]},{"type":"Point","properties":{"Station_ID":"WRTS2","Station_Nam":"WATERTOWN,SD","Latitude":"44.90280","Longitude":"-97.11360","Snowdepth":"17.000","Units":"in","Rept_Date":"2020-02-24 15"},"coordinates":[29,5753]},{"type":"Point","properties":{"Station_ID":"WLKW3","Station_Nam":"WHITE LAKE 1 SE","Latitude":"45.14520","Longitude":"-88.74160","Snowdepth":"17.000","Units":"in","Rept_Date":"2020-02-24 14"},"coordinates":[1994,5904]},{"type":"Point","properties":{"Station_ID":"WI-SR-1","Station_Nam":"HAYWARD 9.2 NNE, WI","Latitude":"46.13255","Longitude":"-91.40500","Snowdepth":"17.000","Units":"in","Rept_Date":"2020-02-24 12"},"coordinates":[1369,6519]},{"type":"Point","properties":{"Station_ID":"WI-PR-2","Station_Nam":"BUTTERNUT 5.9 SW, WI","Latitude":"45.96501","Longitude":"-90.59750","Snowdepth":"17.000","Units":"in","Rept_Date":"2020-02-24 12"},"coordinates":[1559,6414]},{"type":"Point","properties":{"Station_ID":"WI-ON-6","Station_Nam":"RHINELANDER 5.2 N, WI","Latitude":"45.71388","Longitude":"-89.42150","Snowdepth":"17.000","Units":"in","Rept_Date":"2020-02-24 14"},"coordinates":[1835,6258]},{"type":"Point","properties":{"Station_ID":"WENN3","Station_Nam":"P.O. BOX 197 WENTWORTH, NH","Latitude":"43.95190","Longitude":"-71.91560","Snowdepth":"17.000","Units":"in","Rept_Date":"2020-02-24 12"},"coordinates":[5943,5162]},{"type":"Point","properties":{"Station_ID":"STMM4","Station_Nam":"STAMBAUGH 2SSE","Latitude":"46.05550","Longitude":"-88.62780","Snowdepth":"17.000","Units":"in","Rept_Date":"2020-02-24 13"},"coordinates":[2021,6471]},{"type":"Point","properties":{"Station_ID":"NY-ES-11","Station_Nam":"VERMONTVILLE 2.8 S, NY","Latitude":"44.41205","Longitude":"-74.06760","Snowdepth":"17.000","Units":"in","Rept_Date":"2020-02-24 12"},"coordinates":[5438,5448]},{"type":"Point","properties":{"Station_ID":"MTQM4","Station_Nam":"MANISTIQUE WWTP","Latitude":"45.95120","Longitude":"-86.25130","Snowdepth":"17.000","Units":"in","Rept_Date":"2020-02-24 12"},"coordinates":[2579,6406]},{"type":"Point","properties":{"Station_ID":"MRAM4","Station_Nam":"MORAN","Latitude":"45.99030","Longitude":"-84.83610","Snowdepth":"17.000","Units":"in","Rept_Date":"2020-02-24 13"},"coordinates":[2911,6430]},{"type":"Point","properties":{"Station_ID":"MIEM4","Station_Nam":"MICHIGAMME 3WNW","Latitude":"46.54530","Longitude":"-88.18000","Snowdepth":"17.000","Units":"in","Rept_Date":"2020-02-24 13"},"coordinates":[2126,6775]},{"type":"Point","properties":{"Station_ID":"MI-OT-16","Station_Nam":"GAYLORD 2.2 SSE, MI","Latitude":"44.99441","Longitude":"-84.65820","Snowdepth":"17.000","Units":"in","Rept_Date":"2020-02-24 14"},"coordinates":[2953,5810]},{"type":"Point","properties":{"Station_ID":"MI-DL-1","Station_Nam":"GARDEN CORNERS 0.8 NW, MI","Latitude":"45.89815","Longitude":"-86.54850","Snowdepth":"17.000","Units":"in","Rept_Date":"2020-02-24 13"},"coordinates":[2509,6373]},{"type":"Point","properties":{"Station_ID":"HGHN6","Station_Nam":"HIGHMARKET","Latitude":"43.57520","Longitude":"-75.52070","Snowdepth":"17.000","Units":"in","Rept_Date":"2020-02-24 11"},"coordinates":[5097,4927]},{"type":"Point","properties":{"Station_ID":"GMRM5","Station_Nam":"GRAND MARIAS WATER TREATMENT PLANT","Latitude":"47.75180","Longitude":"-90.32820","Snowdepth":"17.000","Units":"in","Rept_Date":"2020-02-24 14"},"coordinates":[1622,7526]},{"type":"Point","properties":{"Station_ID":"GDCM4","Station_Nam":"GARDEN CORNERS","Latitude":"45.89830","Longitude":"-86.54850","Snowdepth":"17.000","Units":"in","Rept_Date":"2020-02-24 13"},"coordinates":[2509,6373]},{"type":"Point","properties":{"Station_ID":"ESGM1","Station_Nam":"EAST SANGERVILLE","Latitude":"45.13690","Longitude":"-69.28060","Snowdepth":"17.000","Units":"in","Rept_Date":"2020-02-24 12"},"coordinates":[6562,5899]},{"type":"Point","properties":{"Station_ID":"EGRW3","Station_Nam":"EAGLE RIVER-SOUTH","Latitude":"45.91360","Longitude":"-89.24360","Snowdepth":"17.000","Units":"in","Rept_Date":"2020-02-24 13"},"coordinates":[1876,6382]},{"type":"Point","properties":{"Station_ID":"CAN-QC-37","Station_Nam":"LAVAL 3.8 SSW, CAN","Latitude":"45.55358","Longitude":"-73.76976","Snowdepth":"17.000","Units":"in","Rept_Date":"2020-02-24 13"},"coordinates":[5508,6158]},{"type":"Point","properties":{"Station_ID":"BREW3","Station_Nam":"SURING","Latitude":"44.99580","Longitude":"-88.37860","Snowdepth":"17.000","Units":"in","Rept_Date":"2020-02-24 14"},"coordinates":[2079,5811]},{"type":"Point","properties":{"Station_ID":"BOWW3","Station_Nam":"STOCKBRIDGE-MUNSEE RESERVATION","Latitude":"44.87000","Longitude":"-88.90440","Snowdepth":"17.000","Units":"in","Rept_Date":"2020-02-24 14"},"coordinates":[1956,5733]},{"type":"Point","properties":{"Station_ID":"AWXW3","Station_Nam":"ASHLAND","Latitude":"46.58240","Longitude":"-90.88390","Snowdepth":"17.000","Units":"in","Rept_Date":"2020-02-24 13"},"coordinates":[1491,6798]},{"type":"Point","properties":{"Station_ID":"AUW","Station_Nam":"WAUSAU MUNICIPAL AIRPORT","Latitude":"44.92580","Longitude":"-89.62560","Snowdepth":"17.000","Units":"in","Rept_Date":"2020-02-24 12"},"coordinates":[1787,5768]},{"type":"Point","properties":{"Station_ID":"ATY","Station_Nam":"WATERTOWN MUNICIPAL AIRPORT","Latitude":"44.91420","Longitude":"-97.15440","Snowdepth":"17.000","Units":"in","Rept_Date":"2020-02-24 12"},"coordinates":[20,5761]},{"type":"Point","properties":{"Station_ID":"WI-BY-1","Station_Nam":"BAYFIELD 8.8 N, WI","Latitude":"46.93855","Longitude":"-90.83490","Snowdepth":"16.500","Units":"in","Rept_Date":"2020-02-24 13"},"coordinates":[1503,7020]},{"type":"Point","properties":{"Station_ID":"VT-WS-33","Station_Nam":"WAITSFIELD 3.5 WNW, VT","Latitude":"44.20052","Longitude":"-72.89421","Snowdepth":"16.500","Units":"in","Rept_Date":"2020-02-24 13"},"coordinates":[5713,5317]},{"type":"Point","properties":{"Station_ID":"MI-CX-7","Station_Nam":"EAST JORDAN 2.1 NNW, MI","Latitude":"45.18639","Longitude":"-85.14750","Snowdepth":"16.500","Units":"in","Rept_Date":"2020-02-24 13"},"coordinates":[2838,5930]},{"type":"Point","properties":{"Station_ID":"ME-CM-125","Station_Nam":"CUMBERLAND CENTER 4.4 NW, ME","Latitude":"43.84640","Longitude":"-70.31340","Snowdepth":"16.500","Units":"in","Rept_Date":"2020-02-24 12"},"coordinates":[6319,5096]},{"type":"Point","properties":{"Station_ID":"NH-CR-46","Station_Nam":"NORTH CONWAY 1.8 SSE, NH","Latitude":"44.02955","Longitude":"-71.11664","Snowdepth":"16.300","Units":"in","Rept_Date":"2020-02-24 13"},"coordinates":[6131,5210]},{"type":"Point","properties":{"Station_ID":"CATQ6","Station_Nam":"CAT LAKE","Latitude":"51.72690","Longitude":"-91.82210","Snowdepth":"16.060","Units":"in","Rept_Date":"2020-02-25 06"},"coordinates":[1271,9999]},{"type":"Point","properties":{"Station_ID":"WRIM5","Station_Nam":"WRIGHT 3E","Latitude":"46.68040","Longitude":"-92.95420","Snowdepth":"16.000","Units":"in","Rept_Date":"2020-02-24 12"},"coordinates":[1006,6859]},{"type":"Point","properties":{"Station_ID":"WNDM1","Station_Nam":"WINDHAM 2NW","Latitude":"43.85670","Longitude":"-70.46630","Snowdepth":"16.000","Units":"in","Rept_Date":"2020-02-24 12"},"coordinates":[6283,5103]},{"type":"Point","properties":{"Station_ID":"WI-RS-1","Station_Nam":"LADYSMITH 2.8 WNW, WI","Latitude":"45.48180","Longitude":"-91.14680","Snowdepth":"16.000","Units":"in","Rept_Date":"2020-02-24 13"},"coordinates":[1430,6114]},{"type":"Point","properties":{"Station_ID":"WI-PR-6","Station_Nam":"PHILLIPS 1.3 S, WI","Latitude":"45.67677","Longitude":"-90.39543","Snowdepth":"16.000","Units":"in","Rept_Date":"2020-02-24 12"},"coordinates":[1606,6235]},{"type":"Point","properties":{"Station_ID":"WI-DN-1","Station_Nam":"BOYCEVILLE 3.3 N, WI","Latitude":"45.08913","Longitude":"-92.02760","Snowdepth":"16.000","Units":"in","Rept_Date":"2020-02-24 13"},"coordinates":[1223,5869]},{"type":"Point","properties":{"Station_ID":"TOPN6","Station_Nam":"TUPPER LAKE SUNMOUNT","Latitude":"44.23070","Longitude":"-74.43820","Snowdepth":"16.000","Units":"in","Rept_Date":"2020-02-24 12"},"coordinates":[5351,5335]},{"type":"Point","properties":{"Station_ID":"SAUW3","Station_Nam":"WAUSAU WSAW TV","Latitude":"44.94630","Longitude":"-89.62220","Snowdepth":"16.000","Units":"in","Rept_Date":"2020-02-25 04"},"coordinates":[1788,5781]},{"type":"Point","properties":{"Station_ID":"PERV1","Station_Nam":"PERU","Latitude":"43.26670","Longitude":"-72.90000","Snowdepth":"16.000","Units":"in","Rept_Date":"2020-02-24 12"},"coordinates":[5712,4736]},{"type":"Point","properties":{"Station_ID":"NH-MR-6","Station_Nam":"DANBURY 2.2 ESE, NH","Latitude":"43.52000","Longitude":"-71.81900","Snowdepth":"16.000","Units":"in","Rept_Date":"2020-02-24 13"},"coordinates":[5966,4893]},{"type":"Point","properties":{"Station_ID":"NH-MR-41","Station_Nam":"NEWBURY 1.6 NW, NH","Latitude":"43.33667","Longitude":"-72.06060","Snowdepth":"16.000","Units":"in","Rept_Date":"2020-02-24 12"},"coordinates":[5909,4779]},{"type":"Point","properties":{"Station_ID":"NCKN6","Station_Nam":"NORTH CREEK 5 SE","Latitude":"43.66110","Longitude":"-73.89690","Snowdepth":"16.000","Units":"in","Rept_Date":"2020-02-24 12"},"coordinates":[5478,4981]},{"type":"Point","properties":{"Station_ID":"MN49YOQ4","Station_Nam":"WRIGHT 3.9 NW","Latitude":"46.70182","Longitude":"-93.07461","Snowdepth":"16.000","Units":"in","Rept_Date":"2020-02-24 12"},"coordinates":[977,6873]},{"type":"Point","properties":{"Station_ID":"MI-CP-14","Station_Nam":"SAULT STE. MARIE 2.2 E, MI","Latitude":"46.48933","Longitude":"-84.31971","Snowdepth":"16.000","Units":"in","Rept_Date":"2020-02-24 13"},"coordinates":[3032,6740]},{"type":"Point","properties":{"Station_ID":"ME-YK-3","Station_Nam":"HOLLIS CENTER 5.4 NW, ME","Latitude":"43.64750","Longitude":"-70.67510","Snowdepth":"16.000","Units":"in","Rept_Date":"2020-02-24 12"},"coordinates":[6234,4972]},{"type":"Point","properties":{"Station_ID":"ME-CM-3","Station_Nam":"NEW GLOUCESTER 3.0 SE, ME","Latitude":"43.92372","Longitude":"-70.25790","Snowdepth":"16.000","Units":"in","Rept_Date":"2020-02-24 12"},"coordinates":[6332,5144]},{"type":"Point","properties":{"Station_ID":"JKMM1","Station_Nam":"JACKMAN","Latitude":"45.62600","Longitude":"-70.24600","Snowdepth":"16.000","Units":"in","Rept_Date":"2020-02-24 12"},"coordinates":[6335,6203]},{"type":"Point","properties":{"Station_ID":"JCBM4","Station_Nam":"JACOBSVILLE","Latitude":"47.00830","Longitude":"-88.43180","Snowdepth":"16.000","Units":"in","Rept_Date":"2020-02-24 12"},"coordinates":[2067,7063]},{"type":"Point","properties":{"Station_ID":"HRTM1","Station_Nam":"HARTFORD","Latitude":"44.37440","Longitude":"-70.31620","Snowdepth":"16.000","Units":"in","Rept_Date":"2020-02-24 12"},"coordinates":[6318,5425]},{"type":"Point","properties":{"Station_ID":"HOLW3","Station_Nam":"HOLCOMBE","Latitude":"45.22370","Longitude":"-91.12700","Snowdepth":"16.000","Units":"in","Rept_Date":"2020-02-24 13"},"coordinates":[1434,5953]},{"type":"Point","properties":{"Station_ID":"HOLM1","Station_Nam":"HOLLIS","Latitude":"43.64750","Longitude":"-70.67490","Snowdepth":"16.000","Units":"in","Rept_Date":"2020-02-24 11"},"coordinates":[6234,4972]},{"type":"Point","properties":{"Station_ID":"EJNM4","Station_Nam":"EAST JORDAN 2NW","Latitude":"45.18630","Longitude":"-85.14770","Snowdepth":"16.000","Units":"in","Rept_Date":"2020-02-24 13"},"coordinates":[2838,5930]},{"type":"Point","properties":{"Station_ID":"ECAW3","Station_Nam":"EAU CLAIRE 5 SE - HWY DEPT","Latitude":"44.76220","Longitude":"-91.41390","Snowdepth":"16.000","Units":"in","Rept_Date":"2020-02-24 14"},"coordinates":[1367,5666]},{"type":"Point","properties":{"Station_ID":"CORW3","Station_Nam":"CORNELL 2SSW","Latitude":"45.14140","Longitude":"-91.16260","Snowdepth":"16.000","Units":"in","Rept_Date":"2020-02-24 13"},"coordinates":[1426,5902]},{"type":"Point","properties":{"Station_ID":"BRAM5","Station_Nam":"BRAINERD","Latitude":"46.34320","Longitude":"-94.20900","Snowdepth":"16.000","Units":"in","Rept_Date":"2020-02-24 13"},"coordinates":[711,6650]},{"type":"Point","properties":{"Station_ID":"BETM1","Station_Nam":"BETHEL 6 SSE","Latitude":"44.32000","Longitude":"-70.75680","Snowdepth":"16.000","Units":"in","Rept_Date":"2020-02-24 12"},"coordinates":[6215,5391]},{"type":"Point","properties":{"Station_ID":"AROM4","Station_Nam":"ARNOLD,MI","Latitude":"46.06670","Longitude":"-87.48330","Snowdepth":"16.000","Units":"in","Rept_Date":"2020-02-24 13"},"coordinates":[2290,6478]},{"type":"Point","properties":{"Station_ID":"APXM4","Station_Nam":"GAYLORD 9SSW","Latitude":"44.90720","Longitude":"-84.71880","Snowdepth":"16.000","Units":"in","Rept_Date":"2020-02-25 06"},"coordinates":[2938,5756]},{"type":"Point","properties":{"Station_ID":"AMDW3","Station_Nam":"ALMOND-5 NE","Latitude":"44.30830","Longitude":"-89.34640","Snowdepth":"16.000","Units":"in","Rept_Date":"2020-02-24 14"},"coordinates":[1852,5384]},{"type":"Point","properties":{"Station_ID":"ME-CM-54","Station_Nam":"WINDHAM 3.9 NW, ME","Latitude":"43.85787","Longitude":"-70.46200","Snowdepth":"15.700","Units":"in","Rept_Date":"2020-02-24 12"},"coordinates":[6284,5103]},{"type":"Point","properties":{"Station_ID":"CAN-NB-97","Station_Nam":"NEW MARYLAND 0.6 NW, CAN","Latitude":"45.90112","Longitude":"-66.68739","Snowdepth":"15.700","Units":"in","Rept_Date":"2020-02-24 12"},"coordinates":[7170,6375]},{"type":"Point","properties":{"Station_ID":"CAN-NB-16","Station_Nam":"DORCHESTER 1.0 SSE, CAN","Latitude":"45.89160","Longitude":"-64.51269","Snowdepth":"15.700","Units":"in","Rept_Date":"2020-02-24 12"},"coordinates":[7681,6369]},{"type":"Point","properties":{"Station_ID":"VT-WR-2","Station_Nam":"POMFRET 2.6 N, VT","Latitude":"43.74230","Longitude":"-72.52550","Snowdepth":"15.500","Units":"in","Rept_Date":"2020-02-24 12"},"coordinates":[5800,5031]},{"type":"Point","properties":{"Station_ID":"WUNW3","Station_Nam":"WAUSAU-NORTHEAST","Latitude":"44.97310","Longitude":"-89.61690","Snowdepth":"15.000","Units":"in","Rept_Date":"2020-02-24 12"},"coordinates":[1789,5797]},{"type":"Point","properties":{"Station_ID":"WSFW3","Station_Nam":"TOWN OF WESTFORD","Latitude":"43.47190","Longitude":"-88.88250","Snowdepth":"15.000","Units":"in","Rept_Date":"2020-02-24 13"},"coordinates":[1961,4863]},{"type":"Point","properties":{"Station_ID":"WORV1","Station_Nam":"WORCESTER 2 W","Latitude":"44.37470","Longitude":"-72.58220","Snowdepth":"15.000","Units":"in","Rept_Date":"2020-02-24 12"},"coordinates":[5787,5425]},{"type":"Point","properties":{"Station_ID":"WI-PR-8","Station_Nam":"PHILLIPS 0.4 SSW, WI","Latitude":"45.69086","Longitude":"-90.40200","Snowdepth":"15.000","Units":"in","Rept_Date":"2020-02-24 13"},"coordinates":[1605,6244]},{"type":"Point","properties":{"Station_ID":"VT-CH-4","Station_Nam":"UNDERHILL 4.4 NNE, VT","Latitude":"44.58774","Longitude":"-72.92250","Snowdepth":"15.000","Units":"in","Rept_Date":"2020-02-24 12"},"coordinates":[5707,5557]},{"type":"Point","properties":{"Station_ID":"VANM4","Station_Nam":"VANDERBILT 11ENE","Latitude":"45.17020","Longitude":"-84.43970","Snowdepth":"15.000","Units":"in","Rept_Date":"2020-02-24 13"},"coordinates":[3004,5920]},{"type":"Point","properties":{"Station_ID":"RRVM4","Station_Nam":"RAPID RIVER 9S","Latitude":"45.78750","Longitude":"-86.93920","Snowdepth":"15.000","Units":"in","Rept_Date":"2020-02-24 16"},"coordinates":[2417,6304]},{"type":"Point","properties":{"Station_ID":"RHI","Station_Nam":"RHINELANDER-ONEIDA COUNTY AIRPORT","Latitude":"45.63080","Longitude":"-89.46530","Snowdepth":"15.000","Units":"in","Rept_Date":"2020-02-24 12"},"coordinates":[1824,6206]},{"type":"Point","properties":{"Station_ID":"PRNW3","Station_Nam":"PRENTICE,WI","Latitude":"45.54780","Longitude":"-90.30000","Snowdepth":"15.000","Units":"in","Rept_Date":"2020-02-24 14"},"coordinates":[1628,6155]},{"type":"Point","properties":{"Station_ID":"PELW3","Station_Nam":"PELLA 3SE","Latitude":"44.73580","Longitude":"-88.73780","Snowdepth":"15.000","Units":"in","Rept_Date":"2020-02-24 11"},"coordinates":[1995,5650]},{"type":"Point","properties":{"Station_ID":"OTTM5","Station_Nam":"OTTERTAIL,MN","Latitude":"46.41670","Longitude":"-95.56670","Snowdepth":"15.000","Units":"in","Rept_Date":"2020-02-24 10"},"coordinates":[392,6695]},{"type":"Point","properties":{"Station_ID":"OCON6","Station_Nam":"OSCEOLA","Latitude":"43.49910","Longitude":"-75.71210","Snowdepth":"15.000","Units":"in","Rept_Date":"2020-02-24 12"},"coordinates":[5052,4880]},{"type":"Point","properties":{"Station_ID":"NUNV1","Station_Nam":"NORTH UNDERHILL","Latitude":"44.58760","Longitude":"-72.92150","Snowdepth":"15.000","Units":"in","Rept_Date":"2020-02-24 12"},"coordinates":[5707,5557]},{"type":"Point","properties":{"Station_ID":"NUMM5","Station_Nam":"NEW ULM 3SE","Latitude":"44.29450","Longitude":"-94.40840","Snowdepth":"15.000","Units":"in","Rept_Date":"2020-02-24 11"},"coordinates":[664,5375]},{"type":"Point","properties":{"Station_ID":"NH-CR-9","Station_Nam":"MADISON 1.7 SE, NH","Latitude":"43.87928","Longitude":"-71.12660","Snowdepth":"15.000","Units":"in","Rept_Date":"2020-02-24 12"},"coordinates":[6128,5117]},{"type":"Point","properties":{"Station_ID":"MQRW3","Station_Nam":"MINOCQUA","Latitude":"45.88630","Longitude":"-89.73220","Snowdepth":"15.000","Units":"in","Rept_Date":"2020-02-24 12"},"coordinates":[1762,6365]},{"type":"Point","properties":{"Station_ID":"MNMQO9OI","Station_Nam":"OTTERTAIL 1.5 WNW","Latitude":"46.43378","Longitude":"-95.58416","Snowdepth":"15.000","Units":"in","Rept_Date":"2020-02-24 10"},"coordinates":[388,6706]},{"type":"Point","properties":{"Station_ID":"MNF74YNU","Station_Nam":"NEW ULM 3.3 ESE","Latitude":"44.29029","Longitude":"-94.40196","Snowdepth":"15.000","Units":"in","Rept_Date":"2020-02-24 11"},"coordinates":[666,5372]},{"type":"Point","properties":{"Station_ID":"MN-OT-3","Station_Nam":"BATTLE LAKE 2S, MN","Latitude":"46.25833","Longitude":"-95.71470","Snowdepth":"15.000","Units":"in","Rept_Date":"2020-02-24 13"},"coordinates":[358,6597]},{"type":"Point","properties":{"Station_ID":"MN-BK-10","Station_Nam":"DETROIT LAKES 5.7 N, MN","Latitude":"46.88666","Longitude":"-95.84444","Snowdepth":"15.000","Units":"in","Rept_Date":"2020-02-24 10"},"coordinates":[327,6988]},{"type":"Point","properties":{"Station_ID":"MI-OT-4","Station_Nam":"GAYLORD 1.7 WNW, MI","Latitude":"45.03280","Longitude":"-84.71090","Snowdepth":"15.000","Units":"in","Rept_Date":"2020-02-24 13"},"coordinates":[2940,5834]},{"type":"Point","properties":{"Station_ID":"GLRM5","Station_Nam":"GLACIAL RIDGE","Latitude":"47.71670","Longitude":"-96.26670","Snowdepth":"15.000","Units":"in","Rept_Date":"2020-02-25 04"},"coordinates":[228,7504]},{"type":"Point","properties":{"Station_ID":"GFDN6","Station_Nam":"CHASES LAKE","Latitude":"43.75920","Longitude":"-75.29980","Snowdepth":"15.000","Units":"in","Rept_Date":"2020-02-24 11"},"coordinates":[5149,5042]},{"type":"Point","properties":{"Station_ID":"GAYM4","Station_Nam":"GAYLORD","Latitude":"45.03320","Longitude":"-84.71130","Snowdepth":"15.000","Units":"in","Rept_Date":"2020-02-24 13"},"coordinates":[2940,5835]},{"type":"Point","properties":{"Station_ID":"FLDM5","Station_Nam":"FLOODWOOD,MN","Latitude":"47.00000","Longitude":"-92.91670","Snowdepth":"15.000","Units":"in","Rept_Date":"2020-02-24 14"},"coordinates":[1014,7058]},{"type":"Point","properties":{"Station_ID":"FEDM5","Station_Nam":"LEECH LAKE DAM","Latitude":"47.24670","Longitude":"-94.22280","Snowdepth":"15.000","Units":"in","Rept_Date":"2020-02-24 14"},"coordinates":[708,7212]},{"type":"Point","properties":{"Station_ID":"COLN3","Station_Nam":"COLEBROOK 3SW","Latitude":"44.86100","Longitude":"-71.53920","Snowdepth":"15.000","Units":"in","Rept_Date":"2020-02-24 12"},"coordinates":[6031,5727]},{"type":"Point","properties":{"Station_ID":"CHRM4","Station_Nam":"CHARLEVOIX","Latitude":"45.31720","Longitude":"-85.26720","Snowdepth":"15.000","Units":"in","Rept_Date":"2020-02-24 13"},"coordinates":[2810,6011]},{"type":"Point","properties":{"Station_ID":"BRLN3","Station_Nam":"BERLIN","Latitude":"44.45350","Longitude":"-71.18540","Snowdepth":"15.000","Units":"in","Rept_Date":"2020-02-24 12"},"coordinates":[6115,5474]},{"type":"Point","properties":{"Station_ID":"CAN-ON-757","Station_Nam":"SAULT STE. MARIE 2.8 ESE - GLFC, CAN","Latitude":"46.50300","Longitude":"-84.30300","Snowdepth":"14.800","Units":"in","Rept_Date":"2020-02-24 13"},"coordinates":[3036,6749]},{"type":"Point","properties":{"Station_ID":"VT-WS-19","Station_Nam":"WATERBURY 3.0 NW, VT","Latitude":"44.36060","Longitude":"-72.80770","Snowdepth":"14.500","Units":"in","Rept_Date":"2020-02-24 11"},"coordinates":[5734,5416]},{"type":"Point","properties":{"Station_ID":"SD-CD-30","Station_Nam":"WATERTOWN 2.3 E, SD","Latitude":"44.91604","Longitude":"-97.11925","Snowdepth":"14.500","Units":"in","Rept_Date":"2020-02-24 14"},"coordinates":[28,5762]},{"type":"Point","properties":{"Station_ID":"NY-SR-22","Station_Nam":"GREENFIELD CENTER 1.6 W, NY","Latitude":"43.12684","Longitude":"-73.87860","Snowdepth":"14.500","Units":"in","Rept_Date":"2020-02-24 12"},"coordinates":[5482,4649]},{"type":"Point","properties":{"Station_ID":"MN-BM-15","Station_Nam":"BEMIDJI 7.8 ENE, MN","Latitude":"47.52043","Longitude":"-94.72121","Snowdepth":"14.500","Units":"in","Rept_Date":"2020-02-24 13"},"coordinates":[591,7382]},{"type":"Point","properties":{"Station_ID":"CAN-PE-7","Station_Nam":"MORELL 1.4 NNW, CA","Latitude":"46.42741","Longitude":"-62.70870","Snowdepth":"14.200","Units":"in","Rept_Date":"2020-02-24 12"},"coordinates":[8104,6702]},{"type":"Point","properties":{"Station_ID":"WI-PT-8","Station_Nam":"RUDOLPH 2.1 NNE, WI","Latitude":"44.52553","Longitude":"-89.78677","Snowdepth":"14.000","Units":"in","Rept_Date":"2020-02-24 11"},"coordinates":[1749,5519]},{"type":"Point","properties":{"Station_ID":"WI-LN-2","Station_Nam":"MERRILL 7.0 W, WI","Latitude":"45.17746","Longitude":"-89.84820","Snowdepth":"14.000","Units":"in","Rept_Date":"2020-02-24 12"},"coordinates":[1734,5924]},{"type":"Point","properties":{"Station_ID":"WI-DR-5","Station_Nam":"ELLISON BAY 2.2 E, WI","Latitude":"45.25750","Longitude":"-87.02670","Snowdepth":"14.000","Units":"in","Rept_Date":"2020-02-24 13"},"coordinates":[2397,5974]},{"type":"Point","properties":{"Station_ID":"VT-WR-17","Station_Nam":"ROCHESTER 2.3 NE, VT","Latitude":"43.89418","Longitude":"-72.76992","Snowdepth":"14.000","Units":"in","Rept_Date":"2020-02-24 12"},"coordinates":[5743,5126]},{"type":"Point","properties":{"Station_ID":"SBNM5","Station_Nam":"SABIN","Latitude":"46.77690","Longitude":"-96.65610","Snowdepth":"14.000","Units":"in","Rept_Date":"2020-02-24 13"},"coordinates":[137,6919]},{"type":"Point","properties":{"Station_ID":"RLKW3","Station_Nam":"REST LAKE","Latitude":"46.12220","Longitude":"-89.87720","Snowdepth":"14.000","Units":"in","Rept_Date":"2020-02-24 13"},"coordinates":[1728,6512]},{"type":"Point","properties":{"Station_ID":"RHRW3","Station_Nam":"RHINELANDER WJFW TV-12","Latitude":"45.62220","Longitude":"-89.41000","Snowdepth":"14.000","Units":"in","Rept_Date":"2020-02-25 04"},"coordinates":[1837,6201]},{"type":"Point","properties":{"Station_ID":"PULW3","Station_Nam":"PULASKI WWTP","Latitude":"44.67830","Longitude":"-88.22750","Snowdepth":"14.000","Units":"in","Rept_Date":"2020-02-24 12"},"coordinates":[2115,5614]},{"type":"Point","properties":{"Station_ID":"PLMN6","Station_Nam":"PALERMO 2SSE","Latitude":"43.33140","Longitude":"-76.26930","Snowdepth":"14.000","Units":"in","Rept_Date":"2020-02-24 11"},"coordinates":[4921,4776]},{"type":"Point","properties":{"Station_ID":"ONMM5","Station_Nam":"ONAMIA RANGER STATION","Latitude":"46.06770","Longitude":"-93.66660","Snowdepth":"14.000","Units":"in","Rept_Date":"2020-02-24 14"},"coordinates":[838,6478]},{"type":"Point","properties":{"Station_ID":"NYMM5","Station_Nam":"NEW YORK MILLS","Latitude":"46.50920","Longitude":"-95.37990","Snowdepth":"14.000","Units":"in","Rept_Date":"2020-02-24 13"},"coordinates":[436,6753]},{"type":"Point","properties":{"Station_ID":"NY-CL-12","Station_Nam":"SARANAC 0.8 SSE, NY","Latitude":"44.63980","Longitude":"-73.73848","Snowdepth":"14.000","Units":"in","Rept_Date":"2020-02-24 12"},"coordinates":[5515,5590]},{"type":"Point","properties":{"Station_ID":"NH-MR-60","Station_Nam":"SOUTH SUTTON 1.3 SE, NH","Latitude":"43.29531","Longitude":"-71.90238","Snowdepth":"14.000","Units":"in","Rept_Date":"2020-02-24 13"},"coordinates":[5946,4753]},{"type":"Point","properties":{"Station_ID":"MNEY8CTB","Station_Nam":"MIDLAND JUNCTION 2.2 ENE","Latitude":"44.33041","Longitude":"-91.95891","Snowdepth":"14.000","Units":"in","Rept_Date":"2020-02-24 14"},"coordinates":[1239,5397]},{"type":"Point","properties":{"Station_ID":"MN-DS-9","Station_Nam":"ALEXANDRIA 0.5 W, MN","Latitude":"45.87828","Longitude":"-95.38273","Snowdepth":"14.000","Units":"in","Rept_Date":"2020-02-24 12"},"coordinates":[436,6360]},{"type":"Point","properties":{"Station_ID":"MLLW3","Station_Nam":"MERRILL 8W","Latitude":"45.17810","Longitude":"-89.84810","Snowdepth":"14.000","Units":"in","Rept_Date":"2020-02-24 12"},"coordinates":[1735,5925]},{"type":"Point","properties":{"Station_ID":"ME-AN-32","Station_Nam":"WINTHROP 9.4 W, ME","Latitude":"44.30476","Longitude":"-70.15835","Snowdepth":"14.000","Units":"in","Rept_Date":"2020-02-24 12"},"coordinates":[6356,5381]},{"type":"Point","properties":{"Station_ID":"MALN6","Station_Nam":"MALONE","Latitude":"44.84180","Longitude":"-74.30600","Snowdepth":"14.000","Units":"in","Rept_Date":"2020-02-24 12"},"coordinates":[5382,5715]},{"type":"Point","properties":{"Station_ID":"LNGM5","Station_Nam":"LONG PRAIRIE","Latitude":"45.96460","Longitude":"-94.88920","Snowdepth":"14.000","Units":"in","Rept_Date":"2020-02-24 12"},"coordinates":[551,6414]},{"type":"Point","properties":{"Station_ID":"JEFV1","Station_Nam":"JEFFERSONVILLE","Latitude":"44.58430","Longitude":"-72.78700","Snowdepth":"14.000","Units":"in","Rept_Date":"2020-02-24 12"},"coordinates":[5739,5555]},{"type":"Point","properties":{"Station_ID":"ILEW3","Station_Nam":"STILES 1S","Latitude":"44.84190","Longitude":"-88.05420","Snowdepth":"14.000","Units":"in","Rept_Date":"2020-02-24 13"},"coordinates":[2156,5716]},{"type":"Point","properties":{"Station_ID":"GRFN8","Station_Nam":"UNIVERSITY","Latitude":"47.93330","Longitude":"-97.08330","Snowdepth":"14.000","Units":"in","Rept_Date":"2020-02-25 06"},"coordinates":[36,7639]},{"type":"Point","properties":{"Station_ID":"EPTW3","Station_Nam":"EAU PLEINE TENDER","Latitude":"44.77220","Longitude":"-89.76720","Snowdepth":"14.000","Units":"in","Rept_Date":"2020-02-24 13"},"coordinates":[1753,5672]},{"type":"Point","properties":{"Station_ID":"DURM1","Station_Nam":"DURHAM","Latitude":"43.99960","Longitude":"-70.09630","Snowdepth":"14.000","Units":"in","Rept_Date":"2020-02-24 11"},"coordinates":[6370,5192]},{"type":"Point","properties":{"Station_ID":"COTM5","Station_Nam":"COTTON","Latitude":"47.16870","Longitude":"-92.46290","Snowdepth":"14.000","Units":"in","Rept_Date":"2020-02-24 12"},"coordinates":[1121,7163]},{"type":"Point","properties":{"Station_ID":"CAN-ON-42","Station_Nam":"VANKLEEK HILL 3.4 S, CA","Latitude":"45.48987","Longitude":"-74.64570","Snowdepth":"14.000","Units":"in","Rept_Date":"2020-02-24 12"},"coordinates":[5302,6119]},{"type":"Point","properties":{"Station_ID":"BRUM5","Station_Nam":"BRUNO,MN","Latitude":"46.28330","Longitude":"-92.50000","Snowdepth":"14.000","Units":"in","Rept_Date":"2020-02-24 14"},"coordinates":[1112,6612]},{"type":"Point","properties":{"Station_ID":"ASTM5","Station_Nam":"AUSTIN WASTE WATER TREATMENT FACILITY","Latitude":"43.65420","Longitude":"-92.97390","Snowdepth":"14.000","Units":"in","Rept_Date":"2020-02-24 13"},"coordinates":[1001,4977]},{"type":"Point","properties":{"Station_ID":"ALXM5","Station_Nam":"ALEXANDRIA","Latitude":"45.87820","Longitude":"-95.38270","Snowdepth":"14.000","Units":"in","Rept_Date":"2020-02-24 12"},"coordinates":[436,6360]},{"type":"Point","properties":{"Station_ID":"ABGW3","Station_Nam":"AMBERG 9 E","Latitude":"45.48250","Longitude":"-87.81190","Snowdepth":"14.000","Units":"in","Rept_Date":"2020-02-24 12"},"coordinates":[2212,6114]},{"type":"Point","properties":{"Station_ID":"FTHQ6","Station_Nam":"FORT HOPE","Latitude":"51.55820","Longitude":"-87.90510","Snowdepth":"13.820","Units":"in","Rept_Date":"2020-02-25 06"},"coordinates":[2191,9894]},{"type":"Point","properties":{"Station_ID":"NH-MR-45","Station_Nam":"NORTHFIELD 2.8 E, NH","Latitude":"43.43945","Longitude":"-71.53730","Snowdepth":"13.500","Units":"in","Rept_Date":"2020-02-24 12"},"coordinates":[6032,4843]},{"type":"Point","properties":{"Station_ID":"MN-AT-5","Station_Nam":"TAMARACK 1.4 SW, MN","Latitude":"46.63760","Longitude":"-93.14554","Snowdepth":"13.500","Units":"in","Rept_Date":"2020-02-24 11"},"coordinates":[961,6833]},{"type":"Point","properties":{"Station_ID":"CAN-NB-1","Station_Nam":"FREDERICTON 4.0 SSE, CA","Latitude":"45.92897","Longitude":"-66.62830","Snowdepth":"13.400","Units":"in","Rept_Date":"2020-02-24 12"},"coordinates":[7184,6392]},{"type":"Point","properties":{"Station_ID":"WSKW3","Station_Nam":"WAUSAUKEE","Latitude":"45.38020","Longitude":"-87.95660","Snowdepth":"13.000","Units":"in","Rept_Date":"2020-02-24 14"},"coordinates":[2178,6050]},{"type":"Point","properties":{"Station_ID":"WIRW3","Station_Nam":"WIS RAPIDS GRAND AV B","Latitude":"44.39940","Longitude":"-89.83050","Snowdepth":"13.000","Units":"in","Rept_Date":"2020-02-24 13"},"coordinates":[1739,5440]},{"type":"Point","properties":{"Station_ID":"WI-SR-5","Station_Nam":"HAYWARD 9.7 NE, WI","Latitude":"46.12030","Longitude":"-91.35370","Snowdepth":"13.000","Units":"in","Rept_Date":"2020-02-24 14"},"coordinates":[1381,6511]},{"type":"Point","properties":{"Station_ID":"WI-BT-14","Station_Nam":"OAKLAND 9.0 ENE, WI","Latitude":"45.95184","Longitude":"-92.21653","Snowdepth":"13.000","Units":"in","Rept_Date":"2020-02-24 13"},"coordinates":[1179,6406]},{"type":"Point","properties":{"Station_ID":"VT-CL-23","Station_Nam":"RYEGATE 1.5 N, VT","Latitude":"44.23024","Longitude":"-72.10523","Snowdepth":"13.000","Units":"in","Rept_Date":"2020-02-24 12"},"coordinates":[5899,5335]},{"type":"Point","properties":{"Station_ID":"STRW3","Station_Nam":"STRATFORD 1NW","Latitude":"44.81750","Longitude":"-90.08990","Snowdepth":"13.000","Units":"in","Rept_Date":"2020-02-24 13"},"coordinates":[1678,5700]},{"type":"Point","properties":{"Station_ID":"SANI4","Station_Nam":"ST ANSGAR","Latitude":"43.38170","Longitude":"-92.92320","Snowdepth":"13.000","Units":"in","Rept_Date":"2020-02-24 12"},"coordinates":[1013,4807]},{"type":"Point","properties":{"Station_ID":"RRLW3","Station_Nam":"MERRILL,WI","Latitude":"45.17860","Longitude":"-89.66170","Snowdepth":"13.000","Units":"in","Rept_Date":"2020-02-24 14"},"coordinates":[1778,5925]},{"type":"Point","properties":{"Station_ID":"ROWM3","Station_Nam":"ROWE 3NE","Latitude":"42.73500","Longitude":"-72.86920","Snowdepth":"13.000","Units":"in","Rept_Date":"2020-02-24 12"},"coordinates":[5719,4405]},{"type":"Point","properties":{"Station_ID":"PVRW3","Station_Nam":"PLOVER-2-E WATER TREATMENT PLANT","Latitude":"44.45920","Longitude":"-89.49530","Snowdepth":"13.000","Units":"in","Rept_Date":"2020-02-24 13"},"coordinates":[1817,5477]},{"type":"Point","properties":{"Station_ID":"PLFV1","Station_Nam":"PLAINFIELD","Latitude":"44.27610","Longitude":"-72.41500","Snowdepth":"13.000","Units":"in","Rept_Date":"2020-02-24 12"},"coordinates":[5826,5364]},{"type":"Point","properties":{"Station_ID":"NONW3","Station_Nam":"NEW LONDON","Latitude":"44.35890","Longitude":"-88.71890","Snowdepth":"13.000","Units":"in","Rept_Date":"2020-02-24 12"},"coordinates":[2000,5415]},{"type":"Point","properties":{"Station_ID":"NH-GR-47","Station_Nam":"LITTLETON 7.3 W, NH","Latitude":"44.31847","Longitude":"-71.91086","Snowdepth":"13.000","Units":"in","Rept_Date":"2020-02-24 13"},"coordinates":[5944,5390]},{"type":"Point","properties":{"Station_ID":"ND-CS-25","Station_Nam":"FARGO 2.1 N, ND","Latitude":"46.90816","Longitude":"-96.77937","Snowdepth":"13.000","Units":"in","Rept_Date":"2020-02-24 14"},"coordinates":[108,7001]},{"type":"Point","properties":{"Station_ID":"MWTM1","Station_Nam":"MILLINOCKET WWTP","Latitude":"45.64030","Longitude":"-68.67480","Snowdepth":"13.000","Units":"in","Rept_Date":"2020-02-24 11"},"coordinates":[6704,6212]},{"type":"Point","properties":{"Station_ID":"MWN","Station_Nam":"MOUNT WASHINGTON","Latitude":"44.26670","Longitude":"-71.30000","Snowdepth":"13.000","Units":"in","Rept_Date":"2020-02-25 05"},"coordinates":[6088,5358]},{"type":"Point","properties":{"Station_ID":"MI-BZ-1","Station_Nam":"BENZONIA 5.3 S, MI","Latitude":"44.53976","Longitude":"-86.10650","Snowdepth":"13.000","Units":"in","Rept_Date":"2020-02-24 14"},"coordinates":[2613,5528]},{"type":"Point","properties":{"Station_ID":"MCLN8","Station_Nam":"MC LEOD,ND","Latitude":"46.40250","Longitude":"-97.23810","Snowdepth":"13.000","Units":"in","Rept_Date":"2020-02-24 14"},"coordinates":[0,6686]},{"type":"Point","properties":{"Station_ID":"MA-HS-7","Station_Nam":"PLAINFIELD 2.2 SW, MA","Latitude":"42.49272","Longitude":"-72.94540","Snowdepth":"13.000","Units":"in","Rept_Date":"2020-02-24 13"},"coordinates":[5701,4254]},{"type":"Point","properties":{"Station_ID":"KMWN","Station_Nam":"MOUNT WASHINGTON","Latitude":"44.26666","Longitude":"-71.30000","Snowdepth":"13.000","Units":"in","Rept_Date":"2020-02-25 06"},"coordinates":[6088,5358]},{"type":"Point","properties":{"Station_ID":"JEFN3","Station_Nam":"JEFFERSON","Latitude":"44.41690","Longitude":"-71.50080","Snowdepth":"13.000","Units":"in","Rept_Date":"2020-02-24 12"},"coordinates":[6040,5451]},{"type":"Point","properties":{"Station_ID":"HMYM1","Station_Nam":"HARMONY","Latitude":"44.94660","Longitude":"-69.54560","Snowdepth":"13.000","Units":"in","Rept_Date":"2020-02-24 12"},"coordinates":[6499,5781]},{"type":"Point","properties":{"Station_ID":"GRBM5","Station_Nam":"GRAND RAPIDS 12N","Latitude":"47.39800","Longitude":"-93.51330","Snowdepth":"13.000","Units":"in","Rept_Date":"2020-02-24 13"},"coordinates":[874,7306]},{"type":"Point","properties":{"Station_ID":"CLGM5","Station_Nam":"COLLEGEVILLE ST JOHN","Latitude":"45.57940","Longitude":"-94.39200","Snowdepth":"13.000","Units":"in","Rept_Date":"2020-02-25 00"},"coordinates":[668,6174]},{"type":"Point","properties":{"Station_ID":"CGPM4","Station_Nam":"DOLLAR BAY","Latitude":"47.11670","Longitude":"-88.51370","Snowdepth":"13.000","Units":"in","Rept_Date":"2020-02-24 13"},"coordinates":[2048,7131]},{"type":"Point","properties":{"Station_ID":"CAN-PE-3","Station_Nam":"WELLINGTON 1.6 NE, CA","Latitude":"46.46672","Longitude":"-63.98920","Snowdepth":"13.000","Units":"in","Rept_Date":"2020-02-24 11"},"coordinates":[7803,6726]},{"type":"Point","properties":{"Station_ID":"CAN-MB-32","Station_Nam":"PINAWA 1.0 SW, CA","Latitude":"50.14747","Longitude":"-95.89020","Snowdepth":"13.000","Units":"in","Rept_Date":"2020-02-24 13"},"coordinates":[316,9016]},{"type":"Point","properties":{"Station_ID":"BAGM4","Station_Nam":"BARAGA 7NW","Latitude":"46.82100","Longitude":"-88.60590","Snowdepth":"13.000","Units":"in","Rept_Date":"2020-02-24 13"},"coordinates":[2026,6947]},{"type":"Point","properties":{"Station_ID":"ATW","Station_Nam":"OUTAGAMIE COUNTY AIRPORT","Latitude":"44.25750","Longitude":"-88.51940","Snowdepth":"13.000","Units":"in","Rept_Date":"2020-02-24 12"},"coordinates":[2046,5352]},{"type":"Point","properties":{"Station_ID":"APPW3","Station_Nam":"APPLETON","Latitude":"44.27690","Longitude":"-88.43770","Snowdepth":"13.000","Units":"in","Rept_Date":"2020-02-24 12"},"coordinates":[2066,5364]},{"type":"Point","properties":{"Station_ID":"CAN-MB-368","Station_Nam":"WHITESHELL 1.3 NE, CAN","Latitude":"49.74405","Longitude":"-95.19123","Snowdepth":"12.800","Units":"in","Rept_Date":"2020-02-24 14"},"coordinates":[481,8765]},{"type":"Point","properties":{"Station_ID":"CAN-NB-6","Station_Nam":"FREDERICTON 5.1 SSE, CAN","Latitude":"45.91895","Longitude":"-66.62685","Snowdepth":"12.600","Units":"in","Rept_Date":"2020-02-24 10"},"coordinates":[7184,6386]},{"type":"Point","properties":{"Station_ID":"CAN-MB-298","Station_Nam":"GARDENTON 4.2 W - SRRCD, CAN","Latitude":"49.09480","Longitude":"-96.75446","Snowdepth":"12.600","Units":"in","Rept_Date":"2020-02-24 15"},"coordinates":[114,8361]},{"type":"Point","properties":{"Station_ID":"WI-GN-5","Station_Nam":"MONTICELLO 2.2 SE, WI","Latitude":"42.71990","Longitude":"-89.56360","Snowdepth":"12.500","Units":"in","Rept_Date":"2020-02-24 13"},"coordinates":[1801,4395]},{"type":"Point","properties":{"Station_ID":"WI-DA-35","Station_Nam":"MADISON 5.5 N, WI","Latitude":"43.15858","Longitude":"-89.37280","Snowdepth":"12.500","Units":"in","Rept_Date":"2020-02-24 14"},"coordinates":[1846,4668]},{"type":"Point","properties":{"Station_ID":"WI-CH-7","Station_Nam":"CHIPPEWA FALLS 1.2 E, WI","Latitude":"44.92920","Longitude":"-91.36730","Snowdepth":"12.500","Units":"in","Rept_Date":"2020-02-24 13"},"coordinates":[1378,5770]},{"type":"Point","properties":{"Station_ID":"NH-GR-1","Station_Nam":"BRISTOL 0.4 SSE, NH","Latitude":"43.59490","Longitude":"-71.74140","Snowdepth":"12.500","Units":"in","Rept_Date":"2020-02-24 12"},"coordinates":[5984,4940]},{"type":"Point","properties":{"Station_ID":"WTHM1","Station_Nam":"WINTHROP","Latitude":"44.30650","Longitude":"-69.97010","Snowdepth":"12.000","Units":"in","Rept_Date":"2020-02-24 13"},"coordinates":[6400,5382]},{"type":"Point","properties":{"Station_ID":"WNNM5","Station_Nam":"WINNEBAGO","Latitude":"43.76920","Longitude":"-94.18730","Snowdepth":"12.000","Units":"in","Rept_Date":"2020-02-24 14"},"coordinates":[716,5048]},{"type":"Point","properties":{"Station_ID":"WLDM5","Station_Nam":"WILD RIVER STATE PARK","Latitude":"45.52310","Longitude":"-92.74890","Snowdepth":"12.000","Units":"in","Rept_Date":"2020-02-24 14"},"coordinates":[1054,6139]},{"type":"Point","properties":{"Station_ID":"WILW3","Station_Nam":"RESERVOIR","Latitude":"45.70000","Longitude":"-89.83330","Snowdepth":"12.000","Units":"in","Rept_Date":"2020-02-24 12"},"coordinates":[1738,6249]},{"type":"Point","properties":{"Station_ID":"WI-MT-4","Station_Nam":"WAUSAU 1.7 ENE, WI","Latitude":"44.96943","Longitude":"-89.61090","Snowdepth":"12.000","Units":"in","Rept_Date":"2020-02-24 13"},"coordinates":[1790,5795]},{"type":"Point","properties":{"Station_ID":"WI-BR-2","Station_Nam":"CHETEK 2.0 SE, WI","Latitude":"45.29427","Longitude":"-91.62470","Snowdepth":"12.000","Units":"in","Rept_Date":"2020-02-24 13"},"coordinates":[1318,5997]},{"type":"Point","properties":{"Station_ID":"WASW3","Station_Nam":"WASHINGTON IS","Latitude":"45.35800","Longitude":"-86.89110","Snowdepth":"12.000","Units":"in","Rept_Date":"2020-02-24 12"},"coordinates":[2428,6037]},{"type":"Point","properties":{"Station_ID":"WAIV1","Station_Nam":"WAITSFIELD","Latitude":"44.17560","Longitude":"-72.79610","Snowdepth":"12.000","Units":"in","Rept_Date":"2020-02-24 12"},"coordinates":[5736,5301]},{"type":"Point","properties":{"Station_ID":"VT-WS-11","Station_Nam":"WAITSFIELD 1.8 SE, VT","Latitude":"44.17551","Longitude":"-72.79540","Snowdepth":"12.000","Units":"in","Rept_Date":"2020-02-24 12"},"coordinates":[5737,5301]},{"type":"Point","properties":{"Station_ID":"VT-LM-7","Station_Nam":"HYDE PARK 2.9 NE, VT","Latitude":"44.62080","Longitude":"-72.57250","Snowdepth":"12.000","Units":"in","Rept_Date":"2020-02-24 13"},"coordinates":[5789,5578]},{"type":"Point","properties":{"Station_ID":"UVDV1","Station_Nam":"NERON SITE AT UNION VILLAGE DAM","Latitude":"43.79140","Longitude":"-72.25720","Snowdepth":"12.000","Units":"in","Rept_Date":"2020-02-24 13"},"coordinates":[5863,5062]},{"type":"Point","properties":{"Station_ID":"STPW3","Station_Nam":"STEVENS POINT","Latitude":"44.51130","Longitude":"-89.58550","Snowdepth":"12.000","Units":"in","Rept_Date":"2020-02-24 13"},"coordinates":[1796,5510]},{"type":"Point","properties":{"Station_ID":"SPOW3","Station_Nam":"SPOONER,WI","Latitude":"45.82360","Longitude":"-91.70000","Snowdepth":"12.000","Units":"in","Rept_Date":"2020-02-24 14"},"coordinates":[1300,6326]},{"type":"Point","properties":{"Station_ID":"SJBV1","Station_Nam":"SAINT JOHNSBURY","Latitude":"44.42000","Longitude":"-72.01940","Snowdepth":"12.000","Units":"in","Rept_Date":"2020-02-24 21"},"coordinates":[5919,5453]},{"type":"Point","properties":{"Station_ID":"POLM1","Station_Nam":"POLAND","Latitude":"44.00700","Longitude":"-70.36140","Snowdepth":"12.000","Units":"in","Rept_Date":"2020-02-24 12"},"coordinates":[6308,5196]},{"type":"Point","properties":{"Station_ID":"PKFW3","Station_Nam":"PARK FALLS,WI","Latitude":"45.93360","Longitude":"-90.45060","Snowdepth":"12.000","Units":"in","Rept_Date":"2020-02-24 14"},"coordinates":[1593,6395]},{"type":"Point","properties":{"Station_ID":"NY-ES-7","Station_Nam":"KEESEVILLE 0.8 SE, NY","Latitude":"44.49504","Longitude":"-73.47109","Snowdepth":"12.000","Units":"in","Rept_Date":"2020-02-24 12"},"coordinates":[5578,5500]},{"type":"Point","properties":{"Station_ID":"NY-ER-77","Station_Nam":"COLDEN 2.4 ENE, NY","Latitude":"42.65088","Longitude":"-78.61060","Snowdepth":"12.000","Units":"in","Rept_Date":"2020-02-24 13"},"coordinates":[4372,4352]},{"type":"Point","properties":{"Station_ID":"NY-ER-166","Station_Nam":"BOSTON 2.5 NE, NY","Latitude":"42.65480","Longitude":"-78.70300","Snowdepth":"12.000","Units":"in","Rept_Date":"2020-02-24 12"},"coordinates":[4350,4355]},{"type":"Point","properties":{"Station_ID":"NWSM1","Station_Nam":"NEW SHARON","Latitude":"44.63520","Longitude":"-70.00020","Snowdepth":"12.000","Units":"in","Rept_Date":"2020-02-24 12"},"coordinates":[6393,5587]},{"type":"Point","properties":{"Station_ID":"NVLV1","Station_Nam":"NASHVILLE","Latitude":"44.44970","Longitude":"-72.92640","Snowdepth":"12.000","Units":"in","Rept_Date":"2020-02-24 12"},"coordinates":[5706,5472]},{"type":"Point","properties":{"Station_ID":"NVLN6","Station_Nam":"NORTHVILLE","Latitude":"43.23330","Longitude":"-74.16670","Snowdepth":"12.000","Units":"in","Rept_Date":"2020-02-24 12"},"coordinates":[5415,4715]},{"type":"Point","properties":{"Station_ID":"NOHV1","Station_Nam":"NORTH HARTLAND LAKE","Latitude":"43.60270","Longitude":"-72.36210","Snowdepth":"12.000","Units":"in","Rept_Date":"2020-02-24 12"},"coordinates":[5838,4945]},{"type":"Point","properties":{"Station_ID":"ND-CS-1","Station_Nam":"WEST FARGO 3.8 SSE, ND","Latitude":"46.82750","Longitude":"-96.85280","Snowdepth":"12.000","Units":"in","Rept_Date":"2020-02-24 13"},"coordinates":[91,6951]},{"type":"Point","properties":{"Station_ID":"MN-SH-985","Station_Nam":"PRINCETON 3.3 WSW, MN","Latitude":"45.55211","Longitude":"-93.64481","Snowdepth":"12.000","Units":"in","Rept_Date":"2020-02-24 11"},"coordinates":[843,6157]},{"type":"Point","properties":{"Station_ID":"MN-SH-10","Station_Nam":"BIG LAKE 5.6 NNE, MN","Latitude":"45.41409","Longitude":"-93.69190","Snowdepth":"12.000","Units":"in","Rept_Date":"2020-02-24 13"},"coordinates":[832,6072]},{"type":"Point","properties":{"Station_ID":"MN-MC-5","Station_Nam":"GLENCOE 0.3 WSW, MN","Latitude":"44.76834","Longitude":"-94.15580","Snowdepth":"12.000","Units":"in","Rept_Date":"2020-02-24 14"},"coordinates":[724,5670]},{"type":"Point","properties":{"Station_ID":"MN-HN-181","Station_Nam":"MINNEAPOLIS 0.4 NE, MN","Latitude":"44.96708","Longitude":"-93.26222","Snowdepth":"12.000","Units":"in","Rept_Date":"2020-02-24 13"},"coordinates":[933,5793]},{"type":"Point","properties":{"Station_ID":"MN-CW-8","Station_Nam":"BRAINERD 11.5 E, MN","Latitude":"46.38556","Longitude":"-93.95720","Snowdepth":"12.000","Units":"in","Rept_Date":"2020-02-24 13"},"coordinates":[770,6676]},{"type":"Point","properties":{"Station_ID":"KSEM4","Station_Nam":"KALKASKA 11SE","Latitude":"44.58970","Longitude":"-85.04860","Snowdepth":"12.000","Units":"in","Rept_Date":"2020-02-24 13"},"coordinates":[2861,5559]},{"type":"Point","properties":{"Station_ID":"KGFK","Station_Nam":"GRAND FORKS INTERNATIONAL","Latitude":"47.95000","Longitude":"-97.18333","Snowdepth":"12.000","Units":"in","Rept_Date":"2020-02-25 06"},"coordinates":[13,7649]},{"type":"Point","properties":{"Station_ID":"JOHV1","Station_Nam":"JOHNSON 2 N","Latitude":"44.65790","Longitude":"-72.67850","Snowdepth":"12.000","Units":"in","Rept_Date":"2020-02-24 12"},"coordinates":[5764,5601]},{"type":"Point","properties":{"Station_ID":"GYX","Station_Nam":"PORTLAND, ME","Latitude":"43.89250","Longitude":"-70.25500","Snowdepth":"12.000","Units":"in","Rept_Date":"2020-02-24 12"},"coordinates":[6333,5125]},{"type":"Point","properties":{"Station_ID":"GFK","Station_Nam":"GRAND FORKS INTERNATIONAL AIRPORT","Latitude":"47.94920","Longitude":"-97.17610","Snowdepth":"12.000","Units":"in","Rept_Date":"2020-02-25 00"},"coordinates":[15,7649]},{"type":"Point","properties":{"Station_ID":"FAR","Station_Nam":"HECTOR INTERNATIONAL ARPT","Latitude":"46.91560","Longitude":"-96.81440","Snowdepth":"12.000","Units":"in","Rept_Date":"2020-02-25 00"},"coordinates":[100,7006]},{"type":"Point","properties":{"Station_ID":"ENGM4","Station_Nam":"ENGADINE MDOT","Latitude":"46.12800","Longitude":"-85.56960","Snowdepth":"12.000","Units":"in","Rept_Date":"2020-02-24 12"},"coordinates":[2739,6516]},{"type":"Point","properties":{"Station_ID":"ENFV1","Station_Nam":"ENOSBURG FALLS 2","Latitude":"44.90960","Longitude":"-72.81370","Snowdepth":"12.000","Units":"in","Rept_Date":"2020-02-24 10"},"coordinates":[5732,5758]},{"type":"Point","properties":{"Station_ID":"DTVM4","Station_Nam":"DETOUR VILLAGE","Latitude":"45.99830","Longitude":"-83.90130","Snowdepth":"12.000","Units":"in","Rept_Date":"2020-02-24 13"},"coordinates":[3130,6435]},{"type":"Point","properties":{"Station_ID":"CVZW3","Station_Nam":"WISCONSIN PUBLIC SERVICE","Latitude":"45.23530","Longitude":"-88.01360","Snowdepth":"12.000","Units":"in","Rept_Date":"2020-02-24 12"},"coordinates":[2165,5960]},{"type":"Point","properties":{"Station_ID":"CTNW3","Station_Nam":"CASHTON 3NNW","Latitude":"43.78600","Longitude":"-90.79520","Snowdepth":"12.000","Units":"in","Rept_Date":"2020-02-24 14"},"coordinates":[1512,5059]},{"type":"Point","properties":{"Station_ID":"CNKN6","Station_Nam":"CONKLINGVILLE DAM","Latitude":"43.32030","Longitude":"-73.92560","Snowdepth":"12.000","Units":"in","Rept_Date":"2020-02-24 13"},"coordinates":[5471,4769]},{"type":"Point","properties":{"Station_ID":"CAN-QC-16","Station_Nam":"SAINT-ARMAND 3.6 W, CAN","Latitude":"45.02631","Longitude":"-73.08795","Snowdepth":"12.000","Units":"in","Rept_Date":"2020-02-24 12"},"coordinates":[5668,5830]},{"type":"Point","properties":{"Station_ID":"CAN-ON-208","Station_Nam":"PAKENHAM 7.8 NNW, CAN","Latitude":"45.39166","Longitude":"-76.34111","Snowdepth":"12.000","Units":"in","Rept_Date":"2020-02-24 12"},"coordinates":[4904,6058]},{"type":"Point","properties":{"Station_ID":"BDMW3","Station_Nam":"BEAVER DAM 1 N","Latitude":"43.46860","Longitude":"-88.83970","Snowdepth":"12.000","Units":"in","Rept_Date":"2020-02-24 13"},"coordinates":[1971,4861]},{"type":"Point","properties":{"Station_ID":"BALW3","Station_Nam":"BALDWIN","Latitude":"44.96330","Longitude":"-92.39050","Snowdepth":"12.000","Units":"in","Rept_Date":"2020-02-24 13"},"coordinates":[1138,5791]},{"type":"Point","properties":{"Station_ID":"ARTM5","Station_Nam":"ARTICHOKE LAKE 1 E","Latitude":"45.38560","Longitude":"-96.12570","Snowdepth":"12.000","Units":"in","Rept_Date":"2020-02-25 00"},"coordinates":[261,6054]},{"type":"Point","properties":{"Station_ID":"CAN-NB-8","Station_Nam":"KESWICK RIDGE 2.3 SSE, CAN","Latitude":"45.97703","Longitude":"-66.86815","Snowdepth":"11.800","Units":"in","Rept_Date":"2020-02-24 13"},"coordinates":[7128,6422]},{"type":"Point","properties":{"Station_ID":"WI-WN-9","Station_Nam":"NEENAH 1.1 ENE, WI","Latitude":"44.17370","Longitude":"-88.45130","Snowdepth":"11.500","Units":"in","Rept_Date":"2020-02-24 13"},"coordinates":[2062,5300]},{"type":"Point","properties":{"Station_ID":"WI-WD-7","Station_Nam":"NEKOOSA 3.7 SSW, WI","Latitude":"44.26305","Longitude":"-89.93526","Snowdepth":"11.500","Units":"in","Rept_Date":"2020-02-24 13"},"coordinates":[1714,5355]},{"type":"Point","properties":{"Station_ID":"VT-CH-11","Station_Nam":"UNDERHILL 5.1 NNE, VT","Latitude":"44.59811","Longitude":"-72.91880","Snowdepth":"11.500","Units":"in","Rept_Date":"2020-02-24 13"},"coordinates":[5708,5564]},{"type":"Point","properties":{"Station_ID":"VT-BN-7","Station_Nam":"MANCHESTER 2.8 ENE, VT","Latitude":"43.17274","Longitude":"-73.01811","Snowdepth":"11.500","Units":"in","Rept_Date":"2020-02-24 12"},"coordinates":[5684,4677]},{"type":"Point","properties":{"Station_ID":"CAN-ON-92","Station_Nam":"DUNROBIN 1.9 W - MVCA, CAN","Latitude":"45.42318","Longitude":"-76.04525","Snowdepth":"11.200","Units":"in","Rept_Date":"2020-02-24 12"},"coordinates":[4974,6077]},{"type":"Point","properties":{"Station_ID":"WWWW3","Station_Nam":"WAUPACA","Latitude":"44.35470","Longitude":"-89.05920","Snowdepth":"11.000","Units":"in","Rept_Date":"2020-02-24 14"},"coordinates":[1920,5412]},{"type":"Point","properties":{"Station_ID":"WRUM5","Station_Nam":"WARROAD 4W","Latitude":"48.89600","Longitude":"-95.40700","Snowdepth":"11.000","Units":"in","Rept_Date":"2020-02-25 04"},"coordinates":[430,8238]},{"type":"Point","properties":{"Station_ID":"WOLN3","Station_Nam":"WOLFEBORO","Latitude":"43.59020","Longitude":"-71.20190","Snowdepth":"11.000","Units":"in","Rept_Date":"2020-02-24 12"},"coordinates":[6111,4937]},{"type":"Point","properties":{"Station_ID":"WI-CB-5","Station_Nam":"PORTAGE 7.2 SW, WI","Latitude":"43.47933","Longitude":"-89.57370","Snowdepth":"11.000","Units":"in","Rept_Date":"2020-02-24 12"},"coordinates":[1799,4868]},{"type":"Point","properties":{"Station_ID":"SLNV1","Station_Nam":"SOUTH LINCOLN","Latitude":"44.07460","Longitude":"-72.97180","Snowdepth":"11.000","Units":"in","Rept_Date":"2020-02-24 12"},"coordinates":[5695,5238]},{"type":"Point","properties":{"Station_ID":"SD-BK-2","Station_Nam":"ASTORIA 2.2 SSE, SD","Latitude":"44.53093","Longitude":"-96.52270","Snowdepth":"11.000","Units":"in","Rept_Date":"2020-02-24 13"},"coordinates":[168,5522]},{"type":"Point","properties":{"Station_ID":"RCEM5","Station_Nam":"RICE","Latitude":"45.75760","Longitude":"-94.20720","Snowdepth":"11.000","Units":"in","Rept_Date":"2020-02-24 13"},"coordinates":[711,6285]},{"type":"Point","properties":{"Station_ID":"PLOW3","Station_Nam":"PLOVER","Latitude":"44.44280","Longitude":"-89.54530","Snowdepth":"11.000","Units":"in","Rept_Date":"2020-02-24 13"},"coordinates":[1806,5467]},{"type":"Point","properties":{"Station_ID":"ORAN3","Station_Nam":"ORANGE","Latitude":"43.66880","Longitude":"-71.94830","Snowdepth":"11.000","Units":"in","Rept_Date":"2020-02-24 12"},"coordinates":[5935,4986]},{"type":"Point","properties":{"Station_ID":"NY-MD-10","Station_Nam":"CAZENOVIA 2.9 SE, NY","Latitude":"42.90003","Longitude":"-75.81140","Snowdepth":"11.000","Units":"in","Rept_Date":"2020-02-24 12"},"coordinates":[5029,4507]},{"type":"Point","properties":{"Station_ID":"MXON6","Station_Nam":"MEXICO","Latitude":"43.43830","Longitude":"-76.26560","Snowdepth":"11.000","Units":"in","Rept_Date":"2020-02-24 12"},"coordinates":[4922,4842]},{"type":"Point","properties":{"Station_ID":"MNPV1","Station_Nam":"MONTPELIER 2","Latitude":"44.25530","Longitude":"-72.60060","Snowdepth":"11.000","Units":"in","Rept_Date":"2020-02-24 12"},"coordinates":[5782,5351]},{"type":"Point","properties":{"Station_ID":"MNG0GYSN","Station_Nam":"LONSDALE 1.1 SSW","Latitude":"44.46445","Longitude":"-93.43293","Snowdepth":"11.000","Units":"in","Rept_Date":"2020-02-24 12"},"coordinates":[893,5481]},{"type":"Point","properties":{"Station_ID":"MN-SE-2","Station_Nam":"OWATONNA 0.8 E, MN","Latitude":"44.09170","Longitude":"-93.21380","Snowdepth":"11.000","Units":"in","Rept_Date":"2020-02-24 12"},"coordinates":[945,5249]},{"type":"Point","properties":{"Station_ID":"MN-RC-1","Station_Nam":"MONTGOMERY 3.2 ENE, MN","Latitude":"44.46400","Longitude":"-93.51980","Snowdepth":"11.000","Units":"in","Rept_Date":"2020-02-24 11"},"coordinates":[873,5480]},{"type":"Point","properties":{"Station_ID":"MN-MR-4","Station_Nam":"LITTLE FALLS 1.2 SW, MN","Latitude":"45.96886","Longitude":"-94.37720","Snowdepth":"11.000","Units":"in","Rept_Date":"2020-02-24 13"},"coordinates":[672,6417]},{"type":"Point","properties":{"Station_ID":"MN-MR-13","Station_Nam":"LITTLE FALLS 8.0 NE, MN","Latitude":"46.06785","Longitude":"-94.24789","Snowdepth":"11.000","Units":"in","Rept_Date":"2020-02-24 13"},"coordinates":[702,6478]},{"type":"Point","properties":{"Station_ID":"MN-MC-16","Station_Nam":"HUTCHINSON 0.1 ENE, MN","Latitude":"44.88633","Longitude":"-94.37503","Snowdepth":"11.000","Units":"in","Rept_Date":"2020-02-24 13"},"coordinates":[672,5743]},{"type":"Point","properties":{"Station_ID":"MN-FM-10","Station_Nam":"WYKOFF 3.1 NW, MN","Latitude":"43.74340","Longitude":"-92.30650","Snowdepth":"11.000","Units":"in","Rept_Date":"2020-02-24 13"},"coordinates":[1158,5032]},{"type":"Point","properties":{"Station_ID":"MLCM5","Station_Nam":"MILACA","Latitude":"45.75320","Longitude":"-93.66170","Snowdepth":"11.000","Units":"in","Rept_Date":"2020-02-24 13"},"coordinates":[839,6283]},{"type":"Point","properties":{"Station_ID":"MI-GT-21","Station_Nam":"KINGSLEY 2.7 ENE, MI","Latitude":"44.59871","Longitude":"-85.48426","Snowdepth":"11.000","Units":"in","Rept_Date":"2020-02-24 13"},"coordinates":[2759,5564]},{"type":"Point","properties":{"Station_ID":"MEDW3","Station_Nam":"MEDFORD","Latitude":"45.13080","Longitude":"-90.34390","Snowdepth":"11.000","Units":"in","Rept_Date":"2020-02-24 14"},"coordinates":[1618,5895]},{"type":"Point","properties":{"Station_ID":"ME-AN-41","Station_Nam":"AUBURN 2.1 NNW, ME","Latitude":"44.11275","Longitude":"-70.26452","Snowdepth":"11.000","Units":"in","Rept_Date":"2020-02-24 12"},"coordinates":[6331,5262]},{"type":"Point","properties":{"Station_ID":"LMLI4","Station_Nam":"LAKE MILLS,IA","Latitude":"43.40000","Longitude":"-93.53330","Snowdepth":"11.000","Units":"in","Rept_Date":"2020-02-24 13"},"coordinates":[870,4818]},{"type":"Point","properties":{"Station_ID":"KLKM4","Station_Nam":"KALKASKA","Latitude":"44.72800","Longitude":"-85.17270","Snowdepth":"11.000","Units":"in","Rept_Date":"2020-02-24 13"},"coordinates":[2832,5645]},{"type":"Point","properties":{"Station_ID":"HYTS2","Station_Nam":"HAYTI 1W","Latitude":"44.66330","Longitude":"-97.22670","Snowdepth":"11.000","Units":"in","Rept_Date":"2020-02-24 14"},"coordinates":[3,5604]},{"type":"Point","properties":{"Station_ID":"FLAM4","Station_Nam":"FIFE LAKE 2WNW","Latitude":"44.58480","Longitude":"-85.36530","Snowdepth":"11.000","Units":"in","Rept_Date":"2020-02-24 12"},"coordinates":[2787,5556]},{"type":"Point","properties":{"Station_ID":"FDRN8","Station_Nam":"FARGO 3S","Latitude":"46.82930","Longitude":"-96.79620","Snowdepth":"11.000","Units":"in","Rept_Date":"2020-02-25 00"},"coordinates":[104,6952]},{"type":"Point","properties":{"Station_ID":"ESAM4","Station_Nam":"ESCANABA","Latitude":"45.74380","Longitude":"-87.04060","Snowdepth":"11.000","Units":"in","Rept_Date":"2020-02-24 12"},"coordinates":[2393,6277]},{"type":"Point","properties":{"Station_ID":"CORM1","Station_Nam":"CORINNA","Latitude":"44.91980","Longitude":"-69.24180","Snowdepth":"11.000","Units":"in","Rept_Date":"2020-02-24 16"},"coordinates":[6571,5764]},{"type":"Point","properties":{"Station_ID":"BROS2","Station_Nam":"BROOKINGS,SD","Latitude":"44.31670","Longitude":"-96.76670","Snowdepth":"11.000","Units":"in","Rept_Date":"2020-02-24 14"},"coordinates":[111,5389]},{"type":"Point","properties":{"Station_ID":"BFSW3","Station_Nam":"BIG FALLS-5 NW","Latitude":"44.63980","Longitude":"-89.11330","Snowdepth":"11.000","Units":"in","Rept_Date":"2020-02-24 13"},"coordinates":[1907,5590]},{"type":"Point","properties":{"Station_ID":"BEAW3","Station_Nam":"BEAVER DAM,WI","Latitude":"43.45000","Longitude":"-88.85000","Snowdepth":"11.000","Units":"in","Rept_Date":"2020-02-24 13"},"coordinates":[1969,4850]},{"type":"Point","properties":{"Station_ID":"NY-WR-13","Station_Nam":"QUEENSBURY 2.5 E, NY","Latitude":"43.35877","Longitude":"-73.62849","Snowdepth":"10.500","Units":"in","Rept_Date":"2020-02-24 12"},"coordinates":[5541,4793]},{"type":"Point","properties":{"Station_ID":"NH-BK-9","Station_Nam":"MEREDITH 2.9 SSW, NH","Latitude":"43.62245","Longitude":"-71.53510","Snowdepth":"10.500","Units":"in","Rept_Date":"2020-02-24 12"},"coordinates":[6032,4957]},{"type":"Point","properties":{"Station_ID":"NH-BK-1","Station_Nam":"TILTON NORTHFIELD 3.3 NE, NH","Latitude":"43.48000","Longitude":"-71.55000","Snowdepth":"10.500","Units":"in","Rept_Date":"2020-02-24 12"},"coordinates":[6029,4868]},{"type":"Point","properties":{"Station_ID":"CAN-NS-163","Station_Nam":"SYDNEY MINES 2.2 WNW, CAN","Latitude":"46.24851","Longitude":"-60.25161","Snowdepth":"10.200","Units":"in","Rept_Date":"2020-02-24 12"},"coordinates":[8681,6591]},{"type":"Point","properties":{"Station_ID":"WYON6","Station_Nam":"WYOMING 3W","Latitude":"42.82060","Longitude":"-78.14810","Snowdepth":"10.000","Units":"in","Rept_Date":"2020-02-24 12"},"coordinates":[4480,4458]},{"type":"Point","properties":{"Station_ID":"WMRM5","Station_Nam":"WILLMAR 5N","Latitude":"45.19010","Longitude":"-95.05860","Snowdepth":"10.000","Units":"in","Rept_Date":"2020-02-24 12"},"coordinates":[512,5932]},{"type":"Point","properties":{"Station_ID":"WI-PP-2","Station_Nam":"STOCKHOLM 3.0 NE, WI","Latitude":"44.51789","Longitude":"-92.22370","Snowdepth":"10.000","Units":"in","Rept_Date":"2020-02-24 14"},"coordinates":[1177,5514]},{"type":"Point","properties":{"Station_ID":"VT-CH-38","Station_Nam":"WILLISTON 0.2 WSW, VT","Latitude":"44.43669","Longitude":"-73.07154","Snowdepth":"10.000","Units":"in","Rept_Date":"2020-02-24 12"},"coordinates":[5672,5463]},{"type":"Point","properties":{"Station_ID":"VT-CH-13","Station_Nam":"RICHMOND 3.4 SSE, VT","Latitude":"44.36084","Longitude":"-72.96400","Snowdepth":"10.000","Units":"in","Rept_Date":"2020-02-24 12"},"coordinates":[5697,5416]},{"type":"Point","properties":{"Station_ID":"VQAW3","Station_Nam":"VIROQUA","Latitude":"43.55970","Longitude":"-90.87560","Snowdepth":"10.000","Units":"in","Rept_Date":"2020-02-24 13"},"coordinates":[1493,4918]},{"type":"Point","properties":{"Station_ID":"TURM1","Station_Nam":"TURNER","Latitude":"44.28220","Longitude":"-70.25610","Snowdepth":"10.000","Units":"in","Rept_Date":"2020-02-24 12"},"coordinates":[6333,5367]},{"type":"Point","properties":{"Station_ID":"TOPM1","Station_Nam":"TOPSFIELD","Latitude":"45.43470","Longitude":"-67.72020","Snowdepth":"10.000","Units":"in","Rept_Date":"2020-02-24 12"},"coordinates":[6928,6084]},{"type":"Point","properties":{"Station_ID":"THLM5","Station_Nam":"THEILMAN 1SSW","Latitude":"44.28130","Longitude":"-92.19430","Snowdepth":"10.000","Units":"in","Rept_Date":"2020-02-24 13"},"coordinates":[1184,5367]},{"type":"Point","properties":{"Station_ID":"TAHW3","Station_Nam":"TAYCHEEDAH","Latitude":"43.83390","Longitude":"-88.34690","Snowdepth":"10.000","Units":"in","Rept_Date":"2020-02-24 13"},"coordinates":[2087,5088]},{"type":"Point","properties":{"Station_ID":"STIM4","Station_Nam":"ST IGNACE","Latitude":"45.86080","Longitude":"-84.71960","Snowdepth":"10.000","Units":"in","Rept_Date":"2020-02-24 12"},"coordinates":[2938,6349]},