{"type":"Topology","objects":{"snowdepth_geo":{"type":"GeometryCollection","name":"snowdepth","crs":{"type":"name","properties":{"name":"urn:ogc:def:crs:OGC:1.3:CRS84"}},"geometries":[{"type":"Point","properties":{"Station_ID":"PRKM4","Station_Nam":"MUNISING EAST","Latitude":"46.42580","Longitude":"-86.62000","Snowdepth":"76.500","Units":"in","Rept_Date":"2021-02-08 06"},"coordinates":[2493,6990]},{"type":"Point","properties":{"Station_ID":"PDLM4","Station_Nam":"PAINESDALE","Latitude":"47.04160","Longitude":"-88.67170","Snowdepth":"47.000","Units":"in","Rept_Date":"2021-02-07 13"},"coordinates":[2012,7339]},{"type":"Point","properties":{"Station_ID":"MMNV1","Station_Nam":"MT. MANSFIELD","Latitude":"44.52480","Longitude":"-72.81540","Snowdepth":"45.000","Units":"in","Rept_Date":"2021-02-07 21"},"coordinates":[5733,5910]},{"type":"Point","properties":{"Station_ID":"HTLN3","Station_Nam":"HERMIT LAKE SNOWPLOT","Latitude":"44.26130","Longitude":"-71.28330","Snowdepth":"45.000","Units":"in","Rept_Date":"2021-02-07 10"},"coordinates":[6092,5761]},{"type":"Point","properties":{"Station_ID":"HLSN3","Station_Nam":"HERMIT LAKE SNOTEL","Latitude":"44.26130","Longitude":"-71.28320","Snowdepth":"42.280","Units":"in","Rept_Date":"2021-02-08 06"},"coordinates":[6092,5761]},{"type":"Point","properties":{"Station_ID":"RDFN6","Station_Nam":"REDFIELD 8N","Latitude":"43.64130","Longitude":"-75.88400","Snowdepth":"39.000","Units":"in","Rept_Date":"2021-02-07 12"},"coordinates":[5013,5409]},{"type":"Point","properties":{"Station_ID":"HGHN6","Station_Nam":"HIGHMARKET","Latitude":"43.60510","Longitude":"-75.55430","Snowdepth":"35.000","Units":"in","Rept_Date":"2021-02-07 11"},"coordinates":[5090,5388]},{"type":"Point","properties":{"Station_ID":"QNCM4","Station_Nam":"QUINCY HILL","Latitude":"47.13640","Longitude":"-88.57950","Snowdepth":"33.000","Units":"in","Rept_Date":"2021-02-07 12"},"coordinates":[2033,7393]},{"type":"Point","properties":{"Station_ID":"NC-BC-105","Station_Nam":"BLACK MOUNTAIN 1.3 NNE, NC","Latitude":"35.63194","Longitude":"-82.32209","Snowdepth":"33.000","Units":"in","Rept_Date":"2021-02-07 13"},"coordinates":[3502,862]},{"type":"Point","properties":{"Station_ID":"PTLQ6","Station_Nam":"PORTAGE LAKE","Latitude":"49.06950","Longitude":"-86.65940","Snowdepth":"32.720","Units":"in","Rept_Date":"2021-02-08 06"},"coordinates":[2484,8490]},{"type":"Point","properties":{"Station_ID":"NH-CS-10","Station_Nam":"RANDOLPH 1.4 NE, NH","Latitude":"44.38824","Longitude":"-71.26950","Snowdepth":"32.500","Units":"in","Rept_Date":"2021-02-07 12"},"coordinates":[6095,5833]},{"type":"Point","properties":{"Station_ID":"DVLQ6","Station_Nam":"DEVIOUS LAKE","Latitude":"49.19890","Longitude":"-87.76440","Snowdepth":"28.350","Units":"in","Rept_Date":"2021-02-08 06"},"coordinates":[2225,8564]},{"type":"Point","properties":{"Station_ID":"VT-BN-12","Station_Nam":"STAMFORD 5.0 NNE, VT","Latitude":"42.82000","Longitude":"-73.02000","Snowdepth":"28.000","Units":"in","Rept_Date":"2021-02-07 21"},"coordinates":[5685,4943]},{"type":"Point","properties":{"Station_ID":"MI-HG-20","Station_Nam":"CALUMET 1.1 SSW, MI","Latitude":"47.23165","Longitude":"-88.45823","Snowdepth":"28.000","Units":"in","Rept_Date":"2021-02-07 13"},"coordinates":[2062,7447]},{"type":"Point","properties":{"Station_ID":"MAYP1","Station_Nam":"MAHANOY CITY,PA","Latitude":"40.83330","Longitude":"-76.13330","Snowdepth":"28.000","Units":"in","Rept_Date":"2021-02-07 12"},"coordinates":[4954,3815]},{"type":"Point","properties":{"Station_ID":"KSGM4","Station_Nam":"KEARSARGE","Latitude":"47.27520","Longitude":"-88.41700","Snowdepth":"28.000","Units":"in","Rept_Date":"2021-02-07 13"},"coordinates":[2072,7472]},{"type":"Point","properties":{"Station_ID":"TRIQ6","Station_Nam":"TRIO LAKE","Latitude":"49.22880","Longitude":"-87.22920","Snowdepth":"27.680","Units":"in","Rept_Date":"2021-02-08 06"},"coordinates":[2350,8581]},{"type":"Point","properties":{"Station_ID":"PERV1","Station_Nam":"PERU","Latitude":"43.26670","Longitude":"-72.90000","Snowdepth":"27.000","Units":"in","Rept_Date":"2021-02-07 12"},"coordinates":[5713,5196]},{"type":"Point","properties":{"Station_ID":"GMSM4","Station_Nam":"GRAND MARAIS 10S","Latitude":"46.50940","Longitude":"-85.96310","Snowdepth":"27.000","Units":"in","Rept_Date":"2021-02-07 12"},"coordinates":[2647,7037]},{"type":"Point","properties":{"Station_ID":"BOON6","Station_Nam":"BOONVILLE 4 SSW","Latitude":"43.43610","Longitude":"-75.36970","Snowdepth":"27.000","Units":"in","Rept_Date":"2021-02-07 12"},"coordinates":[5133,5292]},{"type":"Point","properties":{"Station_ID":"AUDQ6","Station_Nam":"AUDEN","Latitude":"48.52600","Longitude":"-82.57570","Snowdepth":"25.280","Units":"in","Rept_Date":"2021-02-08 06"},"coordinates":[3442,8182]},{"type":"Point","properties":{"Station_ID":"NY-HR-18","Station_Nam":"SALISBURY CENTER 1.8 NW, NY","Latitude":"43.16260","Longitude":"-74.80880","Snowdepth":"25.000","Units":"in","Rept_Date":"2021-02-07 11"},"coordinates":[5265,5137]},{"type":"Point","properties":{"Station_ID":"NY-CL-12","Station_Nam":"SARANAC 0.8 SSE, NY","Latitude":"44.63980","Longitude":"-73.73848","Snowdepth":"25.000","Units":"in","Rept_Date":"2021-02-07 12"},"coordinates":[5516,5976]},{"type":"Point","properties":{"Station_ID":"MALN6","Station_Nam":"MALONE","Latitude":"44.84180","Longitude":"-74.30600","Snowdepth":"25.000","Units":"in","Rept_Date":"2021-02-07 12"},"coordinates":[5383,6090]},{"type":"Point","properties":{"Station_ID":"LBKV1","Station_Nam":"LYE BROOK","Latitude":"43.05000","Longitude":"-73.03330","Snowdepth":"25.000","Units":"in","Rept_Date":"2021-02-08 05"},"coordinates":[5681,5073]},{"type":"Point","properties":{"Station_ID":"JEFV1","Station_Nam":"JEFFERSONVILLE","Latitude":"44.58430","Longitude":"-72.78700","Snowdepth":"25.000","Units":"in","Rept_Date":"2021-02-07 12"},"coordinates":[5739,5944]},{"type":"Point","properties":{"Station_ID":"HERM4","Station_Nam":"HERMAN,MI","Latitude":"46.65000","Longitude":"-88.33330","Snowdepth":"25.000","Units":"in","Rept_Date":"2021-02-07 13"},"coordinates":[2091,7117]},{"type":"Point","properties":{"Station_ID":"EHYM3","Station_Nam":"EAST HAWLEY","Latitude":"42.57410","Longitude":"-72.86790","Snowdepth":"25.000","Units":"in","Rept_Date":"2021-02-07 13"},"coordinates":[5720,4803]},{"type":"Point","properties":{"Station_ID":"VT-OL-12","Station_Nam":"GREENSBORO 3.9 NNE, VT","Latitude":"44.63100","Longitude":"-72.28000","Snowdepth":"24.500","Units":"in","Rept_Date":"2021-02-07 13"},"coordinates":[5858,5971]},{"type":"Point","properties":{"Station_ID":"WI-MW-14","Station_Nam":"MILWAUKEE 3.6 NNW, WI","Latitude":"43.11300","Longitude":"-87.98730","Snowdepth":"24.000","Units":"in","Rept_Date":"2021-02-07 11"},"coordinates":[2172,5109]},{"type":"Point","properties":{"Station_ID":"VT-WR-17","Station_Nam":"ROCHESTER 2.3 NE, VT","Latitude":"43.89418","Longitude":"-72.76992","Snowdepth":"24.000","Units":"in","Rept_Date":"2021-02-07 12"},"coordinates":[5743,5552]},{"type":"Point","properties":{"Station_ID":"VT-BN-3","Station_Nam":"LANDGROVE 1.1 NNE, VT","Latitude":"43.29092","Longitude":"-72.83260","Snowdepth":"24.000","Units":"in","Rept_Date":"2021-02-07 12"},"coordinates":[5729,5210]},{"type":"Point","properties":{"Station_ID":"MI-KW-2","Station_Nam":"DELAWARE 5.2 SW, MI","Latitude":"47.36928","Longitude":"-88.17919","Snowdepth":"24.000","Units":"in","Rept_Date":"2021-02-07 09"},"coordinates":[2127,7525]},{"type":"Point","properties":{"Station_ID":"MI-HG-1","Station_Nam":"HOUGHTON 1.6 ESE, MI","Latitude":"47.10774","Longitude":"-88.52940","Snowdepth":"24.000","Units":"in","Rept_Date":"2021-02-07 13"},"coordinates":[2045,7377]},{"type":"Point","properties":{"Station_ID":"LPLN6","Station_Nam":"LAKE PLACID 2 S","Latitude":"44.30420","Longitude":"-73.98390","Snowdepth":"24.000","Units":"in","Rept_Date":"2021-02-07 13"},"coordinates":[5458,5785]},{"type":"Point","properties":{"Station_ID":"GFDN6","Station_Nam":"CHASES LAKE","Latitude":"43.75920","Longitude":"-75.29980","Snowdepth":"24.000","Units":"in","Rept_Date":"2021-02-07 11"},"coordinates":[5150,5476]},{"type":"Point","properties":{"Station_ID":"QGO","Station_Nam":"QGO","Latitude":"48.85500","Longitude":"-74.20640","Snowdepth":"23.622","Units":"in","Rept_Date":"2021-02-07 12"},"coordinates":[5406,8369]},{"type":"Point","properties":{"Station_ID":"NY-LW-12","Station_Nam":"CHASES LAKE COOP, NY","Latitude":"43.75924","Longitude":"-75.29982","Snowdepth":"23.500","Units":"in","Rept_Date":"2021-02-07 11"},"coordinates":[5150,5476]},{"type":"Point","properties":{"Station_ID":"NY-HM-10","Station_Nam":"LAKE PLEASANT 2.3 WSW, NY","Latitude":"43.45490","Longitude":"-74.45287","Snowdepth":"23.500","Units":"in","Rept_Date":"2021-02-07 12"},"coordinates":[5348,5303]},{"type":"Point","properties":{"Station_ID":"QLB","Station_Nam":"QLB","Latitude":"50.72360","Longitude":"-75.10000","Snowdepth":"23.386","Units":"in","Rept_Date":"2021-02-07 12"},"coordinates":[5197,9429]},{"type":"Point","properties":{"Station_ID":"WNDP1","Station_Nam":"WINDBER COUNTY CLUB","Latitude":"40.28780","Longitude":"-78.77530","Snowdepth":"23.000","Units":"in","Rept_Date":"2021-02-07 12"},"coordinates":[4334,3505]},{"type":"Point","properties":{"Station_ID":"NY-JF-30","Station_Nam":"WEST CARTHAGE 0.3 ENE, NY","Latitude":"43.97493","Longitude":"-75.61640","Snowdepth":"23.000","Units":"in","Rept_Date":"2021-02-07 12"},"coordinates":[5075,5598]},{"type":"Point","properties":{"Station_ID":"NY-FK-9","Station_Nam":"GABRIELS 1.3 SE, NY","Latitude":"44.41934","Longitude":"-74.16194","Snowdepth":"23.000","Units":"in","Rept_Date":"2021-02-07 12"},"coordinates":[5417,5851]},{"type":"Point","properties":{"Station_ID":"NY-ES-11","Station_Nam":"VERMONTVILLE 2.8 S, NY","Latitude":"44.41205","Longitude":"-74.06760","Snowdepth":"23.000","Units":"in","Rept_Date":"2021-02-07 12"},"coordinates":[5439,5846]},{"type":"Point","properties":{"Station_ID":"ME-FR-2","Station_Nam":"TEMPLE 1.8 W, ME","Latitude":"44.68329","Longitude":"-70.26420","Snowdepth":"23.000","Units":"in","Rept_Date":"2021-02-07 11"},"coordinates":[6331,6000]},{"type":"Point","properties":{"Station_ID":"LVDW3","Station_Nam":"LAC VIEUX DESERT","Latitude":"46.12110","Longitude":"-89.07580","Snowdepth":"23.000","Units":"in","Rept_Date":"2021-02-07 14"},"coordinates":[1917,6817]},{"type":"Point","properties":{"Station_ID":"JCBM4","Station_Nam":"JACOBSVILLE","Latitude":"47.00830","Longitude":"-88.43180","Snowdepth":"23.000","Units":"in","Rept_Date":"2021-02-07 12"},"coordinates":[2068,7320]},{"type":"Point","properties":{"Station_ID":"FISM1","Station_Nam":"FORT KENT COOP","Latitude":"47.23850","Longitude":"-68.61240","Snowdepth":"23.000","Units":"in","Rept_Date":"2021-02-07 10"},"coordinates":[6719,7451]},{"type":"Point","properties":{"Station_ID":"WLFM5","Station_Nam":"WOLF RIDGE ENVIRON LEARNING CENTER","Latitude":"47.38240","Longitude":"-91.19730","Snowdepth":"22.000","Units":"in","Rept_Date":"2021-02-07 13"},"coordinates":[1419,7533]},{"type":"Point","properties":{"Station_ID":"VT-WS-33","Station_Nam":"WAITSFIELD 3.5 WNW, VT","Latitude":"44.20052","Longitude":"-72.89421","Snowdepth":"22.000","Units":"in","Rept_Date":"2021-02-07 13"},"coordinates":[5714,5726]},{"type":"Point","properties":{"Station_ID":"VT-WH-19","Station_Nam":"EAST DOVER 1.8 N, VT","Latitude":"42.97658","Longitude":"-72.77637","Snowdepth":"22.000","Units":"in","Rept_Date":"2021-02-07 13"},"coordinates":[5742,5032]},{"type":"Point","properties":{"Station_ID":"VT-OL-1","Station_Nam":"WESTFIELD 0.7 WNW, VT","Latitude":"44.89160","Longitude":"-72.44350","Snowdepth":"22.000","Units":"in","Rept_Date":"2021-02-07 12"},"coordinates":[5820,6119]},{"type":"Point","properties":{"Station_ID":"SSMM4","Station_Nam":"SAULT STE MARIE","Latitude":"46.48660","Longitude":"-84.40250","Snowdepth":"22.000","Units":"in","Rept_Date":"2021-02-07 13"},"coordinates":[3014,7024]},{"type":"Point","properties":{"Station_ID":"PHEW3","Station_Nam":"PHELPS","Latitude":"46.06630","Longitude":"-89.07520","Snowdepth":"22.000","Units":"in","Rept_Date":"2021-02-07 13"},"coordinates":[1917,6786]},{"type":"Point","properties":{"Station_ID":"NY-SL-6","Station_Nam":"HANNAWA FALLS 0.1 SW, NY","Latitude":"44.61154","Longitude":"-74.97190","Snowdepth":"22.000","Units":"in","Rept_Date":"2021-02-07 12"},"coordinates":[5227,5960]},{"type":"Point","properties":{"Station_ID":"NY-FK-7","Station_Nam":"SARANAC LAKE 6.2 N, NY","Latitude":"44.41359","Longitude":"-74.15211","Snowdepth":"22.000","Units":"in","Rept_Date":"2021-02-07 12"},"coordinates":[5419,5847]},{"type":"Point","properties":{"Station_ID":"MNSM4","Station_Nam":"MUNISING","Latitude":"46.41210","Longitude":"-86.66250","Snowdepth":"22.000","Units":"in","Rept_Date":"2021-02-07 11"},"coordinates":[2483,6982]},{"type":"Point","properties":{"Station_ID":"VT-WR-2","Station_Nam":"POMFRET 2.6 N, VT","Latitude":"43.74230","Longitude":"-72.52550","Snowdepth":"21.500","Units":"in","Rept_Date":"2021-02-07 12"},"coordinates":[5801,5466]},{"type":"Point","properties":{"Station_ID":"MI-BG-3","Station_Nam":"THREE LAKES, MI","Latitude":"46.55730","Longitude":"-88.20770","Snowdepth":"21.500","Units":"in","Rept_Date":"2021-02-07 13"},"coordinates":[2121,7064]},{"type":"Point","properties":{"Station_ID":"CAN-NB-11","Station_Nam":"MIRAMICHI 3.3 S, CAN","Latitude":"46.99343","Longitude":"-65.50690","Snowdepth":"21.500","Units":"in","Rept_Date":"2021-02-07 10"},"coordinates":[7448,7312]},{"type":"Point","properties":{"Station_ID":"QTM","Station_Nam":"QTM","Latitude":"51.05780","Longitude":"-72.57190","Snowdepth":"21.220","Units":"in","Rept_Date":"2021-02-07 12"},"coordinates":[5790,9619]},{"type":"Point","properties":{"Station_ID":"WI-VL-9","Station_Nam":"LAND O' LAKES 11.7 W, WI","Latitude":"46.19023","Longitude":"-89.45790","Snowdepth":"21.000","Units":"in","Rept_Date":"2021-02-07 13"},"coordinates":[1827,6856]},{"type":"Point","properties":{"Station_ID":"VT-WH-30","Station_Nam":"MARLBORO 2.0 NNE, VT","Latitude":"42.88484","Longitude":"-72.70935","Snowdepth":"21.000","Units":"in","Rept_Date":"2021-02-07 13"},"coordinates":[5757,4979]},{"type":"Point","properties":{"Station_ID":"OCON6","Station_Nam":"OSCEOLA","Latitude":"43.50370","Longitude":"-75.72170","Snowdepth":"21.000","Units":"in","Rept_Date":"2021-02-07 13"},"coordinates":[5051,5331]},{"type":"Point","properties":{"Station_ID":"MRLV1","Station_Nam":"MARLBORO","Latitude":"42.86000","Longitude":"-72.72000","Snowdepth":"21.000","Units":"in","Rept_Date":"2021-02-07 13"},"coordinates":[5755,4965]},{"type":"Point","properties":{"Station_ID":"LNOW3","Station_Nam":"LAND O LAKES","Latitude":"46.19000","Longitude":"-89.45700","Snowdepth":"21.000","Units":"in","Rept_Date":"2021-02-07 13"},"coordinates":[1828,6856]},{"type":"Point","properties":{"Station_ID":"GHMN3","Station_Nam":"PINKHAM NOTCH","Latitude":"44.25800","Longitude":"-71.25250","Snowdepth":"21.000","Units":"in","Rept_Date":"2021-02-07 11"},"coordinates":[6099,5759]},{"type":"Point","properties":{"Station_ID":"ANJM4","Station_Nam":"SNOW PAID OBSERVER FOR KANJ","Latitude":"46.48670","Longitude":"-84.40260","Snowdepth":"21.000","Units":"in","Rept_Date":"2021-02-07 18"},"coordinates":[3014,7024]},{"type":"Point","properties":{"Station_ID":"ANJ","Station_Nam":"SAULT STE MARIE","Latitude":"46.46670","Longitude":"-84.36670","Snowdepth":"21.000","Units":"in","Rept_Date":"2021-02-08 00"},"coordinates":[3022,7013]},{"type":"Point","properties":{"Station_ID":"VT-WS-19","Station_Nam":"WATERBURY 3.0 NW, VT","Latitude":"44.36060","Longitude":"-72.80770","Snowdepth":"20.500","Units":"in","Rept_Date":"2021-02-07 11"},"coordinates":[5734,5817]},{"type":"Point","properties":{"Station_ID":"NY-MD-10","Station_Nam":"CAZENOVIA 2.9 SE, NY","Latitude":"42.90003","Longitude":"-75.81140","Snowdepth":"20.500","Units":"in","Rept_Date":"2021-02-07 12"},"coordinates":[5030,4988]},{"type":"Point","properties":{"Station_ID":"ME-SM-45","Station_Nam":"BRIGHTON PLANTATION 2.1 N, ME","Latitude":"45.07098","Longitude":"-69.69860","Snowdepth":"20.500","Units":"in","Rept_Date":"2021-02-07 12"},"coordinates":[6464,6221]},{"type":"Point","properties":{"Station_ID":"MA-HS-7","Station_Nam":"PLAINFIELD 2.2 SW, MA","Latitude":"42.49272","Longitude":"-72.94540","Snowdepth":"20.500","Units":"in","Rept_Date":"2021-02-07 13"},"coordinates":[5702,4757]},{"type":"Point","properties":{"Station_ID":"PHON6","Station_Nam":"PHOENICIA 2SW","Latitude":"42.06420","Longitude":"-74.34080","Snowdepth":"20.000","Units":"in","Rept_Date":"2021-02-07 13"},"coordinates":[5375,4514]},{"type":"Point","properties":{"Station_ID":"NY-ES-6","Station_Nam":"OLMSTEDVILLE 4.6 NNE, NY","Latitude":"43.83350","Longitude":"-73.89780","Snowdepth":"20.000","Units":"in","Rept_Date":"2021-02-07 13"},"coordinates":[5479,5518]},{"type":"Point","properties":{"Station_ID":"NJ-SS-54","Station_Nam":"SPARTA TWP 3.6 SSW, NJ","Latitude":"41.00503","Longitude":"-74.66358","Snowdepth":"20.000","Units":"in","Rept_Date":"2021-02-07 12"},"coordinates":[5299,3912]},{"type":"Point","properties":{"Station_ID":"NH-CS-19","Station_Nam":"CARROLL 4.6 NE, NH","Latitude":"44.33765","Longitude":"-71.46461","Snowdepth":"20.000","Units":"in","Rept_Date":"2021-02-07 12"},"coordinates":[6050,5804]},{"type":"Point","properties":{"Station_ID":"MONW3","Station_Nam":"MONROE,WI","Latitude":"42.60000","Longitude":"-89.66670","Snowdepth":"20.000","Units":"in","Rept_Date":"2021-02-07 13"},"coordinates":[1778,4818]},{"type":"Point","properties":{"Station_ID":"MI-CX-7","Station_Nam":"EAST JORDAN 2.1 NNW, MI","Latitude":"45.18639","Longitude":"-85.14750","Snowdepth":"20.000","Units":"in","Rept_Date":"2021-02-07 13"},"coordinates":[2839,6286]},{"type":"Point","properties":{"Station_ID":"LOWN6","Station_Nam":"LOWVILLE","Latitude":"43.79280","Longitude":"-75.48290","Snowdepth":"20.000","Units":"in","Rept_Date":"2021-02-07 12"},"coordinates":[5107,5495]},{"type":"Point","properties":{"Station_ID":"IWOM4","Station_Nam":"IRONWOOD#2","Latitude":"46.46520","Longitude":"-90.13820","Snowdepth":"20.000","Units":"in","Rept_Date":"2021-02-07 13"},"coordinates":[1668,7012]},{"type":"Point","properties":{"Station_ID":"HURW3","Station_Nam":"HURLEY","Latitude":"46.46250","Longitude":"-90.19550","Snowdepth":"20.000","Units":"in","Rept_Date":"2021-02-07 14"},"coordinates":[1654,7010]},{"type":"Point","properties":{"Station_ID":"HRTM1","Station_Nam":"HARTFORD","Latitude":"44.37440","Longitude":"-70.31620","Snowdepth":"20.000","Units":"in","Rept_Date":"2021-02-07 12"},"coordinates":[6319,5825]},{"type":"Point","properties":{"Station_ID":"EJNM4","Station_Nam":"EAST JORDAN 2NW","Latitude":"45.18630","Longitude":"-85.14770","Snowdepth":"20.000","Units":"in","Rept_Date":"2021-02-07 13"},"coordinates":[2839,6286]},{"type":"Point","properties":{"Station_ID":"BKBW2","Station_Nam":"DAVIS.","Latitude":"39.09830","Longitude":"-79.43190","Snowdepth":"20.000","Units":"in","Rept_Date":"2021-02-07 12"},"coordinates":[4180,2830]},{"type":"Point","properties":{"Station_ID":"CAN-ON-757","Station_Nam":"SAULT STE. MARIE 2.8 ESE - GLFC, CAN","Latitude":"46.50300","Longitude":"-84.30300","Snowdepth":"19.700","Units":"in","Rept_Date":"2021-02-07 13"},"coordinates":[3037,7033]},{"type":"Point","properties":{"Station_ID":"NY-OD-2","Station_Nam":"POINT ROCK 0.6 SE, NY","Latitude":"43.37335","Longitude":"-75.53840","Snowdepth":"19.500","Units":"in","Rept_Date":"2021-02-07 13"},"coordinates":[5094,5257]},{"type":"Point","properties":{"Station_ID":"IL-DP-155","Station_Nam":"MEDINAH 1.0 SSW, IL","Latitude":"41.96360","Longitude":"-88.06590","Snowdepth":"19.500","Units":"in","Rept_Date":"2021-02-07 14"},"coordinates":[2154,4457]},{"type":"Point","properties":{"Station_ID":"CAN-ON-5","Station_Nam":"OWEN SOUND 1.5 NW - GSCA, CAN","Latitude":"44.57837","Longitude":"-80.95461","Snowdepth":"19.500","Units":"in","Rept_Date":"2021-02-07 13"},"coordinates":[3823,5941]},{"type":"Point","properties":{"Station_ID":"WTNM4","Station_Nam":"WATTON 2WSW","Latitude":"46.52660","Longitude":"-88.64240","Snowdepth":"19.000","Units":"in","Rept_Date":"2021-02-07 13"},"coordinates":[2019,7047]},{"type":"Point","properties":{"Station_ID":"WAIV1","Station_Nam":"WAITSFIELD","Latitude":"44.17560","Longitude":"-72.79610","Snowdepth":"19.000","Units":"in","Rept_Date":"2021-02-07 12"},"coordinates":[5737,5712]},{"type":"Point","properties":{"Station_ID":"VT-WS-30","Station_Nam":"WOODBURY 3.4 NNW, VT","Latitude":"44.48825","Longitude":"-72.43258","Snowdepth":"19.000","Units":"in","Rept_Date":"2021-02-07 12"},"coordinates":[5822,5890]},{"type":"Point","properties":{"Station_ID":"VT-WS-11","Station_Nam":"WAITSFIELD 1.8 SE, VT","Latitude":"44.17551","Longitude":"-72.79540","Snowdepth":"19.000","Units":"in","Rept_Date":"2021-02-07 12"},"coordinates":[5737,5712]},{"type":"Point","properties":{"Station_ID":"SPTI4","Station_Nam":"STRAWBERRY POINT","Latitude":"42.68530","Longitude":"-91.53300","Snowdepth":"19.000","Units":"in","Rept_Date":"2021-02-07 13"},"coordinates":[1340,4866]},{"type":"Point","properties":{"Station_ID":"RANM1","Station_Nam":"RANGELEY","Latitude":"44.98910","Longitude":"-70.67190","Snowdepth":"19.000","Units":"in","Rept_Date":"2021-02-07 13"},"coordinates":[6236,6174]},{"type":"Point","properties":{"Station_ID":"PEKN6","Station_Nam":"PECK LAKE","Latitude":"43.11500","Longitude":"-74.42360","Snowdepth":"19.000","Units":"in","Rept_Date":"2021-02-07 12"},"coordinates":[5355,5110]},{"type":"Point","properties":{"Station_ID":"NH-MR-41","Station_Nam":"NEWBURY 1.6 NW, NH","Latitude":"43.33667","Longitude":"-72.06060","Snowdepth":"19.000","Units":"in","Rept_Date":"2021-02-07 12"},"coordinates":[5910,5236]},{"type":"Point","properties":{"Station_ID":"NH-CR-26","Station_Nam":"CENTER SANDWICH 4.9 E, NH","Latitude":"43.80976","Longitude":"-71.34150","Snowdepth":"19.000","Units":"in","Rept_Date":"2021-02-07 12"},"coordinates":[6078,5505]},{"type":"Point","properties":{"Station_ID":"MQT","Station_Nam":"MARQUETTE, MI","Latitude":"46.53140","Longitude":"-87.54920","Snowdepth":"19.000","Units":"in","Rept_Date":"2021-02-08 06"},"coordinates":[2275,7050]},{"type":"Point","properties":{"Station_ID":"MIEM4","Station_Nam":"MICHIGAMME 3WNW","Latitude":"46.54530","Longitude":"-88.18000","Snowdepth":"19.000","Units":"in","Rept_Date":"2021-02-07 13"},"coordinates":[2127,7057]},{"type":"Point","properties":{"Station_ID":"LVRM1","Station_Nam":"LIVERMORE FALLS 1 E","Latitude":"44.47160","Longitude":"-70.15940","Snowdepth":"19.000","Units":"in","Rept_Date":"2021-02-07 12"},"coordinates":[6356,5880]},{"type":"Point","properties":{"Station_ID":"LAUP1","Station_Nam":"1.5MI S OF RT 30 ON SMIT (LAUREL RIDGE)","Latitude":"40.05000","Longitude":"-79.22060","Snowdepth":"19.000","Units":"in","Rept_Date":"2021-02-07 12"},"coordinates":[4230,3370]},{"type":"Point","properties":{"Station_ID":"KGTB","Station_Nam":"FORT DRUM / WHEELER-SACK U. S. ARMY AIRFIELD","Latitude":"44.05000","Longitude":"-75.73333","Snowdepth":"19.000","Units":"in","Rept_Date":"2021-02-08 06"},"coordinates":[5048,5641]},{"type":"Point","properties":{"Station_ID":"ESDN3","Station_Nam":"EAST SANDWICH","Latitude":"43.80990","Longitude":"-71.34250","Snowdepth":"19.000","Units":"in","Rept_Date":"2021-02-07 11"},"coordinates":[6078,5505]},{"type":"Point","properties":{"Station_ID":"CT-WN-6","Station_Nam":"DAYVILLE 2.0 ENE, CT","Latitude":"41.85585","Longitude":"-71.85170","Snowdepth":"19.000","Units":"in","Rept_Date":"2021-02-08 05"},"coordinates":[5959,4395]},{"type":"Point","properties":{"Station_ID":"CLKM4","Station_Nam":"CLARKSBURG","Latitude":"46.49910","Longitude":"-87.84500","Snowdepth":"19.000","Units":"in","Rept_Date":"2021-02-07 12"},"coordinates":[2206,7031]},{"type":"Point","properties":{"Station_ID":"OGIQ6","Station_Nam":"OGOKI CAMP","Latitude":"50.76680","Longitude":"-87.85820","Snowdepth":"18.860","Units":"in","Rept_Date":"2021-02-08 06"},"coordinates":[2203,9454]},{"type":"Point","properties":{"Station_ID":"QCO","Station_Nam":"QCO","Latitude":"51.45280","Longitude":"-72.20110","Snowdepth":"18.701","Units":"in","Rept_Date":"2021-02-07 12"},"coordinates":[5877,9843]},{"type":"Point","properties":{"Station_ID":"MLZ","Station_Nam":"MLZ","Latitude":"50.66170","Longitude":"-68.82360","Snowdepth":"18.504","Units":"in","Rept_Date":"2021-02-07 12"},"coordinates":[6669,9394]},{"type":"Point","properties":{"Station_ID":"VT-WS-23","Station_Nam":"CABOT 2.3 E, VT","Latitude":"44.39807","Longitude":"-72.26570","Snowdepth":"18.500","Units":"in","Rept_Date":"2021-02-07 13"},"coordinates":[5862,5839]},{"type":"Point","properties":{"Station_ID":"VT-OL-25","Station_Nam":"NEWPORT 1.5 WSW, VT","Latitude":"44.93059","Longitude":"-72.23731","Snowdepth":"18.500","Units":"in","Rept_Date":"2021-02-07 12"},"coordinates":[5868,6141]},{"type":"Point","properties":{"Station_ID":"PA-MN-16","Station_Nam":"MOUNT POCONO 0.7 N, PA","Latitude":"41.13190","Longitude":"-75.35804","Snowdepth":"18.500","Units":"in","Rept_Date":"2021-02-07 15"},"coordinates":[5136,3984]},{"type":"Point","properties":{"Station_ID":"NY-TM-45","Station_Nam":"NEWFIELD HAMLET 4.3 S, NY","Latitude":"42.29650","Longitude":"-76.60676","Snowdepth":"18.500","Units":"in","Rept_Date":"2021-02-07 14"},"coordinates":[4843,4645]},{"type":"Point","properties":{"Station_ID":"MI-CP-14","Station_Nam":"SAULT STE. MARIE 2.2 E, MI","Latitude":"46.48933","Longitude":"-84.31971","Snowdepth":"18.500","Units":"in","Rept_Date":"2021-02-07 13"},"coordinates":[3033,7026]},{"type":"Point","properties":{"Station_ID":"ME-AR-18","Station_Nam":"NEW SWEDEN 4.9 NNW, ME","Latitude":"47.01080","Longitude":"-68.14390","Snowdepth":"18.500","Units":"in","Rept_Date":"2021-02-07 12"},"coordinates":[6829,7322]},{"type":"Point","properties":{"Station_ID":"CAN-ON-245","Station_Nam":"PHELPSTON 3.1 ESE, CAN","Latitude":"44.50564","Longitude":"-79.81035","Snowdepth":"18.500","Units":"in","Rept_Date":"2021-02-07 12"},"coordinates":[4091,5900]},{"type":"Point","properties":{"Station_ID":"CAN-NB-13","Station_Nam":"BATHURST 3.8 NW, CAN","Latitude":"47.64212","Longitude":"-65.68756","Snowdepth":"18.500","Units":"in","Rept_Date":"2021-02-07 11"},"coordinates":[7405,7680]},{"type":"Point","properties":{"Station_ID":"SOCQ6","Station_Nam":"SOCKET LAKE","Latitude":"50.77870","Longitude":"-91.79300","Snowdepth":"18.460","Units":"in","Rept_Date":"2021-02-08 06"},"coordinates":[1279,9461]},{"type":"Point","properties":{"Station_ID":"KABQ6","Station_Nam":"CAB LAKE","Latitude":"49.59950","Longitude":"-89.17990","Snowdepth":"18.030","Units":"in","Rept_Date":"2021-02-08 06"},"coordinates":[1893,8791]},{"type":"Point","properties":{"Station_ID":"WTRM4","Station_Nam":"WATERSMEET 12WSW","Latitude":"46.22310","Longitude":"-89.40850","Snowdepth":"18.000","Units":"in","Rept_Date":"2021-02-07 12"},"coordinates":[1839,6875]},{"type":"Point","properties":{"Station_ID":"WI-WB-2","Station_Nam":"STONE LAKE 2.0 NW, WI","Latitude":"45.85960","Longitude":"-91.57710","Snowdepth":"18.000","Units":"in","Rept_Date":"2021-02-07 13"},"coordinates":[1330,6668]},{"type":"Point","properties":{"Station_ID":"WI-PR-6","Station_Nam":"PHILLIPS 1.3 S, WI","Latitude":"45.67677","Longitude":"-90.39543","Snowdepth":"18.000","Units":"in","Rept_Date":"2021-02-07 12"},"coordinates":[1607,6564]},{"type":"Point","properties":{"Station_ID":"WI-IW-3","Station_Nam":"MINERAL POINT 7.3 ENE, WI","Latitude":"42.91400","Longitude":"-90.05700","Snowdepth":"18.000","Units":"in","Rept_Date":"2021-02-07 13"},"coordinates":[1687,4996]},{"type":"Point","properties":{"Station_ID":"WI-IR-3","Station_Nam":"PENCE 0.1 E, WI","Latitude":"46.41555","Longitude":"-90.27013","Snowdepth":"18.000","Units":"in","Rept_Date":"2021-02-07 13"},"coordinates":[1637,6984]},{"type":"Point","properties":{"Station_ID":"WI-IR-2","Station_Nam":"MERCER 2.0 SE, WI","Latitude":"46.14749","Longitude":"-90.03097","Snowdepth":"18.000","Units":"in","Rept_Date":"2021-02-07 13"},"coordinates":[1693,6832]},{"type":"Point","properties":{"Station_ID":"WI-BY-29","Station_Nam":"BAYFIELD 5.1 NNW, WI","Latitude":"46.88063","Longitude":"-90.85854","Snowdepth":"18.000","Units":"in","Rept_Date":"2021-02-07 14"},"coordinates":[1499,7248]},{"type":"Point","properties":{"Station_ID":"WI-BY-14","Station_Nam":"ASHLAND 9.8 W, WI","Latitude":"46.59742","Longitude":"-91.07856","Snowdepth":"18.000","Units":"in","Rept_Date":"2021-02-07 12"},"coordinates":[1447,7087]},{"type":"Point","properties":{"Station_ID":"VT-WS-10","Station_Nam":"NORTHFIELD 1.5 N, VT","Latitude":"44.16986","Longitude":"-72.65200","Snowdepth":"18.000","Units":"in","Rept_Date":"2021-02-07 12"},"coordinates":[5771,5709]},{"type":"Point","properties":{"Station_ID":"VT-BN-7","Station_Nam":"MANCHESTER 2.8 ENE, VT","Latitude":"43.17274","Longitude":"-73.01811","Snowdepth":"18.000","Units":"in","Rept_Date":"2021-02-07 12"},"coordinates":[5685,5143]},{"type":"Point","properties":{"Station_ID":"SUAW3","Station_Nam":"SUAMICO","Latitude":"44.60190","Longitude":"-88.09780","Snowdepth":"18.000","Units":"in","Rept_Date":"2021-02-07 12"},"coordinates":[2147,5954]},{"type":"Point","properties":{"Station_ID":"STOI2","Station_Nam":"STOCKTON 3 NNE","Latitude":"42.40050","Longitude":"-89.99580","Snowdepth":"18.000","Units":"in","Rept_Date":"2021-02-08 03"},"coordinates":[1701,4705]},{"type":"Point","properties":{"Station_ID":"SNYI4","Station_Nam":"STANLEY","Latitude":"42.63330","Longitude":"-91.86320","Snowdepth":"18.000","Units":"in","Rept_Date":"2021-02-07 13"},"coordinates":[1263,4837]},{"type":"Point","properties":{"Station_ID":"SNOW2","Station_Nam":"SNOWSHOE","Latitude":"38.39900","Longitude":"-79.99490","Snowdepth":"18.000","Units":"in","Rept_Date":"2021-02-07 11"},"coordinates":[4048,2433]},{"type":"Point","properties":{"Station_ID":"RKHN6","Station_Nam":"ROCK HILL 3 SW","Latitude":"41.59170","Longitude":"-74.61410","Snowdepth":"18.000","Units":"in","Rept_Date":"2021-02-07 13"},"coordinates":[5311,4245]},{"type":"Point","properties":{"Station_ID":"RGNM1","Station_Nam":"RANGELEY 2NW","Latitude":"44.98940","Longitude":"-70.67220","Snowdepth":"18.000","Units":"in","Rept_Date":"2021-02-07 14"},"coordinates":[6236,6174]},{"type":"Point","properties":{"Station_ID":"PLEP1","Station_Nam":"PLEASANT MOUNT 1 W","Latitude":"41.73940","Longitude":"-75.44650","Snowdepth":"18.000","Units":"in","Rept_Date":"2021-02-07 14"},"coordinates":[5115,4329]},{"type":"Point","properties":{"Station_ID":"PA-BR-7","Station_Nam":"FLEETWOOD 2.0 ESE, PA","Latitude":"40.44292","Longitude":"-75.78720","Snowdepth":"18.000","Units":"in","Rept_Date":"2021-02-07 12"},"coordinates":[5035,3593]},{"type":"Point","properties":{"Station_ID":"NY-ES-7","Station_Nam":"KEESEVILLE 0.8 SE, NY","Latitude":"44.49504","Longitude":"-73.47109","Snowdepth":"18.000","Units":"in","Rept_Date":"2021-02-07 12"},"coordinates":[5579,5894]},{"type":"Point","properties":{"Station_ID":"NJ-MS-4","Station_Nam":"ROCKAWAY TWP 0.7 NE, NJ","Latitude":"40.96583","Longitude":"-74.48780","Snowdepth":"18.000","Units":"in","Rept_Date":"2021-02-07 15"},"coordinates":[5340,3890]},{"type":"Point","properties":{"Station_ID":"NE-SN-3","Station_Nam":"WESTON 0.2 ENE, NE","Latitude":"41.19322","Longitude":"-96.73740","Snowdepth":"18.000","Units":"in","Rept_Date":"2021-02-07 13"},"coordinates":[119,4019]},{"type":"Point","properties":{"Station_ID":"JOHV1","Station_Nam":"JOHNSON 2 N","Latitude":"44.65790","Longitude":"-72.67850","Snowdepth":"18.000","Units":"in","Rept_Date":"2021-02-07 12"},"coordinates":[5765,5986]},{"type":"Point","properties":{"Station_ID":"INDN6","Station_Nam":"INDIAN LAKE","Latitude":"43.75500","Longitude":"-74.27560","Snowdepth":"18.000","Units":"in","Rept_Date":"2021-02-07 13"},"coordinates":[5390,5473]},{"type":"Point","properties":{"Station_ID":"IL-JD-8","Station_Nam":"STOCKTON 3.4 NNE, IL","Latitude":"42.39960","Longitude":"-89.99020","Snowdepth":"18.000","Units":"in","Rept_Date":"2021-02-07 13"},"coordinates":[1702,4704]},{"type":"Point","properties":{"Station_ID":"HVJP1","Station_Nam":"HIDDEN VALLEY COOP","Latitude":"40.04200","Longitude":"-79.25660","Snowdepth":"18.000","Units":"in","Rept_Date":"2021-02-07 13"},"coordinates":[4221,3366]},{"type":"Point","properties":{"Station_ID":"EVRW3","Station_Nam":"EAGLE RIVER-4 E","Latitude":"45.91890","Longitude":"-89.15280","Snowdepth":"18.000","Units":"in","Rept_Date":"2021-02-07 13"},"coordinates":[1899,6702]},{"type":"Point","properties":{"Station_ID":"AVLV1","Station_Nam":"AVERILL","Latitude":"45.00570","Longitude":"-71.69030","Snowdepth":"18.000","Units":"in","Rept_Date":"2021-02-07 13"},"coordinates":[5997,6183]},{"type":"Point","properties":{"Station_ID":"AGNW3","Station_Nam":"ARGONNE-1.5 NW","Latitude":"45.67360","Longitude":"-88.90380","Snowdepth":"18.000","Units":"in","Rept_Date":"2021-02-07 13"},"coordinates":[1957,6563]},{"type":"Point","properties":{"Station_ID":"VT-ES-3","Station_Nam":"LUNENBURG 2.3 NNW, VT","Latitude":"44.49324","Longitude":"-71.70446","Snowdepth":"17.500","Units":"in","Rept_Date":"2021-02-07 10"},"coordinates":[5993,5893]},{"type":"Point","properties":{"Station_ID":"VT-CH-13","Station_Nam":"RICHMOND 3.4 SSE, VT","Latitude":"44.36084","Longitude":"-72.96400","Snowdepth":"17.500","Units":"in","Rept_Date":"2021-02-07 12"},"coordinates":[5698,5817]},{"type":"Point","properties":{"Station_ID":"VT-CH-11","Station_Nam":"UNDERHILL 5.1 NNE, VT","Latitude":"44.59811","Longitude":"-72.91880","Snowdepth":"17.500","Units":"in","Rept_Date":"2021-02-07 12"},"coordinates":[5708,5952]},{"type":"Point","properties":{"Station_ID":"NY-TM-42","Station_Nam":"ITHACA 6.4 E, NY","Latitude":"42.43350","Longitude":"-76.37860","Snowdepth":"17.500","Units":"in","Rept_Date":"2021-02-07 12"},"coordinates":[4896,4723]},{"type":"Point","properties":{"Station_ID":"MN-IS-18","Station_Nam":"BRAHAM 0.7 SW, MN","Latitude":"45.71379","Longitude":"-93.18095","Snowdepth":"17.500","Units":"in","Rept_Date":"2021-02-07 14"},"coordinates":[954,6585]},{"type":"Point","properties":{"Station_ID":"SVBQ6","Station_Nam":"SAVANT BASE","Latitude":"50.28730","Longitude":"-90.65670","Snowdepth":"17.480","Units":"in","Rept_Date":"2021-02-08 06"},"coordinates":[1546,9182]},{"type":"Point","properties":{"Station_ID":"CAN-QC-51","Station_Nam":"BELOEIL 0.7 NW, CAN","Latitude":"45.58049","Longitude":"-73.21218","Snowdepth":"17.300","Units":"in","Rept_Date":"2021-02-07 12"},"coordinates":[5640,6510]},{"type":"Point","properties":{"Station_ID":"CAN-QC-47","Station_Nam":"SAINTE-FOY 1.8 ENE, CAN","Latitude":"46.76934","Longitude":"-71.27124","Snowdepth":"17.200","Units":"in","Rept_Date":"2021-02-07 12"},"coordinates":[6095,7185]},{"type":"Point","properties":{"Station_ID":"QOU","Station_Nam":"QOU","Latitude":"50.79250","Longitude":"-69.67470","Snowdepth":"17.126","Units":"in","Rept_Date":"2021-02-07 12"},"coordinates":[6470,9469]},{"type":"Point","properties":{"Station_ID":"WSFW3","Station_Nam":"TOWN OF WESTFORD","Latitude":"43.47190","Longitude":"-88.88250","Snowdepth":"17.000","Units":"in","Rept_Date":"2021-02-07 13"},"coordinates":[1962,5313]},{"type":"Point","properties":{"Station_ID":"WI-ON-4","Station_Nam":"RHINELANDER 0.6 SSW, WI","Latitude":"45.63141","Longitude":"-89.41470","Snowdepth":"17.000","Units":"in","Rept_Date":"2021-02-07 13"},"coordinates":[1837,6539]},{"type":"Point","properties":{"Station_ID":"WI-DD-4","Station_Nam":"BEAVER DAM 1.4 SSW, WI","Latitude":"43.44719","Longitude":"-88.85260","Snowdepth":"17.000","Units":"in","Rept_Date":"2021-02-07 14"},"coordinates":[1969,5299]},{"type":"Point","properties":{"Station_ID":"WI-DD-16","Station_Nam":"BEAVER DAM 2.4 WNW, WI","Latitude":"43.47210","Longitude":"-88.88280","Snowdepth":"17.000","Units":"in","Rept_Date":"2021-02-07 13"},"coordinates":[1962,5313]},{"type":"Point","properties":{"Station_ID":"WI-BY-22","Station_Nam":"MASON 11.5 WNW, WI","Latitude":"46.50198","Longitude":"-91.28339","Snowdepth":"17.000","Units":"in","Rept_Date":"2021-02-07 14"},"coordinates":[1399,7033]},{"type":"Point","properties":{"Station_ID":"STMM4","Station_Nam":"STAMBAUGH 2SSE","Latitude":"46.05550","Longitude":"-88.62780","Snowdepth":"17.000","Units":"in","Rept_Date":"2021-02-07 13"},"coordinates":[2022,6779]},{"type":"Point","properties":{"Station_ID":"SPRP1","Station_Nam":"SPRINGTOWN 1 NNE","Latitude":"40.57110","Longitude":"-75.27810","Snowdepth":"17.000","Units":"in","Rept_Date":"2021-02-07 12"},"coordinates":[5155,3666]},{"type":"Point","properties":{"Station_ID":"RLKW3","Station_Nam":"REST LAKE","Latitude":"46.12220","Longitude":"-89.87720","Snowdepth":"17.000","Units":"in","Rept_Date":"2021-02-07 13"},"coordinates":[1729,6817]},{"type":"Point","properties":{"Station_ID":"PRQM1","Station_Nam":"PRESQUE ISLE HILLTOP","Latitude":"46.68630","Longitude":"-67.99470","Snowdepth":"17.000","Units":"in","Rept_Date":"2021-02-07 12"},"coordinates":[6864,7138]},{"type":"Point","properties":{"Station_ID":"PRGN6","Station_Nam":"PERRYSBURG","Latitude":"42.46470","Longitude":"-79.00310","Snowdepth":"17.000","Units":"in","Rept_Date":"2021-02-07 12"},"coordinates":[4281,4741]},{"type":"Point","properties":{"Station_ID":"PDGM4","Station_Nam":"PAULDING","Latitude":"46.39760","Longitude":"-89.17940","Snowdepth":"17.000","Units":"in","Rept_Date":"2021-02-07 14"},"coordinates":[1893,6974]},{"type":"Point","properties":{"Station_ID":"PA-PK-22","Station_Nam":"MILFORD 8.7 NW, PA","Latitude":"41.42018","Longitude":"-74.90953","Snowdepth":"17.000","Units":"in","Rept_Date":"2021-02-07 12"},"coordinates":[5241,4148]},{"type":"Point","properties":{"Station_ID":"NY-OT-29","Station_Nam":"NEW BERLIN 1.5 NE, NY","Latitude":"42.63689","Longitude":"-75.31090","Snowdepth":"17.000","Units":"in","Rept_Date":"2021-02-07 13"},"coordinates":[5147,4839]},{"type":"Point","properties":{"Station_ID":"NY-DL-28","Station_Nam":"FLEISCHMANNS 5.7 N, NY","Latitude":"42.23779","Longitude":"-74.52335","Snowdepth":"17.000","Units":"in","Rept_Date":"2021-02-07 12"},"coordinates":[5332,4612]},{"type":"Point","properties":{"Station_ID":"NJ-HN-7","Station_Nam":"BETHLEHEM TWP 0.6 S, NJ","Latitude":"40.65995","Longitude":"-75.00803","Snowdepth":"17.000","Units":"in","Rept_Date":"2021-02-07 13"},"coordinates":[5218,3716]},{"type":"Point","properties":{"Station_ID":"NH-CR-41","Station_Nam":"ALBANY 2.8 SW, NH","Latitude":"43.92648","Longitude":"-71.21556","Snowdepth":"17.000","Units":"in","Rept_Date":"2021-02-07 13"},"coordinates":[6108,5571]},{"type":"Point","properties":{"Station_ID":"MI-OW-2","Station_Nam":"HOLLAND 3.9 NNE, MI","Latitude":"42.82296","Longitude":"-86.06780","Snowdepth":"17.000","Units":"in","Rept_Date":"2021-02-07 11"},"coordinates":[2623,4944]},{"type":"Point","properties":{"Station_ID":"MI-GG-4","Station_Nam":"WATERSMEET 5.0 SE, MI","Latitude":"46.20333","Longitude":"-89.13170","Snowdepth":"17.000","Units":"in","Rept_Date":"2021-02-07 14"},"coordinates":[1904,6863]},{"type":"Point","properties":{"Station_ID":"IL-CK-193","Station_Nam":"WINNETKA 0.8 ESE, IL","Latitude":"42.10164","Longitude":"-87.72900","Snowdepth":"17.000","Units":"in","Rept_Date":"2021-02-07 14"},"coordinates":[2233,4535]},{"type":"Point","properties":{"Station_ID":"IA-BC-9","Station_Nam":"WINTHROP 5.6 NNE, IA","Latitude":"42.55206","Longitude":"-91.70663","Snowdepth":"17.000","Units":"in","Rept_Date":"2021-02-07 15"},"coordinates":[1300,4791]},{"type":"Point","properties":{"Station_ID":"HUBN3","Station_Nam":"HUBBARD BROOK","Latitude":"43.93330","Longitude":"-71.71670","Snowdepth":"17.000","Units":"in","Rept_Date":"2021-02-08 06"},"coordinates":[5990,5575]},{"type":"Point","properties":{"Station_ID":"GOVN6","Station_Nam":"GOUVERNEUR 3 NW","Latitude":"44.35400","Longitude":"-75.51230","Snowdepth":"17.000","Units":"in","Rept_Date":"2021-02-07 12"},"coordinates":[5100,5814]},{"type":"Point","properties":{"Station_ID":"EGRW3","Station_Nam":"EAGLE RIVER-SOUTH","Latitude":"45.91360","Longitude":"-89.24360","Snowdepth":"17.000","Units":"in","Rept_Date":"2021-02-07 13"},"coordinates":[1878,6699]},{"type":"Point","properties":{"Station_ID":"CAAW2","Station_Nam":"CANAAN VALLEY","Latitude":"39.05890","Longitude":"-79.44030","Snowdepth":"17.000","Units":"in","Rept_Date":"2021-02-07 14"},"coordinates":[4178,2808]},{"type":"Point","properties":{"Station_ID":"BEAW3","Station_Nam":"BEAVER DAM,WI","Latitude":"43.45000","Longitude":"-88.85000","Snowdepth":"17.000","Units":"in","Rept_Date":"2021-02-07 13"},"coordinates":[1970,5300]},{"type":"Point","properties":{"Station_ID":"WI-SR-1","Station_Nam":"HAYWARD 9.2 NNE, WI","Latitude":"46.13255","Longitude":"-91.40500","Snowdepth":"16.500","Units":"in","Rept_Date":"2021-02-07 12"},"coordinates":[1370,6823]},{"type":"Point","properties":{"Station_ID":"WI-PR-2","Station_Nam":"BUTTERNUT 5.9 SW, WI","Latitude":"45.96501","Longitude":"-90.59750","Snowdepth":"16.500","Units":"in","Rept_Date":"2021-02-07 12"},"coordinates":[1560,6728]},{"type":"Point","properties":{"Station_ID":"WI-CB-5","Station_Nam":"PORTAGE 7.2 SW, WI","Latitude":"43.47933","Longitude":"-89.57370","Snowdepth":"16.500","Units":"in","Rept_Date":"2021-02-07 13"},"coordinates":[1800,5317]},{"type":"Point","properties":{"Station_ID":"VT-OL-9","Station_Nam":"GREENSBORO 2.1 NNW, VT","Latitude":"44.60528","Longitude":"-72.30940","Snowdepth":"16.500","Units":"in","Rept_Date":"2021-02-07 13"},"coordinates":[5851,5956]},{"type":"Point","properties":{"Station_ID":"PA-CB-33","Station_Nam":"LAKE HARMONY 2.4 WNW, PA","Latitude":"41.07333","Longitude":"-75.63317","Snowdepth":"16.500","Units":"in","Rept_Date":"2021-02-07 12"},"coordinates":[5071,3951]},{"type":"Point","properties":{"Station_ID":"NY-CR-1","Station_Nam":"FREETOWN 1.0 NE, NY","Latitude":"42.53299","Longitude":"-76.02111","Snowdepth":"16.500","Units":"in","Rept_Date":"2021-02-07 12"},"coordinates":[4980,4780]},{"type":"Point","properties":{"Station_ID":"NJ-SS-1","Station_Nam":"ANDOVER TWP 1.7 W, NJ","Latitude":"41.01974","Longitude":"-74.76110","Snowdepth":"16.500","Units":"in","Rept_Date":"2021-02-07 12"},"coordinates":[5276,3921]},{"type":"Point","properties":{"Station_ID":"MI-AG-6","Station_Nam":"MUNISING 11.1 SSW, MI","Latitude":"46.27805","Longitude":"-86.75747","Snowdepth":"16.500","Units":"in","Rept_Date":"2021-02-07 12"},"coordinates":[2461,6906]},{"type":"Point","properties":{"Station_ID":"QWE","Station_Nam":"QWE","Latitude":"47.84610","Longitude":"-73.80670","Snowdepth":"16.496","Units":"in","Rept_Date":"2021-02-07 12"},"coordinates":[5500,7796]},{"type":"Point","properties":{"Station_ID":"CT-FR-65","Station_Nam":"NEWTOWN 4.6 SE, CT","Latitude":"41.37631","Longitude":"-73.24278","Snowdepth":"16.200","Units":"in","Rept_Date":"2021-02-07 22"},"coordinates":[5632,4123]},{"type":"Point","properties":{"Station_ID":"CAN-ON-451","Station_Nam":"OWEN SOUND 1.2 N - GSCA, CAN","Latitude":"44.58092","Longitude":"-80.93025","Snowdepth":"16.100","Units":"in","Rept_Date":"2021-02-07 13"},"coordinates":[3828,5942]},{"type":"Point","properties":{"Station_ID":"WV-PR-10","Station_Nam":"TERRA ALTA 4.9 NNE, WV","Latitude":"39.51024","Longitude":"-79.51024","Snowdepth":"16.000","Units":"in","Rept_Date":"2021-02-07 13"},"coordinates":[4162,3064]},{"type":"Point","properties":{"Station_ID":"WORV1","Station_Nam":"WORCESTER 2 W","Latitude":"44.37470","Longitude":"-72.58220","Snowdepth":"16.000","Units":"in","Rept_Date":"2021-02-07 12"},"coordinates":[5787,5825]},{"type":"Point","properties":{"Station_ID":"WI-WK-34","Station_Nam":"MUKWONAGO 5.3 W, WI","Latitude":"42.85380","Longitude":"-88.43550","Snowdepth":"16.000","Units":"in","Rept_Date":"2021-02-07 13"},"coordinates":[2067,4962]},{"type":"Point","properties":{"Station_ID":"WI-VL-14","Station_Nam":"BOULDER JUNCTION 1.4 NE, WI","Latitude":"46.12840","Longitude":"-89.62470","Snowdepth":"16.000","Units":"in","Rept_Date":"2021-02-07 14"},"coordinates":[1788,6821]},{"type":"Point","properties":{"Station_ID":"WI-RK-12","Station_Nam":"JANESVILLE 3.1 W, WI","Latitude":"42.67576","Longitude":"-89.07614","Snowdepth":"16.000","Units":"in","Rept_Date":"2021-02-07 13"},"coordinates":[1917,4861]},{"type":"Point","properties":{"Station_ID":"WI-DA-35","Station_Nam":"MADISON 5.5 N, WI","Latitude":"43.15858","Longitude":"-89.37280","Snowdepth":"16.000","Units":"in","Rept_Date":"2021-02-07 14"},"coordinates":[1847,5135]},{"type":"Point","properties":{"Station_ID":"WELM4","Station_Nam":"WELLSTON TIPPY DAM","Latitude":"44.25860","Longitude":"-85.93940","Snowdepth":"16.000","Units":"in","Rept_Date":"2021-02-07 13"},"coordinates":[2653,5759]},{"type":"Point","properties":{"Station_ID":"SUTV1","Station_Nam":"SUTTON","Latitude":"44.61220","Longitude":"-72.04810","Snowdepth":"16.000","Units":"in","Rept_Date":"2021-02-07 12"},"coordinates":[5913,5960]},{"type":"Point","properties":{"Station_ID":"SEEW3","Station_Nam":"SOUTH MILWAUKEE WWTP","Latitude":"42.90110","Longitude":"-87.84940","Snowdepth":"16.000","Units":"in","Rept_Date":"2021-02-07 13"},"coordinates":[2205,4989]},{"type":"Point","properties":{"Station_ID":"RCHW3","Station_Nam":"RICHRIELD,WI","Latitude":"43.21080","Longitude":"-88.20940","Snowdepth":"16.000","Units":"in","Rept_Date":"2021-02-07 12"},"coordinates":[2120,5165]},{"type":"Point","properties":{"Station_ID":"NY-TM-27","Station_Nam":"GROTON 3.2 SSW, NY","Latitude":"42.54725","Longitude":"-76.39960","Snowdepth":"16.000","Units":"in","Rept_Date":"2021-02-07 12"},"coordinates":[4892,4788]},{"type":"Point","properties":{"Station_ID":"NY-ER-166","Station_Nam":"BOSTON 2.5 NE, NY","Latitude":"42.65480","Longitude":"-78.70300","Snowdepth":"16.000","Units":"in","Rept_Date":"2021-02-07 12"},"coordinates":[4351,4849]},{"type":"Point","properties":{"Station_ID":"NPTV1","Station_Nam":"NEWPORT","Latitude":"44.94900","Longitude":"-72.19120","Snowdepth":"16.000","Units":"in","Rept_Date":"2021-02-07 12"},"coordinates":[5879,6151]},{"type":"Point","properties":{"Station_ID":"NJ-WR-1","Station_Nam":"GREENWICH TWP 1.6 S, NJ","Latitude":"40.65545","Longitude":"-75.11670","Snowdepth":"16.000","Units":"in","Rept_Date":"2021-02-07 12"},"coordinates":[5193,3714]},{"type":"Point","properties":{"Station_ID":"NJ-MS-94","Station_Nam":"JEFFERSON TWP 4.4 SW, NJ","Latitude":"40.96404","Longitude":"-74.62162","Snowdepth":"16.000","Units":"in","Rept_Date":"2021-02-07 13"},"coordinates":[5309,3889]},{"type":"Point","properties":{"Station_ID":"MWOW3","Station_Nam":"MUKWONAGO","Latitude":"42.85380","Longitude":"-88.43550","Snowdepth":"16.000","Units":"in","Rept_Date":"2021-02-07 13"},"coordinates":[2067,4962]},{"type":"Point","properties":{"Station_ID":"MI-OT-17","Station_Nam":"GAYLORD 4.1 S, MI","Latitude":"44.96388","Longitude":"-84.68467","Snowdepth":"16.000","Units":"in","Rept_Date":"2021-02-07 13"},"coordinates":[2947,6160]},{"type":"Point","properties":{"Station_ID":"MI-MQ-28","Station_Nam":"CARLSHEND, MI","Latitude":"46.31638","Longitude":"-87.19944","Snowdepth":"16.000","Units":"in","Rept_Date":"2021-02-07 13"},"coordinates":[2357,6928]},{"type":"Point","properties":{"Station_ID":"ME-FR-22","Station_Nam":"FARMINGTON 4.8 NNW, ME","Latitude":"44.73396","Longitude":"-70.18007","Snowdepth":"16.000","Units":"in","Rept_Date":"2021-02-07 14"},"coordinates":[6351,6029]},{"type":"Point","properties":{"Station_ID":"ME-AR-15","Station_Nam":"PRESQUE ISLE 1.3 WSW, ME","Latitude":"46.67960","Longitude":"-68.01270","Snowdepth":"16.000","Units":"in","Rept_Date":"2021-02-07 12"},"coordinates":[6860,7134]},{"type":"Point","properties":{"Station_ID":"MAPM4","Station_Nam":"MAPLE CITY 1E","Latitude":"44.85500","Longitude":"-85.83520","Snowdepth":"16.000","Units":"in","Rept_Date":"2021-02-07 23"},"coordinates":[2677,6098]},{"type":"Point","properties":{"Station_ID":"LODW3","Station_Nam":"LODI","Latitude":"43.32170","Longitude":"-89.53110","Snowdepth":"16.000","Units":"in","Rept_Date":"2021-02-07 13"},"coordinates":[1810,5227]},{"type":"Point","properties":{"Station_ID":"KINM1","Station_Nam":"KINGFIELD","Latitude":"44.95950","Longitude":"-70.17530","Snowdepth":"16.000","Units":"in","Rept_Date":"2021-02-07 13"},"coordinates":[6352,6157]},{"type":"Point","properties":{"Station_ID":"FREM4","Station_Nam":"FREMONT,MI","Latitude":"43.45000","Longitude":"-86.03330","Snowdepth":"16.000","Units":"in","Rept_Date":"2021-02-07 12"},"coordinates":[2631,5300]},{"type":"Point","properties":{"Station_ID":"FARM1","Station_Nam":"FARMINGTON","Latitude":"44.68930","Longitude":"-70.15640","Snowdepth":"16.000","Units":"in","Rept_Date":"2021-02-07 12"},"coordinates":[6357,6004]},{"type":"Point","properties":{"Station_ID":"DUBI4","Station_Nam":"DUBUQUE #3","Latitude":"42.40870","Longitude":"-90.73250","Snowdepth":"16.000","Units":"in","Rept_Date":"2021-02-07 18"},"coordinates":[1528,4709]},{"type":"Point","properties":{"Station_ID":"DEKI2","Station_Nam":"SOUTH BRANCH KISHWAUKEE RIVER AT DEKALB","Latitude":"41.93110","Longitude":"-88.75970","Snowdepth":"16.000","Units":"in","Rept_Date":"2021-02-07 13"},"coordinates":[1991,4438]},{"type":"Point","properties":{"Station_ID":"DBQ","Station_Nam":"DUBUQUE REGIONAL AIRPORT","Latitude":"42.40310","Longitude":"-90.70920","Snowdepth":"16.000","Units":"in","Rept_Date":"2021-02-08 00"},"coordinates":[1534,4706]},{"type":"Point","properties":{"Station_ID":"CAN-ON-42","Station_Nam":"VANKLEEK HILL 3.4 S, CA","Latitude":"45.48987","Longitude":"-74.64570","Snowdepth":"16.000","Units":"in","Rept_Date":"2021-02-07 12"},"coordinates":[5303,6458]},{"type":"Point","properties":{"Station_ID":"CAN-MB-368","Station_Nam":"WHITESHELL 1.3 NE, CAN","Latitude":"49.74405","Longitude":"-95.19123","Snowdepth":"16.000","Units":"in","Rept_Date":"2021-02-07 14"},"coordinates":[482,8873]},{"type":"Point","properties":{"Station_ID":"BDMW3","Station_Nam":"BEAVER DAM 1 N","Latitude":"43.46860","Longitude":"-88.83970","Snowdepth":"16.000","Units":"in","Rept_Date":"2021-02-07 13"},"coordinates":[1972,5311]},{"type":"Point","properties":{"Station_ID":"BARI2","Station_Nam":"CRABTREE NATURE CENTER","Latitude":"42.11530","Longitude":"-88.16390","Snowdepth":"16.000","Units":"in","Rept_Date":"2021-02-07 14"},"coordinates":[2131,4543]},{"type":"Point","properties":{"Station_ID":"42.1173_079.8962","Station_Nam":"4 W Colt Station  Trained Spotter (CLE0298)","Latitude":"42.11734","Longitude":"-79.89615","Snowdepth":"16.000","Units":"in","Rept_Date":"2021-02-08 03"},"coordinates":[4071,4544]},{"type":"Point","properties":{"Station_ID":"WI-WW-12","Station_Nam":"ELKHORN 0.4 ESE, WI","Latitude":"42.66970","Longitude":"-88.53170","Snowdepth":"15.800","Units":"in","Rept_Date":"2021-02-07 11"},"coordinates":[2045,4857]},{"type":"Point","properties":{"Station_ID":"QTV","Station_Nam":"QTV","Latitude":"49.66000","Longitude":"-69.35690","Snowdepth":"15.748","Units":"in","Rept_Date":"2021-02-07 12"},"coordinates":[6544,8826]},{"type":"Point","properties":{"Station_ID":"WI-MW-43","Station_Nam":"BROWN DEER 0.8 NW, WI","Latitude":"43.18438","Longitude":"-87.98401","Snowdepth":"15.500","Units":"in","Rept_Date":"2021-02-07 13"},"coordinates":[2173,5150]},{"type":"Point","properties":{"Station_ID":"WI-KN-26","Station_Nam":"KENOSHA 3.8 WSW, WI","Latitude":"42.56913","Longitude":"-87.92632","Snowdepth":"15.500","Units":"in","Rept_Date":"2021-02-07 12"},"coordinates":[2187,4800]},{"type":"Point","properties":{"Station_ID":"WI-DA-99","Station_Nam":"FITCHBURG 1.1 NW, WI","Latitude":"42.99740","Longitude":"-89.44046","Snowdepth":"15.500","Units":"in","Rept_Date":"2021-02-07 13"},"coordinates":[1831,5043]},{"type":"Point","properties":{"Station_ID":"VT-WR-10","Station_Nam":"WEST WINDSOR 1.7 S, VT","Latitude":"43.46164","Longitude":"-72.49197","Snowdepth":"15.500","Units":"in","Rept_Date":"2021-02-07 12"},"coordinates":[5809,5307]},{"type":"Point","properties":{"Station_ID":"VT-CH-7","Station_Nam":"HUNTINGTON 1.1 E, VT","Latitude":"44.32488","Longitude":"-72.96570","Snowdepth":"15.500","Units":"in","Rept_Date":"2021-02-07 12"},"coordinates":[5697,5797]},{"type":"Point","properties":{"Station_ID":"NY-TM-18","Station_Nam":"EAST ITHACA 4.7 E, NY","Latitude":"42.41910","Longitude":"-76.37330","Snowdepth":"15.500","Units":"in","Rept_Date":"2021-02-07 12"},"coordinates":[4898,4715]},{"type":"Point","properties":{"Station_ID":"MA-ES-48","Station_Nam":"ANDOVER 0.6 E, MA","Latitude":"42.65659","Longitude":"-71.13048","Snowdepth":"15.500","Units":"in","Rept_Date":"2021-02-07 10"},"coordinates":[6128,4850]},{"type":"Point","properties":{"Station_ID":"IL-MCH-95","Station_Nam":"CARY 0.5 SSW, IL","Latitude":"42.20235","Longitude":"-88.25224","Snowdepth":"15.500","Units":"in","Rept_Date":"2021-02-07 13"},"coordinates":[2110,4592]},{"type":"Point","properties":{"Station_ID":"IL-MCH-13","Station_Nam":"BULL VALLEY 2.5 WNW, IL","Latitude":"42.32455","Longitude":"-88.39460","Snowdepth":"15.500","Units":"in","Rept_Date":"2021-02-07 14"},"coordinates":[2077,4661]},{"type":"Point","properties":{"Station_ID":"IA-ST-1","Station_Nam":"LE CLAIRE 1.8 NNE, IA","Latitude":"41.62355","Longitude":"-90.35140","Snowdepth":"15.500","Units":"in","Rept_Date":"2021-02-07 13"},"coordinates":[1618,4263]},{"type":"Point","properties":{"Station_ID":"CAN-ON-526","Station_Nam":"HILTON BEACH 0.7 SW - MNRF, CAN","Latitude":"46.25357","Longitude":"-83.90014","Snowdepth":"15.400","Units":"in","Rept_Date":"2021-02-07 12"},"coordinates":[3132,6892]},{"type":"Point","properties":{"Station_ID":"MI-GT-27","Station_Nam":"TRAVERSE CITY 4.7 W, MI","Latitude":"44.75372","Longitude":"-85.69934","Snowdepth":"15.100","Units":"in","Rept_Date":"2021-02-07 13"},"coordinates":[2709,6040]},{"type":"Point","properties":{"Station_ID":"WRSN6","Station_Nam":"WARSAW 6SW","Latitude":"42.68550","Longitude":"-78.22020","Snowdepth":"15.000","Units":"in","Rept_Date":"2021-02-07 12"},"coordinates":[4464,4866]},{"type":"Point","properties":{"Station_ID":"WILW3","Station_Nam":"RESERVOIR","Latitude":"45.70000","Longitude":"-89.83330","Snowdepth":"15.000","Units":"in","Rept_Date":"2021-02-07 12"},"coordinates":[1739,6578]},{"type":"Point","properties":{"Station_ID":"WI-WW-2","Station_Nam":"LAKE GENEVA 0.6 ENE, WI","Latitude":"42.59169","Longitude":"-88.41770","Snowdepth":"15.000","Units":"in","Rept_Date":"2021-02-07 13"},"coordinates":[2071,4813]},{"type":"Point","properties":{"Station_ID":"WI-RC-3","Station_Nam":"RACINE 2.3 WSW, WI","Latitude":"42.71124","Longitude":"-87.84570","Snowdepth":"15.000","Units":"in","Rept_Date":"2021-02-07 13"},"coordinates":[2206,4881]},{"type":"Point","properties":{"Station_ID":"WI-OZ-12","Station_Nam":"PORT WASHINGTON 0.5 S, WI","Latitude":"43.38610","Longitude":"-87.87900","Snowdepth":"15.000","Units":"in","Rept_Date":"2021-02-07 13"},"coordinates":[2198,5264]},{"type":"Point","properties":{"Station_ID":"WI-ON-8","Station_Nam":"HAZELHURST 2.1 SSE, WI","Latitude":"45.78186","Longitude":"-89.70330","Snowdepth":"15.000","Units":"in","Rept_Date":"2021-02-07 13"},"coordinates":[1770,6624]},{"type":"Point","properties":{"Station_ID":"WI-MW-18","Station_Nam":"WEST ALLIS 0.7 SSE, WI","Latitude":"42.99802","Longitude":"-88.02380","Snowdepth":"15.000","Units":"in","Rept_Date":"2021-02-07 14"},"coordinates":[2164,5044]},{"type":"Point","properties":{"Station_ID":"WI-CB-4","Station_Nam":"PORTAGE 5.7 WSW, WI","Latitude":"43.51411","Longitude":"-89.56910","Snowdepth":"15.000","Units":"in","Rept_Date":"2021-02-07 12"},"coordinates":[1801,5337]},{"type":"Point","properties":{"Station_ID":"WI-BY-2","Station_Nam":"MELLEN 18.6 SW, WI","Latitude":"46.16937","Longitude":"-90.98090","Snowdepth":"15.000","Units":"in","Rept_Date":"2021-02-07 13"},"coordinates":[1470,6844]},{"type":"Point","properties":{"Station_ID":"WDSV1","Station_Nam":"WOODSTOCK","Latitude":"43.63030","Longitude":"-72.50720","Snowdepth":"15.000","Units":"in","Rept_Date":"2021-02-07 13"},"coordinates":[5805,5403]},{"type":"Point","properties":{"Station_ID":"VT-OL-2","Station_Nam":"BARTON 3.0 ENE, VT","Latitude":"44.75863","Longitude":"-72.11680","Snowdepth":"15.000","Units":"in","Rept_Date":"2021-02-07 12"},"coordinates":[5897,6043]},{"type":"Point","properties":{"Station_ID":"VT-LM-1","Station_Nam":"STOWE 0.2 SW, VT","Latitude":"44.46399","Longitude":"-72.69070","Snowdepth":"15.000","Units":"in","Rept_Date":"2021-02-07 12"},"coordinates":[5762,5876]},{"type":"Point","properties":{"Station_ID":"VT-CL-18","Station_Nam":"WHEELOCK 1.6 S, VT","Latitude":"44.56491","Longitude":"-72.08830","Snowdepth":"15.000","Units":"in","Rept_Date":"2021-02-07 12"},"coordinates":[5903,5933]},{"type":"Point","properties":{"Station_ID":"VQAW3","Station_Nam":"VIROQUA","Latitude":"43.55970","Longitude":"-90.87560","Snowdepth":"15.000","Units":"in","Rept_Date":"2021-02-07 13"},"coordinates":[1495,5363]},{"type":"Point","properties":{"Station_ID":"VNTI4","Station_Nam":"VINTON","Latitude":"42.17020","Longitude":"-92.00770","Snowdepth":"15.000","Units":"in","Rept_Date":"2021-02-07 13"},"coordinates":[1229,4574]},{"type":"Point","properties":{"Station_ID":"THEN6","Station_Nam":"THERESA 4 NW","Latitude":"44.27540","Longitude":"-75.83690","Snowdepth":"15.000","Units":"in","Rept_Date":"2021-02-07 14"},"coordinates":[5024,5769]},{"type":"Point","properties":{"Station_ID":"TAKW3","Station_Nam":"RICE RESERVOIR NO. 2","Latitude":"45.53770","Longitude":"-89.73220","Snowdepth":"15.000","Units":"in","Rept_Date":"2021-02-07 13"},"coordinates":[1763,6485]},{"type":"Point","properties":{"Station_ID":"STGW3","Station_Nam":"ST GERMAIN","Latitude":"45.91550","Longitude":"-89.48940","Snowdepth":"15.000","Units":"in","Rept_Date":"2021-02-07 12"},"coordinates":[1820,6700]},{"type":"Point","properties":{"Station_ID":"SRAW3","Station_Nam":"SARONA","Latitude":"45.80250","Longitude":"-91.86700","Snowdepth":"15.000","Units":"in","Rept_Date":"2021-02-07 14"},"coordinates":[1262,6636]},{"type":"Point","properties":{"Station_ID":"SLNV1","Station_Nam":"SOUTH LINCOLN","Latitude":"44.07460","Longitude":"-72.97180","Snowdepth":"15.000","Units":"in","Rept_Date":"2021-02-07 12"},"coordinates":[5696,5655]},{"type":"Point","properties":{"Station_ID":"RHRW3","Station_Nam":"RHINELANDER WJFW TV-12","Latitude":"45.62220","Longitude":"-89.41000","Snowdepth":"15.000","Units":"in","Rept_Date":"2021-02-08 04"},"coordinates":[1839,6533]},{"type":"Point","properties":{"Station_ID":"RHLW3","Station_Nam":"RHINELANDER 4NE","Latitude":"45.65270","Longitude":"-89.30740","Snowdepth":"15.000","Units":"in","Rept_Date":"2021-02-07 12"},"coordinates":[1863,6551]},{"type":"Point","properties":{"Station_ID":"RHIW3","Station_Nam":"RHINELANDER","Latitude":"45.59860","Longitude":"-89.45080","Snowdepth":"15.000","Units":"in","Rept_Date":"2021-02-07 13"},"coordinates":[1829,6520]},{"type":"Point","properties":{"Station_ID":"PA-BR-21","Station_Nam":"ALBURTIS 4.7 SW, PA","Latitude":"40.46515","Longitude":"-75.66820","Snowdepth":"15.000","Units":"in","Rept_Date":"2021-02-07 12"},"coordinates":[5063,3606]},{"type":"Point","properties":{"Station_ID":"NY-OT-31","Station_Nam":"MARYLAND 1.8 W, NY","Latitude":"42.53310","Longitude":"-74.92090","Snowdepth":"15.000","Units":"in","Rept_Date":"2021-02-07 13"},"coordinates":[5239,4780]},{"type":"Point","properties":{"Station_ID":"NY-JF-26","Station_Nam":"MANNSVILLE 0.3 SE, NY","Latitude":"43.71225","Longitude":"-76.06210","Snowdepth":"15.000","Units":"in","Rept_Date":"2021-02-07 12"},"coordinates":[4971,5449]},{"type":"Point","properties":{"Station_ID":"NY-ER-65","Station_Nam":"BOSTON 1.5 NE, NY","Latitude":"42.65470","Longitude":"-78.72010","Snowdepth":"15.000","Units":"in","Rept_Date":"2021-02-07 13"},"coordinates":[4347,4849]},{"type":"Point","properties":{"Station_ID":"NY-ER-63","Station_Nam":"GLENWOOD 1.5 SE, NY","Latitude":"42.60195","Longitude":"-78.63910","Snowdepth":"15.000","Units":"in","Rept_Date":"2021-02-07 13"},"coordinates":[4366,4819]},{"type":"Point","properties":{"Station_ID":"NY-ER-56","Station_Nam":"COLDEN 1.4 NNW, NY","Latitude":"42.64740","Longitude":"-78.71120","Snowdepth":"15.000","Units":"in","Rept_Date":"2021-02-07 12"},"coordinates":[4349,4845]},{"type":"Point","properties":{"Station_ID":"NY-CL-7","Station_Nam":"PERU 4.1 ESE, NY","Latitude":"44.56461","Longitude":"-73.45390","Snowdepth":"15.000","Units":"in","Rept_Date":"2021-02-07 11"},"coordinates":[5583,5933]},{"type":"Point","properties":{"Station_ID":"NJ-SS-7","Station_Nam":"HARDYSTON TWP 3.2 SE, NJ","Latitude":"41.08903","Longitude":"-74.53990","Snowdepth":"15.000","Units":"in","Rept_Date":"2021-02-07 13"},"coordinates":[5328,3960]},{"type":"Point","properties":{"Station_ID":"NJ-MS-87","Station_Nam":"MOUNT ARLINGTON 0.8 S, NJ","Latitude":"40.90789","Longitude":"-74.64077","Snowdepth":"15.000","Units":"in","Rept_Date":"2021-02-07 13"},"coordinates":[5304,3857]},{"type":"Point","properties":{"Station_ID":"NJ-MS-19","Station_Nam":"LONG HILL TWP 1.8 WSW, NJ","Latitude":"40.67134","Longitude":"-74.51750","Snowdepth":"15.000","Units":"in","Rept_Date":"2021-02-07 14"},"coordinates":[5333,3723]},{"type":"Point","properties":{"Station_ID":"NH-MR-60","Station_Nam":"SOUTH SUTTON 1.3 SE, NH","Latitude":"43.29531","Longitude":"-71.90238","Snowdepth":"15.000","Units":"in","Rept_Date":"2021-02-07 13"},"coordinates":[5947,5213]},{"type":"Point","properties":{"Station_ID":"NH-CS-7","Station_Nam":"LANCASTER 0.5 N, NH","Latitude":"44.49611","Longitude":"-71.57640","Snowdepth":"15.000","Units":"in","Rept_Date":"2021-02-07 12"},"coordinates":[6023,5894]},{"type":"Point","properties":{"Station_ID":"NH-CR-11","Station_Nam":"NORTH CONWAY 1.4 SSW, NH","Latitude":"44.03556","Longitude":"-71.14010","Snowdepth":"15.000","Units":"in","Rept_Date":"2021-02-07 12"},"coordinates":[6126,5633]},{"type":"Point","properties":{"Station_ID":"NFKC3","Station_Nam":"NORFOLK","Latitude":"41.97250","Longitude":"-73.22080","Snowdepth":"15.000","Units":"in","Rept_Date":"2021-02-07 13"},"coordinates":[5637,4462]},{"type":"Point","properties":{"Station_ID":"NCON3","Station_Nam":"NORTH CONWAY","Latitude":"44.05620","Longitude":"-71.12970","Snowdepth":"15.000","Units":"in","Rept_Date":"2021-02-07 12"},"coordinates":[6128,5644]},{"type":"Point","properties":{"Station_ID":"MTCI2","Station_Nam":"MOUNT CARROLL","Latitude":"42.09800","Longitude":"-89.98410","Snowdepth":"15.000","Units":"in","Rept_Date":"2021-02-07 18"},"coordinates":[1704,4533]},{"type":"Point","properties":{"Station_ID":"MSRN3","Station_Nam":"MASCOMA RIVER","Latitude":"43.78330","Longitude":"-72.03330","Snowdepth":"15.000","Units":"in","Rept_Date":"2021-02-08 06"},"coordinates":[5916,5490]},{"type":"Point","properties":{"Station_ID":"MNPV1","Station_Nam":"MONTPELIER 2","Latitude":"44.25530","Longitude":"-72.60060","Snowdepth":"15.000","Units":"in","Rept_Date":"2021-02-07 12"},"coordinates":[5783,5757]},{"type":"Point","properties":{"Station_ID":"MI-MQ-19","Station_Nam":"ISHPEMING 7.2 SW, MI","Latitude":"46.40550","Longitude":"-87.75670","Snowdepth":"15.000","Units":"in","Rept_Date":"2021-02-07 11"},"coordinates":[2227,6978]},{"type":"Point","properties":{"Station_ID":"MI-EM-8","Station_Nam":"PETOSKEY 1.7 SSW, MI","Latitude":"45.34209","Longitude":"-84.96530","Snowdepth":"15.000","Units":"in","Rept_Date":"2021-02-07 14"},"coordinates":[2882,6374]},{"type":"Point","properties":{"Station_ID":"MI-AT-6","Station_Nam":"MANCELONA 0.5 ESE, MI","Latitude":"44.89981","Longitude":"-85.05100","Snowdepth":"15.000","Units":"in","Rept_Date":"2021-02-07 13"},"coordinates":[2861,6123]},{"type":"Point","properties":{"Station_ID":"ME-FR-4","Station_Nam":"NEW SHARON 2.0 NW, ME","Latitude":"44.66582","Longitude":"-70.02720","Snowdepth":"15.000","Units":"in","Rept_Date":"2021-02-07 12"},"coordinates":[6387,5991]},{"type":"Point","properties":{"Station_ID":"MA-MD-125","Station_Nam":"TEWKSBURY 3.6 SSE, MA","Latitude":"42.57083","Longitude":"-71.19813","Snowdepth":"15.000","Units":"in","Rept_Date":"2021-02-07 12"},"coordinates":[6112,4801]},{"type":"Point","properties":{"Station_ID":"LNK","Station_Nam":"LINCOLN MUNICIPAL AIRPORT","Latitude":"40.85080","Longitude":"-96.75920","Snowdepth":"15.000","Units":"in","Rept_Date":"2021-02-08 00"},"coordinates":[114,3825]},{"type":"Point","properties":{"Station_ID":"LGEW3","Station_Nam":"LAKE GENEVA, WI","Latitude":"42.60000","Longitude":"-88.43440","Snowdepth":"15.000","Units":"in","Rept_Date":"2021-02-07 13"},"coordinates":[2068,4818]},{"type":"Point","properties":{"Station_ID":"KISM4","Station_Nam":"K.I. SAWYER WWTP","Latitude":"46.33410","Longitude":"-87.37790","Snowdepth":"15.000","Units":"in","Rept_Date":"2021-02-07 13"},"coordinates":[2315,6938]},{"type":"Point","properties":{"Station_ID":"JKMM1","Station_Nam":"JACKMAN","Latitude":"45.62600","Longitude":"-70.24600","Snowdepth":"15.000","Units":"in","Rept_Date":"2021-02-07 12"},"coordinates":[6336,6536]},{"type":"Point","properties":{"Station_ID":"IL-WN-32","Station_Nam":"ROCKFORD 5.5 S, IL","Latitude":"42.19058","Longitude":"-89.06040","Snowdepth":"15.000","Units":"in","Rept_Date":"2021-02-07 14"},"coordinates":[1921,4585]},{"type":"Point","properties":{"Station_ID":"IL-SP-6","Station_Nam":"FREEPORT 2.0 NW, IL","Latitude":"42.30955","Longitude":"-89.66370","Snowdepth":"15.000","Units":"in","Rept_Date":"2021-02-07 13"},"coordinates":[1779,4653]},{"type":"Point","properties":{"Station_ID":"IL-SP-25","Station_Nam":"FREEPORT 1.7 NW, IL","Latitude":"42.30427","Longitude":"-89.66285","Snowdepth":"15.000","Units":"in","Rept_Date":"2021-02-07 13"},"coordinates":[1779,4650]},{"type":"Point","properties":{"Station_ID":"IL-LK-69","Station_Nam":"HIGHWOOD 0.9 S, IL","Latitude":"42.19841","Longitude":"-87.81400","Snowdepth":"15.000","Units":"in","Rept_Date":"2021-02-07 12"},"coordinates":[2213,4590]},{"type":"Point","properties":{"Station_ID":"IL-DP-157","Station_Nam":"WEST CHICAGO 3.5 NNE, IL","Latitude":"41.93718","Longitude":"-88.19884","Snowdepth":"15.000","Units":"in","Rept_Date":"2021-02-07 13"},"coordinates":[2123,4442]},{"type":"Point","properties":{"Station_ID":"HGHN4","Station_Nam":"HIGHLAND LAKES 1SW","Latitude":"41.16330","Longitude":"-74.45930","Snowdepth":"15.000","Units":"in","Rept_Date":"2021-02-07 11"},"coordinates":[5347,4002]},{"type":"Point","properties":{"Station_ID":"GTTI4","Station_Nam":"LOCK & DAM 10","Latitude":"42.78580","Longitude":"-91.09970","Snowdepth":"15.000","Units":"in","Rept_Date":"2021-02-07 14"},"coordinates":[1442,4923]},{"type":"Point","properties":{"Station_ID":"ENFV1","Station_Nam":"ENOSBURG FALLS 2","Latitude":"44.90960","Longitude":"-72.81370","Snowdepth":"15.000","Units":"in","Rept_Date":"2021-02-07 12"},"coordinates":[5733,6129]},{"type":"Point","properties":{"Station_ID":"EAHV1","Station_Nam":"EAST HAVEN","Latitude":"44.64250","Longitude":"-71.89120","Snowdepth":"15.000","Units":"in","Rept_Date":"2021-02-07 12"},"coordinates":[5949,5977]},{"type":"Point","properties":{"Station_ID":"DARW3","Station_Nam":"DARLINGTON","Latitude":"42.67780","Longitude":"-90.11860","Snowdepth":"15.000","Units":"in","Rept_Date":"2021-02-07 13"},"coordinates":[1672,4862]},{"type":"Point","properties":{"Station_ID":"CODN6","Station_Nam":"COLDEN","Latitude":"42.64720","Longitude":"-78.71110","Snowdepth":"15.000","Units":"in","Rept_Date":"2021-02-07 12"},"coordinates":[4349,4845]},{"type":"Point","properties":{"Station_ID":"CMKW3","Station_Nam":"CLAM LAKE 4W","Latitude":"46.16940","Longitude":"-90.98080","Snowdepth":"15.000","Units":"in","Rept_Date":"2021-02-07 13"},"coordinates":[1470,6844]},{"type":"Point","properties":{"Station_ID":"CAN-ON-118","Station_Nam":"DURHAM 1.4 S, CAN","Latitude":"44.16525","Longitude":"-80.82064","Snowdepth":"15.000","Units":"in","Rept_Date":"2021-02-07 12"},"coordinates":[3854,5706]},{"type":"Point","properties":{"Station_ID":"CAN-NB-18","Station_Nam":"MCLEOD HILL 1.1 ENE, CA","Latitude":"46.02725","Longitude":"-66.67460","Snowdepth":"15.000","Units":"in","Rept_Date":"2021-02-07 12"},"coordinates":[7174,6763]},{"type":"Point","properties":{"Station_ID":"BROW3","Station_Nam":"BRODHEAD,WI","Latitude":"42.61720","Longitude":"-89.38970","Snowdepth":"15.000","Units":"in","Rept_Date":"2021-02-07 13"},"coordinates":[1843,4828]},{"type":"Point","properties":{"Station_ID":"BETM1","Station_Nam":"BETHEL 6 SSE","Latitude":"44.32000","Longitude":"-70.75680","Snowdepth":"15.000","Units":"in","Rept_Date":"2021-02-07 12"},"coordinates":[6216,5794]},{"type":"Point","properties":{"Station_ID":"AVTW3","Station_Nam":"ARBOR VITAE-JOHNSON LAKE","Latitude":"45.89940","Longitude":"-89.72670","Snowdepth":"15.000","Units":"in","Rept_Date":"2021-02-07 12"},"coordinates":[1764,6691]},{"type":"Point","properties":{"Station_ID":"AUW","Station_Nam":"WAUSAU MUNICIPAL AIRPORT","Latitude":"44.92580","Longitude":"-89.62560","Snowdepth":"15.000","Units":"in","Rept_Date":"2021-02-08 00"},"coordinates":[1788,6138]},{"type":"Point","properties":{"Station_ID":"ATAN6","Station_Nam":"ATTICA 7 SW","Latitude":"42.81070","Longitude":"-78.39790","Snowdepth":"15.000","Units":"in","Rept_Date":"2021-02-07 11"},"coordinates":[4423,4937]},{"type":"Point","properties":{"Station_ID":"NY-OR-2","Station_Nam":"CORNWALL ON HUDSON 0.6 NNW, NY","Latitude":"41.44687","Longitude":"-74.02140","Snowdepth":"14.800","Units":"in","Rept_Date":"2021-02-07 22"},"coordinates":[5450,4163]},{"type":"Point","properties":{"Station_ID":"CAN-ON-791","Station_Nam":"METCALFE 4.4 NNW, CAN","Latitude":"45.27286","Longitude":"-75.48952","Snowdepth":"14.600","Units":"in","Rept_Date":"2021-02-07 11"},"coordinates":[5105,6335]},{"type":"Point","properties":{"Station_ID":"WI-ON-6","Station_Nam":"RHINELANDER 5.2 N, WI","Latitude":"45.71388","Longitude":"-89.42150","Snowdepth":"14.500","Units":"in","Rept_Date":"2021-02-07 14"},"coordinates":[1836,6585]},{"type":"Point","properties":{"Station_ID":"PA-NH-15","Station_Nam":"PORTLAND 2.7 WNW, PA","Latitude":"40.93750","Longitude":"-75.14450","Snowdepth":"14.500","Units":"in","Rept_Date":"2021-02-07 12"},"coordinates":[5186,3874]},{"type":"Point","properties":{"Station_ID":"NY-OT-11","Station_Nam":"HARTWICK, NY","Latitude":"42.65990","Longitude":"-75.05000","Snowdepth":"14.500","Units":"in","Rept_Date":"2021-02-07 15"},"coordinates":[5208,4852]},{"type":"Point","properties":{"Station_ID":"NJ-BG-23","Station_Nam":"OAKLAND 0.9 SSE, NJ","Latitude":"41.01905","Longitude":"-74.23340","Snowdepth":"14.500","Units":"in","Rept_Date":"2021-02-07 13"},"coordinates":[5400,3920]},{"type":"Point","properties":{"Station_ID":"NH-CR-27","Station_Nam":"TAMWORTH 0.4 NNW, NH","Latitude":"43.86449","Longitude":"-71.26610","Snowdepth":"14.500","Units":"in","Rept_Date":"2021-02-07 12"},"coordinates":[6096,5536]},{"type":"Point","properties":{"Station_ID":"MN-SL-108","Station_Nam":"IRON JUNCTION 3.4 NNW, MN","Latitude":"47.46150","Longitude":"-92.63130","Snowdepth":"14.500","Units":"in","Rept_Date":"2021-02-07 11"},"coordinates":[1083,7578]},{"type":"Point","properties":{"Station_ID":"MA-HS-2","Station_Nam":"WESTHAMPTON 1.8 SW, MA","Latitude":"42.27943","Longitude":"-72.78700","Snowdepth":"14.500","Units":"in","Rept_Date":"2021-02-07 13"},"coordinates":[5739,4636]},{"type":"Point","properties":{"Station_ID":"IL-DP-78","Station_Nam":"NAPERVILLE 2.4 SE, IL","Latitude":"41.74184","Longitude":"-88.11620","Snowdepth":"14.500","Units":"in","Rept_Date":"2021-02-07 13"},"coordinates":[2142,4331]},{"type":"Point","properties":{"Station_ID":"CAN-ON-491","Station_Nam":"MILVERTON 1.1 ESE- CANWARN, CAN","Latitude":"43.56074","Longitude":"-80.90887","Snowdepth":"14.500","Units":"in","Rept_Date":"2021-02-07 11"},"coordinates":[3833,5363]},{"type":"Point","properties":{"Station_ID":"QLP","Station_Nam":"QLP","Latitude":"48.13920","Longitude":"-72.63830","Snowdepth":"14.213","Units":"in","Rept_Date":"2021-02-07 12"},"coordinates":[5774,7962]},{"type":"Point","properties":{"Station_ID":"QLM","Station_Nam":"QLM","Latitude":"48.92030","Longitude":"-70.25280","Snowdepth":"14.134","Units":"in","Rept_Date":"2021-02-07 12"},"coordinates":[6334,8406]},{"type":"Point","properties":{"Station_ID":"QMD","Station_Nam":"QMD","Latitude":"49.29060","Longitude":"-75.84500","Snowdepth":"14.094","Units":"in","Rept_Date":"2021-02-07 12"},"coordinates":[5022,8616]},{"type":"Point","properties":{"Station_ID":"WTBW3","Station_Nam":"WEST BEND PUBLIC WORKS","Latitude":"43.41110","Longitude":"-88.19380","Snowdepth":"14.000","Units":"in","Rept_Date":"2021-02-07 13"},"coordinates":[2124,5278]},{"type":"Point","properties":{"Station_ID":"WSTW3","Station_Nam":"WEST BEND -FIRE","Latitude":"43.43138","Longitude":"-88.16111","Snowdepth":"14.000","Units":"in","Rept_Date":"2021-02-07 13"},"coordinates":[2132,5290]},{"type":"Point","properties":{"Station_ID":"WRSM5","Station_Nam":"WRENSHALL","Latitude":"46.61550","Longitude":"-92.38380","Snowdepth":"14.000","Units":"in","Rept_Date":"2021-02-07 14"},"coordinates":[1141,7097]},{"type":"Point","properties":{"Station_ID":"WODI2","Station_Nam":"WOODSTOCK","Latitude":"42.36280","Longitude":"-88.53140","Snowdepth":"14.000","Units":"in","Rept_Date":"2021-02-07 13"},"coordinates":[2045,4683]},{"type":"Point","properties":{"Station_ID":"WLNM4","Station_Nam":"WELLSTON 1N","Latitude":"44.22940","Longitude":"-85.95690","Snowdepth":"14.000","Units":"in","Rept_Date":"2021-02-07 12"},"coordinates":[2649,5743]},{"type":"Point","properties":{"Station_ID":"WI-WK-61","Station_Nam":"HARTLAND 5.0 NNE, WI","Latitude":"43.16351","Longitude":"-88.30400","Snowdepth":"14.000","Units":"in","Rept_Date":"2021-02-07 13"},"coordinates":[2098,5138]},{"type":"Point","properties":{"Station_ID":"WI-WH-7","Station_Nam":"WILD ROSE 0.5 E, WI","Latitude":"44.17764","Longitude":"-89.23812","Snowdepth":"14.000","Units":"in","Rept_Date":"2021-02-07 13"},"coordinates":[1879,5713]},{"type":"Point","properties":{"Station_ID":"WI-GL-4","Station_Nam":"GREEN LAKE 0.8 E, WI","Latitude":"43.84369","Longitude":"-88.94066","Snowdepth":"14.000","Units":"in","Rept_Date":"2021-02-07 13"},"coordinates":[1949,5524]},{"type":"Point","properties":{"Station_ID":"WI-DG-20","Station_Nam":"SOLON SPRINGS 1.2 W, WI","Latitude":"46.35217","Longitude":"-91.84405","Snowdepth":"14.000","Units":"in","Rept_Date":"2021-02-07 13"},"coordinates":[1267,6948]},{"type":"Point","properties":{"Station_ID":"WI-DA-87","Station_Nam":"DUNKIRK 0.1 NW, WI","Latitude":"42.88356","Longitude":"-89.21056","Snowdepth":"14.000","Units":"in","Rept_Date":"2021-02-07 12"},"coordinates":[1885,4979]},{"type":"Point","properties":{"Station_ID":"WI-DA-39","Station_Nam":"MADISON 4.0 W, WI","Latitude":"43.07741","Longitude":"-89.46757","Snowdepth":"14.000","Units":"in","Rept_Date":"2021-02-07 13"},"coordinates":[1825,5089]},{"type":"Point","properties":{"Station_ID":"VT-WR-16","Station_Nam":"HARTLAND 1.6 NW, VT","Latitude":"43.55472","Longitude":"-72.42371","Snowdepth":"14.000","Units":"in","Rept_Date":"2021-02-07 12"},"coordinates":[5825,5360]},{"type":"Point","properties":{"Station_ID":"VT-CL-14","Station_Nam":"LYNDONVILLE 1.1 W, VT","Latitude":"44.53582","Longitude":"-72.02867","Snowdepth":"14.000","Units":"in","Rept_Date":"2021-02-07 12"},"coordinates":[5917,5917]},{"type":"Point","properties":{"Station_ID":"VT-CH-38","Station_Nam":"WILLISTON 0.2 WSW, VT","Latitude":"44.43669","Longitude":"-73.07154","Snowdepth":"14.000","Units":"in","Rept_Date":"2021-02-07 12"},"coordinates":[5673,5860]},{"type":"Point","properties":{"Station_ID":"TMWN3","Station_Nam":"TAMWORTH 4","Latitude":"43.86390","Longitude":"-71.26610","Snowdepth":"14.000","Units":"in","Rept_Date":"2021-02-07 12"},"coordinates":[6096,5535]},{"type":"Point","properties":{"Station_ID":"TLDI4","Station_Nam":"TOLEDO,IA","Latitude":"41.98330","Longitude":"-92.58330","Snowdepth":"14.000","Units":"in","Rept_Date":"2021-02-07 13"},"coordinates":[1094,4468]},{"type":"Point","properties":{"Station_ID":"SUXN4","Station_Nam":"SUSSEX 1 NW","Latitude":"41.21840","Longitude":"-74.62070","Snowdepth":"14.000","Units":"in","Rept_Date":"2021-02-07 12"},"coordinates":[5309,4033]},{"type":"Point","properties":{"Station_ID":"SHHN6","Station_Nam":"SCHOHARIE VILLAGE","Latitude":"42.66500","Longitude":"-74.30360","Snowdepth":"14.000","Units":"in","Rept_Date":"2021-02-07 13"},"coordinates":[5383,4855]},{"type":"Point","properties":{"Station_ID":"SGVN6","Station_Nam":"SPRINGVILLE","Latitude":"42.54970","Longitude":"-78.57670","Snowdepth":"14.000","Units":"in","Rept_Date":"2021-02-07 22"},"coordinates":[4381,4789]},{"type":"Point","properties":{"Station_ID":"SAUW3","Station_Nam":"WAUSAU WSAW TV","Latitude":"44.94630","Longitude":"-89.62220","Snowdepth":"14.000","Units":"in","Rept_Date":"2021-02-08 05"},"coordinates":[1789,6150]},{"type":"Point","properties":{"Station_ID":"ROCW3","Station_Nam":"ROCHESTER WWTP","Latitude":"42.72690","Longitude":"-88.22580","Snowdepth":"14.000","Units":"in","Rept_Date":"2021-02-07 13"},"coordinates":[2116,4890]},{"type":"Point","properties":{"Station_ID":"RHI","Station_Nam":"RHINELANDER-ONEIDA COUNTY AIRPORT","Latitude":"45.63080","Longitude":"-89.46530","Snowdepth":"14.000","Units":"in","Rept_Date":"2021-02-08 00"},"coordinates":[1826,6538]},{"type":"Point","properties":{"Station_ID":"PA-CH-29","Station_Nam":"EAST NANTMEAL 1.0 SSW, PA","Latitude":"40.10925","Longitude":"-75.73350","Snowdepth":"14.000","Units":"in","Rept_Date":"2021-02-07 19"},"coordinates":[5048,3404]},{"type":"Point","properties":{"Station_ID":"NY-TM-5","Station_Nam":"FREEVILLE 1.5 NE, NY","Latitude":"42.52530","Longitude":"-76.32180","Snowdepth":"14.000","Units":"in","Rept_Date":"2021-02-07 12"},"coordinates":[4910,4775]},{"type":"Point","properties":{"Station_ID":"NY-TG-15","Station_Nam":"BERKSHIRE 1.9 ENE, NY","Latitude":"42.31910","Longitude":"-76.21940","Snowdepth":"14.000","Units":"in","Rept_Date":"2021-02-07 13"},"coordinates":[4934,4658]},{"type":"Point","properties":{"Station_ID":"NY-GN-6","Station_Nam":"STAFFORD 1.8 NE, NY","Latitude":"42.99890","Longitude":"-78.04830","Snowdepth":"14.000","Units":"in","Rept_Date":"2021-02-07 10"},"coordinates":[4505,5044]},{"type":"Point","properties":{"Station_ID":"NY-ER-194","Station_Nam":"GLENWOOD 1.0 SE, NY","Latitude":"42.60740","Longitude":"-78.64610","Snowdepth":"14.000","Units":"in","Rept_Date":"2021-02-07 12"},"coordinates":[4364,4822]},{"type":"Point","properties":{"Station_ID":"NY-CR-5","Station_Nam":"MARATHON 1.0 NW, NY","Latitude":"42.45161","Longitude":"-76.04370","Snowdepth":"14.000","Units":"in","Rept_Date":"2021-02-07 12"},"coordinates":[4975,4734]},{"type":"Point","properties":{"Station_ID":"NWSM1","Station_Nam":"NEW SHARON","Latitude":"44.63520","Longitude":"-70.00020","Snowdepth":"14.000","Units":"in","Rept_Date":"2021-02-07 12"},"coordinates":[6393,5973]},{"type":"Point","properties":{"Station_ID":"NVLV1","Station_Nam":"NASHVILLE","Latitude":"44.44970","Longitude":"-72.92640","Snowdepth":"14.000","Units":"in","Rept_Date":"2021-02-07 12"},"coordinates":[5707,5868]},{"type":"Point","properties":{"Station_ID":"NUMN3","Station_Nam":"NORTHUMBERLAND","Latitude":"44.52830","Longitude":"-71.50440","Snowdepth":"14.000","Units":"in","Rept_Date":"2021-02-07 13"},"coordinates":[6040,5912]},{"type":"Point","properties":{"Station_ID":"NJ-WR-42","Station_Nam":"KNOWLTON TWP 1.7 S, NJ","Latitude":"40.90560","Longitude":"-75.05880","Snowdepth":"14.000","Units":"in","Rept_Date":"2021-02-07 12"},"coordinates":[5206,3856]},{"type":"Point","properties":{"Station_ID":"NJ-MS-98","Station_Nam":"HARDING TWP 2.4 W, NJ","Latitude":"40.74165","Longitude":"-74.54592","Snowdepth":"14.000","Units":"in","Rept_Date":"2021-02-07 12"},"coordinates":[5327,3763]},{"type":"Point","properties":{"Station_ID":"NJ-MS-6","Station_Nam":"ROCKAWAY 0.4 NNW, NJ","Latitude":"40.90184","Longitude":"-74.51890","Snowdepth":"14.000","Units":"in","Rept_Date":"2021-02-07 13"},"coordinates":[5333,3854]},{"type":"Point","properties":{"Station_ID":"NJ-ES-31","Station_Nam":"MONTCLAIR 0.7 N, NJ","Latitude":"40.83534","Longitude":"-74.20896","Snowdepth":"14.000","Units":"in","Rept_Date":"2021-02-07 13"},"coordinates":[5406,3816]},{"type":"Point","properties":{"Station_ID":"NHPI4","Station_Nam":"NEW HAMPTON","Latitude":"43.05750","Longitude":"-92.31220","Snowdepth":"14.000","Units":"in","Rept_Date":"2021-02-07 14"},"coordinates":[1158,5078]},{"type":"Point","properties":{"Station_ID":"NCKN6","Station_Nam":"NORTH CREEK 5 SE","Latitude":"43.66110","Longitude":"-73.89690","Snowdepth":"14.000","Units":"in","Rept_Date":"2021-02-07 12"},"coordinates":[5479,5420]},{"type":"Point","properties":{"Station_ID":"MRBW3","Station_Nam":"MT HOREB","Latitude":"42.98030","Longitude":"-89.73940","Snowdepth":"14.000","Units":"in","Rept_Date":"2021-02-07 13"},"coordinates":[1761,5034]},{"type":"Point","properties":{"Station_ID":"MRAM5","Station_Nam":"MORA","Latitude":"45.87760","Longitude":"-93.31470","Snowdepth":"14.000","Units":"in","Rept_Date":"2021-02-07 13"},"coordinates":[922,6678]},{"type":"Point","properties":{"Station_ID":"MQRW3","Station_Nam":"MINOCQUA","Latitude":"45.88630","Longitude":"-89.73220","Snowdepth":"14.000","Units":"in","Rept_Date":"2021-02-07 12"},"coordinates":[1763,6683]},{"type":"Point","properties":{"Station_ID":"MN-KB-17","Station_Nam":"MORA 2.5 S, MN","Latitude":"45.84100","Longitude":"-93.29700","Snowdepth":"14.000","Units":"in","Rept_Date":"2021-02-07 13"},"coordinates":[926,6658]},{"type":"Point","properties":{"Station_ID":"MN-CK-18","Station_Nam":"GRAND MARAIS 4.4 WSW, MN","Latitude":"47.74462","Longitude":"-90.43796","Snowdepth":"14.000","Units":"in","Rept_Date":"2021-02-07 13"},"coordinates":[1597,7738]},{"type":"Point","properties":{"Station_ID":"MKE","Station_Nam":"GEN MITCHELL INTL AIRPORT","Latitude":"42.94720","Longitude":"-87.89670","Snowdepth":"14.000","Units":"in","Rept_Date":"2021-02-08 00"},"coordinates":[2194,5015]},{"type":"Point","properties":{"Station_ID":"MI-OT-4","Station_Nam":"GAYLORD 1.7 WNW, MI","Latitude":"45.03280","Longitude":"-84.71090","Snowdepth":"14.000","Units":"in","Rept_Date":"2021-02-07 13"},"coordinates":[2941,6199]},{"type":"Point","properties":{"Station_ID":"MI-OG-6","Station_Nam":"WEST BRANCH 2.1 SSW, MI","Latitude":"44.24814","Longitude":"-84.25089","Snowdepth":"14.000","Units":"in","Rept_Date":"2021-02-07 12"},"coordinates":[3049,5753]},{"type":"Point","properties":{"Station_ID":"MI-KN-43","Station_Nam":"CALEDONIA 4.4 WNW, MI","Latitude":"42.82526","Longitude":"-85.58940","Snowdepth":"14.000","Units":"in","Rept_Date":"2021-02-07 13"},"coordinates":[2735,4946]},{"type":"Point","properties":{"Station_ID":"MI-KN-33","Station_Nam":"GRAND RAPIDS 3.0 NW, MI","Latitude":"42.99502","Longitude":"-85.69218","Snowdepth":"14.000","Units":"in","Rept_Date":"2021-02-07 13"},"coordinates":[2711,5042]},{"type":"Point","properties":{"Station_ID":"MI-KN-14","Station_Nam":"GRANDVILLE 1.3 WSW, MI","Latitude":"42.89716","Longitude":"-85.77910","Snowdepth":"14.000","Units":"in","Rept_Date":"2021-02-07 12"},"coordinates":[2691,4986]},{"type":"Point","properties":{"Station_ID":"LEIM5","Station_Nam":"ORR 3E","Latitude":"48.05810","Longitude":"-92.75220","Snowdepth":"14.000","Units":"in","Rept_Date":"2021-02-07 12"},"coordinates":[1054,7916]},{"type":"Point","properties":{"Station_ID":"KMKE","Station_Nam":"GEN MITCHELL INTERNATIONAL  AIRPORT","Latitude":"42.95000","Longitude":"-87.90000","Snowdepth":"14.000","Units":"in","Rept_Date":"2021-02-08 06"},"coordinates":[2193,5016]},{"type":"Point","properties":{"Station_ID":"JEFN3","Station_Nam":"JEFFERSON","Latitude":"44.41690","Longitude":"-71.50080","Snowdepth":"14.000","Units":"in","Rept_Date":"2021-02-07 12"},"coordinates":[6041,5849]},{"type":"Point","properties":{"Station_ID":"ISLV1","Station_Nam":"ISLAND POND","Latitude":"44.81280","Longitude":"-71.89020","Snowdepth":"14.000","Units":"in","Rept_Date":"2021-02-07 14"},"coordinates":[5950,6074]},{"type":"Point","properties":{"Station_ID":"IL-WL-131","Station_Nam":"HOMER GLEN 0.7 NNE, IL","Latitude":"41.60842","Longitude":"-87.93270","Snowdepth":"14.000","Units":"in","Rept_Date":"2021-02-07 12"},"coordinates":[2185,4255]},{"type":"Point","properties":{"Station_ID":"IL-MCH-43","Station_Nam":"ALGONQUIN 0.7 N, IL","Latitude":"42.17392","Longitude":"-88.29930","Snowdepth":"14.000","Units":"in","Rept_Date":"2021-02-07 12"},"coordinates":[2099,4576]},{"type":"Point","properties":{"Station_ID":"IL-DP-87","Station_Nam":"ROSELLE 1.2 ESE, IL","Latitude":"41.97664","Longitude":"-88.05980","Snowdepth":"14.000","Units":"in","Rept_Date":"2021-02-07 15"},"coordinates":[2155,4464]},{"type":"Point","properties":{"Station_ID":"IA-ST-3","Station_Nam":"PARK VIEW 0.2 WSW, IA","Latitude":"41.68855","Longitude":"-90.54380","Snowdepth":"14.000","Units":"in","Rept_Date":"2021-02-07 13"},"coordinates":[1573,4300]},{"type":"Point","properties":{"Station_ID":"IA-BT-12","Station_Nam":"FAIRFAX 4.0 NW, IA","Latitude":"41.96223","Longitude":"-91.83675","Snowdepth":"14.000","Units":"in","Rept_Date":"2021-02-07 13"},"coordinates":[1269,4456]},{"type":"Point","properties":{"Station_ID":"GPDM4","Station_Nam":"44TH STREET","Latitude":"42.90000","Longitude":"-85.76670","Snowdepth":"14.000","Units":"in","Rept_Date":"2021-02-07 12"},"coordinates":[2694,4988]},{"type":"Point","properties":{"Station_ID":"GLEI2","Station_Nam":"GLEN ELLYN 4S","Latitude":"41.82670","Longitude":"-88.05810","Snowdepth":"14.000","Units":"in","Rept_Date":"2021-02-07 17"},"coordinates":[2156,4379]},{"type":"Point","properties":{"Station_ID":"GAYM4","Station_Nam":"GAYLORD","Latitude":"45.03320","Longitude":"-84.71130","Snowdepth":"14.000","Units":"in","Rept_Date":"2021-02-07 13"},"coordinates":[2941,6199]},{"type":"Point","properties":{"Station_ID":"FLDM5","Station_Nam":"FLOODWOOD,MN","Latitude":"47.00000","Longitude":"-92.91670","Snowdepth":"14.000","Units":"in","Rept_Date":"2021-02-07 14"},"coordinates":[1016,7316]},{"type":"Point","properties":{"Station_ID":"FLAM4","Station_Nam":"FIFE LAKE 2WNW","Latitude":"44.58480","Longitude":"-85.36530","Snowdepth":"14.000","Units":"in","Rept_Date":"2021-02-07 12"},"coordinates":[2788,5945]},{"type":"Point","properties":{"Station_ID":"ELYM5","Station_Nam":"ELY","Latitude":"47.90560","Longitude":"-91.82830","Snowdepth":"14.000","Units":"in","Rept_Date":"2021-02-07 14"},"coordinates":[1271,7830]},{"type":"Point","properties":{"Station_ID":"EKRI4","Station_Nam":"ELKADER 6SSW","Latitude":"42.77540","Longitude":"-91.45370","Snowdepth":"14.000","Units":"in","Rept_Date":"2021-02-07 13"},"coordinates":[1359,4917]},{"type":"Point","properties":{"Station_ID":"DLNW3","Station_Nam":"WALWORTH COUNTYMETROPOLITAN SEWERAGE DISTRICT (DELEVAN)","Latitude":"42.63440","Longitude":"-88.66280","Snowdepth":"14.000","Units":"in","Rept_Date":"2021-02-07 12"},"coordinates":[2014,4837]},{"type":"Point","properties":{"Station_ID":"CRPI4","Station_Nam":"CEDAR RAPIDS NO 1","Latitude":"42.05000","Longitude":"-91.58810","Snowdepth":"14.000","Units":"in","Rept_Date":"2021-02-07 23"},"coordinates":[1327,4506]},{"type":"Point","properties":{"Station_ID":"COVP1","Station_Nam":"COVINGTON 2WSW","Latitude":"41.73330","Longitude":"-77.11670","Snowdepth":"14.000","Units":"in","Rept_Date":"2021-02-07 12"},"coordinates":[4723,4326]},{"type":"Point","properties":{"Station_ID":"CORV1","Station_Nam":"CORINTH","Latitude":"44.00690","Longitude":"-72.31940","Snowdepth":"14.000","Units":"in","Rept_Date":"2021-02-07 12"},"coordinates":[5849,5616]},{"type":"Point","properties":{"Station_ID":"COBN6","Station_Nam":"COBLESKILL 2ESE","Latitude":"42.66710","Longitude":"-74.44230","Snowdepth":"14.000","Units":"in","Rept_Date":"2021-02-07 13"},"coordinates":[5351,4856]},{"type":"Point","properties":{"Station_ID":"CNDP1","Station_Nam":"CANADENSIS","Latitude":"41.18980","Longitude":"-75.23830","Snowdepth":"14.000","Units":"in","Rept_Date":"2021-02-07 12"},"coordinates":[5164,4017]},{"type":"Point","properties":{"Station_ID":"CHRM4","Station_Nam":"CHARLEVOIX","Latitude":"45.31720","Longitude":"-85.26720","Snowdepth":"14.000","Units":"in","Rept_Date":"2021-02-07 13"},"coordinates":[2811,6360]},{"type":"Point","properties":{"Station_ID":"BNDM5","Station_Nam":"ELY 25E","Latitude":"47.97190","Longitude":"-91.44860","Snowdepth":"14.000","Units":"in","Rept_Date":"2021-02-07 13"},"coordinates":[1360,7867]},{"type":"Point","properties":{"Station_ID":"BCNI4","Station_Nam":"BEACONSFIELD,IA","Latitude":"40.82360","Longitude":"-94.04390","Snowdepth":"14.000","Units":"in","Rept_Date":"2021-02-07 13"},"coordinates":[751,3809]},{"type":"Point","properties":{"Station_ID":"BABM5","Station_Nam":"BABBITT","Latitude":"47.71210","Longitude":"-91.95330","Snowdepth":"14.000","Units":"in","Rept_Date":"2021-02-07 13"},"coordinates":[1242,7720]},{"type":"Point","properties":{"Station_ID":"AUBN6","Station_Nam":"AUBURN","Latitude":"42.93270","Longitude":"-76.54470","Snowdepth":"14.000","Units":"in","Rept_Date":"2021-02-07 12"},"coordinates":[4858,5007]},{"type":"Point","properties":{"Station_ID":"ARX","Station_Nam":"LA CROSSE, WI","Latitude":"43.82280","Longitude":"-91.19190","Snowdepth":"14.000","Units":"in","Rept_Date":"2021-02-08 06"},"coordinates":[1420,5512]},{"type":"Point","properties":{"Station_ID":"AMDW3","Station_Nam":"ALMOND-5 NE","Latitude":"44.30830","Longitude":"-89.34640","Snowdepth":"14.000","Units":"in","Rept_Date":"2021-02-07 14"},"coordinates":[1854,5788]},{"type":"Point","properties":{"Station_ID":"42.1284_079.8945","Station_Nam":"NORTHEAST 6SW (CLE0249)","Latitude":"42.12840","Longitude":"-79.89450","Snowdepth":"14.000","Units":"in","Rept_Date":"2021-02-07 23"},"coordinates":[4071,4550]},{"type":"Point","properties":{"Station_ID":"CAN-NB-105","Station_Nam":"SISSON BROOK 3.8 E, CAN","Latitude":"46.98305","Longitude":"-67.32532","Snowdepth":"13.800","Units":"in","Rept_Date":"2021-02-07 12"},"coordinates":[7021,7306]},{"type":"Point","properties":{"Station_ID":"IL-CK-50","Station_Nam":"PALOS PARK 1.3 SW, IL","Latitude":"41.65281","Longitude":"-87.86310","Snowdepth":"13.700","Units":"in","Rept_Date":"2021-02-07 12"},"coordinates":[2202,4280]},{"type":"Point","properties":{"Station_ID":"QLI","Station_Nam":"QLI","Latitude":"50.27080","Longitude":"-73.92280","Snowdepth":"13.661","Units":"in","Rept_Date":"2021-02-07 12"},"coordinates":[5473,9172]},{"type":"Point","properties":{"Station_ID":"QIQ","Station_Nam":"QIQ","Latitude":"49.82390","Longitude":"-68.54310","Snowdepth":"13.543","Units":"in","Rept_Date":"2021-02-07 12"},"coordinates":[6735,8919]},{"type":"Point","properties":{"Station_ID":"QGD","Station_Nam":"QGD","Latitude":"51.11140","Longitude":"-67.13940","Snowdepth":"13.504","Units":"in","Rept_Date":"2021-02-07 12"},"coordinates":[7065,9650]},{"type":"Point","properties":{"Station_ID":"WI-WS-5","Station_Nam":"JACKSON 0.2 WSW, WI","Latitude":"43.32007","Longitude":"-88.16820","Snowdepth":"13.500","Units":"in","Rept_Date":"2021-02-07 12"},"coordinates":[2130,5227]},{"type":"Point","properties":{"Station_ID":"WI-TY-3","Station_Nam":"MEDFORD 0.8 ENE, WI","Latitude":"45.14421","Longitude":"-90.33349","Snowdepth":"13.500","Units":"in","Rept_Date":"2021-02-07 14"},"coordinates":[1622,6262]},{"type":"Point","properties":{"Station_ID":"WI-PR-8","Station_Nam":"PHILLIPS 0.4 SSW, WI","Latitude":"45.69086","Longitude":"-90.40200","Snowdepth":"13.500","Units":"in","Rept_Date":"2021-02-07 13"},"coordinates":[1606,6572]},{"type":"Point","properties":{"Station_ID":"WI-JF-17","Station_Nam":"JOHNSON CREEK 2.7 SSW, WI","Latitude":"43.04559","Longitude":"-88.79925","Snowdepth":"13.500","Units":"in","Rept_Date":"2021-02-07 13"},"coordinates":[1982,5071]},{"type":"Point","properties":{"Station_ID":"WI-CK-3","Station_Nam":"COLBY 5.9 WSW, WI","Latitude":"44.87209","Longitude":"-90.42463","Snowdepth":"13.500","Units":"in","Rept_Date":"2021-02-08 01"},"coordinates":[1600,6108]},{"type":"Point","properties":{"Station_ID":"VT-OL-24","Station_Nam":"DERBY LINE 1.9 W, VT","Latitude":"45.00454","Longitude":"-72.14170","Snowdepth":"13.500","Units":"in","Rept_Date":"2021-02-07 12"},"coordinates":[5891,6183]},{"type":"Point","properties":{"Station_ID":"NY-ER-96","Station_Nam":"ELMA 2.7 WSW, NY","Latitude":"42.81004","Longitude":"-78.68130","Snowdepth":"13.500","Units":"in","Rept_Date":"2021-02-07 13"},"coordinates":[4356,4937]},{"type":"Point","properties":{"Station_ID":"NJ-PS-14","Station_Nam":"HAWTHORNE 1.0 SSE, NJ","Latitude":"40.94364","Longitude":"-74.15230","Snowdepth":"13.500","Units":"in","Rept_Date":"2021-02-07 12"},"coordinates":[5419,3877]},{"type":"Point","properties":{"Station_ID":"NJ-MS-71","Station_Nam":"DENVILLE TWP 1.5 ESE, NJ","Latitude":"40.88053","Longitude":"-74.46310","Snowdepth":"13.500","Units":"in","Rept_Date":"2021-02-07 12"},"coordinates":[5346,3842]},{"type":"Point","properties":{"Station_ID":"MN-AA-76","Station_Nam":"NOWTHEN 2.9 SSE, MN","Latitude":"45.30360","Longitude":"-93.42620","Snowdepth":"13.500","Units":"in","Rept_Date":"2021-02-07 13"},"coordinates":[896,6353]},{"type":"Point","properties":{"Station_ID":"MI-MG-13","Station_Nam":"MUSKEGON 3.5 SSE, MI","Latitude":"43.17913","Longitude":"-86.23640","Snowdepth":"13.500","Units":"in","Rept_Date":"2021-02-07 15"},"coordinates":[2583,5147]},{"type":"Point","properties":{"Station_ID":"MI-KN-32","Station_Nam":"GRAND RAPIDS 2.9 NW, MI","Latitude":"42.99191","Longitude":"-85.69440","Snowdepth":"13.500","Units":"in","Rept_Date":"2021-02-07 12"},"coordinates":[2710,5040]},{"type":"Point","properties":{"Station_ID":"MA-WR-56","Station_Nam":"STERLING 4.3 NW, MA","Latitude":"42.47540","Longitude":"-71.81140","Snowdepth":"13.500","Units":"in","Rept_Date":"2021-02-07 12"},"coordinates":[5968,4747]},{"type":"Point","properties":{"Station_ID":"IL-LK-81","Station_Nam":"LAKE VILLA 2.3 WSW, IL","Latitude":"42.40532","Longitude":"-88.12380","Snowdepth":"13.500","Units":"in","Rept_Date":"2021-02-07 13"},"coordinates":[2140,4707]},{"type":"Point","properties":{"Station_ID":"IL-CK-285","Station_Nam":"HARWOOD HEIGHTS 0.4 NNE, IL","Latitude":"41.97154","Longitude":"-87.80325","Snowdepth":"13.500","Units":"in","Rept_Date":"2021-02-07 13"},"coordinates":[2216,4461]},{"type":"Point","properties":{"Station_ID":"IL-CK-180","Station_Nam":"PARK RIDGE 0.5 SSW, IL","Latitude":"42.00443","Longitude":"-87.84600","Snowdepth":"13.500","Units":"in","Rept_Date":"2021-02-07 13"},"coordinates":[2206,4480]},{"type":"Point","properties":{"Station_ID":"IA-CT-8","Station_Nam":"ELKADER 6.8 WSW, IA","Latitude":"42.81136","Longitude":"-91.52332","Snowdepth":"13.500","Units":"in","Rept_Date":"2021-02-07 14"},"coordinates":[1343,4938]},{"type":"Point","properties":{"Station_ID":"WLKW3","Station_Nam":"WHITE LAKE 1 SE","Latitude":"45.14520","Longitude":"-88.74160","Snowdepth":"13.000","Units":"in","Rept_Date":"2021-02-07 14"},"coordinates":[1995,6263]},{"type":"Point","properties":{"Station_ID":"WLDM5","Station_Nam":"WILD RIVER STATE PARK","Latitude":"45.52310","Longitude":"-92.74890","Snowdepth":"13.000","Units":"in","Rept_Date":"2021-02-07 14"},"coordinates":[1055,6477]},{"type":"Point","properties":{"Station_ID":"WI-WK-29","Station_Nam":"OCONOMOWOC 4.6 NE, WI","Latitude":"43.14621","Longitude":"-88.42860","Snowdepth":"13.000","Units":"in","Rept_Date":"2021-02-07 15"},"coordinates":[2069,5128]},{"type":"Point","properties":{"Station_ID":"WI-OZ-17","Station_Nam":"WEST BEND 7.3 E, WI","Latitude":"43.42860","Longitude":"-88.03870","Snowdepth":"13.000","Units":"in","Rept_Date":"2021-02-07 13"},"coordinates":[2160,5288]},{"type":"Point","properties":{"Station_ID":"WI-MN-9","Station_Nam":"WARRENS 4.7 WSW, WI","Latitude":"44.10386","Longitude":"-90.58884","Snowdepth":"13.000","Units":"in","Rept_Date":"2021-02-07 14"},"coordinates":[1562,5672]},{"type":"Point","properties":{"Station_ID":"WI-DA-13","Station_Nam":"MADISON 3.7 WSW, WI","Latitude":"43.06230","Longitude":"-89.45650","Snowdepth":"13.000","Units":"in","Rept_Date":"2021-02-07 13"},"coordinates":[1828,5080]},{"type":"Point","properties":{"Station_ID":"VT-AD-28","Station_Nam":"MONKTON 1.5 NE, VT","Latitude":"44.26760","Longitude":"-73.09940","Snowdepth":"13.000","Units":"in","Rept_Date":"2021-02-07 13"},"coordinates":[5666,5764]},{"type":"Point","properties":{"Station_ID":"SULW3","Station_Nam":"SUMMIT LAKE","Latitude":"45.37880","Longitude":"-89.19410","Snowdepth":"13.000","Units":"in","Rept_Date":"2021-02-07 11"},"coordinates":[1889,6395]},{"type":"Point","properties":{"Station_ID":"STEM4","Station_Nam":"STEUBEN","Latitude":"46.18530","Longitude":"-86.46410","Snowdepth":"13.000","Units":"in","Rept_Date":"2021-02-07 14"},"coordinates":[2530,6853]},{"type":"Point","properties":{"Station_ID":"SHIW3","Station_Nam":"SHIOCTON","Latitude":"44.43890","Longitude":"-88.58390","Snowdepth":"13.000","Units":"in","Rept_Date":"2021-02-07 14"},"coordinates":[2032,5862]},{"type":"Point","properties":{"Station_ID":"SAVW3","Station_Nam":"SAUKVILLE WWTP","Latitude":"43.37470","Longitude":"-87.93940","Snowdepth":"13.000","Units":"in","Rept_Date":"2021-02-07 12"},"coordinates":[2184,5258]},{"type":"Point","properties":{"Station_ID":"RGLN4","Station_Nam":"REIGELSVILLE","Latitude":"40.59450","Longitude":"-75.18970","Snowdepth":"13.000","Units":"in","Rept_Date":"2021-02-07 12"},"coordinates":[5175,3679]},{"type":"Point","properties":{"Station_ID":"RFDM4","Station_Nam":"ROCKFORD","Latitude":"43.11580","Longitude":"-85.56410","Snowdepth":"13.000","Units":"in","Rept_Date":"2021-02-07 12"},"coordinates":[2741,5111]},{"type":"Point","properties":{"Station_ID":"PLFV1","Station_Nam":"PLAINFIELD","Latitude":"44.27610","Longitude":"-72.41500","Snowdepth":"13.000","Units":"in","Rept_Date":"2021-02-07 12"},"coordinates":[5827,5769]},{"type":"Point","properties":{"Station_ID":"PLBN6","Station_Nam":"PLATTSBURGH COOP","Latitude":"44.69180","Longitude":"-73.45560","Snowdepth":"13.000","Units":"in","Rept_Date":"2021-02-07 14"},"coordinates":[5582,6005]},{"type":"Point","properties":{"Station_ID":"PEOI2","Station_Nam":"PEOTONE,IL","Latitude":"41.33330","Longitude":"-87.80000","Snowdepth":"13.000","Units":"in","Rept_Date":"2021-02-07 13"},"coordinates":[2216,4099]},{"type":"Point","properties":{"Station_ID":"PA-BR-41","Station_Nam":"FLEETWOOD 4.8 ESE, PA","Latitude":"40.42150","Longitude":"-75.74132","Snowdepth":"13.000","Units":"in","Rept_Date":"2021-02-07 12"},"coordinates":[5046,3581]},{"type":"Point","properties":{"Station_ID":"NY-TM-3","Station_Nam":"ITHACA 1.1 SE, NY","Latitude":"42.43173","Longitude":"-76.48860","Snowdepth":"13.000","Units":"in","Rept_Date":"2021-02-07 12"},"coordinates":[4871,4722]},{"type":"Point","properties":{"Station_ID":"NY-TG-5","Station_Nam":"BERKSHIRE 2.0 N, NY","Latitude":"42.33463","Longitude":"-76.18990","Snowdepth":"13.000","Units":"in","Rept_Date":"2021-02-07 13"},"coordinates":[4941,4667]},{"type":"Point","properties":{"Station_ID":"NY-PT-2","Station_Nam":"BEACON 4.2 ESE, NY","Latitude":"41.48070","Longitude":"-73.89110","Snowdepth":"13.000","Units":"in","Rept_Date":"2021-02-07 12"},"coordinates":[5480,4182]},{"type":"Point","properties":{"Station_ID":"NY-OR-19","Station_Nam":"GREENWOOD LAKE 3.0 SW, NY","Latitude":"41.18900","Longitude":"-74.32650","Snowdepth":"13.000","Units":"in","Rept_Date":"2021-02-07 13"},"coordinates":[5378,4017]},{"type":"Point","properties":{"Station_ID":"NY-DL-32","Station_Nam":"DELHI 6.6 WNW, NY","Latitude":"42.32118","Longitude":"-75.02991","Snowdepth":"13.000","Units":"in","Rept_Date":"2021-02-07 12"},"coordinates":[5213,4660]},{"type":"Point","properties":{"Station_ID":"NY-DL-25","Station_Nam":"HOBART 4.8 ESE, NY","Latitude":"42.35230","Longitude":"-74.57830","Snowdepth":"13.000","Units":"in","Rept_Date":"2021-02-07 12"},"coordinates":[5319,4677]},{"type":"Point","properties":{"Station_ID":"NY-DL-23","Station_Nam":"LONG EDDY 6.5 NNE, NY","Latitude":"41.93510","Longitude":"-75.07840","Snowdepth":"13.000","Units":"in","Rept_Date":"2021-02-07 13"},"coordinates":[5202,4440]},{"type":"Point","properties":{"Station_ID":"NY-CY-8","Station_Nam":"AUBURN 8.3 SSE, NY","Latitude":"42.82869","Longitude":"-76.48670","Snowdepth":"13.000","Units":"in","Rept_Date":"2021-02-07 12"},"coordinates":[4871,4948]},{"type":"Point","properties":{"Station_ID":"NY-CY-31","Station_Nam":"SCIPIO CENTER 3.0 S, NY","Latitude":"42.74002","Longitude":"-76.55682","Snowdepth":"13.000","Units":"in","Rept_Date":"2021-02-07 12"},"coordinates":[4855,4897]},{"type":"Point","properties":{"Station_ID":"NJ-MS-42","Station_Nam":"RANDOLPH TWP 2.0 E, NJ","Latitude":"40.83980","Longitude":"-74.54320","Snowdepth":"13.000","Units":"in","Rept_Date":"2021-02-07 12"},"coordinates":[5327,3819]},