{"type":"Topology","objects":{"snowdepth_geo":{"type":"GeometryCollection","name":"snowdepth","crs":{"type":"name","properties":{"name":"urn:ogc:def:crs:OGC:1.3:CRS84"}},"geometries":[{"type":"Point","properties":{"Station_ID":"PRKM4","Station_Nam":"MUNISING EAST","Latitude":"46.42580","Longitude":"-86.62000","Snowdepth":"76.500","Units":"in","Rept_Date":"2020-03-05 06"},"coordinates":[2492,6022]},{"type":"Point","properties":{"Station_ID":"MMNV1","Station_Nam":"MT. MANSFIELD","Latitude":"44.52480","Longitude":"-72.81540","Snowdepth":"69.000","Units":"in","Rept_Date":"2020-03-04 21"},"coordinates":[5732,4596]},{"type":"Point","properties":{"Station_ID":"HTLN3","Station_Nam":"HERMIT LAKE SNOWPLOT","Latitude":"44.26130","Longitude":"-71.28330","Snowdepth":"66.000","Units":"in","Rept_Date":"2020-03-04 10"},"coordinates":[6092,4398]},{"type":"Point","properties":{"Station_ID":"OGIQ6","Station_Nam":"OGOKI CAMP","Latitude":"50.76680","Longitude":"-87.85820","Snowdepth":"61.100","Units":"in","Rept_Date":"2020-03-05 06"},"coordinates":[2202,9279]},{"type":"Point","properties":{"Station_ID":"HVCN3","Station_Nam":"HARVARD CABIN SNOWPLOT","Latitude":"44.26630","Longitude":"-71.27790","Snowdepth":"55.000","Units":"in","Rept_Date":"2020-03-04 10"},"coordinates":[6093,4402]},{"type":"Point","properties":{"Station_ID":"AUDQ6","Station_Nam":"AUDEN","Latitude":"48.52600","Longitude":"-82.57570","Snowdepth":"47.640","Units":"in","Rept_Date":"2020-03-05 06"},"coordinates":[3441,7598]},{"type":"Point","properties":{"Station_ID":"PDLM4","Station_Nam":"PAINESDALE","Latitude":"47.04160","Longitude":"-88.67170","Snowdepth":"46.000","Units":"in","Rept_Date":"2020-03-04 13"},"coordinates":[2011,6484]},{"type":"Point","properties":{"Station_ID":"CLUM4","Station_Nam":"CALUMET-TAMARACK","Latitude":"47.24550","Longitude":"-88.46790","Snowdepth":"46.000","Units":"in","Rept_Date":"2020-03-04 14"},"coordinates":[2058,6637]},{"type":"Point","properties":{"Station_ID":"GMSM4","Station_Nam":"GRAND MARAIS 10S","Latitude":"46.50940","Longitude":"-85.96310","Snowdepth":"44.000","Units":"in","Rept_Date":"2020-03-04 12"},"coordinates":[2646,6085]},{"type":"Point","properties":{"Station_ID":"QWE","Station_Nam":"QWE","Latitude":"47.84610","Longitude":"-73.80670","Snowdepth":"43.819","Units":"in","Rept_Date":"2020-03-04 12"},"coordinates":[5499,7088]},{"type":"Point","properties":{"Station_ID":"DVLQ6","Station_Nam":"DEVIOUS LAKE","Latitude":"49.19890","Longitude":"-87.76440","Snowdepth":"43.460","Units":"in","Rept_Date":"2020-03-05 06"},"coordinates":[2224,8102]},{"type":"Point","properties":{"Station_ID":"MN76ACVS","Station_Nam":"GRAND MARAIS 3.0 WNW","Latitude":"47.76602","Longitude":"-90.26427","Snowdepth":"43.000","Units":"in","Rept_Date":"2020-03-04 13"},"coordinates":[1637,7027]},{"type":"Point","properties":{"Station_ID":"QGO","Station_Nam":"QGO","Latitude":"48.85500","Longitude":"-74.20640","Snowdepth":"41.220","Units":"in","Rept_Date":"2020-03-04 12"},"coordinates":[5405,7844]},{"type":"Point","properties":{"Station_ID":"QCU","Station_Nam":"QCU","Latitude":"47.82750","Longitude":"-76.59830","Snowdepth":"39.094","Units":"in","Rept_Date":"2020-03-04 12"},"coordinates":[4844,7074]},{"type":"Point","properties":{"Station_ID":"QOU","Station_Nam":"QOU","Latitude":"50.79250","Longitude":"-69.67470","Snowdepth":"37.638","Units":"in","Rept_Date":"2020-03-04 12"},"coordinates":[6469,9298]},{"type":"Point","properties":{"Station_ID":"QGD","Station_Nam":"QGD","Latitude":"51.11140","Longitude":"-67.13940","Snowdepth":"36.457","Units":"in","Rept_Date":"2020-03-04 12"},"coordinates":[7064,9537]},{"type":"Point","properties":{"Station_ID":"WLFM5","Station_Nam":"WOLF RIDGE ENVIRON LEARNING CENTER","Latitude":"47.38240","Longitude":"-91.19730","Snowdepth":"35.000","Units":"in","Rept_Date":"2020-03-04 13"},"coordinates":[1418,6740]},{"type":"Point","properties":{"Station_ID":"NWCM4","Station_Nam":"NEWBERRY CITY","Latitude":"46.35720","Longitude":"-85.51780","Snowdepth":"35.000","Units":"in","Rept_Date":"2020-03-04 12"},"coordinates":[2751,5970]},{"type":"Point","properties":{"Station_ID":"KSGM4","Station_Nam":"KEARSARGE","Latitude":"47.27520","Longitude":"-88.41700","Snowdepth":"35.000","Units":"in","Rept_Date":"2020-03-04 13"},"coordinates":[2070,6659]},{"type":"Point","properties":{"Station_ID":"MLZ","Station_Nam":"MLZ","Latitude":"50.66170","Longitude":"-68.82360","Snowdepth":"34.921","Units":"in","Rept_Date":"2020-03-04 12"},"coordinates":[6669,9200]},{"type":"Point","properties":{"Station_ID":"CAN-NL-82","Station_Nam":"GANDER 2.7 NW, CAN","Latitude":"48.97737","Longitude":"-54.63396","Snowdepth":"34.300","Units":"in","Rept_Date":"2020-03-04 10"},"coordinates":[9999,7936]},{"type":"Point","properties":{"Station_ID":"MNSM4","Station_Nam":"MUNISING","Latitude":"46.41210","Longitude":"-86.66250","Snowdepth":"34.000","Units":"in","Rept_Date":"2020-03-04 11"},"coordinates":[2482,6012]},{"type":"Point","properties":{"Station_ID":"QLB","Station_Nam":"QLB","Latitude":"50.72360","Longitude":"-75.10000","Snowdepth":"33.386","Units":"in","Rept_Date":"2020-03-04 12"},"coordinates":[5196,9246]},{"type":"Point","properties":{"Station_ID":"QGA","Station_Nam":"QGA","Latitude":"47.25640","Longitude":"-73.73810","Snowdepth":"33.071","Units":"in","Rept_Date":"2020-03-04 12"},"coordinates":[5515,6645]},{"type":"Point","properties":{"Station_ID":"NH-CS-10","Station_Nam":"RANDOLPH 1.4 NE, NH","Latitude":"44.38824","Longitude":"-71.26950","Snowdepth":"32.500","Units":"in","Rept_Date":"2020-03-04 12"},"coordinates":[6095,4493]},{"type":"Point","properties":{"Station_ID":"QNCM4","Station_Nam":"QUINCY HILL","Latitude":"47.13640","Longitude":"-88.57950","Snowdepth":"32.000","Units":"in","Rept_Date":"2020-03-04 12"},"coordinates":[2032,6555]},{"type":"Point","properties":{"Station_ID":"MQT","Station_Nam":"MARQUETTE, MI","Latitude":"46.53140","Longitude":"-87.54920","Snowdepth":"32.000","Units":"in","Rept_Date":"2020-03-05 06"},"coordinates":[2274,6101]},{"type":"Point","properties":{"Station_ID":"CAN-NB-11","Station_Nam":"MIRAMICHI 3.3 S, CAN","Latitude":"46.99343","Longitude":"-65.50690","Snowdepth":"32.000","Units":"in","Rept_Date":"2020-03-04 11"},"coordinates":[7447,6448]},{"type":"Point","properties":{"Station_ID":"CAN-QC-47","Station_Nam":"SAINTE-FOY 1.8 ENE, CAN","Latitude":"46.76934","Longitude":"-71.27124","Snowdepth":"31.900","Units":"in","Rept_Date":"2020-03-04 12"},"coordinates":[6094,6280]},{"type":"Point","properties":{"Station_ID":"MI-BG-3","Station_Nam":"L'ANSE 17.8 SE, MI","Latitude":"46.55730","Longitude":"-88.20770","Snowdepth":"31.500","Units":"in","Rept_Date":"2020-03-04 13"},"coordinates":[2119,6121]},{"type":"Point","properties":{"Station_ID":"ME-AR-18","Station_Nam":"NEW SWEDEN 4.9 NNW, ME","Latitude":"47.01080","Longitude":"-68.14390","Snowdepth":"31.000","Units":"in","Rept_Date":"2020-03-04 12"},"coordinates":[6828,6461]},{"type":"Point","properties":{"Station_ID":"CAN-NL-65","Station_Nam":"KIPPENS 0.7 NE, CA","Latitude":"48.55436","Longitude":"-58.61850","Snowdepth":"30.500","Units":"in","Rept_Date":"2020-03-04 11"},"coordinates":[9064,7619]},{"type":"Point","properties":{"Station_ID":"ME-AR-23","Station_Nam":"MADAWASKA 2.5 E, ME","Latitude":"47.34933","Longitude":"-68.28141","Snowdepth":"30.000","Units":"in","Rept_Date":"2020-03-04 12"},"coordinates":[6796,6715]},{"type":"Point","properties":{"Station_ID":"IBLM5","Station_Nam":"ISABELLA 14W","Latitude":"47.59360","Longitude":"-91.65140","Snowdepth":"30.000","Units":"in","Rept_Date":"2020-03-04 15"},"coordinates":[1311,6898]},{"type":"Point","properties":{"Station_ID":"BRAM1","Station_Nam":"BRASSUA DAM","Latitude":"45.66020","Longitude":"-69.81190","Snowdepth":"30.000","Units":"in","Rept_Date":"2020-03-04 12"},"coordinates":[6437,5448]},{"type":"Point","properties":{"Station_ID":"QFT","Station_Nam":"QFT","Latitude":"50.83280","Longitude":"-74.40390","Snowdepth":"29.764","Units":"in","Rept_Date":"2020-03-04 12"},"coordinates":[5359,9328]},{"type":"Point","properties":{"Station_ID":"QLP","Station_Nam":"QLP","Latitude":"48.13920","Longitude":"-72.63830","Snowdepth":"29.291","Units":"in","Rept_Date":"2020-03-04 12"},"coordinates":[5774,7307]},{"type":"Point","properties":{"Station_ID":"RKWM1","Station_Nam":"MOOSEHEAD LAKE","Latitude":"45.58330","Longitude":"-69.71670","Snowdepth":"29.000","Units":"in","Rept_Date":"2020-03-04 12"},"coordinates":[6459,5390]},{"type":"Point","properties":{"Station_ID":"QTV","Station_Nam":"QTV","Latitude":"49.66000","Longitude":"-69.35690","Snowdepth":"28.937","Units":"in","Rept_Date":"2020-03-04 12"},"coordinates":[6544,8448]},{"type":"Point","properties":{"Station_ID":"QLM","Station_Nam":"QLM","Latitude":"48.92030","Longitude":"-70.25280","Snowdepth":"28.346","Units":"in","Rept_Date":"2020-03-04 12"},"coordinates":[6333,7893]},{"type":"Point","properties":{"Station_ID":"PTLQ6","Station_Nam":"PORTAGE LAKE","Latitude":"49.06950","Longitude":"-86.65940","Snowdepth":"28.190","Units":"in","Rept_Date":"2020-03-05 06"},"coordinates":[2483,8005]},{"type":"Point","properties":{"Station_ID":"CAN-NB-13","Station_Nam":"BATHURST 3.8 NW, CAN","Latitude":"47.64212","Longitude":"-65.68756","Snowdepth":"28.000","Units":"in","Rept_Date":"2020-03-04 11"},"coordinates":[7405,6934]},{"type":"Point","properties":{"Station_ID":"SVBQ6","Station_Nam":"SAVANT BASE","Latitude":"50.28730","Longitude":"-90.65670","Snowdepth":"27.950","Units":"in","Rept_Date":"2020-03-05 06"},"coordinates":[1545,8919]},{"type":"Point","properties":{"Station_ID":"QCX","Station_Nam":"QCX","Latitude":"51.32830","Longitude":"-70.08060","Snowdepth":"27.165","Units":"in","Rept_Date":"2020-03-04 12"},"coordinates":[6374,9700]},{"type":"Point","properties":{"Station_ID":"HERM4","Station_Nam":"HERMAN,MI","Latitude":"46.65000","Longitude":"-88.33330","Snowdepth":"27.000","Units":"in","Rept_Date":"2020-03-04 13"},"coordinates":[2090,6190]},{"type":"Point","properties":{"Station_ID":"QYR","Station_Nam":"QYR","Latitude":"48.87220","Longitude":"-75.61470","Snowdepth":"26.535","Units":"in","Rept_Date":"2020-03-04 12"},"coordinates":[5075,7857]},{"type":"Point","properties":{"Station_ID":"WRPW3","Station_Nam":"WATER PURIFICATION PLANT","Latitude":"44.38800","Longitude":"-89.80550","Snowdepth":"26.000","Units":"in","Rept_Date":"2020-03-04 12"},"coordinates":[1744,4493]},{"type":"Point","properties":{"Station_ID":"VT-OL-12","Station_Nam":"GREENSBORO 3.9 NNE, VT","Latitude":"44.63100","Longitude":"-72.28000","Snowdepth":"26.000","Units":"in","Rept_Date":"2020-03-04 12"},"coordinates":[5858,4675]},{"type":"Point","properties":{"Station_ID":"HURW3","Station_Nam":"HURLEY","Latitude":"46.46250","Longitude":"-90.19550","Snowdepth":"26.000","Units":"in","Rept_Date":"2020-03-04 14"},"coordinates":[1653,6049]},{"type":"Point","properties":{"Station_ID":"GNLM4","Station_Nam":"GREENLAND 6N","Latitude":"46.87360","Longitude":"-89.10060","Snowdepth":"26.000","Units":"in","Rept_Date":"2020-03-04 13"},"coordinates":[1910,6358]},{"type":"Point","properties":{"Station_ID":"CNRM1","Station_Nam":"CONNOR TWP","Latitude":"46.95830","Longitude":"-68.03330","Snowdepth":"26.000","Units":"in","Rept_Date":"2020-03-04 12"},"coordinates":[6854,6421]},{"type":"Point","properties":{"Station_ID":"CARM1","Station_Nam":"CARIBOU WFO","Latitude":"46.86810","Longitude":"-68.01250","Snowdepth":"26.000","Units":"in","Rept_Date":"2020-03-05 04"},"coordinates":[6859,6354]},{"type":"Point","properties":{"Station_ID":"CAR","Station_Nam":"CARIBOU, ME","Latitude":"46.86830","Longitude":"-68.01360","Snowdepth":"26.000","Units":"in","Rept_Date":"2020-03-04 12"},"coordinates":[6859,6354]},{"type":"Point","properties":{"Station_ID":"WI-VL-10","Station_Nam":"LAND O LAKES 4.3 WNW, WI","Latitude":"46.17440","Longitude":"-89.30380","Snowdepth":"25.500","Units":"in","Rept_Date":"2020-03-04 13"},"coordinates":[1862,5833]},{"type":"Point","properties":{"Station_ID":"VANM1","Station_Nam":"VAN BUREN","Latitude":"47.16600","Longitude":"-67.93900","Snowdepth":"25.000","Units":"in","Rept_Date":"2020-03-04 13"},"coordinates":[6876,6577]},{"type":"Point","properties":{"Station_ID":"IWOM4","Station_Nam":"IRONWOOD#2","Latitude":"46.46520","Longitude":"-90.13820","Snowdepth":"25.000","Units":"in","Rept_Date":"2020-03-04 13"},"coordinates":[1666,6052]},{"type":"Point","properties":{"Station_ID":"VT-CL-3","Station_Nam":"GROTON 4.4 WSW, VT","Latitude":"44.19440","Longitude":"-72.28240","Snowdepth":"24.900","Units":"in","Rept_Date":"2020-03-04 11"},"coordinates":[5857,4348]},{"type":"Point","properties":{"Station_ID":"TRIQ6","Station_Nam":"TRIO LAKE","Latitude":"49.22880","Longitude":"-87.22920","Snowdepth":"24.880","Units":"in","Rept_Date":"2020-03-05 06"},"coordinates":[2349,8125]},{"type":"Point","properties":{"Station_ID":"WI-VL-9","Station_Nam":"LAND O' LAKES 11.7 W, WI","Latitude":"46.19023","Longitude":"-89.45790","Snowdepth":"24.000","Units":"in","Rept_Date":"2020-03-04 13"},"coordinates":[1826,5845]},{"type":"Point","properties":{"Station_ID":"VT-CL-40","Station_Nam":"LYNDONVILLE 4.2 NNW, VT","Latitude":"44.59440","Longitude":"-72.02389","Snowdepth":"24.000","Units":"in","Rept_Date":"2020-03-04 11"},"coordinates":[5918,4648]},{"type":"Point","properties":{"Station_ID":"SSMM4","Station_Nam":"SAULT STE MARIE","Latitude":"46.48660","Longitude":"-84.40250","Snowdepth":"24.000","Units":"in","Rept_Date":"2020-03-04 13"},"coordinates":[3013,6068]},{"type":"Point","properties":{"Station_ID":"RANM1","Station_Nam":"RANGELEY","Latitude":"44.98910","Longitude":"-70.67190","Snowdepth":"24.000","Units":"in","Rept_Date":"2020-03-04 11"},"coordinates":[6235,4944]},{"type":"Point","properties":{"Station_ID":"LNOW3","Station_Nam":"LAND O LAKES","Latitude":"46.19000","Longitude":"-89.45700","Snowdepth":"24.000","Units":"in","Rept_Date":"2020-03-04 13"},"coordinates":[1826,5845]},{"type":"Point","properties":{"Station_ID":"FISM1","Station_Nam":"FORT KENT COOP","Latitude":"47.23850","Longitude":"-68.61240","Snowdepth":"24.000","Units":"in","Rept_Date":"2020-03-04 12"},"coordinates":[6718,6632]},{"type":"Point","properties":{"Station_ID":"CRVW3","Station_Nam":"CRIVITZ HIGH FALLS","Latitude":"45.35750","Longitude":"-88.19190","Snowdepth":"24.000","Units":"in","Rept_Date":"2020-03-04 13"},"coordinates":[2123,5220]},{"type":"Point","properties":{"Station_ID":"QTM","Station_Nam":"QTM","Latitude":"51.05780","Longitude":"-72.57190","Snowdepth":"23.898","Units":"in","Rept_Date":"2020-03-04 12"},"coordinates":[5789,9497]},{"type":"Point","properties":{"Station_ID":"LFRN3","Station_Nam":"LAKE FRANCIS STATE PARK","Latitude":"45.05970","Longitude":"-71.30130","Snowdepth":"23.800","Units":"in","Rept_Date":"2020-03-04 12"},"coordinates":[6087,4997]},{"type":"Point","properties":{"Station_ID":"QMD","Station_Nam":"QMD","Latitude":"49.29060","Longitude":"-75.84500","Snowdepth":"23.740","Units":"in","Rept_Date":"2020-03-04 12"},"coordinates":[5021,8171]},{"type":"Point","properties":{"Station_ID":"CAN-PE-19","Station_Nam":"CHARLOTTETOWN 6.5 NNW, CAN","Latitude":"46.29235","Longitude":"-63.17271","Snowdepth":"23.600","Units":"in","Rept_Date":"2020-03-04 12"},"coordinates":[7995,5922]},{"type":"Point","properties":{"Station_ID":"MI-HG-1","Station_Nam":"HOUGHTON 1.6 ESE, MI","Latitude":"47.10774","Longitude":"-88.52940","Snowdepth":"23.500","Units":"in","Rept_Date":"2020-03-04 13"},"coordinates":[2044,6534]},{"type":"Point","properties":{"Station_ID":"QIQ","Station_Nam":"QIQ","Latitude":"49.82390","Longitude":"-68.54310","Snowdepth":"23.425","Units":"in","Rept_Date":"2020-03-04 12"},"coordinates":[6735,8571]},{"type":"Point","properties":{"Station_ID":"SOCQ6","Station_Nam":"SOCKET LAKE","Latitude":"50.77870","Longitude":"-91.79300","Snowdepth":"23.310","Units":"in","Rept_Date":"2020-03-05 06"},"coordinates":[1278,9288]},{"type":"Point","properties":{"Station_ID":"STGW3","Station_Nam":"ST GERMAIN","Latitude":"45.91550","Longitude":"-89.48940","Snowdepth":"23.000","Units":"in","Rept_Date":"2020-03-04 12"},"coordinates":[1819,5639]},{"type":"Point","properties":{"Station_ID":"RGNM1","Station_Nam":"RANGELEY 2NW","Latitude":"44.98940","Longitude":"-70.67220","Snowdepth":"23.000","Units":"in","Rept_Date":"2020-03-04 11"},"coordinates":[6235,4944]},{"type":"Point","properties":{"Station_ID":"PRDM4","Station_Nam":"PARADISE","Latitude":"46.60380","Longitude":"-85.03960","Snowdepth":"23.000","Units":"in","Rept_Date":"2020-03-04 11"},"coordinates":[2863,6155]},{"type":"Point","properties":{"Station_ID":"PDGM4","Station_Nam":"PAULDING","Latitude":"46.39760","Longitude":"-89.17940","Snowdepth":"23.000","Units":"in","Rept_Date":"2020-03-04 13"},"coordinates":[1891,6001]},{"type":"Point","properties":{"Station_ID":"ME-PN-45","Station_Nam":"MILLINOCKET 2.7 ESE, ME","Latitude":"45.65002","Longitude":"-68.64472","Snowdepth":"23.000","Units":"in","Rept_Date":"2020-03-04 12"},"coordinates":[6711,5440]},{"type":"Point","properties":{"Station_ID":"ME-FR-2","Station_Nam":"TEMPLE 1.8 W, ME","Latitude":"44.68329","Longitude":"-70.26420","Snowdepth":"23.000","Units":"in","Rept_Date":"2020-03-04 12"},"coordinates":[6331,4715]},{"type":"Point","properties":{"Station_ID":"LVDW3","Station_Nam":"LAC VIEUX DESERT","Latitude":"46.12110","Longitude":"-89.07580","Snowdepth":"23.000","Units":"in","Rept_Date":"2020-03-04 13"},"coordinates":[1916,5793]},{"type":"Point","properties":{"Station_ID":"EVRW3","Station_Nam":"EAGLE RIVER-4 E","Latitude":"45.91890","Longitude":"-89.15280","Snowdepth":"23.000","Units":"in","Rept_Date":"2020-03-04 12"},"coordinates":[1898,5642]},{"type":"Point","properties":{"Station_ID":"ANJM4","Station_Nam":"SNOW PAID OBSERVER FOR KANJ","Latitude":"46.48670","Longitude":"-84.40260","Snowdepth":"23.000","Units":"in","Rept_Date":"2020-03-05 00"},"coordinates":[3013,6068]},{"type":"Point","properties":{"Station_ID":"ANJ","Station_Nam":"SAULT STE MARIE","Latitude":"46.46670","Longitude":"-84.36670","Snowdepth":"23.000","Units":"in","Rept_Date":"2020-03-05 00"},"coordinates":[3021,6053]},{"type":"Point","properties":{"Station_ID":"QMA","Station_Nam":"QMA","Latitude":"50.10330","Longitude":"-70.47190","Snowdepth":"22.953","Units":"in","Rept_Date":"2020-03-04 12"},"coordinates":[6282,8781]},{"type":"Point","properties":{"Station_ID":"KABQ6","Station_Nam":"CAB LAKE","Latitude":"49.59950","Longitude":"-89.17990","Snowdepth":"22.800","Units":"in","Rept_Date":"2020-03-05 06"},"coordinates":[1891,8403]},{"type":"Point","properties":{"Station_ID":"NOHM5","Station_Nam":"NORTHOME","Latitude":"47.83590","Longitude":"-94.25550","Snowdepth":"22.000","Units":"in","Rept_Date":"2020-03-04 13"},"coordinates":[700,7080]},{"type":"Point","properties":{"Station_ID":"MN-SL-105","Station_Nam":"DULUTH 11.8 NNE, MN","Latitude":"46.94680","Longitude":"-92.03925","Snowdepth":"22.000","Units":"in","Rept_Date":"2020-03-04 13"},"coordinates":[1220,6413]},{"type":"Point","properties":{"Station_ID":"GNNM4","Station_Nam":"EAST BRANCH OF ESCANABA RIVER AT GWINN","Latitude":"46.27780","Longitude":"-87.43600","Snowdepth":"22.000","Units":"in","Rept_Date":"2020-03-04 19"},"coordinates":[2301,5911]},{"type":"Point","properties":{"Station_ID":"GLDM4","Station_Nam":"GLADSTONE NO. 2","Latitude":"45.84330","Longitude":"-87.03910","Snowdepth":"22.000","Units":"in","Rept_Date":"2020-03-04 12"},"coordinates":[2394,5585]},{"type":"Point","properties":{"Station_ID":"DLHM5","Station_Nam":"DULUTH NWS","Latitude":"46.83680","Longitude":"-92.21080","Snowdepth":"22.000","Units":"in","Rept_Date":"2020-03-05 06"},"coordinates":[1180,6330]},{"type":"Point","properties":{"Station_ID":"DLH","Station_Nam":"DULUTH, MN","Latitude":"46.83690","Longitude":"-92.21030","Snowdepth":"22.000","Units":"in","Rept_Date":"2020-03-05 00"},"coordinates":[1180,6330]},{"type":"Point","properties":{"Station_ID":"DFXM1","Station_Nam":"DOVER-FOXCROFT","Latitude":"45.18720","Longitude":"-69.18350","Snowdepth":"22.000","Units":"in","Rept_Date":"2020-03-04 12"},"coordinates":[6584,5093]},{"type":"Point","properties":{"Station_ID":"CAN-NS-60","Station_Nam":"SYDNEY FORKS, CAN","Latitude":"46.05645","Longitude":"-60.31510","Snowdepth":"22.000","Units":"in","Rept_Date":"2020-03-04 13"},"coordinates":[8666,5745]},{"type":"Point","properties":{"Station_ID":"CAN-NB-96","Station_Nam":"SAINT-IGNACE 2.6 NE, CAN","Latitude":"46.71424","Longitude":"-65.05609","Snowdepth":"22.000","Units":"in","Rept_Date":"2020-03-04 11"},"coordinates":[7553,6238]},{"type":"Point","properties":{"Station_ID":"BABM5","Station_Nam":"BABBITT","Latitude":"47.71210","Longitude":"-91.95330","Snowdepth":"22.000","Units":"in","Rept_Date":"2020-03-04 13"},"coordinates":[1240,6987]},{"type":"Point","properties":{"Station_ID":"QLI","Station_Nam":"QLI","Latitude":"50.27080","Longitude":"-73.92280","Snowdepth":"21.890","Units":"in","Rept_Date":"2020-03-04 12"},"coordinates":[5472,8907]},{"type":"Point","properties":{"Station_ID":"MN-IT-23","Station_Nam":"BOVEY 13.4 N, MN","Latitude":"47.48855","Longitude":"-93.43497","Snowdepth":"21.500","Units":"in","Rept_Date":"2020-03-04 13"},"coordinates":[893,6819]},{"type":"Point","properties":{"Station_ID":"CAN-NB-18","Station_Nam":"MCLEOD HILL 1.1 ENE, CA","Latitude":"46.02725","Longitude":"-66.67460","Snowdepth":"21.500","Units":"in","Rept_Date":"2020-03-04 12"},"coordinates":[7173,5723]},{"type":"Point","properties":{"Station_ID":"MFU","Station_Nam":"MFU","Latitude":"51.52170","Longitude":"-66.91110","Snowdepth":"21.142","Units":"in","Rept_Date":"2020-03-04 12"},"coordinates":[7118,9845]},{"type":"Point","properties":{"Station_ID":"WRSM5","Station_Nam":"WRENSHALL","Latitude":"46.61550","Longitude":"-92.38380","Snowdepth":"21.000","Units":"in","Rept_Date":"2020-03-04 14"},"coordinates":[1139,6164]},{"type":"Point","properties":{"Station_ID":"WI-IR-3","Station_Nam":"PENCE 0.1 E, WI","Latitude":"46.41555","Longitude":"-90.27013","Snowdepth":"21.000","Units":"in","Rept_Date":"2020-03-04 13"},"coordinates":[1635,6014]},{"type":"Point","properties":{"Station_ID":"VT-OL-1","Station_Nam":"WESTFIELD 0.7 WNW, VT","Latitude":"44.89160","Longitude":"-72.44350","Snowdepth":"21.000","Units":"in","Rept_Date":"2020-03-04 12"},"coordinates":[5819,4871]},{"type":"Point","properties":{"Station_ID":"SUAW3","Station_Nam":"SUAMICO","Latitude":"44.60190","Longitude":"-88.09780","Snowdepth":"21.000","Units":"in","Rept_Date":"2020-03-04 12"},"coordinates":[2145,4654]},{"type":"Point","properties":{"Station_ID":"MN-IT-17","Station_Nam":"GRAND RAPIDS 6.1 N, MN","Latitude":"47.31165","Longitude":"-93.55036","Snowdepth":"21.000","Units":"in","Rept_Date":"2020-03-04 13"},"coordinates":[866,6687]},{"type":"Point","properties":{"Station_ID":"MI-GG-4","Station_Nam":"WATERSMEET 5.0 SE, MI","Latitude":"46.20333","Longitude":"-89.13170","Snowdepth":"21.000","Units":"in","Rept_Date":"2020-03-04 14"},"coordinates":[1903,5855]},{"type":"Point","properties":{"Station_ID":"HRVM4","Station_Nam":"HARVEY","Latitude":"46.49080","Longitude":"-87.35470","Snowdepth":"21.000","Units":"in","Rept_Date":"2020-03-04 12"},"coordinates":[2320,6071]},{"type":"Point","properties":{"Station_ID":"BRMM5","Station_Nam":"BRIMSON 2S","Latitude":"47.24720","Longitude":"-91.86240","Snowdepth":"21.000","Units":"in","Rept_Date":"2020-03-05 01"},"coordinates":[1262,6638]},{"type":"Point","properties":{"Station_ID":"BNDM5","Station_Nam":"ELY 25E","Latitude":"47.97190","Longitude":"-91.44860","Snowdepth":"21.000","Units":"in","Rept_Date":"2020-03-04 13"},"coordinates":[1359,7182]},{"type":"Point","properties":{"Station_ID":"BBEM4","Station_Nam":"BIG BAY 9SW","Latitude":"46.74620","Longitude":"-87.88160","Snowdepth":"21.000","Units":"in","Rept_Date":"2020-03-04 13"},"coordinates":[2196,6262]},{"type":"Point","properties":{"Station_ID":"WI-VL-14","Station_Nam":"BOULDER JUNCTION 1.4 NE, WI","Latitude":"46.12840","Longitude":"-89.62470","Snowdepth":"20.500","Units":"in","Rept_Date":"2020-03-04 13"},"coordinates":[1787,5799]},{"type":"Point","properties":{"Station_ID":"MN-SL-15","Station_Nam":"CHISHOLM 0.4 WSW, MN","Latitude":"47.48557","Longitude":"-92.88690","Snowdepth":"20.500","Units":"in","Rept_Date":"2020-03-04 13"},"coordinates":[1021,6817]},{"type":"Point","properties":{"Station_ID":"WI-WB-2","Station_Nam":"STONE LAKE 2.0 NW, WI","Latitude":"45.85960","Longitude":"-91.57710","Snowdepth":"20.000","Units":"in","Rept_Date":"2020-03-04 13"},"coordinates":[1329,5597]},{"type":"Point","properties":{"Station_ID":"WI-BY-2","Station_Nam":"MELLEN 18.6 SW, WI","Latitude":"46.16937","Longitude":"-90.98090","Snowdepth":"20.000","Units":"in","Rept_Date":"2020-03-04 13"},"coordinates":[1469,5830]},{"type":"Point","properties":{"Station_ID":"SUTV1","Station_Nam":"SUTTON","Latitude":"44.61220","Longitude":"-72.04810","Snowdepth":"20.000","Units":"in","Rept_Date":"2020-03-04 13"},"coordinates":[5912,4661]},{"type":"Point","properties":{"Station_ID":"MWN","Station_Nam":"MOUNT WASHINGTON","Latitude":"44.26670","Longitude":"-71.30000","Snowdepth":"20.000","Units":"in","Rept_Date":"2020-03-05 05"},"coordinates":[6088,4402]},{"type":"Point","properties":{"Station_ID":"MI-MQ-19","Station_Nam":"ISHPEMING 7.2 SW, MI","Latitude":"46.40550","Longitude":"-87.75670","Snowdepth":"20.000","Units":"in","Rept_Date":"2020-03-04 11"},"coordinates":[2225,6007]},{"type":"Point","properties":{"Station_ID":"MAIW3","Station_Nam":"MADELINE ISLAND","Latitude":"46.78330","Longitude":"-90.76670","Snowdepth":"20.000","Units":"in","Rept_Date":"2020-03-04 14"},"coordinates":[1519,6290]},{"type":"Point","properties":{"Station_ID":"LPLN6","Station_Nam":"LAKE PLACID 2 S","Latitude":"44.30420","Longitude":"-73.98390","Snowdepth":"20.000","Units":"in","Rept_Date":"2020-03-04 21"},"coordinates":[5458,4430]},{"type":"Point","properties":{"Station_ID":"KMWN","Station_Nam":"MOUNT WASHINGTON","Latitude":"44.26666","Longitude":"-71.30000","Snowdepth":"20.000","Units":"in","Rept_Date":"2020-03-05 06"},"coordinates":[6088,4402]},{"type":"Point","properties":{"Station_ID":"KINM1","Station_Nam":"KINGFIELD","Latitude":"44.95950","Longitude":"-70.17530","Snowdepth":"20.000","Units":"in","Rept_Date":"2020-03-04 12"},"coordinates":[6352,4922]},{"type":"Point","properties":{"Station_ID":"JKMM1","Station_Nam":"JACKMAN","Latitude":"45.62600","Longitude":"-70.24600","Snowdepth":"20.000","Units":"in","Rept_Date":"2020-03-04 12"},"coordinates":[6335,5422]},{"type":"Point","properties":{"Station_ID":"IRMM4","Station_Nam":"WWTP","Latitude":"46.46670","Longitude":"-90.18330","Snowdepth":"20.000","Units":"in","Rept_Date":"2020-03-04 13"},"coordinates":[1656,6053]},{"type":"Point","properties":{"Station_ID":"GGRM4","Station_Nam":"GREEN GARDEN NO.2","Latitude":"46.45330","Longitude":"-87.30380","Snowdepth":"20.000","Units":"in","Rept_Date":"2020-03-04 11"},"coordinates":[2332,6043]},{"type":"Point","properties":{"Station_ID":"CSLM5","Station_Nam":"CASS LAKE,MN","Latitude":"47.38470","Longitude":"-94.61470","Snowdepth":"20.000","Units":"in","Rept_Date":"2020-03-04 14"},"coordinates":[616,6741]},{"type":"Point","properties":{"Station_ID":"CMKW3","Station_Nam":"CLAM LAKE 4W","Latitude":"46.16940","Longitude":"-90.98080","Snowdepth":"20.000","Units":"in","Rept_Date":"2020-03-04 13"},"coordinates":[1469,5830]},{"type":"Point","properties":{"Station_ID":"BRDM1","Station_Nam":"BRIDGEWATER","Latitude":"46.42870","Longitude":"-67.84370","Snowdepth":"20.000","Units":"in","Rept_Date":"2020-03-04 23"},"coordinates":[6899,6024]},{"type":"Point","properties":{"Station_ID":"AVLV1","Station_Nam":"AVERILL","Latitude":"45.00570","Longitude":"-71.69030","Snowdepth":"20.000","Units":"in","Rept_Date":"2020-03-04 13"},"coordinates":[5996,4957]},{"type":"Point","properties":{"Station_ID":"QCO","Station_Nam":"QCO","Latitude":"51.45280","Longitude":"-72.20110","Snowdepth":"19.567","Units":"in","Rept_Date":"2020-03-04 12"},"coordinates":[5876,9793]},{"type":"Point","properties":{"Station_ID":"TOGM5","Station_Nam":"CELINA 2E","Latitude":"47.86630","Longitude":"-93.02660","Snowdepth":"19.000","Units":"in","Rept_Date":"2020-03-04 15"},"coordinates":[989,7103]},{"type":"Point","properties":{"Station_ID":"MN-CK-6","Station_Nam":"GRAND MARAIS 4.4 W, MN","Latitude":"47.74865","Longitude":"-90.43760","Snowdepth":"19.000","Units":"in","Rept_Date":"2020-03-04 13"},"coordinates":[1596,7014]},{"type":"Point","properties":{"Station_ID":"LEIM5","Station_Nam":"ORR 3E","Latitude":"48.05810","Longitude":"-92.75220","Snowdepth":"19.000","Units":"in","Rept_Date":"2020-03-04 12"},"coordinates":[1053,7247]},{"type":"Point","properties":{"Station_ID":"GHMN3","Station_Nam":"PINKHAM NOTCH","Latitude":"44.25800","Longitude":"-71.25250","Snowdepth":"19.000","Units":"in","Rept_Date":"2020-03-04 10"},"coordinates":[6099,4396]},{"type":"Point","properties":{"Station_ID":"GDPM5","Station_Nam":"PIGEON RIVER AT MIDDLE FALLS","Latitude":"48.01220","Longitude":"-89.61610","Snowdepth":"19.000","Units":"in","Rept_Date":"2020-03-04 13"},"coordinates":[1789,7212]},{"type":"Point","properties":{"Station_ID":"EMBM5","Station_Nam":"EMBARASS,MN","Latitude":"47.65810","Longitude":"-92.19580","Snowdepth":"19.000","Units":"in","Rept_Date":"2020-03-04 12"},"coordinates":[1184,6946]},{"type":"Point","properties":{"Station_ID":"NY-ES-6","Station_Nam":"OLMSTEDVILLE 4.6 NNE, NY","Latitude":"43.83350","Longitude":"-73.89780","Snowdepth":"18.500","Units":"in","Rept_Date":"2020-03-04 13"},"coordinates":[5478,4077]},{"type":"Point","properties":{"Station_ID":"MN-BK-6","Station_Nam":"LAKE PARK 6.0 S, MN","Latitude":"46.79850","Longitude":"-96.12180","Snowdepth":"18.500","Units":"in","Rept_Date":"2020-03-04 13"},"coordinates":[262,6302]},{"type":"Point","properties":{"Station_ID":"CAN-ON-245","Station_Nam":"PHELPSTON 3.1 ESE, CAN","Latitude":"44.50564","Longitude":"-79.81035","Snowdepth":"18.500","Units":"in","Rept_Date":"2020-03-04 14"},"coordinates":[4090,4581]},{"type":"Point","properties":{"Station_ID":"OCNW3","Station_Nam":"OCONTO 4 W","Latitude":"44.89190","Longitude":"-87.95500","Snowdepth":"18.000","Units":"in","Rept_Date":"2020-03-04 13"},"coordinates":[2179,4871]},{"type":"Point","properties":{"Station_ID":"MN-SL-108","Station_Nam":"IRON JUNCTION 3.4 NNW, MN","Latitude":"47.46150","Longitude":"-92.63130","Snowdepth":"18.000","Units":"in","Rept_Date":"2020-03-04 13"},"coordinates":[1081,6799]},{"type":"Point","properties":{"Station_ID":"MN-IT-11","Station_Nam":"NASHWAUK 11.5 N, MN","Latitude":"47.54496","Longitude":"-93.19420","Snowdepth":"18.000","Units":"in","Rept_Date":"2020-03-04 11"},"coordinates":[949,6862]},{"type":"Point","properties":{"Station_ID":"MI-OT-17","Station_Nam":"GAYLORD 4.1 S, MI","Latitude":"44.96388","Longitude":"-84.68467","Snowdepth":"18.000","Units":"in","Rept_Date":"2020-03-04 12"},"coordinates":[2946,4925]},{"type":"Point","properties":{"Station_ID":"MI-DL-1","Station_Nam":"GARDEN CORNERS 0.8 NW, MI","Latitude":"45.89815","Longitude":"-86.54850","Snowdepth":"18.000","Units":"in","Rept_Date":"2020-03-04 13"},"coordinates":[2509,5626]},{"type":"Point","properties":{"Station_ID":"MI-AT-6","Station_Nam":"MANCELONA 0.5 ESE, MI","Latitude":"44.89981","Longitude":"-85.05100","Snowdepth":"18.000","Units":"in","Rept_Date":"2020-03-04 13"},"coordinates":[2860,4877]},{"type":"Point","properties":{"Station_ID":"LBKV1","Station_Nam":"LYE BROOK","Latitude":"43.05000","Longitude":"-73.03330","Snowdepth":"18.000","Units":"in","Rept_Date":"2020-03-05 06"},"coordinates":[5681,3489]},{"type":"Point","properties":{"Station_ID":"KABM5","Station_Nam":"KABETOGAMA LAKE VISITOR CTR","Latitude":"48.40880","Longitude":"-93.04840","Snowdepth":"18.000","Units":"in","Rept_Date":"2020-03-04 13"},"coordinates":[983,7510]},{"type":"Point","properties":{"Station_ID":"ISLV1","Station_Nam":"ISLAND POND","Latitude":"44.81280","Longitude":"-71.89020","Snowdepth":"18.000","Units":"in","Rept_Date":"2020-03-04 17"},"coordinates":[5949,4812]},{"type":"Point","properties":{"Station_ID":"INDN6","Station_Nam":"INDIAN LAKE","Latitude":"43.75500","Longitude":"-74.27560","Snowdepth":"18.000","Units":"in","Rept_Date":"2020-03-04 14"},"coordinates":[5389,4018]},{"type":"Point","properties":{"Station_ID":"IMNM4","Station_Nam":"IRON MOUTAIN 5N","Latitude":"45.87580","Longitude":"-88.04030","Snowdepth":"18.000","Units":"in","Rept_Date":"2020-03-04 14"},"coordinates":[2159,5609]},{"type":"Point","properties":{"Station_ID":"IFSM5","Station_Nam":"INTERNATIONAL FALLS SNOW","Latitude":"48.57780","Longitude":"-93.39640","Snowdepth":"18.000","Units":"in","Rept_Date":"2020-03-05 06"},"coordinates":[902,7636]},{"type":"Point","properties":{"Station_ID":"GDCM4","Station_Nam":"GARDEN CORNERS","Latitude":"45.89830","Longitude":"-86.54850","Snowdepth":"18.000","Units":"in","Rept_Date":"2020-03-04 13"},"coordinates":[2509,5626]},{"type":"Point","properties":{"Station_ID":"ELYM5","Station_Nam":"ELY","Latitude":"47.90560","Longitude":"-91.82830","Snowdepth":"18.000","Units":"in","Rept_Date":"2020-03-04 16"},"coordinates":[1270,7132]},{"type":"Point","properties":{"Station_ID":"CAN-PE-3","Station_Nam":"WELLINGTON 1.6 NE, CA","Latitude":"46.46672","Longitude":"-63.98920","Snowdepth":"18.000","Units":"in","Rept_Date":"2020-03-04 11"},"coordinates":[7803,6053]},{"type":"Point","properties":{"Station_ID":"CAN-NS-103","Station_Nam":"TRAFALGAR 4.9 WSW, CAN","Latitude":"45.26217","Longitude":"-62.72285","Snowdepth":"18.000","Units":"in","Rept_Date":"2020-03-04 12"},"coordinates":[8101,5149]},{"type":"Point","properties":{"Station_ID":"CAN-NB-2","Station_Nam":"GRAFTON 2.7 NNE, CA","Latitude":"46.17062","Longitude":"-67.55330","Snowdepth":"18.000","Units":"in","Rept_Date":"2020-03-04 10"},"coordinates":[6967,5831]},{"type":"Point","properties":{"Station_ID":"AURW3","Station_Nam":"AURORA","Latitude":"45.77000","Longitude":"-88.11810","Snowdepth":"18.000","Units":"in","Rept_Date":"2020-03-04 13"},"coordinates":[2141,5530]},{"type":"Point","properties":{"Station_ID":"AMAM4","Station_Nam":"AMASA 1W","Latitude":"46.23470","Longitude":"-88.45440","Snowdepth":"18.000","Units":"in","Rept_Date":"2020-03-04 14"},"coordinates":[2062,5879]},{"type":"Point","properties":{"Station_ID":"CATQ6","Station_Nam":"CAT LAKE","Latitude":"51.72690","Longitude":"-91.82210","Snowdepth":"17.950","Units":"in","Rept_Date":"2020-03-05 06"},"coordinates":[1271,9999]},{"type":"Point","properties":{"Station_ID":"NY-HR-18","Station_Nam":"SALISBURY CENTER 1.8 NW, NY","Latitude":"43.16260","Longitude":"-74.80880","Snowdepth":"17.500","Units":"in","Rept_Date":"2020-03-04 11"},"coordinates":[5264,3574]},{"type":"Point","properties":{"Station_ID":"MI-OT-16","Station_Nam":"GAYLORD 2.2 SSE, MI","Latitude":"44.99441","Longitude":"-84.65820","Snowdepth":"17.500","Units":"in","Rept_Date":"2020-03-04 13"},"coordinates":[2953,4948]},{"type":"Point","properties":{"Station_ID":"CAN-QC-37","Station_Nam":"LAVAL 3.8 SSW, CAN","Latitude":"45.55358","Longitude":"-73.76976","Snowdepth":"17.500","Units":"in","Rept_Date":"2020-03-04 13"},"coordinates":[5508,5368]},{"type":"Point","properties":{"Station_ID":"CAN-ON-451","Station_Nam":"OWEN SOUND 1.2 N - GSCA, CAN","Latitude":"44.58092","Longitude":"-80.93025","Snowdepth":"17.500","Units":"in","Rept_Date":"2020-03-04 13"},"coordinates":[3827,4638]},{"type":"Point","properties":{"Station_ID":"WTRM4","Station_Nam":"WATERSMEET 12WSW","Latitude":"46.22310","Longitude":"-89.40850","Snowdepth":"17.000","Units":"in","Rept_Date":"2020-03-04 12"},"coordinates":[1838,5870]},{"type":"Point","properties":{"Station_ID":"WI-BY-22","Station_Nam":"MASON 11.5 WNW, WI","Latitude":"46.50198","Longitude":"-91.28339","Snowdepth":"17.000","Units":"in","Rept_Date":"2020-03-04 14"},"coordinates":[1398,6079]},{"type":"Point","properties":{"Station_ID":"VT-WS-7","Station_Nam":"MIDDLESEX 3.1 ENE, VT","Latitude":"44.31799","Longitude":"-72.62650","Snowdepth":"17.000","Units":"in","Rept_Date":"2020-03-04 13"},"coordinates":[5776,4441]},{"type":"Point","properties":{"Station_ID":"RHIW3","Station_Nam":"RHINELANDER","Latitude":"45.59860","Longitude":"-89.45080","Snowdepth":"17.000","Units":"in","Rept_Date":"2020-03-04 13"},"coordinates":[1828,5401]},{"type":"Point","properties":{"Station_ID":"PTBN3","Station_Nam":"PITTSBURG RESERVOIR","Latitude":"45.04690","Longitude":"-71.38300","Snowdepth":"17.000","Units":"in","Rept_Date":"2020-03-04 12"},"coordinates":[6068,4987]},{"type":"Point","properties":{"Station_ID":"NH-CS-4","Station_Nam":"PITTSBURG 6.1 NE, NH","Latitude":"45.11060","Longitude":"-71.29760","Snowdepth":"17.000","Units":"in","Rept_Date":"2020-03-04 12"},"coordinates":[6088,5035]},{"type":"Point","properties":{"Station_ID":"MNGW3","Station_Nam":"MINONG,WI","Latitude":"46.10060","Longitude":"-91.81780","Snowdepth":"17.000","Units":"in","Rept_Date":"2020-03-04 14"},"coordinates":[1272,5778]},{"type":"Point","properties":{"Station_ID":"ME-FR-4","Station_Nam":"NEW SHARON 2.0 NW, ME","Latitude":"44.66582","Longitude":"-70.02720","Snowdepth":"17.000","Units":"in","Rept_Date":"2020-03-04 12"},"coordinates":[6386,4702]},{"type":"Point","properties":{"Station_ID":"INL","Station_Nam":"FALLS INTERNATIONAL ARPT","Latitude":"48.56640","Longitude":"-93.40310","Snowdepth":"17.000","Units":"in","Rept_Date":"2020-03-05 00"},"coordinates":[900,7628]},{"type":"Point","properties":{"Station_ID":"CLKM4","Station_Nam":"CLARKSBURG","Latitude":"46.49910","Longitude":"-87.84500","Snowdepth":"17.000","Units":"in","Rept_Date":"2020-03-04 12"},"coordinates":[2205,6077]},{"type":"Point","properties":{"Station_ID":"CAN-ON-92","Station_Nam":"DUNROBIN 1.9 W - MVCA, CAN","Latitude":"45.42318","Longitude":"-76.04525","Snowdepth":"17.000","Units":"in","Rept_Date":"2020-03-04 12"},"coordinates":[4974,5270]},{"type":"Point","properties":{"Station_ID":"ASTW3","Station_Nam":"ATHELSTANE","Latitude":"45.42500","Longitude":"-88.05750","Snowdepth":"17.000","Units":"in","Rept_Date":"2020-03-04 12"},"coordinates":[2155,5271]},{"type":"Point","properties":{"Station_ID":"AGNW3","Station_Nam":"ARGONNE-1.5 NW","Latitude":"45.67360","Longitude":"-88.90380","Snowdepth":"17.000","Units":"in","Rept_Date":"2020-03-04 13"},"coordinates":[1956,5458]},{"type":"Point","properties":{"Station_ID":"ANTW3S","Station_Nam":"SNW ANITIGO","Latitude":"45.18472","Longitude":"-89.14972","Snowdepth":"16.800","Units":"in","Rept_Date":"2020-03-04 16"},"coordinates":[1898,5091]},{"type":"Point","properties":{"Station_ID":"VT-WS-15","Station_Nam":"EAST CALAIS 1.5 SW, VT","Latitude":"44.35523","Longitude":"-72.45540","Snowdepth":"16.500","Units":"in","Rept_Date":"2020-03-04 12"},"coordinates":[5816,4469]},{"type":"Point","properties":{"Station_ID":"VT-OL-9","Station_Nam":"GREENSBORO 2.1 NNW, VT","Latitude":"44.60528","Longitude":"-72.30940","Snowdepth":"16.500","Units":"in","Rept_Date":"2020-03-04 12"},"coordinates":[5851,4656]},{"type":"Point","properties":{"Station_ID":"VT-CL-18","Station_Nam":"WHEELOCK 1.6 S, VT","Latitude":"44.56491","Longitude":"-72.08830","Snowdepth":"16.500","Units":"in","Rept_Date":"2020-03-04 12"},"coordinates":[5903,4626]},{"type":"Point","properties":{"Station_ID":"CAN-NB-64","Station_Nam":"KESWICK RIDGE 4.0 SE, CAN","Latitude":"45.97014","Longitude":"-66.85538","Snowdepth":"16.500","Units":"in","Rept_Date":"2020-03-04 12"},"coordinates":[7131,5680]},{"type":"Point","properties":{"Station_ID":"FTHQ6","Station_Nam":"FORT HOPE","Latitude":"51.55820","Longitude":"-87.90510","Snowdepth":"16.460","Units":"in","Rept_Date":"2020-03-05 06"},"coordinates":[2191,9872]},{"type":"Point","properties":{"Station_ID":"ZNOM4","Station_Nam":"NORWAY","Latitude":"45.77810","Longitude":"-87.89560","Snowdepth":"16.000","Units":"in","Rept_Date":"2020-03-05 01"},"coordinates":[2193,5536]},{"type":"Point","properties":{"Station_ID":"WTNM4","Station_Nam":"WATTON 2WSW","Latitude":"46.52660","Longitude":"-88.64240","Snowdepth":"16.000","Units":"in","Rept_Date":"2020-03-04 13"},"coordinates":[2017,6098]},{"type":"Point","properties":{"Station_ID":"WLKW3","Station_Nam":"WHITE LAKE 1 SE","Latitude":"45.14520","Longitude":"-88.74160","Snowdepth":"16.000","Units":"in","Rept_Date":"2020-03-04 14"},"coordinates":[1994,5061]},{"type":"Point","properties":{"Station_ID":"WI-PR-2","Station_Nam":"BUTTERNUT 5.9 SW, WI","Latitude":"45.96501","Longitude":"-90.59750","Snowdepth":"16.000","Units":"in","Rept_Date":"2020-03-04 12"},"coordinates":[1559,5676]},{"type":"Point","properties":{"Station_ID":"WI-MT-14","Station_Nam":"MOSINEE 2.7 WSW, WI","Latitude":"44.77240","Longitude":"-89.73441","Snowdepth":"16.000","Units":"in","Rept_Date":"2020-03-04 15"},"coordinates":[1761,4782]},{"type":"Point","properties":{"Station_ID":"WHFN6","Station_Nam":"WILMINGTON 2W","Latitude":"44.39310","Longitude":"-73.85890","Snowdepth":"16.000","Units":"in","Rept_Date":"2020-03-04 13"},"coordinates":[5487,4497]},{"type":"Point","properties":{"Station_ID":"TAKW3","Station_Nam":"RICE RESERVOIR NO. 2","Latitude":"45.53770","Longitude":"-89.73220","Snowdepth":"16.000","Units":"in","Rept_Date":"2020-03-04 13"},"coordinates":[1762,5356]},{"type":"Point","properties":{"Station_ID":"RSTW3","Station_Nam":"ROSHOLT","Latitude":"44.62710","Longitude":"-89.30600","Snowdepth":"16.000","Units":"in","Rept_Date":"2020-03-04 13"},"coordinates":[1862,4673]},{"type":"Point","properties":{"Station_ID":"NCBN6","Station_Nam":"NEWCOMB","Latitude":"43.97070","Longitude":"-74.22200","Snowdepth":"16.000","Units":"in","Rept_Date":"2020-03-04 14"},"coordinates":[5402,4180]},{"type":"Point","properties":{"Station_ID":"MRLW3S","Station_Nam":"SNW MERRILL","Latitude":"45.23639","Longitude":"-89.69167","Snowdepth":"16.000","Units":"in","Rept_Date":"2020-03-04 15"},"coordinates":[1771,5130]},{"type":"Point","properties":{"Station_ID":"MRAM4","Station_Nam":"MORAN","Latitude":"45.99030","Longitude":"-84.83610","Snowdepth":"16.000","Units":"in","Rept_Date":"2020-03-04 13"},"coordinates":[2911,5695]},{"type":"Point","properties":{"Station_ID":"MN7TCHCK","Station_Nam":"COOK 0.2 ENE","Latitude":"47.85225","Longitude":"-92.68378","Snowdepth":"16.000","Units":"in","Rept_Date":"2020-03-04 12"},"coordinates":[1069,7092]},{"type":"Point","properties":{"Station_ID":"MN2EOYHJ","Station_Nam":"OGILVIE 5.6 N","Latitude":"45.91288","Longitude":"-93.42259","Snowdepth":"16.000","Units":"in","Rept_Date":"2020-03-04 14"},"coordinates":[896,5637]},{"type":"Point","properties":{"Station_ID":"MN-IT-1","Station_Nam":"GRAND RAPIDS 2.0 E, MN","Latitude":"47.22266","Longitude":"-93.49600","Snowdepth":"16.000","Units":"in","Rept_Date":"2020-03-04 12"},"coordinates":[878,6620]},{"type":"Point","properties":{"Station_ID":"MI-OT-4","Station_Nam":"GAYLORD 1.7 WNW, MI","Latitude":"45.03280","Longitude":"-84.71090","Snowdepth":"16.000","Units":"in","Rept_Date":"2020-03-04 13"},"coordinates":[2940,4977]},{"type":"Point","properties":{"Station_ID":"LILM1","Station_Nam":"LILLE","Latitude":"47.27770","Longitude":"-68.10520","Snowdepth":"16.000","Units":"in","Rept_Date":"2020-03-04 12"},"coordinates":[6837,6661]},{"type":"Point","properties":{"Station_ID":"JCBM4","Station_Nam":"JACOBSVILLE","Latitude":"47.00830","Longitude":"-88.43180","Snowdepth":"16.000","Units":"in","Rept_Date":"2020-03-04 12"},"coordinates":[2067,6459]},{"type":"Point","properties":{"Station_ID":"INDM5","Station_Nam":"INDUS,MN","Latitude":"48.61670","Longitude":"-93.90000","Snowdepth":"16.000","Units":"in","Rept_Date":"2020-03-04 14"},"coordinates":[784,7666]},{"type":"Point","properties":{"Station_ID":"HOLW3","Station_Nam":"HOLCOMBE","Latitude":"45.22370","Longitude":"-91.12700","Snowdepth":"16.000","Units":"in","Rept_Date":"2020-03-04 13"},"coordinates":[1434,5120]},{"type":"Point","properties":{"Station_ID":"GAYM4","Station_Nam":"GAYLORD","Latitude":"45.03320","Longitude":"-84.71130","Snowdepth":"16.000","Units":"in","Rept_Date":"2020-03-04 13"},"coordinates":[2940,4977]},{"type":"Point","properties":{"Station_ID":"FLNW3","Station_Nam":"FLORENCE","Latitude":"45.93360","Longitude":"-88.25830","Snowdepth":"16.000","Units":"in","Rept_Date":"2020-03-04 13"},"coordinates":[2108,5653]},{"type":"Point","properties":{"Station_ID":"CORV1","Station_Nam":"CORINTH","Latitude":"44.00690","Longitude":"-72.31940","Snowdepth":"16.000","Units":"in","Rept_Date":"2020-03-04 12"},"coordinates":[5848,4207]},{"type":"Point","properties":{"Station_ID":"COKM5","Station_Nam":"COOK","Latitude":"47.85060","Longitude":"-92.69250","Snowdepth":"16.000","Units":"in","Rept_Date":"2020-03-04 12"},"coordinates":[1067,7091]},{"type":"Point","properties":{"Station_ID":"CAN-ON-5","Station_Nam":"OWEN SOUND 1.5 NW - GSCA, CAN","Latitude":"44.57837","Longitude":"-80.95461","Snowdepth":"16.000","Units":"in","Rept_Date":"2020-03-04 13"},"coordinates":[3822,4636]},{"type":"Point","properties":{"Station_ID":"BTLN3","Station_Nam":"BARTLETT","Latitude":"44.08380","Longitude":"-71.29340","Snowdepth":"16.000","Units":"in","Rept_Date":"2020-03-04 12"},"coordinates":[6089,4265]},{"type":"Point","properties":{"Station_ID":"APXM4","Station_Nam":"GAYLORD 9SSW","Latitude":"44.90720","Longitude":"-84.71880","Snowdepth":"16.000","Units":"in","Rept_Date":"2020-03-05 06"},"coordinates":[2938,4883]},{"type":"Point","properties":{"Station_ID":"QWG","Station_Nam":"QWG","Latitude":"48.48890","Longitude":"-73.45940","Snowdepth":"15.905","Units":"in","Rept_Date":"2020-03-04 12"},"coordinates":[5581,7570]},{"type":"Point","properties":{"Station_ID":"MEDW3S","Station_Nam":"SNW MEDFORD","Latitude":"45.12056","Longitude":"-90.32111","Snowdepth":"15.900","Units":"in","Rept_Date":"2020-03-04 14"},"coordinates":[1623,5043]},{"type":"Point","properties":{"Station_ID":"WI-BN-6","Station_Nam":"SUAMICO 4.4 WNW, WI","Latitude":"44.66111","Longitude":"-88.11780","Snowdepth":"15.700","Units":"in","Rept_Date":"2020-03-04 13"},"coordinates":[2141,4698]},{"type":"Point","properties":{"Station_ID":"WTBW3S","Station_Nam":"SNW WITTENBERG","Latitude":"44.85639","Longitude":"-89.16889","Snowdepth":"15.500","Units":"in","Rept_Date":"2020-03-04 16"},"coordinates":[1894,4845]},{"type":"Point","properties":{"Station_ID":"WI-SR-1","Station_Nam":"HAYWARD 9.2 NNE, WI","Latitude":"46.13255","Longitude":"-91.40500","Snowdepth":"15.500","Units":"in","Rept_Date":"2020-03-04 12"},"coordinates":[1369,5802]},{"type":"Point","properties":{"Station_ID":"WI-ON-6","Station_Nam":"RHINELANDER 5.2 N, WI","Latitude":"45.71388","Longitude":"-89.42150","Snowdepth":"15.500","Units":"in","Rept_Date":"2020-03-04 13"},"coordinates":[1835,5488]},{"type":"Point","properties":{"Station_ID":"WI-BY-1","Station_Nam":"BAYFIELD 8.8 N, WI","Latitude":"46.93855","Longitude":"-90.83490","Snowdepth":"15.500","Units":"in","Rept_Date":"2020-03-04 13"},"coordinates":[1503,6407]},{"type":"Point","properties":{"Station_ID":"NH-CR-15","Station_Nam":"JACKSON 3.7 NW, NH","Latitude":"44.19069","Longitude":"-71.22598","Snowdepth":"15.500","Units":"in","Rept_Date":"2020-03-04 12"},"coordinates":[6105,4345]},{"type":"Point","properties":{"Station_ID":"MN-CW-22","Station_Nam":"FORT RIPLEY 0.8 N, MN","Latitude":"46.18089","Longitude":"-94.36510","Snowdepth":"15.500","Units":"in","Rept_Date":"2020-03-04 13"},"coordinates":[674,5838]},{"type":"Point","properties":{"Station_ID":"CAN-ON-757","Station_Nam":"SAULT STE. MARIE 2.8 ESE - GLFC, CAN","Latitude":"46.50300","Longitude":"-84.30300","Snowdepth":"15.500","Units":"in","Rept_Date":"2020-03-04 13"},"coordinates":[3036,6080]},{"type":"Point","properties":{"Station_ID":"CAN-NB-16","Station_Nam":"DORCHESTER 1.0 SSE, CAN","Latitude":"45.89160","Longitude":"-64.51269","Snowdepth":"15.400","Units":"in","Rept_Date":"2020-03-04 11"},"coordinates":[7681,5621]},{"type":"Point","properties":{"Station_ID":"WI-PR-6","Station_Nam":"PHILLIPS 1.3 S, WI","Latitude":"45.67677","Longitude":"-90.39543","Snowdepth":"15.000","Units":"in","Rept_Date":"2020-03-04 12"},"coordinates":[1606,5460]},{"type":"Point","properties":{"Station_ID":"VT-WS-30","Station_Nam":"WOODBURY 3.4 NNW, VT","Latitude":"44.48825","Longitude":"-72.43258","Snowdepth":"15.000","Units":"in","Rept_Date":"2020-03-04 12"},"coordinates":[5822,4568]},{"type":"Point","properties":{"Station_ID":"VT-OL-2","Station_Nam":"BARTON 3.0 ENE, VT","Latitude":"44.75863","Longitude":"-72.11680","Snowdepth":"15.000","Units":"in","Rept_Date":"2020-03-04 12"},"coordinates":[5896,4771]},{"type":"Point","properties":{"Station_ID":"VT-CL-14","Station_Nam":"LYNDONVILLE 1.1 W, VT","Latitude":"44.53582","Longitude":"-72.02867","Snowdepth":"15.000","Units":"in","Rept_Date":"2020-03-04 13"},"coordinates":[5917,4604]},{"type":"Point","properties":{"Station_ID":"VANM4","Station_Nam":"VANDERBILT 11ENE","Latitude":"45.17020","Longitude":"-84.43970","Snowdepth":"15.000","Units":"in","Rept_Date":"2020-03-04 13"},"coordinates":[3004,5080]},{"type":"Point","properties":{"Station_ID":"PRNW3","Station_Nam":"PRENTICE,WI","Latitude":"45.54780","Longitude":"-90.30000","Snowdepth":"15.000","Units":"in","Rept_Date":"2020-03-04 14"},"coordinates":[1628,5363]},{"type":"Point","properties":{"Station_ID":"PELW3","Station_Nam":"PELLA 3SE","Latitude":"44.73580","Longitude":"-88.73780","Snowdepth":"15.000","Units":"in","Rept_Date":"2020-03-04 11"},"coordinates":[1995,4754]},{"type":"Point","properties":{"Station_ID":"PEKN6","Station_Nam":"PECK LAKE","Latitude":"43.11500","Longitude":"-74.42360","Snowdepth":"15.000","Units":"in","Rept_Date":"2020-03-04 12"},"coordinates":[5355,3538]},{"type":"Point","properties":{"Station_ID":"OWLN3","Station_Nam":"OWL BROOK","Latitude":"43.76361","Longitude":"-71.59527","Snowdepth":"15.000","Units":"in","Rept_Date":"2020-03-04 12"},"coordinates":[6018,4025]},{"type":"Point","properties":{"Station_ID":"NY-FK-9","Station_Nam":"GABRIELS 1.3 SE, NY","Latitude":"44.41934","Longitude":"-74.16194","Snowdepth":"15.000","Units":"in","Rept_Date":"2020-03-04 12"},"coordinates":[5416,4517]},{"type":"Point","properties":{"Station_ID":"LNKM1","Station_Nam":"LINCOLN SANITARY DISTRICT/WTP","Latitude":"45.37520","Longitude":"-68.50820","Snowdepth":"15.000","Units":"in","Rept_Date":"2020-03-04 12"},"coordinates":[6743,5234]},{"type":"Point","properties":{"Station_ID":"HUBN3","Station_Nam":"HUBBARD BROOK","Latitude":"43.93330","Longitude":"-71.71670","Snowdepth":"15.000","Units":"in","Rept_Date":"2020-03-04 11"},"coordinates":[5990,4152]},{"type":"Point","properties":{"Station_ID":"FEDM5","Station_Nam":"LEECH LAKE DAM","Latitude":"47.24670","Longitude":"-94.22280","Snowdepth":"15.000","Units":"in","Rept_Date":"2020-03-04 14"},"coordinates":[708,6638]},{"type":"Point","properties":{"Station_ID":"ESGM1","Station_Nam":"EAST SANGERVILLE","Latitude":"45.13690","Longitude":"-69.28060","Snowdepth":"15.000","Units":"in","Rept_Date":"2020-03-04 12"},"coordinates":[6562,5055]},{"type":"Point","properties":{"Station_ID":"EJNM4","Station_Nam":"EAST JORDAN 2NW","Latitude":"45.18630","Longitude":"-85.14770","Snowdepth":"15.000","Units":"in","Rept_Date":"2020-03-04 13"},"coordinates":[2838,5092]},{"type":"Point","properties":{"Station_ID":"ABBW3S","Station_Nam":"SNW ABBOTSFORD","Latitude":"44.94500","Longitude":"-90.25944","Snowdepth":"15.000","Units":"in","Rept_Date":"2020-03-04 13"},"coordinates":[1638,4911]},{"type":"Point","properties":{"Station_ID":"HEMN3","Station_Nam":"HEMENWAY","Latitude":"43.89610","Longitude":"-71.31000","Snowdepth":"14.700","Units":"in","Rept_Date":"2020-03-04 12"},"coordinates":[6085,4124]},{"type":"Point","properties":{"Station_ID":"WI-AS-4","Station_Nam":"ASHLAND 0.5 WNW, WI","Latitude":"46.58240","Longitude":"-90.88390","Snowdepth":"14.500","Units":"in","Rept_Date":"2020-03-04 13"},"coordinates":[1491,6139]},{"type":"Point","properties":{"Station_ID":"NH-CR-11","Station_Nam":"NORTH CONWAY 1.4 SSW, NH","Latitude":"44.03556","Longitude":"-71.14010","Snowdepth":"14.500","Units":"in","Rept_Date":"2020-03-04 12"},"coordinates":[6125,4229]},{"type":"Point","properties":{"Station_ID":"MI-CX-7","Station_Nam":"EAST JORDAN 2.1 NNW, MI","Latitude":"45.18639","Longitude":"-85.14750","Snowdepth":"14.500","Units":"in","Rept_Date":"2020-03-04 13"},"coordinates":[2838,5092]},{"type":"Point","properties":{"Station_ID":"ME-FR-22","Station_Nam":"FARMINGTON 4.8 NNW, ME","Latitude":"44.73396","Longitude":"-70.18007","Snowdepth":"14.500","Units":"in","Rept_Date":"2020-03-04 14"},"coordinates":[6350,4753]},{"type":"Point","properties":{"Station_ID":"CAN-ON-452","Station_Nam":"CHATSWORTH 1.8 ENE - GSCA, CAN","Latitude":"44.46118","Longitude":"-80.87506","Snowdepth":"14.200","Units":"in","Rept_Date":"2020-03-04 12"},"coordinates":[3840,4548]},{"type":"Point","properties":{"Station_ID":"WUUW3S","Station_Nam":"WAUSAU SNOW","Latitude":"44.94500","Longitude":"-89.80833","Snowdepth":"14.000","Units":"in","Rept_Date":"2020-03-04 17"},"coordinates":[1744,4911]},{"type":"Point","properties":{"Station_ID":"WRTS2","Station_Nam":"WATERTOWN,SD","Latitude":"44.90280","Longitude":"-97.11360","Snowdepth":"14.000","Units":"in","Rept_Date":"2020-03-04 15"},"coordinates":[29,4879]},{"type":"Point","properties":{"Station_ID":"WI-RS-1","Station_Nam":"LADYSMITH 2.8 WNW, WI","Latitude":"45.48180","Longitude":"-91.14680","Snowdepth":"14.000","Units":"in","Rept_Date":"2020-03-04 13"},"coordinates":[1430,5314]},{"type":"Point","properties":{"Station_ID":"SULW3","Station_Nam":"SUMMIT LAKE","Latitude":"45.37880","Longitude":"-89.19410","Snowdepth":"14.000","Units":"in","Rept_Date":"2020-03-04 11"},"coordinates":[1888,5236]},{"type":"Point","properties":{"Station_ID":"STMM4","Station_Nam":"STAMBAUGH 2SSE","Latitude":"46.05550","Longitude":"-88.62780","Snowdepth":"14.000","Units":"in","Rept_Date":"2020-03-04 13"},"coordinates":[2021,5744]},{"type":"Point","properties":{"Station_ID":"RHLW3","Station_Nam":"RHINELANDER 4NE","Latitude":"45.65270","Longitude":"-89.30740","Snowdepth":"14.000","Units":"in","Rept_Date":"2020-03-04 12"},"coordinates":[1861,5442]},{"type":"Point","properties":{"Station_ID":"NY-ES-11","Station_Nam":"VERMONTVILLE 2.8 S, NY","Latitude":"44.41205","Longitude":"-74.06760","Snowdepth":"14.000","Units":"in","Rept_Date":"2020-03-04 12"},"coordinates":[5438,4511]},{"type":"Point","properties":{"Station_ID":"NH-CR-26","Station_Nam":"CENTER SANDWICH 4.9 E, NH","Latitude":"43.80976","Longitude":"-71.34150","Snowdepth":"14.000","Units":"in","Rept_Date":"2020-03-04 12"},"coordinates":[6078,4059]},{"type":"Point","properties":{"Station_ID":"NCKN6","Station_Nam":"NORTH CREEK 5 SE","Latitude":"43.66110","Longitude":"-73.89690","Snowdepth":"14.000","Units":"in","Rept_Date":"2020-03-04 12"},"coordinates":[5478,3948]},{"type":"Point","properties":{"Station_ID":"MWTM1","Station_Nam":"MILLINOCKET WWTP","Latitude":"45.64030","Longitude":"-68.67480","Snowdepth":"14.000","Units":"in","Rept_Date":"2020-03-04 11"},"coordinates":[6704,5433]},{"type":"Point","properties":{"Station_ID":"MN-PK-15","Station_Nam":"MENTOR 2.5 SSW, MN","Latitude":"47.66625","Longitude":"-96.17328","Snowdepth":"14.000","Units":"in","Rept_Date":"2020-03-04 13"},"coordinates":[250,6953]},{"type":"Point","properties":{"Station_ID":"MN-BM-15","Station_Nam":"BEMIDJI 7.8 ENE, MN","Latitude":"47.52043","Longitude":"-94.72121","Snowdepth":"14.000","Units":"in","Rept_Date":"2020-03-04 13"},"coordinates":[591,6843]},{"type":"Point","properties":{"Station_ID":"MN-BK-10","Station_Nam":"DETROIT LAKES 5.7 N, MN","Latitude":"46.88666","Longitude":"-95.84444","Snowdepth":"14.000","Units":"in","Rept_Date":"2020-03-04 10"},"coordinates":[327,6368]},{"type":"Point","properties":{"Station_ID":"MIEM4","Station_Nam":"MICHIGAMME 3WNW","Latitude":"46.54530","Longitude":"-88.18000","Snowdepth":"14.000","Units":"in","Rept_Date":"2020-03-04 13"},"coordinates":[2126,6112]},{"type":"Point","properties":{"Station_ID":"LBRM5","Station_Nam":"LAKE BRONSON DAM","Latitude":"48.72410","Longitude":"-96.62180","Snowdepth":"14.000","Units":"in","Rept_Date":"2020-03-04 14"},"coordinates":[145,7746]},{"type":"Point","properties":{"Station_ID":"ESDN3","Station_Nam":"EAST SANDWICH","Latitude":"43.80990","Longitude":"-71.34250","Snowdepth":"14.000","Units":"in","Rept_Date":"2020-03-04 11"},"coordinates":[6078,4059]},{"type":"Point","properties":{"Station_ID":"COUW3","Station_Nam":"COUDERAY,WI","Latitude":"45.86670","Longitude":"-91.45000","Snowdepth":"14.000","Units":"in","Rept_Date":"2020-03-04 22"},"coordinates":[1359,5603]},{"type":"Point","properties":{"Station_ID":"CAN-ON-208","Station_Nam":"PAKENHAM 7.8 NNW, CAN","Latitude":"45.39166","Longitude":"-76.34111","Snowdepth":"14.000","Units":"in","Rept_Date":"2020-03-04 12"},"coordinates":[4904,5246]},{"type":"Point","properties":{"Station_ID":"BREW3","Station_Nam":"SURING","Latitude":"44.99580","Longitude":"-88.37860","Snowdepth":"14.000","Units":"in","Rept_Date":"2020-03-04 13"},"coordinates":[2079,4949]},{"type":"Point","properties":{"Station_ID":"BRAM5","Station_Nam":"BRAINERD","Latitude":"46.34320","Longitude":"-94.20900","Snowdepth":"14.000","Units":"in","Rept_Date":"2020-03-04 13"},"coordinates":[711,5960]},{"type":"Point","properties":{"Station_ID":"BOON6","Station_Nam":"BOONVILLE 4 SSW","Latitude":"43.43610","Longitude":"-75.36970","Snowdepth":"14.000","Units":"in","Rept_Date":"2020-03-04 12"},"coordinates":[5132,3779]},{"type":"Point","properties":{"Station_ID":"AWXW3","Station_Nam":"ASHLAND","Latitude":"46.58240","Longitude":"-90.88390","Snowdepth":"14.000","Units":"in","Rept_Date":"2020-03-04 13"},"coordinates":[1491,6139]},{"type":"Point","properties":{"Station_ID":"ATY","Station_Nam":"WATERTOWN MUNICIPAL AIRPORT","Latitude":"44.91420","Longitude":"-97.15440","Snowdepth":"14.000","Units":"in","Rept_Date":"2020-03-04 12"},"coordinates":[20,4888]},{"type":"Point","properties":{"Station_ID":"WI-PR-8","Station_Nam":"PHILLIPS 0.4 SSW, WI","Latitude":"45.69086","Longitude":"-90.40200","Snowdepth":"13.500","Units":"in","Rept_Date":"2020-03-04 13"},"coordinates":[1605,5471]},{"type":"Point","properties":{"Station_ID":"VT-WS-10","Station_Nam":"NORTHFIELD 1.5 N, VT","Latitude":"44.16986","Longitude":"-72.65200","Snowdepth":"13.500","Units":"in","Rept_Date":"2020-03-04 12"},"coordinates":[5770,4329]},{"type":"Point","properties":{"Station_ID":"CAN-ON-491","Station_Nam":"MILVERTON 1.1 ESE- CANWARN, CAN","Latitude":"43.56074","Longitude":"-80.90887","Snowdepth":"13.400","Units":"in","Rept_Date":"2020-03-04 11"},"coordinates":[3832,3873]},{"type":"Point","properties":{"Station_ID":"CAN-PE-7","Station_Nam":"MORELL 1.4 NNW, CA","Latitude":"46.42741","Longitude":"-62.70870","Snowdepth":"13.200","Units":"in","Rept_Date":"2020-03-04 12"},"coordinates":[8104,6023]},{"type":"Point","properties":{"Station_ID":"WRUM5","Station_Nam":"WARROAD 4W","Latitude":"48.89600","Longitude":"-95.40700","Snowdepth":"13.000","Units":"in","Rept_Date":"2020-03-05 04"},"coordinates":[430,7875]},{"type":"Point","properties":{"Station_ID":"VT-ES-3","Station_Nam":"LUNENBURG 2.3 NNW, VT","Latitude":"44.49324","Longitude":"-71.70446","Snowdepth":"13.000","Units":"in","Rept_Date":"2020-03-04 11"},"coordinates":[5993,4572]},{"type":"Point","properties":{"Station_ID":"TOHM5","Station_Nam":"TWO HARBORS WWTP","Latitude":"47.01760","Longitude":"-91.66480","Snowdepth":"13.000","Units":"in","Rept_Date":"2020-03-04 13"},"coordinates":[1308,6466]},{"type":"Point","properties":{"Station_ID":"TMWN3","Station_Nam":"TAMWORTH 4","Latitude":"43.86390","Longitude":"-71.26610","Snowdepth":"13.000","Units":"in","Rept_Date":"2020-03-04 12"},"coordinates":[6096,4100]},{"type":"Point","properties":{"Station_ID":"RHRW3","Station_Nam":"RHINELANDER WJFW TV-12","Latitude":"45.62220","Longitude":"-89.41000","Snowdepth":"13.000","Units":"in","Rept_Date":"2020-03-05 04"},"coordinates":[1837,5419]},{"type":"Point","properties":{"Station_ID":"RHI","Station_Nam":"RHINELANDER-ONEIDA COUNTY AIRPORT","Latitude":"45.63080","Longitude":"-89.46530","Snowdepth":"13.000","Units":"in","Rept_Date":"2020-03-04 12"},"coordinates":[1824,5426]},{"type":"Point","properties":{"Station_ID":"NUMN3","Station_Nam":"NORTHUMBERLAND","Latitude":"44.52830","Longitude":"-71.50440","Snowdepth":"13.000","Units":"in","Rept_Date":"2020-03-04 13"},"coordinates":[6040,4598]},{"type":"Point","properties":{"Station_ID":"MQRW3","Station_Nam":"MINOCQUA","Latitude":"45.88630","Longitude":"-89.73220","Snowdepth":"13.000","Units":"in","Rept_Date":"2020-03-04 12"},"coordinates":[1762,5617]},{"type":"Point","properties":{"Station_ID":"LNGM5","Station_Nam":"LONG PRAIRIE","Latitude":"45.96460","Longitude":"-94.88920","Snowdepth":"13.000","Units":"in","Rept_Date":"2020-03-04 12"},"coordinates":[551,5676]},{"type":"Point","properties":{"Station_ID":"HGHN6","Station_Nam":"HIGHMARKET","Latitude":"43.57520","Longitude":"-75.52070","Snowdepth":"13.000","Units":"in","Rept_Date":"2020-03-04 11"},"coordinates":[5097,3883]},{"type":"Point","properties":{"Station_ID":"GRFN8","Station_Nam":"UNIVERSITY","Latitude":"47.93330","Longitude":"-97.08330","Snowdepth":"13.000","Units":"in","Rept_Date":"2020-03-05 06"},"coordinates":[36,7153]},{"type":"Point","properties":{"Station_ID":"GRBM5","Station_Nam":"GRAND RAPIDS 12N","Latitude":"47.39800","Longitude":"-93.51330","Snowdepth":"13.000","Units":"in","Rept_Date":"2020-03-04 13"},"coordinates":[874,6751]},{"type":"Point","properties":{"Station_ID":"FARM1","Station_Nam":"FARMINGTON","Latitude":"44.68930","Longitude":"-70.15640","Snowdepth":"13.000","Units":"in","Rept_Date":"2020-03-04 12"},"coordinates":[6356,4719]},{"type":"Point","properties":{"Station_ID":"EGRW3","Station_Nam":"EAGLE RIVER-SOUTH","Latitude":"45.91360","Longitude":"-89.24360","Snowdepth":"13.000","Units":"in","Rept_Date":"2020-03-04 13"},"coordinates":[1876,5638]},{"type":"Point","properties":{"Station_ID":"CNNW3","Station_Nam":"CRANDON","Latitude":"45.55110","Longitude":"-88.89830","Snowdepth":"13.000","Units":"in","Rept_Date":"2020-03-04 12"},"coordinates":[1957,5366]},{"type":"Point","properties":{"Station_ID":"CAN-NS-163","Station_Nam":"SYDNEY MINES 2.2 WNW, CAN","Latitude":"46.24851","Longitude":"-60.25161","Snowdepth":"13.000","Units":"in","Rept_Date":"2020-03-04 12"},"coordinates":[8681,5889]},{"type":"Point","properties":{"Station_ID":"BETM1","Station_Nam":"BETHEL 6 SSE","Latitude":"44.32000","Longitude":"-70.75680","Snowdepth":"13.000","Units":"in","Rept_Date":"2020-03-04 12"},"coordinates":[6215,4442]},{"type":"Point","properties":{"Station_ID":"AROM4","Station_Nam":"ARNOLD,MI","Latitude":"46.06670","Longitude":"-87.48330","Snowdepth":"13.000","Units":"in","Rept_Date":"2020-03-04 13"},"coordinates":[2290,5753]},{"type":"Point","properties":{"Station_ID":"AMDW3","Station_Nam":"ALMOND-5 NE","Latitude":"44.30830","Longitude":"-89.34640","Snowdepth":"13.000","Units":"in","Rept_Date":"2020-03-04 14"},"coordinates":[1852,4433]},{"type":"Point","properties":{"Station_ID":"QGT","Station_Nam":"QGT","Latitude":"49.64720","Longitude":"-67.62640","Snowdepth":"12.638","Units":"in","Rept_Date":"2020-03-04 12"},"coordinates":[6950,8439]},{"type":"Point","properties":{"Station_ID":"CAN-ON-46","Station_Nam":"WROXETER 0.3 WSW - MVCA, CAN","Latitude":"43.86365","Longitude":"-81.15225","Snowdepth":"12.600","Units":"in","Rept_Date":"2020-03-04 13"},"coordinates":[3775,4100]},{"type":"Point","properties":{"Station_ID":"NH-CR-41","Station_Nam":"ALBANY 2.8 SW, NH","Latitude":"43.92648","Longitude":"-71.21556","Snowdepth":"12.500","Units":"in","Rept_Date":"2020-03-04 13"},"coordinates":[6107,4147]},{"type":"Point","properties":{"Station_ID":"NH-CR-27","Station_Nam":"TAMWORTH 0.4 NNW, NH","Latitude":"43.86449","Longitude":"-71.26610","Snowdepth":"12.500","Units":"in","Rept_Date":"2020-03-04 12"},"coordinates":[6096,4100]},{"type":"Point","properties":{"Station_ID":"WUNW3","Station_Nam":"WAUSAU-NORTHEAST","Latitude":"44.97310","Longitude":"-89.61690","Snowdepth":"12.000","Units":"in","Rept_Date":"2020-03-04 12"},"coordinates":[1789,4932]},{"type":"Point","properties":{"Station_ID":"WI-SR-5","Station_Nam":"HAYWARD 9.7 NE, WI","Latitude":"46.12030","Longitude":"-91.35370","Snowdepth":"12.000","Units":"in","Rept_Date":"2020-03-04 14"},"coordinates":[1381,5793]},{"type":"Point","properties":{"Station_ID":"WI-DR-5","Station_Nam":"ELLISON BAY 2.2 E, WI","Latitude":"45.25750","Longitude":"-87.02670","Snowdepth":"12.000","Units":"in","Rept_Date":"2020-03-04 13"},"coordinates":[2397,5145]},{"type":"Point","properties":{"Station_ID":"WI-BT-14","Station_Nam":"OAKLAND 9.0 ENE, WI","Latitude":"45.95184","Longitude":"-92.21653","Snowdepth":"12.000","Units":"in","Rept_Date":"2020-03-04 13"},"coordinates":[1179,5666]},{"type":"Point","properties":{"Station_ID":"SBNM5","Station_Nam":"SABIN","Latitude":"46.77690","Longitude":"-96.65610","Snowdepth":"12.000","Units":"in","Rept_Date":"2020-03-04 14"},"coordinates":[137,6285]},{"type":"Point","properties":{"Station_ID":"PVRW3","Station_Nam":"PLOVER-2-E WATER TREATMENT PLANT","Latitude":"44.45920","Longitude":"-89.49530","Snowdepth":"12.000","Units":"in","Rept_Date":"2020-03-04 13"},"coordinates":[1817,4547]},{"type":"Point","properties":{"Station_ID":"ONMM5","Station_Nam":"ONAMIA RANGER STATION","Latitude":"46.06770","Longitude":"-93.66660","Snowdepth":"12.000","Units":"in","Rept_Date":"2020-03-04 14"},"coordinates":[838,5753]},{"type":"Point","properties":{"Station_ID":"NPTV1","Station_Nam":"NEWPORT","Latitude":"44.94900","Longitude":"-72.19120","Snowdepth":"12.000","Units":"in","Rept_Date":"2020-03-04 12"},"coordinates":[5878,4914]},{"type":"Point","properties":{"Station_ID":"MTQM4","Station_Nam":"MANISTIQUE WWTP","Latitude":"45.95120","Longitude":"-86.25130","Snowdepth":"12.000","Units":"in","Rept_Date":"2020-03-04 12"},"coordinates":[2579,5666]},{"type":"Point","properties":{"Station_ID":"MLLW3","Station_Nam":"MERRILL 8W","Latitude":"45.17810","Longitude":"-89.84810","Snowdepth":"12.000","Units":"in","Rept_Date":"2020-03-04 12"},"coordinates":[1735,5086]},{"type":"Point","properties":{"Station_ID":"ME-CM-98","Station_Nam":"SEBAGO 2.4 ESE, ME","Latitude":"43.88000","Longitude":"-70.63000","Snowdepth":"12.000","Units":"in","Rept_Date":"2020-03-04 16"},"coordinates":[6245,4112]},{"type":"Point","properties":{"Station_ID":"KSEM4","Station_Nam":"KALKASKA 11SE","Latitude":"44.58970","Longitude":"-85.04860","Snowdepth":"12.000","Units":"in","Rept_Date":"2020-03-04 13"},"coordinates":[2861,4644]},{"type":"Point","properties":{"Station_ID":"JEFV1","Station_Nam":"JEFFERSONVILLE","Latitude":"44.58430","Longitude":"-72.78700","Snowdepth":"12.000","Units":"in","Rept_Date":"2020-03-04 12"},"coordinates":[5739,4640]},{"type":"Point","properties":{"Station_ID":"IVPN6","Station_Nam":"IRVING POND","Latitude":"43.16670","Longitude":"-74.48330","Snowdepth":"12.000","Units":"in","Rept_Date":"2020-03-04 17"},"coordinates":[5341,3577]},{"type":"Point","properties":{"Station_ID":"ERJ61","Station_Nam":"CAROGA LAKE","Latitude":"43.13000","Longitude":"-74.48000","Snowdepth":"12.000","Units":"in","Rept_Date":"2020-03-04 17"},"coordinates":[5341,3549]},{"type":"Point","properties":{"Station_ID":"EPTW3","Station_Nam":"EAU PLEINE TENDER","Latitude":"44.77220","Longitude":"-89.76720","Snowdepth":"12.000","Units":"in","Rept_Date":"2020-03-04 13"},"coordinates":[1753,4781]},{"type":"Point","properties":{"Station_ID":"COTM5","Station_Nam":"COTTON","Latitude":"47.16870","Longitude":"-92.46290","Snowdepth":"12.000","Units":"in","Rept_Date":"2020-03-04 12"},"coordinates":[1121,6579]},{"type":"Point","properties":{"Station_ID":"CAN-ON-42","Station_Nam":"VANKLEEK HILL 3.4 S, CA","Latitude":"45.48987","Longitude":"-74.64570","Snowdepth":"12.000","Units":"in","Rept_Date":"2020-03-04 12"},"coordinates":[5302,5320]},{"type":"Point","properties":{"Station_ID":"BRLN3","Station_Nam":"BERLIN","Latitude":"44.45350","Longitude":"-71.18540","Snowdepth":"12.000","Units":"in","Rept_Date":"2020-03-04 12"},"coordinates":[6115,4542]},{"type":"Point","properties":{"Station_ID":"BAGM4","Station_Nam":"BARAGA 7NW","Latitude":"46.82100","Longitude":"-88.60590","Snowdepth":"12.000","Units":"in","Rept_Date":"2020-03-04 13"},"coordinates":[2026,6318]},{"type":"Point","properties":{"Station_ID":"AUW","Station_Nam":"WAUSAU MUNICIPAL AIRPORT","Latitude":"44.92580","Longitude":"-89.62560","Snowdepth":"12.000","Units":"in","Rept_Date":"2020-03-04 12"},"coordinates":[1787,4897]},{"type":"Point","properties":{"Station_ID":"ALXM5","Station_Nam":"ALEXANDRIA","Latitude":"45.87820","Longitude":"-95.38270","Snowdepth":"12.000","Units":"in","Rept_Date":"2020-03-04 21"},"coordinates":[436,5611]},{"type":"Point","properties":{"Station_ID":"CAN-NB-98","Station_Nam":"HOYT 4.2 S, CAN","Latitude":"45.54763","Longitude":"-66.55440","Snowdepth":"11.600","Units":"in","Rept_Date":"2020-03-04 10"},"coordinates":[7201,5363]},{"type":"Point","properties":{"Station_ID":"ND-CS-25","Station_Nam":"FARGO 2.1 N, ND","Latitude":"46.90816","Longitude":"-96.77937","Snowdepth":"11.500","Units":"in","Rept_Date":"2020-03-04 14"},"coordinates":[108,6384]},{"type":"Point","properties":{"Station_ID":"MN-WC-8","Station_Nam":"WASECA 2.0 N, MN","Latitude":"44.11194","Longitude":"-93.49972","Snowdepth":"11.500","Units":"in","Rept_Date":"2020-03-04 11"},"coordinates":[877,4286]},{"type":"Point","properties":{"Station_ID":"NWBN3","Station_Nam":"NORTH WOLFEBORO","Latitude":"43.65610","Longitude":"-71.14280","Snowdepth":"11.300","Units":"in","Rept_Date":"2020-03-04 12"},"coordinates":[6124,3944]},{"type":"Point","properties":{"Station_ID":"WLKM5","Station_Nam":"AH-GWAH-CHING","Latitude":"47.15000","Longitude":"-94.65000","Snowdepth":"11.000","Units":"in","Rept_Date":"2020-03-04 11"},"coordinates":[608,6565]},{"type":"Point","properties":{"Station_ID":"WI-PT-8","Station_Nam":"RUDOLPH 2.1 NNE, WI","Latitude":"44.52553","Longitude":"-89.78677","Snowdepth":"11.000","Units":"in","Rept_Date":"2020-03-04 11"},"coordinates":[1749,4596]},{"type":"Point","properties":{"Station_ID":"VT-WS-33","Station_Nam":"WAITSFIELD 3.5 WNW, VT","Latitude":"44.20052","Longitude":"-72.89421","Snowdepth":"11.000","Units":"in","Rept_Date":"2020-03-04 13"},"coordinates":[5713,4352]},{"type":"Point","properties":{"Station_ID":"VT-OG-11","Station_Nam":"VERSHIRE 1.5 ESE, VT","Latitude":"43.96138","Longitude":"-72.29777","Snowdepth":"11.000","Units":"in","Rept_Date":"2020-03-04 13"},"coordinates":[5853,4173]},{"type":"Point","properties":{"Station_ID":"STRW3","Station_Nam":"STRATFORD 1NW","Latitude":"44.81750","Longitude":"-90.08990","Snowdepth":"11.000","Units":"in","Rept_Date":"2020-03-04 12"},"coordinates":[1678,4815]},{"type":"Point","properties":{"Station_ID":"RRVM4","Station_Nam":"RAPID RIVER 9S","Latitude":"45.78750","Longitude":"-86.93920","Snowdepth":"11.000","Units":"in","Rept_Date":"2020-03-04 16"},"coordinates":[2417,5543]},{"type":"Point","properties":{"Station_ID":"RRLW3","Station_Nam":"MERRILL,WI","Latitude":"45.17860","Longitude":"-89.66170","Snowdepth":"11.000","Units":"in","Rept_Date":"2020-03-04 14"},"coordinates":[1778,5086]},{"type":"Point","properties":{"Station_ID":"PERV1","Station_Nam":"PERU","Latitude":"43.26670","Longitude":"-72.90000","Snowdepth":"11.000","Units":"in","Rept_Date":"2020-03-04 12"},"coordinates":[5712,3652]},{"type":"Point","properties":{"Station_ID":"OTTM5","Station_Nam":"OTTERTAIL,MN","Latitude":"46.41670","Longitude":"-95.56670","Snowdepth":"11.000","Units":"in","Rept_Date":"2020-03-04 12"},"coordinates":[392,6015]},{"type":"Point","properties":{"Station_ID":"ND-CS-1","Station_Nam":"WEST FARGO 3.8 SSE, ND","Latitude":"46.82750","Longitude":"-96.85280","Snowdepth":"11.000","Units":"in","Rept_Date":"2020-03-04 13"},"coordinates":[91,6323]},{"type":"Point","properties":{"Station_ID":"MNP0GYWA","Station_Nam":"WALKER 2.0 SSE","Latitude":"47.07505","Longitude":"-94.56757","Snowdepth":"11.000","Units":"in","Rept_Date":"2020-03-04 11"},"coordinates":[627,6509]},{"type":"Point","properties":{"Station_ID":"LNCM1","Station_Nam":"LINCOLN WATER DISTRICT","Latitude":"45.32410","Longitude":"-68.58300","Snowdepth":"11.000","Units":"in","Rept_Date":"2020-03-04 13"},"coordinates":[6725,5195]},{"type":"Point","properties":{"Station_ID":"HRTM1","Station_Nam":"HARTFORD","Latitude":"44.37440","Longitude":"-70.31620","Snowdepth":"11.000","Units":"in","Rept_Date":"2020-03-04 12"},"coordinates":[6318,4483]},{"type":"Point","properties":{"Station_ID":"FLAM4","Station_Nam":"FIFE LAKE 2WNW","Latitude":"44.58480","Longitude":"-85.36530","Snowdepth":"11.000","Units":"in","Rept_Date":"2020-03-04 12"},"coordinates":[2787,4641]},{"type":"Point","properties":{"Station_ID":"ENGM4","Station_Nam":"ENGADINE MDOT","Latitude":"46.12800","Longitude":"-85.56960","Snowdepth":"11.000","Units":"in","Rept_Date":"2020-03-04 12"},"coordinates":[2739,5799]},{"type":"Point","properties":{"Station_ID":"CAN-ON-118","Station_Nam":"DURHAM 1.4 S, CAN","Latitude":"44.16525","Longitude":"-80.82064","Snowdepth":"11.000","Units":"in","Rept_Date":"2020-03-04 12"},"coordinates":[3853,4326]},{"type":"Point","properties":{"Station_ID":"ABGW3","Station_Nam":"AMBERG 9 E","Latitude":"45.48250","Longitude":"-87.81190","Snowdepth":"11.000","Units":"in","Rept_Date":"2020-03-04 12"},"coordinates":[2212,5314]},{"type":"Point","properties":{"Station_ID":"WI-GN-5","Station_Nam":"MONTICELLO 2.2 SE, WI","Latitude":"42.71990","Longitude":"-89.56360","Snowdepth":"10.500","Units":"in","Rept_Date":"2020-03-04 13"},"coordinates":[1801,3242]},{"type":"Point","properties":{"Station_ID":"VT-WS-19","Station_Nam":"WATERBURY 3.0 NW, VT","Latitude":"44.36060","Longitude":"-72.80770","Snowdepth":"10.500","Units":"in","Rept_Date":"2020-03-04 11"},"coordinates":[5734,4473]},{"type":"Point","properties":{"Station_ID":"VT-WR-2","Station_Nam":"POMFRET 2.6 N, VT","Latitude":"43.74230","Longitude":"-72.52550","Snowdepth":"10.500","Units":"in","Rept_Date":"2020-03-04 12"},"coordinates":[5800,4009]},{"type":"Point","properties":{"Station_ID":"WORV1","Station_Nam":"WORCESTER 2 W","Latitude":"44.37470","Longitude":"-72.58220","Snowdepth":"10.000","Units":"in","Rept_Date":"2020-03-04 12"},"coordinates":[5787,4483]},{"type":"Point","properties":{"Station_ID":"WI-DD-16","Station_Nam":"BEAVER DAM 2.4 WNW, WI","Latitude":"43.47210","Longitude":"-88.88280","Snowdepth":"10.000","Units":"in","Rept_Date":"2020-03-04 13"},"coordinates":[1961,3806]},{"type":"Point","properties":{"Station_ID":"VT-WH-9","Station_Nam":"WEST HALIFAX 0.2 SE, VT","Latitude":"42.78561","Longitude":"-72.76950","Snowdepth":"10.000","Units":"in","Rept_Date":"2020-03-04 13"},"coordinates":[5743,3291]},{"type":"Point","properties":{"Station_ID":"VT-CH-4","Station_Nam":"UNDERHILL 4.4 NNE, VT","Latitude":"44.58774","Longitude":"-72.92250","Snowdepth":"10.000","Units":"in","Rept_Date":"2020-03-04 12"},"coordinates":[5707,4643]},{"type":"Point","properties":{"Station_ID":"STPW3","Station_Nam":"STEVENS POINT","Latitude":"44.51130","Longitude":"-89.58550","Snowdepth":"10.000","Units":"in","Rept_Date":"2020-03-04 13"},"coordinates":[1796,4586]},{"type":"Point","properties":{"Station_ID":"SPOW3","Station_Nam":"SPOONER,WI","Latitude":"45.82360","Longitude":"-91.70000","Snowdepth":"10.000","Units":"in","Rept_Date":"2020-03-04 14"},"coordinates":[1300,5570]},{"type":"Point","properties":{"Station_ID":"SD-CD-30","Station_Nam":"WATERTOWN 2.3 E, SD","Latitude":"44.91604","Longitude":"-97.11925","Snowdepth":"10.000","Units":"in","Rept_Date":"2020-03-04 13"},"coordinates":[28,4889]},{"type":"Point","properties":{"Station_ID":"RDFN6","Station_Nam":"REDFIELD 8N","Latitude":"43.64130","Longitude":"-75.88400","Snowdepth":"10.000","Units":"in","Rept_Date":"2020-03-04 12"},"coordinates":[5012,3933]},{"type":"Point","properties":{"Station_ID":"RCEM5","Station_Nam":"RICE","Latitude":"45.75760","Longitude":"-94.20720","Snowdepth":"10.000","Units":"in","Rept_Date":"2020-03-04 13"},"coordinates":[711,5521]},{"type":"Point","properties":{"Station_ID":"OCON6","Station_Nam":"OSCEOLA","Latitude":"43.49910","Longitude":"-75.71210","Snowdepth":"10.000","Units":"in","Rept_Date":"2020-03-04 12"},"coordinates":[5052,3826]},{"type":"Point","properties":{"Station_ID":"NY-HR-12","Station_Nam":"DOLGEVILLE 1.9 NW, NY","Latitude":"43.12320","Longitude":"-74.79740","Snowdepth":"10.000","Units":"in","Rept_Date":"2020-03-04 12"},"coordinates":[5267,3544]},{"type":"Point","properties":{"Station_ID":"NUNV1","Station_Nam":"NORTH UNDERHILL","Latitude":"44.58760","Longitude":"-72.92150","Snowdepth":"10.000","Units":"in","Rept_Date":"2020-03-04 12"},"coordinates":[5707,4643]},{"type":"Point","properties":{"Station_ID":"NH-MR-6","Station_Nam":"DANBURY 2.2 ESE, NH","Latitude":"43.52000","Longitude":"-71.81900","Snowdepth":"10.000","Units":"in","Rept_Date":"2020-03-04 13"},"coordinates":[5966,3842]},{"type":"Point","properties":{"Station_ID":"MNEY8CTB","Station_Nam":"MIDLAND JUNCTION 2.2 ENE","Latitude":"44.33041","Longitude":"-91.95891","Snowdepth":"10.000","Units":"in","Rept_Date":"2020-03-04 14"},"coordinates":[1239,4450]},{"type":"Point","properties":{"Station_ID":"MN7M8EBJ","Station_Nam":"LUTSEN 15.7 NNW","Latitude":"47.85324","Longitude":"-89.92908","Snowdepth":"10.000","Units":"in","Rept_Date":"2020-03-04 14"},"coordinates":[1715,7093]},{"type":"Point","properties":{"Station_ID":"MN-CY-1","Station_Nam":"MOORHEAD 2.0 N, MN","Latitude":"46.88766","Longitude":"-96.74800","Snowdepth":"10.000","Units":"in","Rept_Date":"2020-03-04 13"},"coordinates":[115,6368]},{"type":"Point","properties":{"Station_ID":"MI-BZ-1","Station_Nam":"BENZONIA 5.3 S, MI","Latitude":"44.53976","Longitude":"-86.10650","Snowdepth":"10.000","Units":"in","Rept_Date":"2020-03-04 13"},"coordinates":[2613,4607]},{"type":"Point","properties":{"Station_ID":"KGFK","Station_Nam":"GRAND FORKS INTERNATIONAL","Latitude":"47.95000","Longitude":"-97.18333","Snowdepth":"10.000","Units":"in","Rept_Date":"2020-03-05 00"},"coordinates":[13,7165]},{"type":"Point","properties":{"Station_ID":"GFK","Station_Nam":"GRAND FORKS INTERNATIONAL AIRPORT","Latitude":"47.94920","Longitude":"-97.17610","Snowdepth":"10.000","Units":"in","Rept_Date":"2020-03-05 00"},"coordinates":[15,7165]},{"type":"Point","properties":{"Station_ID":"GFDN6","Station_Nam":"CHASES LAKE","Latitude":"43.75920","Longitude":"-75.29980","Snowdepth":"10.000","Units":"in","Rept_Date":"2020-03-04 11"},"coordinates":[5149,4021]},{"type":"Point","properties":{"Station_ID":"FDRN8","Station_Nam":"FARGO 3S","Latitude":"46.82930","Longitude":"-96.79620","Snowdepth":"10.000","Units":"in","Rept_Date":"2020-03-05 02"},"coordinates":[104,6325]},{"type":"Point","properties":{"Station_ID":"FAR","Station_Nam":"HECTOR INTERNATIONAL ARPT","Latitude":"46.91560","Longitude":"-96.81440","Snowdepth":"10.000","Units":"in","Rept_Date":"2020-03-04 13"},"coordinates":[100,6389]},{"type":"Point","properties":{"Station_ID":"ESAM4","Station_Nam":"ESCANABA","Latitude":"45.74380","Longitude":"-87.04060","Snowdepth":"10.000","Units":"in","Rept_Date":"2020-03-04 11"},"coordinates":[2393,5510]},{"type":"Point","properties":{"Station_ID":"COLN3","Station_Nam":"COLEBROOK 3SW","Latitude":"44.86100","Longitude":"-71.53920","Snowdepth":"10.000","Units":"in","Rept_Date":"2020-03-04 12"},"coordinates":[6031,4848]},{"type":"Point","properties":{"Station_ID":"CLGM5","Station_Nam":"COLLEGEVILLE ST JOHN","Latitude":"45.57940","Longitude":"-94.39200","Snowdepth":"10.000","Units":"in","Rept_Date":"2020-03-05 00"},"coordinates":[668,5387]},{"type":"Point","properties":{"Station_ID":"CAN-PE-10","Station_Nam":"NEW LONDON 1.6 ENE, CA","Latitude":"46.46985","Longitude":"-63.49200","Snowdepth":"10.000","Units":"in","Rept_Date":"2020-03-04 12"},"coordinates":[7920,6055]},{"type":"Point","properties":{"Station_ID":"WI-WN-9","Station_Nam":"NEENAH 1.1 ENE, WI","Latitude":"44.17370","Longitude":"-88.45130","Snowdepth":"9.500","Units":"in","Rept_Date":"2020-03-04 13"},"coordinates":[2062,4332]},{"type":"Point","properties":{"Station_ID":"WI-CH-7","Station_Nam":"CHIPPEWA FALLS 1.2 E, WI","Latitude":"44.92920","Longitude":"-91.36730","Snowdepth":"9.500","Units":"in","Rept_Date":"2020-03-04 13"},"coordinates":[1378,4899]},{"type":"Point","properties":{"Station_ID":"NY-OD-2","Station_Nam":"POINT ROCK 0.6 SE, NY","Latitude":"43.37335","Longitude":"-75.53840","Snowdepth":"9.500","Units":"in","Rept_Date":"2020-03-04 13"},"coordinates":[5093,3732]},{"type":"Point","properties":{"Station_ID":"MI-GT-21","Station_Nam":"KINGSLEY 2.7 ENE, MI","Latitude":"44.59871","Longitude":"-85.48426","Snowdepth":"9.500","Units":"in","Rept_Date":"2020-03-04 13"},"coordinates":[2759,4651]},{"type":"Point","properties":{"Station_ID":"MFDW3S","Station_Nam":"SNW MARSHFIELD","Latitude":"44.64111","Longitude":"-90.18111","Snowdepth":"9.400","Units":"in","Rept_Date":"2020-03-04 19"},"coordinates":[1656,4683]},{"type":"Point","properties":{"Station_ID":"GAGN3","Station_Nam":"GAGE HILL","Latitude":"43.57470","Longitude":"-71.04130","Snowdepth":"9.400","Units":"in","Rept_Date":"2020-03-04 12"},"coordinates":[6148,3883]},{"type":"Point","properties":{"Station_ID":"STPW3S","Station_Nam":"SNW STEVENS POINT","Latitude":"44.54222","Longitude":"-89.54139","Snowdepth":"9.300","Units":"in","Rept_Date":"2020-03-04 17"},"coordinates":[1806,4609]},{"type":"Point","properties":{"Station_ID":"GOON3","Station_Nam":"GOOSE POND","Latitude":"43.71720","Longitude":"-72.09640","Snowdepth":"9.200","Units":"in","Rept_Date":"2020-03-04 12"},"coordinates":[5901,3990]},{"type":"Point","properties":{"Station_ID":"WSKW3","Station_Nam":"WAUSAUKEE","Latitude":"45.38020","Longitude":"-87.95660","Snowdepth":"9.000","Units":"in","Rept_Date":"2020-03-04 14"},"coordinates":[2178,5238]},{"type":"Point","properties":{"Station_ID":"WI-EC-23","Station_Nam":"EAU CLAIRE 3.7 S, WI","Latitude":"44.76858","Longitude":"-91.49898","Snowdepth":"9.000","Units":"in","Rept_Date":"2020-03-04 14"},"coordinates":[1347,4779]},{"type":"Point","properties":{"Station_ID":"WASW3","Station_Nam":"WASHINGTON IS","Latitude":"45.35800","Longitude":"-86.89110","Snowdepth":"9.000","Units":"in","Rept_Date":"2020-03-04 12"},"coordinates":[2428,5221]},{"type":"Point","properties":{"Station_ID":"VT-LM-1","Station_Nam":"STOWE 0.2 SW, VT","Latitude":"44.46399","Longitude":"-72.69070","Snowdepth":"9.000","Units":"in","Rept_Date":"2020-03-04 12"},"coordinates":[5761,4550]},{"type":"Point","properties":{"Station_ID":"VT-FR-19","Station_Nam":"SWANTON 0.5 NNE, VT","Latitude":"44.92590","Longitude":"-73.12145","Snowdepth":"9.000","Units":"in","Rept_Date":"2020-03-04 12"},"coordinates":[5660,4897]},{"type":"Point","properties":{"Station_ID":"VT-AD-20","Station_Nam":"HANCOCK 0.3 S, VT","Latitude":"43.92166","Longitude":"-72.84042","Snowdepth":"9.000","Units":"in","Rept_Date":"2020-03-04 12"},"coordinates":[5726,4143]},{"type":"Point","properties":{"Station_ID":"TOPM1","Station_Nam":"TOPSFIELD","Latitude":"45.43470","Longitude":"-67.72020","Snowdepth":"9.000","Units":"in","Rept_Date":"2020-03-04 11"},"coordinates":[6928,5278]},{"type":"Point","properties":{"Station_ID":"ROWM3","Station_Nam":"ROWE 3NE","Latitude":"42.73500","Longitude":"-72.86920","Snowdepth":"9.000","Units":"in","Rept_Date":"2020-03-04 14"},"coordinates":[5719,3253]},{"type":"Point","properties":{"Station_ID":"PLFV1","Station_Nam":"PLAINFIELD","Latitude":"44.27610","Longitude":"-72.41500","Snowdepth":"9.000","Units":"in","Rept_Date":"2020-03-04 12"},"coordinates":[5826,4409]},{"type":"Point","properties":{"Station_ID":"PBAN8","Station_Nam":"SITE 1-3MI.N","Latitude":"48.97420","Longitude":"-97.23860","Snowdepth":"9.000","Units":"in","Rept_Date":"2020-03-04 13"},"coordinates":[0,7934]},{"type":"Point","properties":{"Station_ID":"NYMM5","Station_Nam":"NEW YORK MILLS","Latitude":"46.50920","Longitude":"-95.37990","Snowdepth":"9.000","Units":"in","Rept_Date":"2020-03-04 13"},"coordinates":[436,6085]},{"type":"Point","properties":{"Station_ID":"NVLV1","Station_Nam":"NASHVILLE","Latitude":"44.44970","Longitude":"-72.92640","Snowdepth":"9.000","Units":"in","Rept_Date":"2020-03-04 12"},"coordinates":[5706,4539]},{"type":"Point","properties":{"Station_ID":"NUMM5","Station_Nam":"NEW ULM 3SE","Latitude":"44.29450","Longitude":"-94.40840","Snowdepth":"9.000","Units":"in","Rept_Date":"2020-03-04 11"},"coordinates":[664,4423]},{"type":"Point","properties":{"Station_ID":"NH-CR-46","Station_Nam":"NORTH CONWAY 1.8 SSE, NH","Latitude":"44.02955","Longitude":"-71.11664","Snowdepth":"9.000","Units":"in","Rept_Date":"2020-03-04 15"},"coordinates":[6131,4224]},{"type":"Point","properties":{"Station_ID":"NCON3","Station_Nam":"NORTH CONWAY","Latitude":"44.05620","Longitude":"-71.12970","Snowdepth":"9.000","Units":"in","Rept_Date":"2020-03-04 13"},"coordinates":[6128,4244]},{"type":"Point","properties":{"Station_ID":"MNF74YNU","Station_Nam":"NEW ULM 3.3 ESE","Latitude":"44.29029","Longitude":"-94.40196","Snowdepth":"9.000","Units":"in","Rept_Date":"2020-03-04 11"},"coordinates":[666,4420]},{"type":"Point","properties":{"Station_ID":"MN-SH-985","Station_Nam":"PRINCETON 3.3 WSW, MN","Latitude":"45.55211","Longitude":"-93.64481","Snowdepth":"9.000","Units":"in","Rept_Date":"2020-03-04 11"},"coordinates":[843,5366]},{"type":"Point","properties":{"Station_ID":"MN-SH-10","Station_Nam":"BIG LAKE 5.6 NNE, MN","Latitude":"45.41409","Longitude":"-93.69190","Snowdepth":"9.000","Units":"in","Rept_Date":"2020-03-04 13"},"coordinates":[832,5263]},{"type":"Point","properties":{"Station_ID":"MN-MR-4","Station_Nam":"LITTLE FALLS 1.2 SW, MN","Latitude":"45.96886","Longitude":"-94.37720","Snowdepth":"9.000","Units":"in","Rept_Date":"2020-03-04 13"},"coordinates":[672,5679]},{"type":"Point","properties":{"Station_ID":"MN-MR-13","Station_Nam":"LITTLE FALLS 8.0 NE, MN","Latitude":"46.06785","Longitude":"-94.24789","Snowdepth":"9.000","Units":"in","Rept_Date":"2020-03-04 13"},"coordinates":[702,5753]},{"type":"Point","properties":{"Station_ID":"MN-MC-16","Station_Nam":"HUTCHINSON 0.1 ENE, MN","Latitude":"44.88633","Longitude":"-94.37503","Snowdepth":"9.000","Units":"in","Rept_Date":"2020-03-04 13"},"coordinates":[672,4867]},{"type":"Point","properties":{"Station_ID":"MN-AA-76","Station_Nam":"NOWTHEN 2.9 SSE, MN","Latitude":"45.30360","Longitude":"-93.42620","Snowdepth":"9.000","Units":"in","Rept_Date":"2020-03-04 13"},"coordinates":[895,5180]},{"type":"Point","properties":{"Station_ID":"MLCM5","Station_Nam":"MILACA","Latitude":"45.75320","Longitude":"-93.66170","Snowdepth":"9.000","Units":"in","Rept_Date":"2020-03-04 13"},"coordinates":[839,5517]},{"type":"Point","properties":{"Station_ID":"MI-CF-9","Station_Nam":"GRAYLING 15.8 NE, MI","Latitude":"44.80464","Longitude":"-84.46313","Snowdepth":"9.000","Units":"in","Rept_Date":"2020-03-04 12"},"coordinates":[2998,4806]},{"type":"Point","properties":{"Station_ID":"MEDW3","Station_Nam":"MEDFORD","Latitude":"45.13080","Longitude":"-90.34390","Snowdepth":"9.000","Units":"in","Rept_Date":"2020-03-04 14"},"coordinates":[1618,5050]},{"type":"Point","properties":{"Station_ID":"ME-CM-86","Station_Nam":"POWNAL 4.1 S, ME","Latitude":"43.85370","Longitude":"-70.17210","Snowdepth":"9.000","Units":"in","Rept_Date":"2020-03-04 12"},"coordinates":[6352,4092]},{"type":"Point","properties":{"Station_ID":"MCLN8","Station_Nam":"MC LEOD,ND","Latitude":"46.40250","Longitude":"-97.23810","Snowdepth":"9.000","Units":"in","Rept_Date":"2020-03-04 14"},"coordinates":[0,6004]},{"type":"Point","properties":{"Station_ID":"MALN6","Station_Nam":"MALONE","Latitude":"44.84180","Longitude":"-74.30600","Snowdepth":"9.000","Units":"in","Rept_Date":"2020-03-04 12"},"coordinates":[5382,4834]},{"type":"Point","properties":{"Station_ID":"LMLI4","Station_Nam":"LAKE MILLS,IA","Latitude":"43.40000","Longitude":"-93.53330","Snowdepth":"9.000","Units":"in","Rept_Date":"2020-03-04 13"},"coordinates":[870,3752]},{"type":"Point","properties":{"Station_ID":"LCHM5","Station_Nam":"LITCHFIELD","Latitude":"45.12790","Longitude":"-94.53480","Snowdepth":"9.000","Units":"in","Rept_Date":"2020-03-04 14"},"coordinates":[635,5048]},{"type":"Point","properties":{"Station_ID":"KLKM4","Station_Nam":"KALKASKA","Latitude":"44.72800","Longitude":"-85.17270","Snowdepth":"9.000","Units":"in","Rept_Date":"2020-03-04 13"},"coordinates":[2832,4748]},{"type":"Point","properties":{"Station_ID":"JEFN3","Station_Nam":"JEFFERSON","Latitude":"44.41690","Longitude":"-71.50080","Snowdepth":"9.000","Units":"in","Rept_Date":"2020-03-04 12"},"coordinates":[6040,4515]},{"type":"Point","properties":{"Station_ID":"CNTW3","Station_Nam":"CLINTONVILLE","Latitude":"44.62270","Longitude":"-88.74830","Snowdepth":"9.000","Units":"in","Rept_Date":"2020-03-04 13"},"coordinates":[1993,4669]},{"type":"Point","properties":{"Station_ID":"BFSW3","Station_Nam":"BIG FALLS-5 NW","Latitude":"44.63980","Longitude":"-89.11330","Snowdepth":"9.000","Units":"in","Rept_Date":"2020-03-04 13"},"coordinates":[1907,4682]},{"type":"Point","properties":{"Station_ID":"BALW3","Station_Nam":"BALDWIN","Latitude":"44.96330","Longitude":"-92.39050","Snowdepth":"9.000","Units":"in","Rept_Date":"2020-03-04 13"},"coordinates":[1138,4925]},{"type":"Point","properties":{"Station_ID":"VT-WR-17","Station_Nam":"ROCHESTER 2.3 NE, VT","Latitude":"43.89418","Longitude":"-72.76992","Snowdepth":"8.500","Units":"in","Rept_Date":"2020-03-04 12"},"coordinates":[5743,4123]},{"type":"Point","properties":{"Station_ID":"NH-MR-60","Station_Nam":"SOUTH SUTTON 1.3 SE, NH","Latitude":"43.29531","Longitude":"-71.90238","Snowdepth":"8.500","Units":"in","Rept_Date":"2020-03-04 13"},"coordinates":[5946,3673]},{"type":"Point","properties":{"Station_ID":"MN-FM-10","Station_Nam":"WYKOFF 3.1 NW, MN","Latitude":"43.74340","Longitude":"-92.30650","Snowdepth":"8.500","Units":"in","Rept_Date":"2020-03-04 13"},"coordinates":[1158,4010]},{"type":"Point","properties":{"Station_ID":"MI-EM-5","Station_Nam":"HARBOR SPRINGS 0.7 ENE, MI","Latitude":"45.43450","Longitude":"-84.97540","Snowdepth":"8.500","Units":"in","Rept_Date":"2020-03-04 12"},"coordinates":[2878,5278]},{"type":"Point","properties":{"Station_ID":"ME-CM-125","Station_Nam":"CUMBERLAND CENTER 4.4 NW, ME","Latitude":"43.84640","Longitude":"-70.31340","Snowdepth":"8.500","Units":"in","Rept_Date":"2020-03-04 12"},"coordinates":[6319,4087]},{"type":"Point","properties":{"Station_ID":"MDVW3S","Station_Nam":"SNW MONDOVI","Latitude":"44.57194","Longitude":"-91.65472","Snowdepth":"8.300","Units":"in","Rept_Date":"2020-03-04 21"},"coordinates":[1311,4631]},{"type":"Point","properties":{"Station_ID":"BLAW3S","Station_Nam":"SNW BLAIR","Latitude":"44.28417","Longitude":"-91.23833","Snowdepth":"8.200","Units":"in","Rept_Date":"2020-03-04 22"},"coordinates":[1408,4415]},{"type":"Point","properties":{"Station_ID":"WNDM1","Station_Nam":"WINDHAM 2NW","Latitude":"43.85670","Longitude":"-70.46630","Snowdepth":"8.000","Units":"in","Rept_Date":"2020-03-04 12"},"coordinates":[6283,4095]},{"type":"Point","properties":{"Station_ID":"WLDM5","Station_Nam":"WILD RIVER STATE PARK","Latitude":"45.52310","Longitude":"-92.74890","Snowdepth":"8.000","Units":"in","Rept_Date":"2020-03-04 14"},"coordinates":[1054,5345]},{"type":"Point","properties":{"Station_ID":"WIRW3","Station_Nam":"WIS RAPIDS GRAND AV B","Latitude":"44.39940","Longitude":"-89.83050","Snowdepth":"8.000","Units":"in","Rept_Date":"2020-03-04 13"},"coordinates":[1739,4502]},{"type":"Point","properties":{"Station_ID":"WI-WD-7","Station_Nam":"NEKOOSA 3.7 SSW, WI","Latitude":"44.26305","Longitude":"-89.93526","Snowdepth":"8.000","Units":"in","Rept_Date":"2020-03-04 13"},"coordinates":[1714,4399]},{"type":"Point","properties":{"Station_ID":"WI-PP-2","Station_Nam":"STOCKHOLM 3.0 NE, WI","Latitude":"44.51789","Longitude":"-92.22370","Snowdepth":"8.000","Units":"in","Rept_Date":"2020-03-04 14"},"coordinates":[1177,4591]},{"type":"Point","properties":{"Station_ID":"WI-CT-4","Station_Nam":"MENASHA 5.4 ESE, WI","Latitude":"44.19640","Longitude":"-88.33070","Snowdepth":"8.000","Units":"in","Rept_Date":"2020-03-04 13"},"coordinates":[2091,4349]},{"type":"Point","properties":{"Station_ID":"THLM5","Station_Nam":"THEILMAN 1SSW","Latitude":"44.28130","Longitude":"-92.19430","Snowdepth":"8.000","Units":"in","Rept_Date":"2020-03-04 13"},"coordinates":[1184,4413]},{"type":"Point","properties":{"Station_ID":"SHIW3","Station_Nam":"SHIOCTON","Latitude":"44.43890","Longitude":"-88.58390","Snowdepth":"8.000","Units":"in","Rept_Date":"2020-03-04 14"},"coordinates":[2031,4531]},{"type":"Point","properties":{"Station_ID":"RARM4","Station_Nam":"RAPID RIVER 1 SW","Latitude":"45.91500","Longitude":"-86.98800","Snowdepth":"8.000","Units":"in","Rept_Date":"2020-03-04 12"},"coordinates":[2406,5639]},{"type":"Point","properties":{"Station_ID":"PARM4","Station_Nam":"PARENT BAY","Latitude":"45.79610","Longitude":"-86.40110","Snowdepth":"8.000","Units":"in","Rept_Date":"2020-03-04 16"},"coordinates":[2543,5550]},{"type":"Point","properties":{"Station_ID":"NWSM1","Station_Nam":"NEW SHARON","Latitude":"44.63520","Longitude":"-70.00020","Snowdepth":"8.000","Units":"in","Rept_Date":"2020-03-04 12"},"coordinates":[6393,4679]},{"type":"Point","properties":{"Station_ID":"MN-SR-29","Station_Nam":"ALBANY 3.8 S, MN","Latitude":"45.57441","Longitude":"-94.55543","Snowdepth":"8.000","Units":"in","Rept_Date":"2020-03-04 13"},"coordinates":[630,5383]},{"type":"Point","properties":{"Station_ID":"MN-SE-2","Station_Nam":"OWATONNA 0.8 E, MN","Latitude":"44.09170","Longitude":"-93.21380","Snowdepth":"8.000","Units":"in","Rept_Date":"2020-03-04 12"},"coordinates":[945,4271]},{"type":"Point","properties":{"Station_ID":"MI-CP-7","Station_Nam":"DRUMMOND 2.9 NE, MI","Latitude":"46.05329","Longitude":"-83.69060","Snowdepth":"8.000","Units":"in","Rept_Date":"2020-03-04 14"},"coordinates":[3180,5742]},{"type":"Point","properties":{"Station_ID":"ME-YK-3","Station_Nam":"HOLLIS CENTER 5.4 NW, ME","Latitude":"43.64750","Longitude":"-70.67510","Snowdepth":"8.000","Units":"in","Rept_Date":"2020-03-04 12"},"coordinates":[6234,3938]},{"type":"Point","properties":{"Station_ID":"MAPM4","Station_Nam":"MAPLE CITY 1E","Latitude":"44.85500","Longitude":"-85.83520","Snowdepth":"8.000","Units":"in","Rept_Date":"2020-03-04 23"},"coordinates":[2676,4843]},{"type":"Point","properties":{"Station_ID":"MA-HS-7","Station_Nam":"PLAINFIELD 2.2 SW, MA","Latitude":"42.49272","Longitude":"-72.94540","Snowdepth":"8.000","Units":"in","Rept_Date":"2020-03-04 13"},"coordinates":[5701,3071]},{"type":"Point","properties":{"Station_ID":"HOLM1","Station_Nam":"HOLLIS","Latitude":"43.64750","Longitude":"-70.67490","Snowdepth":"8.000","Units":"in","Rept_Date":"2020-03-04 11"},"coordinates":[6234,3938]},{"type":"Point","properties":{"Station_ID":"HMYM1","Station_Nam":"HARMONY","Latitude":"44.94660","Longitude":"-69.54560","Snowdepth":"8.000","Units":"in","Rept_Date":"2020-03-04 11"},"coordinates":[6499,4912]},{"type":"Point","properties":{"Station_ID":"FORM5","Station_Nam":"FOREST LAKE 5NE","Latitude":"45.33170","Longitude":"-92.89820","Snowdepth":"8.000","Units":"in","Rept_Date":"2020-03-04 13"},"coordinates":[1019,5201]},{"type":"Point","properties":{"Station_ID":"ENFV1","Station_Nam":"ENOSBURG FALLS 2","Latitude":"44.90960","Longitude":"-72.81370","Snowdepth":"8.000","Units":"in","Rept_Date":"2020-03-04 10"},"coordinates":[5732,4884]},{"type":"Point","properties":{"Station_ID":"ARTM5","Station_Nam":"ARTICHOKE LAKE 1 E","Latitude":"45.38560","Longitude":"-96.12570","Snowdepth":"8.000","Units":"in","Rept_Date":"2020-03-05 00"},"coordinates":[261,5242]},{"type":"Point","properties":{"Station_ID":"ME-CM-54","Station_Nam":"WINDHAM 3.9 NW, ME","Latitude":"43.85787","Longitude":"-70.46200","Snowdepth":"7.800","Units":"in","Rept_Date":"2020-03-04 12"},"coordinates":[6284,4095]},{"type":"Point","properties":{"Station_ID":"MRDN3","Station_Nam":"MEREDITH","Latitude":"43.63060","Longitude":"-71.52060","Snowdepth":"7.600","Units":"in","Rept_Date":"2020-03-04 12"},"coordinates":[6036,3925]},{"type":"Point","properties":{"Station_ID":"DEXW3S","Station_Nam":"DEXTERVILLE SNOW","Latitude":"44.38194","Longitude":"-90.11194","Snowdepth":"7.600","Units":"in","Rept_Date":"2020-03-04 18"},"coordinates":[1673,4489]},{"type":"Point","properties":{"Station_ID":"CAN-NB-29","Station_Nam":"SUSSEX 1.0 WNW - KWRC, CAN","Latitude":"45.72670","Longitude":"-65.52858","Snowdepth":"7.600","Units":"in","Rept_Date":"2020-03-04 12"},"coordinates":[7442,5497]},{"type":"Point","properties":{"Station_ID":"OSSW3S","Station_Nam":"SNW OSSEO","Latitude":"44.58000","Longitude":"-91.19556","Snowdepth":"7.500","Units":"in","Rept_Date":"2020-03-04 21"},"coordinates":[1418,4637]},{"type":"Point","properties":{"Station_ID":"NY-SR-22","Station_Nam":"GREENFIELD CENTER 1.6 W, NY","Latitude":"43.12684","Longitude":"-73.87860","Snowdepth":"7.500","Units":"in","Rept_Date":"2020-03-04 13"},"coordinates":[5482,3547]},{"type":"Point","properties":{"Station_ID":"NH-MR-45","Station_Nam":"NORTHFIELD 2.8 E, NH","Latitude":"43.43945","Longitude":"-71.53730","Snowdepth":"7.500","Units":"in","Rept_Date":"2020-03-04 12"},"coordinates":[6032,3782]},{"type":"Point","properties":{"Station_ID":"ME-CM-3","Station_Nam":"NEW GLOUCESTER 3.0 SE, ME","Latitude":"43.92372","Longitude":"-70.25790","Snowdepth":"7.500","Units":"in","Rept_Date":"2020-03-04 12"},"coordinates":[6332,4145]},{"type":"Point","properties":{"Station_ID":"SPAW3S","Station_Nam":"SNW SPARTA","Latitude":"43.94167","Longitude":"-90.77306","Snowdepth":"7.300","Units":"in","Rept_Date":"2020-03-04 23"},"coordinates":[1517,4158]},{"type":"Point","properties":{"Station_ID":"NEIW3S","Station_Nam":"SNW NEILLSVILLE","Latitude":"44.55250","Longitude":"-90.58472","Snowdepth":"7.300","Units":"in","Rept_Date":"2020-03-04 20"},"coordinates":[1562,4617]},{"type":"Point","properties":{"Station_ID":"CTRN3","Station_Nam":"CENTER HARBOR","Latitude":"43.70970","Longitude":"-71.47780","Snowdepth":"7.200","Units":"in","Rept_Date":"2020-03-04 12"},"coordinates":[6046,3984]},{"type":"Point","properties":{"Station_ID":"WYON6","Station_Nam":"WYOMING 3W","Latitude":"42.82060","Longitude":"-78.14810","Snowdepth":"7.000","Units":"in","Rept_Date":"2020-03-04 12"},"coordinates":[4480,3317]},{"type":"Point","properties":{"Station_ID":"WTBW3","Station_Nam":"WEST BEND PUBLIC WORKS","Latitude":"43.41110","Longitude":"-88.19380","Snowdepth":"7.000","Units":"in","Rept_Date":"2020-03-04 13"},"coordinates":[2123,3760]},{"type":"Point","properties":{"Station_ID":"WSWN6","Station_Nam":"WARSAW","Latitude":"42.74220","Longitude":"-78.20850","Snowdepth":"7.000","Units":"in","Rept_Date":"2020-03-04 12"},"coordinates":[4466,3258]},{"type":"Point","properties":{"Station_ID":"WMRM5","Station_Nam":"WILLMAR 5N","Latitude":"45.19010","Longitude":"-95.05860","Snowdepth":"7.000","Units":"in","Rept_Date":"2020-03-04 12"},"coordinates":[512,5095]},{"type":"Point","properties":{"Station_ID":"WI-TR-8","Station_Nam":"ETTRICK 4.0 WNW, WI","Latitude":"44.19004","Longitude":"-91.34249","Snowdepth":"7.000","Units":"in","Rept_Date":"2020-03-04 13"},"coordinates":[1384,4345]},{"type":"Point","properties":{"Station_ID":"WI-DA-62","Station_Nam":"WAUNAKEE 4.9 W, WI","Latitude":"43.19755","Longitude":"-89.54904","Snowdepth":"7.000","Units":"in","Rept_Date":"2020-03-04 13"},"coordinates":[1805,3600]},{"type":"Point","properties":{"Station_ID":"VQAW3","Station_Nam":"VIROQUA","Latitude":"43.55970","Longitude":"-90.87560","Snowdepth":"7.000","Units":"in","Rept_Date":"2020-03-04 13"},"coordinates":[1493,3872]},{"type":"Point","properties":{"Station_ID":"TCMM4","Station_Nam":"TRAVERSE CITY MUNSON","Latitude":"44.76070","Longitude":"-85.64430","Snowdepth":"7.000","Units":"in","Rept_Date":"2020-03-04 11"},"coordinates":[2721,4773]},{"type":"Point","properties":{"Station_ID":"SJBV1","Station_Nam":"SAINT JOHNSBURY","Latitude":"44.42000","Longitude":"-72.01940","Snowdepth":"7.000","Units":"in","Rept_Date":"2020-03-04 21"},"coordinates":[5919,4517]},{"type":"Point","properties":{"Station_ID":"SANI4","Station_Nam":"ST ANSGAR","Latitude":"43.38170","Longitude":"-92.92320","Snowdepth":"7.000","Units":"in","Rept_Date":"2020-03-04 12"},"coordinates":[1013,3738]},{"type":"Point","properties":{"Station_ID":"PLOW3","Station_Nam":"PLOVER","Latitude":"44.44280","Longitude":"-89.54530","Snowdepth":"7.000","Units":"in","Rept_Date":"2020-03-04 13"},"coordinates":[1806,4534]},