{"type":"Topology","objects":{"snowdepth_geo":{"type":"GeometryCollection","geometries":[{"type":"Point","coordinates":[-72.8154,44.5248],"properties":{"Station_ID":"MMNV1","Station_Nam":"MT. MANSFIELD","Latitude":"44.52480","Longitude":"-72.81540","Snowdepth":"91.000","Units":"in","Rept_Date":"2025-04-12 20"}},{"type":"Point","coordinates":[-86.62,46.4258],"properties":{"Station_ID":"PRKM4","Station_Nam":"MUNISING EAST","Latitude":"46.42580","Longitude":"-86.62000","Snowdepth":"76.500","Units":"in","Rept_Date":"2025-04-13 06"}},{"type":"Point","coordinates":[-69.6747,50.7925],"properties":{"Station_ID":"CQOU","Station_Nam":"CQOU","Latitude":"50.79250","Longitude":"-69.67470","Snowdepth":"41.850","Units":"in","Rept_Date":"2025-04-12 12"}},{"type":"Point","coordinates":[-67.1394,51.1114],"properties":{"Station_ID":"CQGD","Station_Nam":"CQGD","Latitude":"51.11140","Longitude":"-67.13940","Snowdepth":"39.370","Units":"in","Rept_Date":"2025-04-12 12"}},{"type":"Point","coordinates":[-86.6625,46.4121],"properties":{"Station_ID":"MNSM4","Station_Nam":"MUNISING","Latitude":"46.41210","Longitude":"-86.66250","Snowdepth":"38.000","Units":"in","Rept_Date":"2025-04-12 11"}},{"type":"Point","coordinates":[-68.8236,50.6617],"properties":{"Station_ID":"CMLZ","Station_Nam":"CMLZ","Latitude":"50.66170","Longitude":"-68.82360","Snowdepth":"37.992","Units":"in","Rept_Date":"2025-04-12 12"}},{"type":"Point","coordinates":[-88.6717,47.0416],"properties":{"Station_ID":"PDLM4","Station_Nam":"PAINESDALE","Latitude":"47.04160","Longitude":"-88.67170","Snowdepth":"35.000","Units":"in","Rept_Date":"2025-04-12 12"}},{"type":"Point","coordinates":[-75.1,50.7236],"properties":{"Station_ID":"CQLB","Station_Nam":"CQLB","Latitude":"50.72360","Longitude":"-75.10000","Snowdepth":"30.669","Units":"in","Rept_Date":"2025-04-12 12"}},{"type":"Point","coordinates":[-69.3569,49.66],"properties":{"Station_ID":"CQTV","Station_Nam":"CQTV","Latitude":"49.66000","Longitude":"-69.35690","Snowdepth":"28.701","Units":"in","Rept_Date":"2025-04-12 12"}},{"type":"Point","coordinates":[-74.2064,48.855],"properties":{"Station_ID":"CQGO","Station_Nam":"CQGO","Latitude":"48.85500","Longitude":"-74.20640","Snowdepth":"28.583","Units":"in","Rept_Date":"2025-04-12 12"}},{"type":"Point","coordinates":[-74.4039,50.8328],"properties":{"Station_ID":"CQFT","Station_Nam":"CQFT","Latitude":"50.83280","Longitude":"-74.40390","Snowdepth":"26.968","Units":"in","Rept_Date":"2025-04-12 12"}},{"type":"Point","coordinates":[-70.0806,51.3283],"properties":{"Station_ID":"CQCX","Station_Nam":"CQCX","Latitude":"51.32830","Longitude":"-70.08060","Snowdepth":"26.614","Units":"in","Rept_Date":"2025-04-12 12"}},{"type":"Point","coordinates":[-67.6264,49.6472],"properties":{"Station_ID":"CQGT","Station_Nam":"CQGT","Latitude":"49.64720","Longitude":"-67.62640","Snowdepth":"25.748","Units":"in","Rept_Date":"2025-04-12 12"}},{"type":"Point","coordinates":[-88.2077,46.5573],"properties":{"Station_ID":"MI-BG-3","Station_Nam":"THREE LAKES, MI","Latitude":"46.55730","Longitude":"-88.20770","Snowdepth":"25.000","Units":"in","Rept_Date":"2025-04-12 12"}},{"type":"Point","coordinates":[-82.5757,48.526],"properties":{"Station_ID":"AUDQ6","Station_Nam":"AUDEN","Latitude":"48.52600","Longitude":"-82.57570","Snowdepth":"23.150","Units":"in","Rept_Date":"2025-04-13 06"}},{"type":"Point","coordinates":[-88.5795,47.1364],"properties":{"Station_ID":"QNCM4","Station_Nam":"QUINCY HILL","Latitude":"47.13640","Longitude":"-88.57950","Snowdepth":"23.000","Units":"in","Rept_Date":"2025-04-12 11"}},{"type":"Point","coordinates":[-87.2292,49.2288],"properties":{"Station_ID":"TRIQ6","Station_Nam":"TRIO LAKE","Latitude":"49.22880","Longitude":"-87.22920","Snowdepth":"22.830","Units":"in","Rept_Date":"2025-04-13 06"}},{"type":"Point","coordinates":[-86.6594,49.0695],"properties":{"Station_ID":"PTLQ6","Station_Nam":"PORTAGE LAKE","Latitude":"49.06950","Longitude":"-86.65940","Snowdepth":"22.090","Units":"in","Rept_Date":"2025-04-13 06"}},{"type":"Point","coordinates":[-87.7644,49.1989],"properties":{"Station_ID":"DVLQ6","Station_Nam":"DEVIOUS LAKE","Latitude":"49.19890","Longitude":"-87.76440","Snowdepth":"21.500","Units":"in","Rept_Date":"2025-04-13 06"}},{"type":"Point","coordinates":[-72.5719,51.0578],"properties":{"Station_ID":"CQTM","Station_Nam":"CQTM","Latitude":"51.05780","Longitude":"-72.57190","Snowdepth":"21.260","Units":"in","Rept_Date":"2025-04-12 12"}},{"type":"Point","coordinates":[-76.5983,47.8275],"properties":{"Station_ID":"CQCU","Station_Nam":"CQCU","Latitude":"47.82750","Longitude":"-76.59830","Snowdepth":"21.063","Units":"in","Rept_Date":"2025-04-12 12"}},{"type":"Point","coordinates":[-70.2528,48.9203],"properties":{"Station_ID":"CQLM","Station_Nam":"CQLM","Latitude":"48.92030","Longitude":"-70.25280","Snowdepth":"20.827","Units":"in","Rept_Date":"2025-04-12 12"}},{"type":"Point","coordinates":[-66.9111,51.5217],"properties":{"Station_ID":"CMFU","Station_Nam":"CMFU","Latitude":"51.52170","Longitude":"-66.91110","Snowdepth":"20.118","Units":"in","Rept_Date":"2025-04-12 12"}},{"type":"Point","coordinates":[-88.417,47.2752],"properties":{"Station_ID":"KSGM4","Station_Nam":"KEARSARGE","Latitude":"47.27520","Longitude":"-88.41700","Snowdepth":"20.000","Units":"in","Rept_Date":"2025-04-12 12"}},{"type":"Point","coordinates":[-88.3333,46.65],"properties":{"Station_ID":"HERM4","Station_Nam":"HERMAN,MI","Latitude":"46.65000","Longitude":"-88.33330","Snowdepth":"20.000","Units":"in","Rept_Date":"2025-04-12 12"}},{"type":"Point","coordinates":[-70.4719,50.1033],"properties":{"Station_ID":"CQMA","Station_Nam":"CQMA","Latitude":"50.10330","Longitude":"-70.47190","Snowdepth":"19.803","Units":"in","Rept_Date":"2025-04-12 12"}},{"type":"Point","coordinates":[-68.8406,51.2833],"properties":{"Station_ID":"CMRL","Station_Nam":"CMRL","Latitude":"51.28330","Longitude":"-68.84060","Snowdepth":"19.331","Units":"in","Rept_Date":"2025-04-12 12"}},{"type":"Point","coordinates":[-66.13279,47.90803],"properties":{"Station_ID":"CAN-NB-50","Station_Nam":"DOYLEVILLE 2.4 WNW, CAN","Latitude":"47.90803","Longitude":"-66.13279","Snowdepth":"17.900","Units":"in","Rept_Date":"2025-04-12 12"}},{"type":"Point","coordinates":[-88.6926,47.13156],"properties":{"Station_ID":"MI-HG-21","Station_Nam":"ATLANTIC MINE 3.9 NW, MI","Latitude":"47.13156","Longitude":"-88.69260","Snowdepth":"17.500","Units":"in","Rept_Date":"2025-04-12 11"}},{"type":"Point","coordinates":[-73.8067,47.8461],"properties":{"Station_ID":"CQWE","Station_Nam":"CQWE","Latitude":"47.84610","Longitude":"-73.80670","Snowdepth":"17.165","Units":"in","Rept_Date":"2025-04-12 12"}},{"type":"Point","coordinates":[-87.45705,46.47288],"properties":{"Station_ID":"MI-MQ-30","Station_Nam":"MARQUETTE 6.1 SSW, MI","Latitude":"46.47288","Longitude":"-87.45705","Snowdepth":"17.000","Units":"in","Rept_Date":"2025-04-12 12"}},{"type":"Point","coordinates":[-88.5294,47.10774],"properties":{"Station_ID":"MI-HG-1","Station_Nam":"HOUGHTON 1.6 ESE, MI","Latitude":"47.10774","Longitude":"-88.52940","Snowdepth":"17.000","Units":"in","Rept_Date":"2025-04-12 12"}},{"type":"Point","coordinates":[-86.95857,46.5029],"properties":{"Station_ID":"MI-AG-8","Station_Nam":"AU TRAIN 7.8 NW, MI","Latitude":"46.50290","Longitude":"-86.95857","Snowdepth":"17.000","Units":"in","Rept_Date":"2025-04-12 12"}},{"type":"Point","coordinates":[-87.8582,50.7668],"properties":{"Station_ID":"OGIQ6","Station_Nam":"OGOKI CAMP","Latitude":"50.76680","Longitude":"-87.85820","Snowdepth":"15.870","Units":"in","Rept_Date":"2025-04-13 06"}},{"type":"Point","coordinates":[-72.2011,51.4528],"properties":{"Station_ID":"CQCO","Station_Nam":"CQCO","Latitude":"51.45280","Longitude":"-72.20110","Snowdepth":"15.394","Units":"in","Rept_Date":"2025-04-12 12"}},{"type":"Point","coordinates":[-73.9228,50.2708],"properties":{"Station_ID":"CQLI","Station_Nam":"CQLI","Latitude":"50.27080","Longitude":"-73.92280","Snowdepth":"14.842","Units":"in","Rept_Date":"2025-04-12 12"}},{"type":"Point","coordinates":[-68.5431,49.8239],"properties":{"Station_ID":"CQIQ","Station_Nam":"CQIQ","Latitude":"49.82390","Longitude":"-68.54310","Snowdepth":"14.252","Units":"in","Rept_Date":"2025-04-12 12"}},{"type":"Point","coordinates":[-87.5492,46.5314],"properties":{"Station_ID":"MQT","Station_Nam":"MARQUETTE, MI","Latitude":"46.53140","Longitude":"-87.54920","Snowdepth":"14.000","Units":"in","Rept_Date":"2025-04-13 06"}},{"type":"Point","coordinates":[-90.30508,47.8062],"properties":{"Station_ID":"MN-CK-29","Station_Nam":"GRAND MARAIS 3.8 NNE, MN","Latitude":"47.80620","Longitude":"-90.30508","Snowdepth":"14.000","Units":"in","Rept_Date":"2025-04-12 12"}},{"type":"Point","coordinates":[-90.6567,50.2873],"properties":{"Station_ID":"SVBQ6","Station_Nam":"SAVANT BASE","Latitude":"50.28730","Longitude":"-90.65670","Snowdepth":"13.620","Units":"in","Rept_Date":"2025-04-13 06"}},{"type":"Point","coordinates":[-75.845,49.2906],"properties":{"Station_ID":"CQMD","Station_Nam":"CQMD","Latitude":"49.29060","Longitude":"-75.84500","Snowdepth":"13.425","Units":"in","Rept_Date":"2025-04-12 12"}},{"type":"Point","coordinates":[-71.0699,43.88913],"properties":{"Station_ID":"NH-CR-53","Station_Nam":"EATON CENTER 1.6 SSE, NH","Latitude":"43.88913","Longitude":"-71.06990","Snowdepth":"13.400","Units":"in","Rept_Date":"2025-04-12 11"}},{"type":"Point","coordinates":[-91.793,50.7787],"properties":{"Station_ID":"SOCQ6","Station_Nam":"SOCKET LAKE","Latitude":"50.77870","Longitude":"-91.79300","Snowdepth":"13.350","Units":"in","Rept_Date":"2025-04-13 06"}},{"type":"Point","coordinates":[-88.7038,49.19],"properties":{"Station_ID":"NONQ6","Station_Nam":"NONWATIN","Latitude":"49.19000","Longitude":"-88.70380","Snowdepth":"10.980","Units":"in","Rept_Date":"2025-04-13 06"}},{"type":"Point","coordinates":[-86.9375,50.6386],"properties":{"Station_ID":"ANAQ6","Station_Nam":"ANACONDA","Latitude":"50.63860","Longitude":"-86.93750","Snowdepth":"10.870","Units":"in","Rept_Date":"2025-04-13 06"}},{"type":"Point","coordinates":[-84.4025,46.4866],"properties":{"Station_ID":"SSMM4","Station_Nam":"SAULT STE MARIE","Latitude":"46.48660","Longitude":"-84.40250","Snowdepth":"10.000","Units":"in","Rept_Date":"2025-04-12 12"}},{"type":"Point","coordinates":[-84.31971,46.48933],"properties":{"Station_ID":"MI-CP-14","Station_Nam":"SAULT STE. MARIE 2.2 E, MI","Latitude":"46.48933","Longitude":"-84.31971","Snowdepth":"10.000","Units":"in","Rept_Date":"2025-04-12 12"}},{"type":"Point","coordinates":[-88.854,46.8944],"properties":{"Station_ID":"57011_MADIS","Station_Nam":"TWIN LAKES 0.2 SW, MI","Latitude":"46.89440","Longitude":"-88.85400","Snowdepth":"10.000","Units":"in","Rept_Date":"2025-04-12 12"}},{"type":"Point","coordinates":[-89.1799,49.5995],"properties":{"Station_ID":"KABQ6","Station_Nam":"CAB LAKE","Latitude":"49.59950","Longitude":"-89.17990","Snowdepth":"9.690","Units":"in","Rept_Date":"2025-04-13 06"}},{"type":"Point","coordinates":[-90.87444,48.14388],"properties":{"Station_ID":"MN-CK-56","Station_Nam":"GRAND MARAIS 36.2 NW, MN","Latitude":"48.14388","Longitude":"-90.87444","Snowdepth":"9.500","Units":"in","Rept_Date":"2025-04-12 12"}},{"type":"Point","coordinates":[-95.806,41.65],"properties":{"Station_ID":"LOGI4","Station_Nam":"LOGAN 1 WNW","Latitude":"41.65000","Longitude":"-95.80600","Snowdepth":"9.000","Units":"in","Rept_Date":"2025-04-12 12"}},{"type":"Point","coordinates":[-71.4127,44.2196],"properties":{"Station_ID":"CAWN3","Station_Nam":"CRAWFORD NOTCH","Latitude":"44.21960","Longitude":"-71.41270","Snowdepth":"9.000","Units":"in","Rept_Date":"2025-04-12 10"}},{"type":"Point","coordinates":[-69.8119,45.6602],"properties":{"Station_ID":"BRAM1","Station_Nam":"BRASSUA DAM","Latitude":"45.66020","Longitude":"-69.81190","Snowdepth":"9.000","Units":"in","Rept_Date":"2025-04-12 11"}},{"type":"Point","coordinates":[-87.8816,46.7462],"properties":{"Station_ID":"BBEM4","Station_Nam":"BIG BAY 9SW","Latitude":"46.74620","Longitude":"-87.88160","Snowdepth":"9.000","Units":"in","Rept_Date":"2025-04-12 12"}},{"type":"Point","coordinates":[-73.7381,47.2564],"properties":{"Station_ID":"CQGA","Station_Nam":"CQGA","Latitude":"47.25640","Longitude":"-73.73810","Snowdepth":"8.228","Units":"in","Rept_Date":"2025-04-12 12"}},{"type":"Point","coordinates":[-71.7799,42.77674],"properties":{"Station_ID":"NH-HL-48","Station_Nam":"GREENVILLE 1.1 ENE, NH","Latitude":"42.77674","Longitude":"-71.77990","Snowdepth":"8.000","Units":"in","Rept_Date":"2025-04-12 13"}},{"type":"Point","coordinates":[-87.845,46.4991],"properties":{"Station_ID":"CLKM4","Station_Nam":"CLARKSBURG","Latitude":"46.49910","Longitude":"-87.84500","Snowdepth":"8.000","Units":"in","Rept_Date":"2025-04-12 11"}},{"type":"Point","coordinates":[-84.4026,46.4867],"properties":{"Station_ID":"ANJM4","Station_Nam":"SNOW PAID OBSERVER FOR KANJ","Latitude":"46.48670","Longitude":"-84.40260","Snowdepth":"8.000","Units":"in","Rept_Date":"2025-04-13 00"}},{"type":"Point","coordinates":[-71.94612,42.23742],"properties":{"Station_ID":"MA-WR-88","Station_Nam":"LEICESTER 2.5 WSW, MA","Latitude":"42.23742","Longitude":"-71.94612","Snowdepth":"7.500","Units":"in","Rept_Date":"2025-04-12 13"}},{"type":"Point","coordinates":[-71.8114,42.4754],"properties":{"Station_ID":"MA-WR-56","Station_Nam":"STERLING 4.3 NW, MA","Latitude":"42.47540","Longitude":"-71.81140","Snowdepth":"7.400","Units":"in","Rept_Date":"2025-04-12 11"}},{"type":"Point","coordinates":[-73.02,42.82],"properties":{"Station_ID":"VT-BN-12","Station_Nam":"STAMFORD 5.0 NNE, VT","Latitude":"42.82000","Longitude":"-73.02000","Snowdepth":"7.000","Units":"in","Rept_Date":"2025-04-12 20"}},{"type":"Point","coordinates":[-69.7167,45.5833],"properties":{"Station_ID":"RKWM1","Station_Nam":"MOOSEHEAD LAKE","Latitude":"45.58330","Longitude":"-69.71670","Snowdepth":"7.000","Units":"in","Rept_Date":"2025-04-12 11"}},{"type":"Point","coordinates":[-91.86862,47.88254],"properties":{"Station_ID":"MN-SL-328","Station_Nam":"ELY 1.8 SSW, MN","Latitude":"47.88254","Longitude":"-91.86862","Snowdepth":"7.000","Units":"in","Rept_Date":"2025-04-12 12"}},{"type":"Point","coordinates":[-71.84952,42.69487],"properties":{"Station_ID":"MA-MD-131","Station_Nam":"ASHBY 1.8 WNW, MA","Latitude":"42.69487","Longitude":"-71.84952","Snowdepth":"7.000","Units":"in","Rept_Date":"2025-04-12 11"}},{"type":"Point","coordinates":[-71.8017,42.6168],"properties":{"Station_ID":"FCHM3","Station_Nam":"FITCHBURG COOP","Latitude":"42.61680","Longitude":"-71.80170","Snowdepth":"7.000","Units":"in","Rept_Date":"2025-04-12 12"}},{"type":"Point","coordinates":[-91.8221,51.7269],"properties":{"Station_ID":"CATQ6","Station_Nam":"CAT LAKE","Latitude":"51.72690","Longitude":"-91.82210","Snowdepth":"6.970","Units":"in","Rept_Date":"2025-04-13 06"}},{"type":"Point","coordinates":[-91.4716,48.7067],"properties":{"Station_ID":"ATIQ6","Station_Nam":"ATIKOKAN","Latitude":"48.70670","Longitude":"-91.47160","Snowdepth":"6.930","Units":"in","Rept_Date":"2025-04-13 06"}},{"type":"Point","coordinates":[-71.8217,42.56674],"properties":{"Station_ID":"MA-WR-8","Station_Nam":"FITCHBURG 1.6 SSW, MA","Latitude":"42.56674","Longitude":"-71.82170","Snowdepth":"6.600","Units":"in","Rept_Date":"2025-04-12 14"}},{"type":"Point","coordinates":[-73.4594,48.4889],"properties":{"Station_ID":"CQWG","Station_Nam":"CQWG","Latitude":"48.48890","Longitude":"-73.45940","Snowdepth":"6.535","Units":"in","Rept_Date":"2025-04-12 12"}},{"type":"Point","coordinates":[-87.9051,51.5582],"properties":{"Station_ID":"FTHQ6","Station_Nam":"FORT HOPE","Latitude":"51.55820","Longitude":"-87.90510","Snowdepth":"6.060","Units":"in","Rept_Date":"2025-04-13 06"}},{"type":"Point","coordinates":[-74.90953,41.42018],"properties":{"Station_ID":"PA-PK-22","Station_Nam":"MILFORD 8.7 NW, PA","Latitude":"41.42018","Longitude":"-74.90953","Snowdepth":"6.000","Units":"in","Rept_Date":"2025-04-12 11"}},{"type":"Point","coordinates":[-71.3,44.2667],"properties":{"Station_ID":"MWN","Station_Nam":"MOUNT WASHINGTON","Latitude":"44.26670","Longitude":"-71.30000","Snowdepth":"6.000","Units":"in","Rept_Date":"2025-04-12 12"}},{"type":"Point","coordinates":[-87.433,46.56288],"properties":{"Station_ID":"MI-MQ-33","Station_Nam":"MARQUETTE 2.0 WNW, MI","Latitude":"46.56288","Longitude":"-87.43300","Snowdepth":"6.000","Units":"in","Rept_Date":"2025-04-12 11"}},{"type":"Point","coordinates":[-87.7567,46.4055],"properties":{"Station_ID":"MI-MQ-19","Station_Nam":"ISHPEMING 7.2 SW, MI","Latitude":"46.40550","Longitude":"-87.75670","Snowdepth":"6.000","Units":"in","Rept_Date":"2025-04-12 10"}},{"type":"Point","coordinates":[-71.3,44.26666],"properties":{"Station_ID":"KMWN","Station_Nam":"MOUNT WASHINGTON","Latitude":"44.26666","Longitude":"-71.30000","Snowdepth":"6.000","Units":"in","Rept_Date":"2025-04-13 06"}},{"type":"Point","coordinates":[-76.1453,38.91833],"properties":{"Station_ID":"007MD_MADIS","Station_Nam":"WYE MILLS 4 WSW","Latitude":"38.91833","Longitude":"-76.14530","Snowdepth":"5.240","Units":"in","Rept_Date":"2025-04-13 06"}},{"type":"Point","coordinates":[-88.6424,46.5266],"properties":{"Station_ID":"WTNM4","Station_Nam":"WATTON 2WSW","Latitude":"46.52660","Longitude":"-88.64240","Snowdepth":"5.000","Units":"in","Rept_Date":"2025-04-12 12"}},{"type":"Point","coordinates":[-90.27013,46.41555],"properties":{"Station_ID":"WI-IR-3","Station_Nam":"PENCE 0.1 E, WI","Latitude":"46.41555","Longitude":"-90.27013","Snowdepth":"5.000","Units":"in","Rept_Date":"2025-04-12 12"}},{"type":"Point","coordinates":[-72.8326,43.29092],"properties":{"Station_ID":"VT-BN-3","Station_Nam":"LANDGROVE 1.1 NNE, VT","Latitude":"43.29092","Longitude":"-72.83260","Snowdepth":"5.000","Units":"in","Rept_Date":"2025-04-12 11"}},{"type":"Point","coordinates":[-74.6409,41.3599],"properties":{"Station_ID":"NY-OR-21","Station_Nam":"PORT JERVIS 2.9 ESE, NY","Latitude":"41.35990","Longitude":"-74.64090","Snowdepth":"5.000","Units":"in","Rept_Date":"2025-04-12 11"}},{"type":"Point","coordinates":[-71.82923,42.826],"properties":{"Station_ID":"NH-HL-103","Station_Nam":"TEMPLE 1.2 ENE, NH","Latitude":"42.82600","Longitude":"-71.82923","Snowdepth":"5.000","Units":"in","Rept_Date":"2025-04-12 11"}},{"type":"Point","coordinates":[-72.0053,42.8088],"properties":{"Station_ID":"JAPN3","Station_Nam":"JAFFREY SILVER RANCH AIRPARK","Latitude":"42.80880","Longitude":"-72.00530","Snowdepth":"5.000","Units":"in","Rept_Date":"2025-04-12 11"}},{"type":"Point","coordinates":[-72.8679,42.5741],"properties":{"Station_ID":"EHYM3","Station_Nam":"EAST HAWLEY","Latitude":"42.57410","Longitude":"-72.86790","Snowdepth":"5.000","Units":"in","Rept_Date":"2025-04-12 12"}},{"type":"Point","coordinates":[-71.9159,42.6178],"properties":{"Station_ID":"ASBM3","Station_Nam":"ASHBURNHAM","Latitude":"42.61780","Longitude":"-71.91590","Snowdepth":"5.000","Units":"in","Rept_Date":"2025-04-12 11"}},{"type":"Point","coordinates":[-71.9359,42.6617],"properties":{"Station_ID":"ABNM3","Station_Nam":"ASHBURNHAM NORTH","Latitude":"42.66170","Longitude":"-71.93590","Snowdepth":"5.000","Units":"in","Rept_Date":"2025-04-12 12"}},{"type":"Point","coordinates":[-75.6147,48.8722],"properties":{"Station_ID":"CQYR","Station_Nam":"CQYR","Latitude":"48.87220","Longitude":"-75.61470","Snowdepth":"4.882","Units":"in","Rept_Date":"2025-04-12 12"}},{"type":"Point","coordinates":[-84.28515,46.50299],"properties":{"Station_ID":"CAN-ON-915","Station_Nam":"SAULT STE. MARIE 3.9 ESE, CAN","Latitude":"46.50299","Longitude":"-84.28515","Snowdepth":"4.700","Units":"in","Rept_Date":"2025-04-12 12"}},{"type":"Point","coordinates":[-74.66358,41.00503],"properties":{"Station_ID":"NJ-SS-54","Station_Nam":"SPARTA TWP 3.6 SSW, NJ","Latitude":"41.00503","Longitude":"-74.66358","Snowdepth":"4.500","Units":"in","Rept_Date":"2025-04-12 11"}},{"type":"Point","coordinates":[-71.7853,42.25354],"properties":{"Station_ID":"MA-WR-81","Station_Nam":"WORCESTER 1.6 SE, MA","Latitude":"42.25354","Longitude":"-71.78530","Snowdepth":"4.500","Units":"in","Rept_Date":"2025-04-12 11"}},{"type":"Point","coordinates":[-74.45938,41.16332],"properties":{"Station_ID":"NJ-SS-60","Station_Nam":"VERNON TWP 2.7 SSE, NJ","Latitude":"41.16332","Longitude":"-74.45938","Snowdepth":"4.400","Units":"in","Rept_Date":"2025-04-12 12"}},{"type":"Point","coordinates":[-71.71592,42.29434],"properties":{"Station_ID":"MA-WR-112","Station_Nam":"SHREWSBURY 0.4 S, MA","Latitude":"42.29434","Longitude":"-71.71592","Snowdepth":"4.400","Units":"in","Rept_Date":"2025-04-12 12"}},{"type":"Point","coordinates":[-71.22598,44.19069],"properties":{"Station_ID":"NH-CR-15","Station_Nam":"JACKSON 3.7 NW, NH","Latitude":"44.19069","Longitude":"-71.22598","Snowdepth":"4.200","Units":"in","Rept_Date":"2025-04-12 11"}},{"type":"Point","coordinates":[-72.0721,42.0583],"properties":{"Station_ID":"SBRM3","Station_Nam":"SOUTHBRIDGE","Latitude":"42.05830","Longitude":"-72.07210","Snowdepth":"4.000","Units":"in","Rept_Date":"2025-04-12 11"}},{"type":"Point","coordinates":[-73.2208,41.9725],"properties":{"Station_ID":"NFKC3","Station_Nam":"NORFOLK","Latitude":"41.97250","Longitude":"-73.22080","Snowdepth":"4.000","Units":"in","Rept_Date":"2025-04-12 12"}},{"type":"Point","coordinates":[-83.4411,35.655],"properties":{"Station_ID":"MTLT1","Station_Nam":"GATLINBURG,TN","Latitude":"35.65500","Longitude":"-83.44110","Snowdepth":"4.000","Units":"in","Rept_Date":"2025-04-12 11"}},{"type":"Point","coordinates":[-72.8333,44.5333],"properties":{"Station_ID":"MMSV1","Station_Nam":"MOUNT MANSFIELD","Latitude":"44.53330","Longitude":"-72.83330","Snowdepth":"4.000","Units":"in","Rept_Date":"2025-04-13 06"}},{"type":"Point","coordinates":[-71.71653,42.6018],"properties":{"Station_ID":"MA-WR-58","Station_Nam":"LUNENBURG 0.6 NE, MA","Latitude":"42.60180","Longitude":"-71.71653","Snowdepth":"4.000","Units":"in","Rept_Date":"2025-04-12 13"}},{"type":"Point","coordinates":[-72.09591,42.44082],"properties":{"Station_ID":"MA-WR-54","Station_Nam":"BARRE 1.4 NNE, MA","Latitude":"42.44082","Longitude":"-72.09591","Snowdepth":"4.000","Units":"in","Rept_Date":"2025-04-12 11"}},{"type":"Point","coordinates":[-71.6583,42.3775],"properties":{"Station_ID":"MA-WR-28","Station_Nam":"BERLIN 1.3 WSW, MA","Latitude":"42.37750","Longitude":"-71.65830","Snowdepth":"4.000","Units":"in","Rept_Date":"2025-04-12 12"}},{"type":"Point","coordinates":[-72.9454,42.49272],"properties":{"Station_ID":"MA-HS-7","Station_Nam":"PLAINFIELD 2.2 SW, MA","Latitude":"42.49272","Longitude":"-72.94540","Snowdepth":"4.000","Units":"in","Rept_Date":"2025-04-12 11"}},{"type":"Point","coordinates":[-72.74829,42.50424],"properties":{"Station_ID":"MA-FR-41","Station_Nam":"CONWAY 3.4 WSW, MA","Latitude":"42.50424","Longitude":"-72.74829","Snowdepth":"4.000","Units":"in","Rept_Date":"2025-04-12 11"}},{"type":"Point","coordinates":[-74.4593,41.1633],"properties":{"Station_ID":"HGHN4","Station_Nam":"HIGHLAND LAKES 1SW","Latitude":"41.16330","Longitude":"-74.45930","Snowdepth":"4.000","Units":"in","Rept_Date":"2025-04-12 12"}},{"type":"Point","coordinates":[-87.3038,46.4533],"properties":{"Station_ID":"GGRM4","Station_Nam":"GREEN GARDEN NO.2","Latitude":"46.45330","Longitude":"-87.30380","Snowdepth":"4.000","Units":"in","Rept_Date":"2025-04-12 14"}},{"type":"Point","coordinates":[-71.54419,43.08532],"properties":{"Station_ID":"NH-MR-47","Station_Nam":"DUNBARTON 3.8 SE, NH","Latitude":"43.08532","Longitude":"-71.54419","Snowdepth":"3.700","Units":"in","Rept_Date":"2025-04-12 12"}},{"type":"Point","coordinates":[-74.5783,42.3523],"properties":{"Station_ID":"NY-DL-25","Station_Nam":"HOBART 4.8 ESE, NY","Latitude":"42.35230","Longitude":"-74.57830","Snowdepth":"3.500","Units":"in","Rept_Date":"2025-04-12 11"}},{"type":"Point","coordinates":[-71.819,43.52],"properties":{"Station_ID":"NH-MR-6","Station_Nam":"DANBURY 2.2 ESE, NH","Latitude":"43.52000","Longitude":"-71.81900","Snowdepth":"3.500","Units":"in","Rept_Date":"2025-04-12 12"}},{"type":"Point","coordinates":[-71.86869,42.17336],"properties":{"Station_ID":"MA-WR-41","Station_Nam":"AUBURN 2.6 SW, MA","Latitude":"42.17336","Longitude":"-71.86869","Snowdepth":"3.500","Units":"in","Rept_Date":"2025-04-12 13"}},{"type":"Point","coordinates":[-72.43401,42.41557],"properties":{"Station_ID":"MA-FR-38","Station_Nam":"SHUTESBURY 2.9 SW, MA","Latitude":"42.41557","Longitude":"-72.43401","Snowdepth":"3.500","Units":"in","Rept_Date":"2025-04-12 11"}},{"type":"Point","coordinates":[-72.6383,48.1392],"properties":{"Station_ID":"CQLP","Station_Nam":"CQLP","Latitude":"48.13920","Longitude":"-72.63830","Snowdepth":"3.465","Units":"in","Rept_Date":"2025-04-12 12"}},{"type":"Point","coordinates":[-72.34412,42.45615],"properties":{"Station_ID":"MA-FR-8","Station_Nam":"NEW SALEM 3.1 S, MA","Latitude":"42.45615","Longitude":"-72.34412","Snowdepth":"3.300","Units":"in","Rept_Date":"2025-04-12 13"}},{"type":"Point","coordinates":[-71.67888,42.16305],"properties":{"Station_ID":"MA-WR-69","Station_Nam":"NORTHBRIDGE 1.7 WNW, MA","Latitude":"42.16305","Longitude":"-71.67888","Snowdepth":"3.200","Units":"in","Rept_Date":"2025-04-12 13"}},{"type":"Point","coordinates":[-71.91032,42.54505],"properties":{"Station_ID":"MA-WR-44","Station_Nam":"WESTMINSTER 0.6 WSW, MA","Latitude":"42.54505","Longitude":"-71.91032","Snowdepth":"3.200","Units":"in","Rept_Date":"2025-04-12 11"}},{"type":"Point","coordinates":[-84.303,46.503],"properties":{"Station_ID":"CAN-ON-757","Station_Nam":"SAULT STE. MARIE 2.8 ESE - GLFC, CAN","Latitude":"46.50300","Longitude":"-84.30300","Snowdepth":"3.100","Units":"in","Rept_Date":"2025-04-12 12"}},{"type":"Point","coordinates":[-72.9,43.2667],"properties":{"Station_ID":"PERV1","Station_Nam":"PERU","Latitude":"43.26670","Longitude":"-72.90000","Snowdepth":"3.000","Units":"in","Rept_Date":"2025-04-12 11"}},{"type":"Point","coordinates":[-75.35804,41.1319],"properties":{"Station_ID":"PA-MN-16","Station_Nam":"MOUNT POCONO 0.7 N, PA","Latitude":"41.13190","Longitude":"-75.35804","Snowdepth":"3.000","Units":"in","Rept_Date":"2025-04-12 11"}},{"type":"Point","coordinates":[-75.63317,41.07333],"properties":{"Station_ID":"PA-CB-33","Station_Nam":"LAKE HARMONY 2.4 WNW, PA","Latitude":"41.07333","Longitude":"-75.63317","Snowdepth":"3.000","Units":"in","Rept_Date":"2025-04-12 11"}},{"type":"Point","coordinates":[-73.88098,42.13353],"properties":{"Station_ID":"NY-CB-26","Station_Nam":"GERMANTOWN 0.6 E, NY","Latitude":"42.13353","Longitude":"-73.88098","Snowdepth":"3.000","Units":"in","Rept_Date":"2025-04-12 11"}},{"type":"Point","coordinates":[-71.10256,43.09778],"properties":{"Station_ID":"NH-RC-79","Station_Nam":"NOTTINGHAM 1.2 S, NH","Latitude":"43.09778","Longitude":"-71.10256","Snowdepth":"3.000","Units":"in","Rept_Date":"2025-04-12 12"}},{"type":"Point","coordinates":[-71.2575,43.20114],"properties":{"Station_ID":"NH-RC-48","Station_Nam":"NORTHWOOD 2.9 WSW, NH","Latitude":"43.20114","Longitude":"-71.25750","Snowdepth":"3.000","Units":"in","Rept_Date":"2025-04-12 11"}},{"type":"Point","coordinates":[-90.08287,46.54936],"properties":{"Station_ID":"MI-GG-11","Station_Nam":"IRONWOOD 7.3 NNE, MI","Latitude":"46.54936","Longitude":"-90.08287","Snowdepth":"3.000","Units":"in","Rept_Date":"2025-04-12 12"}},{"type":"Point","coordinates":[-72.77417,42.30183],"properties":{"Station_ID":"MA-HS-45","Station_Nam":"WESTHAMPTON 0.4 WNW, MA","Latitude":"42.30183","Longitude":"-72.77417","Snowdepth":"3.000","Units":"in","Rept_Date":"2025-04-12 11"}},{"type":"Point","coordinates":[-72.787,42.27943],"properties":{"Station_ID":"MA-HS-2","Station_Nam":"WESTHAMPTON 1.8 SW, MA","Latitude":"42.27943","Longitude":"-72.78700","Snowdepth":"3.000","Units":"in","Rept_Date":"2025-04-12 11"}},{"type":"Point","coordinates":[-72.7511,42.589],"properties":{"Station_ID":"MA-FR-17","Station_Nam":"BUCKLAND 1.8 ESE, MA","Latitude":"42.58900","Longitude":"-72.75110","Snowdepth":"3.000","Units":"in","Rept_Date":"2025-04-12 12"}},{"type":"Point","coordinates":[-72.72743,42.54419],"properties":{"Station_ID":"MA-FR-13","Station_Nam":"CONWAY 2.9 NW, MA","Latitude":"42.54419","Longitude":"-72.72743","Snowdepth":"3.000","Units":"in","Rept_Date":"2025-04-12 11"}},{"type":"Point","coordinates":[-73.0575,42.1606],"properties":{"Station_ID":"EOTM3","Station_Nam":"EAST OTIS","Latitude":"42.16060","Longitude":"-73.05750","Snowdepth":"3.000","Units":"in","Rept_Date":"2025-04-12 12"}},{"type":"Point","coordinates":[-71.626,42.8266],"properties":{"Station_ID":"EMLN3","Station_Nam":"EAST MILFORD","Latitude":"42.82660","Longitude":"-71.62600","Snowdepth":"3.000","Units":"in","Rept_Date":"2025-04-12 11"}},{"type":"Point","coordinates":[-73.9835,42.36045],"properties":{"Station_ID":"NY-GR-6","Station_Nam":"FREEHOLD 3.4 E, NY","Latitude":"42.36045","Longitude":"-73.98350","Snowdepth":"2.800","Units":"in","Rept_Date":"2025-04-12 10"}},{"type":"Point","coordinates":[-75.5384,43.37335],"properties":{"Station_ID":"NY-OD-2","Station_Nam":"POINT ROCK 0.6 SE, NY","Latitude":"43.37335","Longitude":"-75.53840","Snowdepth":"2.500","Units":"in","Rept_Date":"2025-04-12 12"}},{"type":"Point","coordinates":[-74.0509,42.66696],"properties":{"Station_ID":"NY-AB-1","Station_Nam":"ALTAMONT 2.7 SSW, NY","Latitude":"42.66696","Longitude":"-74.05090","Snowdepth":"2.500","Units":"in","Rept_Date":"2025-04-12 11"}},{"type":"Point","coordinates":[-74.5399,41.08903],"properties":{"Station_ID":"NJ-SS-7","Station_Nam":"HARDYSTON TWP 3.2 SE, NJ","Latitude":"41.08903","Longitude":"-74.53990","Snowdepth":"2.500","Units":"in","Rept_Date":"2025-04-12 10"}},{"type":"Point","coordinates":[-71.0641,43.058],"properties":{"Station_ID":"NH-RC-101","Station_Nam":"EPPING 2.0 NNE, NH","Latitude":"43.05800","Longitude":"-71.06410","Snowdepth":"2.500","Units":"in","Rept_Date":"2025-04-12 14"}},{"type":"Point","coordinates":[-71.90238,43.29531],"properties":{"Station_ID":"NH-MR-60","Station_Nam":"SOUTH SUTTON 1.3 SE, NH","Latitude":"43.29531","Longitude":"-71.90238","Snowdepth":"2.500","Units":"in","Rept_Date":"2025-04-12 12"}},{"type":"Point","coordinates":[-72.2354,42.204],"properties":{"Station_ID":"MA-WR-75","Station_Nam":"WARREN 2.4 WSW, MA","Latitude":"42.20400","Longitude":"-72.23540","Snowdepth":"2.500","Units":"in","Rept_Date":"2025-04-12 11"}},{"type":"Point","coordinates":[-71.80083,43.33928],"properties":{"Station_ID":"NH-MR-72","Station_Nam":"SALISBURY 5.0 SW, NH","Latitude":"43.33928","Longitude":"-71.80083","Snowdepth":"2.100","Units":"in","Rept_Date":"2025-04-12 12"}},{"type":"Point","coordinates":[-70.83956,43.29801],"properties":{"Station_ID":"ME-YK-65","Station_Nam":"NORTH BERWICK 5.3 W, ME","Latitude":"43.29801","Longitude":"-70.83956","Snowdepth":"2.100","Units":"in","Rept_Date":"2025-04-12 13"}},{"type":"Point","coordinates":[-71.4276,43.022],"properties":{"Station_ID":"78141_MADIS","Station_Nam":"HOOKSETT 5.2 SSE, NH","Latitude":"43.02200","Longitude":"-71.42760","Snowdepth":"2.100","Units":"in","Rept_Date":"2025-04-12 12"}},{"type":"Point","coordinates":[-90.85854,46.88063],"properties":{"Station_ID":"WI-BY-29","Station_Nam":"BAYFIELD 5.1 NNW, WI","Latitude":"46.88063","Longitude":"-90.85854","Snowdepth":"2.000","Units":"in","Rept_Date":"2025-04-12 13"}},{"type":"Point","coordinates":[-72.49197,43.46164],"properties":{"Station_ID":"VT-WR-10","Station_Nam":"WEST WINDSOR 1.7 S, VT","Latitude":"43.46164","Longitude":"-72.49197","Snowdepth":"2.000","Units":"in","Rept_Date":"2025-04-12 14"}},{"type":"Point","coordinates":[-72.53419,43.12572],"properties":{"Station_ID":"VT-WH-26","Station_Nam":"WESTMINSTER 5.5 NW, VT","Latitude":"43.12572","Longitude":"-72.53419","Snowdepth":"2.000","Units":"in","Rept_Date":"2025-04-12 11"}},{"type":"Point","coordinates":[-73.01811,43.17274],"properties":{"Station_ID":"VT-BN-7","Station_Nam":"MANCHESTER 2.8 ENE, VT","Latitude":"43.17274","Longitude":"-73.01811","Snowdepth":"2.000","Units":"in","Rept_Date":"2025-04-12 11"}},{"type":"Point","coordinates":[-73.8911,41.4807],"properties":{"Station_ID":"NY-PT-2","Station_Nam":"BEACON 4.2 ESE, NY","Latitude":"41.48070","Longitude":"-73.89110","Snowdepth":"2.000","Units":"in","Rept_Date":"2025-04-12 11"}},{"type":"Point","coordinates":[-73.66812,42.45655],"properties":{"Station_ID":"NY-CB-16","Station_Nam":"VALATIE 2.9 N, NY","Latitude":"42.45655","Longitude":"-73.66812","Snowdepth":"2.000","Units":"in","Rept_Date":"2025-04-12 11"}},{"type":"Point","coordinates":[-74.488,41.22151],"properties":{"Station_ID":"NJ-SS-3","Station_Nam":"VERNON TWP 1.7 N, NJ","Latitude":"41.22151","Longitude":"-74.48800","Snowdepth":"2.000","Units":"in","Rept_Date":"2025-04-12 11"}},{"type":"Point","coordinates":[-71.27195,42.90141],"properties":{"Station_ID":"NH-RC-98","Station_Nam":"DERRY 0.9 ENE, NH","Latitude":"42.90141","Longitude":"-71.27195","Snowdepth":"2.000","Units":"in","Rept_Date":"2025-04-12 11"}},{"type":"Point","coordinates":[-71.5565,43.14994],"properties":{"Station_ID":"NH-MR-4","Station_Nam":"BOW 1.6 NW, NH","Latitude":"43.14994","Longitude":"-71.55650","Snowdepth":"2.000","Units":"in","Rept_Date":"2025-04-12 11"}},{"type":"Point","coordinates":[-71.4143,43.2115],"properties":{"Station_ID":"NH-MR-25","Station_Nam":"CHICHESTER 2.7 SSW, NH","Latitude":"43.21150","Longitude":"-71.41430","Snowdepth":"2.000","Units":"in","Rept_Date":"2025-04-13 04"}},{"type":"Point","coordinates":[-93.216,48.59631],"properties":{"Station_ID":"MN-KC-20","Station_Nam":"INTERNATIONAL FALLS 8.8 E, MN","Latitude":"48.59631","Longitude":"-93.21600","Snowdepth":"2.000","Units":"in","Rept_Date":"2025-04-12 12"}},{"type":"Point","coordinates":[-90.4376,47.74865],"properties":{"Station_ID":"MN-CK-6","Station_Nam":"GRAND MARAIS 4.4 W, MN","Latitude":"47.74865","Longitude":"-90.43760","Snowdepth":"2.000","Units":"in","Rept_Date":"2025-04-12 12"}},{"type":"Point","coordinates":[-71.5119,42.1633],"properties":{"Station_ID":"MILM3","Station_Nam":"MILFORD","Latitude":"42.16330","Longitude":"-71.51190","Snowdepth":"2.000","Units":"in","Rept_Date":"2025-04-12 11"}},{"type":"Point","coordinates":[-88.18,46.5453],"properties":{"Station_ID":"MIEM4","Station_Nam":"MICHIGAMME 3WNW","Latitude":"46.54530","Longitude":"-88.18000","Snowdepth":"2.000","Units":"in","Rept_Date":"2025-04-12 12"}},{"type":"Point","coordinates":[-71.4991,42.5717],"properties":{"Station_ID":"MA-MD-104","Station_Nam":"LITTLETON 2.8 NNW, MA","Latitude":"42.57170","Longitude":"-71.49910","Snowdepth":"2.000","Units":"in","Rept_Date":"2025-04-12 12"}},{"type":"Point","coordinates":[-72.6973,42.50879],"properties":{"Station_ID":"MA-FR-10","Station_Nam":"CONWAY 0.9 SW, MA","Latitude":"42.50879","Longitude":"-72.69730","Snowdepth":"2.000","Units":"in","Rept_Date":"2025-04-12 11"}},{"type":"Point","coordinates":[-73.1506,42.5939],"properties":{"Station_ID":"MA-BE-36","Station_Nam":"CHESHIRE 2.6 N, MA","Latitude":"42.59390","Longitude":"-73.15060","Snowdepth":"2.000","Units":"in","Rept_Date":"2025-04-12 11"}},{"type":"Point","coordinates":[-73.15701,42.56315],"properties":{"Station_ID":"MA-BE-21","Station_Nam":"CHESHIRE 0.5 NNW, MA","Latitude":"42.56315","Longitude":"-73.15701","Snowdepth":"2.000","Units":"in","Rept_Date":"2025-04-12 11"}},{"type":"Point","coordinates":[-89.0758,46.1211],"properties":{"Station_ID":"LVDW3","Station_Nam":"LAC VIEUX DESERT","Latitude":"46.12110","Longitude":"-89.07580","Snowdepth":"2.000","Units":"in","Rept_Date":"2025-04-12 13"}},{"type":"Point","coordinates":[-73.0333,43.05],"properties":{"Station_ID":"LBKV1","Station_Nam":"LYE BROOK","Latitude":"43.05000","Longitude":"-73.03330","Snowdepth":"2.000","Units":"in","Rept_Date":"2025-04-13 06"}},{"type":"Point","coordinates":[-72.68333,41.93333],"properties":{"Station_ID":"KBDL","Station_Nam":"BRADLEY INTERNATIONAL AIRPORT","Latitude":"41.93333","Longitude":"-72.68333","Snowdepth":"2.000","Units":"in","Rept_Date":"2025-04-12 12"}},{"type":"Point","coordinates":[-71.4148,42.783],"properties":{"Station_ID":"HUDN3","Station_Nam":"HUDSON 1 SSE","Latitude":"42.78300","Longitude":"-71.41480","Snowdepth":"2.000","Units":"in","Rept_Date":"2025-04-12 11"}},{"type":"Point","coordinates":[-72.1541,42.3457],"properties":{"Station_ID":"HRKM3","Station_Nam":"HARDWICK 2 ESE","Latitude":"42.34570","Longitude":"-72.15410","Snowdepth":"2.000","Units":"in","Rept_Date":"2025-04-12 12"}},{"type":"Point","coordinates":[-71.0838,43.0302],"properties":{"Station_ID":"EPPN3","Station_Nam":"EPPING","Latitude":"43.03020","Longitude":"-71.08380","Snowdepth":"2.000","Units":"in","Rept_Date":"2025-04-12 11"}},{"type":"Point","coordinates":[-73.0092,41.8417],"properties":{"Station_ID":"CT-LT-9","Station_Nam":"NEW HARTFORD CENTER 3.2 SW, CT","Latitude":"41.84170","Longitude":"-73.00920","Snowdepth":"2.000","Units":"in","Rept_Date":"2025-04-12 11"}},{"type":"Point","coordinates":[-92.6925,47.8506],"properties":{"Station_ID":"COKM5","Station_Nam":"COOK","Latitude":"47.85060","Longitude":"-92.69250","Snowdepth":"2.000","Units":"in","Rept_Date":"2025-04-12 11"}},{"type":"Point","coordinates":[-71.27124,46.76934],"properties":{"Station_ID":"CAN-QC-47","Station_Nam":"SAINTE-FOY 1.8 ENE, CAN","Latitude":"46.76934","Longitude":"-71.27124","Snowdepth":"2.000","Units":"in","Rept_Date":"2025-04-12 11"}},{"type":"Point","coordinates":[-60.6434,46.25082],"properties":{"Station_ID":"CAN-NS-39","Station_Nam":"ST. ANNS 2.8 NW, CA","Latitude":"46.25082","Longitude":"-60.64340","Snowdepth":"2.000","Units":"in","Rept_Date":"2025-04-12 11"}},{"type":"Point","coordinates":[-73.4325,42.9361],"properties":{"Station_ID":"BSKN6","Station_Nam":"BUSKIRK","Latitude":"42.93610","Longitude":"-73.43250","Snowdepth":"2.000","Units":"in","Rept_Date":"2025-04-12 12"}},{"type":"Point","coordinates":[-73.0085,41.8418],"properties":{"Station_ID":"BAKC3","Station_Nam":"BAKERSVILLE","Latitude":"41.84180","Longitude":"-73.00850","Snowdepth":"2.000","Units":"in","Rept_Date":"2025-04-12 11"}},{"type":"Point","coordinates":[-72.8207,42.0244],"properties":{"Station_ID":"CT-HR-8","Station_Nam":"NORTH GRANBY 1.3 ENE, CT","Latitude":"42.02440","Longitude":"-72.82070","Snowdepth":"1.800","Units":"in","Rept_Date":"2025-04-12 11"}},{"type":"Point","coordinates":[-72.50933,42.8202],"properties":{"Station_ID":"NH-CH-31","Station_Nam":"HINSDALE 2.5 NNW, NH","Latitude":"42.82020","Longitude":"-72.50933","Snowdepth":"1.700","Units":"in","Rept_Date":"2025-04-12 13"}},{"type":"Point","coordinates":[-76.8431,38.59709],"properties":{"Station_ID":"010MD_MADIS","Station_Nam":"WALDORF 4 ESE","Latitude":"38.59709","Longitude":"-76.84310","Snowdepth":"1.650","Units":"in","Rept_Date":"2025-04-13 06"}},{"type":"Point","coordinates":[-74.62162,40.96404],"properties":{"Station_ID":"NJ-MS-94","Station_Nam":"JEFFERSON TWP 4.4 SW, NJ","Latitude":"40.96404","Longitude":"-74.62162","Snowdepth":"1.600","Units":"in","Rept_Date":"2025-04-12 12"}},{"type":"Point","coordinates":[-72.66291,43.75217],"properties":{"Station_ID":"VT-WR-36","Station_Nam":"BARNARD 2.7 NW, VT","Latitude":"43.75217","Longitude":"-72.66291","Snowdepth":"1.500","Units":"in","Rept_Date":"2025-04-12 11"}},{"type":"Point","coordinates":[-72.88238,43.50806],"properties":{"Station_ID":"VT-RT-28","Station_Nam":"SHREWSBURY 0.8 W, VT","Latitude":"43.50806","Longitude":"-72.88238","Snowdepth":"1.500","Units":"in","Rept_Date":"2025-04-12 11"}},{"type":"Point","coordinates":[-73.27743,43.29429],"properties":{"Station_ID":"NY-WS-11","Station_Nam":"PAWLET 6.2 SW, NY","Latitude":"43.29429","Longitude":"-73.27743","Snowdepth":"1.500","Units":"in","Rept_Date":"2025-04-12 11"}},{"type":"Point","coordinates":[-74.9198,40.9715],"properties":{"Station_ID":"NJ-WR-37","Station_Nam":"FRELINGHUYSEN TWP 1.5 WNW, NJ","Latitude":"40.97150","Longitude":"-74.91980","Snowdepth":"1.500","Units":"in","Rept_Date":"2025-04-12 11"}},{"type":"Point","coordinates":[-71.6828,42.87616],"properties":{"Station_ID":"NH-HL-49","Station_Nam":"MONT VERNON 1.3 SSW, NH","Latitude":"42.87616","Longitude":"-71.68280","Snowdepth":"1.500","Units":"in","Rept_Date":"2025-04-12 11"}},{"type":"Point","coordinates":[-70.69539,43.78308],"properties":{"Station_ID":"ME-YK-67","Station_Nam":"CORNISH 5.6 ESE, ME","Latitude":"43.78308","Longitude":"-70.69539","Snowdepth":"1.500","Units":"in","Rept_Date":"2025-04-12 11"}},{"type":"Point","coordinates":[-71.85686,42.33809],"properties":{"Station_ID":"MA-WR-89","Station_Nam":"HOLDEN 0.9 SSE, MA","Latitude":"42.33809","Longitude":"-71.85686","Snowdepth":"1.500","Units":"in","Rept_Date":"2025-04-12 09"}},{"type":"Point","coordinates":[-71.7213,42.07581],"properties":{"Station_ID":"MA-WR-100","Station_Nam":"DOUGLAS 1.9 NNE, MA","Latitude":"42.07581","Longitude":"-71.72130","Snowdepth":"1.500","Units":"in","Rept_Date":"2025-04-12 11"}},{"type":"Point","coordinates":[-71.5868,42.40372],"properties":{"Station_ID":"MA-MD-115","Station_Nam":"HUDSON 1.4 NW, MA","Latitude":"42.40372","Longitude":"-71.58680","Snowdepth":"1.500","Units":"in","Rept_Date":"2025-04-12 11"}},{"type":"Point","coordinates":[-73.23335,42.72044],"properties":{"Station_ID":"MA-BE-37","Station_Nam":"WILLIAMSTOWN 1.8 WNW, MA","Latitude":"42.72044","Longitude":"-73.23335","Snowdepth":"1.500","Units":"in","Rept_Date":"2025-04-12 10"}},{"type":"Point","coordinates":[-72.98527,41.70138],"properties":{"Station_ID":"CT-HR-31","Station_Nam":"BRISTOL 2.7 WNW, CT","Latitude":"41.70138","Longitude":"-72.98527","Snowdepth":"1.500","Units":"in","Rept_Date":"2025-04-12 11"}},{"type":"Point","coordinates":[-72.5814,42.8448],"properties":{"Station_ID":"61661_MADIS","Station_Nam":"BRATTLEBORO 1.3 WSW, VT","Latitude":"42.84480","Longitude":"-72.58140","Snowdepth":"1.500","Units":"in","Rept_Date":"2025-04-12 11"}},{"type":"Point","coordinates":[-75.4239,41.85673],"properties":{"Station_ID":"61071_MADIS","Station_Nam":"STARRUCCA 3.6 SSE, PA","Latitude":"41.85673","Longitude":"-75.42390","Snowdepth":"1.500","Units":"in","Rept_Date":"2025-04-12 11"}},{"type":"Point","coordinates":[-79.2367,39.56781],"properties":{"Station_ID":"021MD_MADIS","Station_Nam":"BITTINGER 3SSW","Latitude":"39.56781","Longitude":"-79.23670","Snowdepth":"1.420","Units":"in","Rept_Date":"2025-04-13 06"}},{"type":"Point","coordinates":[-71.18942,43.57323],"properties":{"Station_ID":"NH-CR-50","Station_Nam":"WOLFEBORO 1.5 SE, NH","Latitude":"43.57323","Longitude":"-71.18942","Snowdepth":"1.400","Units":"in","Rept_Date":"2025-04-12 11"}},{"type":"Point","coordinates":[-72.44895,42.0837],"properties":{"Station_ID":"MA-HD-30","Station_Nam":"HAMPDEN 2.0 NW, MA","Latitude":"42.08370","Longitude":"-72.44895","Snowdepth":"1.400","Units":"in","Rept_Date":"2025-04-12 12"}},{"type":"Point","coordinates":[-72.67724,42.08417],"properties":{"Station_ID":"MA-HD-64","Station_Nam":"FEEDING HILLS 1.2 N, MA","Latitude":"42.08417","Longitude":"-72.67724","Snowdepth":"1.300","Units":"in","Rept_Date":"2025-04-12 11"}},{"type":"Point","coordinates":[-72.66407,42.26682],"properties":{"Station_ID":"MA-HS-48","Station_Nam":"EASTHAMPTON 1.0 E, MA","Latitude":"42.26682","Longitude":"-72.66407","Snowdepth":"1.200","Units":"in","Rept_Date":"2025-04-12 12"}},{"type":"Point","coordinates":[-71.4803,42.7344],"properties":{"Station_ID":"ZBWN3","Station_Nam":"NASHUA CWSU","Latitude":"42.73440","Longitude":"-71.48030","Snowdepth":"1.000","Units":"in","Rept_Date":"2025-04-12 11"}},{"type":"Point","coordinates":[-72.8035,42.0931],"properties":{"Station_ID":"WSTM3","Station_Nam":"WESTFIELD 3 SW","Latitude":"42.09310","Longitude":"-72.80350","Snowdepth":"1.000","Units":"in","Rept_Date":"2025-04-12 12"}},{"type":"Point","coordinates":[-70.4663,43.8567],"properties":{"Station_ID":"WNDM1","Station_Nam":"WINDHAM 2NW","Latitude":"43.85670","Longitude":"-70.46630","Snowdepth":"1.000","Units":"in","Rept_Date":"2025-04-12 11"}},{"type":"Point","coordinates":[-89.4579,46.19023],"properties":{"Station_ID":"WI-VL-9","Station_Nam":"LAND O' LAKES 11.7 W, WI","Latitude":"46.19023","Longitude":"-89.45790","Snowdepth":"1.000","Units":"in","Rept_Date":"2025-04-12 12"}},{"type":"Point","coordinates":[-91.0109,46.689],"properties":{"Station_ID":"WI-BY-56","Station_Nam":"WASHBURN 5.7 W, WI","Latitude":"46.68900","Longitude":"-91.01090","Snowdepth":"1.000","Units":"in","Rept_Date":"2025-04-12 12"}},{"type":"Point","coordinates":[-72.5072,43.6303],"properties":{"Station_ID":"WDSV1","Station_Nam":"WOODSTOCK","Latitude":"43.63030","Longitude":"-72.50720","Snowdepth":"1.000","Units":"in","Rept_Date":"2025-04-12 12"}},{"type":"Point","coordinates":[-72.5558,42.8403],"properties":{"Station_ID":"VT-WH-29","Station_Nam":"BRATTLEBORO 0.7 S, VT","Latitude":"42.84030","Longitude":"-72.55580","Snowdepth":"1.000","Units":"in","Rept_Date":"2025-04-12 11"}},{"type":"Point","coordinates":[-72.48222,43.20388],"properties":{"Station_ID":"VT-WH-17","Station_Nam":"ROCKINGHAM 1.1 NNE, VT","Latitude":"43.20388","Longitude":"-72.48222","Snowdepth":"1.000","Units":"in","Rept_Date":"2025-04-12 12"}},{"type":"Point","coordinates":[-79.9952,38.4013],"properties":{"Station_ID":"SNOW2","Station_Nam":"SNOWSHOE","Latitude":"38.40130","Longitude":"-79.99520","Snowdepth":"1.000","Units":"in","Rept_Date":"2025-04-12 09"}},{"type":"Point","coordinates":[-72.2606,41.9984],"properties":{"Station_ID":"SFVC3","Station_Nam":"STAFFORDVILLE","Latitude":"41.99840","Longitude":"-72.26060","Snowdepth":"1.000","Units":"in","Rept_Date":"2025-04-12 09"}},{"type":"Point","coordinates":[-72.5529,42.4448],"properties":{"Station_ID":"SDLM3","Station_Nam":"SUNDERLAND","Latitude":"42.44480","Longitude":"-72.55290","Snowdepth":"1.000","Units":"in","Rept_Date":"2025-04-12 11"}},{"type":"Point","coordinates":[-74.5074,40.9333],"properties":{"Station_ID":"ROCN4","Station_Nam":"ROCKAWA 2 N","Latitude":"40.93330","Longitude":"-74.50740","Snowdepth":"1.000","Units":"in","Rept_Date":"2025-04-12 11"}},{"type":"Point","coordinates":[-70.3092,43.6461],"properties":{"Station_ID":"PWM","Station_Nam":"RESIDUAL OFFICE TO PORTLAND WSFO (GYX)","Latitude":"43.64610","Longitude":"-70.30920","Snowdepth":"1.000","Units":"in","Rept_Date":"2025-04-12 12"}},{"type":"Point","coordinates":[-70.8233,43.0781],"properties":{"Station_ID":"PSM","Station_Nam":"PEASE INTL TRADEPORT AP","Latitude":"43.07810","Longitude":"-70.82330","Snowdepth":"1.000","Units":"in","Rept_Date":"2025-04-12 12"}},{"type":"Point","coordinates":[-84.3239,46.1864],"properties":{"Station_ID":"PICM4","Station_Nam":"PICKFORD 3NE","Latitude":"46.18640","Longitude":"-84.32390","Snowdepth":"1.000","Units":"in","Rept_Date":"2025-04-12 22"}},{"type":"Point","coordinates":[-74.3408,42.0642],"properties":{"Station_ID":"PHON6","Station_Nam":"PHOENICIA 2SW","Latitude":"42.06420","Longitude":"-74.34080","Snowdepth":"1.000","Units":"in","Rept_Date":"2025-04-12 11"}},{"type":"Point","coordinates":[-74.4236,43.115],"properties":{"Station_ID":"PEKN6","Station_Nam":"PECK LAKE","Latitude":"43.11500","Longitude":"-74.42360","Snowdepth":"1.000","Units":"in","Rept_Date":"2025-04-12 11"}},{"type":"Point","coordinates":[-75.92456,40.18221],"properties":{"Station_ID":"PA-BR-35","Station_Nam":"NEW MORGAN 1.8 WNW, PA","Latitude":"40.18221","Longitude":"-75.92456","Snowdepth":"1.000","Units":"in","Rept_Date":"2025-04-12 12"}},{"type":"Point","coordinates":[-73.39613,43.31163],"properties":{"Station_ID":"NY-WS-8","Station_Nam":"GRANVILLE 9.5 SW, NY","Latitude":"43.31163","Longitude":"-73.39613","Snowdepth":"1.000","Units":"in","Rept_Date":"2025-04-12 11"}},{"type":"Point","coordinates":[-73.94847,41.75256],"properties":{"Station_ID":"NY-UL-39","Station_Nam":"HIGHLAND 2.6 NNE, NY","Latitude":"41.75256","Longitude":"-73.94847","Snowdepth":"1.000","Units":"in","Rept_Date":"2025-04-12 11"}},{"type":"Point","coordinates":[-73.95875,41.83854],"properties":{"Station_ID":"NY-UL-32","Station_Nam":"ESOPUS 0.8 NNE, NY","Latitude":"41.83854","Longitude":"-73.95875","Snowdepth":"1.000","Units":"in","Rept_Date":"2025-04-12 11"}},{"type":"Point","coordinates":[-73.65283,42.7593],"properties":{"Station_ID":"NY-RN-20","Station_Nam":"TROY 2.1 NNE, NY","Latitude":"42.75930","Longitude":"-73.65283","Snowdepth":"1.000","Units":"in","Rept_Date":"2025-04-12 12"}},{"type":"Point","coordinates":[-74.3265,41.189],"properties":{"Station_ID":"NY-OR-19","Station_Nam":"GREENWOOD LAKE 3.0 SW, NY","Latitude":"41.18900","Longitude":"-74.32650","Snowdepth":"1.000","Units":"in","Rept_Date":"2025-04-12 12"}},{"type":"Point","coordinates":[-73.7205,41.6846],"properties":{"Station_ID":"NY-DT-12","Station_Nam":"LAGRANGEVILLE 3.4 NE, NY","Latitude":"41.68460","Longitude":"-73.72050","Snowdepth":"1.000","Units":"in","Rept_Date":"2025-04-12 11"}},{"type":"Point","coordinates":[-75.02991,42.32118],"properties":{"Station_ID":"NY-DL-32","Station_Nam":"DELHI 6.6 WNW, NY","Latitude":"42.32118","Longitude":"-75.02991","Snowdepth":"1.000","Units":"in","Rept_Date":"2025-04-12 11"}},{"type":"Point","coordinates":[-73.59253,42.02078],"properties":{"Station_ID":"NY-CB-15","Station_Nam":"ANCRAMDALE 0.2 N, NY","Latitude":"42.02078","Longitude":"-73.59253","Snowdepth":"1.000","Units":"in","Rept_Date":"2025-04-12 11"}},{"type":"Point","coordinates":[-74.08938,42.73785],"properties":{"Station_ID":"NY-AB-66","Station_Nam":"ALTAMONT 3.5 NW, NY","Latitude":"42.73785","Longitude":"-74.08938","Snowdepth":"1.000","Units":"in","Rept_Date":"2025-04-12 11"}},{"type":"Point","coordinates":[-71.2469,43.214],"properties":{"Station_ID":"NORN3","Station_Nam":"NORTHWOOD","Latitude":"43.21400","Longitude":"-71.24690","Snowdepth":"1.000","Units":"in","Rept_Date":"2025-04-12 11"}},{"type":"Point","coordinates":[-71.9767,43.4189],"properties":{"Station_ID":"NLNN3","Station_Nam":"NEW LONDON","Latitude":"43.41890","Longitude":"-71.97670","Snowdepth":"1.000","Units":"in","Rept_Date":"2025-04-12 11"}},{"type":"Point","coordinates":[-74.75808,41.0535],"properties":{"Station_ID":"NJ-SS-59","Station_Nam":"NEWTON 0.3 W, NJ","Latitude":"41.05350","Longitude":"-74.75808","Snowdepth":"1.000","Units":"in","Rept_Date":"2025-04-12 11"}},{"type":"Point","coordinates":[-74.5189,40.90184],"properties":{"Station_ID":"NJ-MS-6","Station_Nam":"ROCKAWAY 0.4 NNW, NJ","Latitude":"40.90184","Longitude":"-74.51890","Snowdepth":"1.000","Units":"in","Rept_Date":"2025-04-12 12"}},{"type":"Point","coordinates":[-74.5432,40.8398],"properties":{"Station_ID":"NJ-MS-42","Station_Nam":"RANDOLPH TWP 2.0 E, NJ","Latitude":"40.83980","Longitude":"-74.54320","Snowdepth":"1.000","Units":"in","Rept_Date":"2025-04-12 12"}},{"type":"Point","coordinates":[-74.371,40.96901],"properties":{"Station_ID":"NJ-MS-16","Station_Nam":"KINNELON 1.4 SE, NJ","Latitude":"40.96901","Longitude":"-74.37100","Snowdepth":"1.000","Units":"in","Rept_Date":"2025-04-12 11"}},{"type":"Point","coordinates":[-74.62139,40.81167],"properties":{"Station_ID":"NJ-MS-123","Station_Nam":"MENDHAM 3.2 NNW, NJ","Latitude":"40.81167","Longitude":"-74.62139","Snowdepth":"1.000","Units":"in","Rept_Date":"2025-04-12 11"}},{"type":"Point","coordinates":[-74.51243,40.933],"properties":{"Station_ID":"NJ-MS-116","Station_Nam":"ROCKAWAY 2.5 N, NJ","Latitude":"40.93300","Longitude":"-74.51243","Snowdepth":"1.000","Units":"in","Rept_Date":"2025-04-12 12"}},{"type":"Point","coordinates":[-71.1351,43.31175],"properties":{"Station_ID":"NH-ST-31","Station_Nam":"STRAFFORD 2.9 N, NH","Latitude":"43.31175","Longitude":"-71.13510","Snowdepth":"1.000","Units":"in","Rept_Date":"2025-04-12 11"}},{"type":"Point","coordinates":[-71.72241,43.22974],"properties":{"Station_ID":"NH-MR-68","Station_Nam":"CONTOOCOOK 0.6 NW, NH","Latitude":"43.22974","Longitude":"-71.72241","Snowdepth":"1.000","Units":"in","Rept_Date":"2025-04-12 11"}},{"type":"Point","coordinates":[-71.57893,43.30277],"properties":{"Station_ID":"NH-MR-55","Station_Nam":"CANTERBURY 2.5 SSW, NH","Latitude":"43.30277","Longitude":"-71.57893","Snowdepth":"1.000","Units":"in","Rept_Date":"2025-04-12 12"}},{"type":"Point","coordinates":[-71.6067,43.2845],"properties":{"Station_ID":"NH-MR-43","Station_Nam":"BOSCAWEN 2.2 SSE, NH","Latitude":"43.28450","Longitude":"-71.60670","Snowdepth":"1.000","Units":"in","Rept_Date":"2025-04-12 12"}},{"type":"Point","coordinates":[-71.44472,42.97444],"properties":{"Station_ID":"NH-HL-96","Station_Nam":"MANCHESTER 0.6 S, NH","Latitude":"42.97444","Longitude":"-71.44472","Snowdepth":"1.000","Units":"in","Rept_Date":"2025-04-12 11"}},{"type":"Point","coordinates":[-70.9152,42.832],"properties":{"Station_ID":"NEWM3","Station_Nam":"NEWBURYPORT","Latitude":"42.83200","Longitude":"-70.91520","Snowdepth":"1.000","Units":"in","Rept_Date":"2025-04-12 12"}},{"type":"Point","coordinates":[-70.6388,43.2241],"properties":{"Station_ID":"NEDM1","Station_Nam":"CAPE NEDDICK","Latitude":"43.22410","Longitude":"-70.63880","Snowdepth":"1.000","Units":"in","Rept_Date":"2025-04-12 11"}},{"type":"Point","coordinates":[-94.10155,47.82442],"properties":{"Station_ID":"MN-IT-80","Station_Nam":"NORTHOME 8.4 ESE, MN","Latitude":"47.82442","Longitude":"-94.10155","Snowdepth":"1.000","Units":"in","Rept_Date":"2025-04-12 13"}},{"type":"Point","coordinates":[-90.761,47.62394],"properties":{"Station_ID":"MN-CK-3","Station_Nam":"TOFTE 4.9 NE, MN","Latitude":"47.62394","Longitude":"-90.76100","Snowdepth":"1.000","Units":"in","Rept_Date":"2025-04-12 12"}},{"type":"Point","coordinates":[-84.68467,44.96388],"properties":{"Station_ID":"MI-OT-17","Station_Nam":"GAYLORD 4.1 S, MI","Latitude":"44.96388","Longitude":"-84.68467","Snowdepth":"1.000","Units":"in","Rept_Date":"2025-04-12 11"}},{"type":"Point","coordinates":[-84.73582,45.86422],"properties":{"Station_ID":"MI-MC-5","Station_Nam":"ST. IGNACE 0.6 WSW, MI","Latitude":"45.86422","Longitude":"-84.73582","Snowdepth":"1.000","Units":"in","Rept_Date":"2025-04-12 11"}},{"type":"Point","coordinates":[-89.1317,46.20333],"properties":{"Station_ID":"MI-GG-4","Station_Nam":"WATERSMEET 5.0 SE, MI","Latitude":"46.20333","Longitude":"-89.13170","Snowdepth":"1.000","Units":"in","Rept_Date":"2025-04-12 13"}},{"type":"Point","coordinates":[-71.4369,42.9344],"properties":{"Station_ID":"MHT","Station_Nam":"MANCHESTER ARPT GRENIER INDSTRL ARPK","Latitude":"42.93440","Longitude":"-71.43690","Snowdepth":"1.000","Units":"in","Rept_Date":"2025-04-12 12"}},{"type":"Point","coordinates":[-70.6751,43.6475],"properties":{"Station_ID":"ME-YK-3","Station_Nam":"HOLLIS CENTER 5.4 NW, ME","Latitude":"43.64750","Longitude":"-70.67510","Snowdepth":"1.000","Units":"in","Rept_Date":"2025-04-12 11"}},{"type":"Point","coordinates":[-69.8573,43.93063],"properties":{"Station_ID":"ME-SG-1","Station_Nam":"BATH 1.1 WSW, ME","Latitude":"43.93063","Longitude":"-69.85730","Snowdepth":"1.000","Units":"in","Rept_Date":"2025-04-12 11"}},{"type":"Point","coordinates":[-70.1721,43.8537],"properties":{"Station_ID":"ME-CM-86","Station_Nam":"POWNAL 4.1 S, ME","Latitude":"43.85370","Longitude":"-70.17210","Snowdepth":"1.000","Units":"in","Rept_Date":"2025-04-12 12"}},{"type":"Point","coordinates":[-70.3055,43.70288],"properties":{"Station_ID":"ME-CM-18","Station_Nam":"PORTLAND 5.5 WNW, ME","Latitude":"43.70288","Longitude":"-70.30550","Snowdepth":"1.000","Units":"in","Rept_Date":"2025-04-12 11"}},{"type":"Point","coordinates":[-70.286,43.609],"properties":{"Station_ID":"ME-CM-128","Station_Nam":"SOUTH PORTLAND 1.6 S, ME","Latitude":"43.60900","Longitude":"-70.28600","Snowdepth":"1.000","Units":"in","Rept_Date":"2025-04-12 12"}},{"type":"Point","coordinates":[-70.3134,43.8464],"properties":{"Station_ID":"ME-CM-125","Station_Nam":"GRAY 2.9 SSE, ME","Latitude":"43.84640","Longitude":"-70.31340","Snowdepth":"1.000","Units":"in","Rept_Date":"2025-04-12 11"}},{"type":"Point","coordinates":[-70.12462,43.96119],"properties":{"Station_ID":"ME-AN-46","Station_Nam":"DURHAM 0.8 S, ME","Latitude":"43.96119","Longitude":"-70.12462","Snowdepth":"1.000","Units":"in","Rept_Date":"2025-04-12 13"}},{"type":"Point","coordinates":[-71.482,42.46746],"properties":{"Station_ID":"MA-MD-12","Station_Nam":"ACTON 1.3 SW, MA","Latitude":"42.46746","Longitude":"-71.48200","Snowdepth":"1.000","Units":"in","Rept_Date":"2025-04-12 11"}},{"type":"Point","coordinates":[-72.72148,42.10685],"properties":{"Station_ID":"MA-HD-28","Station_Nam":"WESTFIELD 2.8 SE, MA","Latitude":"42.10685","Longitude":"-72.72148","Snowdepth":"1.000","Units":"in","Rept_Date":"2025-04-12 10"}},{"type":"Point","coordinates":[-72.5661,42.45217],"properties":{"Station_ID":"MA-FR-12","Station_Nam":"SUNDERLAND 1.3 SE, MA","Latitude":"42.45217","Longitude":"-72.56610","Snowdepth":"1.000","Units":"in","Rept_Date":"2025-04-12 11"}},{"type":"Point","coordinates":[-70.81666,43.08333],"properties":{"Station_ID":"KPSM","Station_Nam":"PEASE AIR FORCE BASE / PORTSMOUTH","Latitude":"43.08333","Longitude":"-70.81666","Snowdepth":"1.000","Units":"in","Rept_Date":"2025-04-12 12"}},{"type":"Point","coordinates":[-71.43333,42.93333],"properties":{"Station_ID":"KMHT","Station_Nam":"MANCHESTER AIRPORT","Latitude":"42.93333","Longitude":"-71.43333","Snowdepth":"1.000","Units":"in","Rept_Date":"2025-04-13 00"}},{"type":"Point","coordinates":[-72.3247,42.939],"properties":{"Station_ID":"KEEN3","Station_Nam":"KEENE","Latitude":"42.93900","Longitude":"-72.32470","Snowdepth":"1.000","Units":"in","Rept_Date":"2025-04-12 11"}},{"type":"Point","coordinates":[-93.0484,48.4088],"properties":{"Station_ID":"KABM5","Station_Nam":"KABETOGAMA","Latitude":"48.40880","Longitude":"-93.04840","Snowdepth":"1.000","Units":"in","Rept_Date":"2025-04-12 12"}},{"type":"Point","coordinates":[-90.1955,46.4625],"properties":{"Station_ID":"HURW3","Station_Nam":"HURLEY","Latitude":"46.46250","Longitude":"-90.19550","Snowdepth":"1.000","Units":"in","Rept_Date":"2025-04-12 13"}},{"type":"Point","coordinates":[-70.6749,43.6475],"properties":{"Station_ID":"HOLM1","Station_Nam":"HOLLIS","Latitude":"43.64750","Longitude":"-70.67490","Snowdepth":"1.000","Units":"in","Rept_Date":"2025-04-12 11"}},{"type":"Point","coordinates":[-71.202,42.9108],"properties":{"Station_ID":"HMPN3","Station_Nam":"WEST HAMPSTEAD","Latitude":"42.91080","Longitude":"-71.20200","Snowdepth":"1.000","Units":"in","Rept_Date":"2025-04-12 10"}},{"type":"Point","coordinates":[-70.255,43.8925],"properties":{"Station_ID":"GYX","Station_Nam":"PORTLAND, ME","Latitude":"43.89250","Longitude":"-70.25500","Snowdepth":"1.000","Units":"in","Rept_Date":"2025-04-12 12"}},{"type":"Point","coordinates":[-72.5975,42.5719],"properties":{"Station_ID":"GRFM3","Station_Nam":"GREENFIELD NO. 3","Latitude":"42.57190","Longitude":"-72.59750","Snowdepth":"1.000","Units":"in","Rept_Date":"2025-04-12 11"}},{"type":"Point","coordinates":[-70.0963,43.9996],"properties":{"Station_ID":"DURM1","Station_Nam":"DURHAM","Latitude":"43.99960","Longitude":"-70.09630","Snowdepth":"1.000","Units":"in","Rept_Date":"2025-04-12 12"}},{"type":"Point","coordinates":[-74.1711,42.7672],"properties":{"Station_ID":"DLSN6","Station_Nam":"DELANSON 2NE","Latitude":"42.76720","Longitude":"-74.17110","Snowdepth":"1.000","Units":"in","Rept_Date":"2025-04-12 11"}},{"type":"Point","coordinates":[-72.261,41.99874],"properties":{"Station_ID":"CT-TL-2","Station_Nam":"STAFFORDVILLE 0.4 NNW, CT","Latitude":"41.99874","Longitude":"-72.26100","Snowdepth":"1.000","Units":"in","Rept_Date":"2025-04-12 10"}},{"type":"Point","coordinates":[-72.44127,41.99553],"properties":{"Station_ID":"CT-TL-15","Station_Nam":"CENTRAL SOMERS 0.3 N, CT","Latitude":"41.99553","Longitude":"-72.44127","Snowdepth":"1.000","Units":"in","Rept_Date":"2025-04-12 10"}},{"type":"Point","coordinates":[-72.89729,41.88514],"properties":{"Station_ID":"CT-HR-28","Station_Nam":"NORTH CANTON 0.8 SSW, CT","Latitude":"41.88514","Longitude":"-72.89729","Snowdepth":"1.000","Units":"in","Rept_Date":"2025-04-12 11"}},{"type":"Point","coordinates":[-71.5022,43.2028],"properties":{"Station_ID":"CON","Station_Nam":"CONCORD MUNI ARPT","Latitude":"43.20280","Longitude":"-71.50220","Snowdepth":"1.000","Units":"in","Rept_Date":"2025-04-12 12"}},{"type":"Point","coordinates":[-75.2383,41.1898],"properties":{"Station_ID":"CNDP1","Station_Nam":"CANADENSIS","Latitude":"41.18980","Longitude":"-75.23830","Snowdepth":"1.000","Units":"in","Rept_Date":"2025-04-12 11"}},{"type":"Point","coordinates":[-69.8564,43.9316],"properties":{"Station_ID":"BTHM1","Station_Nam":"BATH","Latitude":"43.93160","Longitude":"-69.85640","Snowdepth":"1.000","Units":"in","Rept_Date":"2025-04-12 11"}},{"type":"Point","coordinates":[-91.4486,47.9719],"properties":{"Station_ID":"BNDM5","Station_Nam":"ELY 25E","Latitude":"47.97190","Longitude":"-91.44860","Snowdepth":"1.000","Units":"in","Rept_Date":"2025-04-12 16"}},{"type":"Point","coordinates":[-72.5375,42.3861],"properties":{"Station_ID":"AHRM3","Station_Nam":"AMHERST","Latitude":"42.38610","Longitude":"-72.53750","Snowdepth":"1.000","Units":"in","Rept_Date":"2025-04-12 11"}},{"type":"Point","coordinates":[-69.9601,43.92872],"properties":{"Station_ID":"75781_MADIS","Station_Nam":"TOPSHAM 0.8 WSW, ME","Latitude":"43.92872","Longitude":"-69.96010","Snowdepth":"1.000","Units":"in","Rept_Date":"2025-04-12 11"}},{"type":"Point","coordinates":[-78.2661,42.67418],"properties":{"Station_ID":"54401_MADIS","Station_Nam":"DRACUT 1.9 E, MA","Latitude":"42.67418","Longitude":"-78.26610","Snowdepth":"1.000","Units":"in","Rept_Date":"2025-04-12 09"}}]}},"arcs":[],"bbox":[-95.806,35.655,-60.6434,51.7269]}
