{"type":"Topology","objects":{"snowdepth_geo":{"type":"GeometryCollection","name":"snowdepth","crs":{"type":"name","properties":{"name":"urn:ogc:def:crs:OGC:1.3:CRS84"}},"geometries":[{"type":"Point","properties":{"Station_ID":"PRKM4","Station_Nam":"MUNISING EAST","Latitude":"46.42580","Longitude":"-86.62000","Snowdepth":"76.500","Units":"in","Rept_Date":"2021-01-20 06"},"coordinates":[2749,6710]},{"type":"Point","properties":{"Station_ID":"CAN-NB-16","Station_Nam":"DORCHESTER 1.0 SSE, CAN","Latitude":"45.89160","Longitude":"-64.51269","Snowdepth":"38.200","Units":"in","Rept_Date":"2021-01-19 11"},"coordinates":[8473,6379]},{"type":"Point","properties":{"Station_ID":"MMNV1","Station_Nam":"MT. MANSFIELD","Latitude":"44.52480","Longitude":"-72.81540","Snowdepth":"29.000","Units":"in","Rept_Date":"2021-01-19 21"},"coordinates":[6323,5531]},{"type":"Point","properties":{"Station_ID":"HLSN3","Station_Nam":"HERMIT LAKE SNOTEL","Latitude":"44.26130","Longitude":"-71.28320","Snowdepth":"28.110","Units":"in","Rept_Date":"2021-01-20 06"},"coordinates":[6720,5367]},{"type":"Point","properties":{"Station_ID":"VT-WR-17","Station_Nam":"ROCHESTER 2.3 NE, VT","Latitude":"43.89418","Longitude":"-72.76992","Snowdepth":"24.000","Units":"in","Rept_Date":"2021-01-19 12"},"coordinates":[6335,5139]},{"type":"Point","properties":{"Station_ID":"HGHN6","Station_Nam":"HIGHMARKET","Latitude":"43.60510","Longitude":"-75.55430","Snowdepth":"24.000","Units":"in","Rept_Date":"2021-01-19 11"},"coordinates":[5614,4960]},{"type":"Point","properties":{"Station_ID":"PDLM4","Station_Nam":"PAINESDALE","Latitude":"47.04160","Longitude":"-88.67170","Snowdepth":"23.000","Units":"in","Rept_Date":"2021-01-19 13"},"coordinates":[2218,7092]},{"type":"Point","properties":{"Station_ID":"QLB","Station_Nam":"QLB","Latitude":"50.72360","Longitude":"-75.10000","Snowdepth":"21.063","Units":"in","Rept_Date":"2021-01-19 12"},"coordinates":[5732,9377]},{"type":"Point","properties":{"Station_ID":"PERV1","Station_Nam":"PERU","Latitude":"43.26670","Longitude":"-72.90000","Snowdepth":"21.000","Units":"in","Rept_Date":"2021-01-19 12"},"coordinates":[6301,4750]},{"type":"Point","properties":{"Station_ID":"QCO","Station_Nam":"QCO","Latitude":"51.45280","Longitude":"-72.20110","Snowdepth":"20.905","Units":"in","Rept_Date":"2021-01-19 12"},"coordinates":[6482,9829]},{"type":"Point","properties":{"Station_ID":"QGO","Station_Nam":"QGO","Latitude":"48.85500","Longitude":"-74.20640","Snowdepth":"20.669","Units":"in","Rept_Date":"2021-01-19 12"},"coordinates":[5963,8217]},{"type":"Point","properties":{"Station_ID":"QCU","Station_Nam":"QCU","Latitude":"47.82750","Longitude":"-76.59830","Snowdepth":"20.669","Units":"in","Rept_Date":"2021-01-19 12"},"coordinates":[5344,7580]},{"type":"Point","properties":{"Station_ID":"NH-CS-10","Station_Nam":"RANDOLPH 1.4 NE, NH","Latitude":"44.38824","Longitude":"-71.26950","Snowdepth":"20.500","Units":"in","Rept_Date":"2021-01-19 12"},"coordinates":[6724,5446]},{"type":"Point","properties":{"Station_ID":"VT-BN-12","Station_Nam":"STAMFORD 5.0 NNE, VT","Latitude":"42.82000","Longitude":"-73.02000","Snowdepth":"20.000","Units":"in","Rept_Date":"2021-01-19 21"},"coordinates":[6270,4473]},{"type":"Point","properties":{"Station_ID":"TRIQ6","Station_Nam":"TRIO LAKE","Latitude":"49.22880","Longitude":"-87.22920","Snowdepth":"19.450","Units":"in","Rept_Date":"2021-01-20 06"},"coordinates":[2592,8449]},{"type":"Point","properties":{"Station_ID":"QOU","Station_Nam":"QOU","Latitude":"50.79250","Longitude":"-69.67470","Snowdepth":"19.173","Units":"in","Rept_Date":"2021-01-19 12"},"coordinates":[7136,9419]},{"type":"Point","properties":{"Station_ID":"VT-WS-7","Station_Nam":"MIDDLESEX 3.1 ENE, VT","Latitude":"44.31799","Longitude":"-72.62650","Snowdepth":"19.000","Units":"in","Rept_Date":"2021-01-19 13"},"coordinates":[6372,5402]},{"type":"Point","properties":{"Station_ID":"SGVN6","Station_Nam":"SPRINGVILLE","Latitude":"42.54970","Longitude":"-78.57670","Snowdepth":"19.000","Units":"in","Rept_Date":"2021-01-20 00"},"coordinates":[4832,4305]},{"type":"Point","properties":{"Station_ID":"LBKV1","Station_Nam":"LYE BROOK","Latitude":"43.05000","Longitude":"-73.03330","Snowdepth":"19.000","Units":"in","Rept_Date":"2021-01-20 05"},"coordinates":[6267,4616]},{"type":"Point","properties":{"Station_ID":"HOKN6","Station_Nam":"HOOKER 12 NNW","Latitude":"43.85240","Longitude":"-75.71580","Snowdepth":"19.000","Units":"in","Rept_Date":"2021-01-19 11"},"coordinates":[5572,5113]},{"type":"Point","properties":{"Station_ID":"BMON6","Station_Nam":"BIG MOOSE 3SE","Latitude":"43.80000","Longitude":"-74.86670","Snowdepth":"19.000","Units":"in","Rept_Date":"2021-01-19 13"},"coordinates":[5792,5081]},{"type":"Point","properties":{"Station_ID":"PTLQ6","Station_Nam":"PORTAGE LAKE","Latitude":"49.06950","Longitude":"-86.65940","Snowdepth":"18.940","Units":"in","Rept_Date":"2021-01-20 06"},"coordinates":[2739,8350]},{"type":"Point","properties":{"Station_ID":"AUDQ6","Station_Nam":"AUDEN","Latitude":"48.52600","Longitude":"-82.57570","Snowdepth":"18.540","Units":"in","Rept_Date":"2021-01-20 06"},"coordinates":[3796,8013]},{"type":"Point","properties":{"Station_ID":"NY-ER-195","Station_Nam":"SPRINGVILLE 0.4 NE, NY","Latitude":"42.51351","Longitude":"-78.66492","Snowdepth":"18.500","Units":"in","Rept_Date":"2021-01-20 05"},"coordinates":[4809,4283]},{"type":"Point","properties":{"Station_ID":"VT-BN-3","Station_Nam":"LANDGROVE 1.1 NNE, VT","Latitude":"43.29092","Longitude":"-72.83260","Snowdepth":"18.000","Units":"in","Rept_Date":"2021-01-19 12"},"coordinates":[6319,4765]},{"type":"Point","properties":{"Station_ID":"OCON6","Station_Nam":"OSCEOLA","Latitude":"43.50370","Longitude":"-75.72170","Snowdepth":"18.000","Units":"in","Rept_Date":"2021-01-19 13"},"coordinates":[5571,4897]},{"type":"Point","properties":{"Station_ID":"NY-ER-166","Station_Nam":"BOSTON 2.5 NE, NY","Latitude":"42.65480","Longitude":"-78.70300","Snowdepth":"18.000","Units":"in","Rept_Date":"2021-01-19 12"},"coordinates":[4799,4370]},{"type":"Point","properties":{"Station_ID":"NY-CQ-6","Station_Nam":"FORESTVILLE 2.1 SW, NY","Latitude":"42.44736","Longitude":"-79.20450","Snowdepth":"18.000","Units":"in","Rept_Date":"2021-01-19 15"},"coordinates":[4669,4242]},{"type":"Point","properties":{"Station_ID":"GNLM4","Station_Nam":"GREENLAND 6N","Latitude":"46.87360","Longitude":"-89.10060","Snowdepth":"18.000","Units":"in","Rept_Date":"2021-01-19 13"},"coordinates":[2107,6988]},{"type":"Point","properties":{"Station_ID":"QFT","Station_Nam":"QFT","Latitude":"50.83280","Longitude":"-74.40390","Snowdepth":"17.480","Units":"in","Rept_Date":"2021-01-19 12"},"coordinates":[5912,9444]},{"type":"Point","properties":{"Station_ID":"QTM","Station_Nam":"QTM","Latitude":"51.05780","Longitude":"-72.57190","Snowdepth":"17.362","Units":"in","Rept_Date":"2021-01-19 12"},"coordinates":[6386,9584]},{"type":"Point","properties":{"Station_ID":"WAIV1","Station_Nam":"WAITSFIELD","Latitude":"44.17560","Longitude":"-72.79610","Snowdepth":"17.000","Units":"in","Rept_Date":"2021-01-19 12"},"coordinates":[6328,5314]},{"type":"Point","properties":{"Station_ID":"VT-WS-11","Station_Nam":"WAITSFIELD 1.8 SE, VT","Latitude":"44.17551","Longitude":"-72.79540","Snowdepth":"17.000","Units":"in","Rept_Date":"2021-01-19 12"},"coordinates":[6329,5314]},{"type":"Point","properties":{"Station_ID":"PRGN6","Station_Nam":"PERRYSBURG","Latitude":"42.46470","Longitude":"-79.00310","Snowdepth":"17.000","Units":"in","Rept_Date":"2021-01-19 12"},"coordinates":[4721,4252]},{"type":"Point","properties":{"Station_ID":"OLMN6","Station_Nam":"OLD FORGE - MOOSE","Latitude":"43.71270","Longitude":"-74.96930","Snowdepth":"17.000","Units":"in","Rept_Date":"2021-01-19 13"},"coordinates":[5766,5027]},{"type":"Point","properties":{"Station_ID":"MWN","Station_Nam":"MOUNT WASHINGTON","Latitude":"44.26670","Longitude":"-71.30000","Snowdepth":"17.000","Units":"in","Rept_Date":"2021-01-19 12"},"coordinates":[6716,5370]},{"type":"Point","properties":{"Station_ID":"KMWN","Station_Nam":"MOUNT WASHINGTON","Latitude":"44.26666","Longitude":"-71.30000","Snowdepth":"17.000","Units":"in","Rept_Date":"2021-01-20 06"},"coordinates":[6716,5370]},{"type":"Point","properties":{"Station_ID":"42.1173_079.8962","Station_Nam":"4 W Colt Station  Trained Spotter (CLE0298)","Latitude":"42.11734","Longitude":"-79.89615","Snowdepth":"17.000","Units":"in","Rept_Date":"2021-01-20 01"},"coordinates":[4490,4037]},{"type":"Point","properties":{"Station_ID":"DVLQ6","Station_Nam":"DEVIOUS LAKE","Latitude":"49.19890","Longitude":"-87.76440","Snowdepth":"16.770","Units":"in","Rept_Date":"2021-01-20 06"},"coordinates":[2453,8431]},{"type":"Point","properties":{"Station_ID":"MLZ","Station_Nam":"MLZ","Latitude":"50.66170","Longitude":"-68.82360","Snowdepth":"16.535","Units":"in","Rept_Date":"2021-01-19 12"},"coordinates":[7357,9338]},{"type":"Point","properties":{"Station_ID":"VT-WS-30","Station_Nam":"WOODBURY 3.4 NNW, VT","Latitude":"44.48825","Longitude":"-72.43258","Snowdepth":"16.500","Units":"in","Rept_Date":"2021-01-19 12"},"coordinates":[6422,5508]},{"type":"Point","properties":{"Station_ID":"WORV1","Station_Nam":"WORCESTER 2 W","Latitude":"44.37470","Longitude":"-72.58220","Snowdepth":"16.000","Units":"in","Rept_Date":"2021-01-19 12"},"coordinates":[6384,5437]},{"type":"Point","properties":{"Station_ID":"VT-OL-12","Station_Nam":"GREENSBORO 3.9 NNE, VT","Latitude":"44.63100","Longitude":"-72.28000","Snowdepth":"16.000","Units":"in","Rept_Date":"2021-01-19 13"},"coordinates":[6462,5596]},{"type":"Point","properties":{"Station_ID":"STRN6","Station_Nam":"STILLWATER RESERVOIR","Latitude":"43.89140","Longitude":"-75.03610","Snowdepth":"16.000","Units":"in","Rept_Date":"2021-01-19 13"},"coordinates":[5748,5138]},{"type":"Point","properties":{"Station_ID":"ROWM3","Station_Nam":"ROWE 3NE","Latitude":"42.73500","Longitude":"-72.86920","Snowdepth":"16.000","Units":"in","Rept_Date":"2021-01-19 12"},"coordinates":[6309,4420]},{"type":"Point","properties":{"Station_ID":"NY-ER-56","Station_Nam":"COLDEN 1.4 NNW, NY","Latitude":"42.64740","Longitude":"-78.71120","Snowdepth":"16.000","Units":"in","Rept_Date":"2021-01-19 12"},"coordinates":[4797,4366]},{"type":"Point","properties":{"Station_ID":"NCBN6","Station_Nam":"NEWCOMB","Latitude":"43.97070","Longitude":"-74.22200","Snowdepth":"16.000","Units":"in","Rept_Date":"2021-01-19 12"},"coordinates":[5959,5187]},{"type":"Point","properties":{"Station_ID":"IWOM4","Station_Nam":"IRONWOOD#2","Latitude":"46.46520","Longitude":"-90.13820","Snowdepth":"16.000","Units":"in","Rept_Date":"2021-01-19 13"},"coordinates":[1838,6734]},{"type":"Point","properties":{"Station_ID":"HURW3","Station_Nam":"HURLEY","Latitude":"46.46250","Longitude":"-90.19550","Snowdepth":"16.000","Units":"in","Rept_Date":"2021-01-19 14"},"coordinates":[1824,6733]},{"type":"Point","properties":{"Station_ID":"HERM4","Station_Nam":"HERMAN,MI","Latitude":"46.65000","Longitude":"-88.33330","Snowdepth":"16.000","Units":"in","Rept_Date":"2021-01-19 13"},"coordinates":[2306,6849]},{"type":"Point","properties":{"Station_ID":"CODN6","Station_Nam":"COLDEN","Latitude":"42.64720","Longitude":"-78.71110","Snowdepth":"16.000","Units":"in","Rept_Date":"2021-01-19 12"},"coordinates":[4797,4366]},{"type":"Point","properties":{"Station_ID":"BERM4","Station_Nam":"BERGLAND DAM","Latitude":"46.58690","Longitude":"-89.54750","Snowdepth":"16.000","Units":"in","Rept_Date":"2021-01-19 13"},"coordinates":[1991,6810]},{"type":"Point","properties":{"Station_ID":"BBEM4","Station_Nam":"BIG BAY 9SW","Latitude":"46.74620","Longitude":"-87.88160","Snowdepth":"16.000","Units":"in","Rept_Date":"2021-01-19 13"},"coordinates":[2423,6909]},{"type":"Point","properties":{"Station_ID":"CAN-ON-245","Station_Nam":"PHELPSTON 3.1 ESE, CAN","Latitude":"44.50564","Longitude":"-79.81035","Snowdepth":"15.500","Units":"in","Rept_Date":"2021-01-19 12"},"coordinates":[4512,5519]},{"type":"Point","properties":{"Station_ID":"NY-HR-18","Station_Nam":"SALISBURY CENTER 1.8 NW, NY","Latitude":"43.16260","Longitude":"-74.80880","Snowdepth":"15.300","Units":"in","Rept_Date":"2021-01-19 10"},"coordinates":[5807,4685]},{"type":"Point","properties":{"Station_ID":"WNDP1","Station_Nam":"WINDBER COUNTY CLUB","Latitude":"40.28780","Longitude":"-78.77530","Snowdepth":"15.000","Units":"in","Rept_Date":"2021-01-19 12"},"coordinates":[4780,2902]},{"type":"Point","properties":{"Station_ID":"WHFN6","Station_Nam":"WILMINGTON 2W","Latitude":"44.39310","Longitude":"-73.85890","Snowdepth":"15.000","Units":"in","Rept_Date":"2021-01-19 13"},"coordinates":[6053,5449]},{"type":"Point","properties":{"Station_ID":"NY-LW-12","Station_Nam":"CHASES LAKE COOP, NY","Latitude":"43.75924","Longitude":"-75.29982","Snowdepth":"15.000","Units":"in","Rept_Date":"2021-01-19 11"},"coordinates":[5680,5056]},{"type":"Point","properties":{"Station_ID":"MNSM4","Station_Nam":"MUNISING","Latitude":"46.41210","Longitude":"-86.66250","Snowdepth":"15.000","Units":"in","Rept_Date":"2021-01-19 11"},"coordinates":[2738,6702]},{"type":"Point","properties":{"Station_ID":"GFDN6","Station_Nam":"CHASES LAKE","Latitude":"43.75920","Longitude":"-75.29980","Snowdepth":"15.000","Units":"in","Rept_Date":"2021-01-19 11"},"coordinates":[5680,5056]},{"type":"Point","properties":{"Station_ID":"CLQM5","Station_Nam":"CLOQUET","Latitude":"46.70470","Longitude":"-92.52530","Snowdepth":"15.000","Units":"in","Rept_Date":"2021-01-19 14"},"coordinates":[1220,6883]},{"type":"Point","properties":{"Station_ID":"42.1154_080.1310","Station_Nam":"ERIE  SNOW SPOTTER (CLE0161)","Latitude":"42.11540","Longitude":"-80.13100","Snowdepth":"15.000","Units":"in","Rept_Date":"2021-01-19 23"},"coordinates":[4429,4036]},{"type":"Point","properties":{"Station_ID":"QWE","Station_Nam":"QWE","Latitude":"47.84610","Longitude":"-73.80670","Snowdepth":"14.646","Units":"in","Rept_Date":"2021-01-19 12"},"coordinates":[6067,7591]},{"type":"Point","properties":{"Station_ID":"VT-WS-33","Station_Nam":"WAITSFIELD 3.5 WNW, VT","Latitude":"44.20052","Longitude":"-72.89421","Snowdepth":"14.500","Units":"in","Rept_Date":"2021-01-19 13"},"coordinates":[6303,5329]},{"type":"Point","properties":{"Station_ID":"NY-OD-2","Station_Nam":"POINT ROCK 0.6 SE, NY","Latitude":"43.37335","Longitude":"-75.53840","Snowdepth":"14.500","Units":"in","Rept_Date":"2021-01-19 13"},"coordinates":[5618,4816]},{"type":"Point","properties":{"Station_ID":"NY-ER-194","Station_Nam":"GLENWOOD 1.0 SE, NY","Latitude":"42.60740","Longitude":"-78.64610","Snowdepth":"14.500","Units":"in","Rept_Date":"2021-01-19 12"},"coordinates":[4814,4341]},{"type":"Point","properties":{"Station_ID":"VT-WH-19","Station_Nam":"EAST DOVER 1.8 N, VT","Latitude":"42.97658","Longitude":"-72.77637","Snowdepth":"14.000","Units":"in","Rept_Date":"2021-01-19 12"},"coordinates":[6333,4570]},{"type":"Point","properties":{"Station_ID":"UPSW3","Station_Nam":"UPSON,WI","Latitude":"46.36780","Longitude":"-90.41220","Snowdepth":"14.000","Units":"in","Rept_Date":"2021-01-20 00"},"coordinates":[1767,6674]},{"type":"Point","properties":{"Station_ID":"NY-ER-65","Station_Nam":"BOSTON 1.5 NE, NY","Latitude":"42.65470","Longitude":"-78.72010","Snowdepth":"14.000","Units":"in","Rept_Date":"2021-01-19 12"},"coordinates":[4795,4370]},{"type":"Point","properties":{"Station_ID":"NY-ER-63","Station_Nam":"GLENWOOD 1.5 SE, NY","Latitude":"42.60195","Longitude":"-78.63910","Snowdepth":"14.000","Units":"in","Rept_Date":"2021-01-19 13"},"coordinates":[4816,4338]},{"type":"Point","properties":{"Station_ID":"NH-CS-4","Station_Nam":"PITTSBURG 6.1 NE, NH","Latitude":"45.11060","Longitude":"-71.29760","Snowdepth":"14.000","Units":"in","Rept_Date":"2021-01-19 12"},"coordinates":[6716,5894]},{"type":"Point","properties":{"Station_ID":"MQT","Station_Nam":"MARQUETTE, MI","Latitude":"46.53140","Longitude":"-87.54920","Snowdepth":"14.000","Units":"in","Rept_Date":"2021-01-20 06"},"coordinates":[2509,6776]},{"type":"Point","properties":{"Station_ID":"MI-KW-2","Station_Nam":"DELAWARE 5.2 SW, MI","Latitude":"47.36928","Longitude":"-88.17919","Snowdepth":"14.000","Units":"in","Rept_Date":"2021-01-19 09"},"coordinates":[2346,7295]},{"type":"Point","properties":{"Station_ID":"KSGM4","Station_Nam":"KEARSARGE","Latitude":"47.27520","Longitude":"-88.41700","Snowdepth":"14.000","Units":"in","Rept_Date":"2021-01-19 13"},"coordinates":[2284,7237]},{"type":"Point","properties":{"Station_ID":"CAN-NB-13","Station_Nam":"BATHURST 3.8 NW, CAN","Latitude":"47.64212","Longitude":"-65.68756","Snowdepth":"14.000","Units":"in","Rept_Date":"2021-01-19 10"},"coordinates":[8169,7465]},{"type":"Point","properties":{"Station_ID":"BOON6","Station_Nam":"BOONVILLE 4 SSW","Latitude":"43.43610","Longitude":"-75.36970","Snowdepth":"14.000","Units":"in","Rept_Date":"2021-01-19 12"},"coordinates":[5662,4855]},{"type":"Point","properties":{"Station_ID":"42.1284_079.8945","Station_Nam":"NORTHEAST 6SW (CLE0249)","Latitude":"42.12840","Longitude":"-79.89450","Snowdepth":"14.000","Units":"in","Rept_Date":"2021-01-19 23"},"coordinates":[4491,4044]},{"type":"Point","properties":{"Station_ID":"42.0800_080.0143","Station_Nam":"ERIE 5SE  SNOW SPOTTER (X4210800)","Latitude":"42.08000","Longitude":"-80.01430","Snowdepth":"14.000","Units":"in","Rept_Date":"2021-01-20 00"},"coordinates":[4459,4014]},{"type":"Point","properties":{"Station_ID":"CAN-QC-56","Station_Nam":"SUTTON 2.6 N, CAN","Latitude":"45.13119","Longitude":"-72.61218","Snowdepth":"13.700","Units":"in","Rept_Date":"2021-01-19 12"},"coordinates":[6376,5907]},{"type":"Point","properties":{"Station_ID":"WI-BY-14","Station_Nam":"ASHLAND 9.8 W, WI","Latitude":"46.59742","Longitude":"-91.07856","Snowdepth":"13.500","Units":"in","Rept_Date":"2021-01-19 12"},"coordinates":[1595,6816]},{"type":"Point","properties":{"Station_ID":"NY-HM-10","Station_Nam":"LAKE PLEASANT 2.3 WSW, NY","Latitude":"43.45490","Longitude":"-74.45287","Snowdepth":"13.500","Units":"in","Rept_Date":"2021-01-19 12"},"coordinates":[5899,4867]},{"type":"Point","properties":{"Station_ID":"MI-HG-20","Station_Nam":"CALUMET 1.1 SSW, MI","Latitude":"47.23165","Longitude":"-88.45823","Snowdepth":"13.500","Units":"in","Rept_Date":"2021-01-19 11"},"coordinates":[2273,7210]},{"type":"Point","properties":{"Station_ID":"OGIQ6","Station_Nam":"OGOKI CAMP","Latitude":"50.76680","Longitude":"-87.85820","Snowdepth":"13.270","Units":"in","Rept_Date":"2021-01-20 06"},"coordinates":[2429,9403]},{"type":"Point","properties":{"Station_ID":"WLFM5","Station_Nam":"WOLF RIDGE ENVIRON LEARNING CENTER","Latitude":"47.38240","Longitude":"-91.19730","Snowdepth":"13.000","Units":"in","Rept_Date":"2021-01-19 13"},"coordinates":[1564,7304]},{"type":"Point","properties":{"Station_ID":"VT-WS-10","Station_Nam":"NORTHFIELD 1.5 N, VT","Latitude":"44.16986","Longitude":"-72.65200","Snowdepth":"13.000","Units":"in","Rept_Date":"2021-01-19 12"},"coordinates":[6366,5310]},{"type":"Point","properties":{"Station_ID":"VT-OL-1","Station_Nam":"WESTFIELD 0.7 WNW, VT","Latitude":"44.89160","Longitude":"-72.44350","Snowdepth":"13.000","Units":"in","Rept_Date":"2021-01-19 12"},"coordinates":[6420,5758]},{"type":"Point","properties":{"Station_ID":"RGNM1","Station_Nam":"RANGELEY 2NW","Latitude":"44.98940","Longitude":"-70.67220","Snowdepth":"13.000","Units":"in","Rept_Date":"2021-01-19 11"},"coordinates":[6878,5819]},{"type":"Point","properties":{"Station_ID":"QNCM4","Station_Nam":"QUINCY HILL","Latitude":"47.13640","Longitude":"-88.57950","Snowdepth":"13.000","Units":"in","Rept_Date":"2021-01-19 13"},"coordinates":[2242,7151]},{"type":"Point","properties":{"Station_ID":"MI-BG-3","Station_Nam":"THREE LAKES, MI","Latitude":"46.55730","Longitude":"-88.20770","Snowdepth":"13.000","Units":"in","Rept_Date":"2021-01-19 13"},"coordinates":[2338,6792]},{"type":"Point","properties":{"Station_ID":"LPLN6","Station_Nam":"LAKE PLACID 2 S","Latitude":"44.30420","Longitude":"-73.98390","Snowdepth":"13.000","Units":"in","Rept_Date":"2021-01-19 13"},"coordinates":[6021,5394]},{"type":"Point","properties":{"Station_ID":"KGTB","Station_Nam":"FORT DRUM / WHEELER-SACK U. S. ARMY AIRFIELD","Latitude":"44.05000","Longitude":"-75.73333","Snowdepth":"13.000","Units":"in","Rept_Date":"2021-01-20 06"},"coordinates":[5568,5236]},{"type":"Point","properties":{"Station_ID":"JEFV1","Station_Nam":"JEFFERSONVILLE","Latitude":"44.58430","Longitude":"-72.78700","Snowdepth":"13.000","Units":"in","Rept_Date":"2021-01-19 12"},"coordinates":[6331,5567]},{"type":"Point","properties":{"Station_ID":"IRMM4","Station_Nam":"WWTP","Latitude":"46.46670","Longitude":"-90.18330","Snowdepth":"13.000","Units":"in","Rept_Date":"2021-01-19 13"},"coordinates":[1827,6735]},{"type":"Point","properties":{"Station_ID":"GSHV1","Station_Nam":"GOSHEN DAM","Latitude":"43.91420","Longitude":"-73.00500","Snowdepth":"13.000","Units":"in","Rept_Date":"2021-01-19 17"},"coordinates":[6274,5152]},{"type":"Point","properties":{"Station_ID":"ANJM4","Station_Nam":"SNOW PAID OBSERVER FOR KANJ","Latitude":"46.48670","Longitude":"-84.40260","Snowdepth":"13.000","Units":"in","Rept_Date":"2021-01-20 06"},"coordinates":[3323,6748]},{"type":"Point","properties":{"Station_ID":"42.0231_080.0856","Station_Nam":"3 ENE McKean  Trained Spotter (X4200801)","Latitude":"42.02314","Longitude":"-80.08558","Snowdepth":"13.000","Units":"in","Rept_Date":"2021-01-19 13"},"coordinates":[4441,3978]},{"type":"Point","properties":{"Station_ID":"QMD","Station_Nam":"QMD","Latitude":"49.29060","Longitude":"-75.84500","Snowdepth":"12.913","Units":"in","Rept_Date":"2021-01-19 12"},"coordinates":[5539,8487]},{"type":"Point","properties":{"Station_ID":"KABQ6","Station_Nam":"CAB LAKE","Latitude":"49.59950","Longitude":"-89.17990","Snowdepth":"12.760","Units":"in","Rept_Date":"2021-01-20 06"},"coordinates":[2086,8679]},{"type":"Point","properties":{"Station_ID":"CAN-QC-51","Station_Nam":"BELOEIL 0.7 NW, CAN","Latitude":"45.58049","Longitude":"-73.21218","Snowdepth":"12.600","Units":"in","Rept_Date":"2021-01-19 12"},"coordinates":[6221,6186]},{"type":"Point","properties":{"Station_ID":"VT-WS-19","Station_Nam":"WATERBURY 3.0 NW, VT","Latitude":"44.36060","Longitude":"-72.80770","Snowdepth":"12.500","Units":"in","Rept_Date":"2021-01-19 11"},"coordinates":[6325,5429]},{"type":"Point","properties":{"Station_ID":"VT-WR-2","Station_Nam":"POMFRET 2.6 N, VT","Latitude":"43.74230","Longitude":"-72.52550","Snowdepth":"12.500","Units":"in","Rept_Date":"2021-01-19 12"},"coordinates":[6398,5045]},{"type":"Point","properties":{"Station_ID":"VT-CH-13","Station_Nam":"RICHMOND 3.4 SSE, VT","Latitude":"44.36084","Longitude":"-72.96400","Snowdepth":"12.500","Units":"in","Rept_Date":"2021-01-19 12"},"coordinates":[6285,5429]},{"type":"Point","properties":{"Station_ID":"NY-ES-6","Station_Nam":"OLMSTEDVILLE 4.6 NNE, NY","Latitude":"43.83350","Longitude":"-73.89780","Snowdepth":"12.500","Units":"in","Rept_Date":"2021-01-19 13"},"coordinates":[6043,5102]},{"type":"Point","properties":{"Station_ID":"PA-ER-2","Station_Nam":"ERIE 5.6 SW, PA","Latitude":"42.06086","Longitude":"-80.15260","Snowdepth":"12.400","Units":"in","Rept_Date":"2021-01-19 11"},"coordinates":[4424,4002]},{"type":"Point","properties":{"Station_ID":"CAN-ON-791","Station_Nam":"METCALFE 4.4 NNW, CAN","Latitude":"45.27286","Longitude":"-75.48952","Snowdepth":"12.100","Units":"in","Rept_Date":"2021-01-19 11"},"coordinates":[5631,5995]},{"type":"Point","properties":{"Station_ID":"QTV","Station_Nam":"QTV","Latitude":"49.66000","Longitude":"-69.35690","Snowdepth":"12.087","Units":"in","Rept_Date":"2021-01-19 12"},"coordinates":[7219,8717]},{"type":"Point","properties":{"Station_ID":"WI-BY-2","Station_Nam":"MELLEN 18.6 SW, WI","Latitude":"46.16937","Longitude":"-90.98090","Snowdepth":"12.000","Units":"in","Rept_Date":"2021-01-19 13"},"coordinates":[1620,6551]},{"type":"Point","properties":{"Station_ID":"VT-WH-30","Station_Nam":"MARLBORO 2.0 NNE, VT","Latitude":"42.88484","Longitude":"-72.70935","Snowdepth":"12.000","Units":"in","Rept_Date":"2021-01-19 12"},"coordinates":[6351,4513]},{"type":"Point","properties":{"Station_ID":"VT-CH-7","Station_Nam":"HUNTINGTON 1.1 E, VT","Latitude":"44.32488","Longitude":"-72.96570","Snowdepth":"12.000","Units":"in","Rept_Date":"2021-01-19 12"},"coordinates":[6284,5407]},{"type":"Point","properties":{"Station_ID":"SLNV1","Station_Nam":"SOUTH LINCOLN","Latitude":"44.07460","Longitude":"-72.97180","Snowdepth":"12.000","Units":"in","Rept_Date":"2021-01-19 12"},"coordinates":[6283,5251]},{"type":"Point","properties":{"Station_ID":"NY-SL-6","Station_Nam":"HANNAWA FALLS 0.1 SW, NY","Latitude":"44.61154","Longitude":"-74.97190","Snowdepth":"12.000","Units":"in","Rept_Date":"2021-01-19 12"},"coordinates":[5765,5584]},{"type":"Point","properties":{"Station_ID":"NY-FK-9","Station_Nam":"GABRIELS 1.3 SE, NY","Latitude":"44.41934","Longitude":"-74.16194","Snowdepth":"12.000","Units":"in","Rept_Date":"2021-01-19 12"},"coordinates":[5975,5465]},{"type":"Point","properties":{"Station_ID":"MRLV1","Station_Nam":"MARLBORO","Latitude":"42.86000","Longitude":"-72.72000","Snowdepth":"12.000","Units":"in","Rept_Date":"2021-01-19 12"},"coordinates":[6348,4498]},{"type":"Point","properties":{"Station_ID":"MN-SL-15","Station_Nam":"CHISHOLM 0.4 WSW, MN","Latitude":"47.48557","Longitude":"-92.88690","Snowdepth":"12.000","Units":"in","Rept_Date":"2021-01-19 13"},"coordinates":[1127,7368]},{"type":"Point","properties":{"Station_ID":"MN-IS-18","Station_Nam":"BRAHAM 0.7 SW, MN","Latitude":"45.71379","Longitude":"-93.18095","Snowdepth":"12.000","Units":"in","Rept_Date":"2021-01-19 14"},"coordinates":[1051,6268]},{"type":"Point","properties":{"Station_ID":"MI-OG-6","Station_Nam":"WEST BRANCH 2.1 SSW, MI","Latitude":"44.24814","Longitude":"-84.25089","Snowdepth":"12.000","Units":"in","Rept_Date":"2021-01-19 13"},"coordinates":[3363,5359]},{"type":"Point","properties":{"Station_ID":"ME-FR-2","Station_Nam":"TEMPLE 1.8 W, ME","Latitude":"44.68329","Longitude":"-70.26420","Snowdepth":"12.000","Units":"in","Rept_Date":"2021-01-19 12"},"coordinates":[6984,5629]},{"type":"Point","properties":{"Station_ID":"LAUP1","Station_Nam":"1.5MI S OF RT 30 ON SMIT (LAUREL RIDGE)","Latitude":"40.05000","Longitude":"-79.22060","Snowdepth":"12.000","Units":"in","Rept_Date":"2021-01-19 12"},"coordinates":[4665,2754]},{"type":"Point","properties":{"Station_ID":"KABM5","Station_Nam":"KABETOGAMA LAKE VISITOR CTR","Latitude":"48.40880","Longitude":"-93.04840","Snowdepth":"12.000","Units":"in","Rept_Date":"2021-01-19 18"},"coordinates":[1085,7940]},{"type":"Point","properties":{"Station_ID":"JOHV1","Station_Nam":"JOHNSON 2 N","Latitude":"44.65790","Longitude":"-72.67850","Snowdepth":"12.000","Units":"in","Rept_Date":"2021-01-19 12"},"coordinates":[6359,5613]},{"type":"Point","properties":{"Station_ID":"INDM5","Station_Nam":"INDUS,MN","Latitude":"48.61670","Longitude":"-93.90000","Snowdepth":"12.000","Units":"in","Rept_Date":"2021-01-19 14"},"coordinates":[864,8069]},{"type":"Point","properties":{"Station_ID":"FISM1","Station_Nam":"FORT KENT COOP","Latitude":"47.23850","Longitude":"-68.61240","Snowdepth":"12.000","Units":"in","Rept_Date":"2021-01-19 12"},"coordinates":[7412,7214]},{"type":"Point","properties":{"Station_ID":"EHYM3","Station_Nam":"EAST HAWLEY","Latitude":"42.57410","Longitude":"-72.86790","Snowdepth":"12.000","Units":"in","Rept_Date":"2021-01-19 13"},"coordinates":[6310,4320]},{"type":"Point","properties":{"Station_ID":"CMKW3","Station_Nam":"CLAM LAKE 4W","Latitude":"46.16940","Longitude":"-90.98080","Snowdepth":"12.000","Units":"in","Rept_Date":"2021-01-19 13"},"coordinates":[1620,6551]},{"type":"Point","properties":{"Station_ID":"ANJ","Station_Nam":"SAULT STE MARIE","Latitude":"46.46670","Longitude":"-84.36670","Snowdepth":"12.000","Units":"in","Rept_Date":"2021-01-20 00"},"coordinates":[3333,6735]},{"type":"Point","properties":{"Station_ID":"42.2002_079.8021","Station_Nam":"2 ESE North East  Trained Spotter (CLE0183)","Latitude":"42.20018","Longitude":"-79.80210","Snowdepth":"12.000","Units":"in","Rept_Date":"2021-01-20 01"},"coordinates":[4514,4088]},{"type":"Point","properties":{"Station_ID":"QCX","Station_Nam":"QCX","Latitude":"51.32830","Longitude":"-70.08060","Snowdepth":"11.811","Units":"in","Rept_Date":"2021-01-19 12"},"coordinates":[7031,9752]},{"type":"Point","properties":{"Station_ID":"CAN-ON-220","Station_Nam":"DEEP RIVER 1.5 SE - MNRF, CAN","Latitude":"46.09592","Longitude":"-77.47853","Snowdepth":"11.800","Units":"in","Rept_Date":"2021-01-19 13"},"coordinates":[5116,6505]},{"type":"Point","properties":{"Station_ID":"SOCQ6","Station_Nam":"SOCKET LAKE","Latitude":"50.77870","Longitude":"-91.79300","Snowdepth":"11.540","Units":"in","Rept_Date":"2021-01-20 06"},"coordinates":[1410,9411]},{"type":"Point","properties":{"Station_ID":"QLI","Station_Nam":"QLI","Latitude":"50.27080","Longitude":"-73.92280","Snowdepth":"11.535","Units":"in","Rept_Date":"2021-01-19 12"},"coordinates":[6037,9096]},{"type":"Point","properties":{"Station_ID":"WI-IR-3","Station_Nam":"PENCE 0.1 E, WI","Latitude":"46.41555","Longitude":"-90.27013","Snowdepth":"11.500","Units":"in","Rept_Date":"2021-01-19 13"},"coordinates":[1804,6704]},{"type":"Point","properties":{"Station_ID":"QLP","Station_Nam":"QLP","Latitude":"48.13920","Longitude":"-72.63830","Snowdepth":"11.339","Units":"in","Rept_Date":"2021-01-19 12"},"coordinates":[6369,7773]},{"type":"Point","properties":{"Station_ID":"QGA","Station_Nam":"QGA","Latitude":"47.25640","Longitude":"-73.73810","Snowdepth":"11.142","Units":"in","Rept_Date":"2021-01-19 12"},"coordinates":[6084,7225]},{"type":"Point","properties":{"Station_ID":"WRSM5","Station_Nam":"WRENSHALL","Latitude":"46.61550","Longitude":"-92.38380","Snowdepth":"11.000","Units":"in","Rept_Date":"2021-01-19 14"},"coordinates":[1257,6828]},{"type":"Point","properties":{"Station_ID":"WPFN6","Station_Nam":"MARIPOSA 1NNW SNOW","Latitude":"42.73330","Longitude":"-75.81670","Snowdepth":"11.000","Units":"in","Rept_Date":"2021-01-19 14"},"coordinates":[5546,4419]},{"type":"Point","properties":{"Station_ID":"VT-CH-4","Station_Nam":"UNDERHILL 4.4 NNE, VT","Latitude":"44.58774","Longitude":"-72.92250","Snowdepth":"11.000","Units":"in","Rept_Date":"2021-01-19 12"},"coordinates":[6296,5570]},{"type":"Point","properties":{"Station_ID":"TOPN6","Station_Nam":"TUPPER LAKE SUNMOUNT","Latitude":"44.23070","Longitude":"-74.43820","Snowdepth":"11.000","Units":"in","Rept_Date":"2021-01-19 12"},"coordinates":[5903,5348]},{"type":"Point","properties":{"Station_ID":"SUAW3","Station_Nam":"SUAMICO","Latitude":"44.60190","Longitude":"-88.09780","Snowdepth":"11.000","Units":"in","Rept_Date":"2021-01-19 12"},"coordinates":[2367,5578]},{"type":"Point","properties":{"Station_ID":"SSMM4","Station_Nam":"SAULT STE MARIE","Latitude":"46.48660","Longitude":"-84.40250","Snowdepth":"11.000","Units":"in","Rept_Date":"2021-01-19 13"},"coordinates":[3323,6748]},{"type":"Point","properties":{"Station_ID":"RANM1","Station_Nam":"RANGELEY","Latitude":"44.98910","Longitude":"-70.67190","Snowdepth":"11.000","Units":"in","Rept_Date":"2021-01-19 11"},"coordinates":[6878,5819]},{"type":"Point","properties":{"Station_ID":"PTBN3","Station_Nam":"PITTSBURG RESERVOIR","Latitude":"45.04690","Longitude":"-71.38300","Snowdepth":"11.000","Units":"in","Rept_Date":"2021-01-19 12"},"coordinates":[6694,5854]},{"type":"Point","properties":{"Station_ID":"NY-FK-7","Station_Nam":"SARANAC LAKE 6.2 N, NY","Latitude":"44.41359","Longitude":"-74.15211","Snowdepth":"11.000","Units":"in","Rept_Date":"2021-01-19 12"},"coordinates":[5977,5462]},{"type":"Point","properties":{"Station_ID":"NY-ES-11","Station_Nam":"VERMONTVILLE 2.8 S, NY","Latitude":"44.41205","Longitude":"-74.06760","Snowdepth":"11.000","Units":"in","Rept_Date":"2021-01-19 12"},"coordinates":[5999,5461]},{"type":"Point","properties":{"Station_ID":"NUNV1","Station_Nam":"NORTH UNDERHILL","Latitude":"44.58760","Longitude":"-72.92150","Snowdepth":"11.000","Units":"in","Rept_Date":"2021-01-19 12"},"coordinates":[6296,5570]},{"type":"Point","properties":{"Station_ID":"MI-OT-4","Station_Nam":"GAYLORD 1.7 WNW, MI","Latitude":"45.03280","Longitude":"-84.71090","Snowdepth":"11.000","Units":"in","Rept_Date":"2021-01-19 13"},"coordinates":[3244,5846]},{"type":"Point","properties":{"Station_ID":"LOWN6","Station_Nam":"LOWVILLE","Latitude":"43.79280","Longitude":"-75.48290","Snowdepth":"11.000","Units":"in","Rept_Date":"2021-01-19 12"},"coordinates":[5633,5076]},{"type":"Point","properties":{"Station_ID":"LEIM5","Station_Nam":"ORR 3E","Latitude":"48.05810","Longitude":"-92.75220","Snowdepth":"11.000","Units":"in","Rept_Date":"2021-01-19 12"},"coordinates":[1162,7723]},{"type":"Point","properties":{"Station_ID":"INL","Station_Nam":"FALLS INTERNATIONAL ARPT","Latitude":"48.56640","Longitude":"-93.40310","Snowdepth":"11.000","Units":"in","Rept_Date":"2021-01-20 00"},"coordinates":[993,8038]},{"type":"Point","properties":{"Station_ID":"IFSM5","Station_Nam":"INTERNATIONAL FALLS SNOW","Latitude":"48.57780","Longitude":"-93.39640","Snowdepth":"11.000","Units":"in","Rept_Date":"2021-01-19 12"},"coordinates":[995,8045]},{"type":"Point","properties":{"Station_ID":"HVJP1","Station_Nam":"HIDDEN VALLEY COOP","Latitude":"40.04200","Longitude":"-79.25660","Snowdepth":"11.000","Units":"in","Rept_Date":"2021-01-19 13"},"coordinates":[4656,2749]},{"type":"Point","properties":{"Station_ID":"HUBN3","Station_Nam":"HUBBARD BROOK","Latitude":"43.93330","Longitude":"-71.71670","Snowdepth":"11.000","Units":"in","Rept_Date":"2021-01-20 06"},"coordinates":[6608,5164]},{"type":"Point","properties":{"Station_ID":"GHMN3","Station_Nam":"PINKHAM NOTCH","Latitude":"44.25800","Longitude":"-71.25250","Snowdepth":"11.000","Units":"in","Rept_Date":"2021-01-19 10"},"coordinates":[6728,5365]},{"type":"Point","properties":{"Station_ID":"GAYM4","Station_Nam":"GAYLORD","Latitude":"45.03320","Longitude":"-84.71130","Snowdepth":"11.000","Units":"in","Rept_Date":"2021-01-19 13"},"coordinates":[3243,5846]},{"type":"Point","properties":{"Station_ID":"FLDM5","Station_Nam":"FLOODWOOD,MN","Latitude":"47.00000","Longitude":"-92.91670","Snowdepth":"11.000","Units":"in","Rept_Date":"2021-01-19 14"},"coordinates":[1119,7066]},{"type":"Point","properties":{"Station_ID":"CAN-MB-32","Station_Nam":"PINAWA 1.0 SW, CA","Latitude":"50.14747","Longitude":"-95.89020","Snowdepth":"11.000","Units":"in","Rept_Date":"2021-01-19 13"},"coordinates":[349,9019]},{"type":"Point","properties":{"Station_ID":"BRAM1","Station_Nam":"BRASSUA DAM","Latitude":"45.66020","Longitude":"-69.81190","Snowdepth":"11.000","Units":"in","Rept_Date":"2021-01-19 12"},"coordinates":[7101,6235]},{"type":"Point","properties":{"Station_ID":"BNDM5","Station_Nam":"ELY 25E","Latitude":"47.97190","Longitude":"-91.44860","Snowdepth":"11.000","Units":"in","Rept_Date":"2021-01-19 13"},"coordinates":[1499,7669]},{"type":"Point","properties":{"Station_ID":"BDIP1","Station_Nam":"GERMANIA 1 SNOW","Latitude":"41.65000","Longitude":"-77.66670","Snowdepth":"11.000","Units":"in","Rept_Date":"2021-01-19 18"},"coordinates":[5067,3747]},{"type":"Point","properties":{"Station_ID":"AVLV1","Station_Nam":"AVERILL","Latitude":"45.00570","Longitude":"-71.69030","Snowdepth":"11.000","Units":"in","Rept_Date":"2021-01-19 13"},"coordinates":[6615,5829]},{"type":"Point","properties":{"Station_ID":"SVBQ6","Station_Nam":"SAVANT BASE","Latitude":"50.28730","Longitude":"-90.65670","Snowdepth":"10.790","Units":"in","Rept_Date":"2021-01-20 06"},"coordinates":[1704,9106]},{"type":"Point","properties":{"Station_ID":"QMA","Station_Nam":"QMA","Latitude":"50.10330","Longitude":"-70.47190","Snowdepth":"10.709","Units":"in","Rept_Date":"2021-01-19 12"},"coordinates":[6930,8992]},{"type":"Point","properties":{"Station_ID":"QIQ","Station_Nam":"QIQ","Latitude":"49.82390","Longitude":"-68.54310","Snowdepth":"10.630","Units":"in","Rept_Date":"2021-01-19 12"},"coordinates":[7429,8818]},{"type":"Point","properties":{"Station_ID":"CAN-MB-368","Station_Nam":"WHITESHELL 1.3 NE, CAN","Latitude":"49.74405","Longitude":"-95.19123","Snowdepth":"10.600","Units":"in","Rept_Date":"2021-01-19 14"},"coordinates":[530,8769]},{"type":"Point","properties":{"Station_ID":"WI-PR-2","Station_Nam":"BUTTERNUT 5.9 SW, WI","Latitude":"45.96501","Longitude":"-90.59750","Snowdepth":"10.500","Units":"in","Rept_Date":"2021-01-19 12"},"coordinates":[1719,6424]},{"type":"Point","properties":{"Station_ID":"VT-WS-15","Station_Nam":"EAST CALAIS 1.5 SW, VT","Latitude":"44.35523","Longitude":"-72.45540","Snowdepth":"10.500","Units":"in","Rept_Date":"2021-01-19 12"},"coordinates":[6417,5425]},{"type":"Point","properties":{"Station_ID":"VT-ES-3","Station_Nam":"LUNENBURG 2.3 NNW, VT","Latitude":"44.49324","Longitude":"-71.70446","Snowdepth":"10.500","Units":"in","Rept_Date":"2021-01-19 12"},"coordinates":[6611,5511]},{"type":"Point","properties":{"Station_ID":"VT-ES-1","Station_Nam":"GRANBY 1.4 NW, VT","Latitude":"44.58330","Longitude":"-71.77870","Snowdepth":"10.500","Units":"in","Rept_Date":"2021-01-19 13"},"coordinates":[6592,5567]},{"type":"Point","properties":{"Station_ID":"NY-CQ-27","Station_Nam":"SILVER CREEK 1.0 SSE, NY","Latitude":"42.53088","Longitude":"-79.15986","Snowdepth":"10.500","Units":"in","Rept_Date":"2021-01-19 11"},"coordinates":[4681,4293]},{"type":"Point","properties":{"Station_ID":"MI-OT-17","Station_Nam":"GAYLORD 4.1 S, MI","Latitude":"44.96388","Longitude":"-84.68467","Snowdepth":"10.500","Units":"in","Rept_Date":"2021-01-19 12"},"coordinates":[3250,5803]},{"type":"Point","properties":{"Station_ID":"CAN-ON-42","Station_Nam":"VANKLEEK HILL 3.4 S, CA","Latitude":"45.48987","Longitude":"-74.64570","Snowdepth":"10.500","Units":"in","Rept_Date":"2021-01-19 12"},"coordinates":[5849,6129]},{"type":"Point","properties":{"Station_ID":"QLM","Station_Nam":"QLM","Latitude":"48.92030","Longitude":"-70.25280","Snowdepth":"10.236","Units":"in","Rept_Date":"2021-01-19 12"},"coordinates":[6987,8258]},{"type":"Point","properties":{"Station_ID":"CAN-QC-47","Station_Nam":"SAINTE-FOY 1.8 ENE, CAN","Latitude":"46.76934","Longitude":"-71.27124","Snowdepth":"10.200","Units":"in","Rept_Date":"2021-01-19 12"},"coordinates":[6723,6923]},{"type":"Point","properties":{"Station_ID":"WPHN6","Station_Nam":"GEORGETOWN SNOW","Latitude":"42.76670","Longitude":"-75.70000","Snowdepth":"10.000","Units":"in","Rept_Date":"2021-01-19 14"},"coordinates":[5576,4440]},{"type":"Point","properties":{"Station_ID":"WI-WB-2","Station_Nam":"STONE LAKE 2.0 NW, WI","Latitude":"45.85960","Longitude":"-91.57710","Snowdepth":"10.000","Units":"in","Rept_Date":"2021-01-19 13"},"coordinates":[1466,6359]},{"type":"Point","properties":{"Station_ID":"WI-VL-9","Station_Nam":"LAND O' LAKES 11.7 W, WI","Latitude":"46.19023","Longitude":"-89.45790","Snowdepth":"10.000","Units":"in","Rept_Date":"2021-01-19 13"},"coordinates":[2014,6564]},{"type":"Point","properties":{"Station_ID":"WI-DG-20","Station_Nam":"SOLON SPRINGS 1.2 W, WI","Latitude":"46.35217","Longitude":"-91.84405","Snowdepth":"10.000","Units":"in","Rept_Date":"2021-01-19 13"},"coordinates":[1397,6664]},{"type":"Point","properties":{"Station_ID":"VT-OL-9","Station_Nam":"GREENSBORO 2.1 NNW, VT","Latitude":"44.60528","Longitude":"-72.30940","Snowdepth":"10.000","Units":"in","Rept_Date":"2021-01-19 12"},"coordinates":[6454,5580]},{"type":"Point","properties":{"Station_ID":"VT-OL-2","Station_Nam":"BARTON 3.0 ENE, VT","Latitude":"44.75863","Longitude":"-72.11680","Snowdepth":"10.000","Units":"in","Rept_Date":"2021-01-19 12"},"coordinates":[6504,5676]},{"type":"Point","properties":{"Station_ID":"VT-BN-7","Station_Nam":"MANCHESTER 2.8 ENE, VT","Latitude":"43.17274","Longitude":"-73.01811","Snowdepth":"10.000","Units":"in","Rept_Date":"2021-01-19 12"},"coordinates":[6271,4692]},{"type":"Point","properties":{"Station_ID":"PEKN6","Station_Nam":"PECK LAKE","Latitude":"43.11500","Longitude":"-74.42360","Snowdepth":"10.000","Units":"in","Rept_Date":"2021-01-19 12"},"coordinates":[5907,4656]},{"type":"Point","properties":{"Station_ID":"NH-CR-26","Station_Nam":"CENTER SANDWICH 4.9 E, NH","Latitude":"43.80976","Longitude":"-71.34150","Snowdepth":"10.000","Units":"in","Rept_Date":"2021-01-19 12"},"coordinates":[6705,5087]},{"type":"Point","properties":{"Station_ID":"MTLT1","Station_Nam":"GATLINBURG,TN","Latitude":"35.65500","Longitude":"-83.44110","Snowdepth":"10.000","Units":"in","Rept_Date":"2021-01-19 13"},"coordinates":[3572,27]},{"type":"Point","properties":{"Station_ID":"MRAM5","Station_Nam":"MORA","Latitude":"45.87760","Longitude":"-93.31470","Snowdepth":"10.000","Units":"in","Rept_Date":"2021-01-19 13"},"coordinates":[1016,6370]},{"type":"Point","properties":{"Station_ID":"MN-SL-18","Station_Nam":"DULUTH 1.4 NNW, MN","Latitude":"46.80321","Longitude":"-92.11240","Snowdepth":"10.000","Units":"in","Rept_Date":"2021-01-19 14"},"coordinates":[1327,6944]},{"type":"Point","properties":{"Station_ID":"MN-SL-108","Station_Nam":"IRON JUNCTION 3.4 NNW, MN","Latitude":"47.46150","Longitude":"-92.63130","Snowdepth":"10.000","Units":"in","Rept_Date":"2021-01-19 12"},"coordinates":[1193,7353]},{"type":"Point","properties":{"Station_ID":"MN-CN-36","Station_Nam":"CLOQUET 3.4 ENE, MN","Latitude":"46.74146","Longitude":"-92.42698","Snowdepth":"10.000","Units":"in","Rept_Date":"2021-01-19 13"},"coordinates":[1246,6906]},{"type":"Point","properties":{"Station_ID":"MIEM4","Station_Nam":"MICHIGAMME 3WNW","Latitude":"46.54530","Longitude":"-88.18000","Snowdepth":"10.000","Units":"in","Rept_Date":"2021-01-19 13"},"coordinates":[2345,6784]},{"type":"Point","properties":{"Station_ID":"MALN6","Station_Nam":"MALONE","Latitude":"44.84180","Longitude":"-74.30600","Snowdepth":"10.000","Units":"in","Rept_Date":"2021-01-19 12"},"coordinates":[5937,5727]},{"type":"Point","properties":{"Station_ID":"LNOW3","Station_Nam":"LAND O LAKES","Latitude":"46.19000","Longitude":"-89.45700","Snowdepth":"10.000","Units":"in","Rept_Date":"2021-01-19 13"},"coordinates":[2015,6564]},{"type":"Point","properties":{"Station_ID":"INDN6","Station_Nam":"INDIAN LAKE","Latitude":"43.75500","Longitude":"-74.27560","Snowdepth":"10.000","Units":"in","Rept_Date":"2021-01-19 13"},"coordinates":[5945,5053]},{"type":"Point","properties":{"Station_ID":"IL-SP-27","Station_Nam":"DAVIS 2.7 N, IL","Latitude":"42.46110","Longitude":"-89.40890","Snowdepth":"10.000","Units":"in","Rept_Date":"2021-01-19 13"},"coordinates":[2027,4250]},{"type":"Point","properties":{"Station_ID":"IL-JD-8","Station_Nam":"STOCKTON 3.4 NNE, IL","Latitude":"42.39960","Longitude":"-89.99020","Snowdepth":"10.000","Units":"in","Rept_Date":"2021-01-19 13"},"coordinates":[1877,4212]},{"type":"Point","properties":{"Station_ID":"ESDN3","Station_Nam":"EAST SANDWICH","Latitude":"43.80990","Longitude":"-71.34250","Snowdepth":"10.000","Units":"in","Rept_Date":"2021-01-19 11"},"coordinates":[6705,5087]},{"type":"Point","properties":{"Station_ID":"ELYM5","Station_Nam":"ELY","Latitude":"47.90560","Longitude":"-91.82830","Snowdepth":"10.000","Units":"in","Rept_Date":"2021-01-19 14"},"coordinates":[1401,7628]},{"type":"Point","properties":{"Station_ID":"CSLM5","Station_Nam":"CASS LAKE,MN","Latitude":"47.38470","Longitude":"-94.61470","Snowdepth":"10.000","Units":"in","Rept_Date":"2021-01-19 14"},"coordinates":[679,7305]},{"type":"Point","properties":{"Station_ID":"COTM5","Station_Nam":"COTTON","Latitude":"47.16870","Longitude":"-92.46290","Snowdepth":"10.000","Units":"in","Rept_Date":"2021-01-19 12"},"coordinates":[1236,7171]},{"type":"Point","properties":{"Station_ID":"CAAW2","Station_Nam":"CANAAN VALLEY","Latitude":"39.05890","Longitude":"-79.44030","Snowdepth":"10.000","Units":"in","Rept_Date":"2021-01-19 14"},"coordinates":[4608,2139]},{"type":"Point","properties":{"Station_ID":"BKBW2","Station_Nam":"DAVIS.","Latitude":"39.09830","Longitude":"-79.43190","Snowdepth":"10.000","Units":"in","Rept_Date":"2021-01-19 12"},"coordinates":[4610,2164]},{"type":"Point","properties":{"Station_ID":"WI-SR-1","Station_Nam":"HAYWARD 9.2 NNE, WI","Latitude":"46.13255","Longitude":"-91.40500","Snowdepth":"9.800","Units":"in","Rept_Date":"2021-01-19 12"},"coordinates":[1510,6528]},{"type":"Point","properties":{"Station_ID":"VT-AD-28","Station_Nam":"MONKTON 1.5 NE, VT","Latitude":"44.26760","Longitude":"-73.09940","Snowdepth":"9.700","Units":"in","Rept_Date":"2021-01-19 13"},"coordinates":[6250,5371]},{"type":"Point","properties":{"Station_ID":"WI-PK-33","Station_Nam":"FREDERIC 4.8 NE, WI","Latitude":"45.70970","Longitude":"-92.39950","Snowdepth":"9.500","Units":"in","Rept_Date":"2021-01-19 13"},"coordinates":[1253,6266]},{"type":"Point","properties":{"Station_ID":"VT-LM-1","Station_Nam":"STOWE 0.2 SW, VT","Latitude":"44.46399","Longitude":"-72.69070","Snowdepth":"9.500","Units":"in","Rept_Date":"2021-01-19 12"},"coordinates":[6356,5493]},{"type":"Point","properties":{"Station_ID":"VT-CH-11","Station_Nam":"UNDERHILL 5.1 NNE, VT","Latitude":"44.59811","Longitude":"-72.91880","Snowdepth":"9.500","Units":"in","Rept_Date":"2021-01-19 13"},"coordinates":[6297,5576]},{"type":"Point","properties":{"Station_ID":"VT-AD-20","Station_Nam":"HANCOCK 0.3 S, VT","Latitude":"43.92166","Longitude":"-72.84042","Snowdepth":"9.500","Units":"in","Rept_Date":"2021-01-19 12"},"coordinates":[6317,5156]},{"type":"Point","properties":{"Station_ID":"NY-CQ-22","Station_Nam":"FREDONIA 0.8 WNW, NY","Latitude":"42.44414","Longitude":"-79.34610","Snowdepth":"9.500","Units":"in","Rept_Date":"2021-01-19 09"},"coordinates":[4632,4240]},{"type":"Point","properties":{"Station_ID":"NH-CS-19","Station_Nam":"CARROLL 4.6 NE, NH","Latitude":"44.33765","Longitude":"-71.46461","Snowdepth":"9.500","Units":"in","Rept_Date":"2021-01-19 12"},"coordinates":[6673,5414]},{"type":"Point","properties":{"Station_ID":"ME-AR-18","Station_Nam":"NEW SWEDEN 4.9 NNW, ME","Latitude":"47.01080","Longitude":"-68.14390","Snowdepth":"9.500","Units":"in","Rept_Date":"2021-01-19 12"},"coordinates":[7533,7073]},{"type":"Point","properties":{"Station_ID":"CAN-NB-11","Station_Nam":"MIRAMICHI 3.3 S, CAN","Latitude":"46.99343","Longitude":"-65.50690","Snowdepth":"9.500","Units":"in","Rept_Date":"2021-01-19 12"},"coordinates":[8216,7062]},{"type":"Point","properties":{"Station_ID":"CAN-QC-57","Station_Nam":"ACTON VALE 1.3 N, CAN","Latitude":"45.65868","Longitude":"-72.56645","Snowdepth":"9.400","Units":"in","Rept_Date":"2021-01-19 13"},"coordinates":[6388,6234]},{"type":"Point","properties":{"Station_ID":"CATQ6","Station_Nam":"CAT LAKE","Latitude":"51.72690","Longitude":"-91.82210","Snowdepth":"9.370","Units":"in","Rept_Date":"2021-01-20 06"},"coordinates":[1402,9999]},{"type":"Point","properties":{"Station_ID":"WTNM4","Station_Nam":"WATTON 2WSW","Latitude":"46.52660","Longitude":"-88.64240","Snowdepth":"9.000","Units":"in","Rept_Date":"2021-01-19 13"},"coordinates":[2226,6773]},{"type":"Point","properties":{"Station_ID":"WSWN6","Station_Nam":"WARSAW","Latitude":"42.74220","Longitude":"-78.20850","Snowdepth":"9.000","Units":"in","Rept_Date":"2021-01-19 12"},"coordinates":[4927,4425]},{"type":"Point","properties":{"Station_ID":"WPDN6","Station_Nam":"CINCINNATUS 2NW SNOW","Latitude":"42.55000","Longitude":"-75.93330","Snowdepth":"9.000","Units":"in","Rept_Date":"2021-01-19 14"},"coordinates":[5516,4305]},{"type":"Point","properties":{"Station_ID":"WPCN6","Station_Nam":"WILLET 2WNW SNOW","Latitude":"42.48330","Longitude":"-75.93330","Snowdepth":"9.000","Units":"in","Rept_Date":"2021-01-19 14"},"coordinates":[5516,4264]},{"type":"Point","properties":{"Station_ID":"WI-BY-29","Station_Nam":"BAYFIELD 5.1 NNW, WI","Latitude":"46.88063","Longitude":"-90.85854","Snowdepth":"9.000","Units":"in","Rept_Date":"2021-01-19 14"},"coordinates":[1652,6992]},{"type":"Point","properties":{"Station_ID":"VT-CL-18","Station_Nam":"WHEELOCK 1.6 S, VT","Latitude":"44.56491","Longitude":"-72.08830","Snowdepth":"9.000","Units":"in","Rept_Date":"2021-01-19 12"},"coordinates":[6512,5555]},{"type":"Point","properties":{"Station_ID":"TOGM5","Station_Nam":"CELINA 2E","Latitude":"47.86630","Longitude":"-93.02660","Snowdepth":"9.000","Units":"in","Rept_Date":"2021-01-19 15"},"coordinates":[1091,7604]},{"type":"Point","properties":{"Station_ID":"SUTV1","Station_Nam":"SUTTON","Latitude":"44.61220","Longitude":"-72.04810","Snowdepth":"9.000","Units":"in","Rept_Date":"2021-01-19 13"},"coordinates":[6522,5585]},{"type":"Point","properties":{"Station_ID":"STOI2","Station_Nam":"STOCKTON 3 NNE","Latitude":"42.40050","Longitude":"-89.99580","Snowdepth":"9.000","Units":"in","Rept_Date":"2021-01-20 03"},"coordinates":[1875,4213]},{"type":"Point","properties":{"Station_ID":"SILN6","Station_Nam":"SILVER CREEK","Latitude":"42.53800","Longitude":"-79.16990","Snowdepth":"9.000","Units":"in","Rept_Date":"2021-01-19 12"},"coordinates":[4678,4298]},{"type":"Point","properties":{"Station_ID":"RLKW3","Station_Nam":"REST LAKE","Latitude":"46.12220","Longitude":"-89.87720","Snowdepth":"9.000","Units":"in","Rept_Date":"2021-01-19 14"},"coordinates":[1906,6522]},{"type":"Point","properties":{"Station_ID":"PLFV1","Station_Nam":"PLAINFIELD","Latitude":"44.27610","Longitude":"-72.41500","Snowdepth":"9.000","Units":"in","Rept_Date":"2021-01-19 12"},"coordinates":[6427,5376]},{"type":"Point","properties":{"Station_ID":"PLEP1","Station_Nam":"PLEASANT MOUNT 1 W","Latitude":"41.73940","Longitude":"-75.44650","Snowdepth":"9.000","Units":"in","Rept_Date":"2021-01-19 13"},"coordinates":[5642,3802]},{"type":"Point","properties":{"Station_ID":"PDGM4","Station_Nam":"PAULDING","Latitude":"46.39760","Longitude":"-89.17940","Snowdepth":"9.000","Units":"in","Rept_Date":"2021-01-19 13"},"coordinates":[2087,6693]},{"type":"Point","properties":{"Station_ID":"NY-SR-22","Station_Nam":"GREENFIELD CENTER 1.6 W, NY","Latitude":"43.12684","Longitude":"-73.87860","Snowdepth":"9.000","Units":"in","Rept_Date":"2021-01-19 11"},"coordinates":[6048,4663]},{"type":"Point","properties":{"Station_ID":"NY-ER-158","Station_Nam":"EAST AURORA 2.7 SSE, NY","Latitude":"42.72936","Longitude":"-78.60561","Snowdepth":"9.000","Units":"in","Rept_Date":"2021-01-19 12"},"coordinates":[4824,4417]},{"type":"Point","properties":{"Station_ID":"NY-CT-30","Station_Nam":"FRANKLINVILLE 3.5 E, NY","Latitude":"42.33660","Longitude":"-78.38794","Snowdepth":"9.000","Units":"in","Rept_Date":"2021-01-19 12"},"coordinates":[4881,4173]},{"type":"Point","properties":{"Station_ID":"NY-CQ-41","Station_Nam":"MAYVILLE 0.2 ESE, NY","Latitude":"42.25194","Longitude":"-79.49809","Snowdepth":"9.000","Units":"in","Rept_Date":"2021-01-19 12"},"coordinates":[4593,4120]},{"type":"Point","properties":{"Station_ID":"NVLV1","Station_Nam":"NASHVILLE","Latitude":"44.44970","Longitude":"-72.92640","Snowdepth":"9.000","Units":"in","Rept_Date":"2021-01-19 12"},"coordinates":[6295,5484]},{"type":"Point","properties":{"Station_ID":"NUMN3","Station_Nam":"NORTHUMBERLAND","Latitude":"44.52830","Longitude":"-71.50440","Snowdepth":"9.000","Units":"in","Rept_Date":"2021-01-19 13"},"coordinates":[6663,5533]},{"type":"Point","properties":{"Station_ID":"NH-MR-41","Station_Nam":"NEWBURY 1.6 NW, NH","Latitude":"43.33667","Longitude":"-72.06060","Snowdepth":"9.000","Units":"in","Rept_Date":"2021-01-19 12"},"coordinates":[6519,4793]},{"type":"Point","properties":{"Station_ID":"MN-SE-2","Station_Nam":"OWATONNA 0.8 E, MN","Latitude":"44.09170","Longitude":"-93.21380","Snowdepth":"9.000","Units":"in","Rept_Date":"2021-01-19 13"},"coordinates":[1042,5262]},{"type":"Point","properties":{"Station_ID":"MN-BK-6","Station_Nam":"LAKE PARK 6.0 S, MN","Latitude":"46.79850","Longitude":"-96.12180","Snowdepth":"9.000","Units":"in","Rept_Date":"2021-01-19 13"},"coordinates":[289,6941]},{"type":"Point","properties":{"Station_ID":"MN-AA-76","Station_Nam":"NOWTHEN 2.9 SSE, MN","Latitude":"45.30360","Longitude":"-93.42620","Snowdepth":"9.000","Units":"in","Rept_Date":"2021-01-19 13"},"coordinates":[987,6014]},{"type":"Point","properties":{"Station_ID":"MI-OT-16","Station_Nam":"GAYLORD 2.2 SSE, MI","Latitude":"44.99441","Longitude":"-84.65820","Snowdepth":"9.000","Units":"in","Rept_Date":"2021-01-19 13"},"coordinates":[3257,5822]},{"type":"Point","properties":{"Station_ID":"MI-AT-6","Station_Nam":"MANCELONA 0.5 ESE, MI","Latitude":"44.89981","Longitude":"-85.05100","Snowdepth":"9.000","Units":"in","Rept_Date":"2021-01-19 13"},"coordinates":[3155,5763]},{"type":"Point","properties":{"Station_ID":"MI-AR-2","Station_Nam":"ALGER 2.4 ENE, MI","Latitude":"44.13373","Longitude":"-84.07430","Snowdepth":"9.000","Units":"in","Rept_Date":"2021-01-19 12"},"coordinates":[3408,5288]},{"type":"Point","properties":{"Station_ID":"ME-FR-4","Station_Nam":"NEW SHARON 2.0 NW, ME","Latitude":"44.66582","Longitude":"-70.02720","Snowdepth":"9.000","Units":"in","Rept_Date":"2021-01-19 12"},"coordinates":[7045,5618]},{"type":"Point","properties":{"Station_ID":"MA-HS-7","Station_Nam":"PLAINFIELD 2.2 SW, MA","Latitude":"42.49272","Longitude":"-72.94540","Snowdepth":"9.000","Units":"in","Rept_Date":"2021-01-19 13"},"coordinates":[6290,4270]},{"type":"Point","properties":{"Station_ID":"LUCW3","Station_Nam":"LUCK","Latitude":"45.57330","Longitude":"-92.48520","Snowdepth":"9.000","Units":"in","Rept_Date":"2021-01-19 22"},"coordinates":[1231,6181]},{"type":"Point","properties":{"Station_ID":"KISM4","Station_Nam":"K.I. SAWYER WWTP","Latitude":"46.33410","Longitude":"-87.37790","Snowdepth":"9.000","Units":"in","Rept_Date":"2021-01-19 13"},"coordinates":[2553,6653]},{"type":"Point","properties":{"Station_ID":"KBTV","Station_Nam":"BURLINGTON INTERNATIONAL","Latitude":"44.46666","Longitude":"-73.15000","Snowdepth":"9.000","Units":"in","Rept_Date":"2021-01-20 00"},"coordinates":[6237,5494]},{"type":"Point","properties":{"Station_ID":"JKMM1","Station_Nam":"JACKMAN","Latitude":"45.62600","Longitude":"-70.24600","Snowdepth":"9.000","Units":"in","Rept_Date":"2021-01-19 12"},"coordinates":[6989,6214]},{"type":"Point","properties":{"Station_ID":"HTLM4","Station_Nam":"SNOW PAID OBSERVER FOR KHTL","Latitude":"44.34470","Longitude":"-84.67730","Snowdepth":"9.000","Units":"in","Rept_Date":"2021-01-20 06"},"coordinates":[3252,5419]},{"type":"Point","properties":{"Station_ID":"HTL","Station_Nam":"ROSCOMMON COUNTY AIRPORT","Latitude":"44.35000","Longitude":"-84.66670","Snowdepth":"9.000","Units":"in","Rept_Date":"2021-01-20 00"},"coordinates":[3255,5422]},{"type":"Point","properties":{"Station_ID":"FEDM5","Station_Nam":"LEECH LAKE DAM","Latitude":"47.24670","Longitude":"-94.22280","Snowdepth":"9.000","Units":"in","Rept_Date":"2021-01-19 14"},"coordinates":[781,7219]},{"type":"Point","properties":{"Station_ID":"EMBM5","Station_Nam":"EMBARASS,MN","Latitude":"47.65810","Longitude":"-92.19580","Snowdepth":"9.000","Units":"in","Rept_Date":"2021-01-19 12"},"coordinates":[1306,7475]},{"type":"Point","properties":{"Station_ID":"CRLM5","Station_Nam":"CROSS LAKE DAM","Latitude":"46.66930","Longitude":"-94.11060","Snowdepth":"9.000","Units":"in","Rept_Date":"2021-01-19 14"},"coordinates":[810,6861]},{"type":"Point","properties":{"Station_ID":"CLKM4","Station_Nam":"CLARKSBURG","Latitude":"46.49910","Longitude":"-87.84500","Snowdepth":"9.000","Units":"in","Rept_Date":"2021-01-19 12"},"coordinates":[2432,6755]},{"type":"Point","properties":{"Station_ID":"CDLM4","Station_Nam":"CADILLAC 9&10 NEWS","Latitude":"44.21130","Longitude":"-85.40860","Snowdepth":"9.000","Units":"in","Rept_Date":"2021-01-19 12"},"coordinates":[3063,5336]},{"type":"Point","properties":{"Station_ID":"BTV","Station_Nam":"BURLINGTON, VT","Latitude":"44.47140","Longitude":"-73.15330","Snowdepth":"9.000","Units":"in","Rept_Date":"2021-01-20 01"},"coordinates":[6236,5497]},{"type":"Point","properties":{"Station_ID":"BABM5","Station_Nam":"BABBITT","Latitude":"47.71210","Longitude":"-91.95330","Snowdepth":"9.000","Units":"in","Rept_Date":"2021-01-19 13"},"coordinates":[1368,7508]},{"type":"Point","properties":{"Station_ID":"ATAN6","Station_Nam":"ATTICA 7 SW","Latitude":"42.81070","Longitude":"-78.39790","Snowdepth":"9.000","Units":"in","Rept_Date":"2021-01-19 11"},"coordinates":[4878,4467]},{"type":"Point","properties":{"Station_ID":"APXM4","Station_Nam":"GAYLORD 9SSW","Latitude":"44.90720","Longitude":"-84.71880","Snowdepth":"9.000","Units":"in","Rept_Date":"2021-01-20 06"},"coordinates":[3241,5768]},{"type":"Point","properties":{"Station_ID":"42.1792_079.9756","Station_Nam":"HARBORCREEK TWP  SNOW SPOTTER (X4220800)","Latitude":"42.17920","Longitude":"-79.97560","Snowdepth":"9.000","Units":"in","Rept_Date":"2021-01-19 13"},"coordinates":[4470,4075]},{"type":"Point","properties":{"Station_ID":"42.0816_080.1778","Station_Nam":"Erie Intl Airport  Trained Spotter (CLE0102)","Latitude":"42.08163","Longitude":"-80.17779","Snowdepth":"9.000","Units":"in","Rept_Date":"2021-01-20 00"},"coordinates":[4417,4015]},{"type":"Point","properties":{"Station_ID":"VT-CH-38","Station_Nam":"WILLISTON 0.2 WSW, VT","Latitude":"44.43669","Longitude":"-73.07154","Snowdepth":"8.800","Units":"in","Rept_Date":"2021-01-19 12"},"coordinates":[6257,5476]},{"type":"Point","properties":{"Station_ID":"NY-ES-7","Station_Nam":"KEESEVILLE 0.8 SE, NY","Latitude":"44.49504","Longitude":"-73.47109","Snowdepth":"8.500","Units":"in","Rept_Date":"2021-01-19 12"},"coordinates":[6154,5512]},{"type":"Point","properties":{"Station_ID":"MN-IT-23","Station_Nam":"BOVEY 13.4 N, MN","Latitude":"47.48855","Longitude":"-93.43497","Snowdepth":"8.500","Units":"in","Rept_Date":"2021-01-19 13"},"coordinates":[985,7369]},{"type":"Point","properties":{"Station_ID":"MN-IT-17","Station_Nam":"GRAND RAPIDS 6.1 N, MN","Latitude":"47.31165","Longitude":"-93.55036","Snowdepth":"8.500","Units":"in","Rept_Date":"2021-01-19 13"},"coordinates":[955,7260]},{"type":"Point","properties":{"Station_ID":"MN-CW-44","Station_Nam":"CROSBY 1.1 SW, MN","Latitude":"46.47772","Longitude":"-93.97293","Snowdepth":"8.500","Units":"in","Rept_Date":"2021-01-19 13"},"coordinates":[846,6742]},{"type":"Point","properties":{"Station_ID":"MN-CK-18","Station_Nam":"GRAND MARAIS 4.4 WSW, MN","Latitude":"47.74462","Longitude":"-90.43796","Snowdepth":"8.500","Units":"in","Rept_Date":"2021-01-19 13"},"coordinates":[1761,7528]},{"type":"Point","properties":{"Station_ID":"MI-HG-1","Station_Nam":"HOUGHTON 1.6 ESE, MI","Latitude":"47.10774","Longitude":"-88.52940","Snowdepth":"8.500","Units":"in","Rept_Date":"2021-01-19 13"},"coordinates":[2255,7133]},{"type":"Point","properties":{"Station_ID":"ME-OX-2","Station_Nam":"HARTFORD 1.4 N, ME","Latitude":"44.39318","Longitude":"-70.34760","Snowdepth":"8.500","Units":"in","Rept_Date":"2021-01-19 12"},"coordinates":[6962,5449]},{"type":"Point","properties":{"Station_ID":"IL-BN-19","Station_Nam":"BELVIDERE 5.0 NNW, IL","Latitude":"42.32071","Longitude":"-88.88282","Snowdepth":"8.500","Units":"in","Rept_Date":"2021-01-19 13"},"coordinates":[2163,4163]},{"type":"Point","properties":{"Station_ID":"CAN-NB-105","Station_Nam":"SISSON BROOK 3.8 E, CAN","Latitude":"46.98305","Longitude":"-67.32532","Snowdepth":"8.500","Units":"in","Rept_Date":"2021-01-19 12"},"coordinates":[7745,7056]},{"type":"Point","properties":{"Station_ID":"KNCM1","Station_Nam":"KNOWLES CORNER - MCOOP","Latitude":"46.20780","Longitude":"-68.31420","Snowdepth":"8.300","Units":"in","Rept_Date":"2021-01-19 14"},"coordinates":[7489,6575]},{"type":"Point","properties":{"Station_ID":"MFU","Station_Nam":"MFU","Latitude":"51.52170","Longitude":"-66.91110","Snowdepth":"8.268","Units":"in","Rept_Date":"2021-01-19 12"},"coordinates":[7852,9872]},{"type":"Point","properties":{"Station_ID":"VT-WR-22","Station_Nam":"ROCHESTER 0.3 NE, VT","Latitude":"43.87816","Longitude":"-72.80459","Snowdepth":"8.100","Units":"in","Rept_Date":"2021-01-19 12"},"coordinates":[6326,5129]},{"type":"Point","properties":{"Station_ID":"CA2M1","Station_Nam":"CARIBOU (CARY MED.) SNOW COURSE","Latitude":"46.87920","Longitude":"-68.00030","Snowdepth":"8.100","Units":"in","Rept_Date":"2021-01-19 17"},"coordinates":[7570,6991]},{"type":"Point","properties":{"Station_ID":"WPEN6","Station_Nam":"SOUTH OTSELIC 2NNW SNOW","Latitude":"42.66670","Longitude":"-75.80000","Snowdepth":"8.000","Units":"in","Rept_Date":"2021-01-19 14"},"coordinates":[5551,4378]},{"type":"Point","properties":{"Station_ID":"WLSN6","Station_Nam":"WALES","Latitude":"42.73920","Longitude":"-78.58780","Snowdepth":"8.000","Units":"in","Rept_Date":"2021-01-19 12"},"coordinates":[4829,4423]},{"type":"Point","properties":{"Station_ID":"WI-PK-4","Station_Nam":"DRESSER 6.1 ESE, WI","Latitude":"45.32436","Longitude":"-92.52080","Snowdepth":"8.000","Units":"in","Rept_Date":"2021-01-19 14"},"coordinates":[1221,6027]},{"type":"Point","properties":{"Station_ID":"WI-BY-6","Station_Nam":"BARNES 2.2 S, WI","Latitude":"46.30264","Longitude":"-91.50320","Snowdepth":"8.000","Units":"in","Rept_Date":"2021-01-19 13"},"coordinates":[1485,6634]},{"type":"Point","properties":{"Station_ID":"WELM5","Station_Nam":"WELLS","Latitude":"43.74680","Longitude":"-93.73680","Snowdepth":"8.000","Units":"in","Rept_Date":"2021-01-19 14"},"coordinates":[907,5048]},{"type":"Point","properties":{"Station_ID":"WDOM5","Station_Nam":"WINDOM","Latitude":"43.87700","Longitude":"-95.11590","Snowdepth":"8.000","Units":"in","Rept_Date":"2021-01-19 14"},"coordinates":[550,5129]},{"type":"Point","properties":{"Station_ID":"WBRM4","Station_Nam":"WEST BRANCH 3SE","Latitude":"44.25410","Longitude":"-84.20110","Snowdepth":"8.000","Units":"in","Rept_Date":"2021-01-19 13"},"coordinates":[3376,5363]},{"type":"Point","properties":{"Station_ID":"VT-RT-24","Station_Nam":"MIDDLETOWN SPRINGS 0.9 WNW, VT","Latitude":"43.49194","Longitude":"-73.13350","Snowdepth":"8.000","Units":"in","Rept_Date":"2021-01-19 12"},"coordinates":[6241,4890]},{"type":"Point","properties":{"Station_ID":"VT-OL-25","Station_Nam":"NEWPORT 1.5 WSW, VT","Latitude":"44.93059","Longitude":"-72.23731","Snowdepth":"8.000","Units":"in","Rept_Date":"2021-01-19 12"},"coordinates":[6473,5782]},{"type":"Point","properties":{"Station_ID":"VT-CL-14","Station_Nam":"LYNDONVILLE 1.1 W, VT","Latitude":"44.53582","Longitude":"-72.02867","Snowdepth":"8.000","Units":"in","Rept_Date":"2021-01-19 12"},"coordinates":[6527,5537]},{"type":"Point","properties":{"Station_ID":"RKWM1","Station_Nam":"MOOSEHEAD LAKE","Latitude":"45.58330","Longitude":"-69.71670","Snowdepth":"8.000","Units":"in","Rept_Date":"2021-01-19 12"},"coordinates":[7126,6187]},{"type":"Point","properties":{"Station_ID":"PA-ER-5","Station_Nam":"NORTH EAST 1.2 WNW, PA","Latitude":"42.22058","Longitude":"-79.85510","Snowdepth":"8.000","Units":"in","Rept_Date":"2021-01-19 13"},"coordinates":[4501,4101]},{"type":"Point","properties":{"Station_ID":"NPTV1","Station_Nam":"NEWPORT","Latitude":"44.94900","Longitude":"-72.19120","Snowdepth":"8.000","Units":"in","Rept_Date":"2021-01-19 12"},"coordinates":[6485,5794]},{"type":"Point","properties":{"Station_ID":"NGLW3","Station_Nam":"NEW GLARUS","Latitude":"42.83500","Longitude":"-89.62080","Snowdepth":"8.000","Units":"in","Rept_Date":"2021-01-19 13"},"coordinates":[1972,4482]},{"type":"Point","properties":{"Station_ID":"MONW3","Station_Nam":"MONROE,WI","Latitude":"42.60000","Longitude":"-89.66670","Snowdepth":"8.000","Units":"in","Rept_Date":"2021-01-19 13"},"coordinates":[1960,4336]},{"type":"Point","properties":{"Station_ID":"MN-IT-1","Station_Nam":"GRAND RAPIDS 2.0 E, MN","Latitude":"47.22266","Longitude":"-93.49600","Snowdepth":"8.000","Units":"in","Rept_Date":"2021-01-19 14"},"coordinates":[969,7204]},{"type":"Point","properties":{"Station_ID":"MN-GH-28","Station_Nam":"CANNON FALLS 0.5 SE, MN","Latitude":"44.50866","Longitude":"-92.89526","Snowdepth":"8.000","Units":"in","Rept_Date":"2021-01-19 14"},"coordinates":[1125,5521]},{"type":"Point","properties":{"Station_ID":"MN-CW-54","Station_Nam":"AITKIN 9.6 W, MN","Latitude":"46.53711","Longitude":"-93.90688","Snowdepth":"8.000","Units":"in","Rept_Date":"2021-01-19 14"},"coordinates":[863,6779]},{"type":"Point","properties":{"Station_ID":"MN-CW-22","Station_Nam":"FORT RIPLEY 0.8 N, MN","Latitude":"46.18089","Longitude":"-94.36510","Snowdepth":"8.000","Units":"in","Rept_Date":"2021-01-19 13"},"coordinates":[744,6558]},{"type":"Point","properties":{"Station_ID":"MN-BM-15","Station_Nam":"BEMIDJI 7.8 ENE, MN","Latitude":"47.52043","Longitude":"-94.72121","Snowdepth":"8.000","Units":"in","Rept_Date":"2021-01-19 13"},"coordinates":[652,7389]},{"type":"Point","properties":{"Station_ID":"MN-AT-5","Station_Nam":"TAMARACK 1.4 SW, MN","Latitude":"46.63760","Longitude":"-93.14554","Snowdepth":"8.000","Units":"in","Rept_Date":"2021-01-19 13"},"coordinates":[1060,6841]},{"type":"Point","properties":{"Station_ID":"MKX","Station_Nam":"MILWAUKEE, WI","Latitude":"42.96810","Longitude":"-88.54920","Snowdepth":"8.000","Units":"in","Rept_Date":"2021-01-20 06"},"coordinates":[2250,4565]},{"type":"Point","properties":{"Station_ID":"MI-MQ-28","Station_Nam":"CARLSHEND, MI","Latitude":"46.31638","Longitude":"-87.19944","Snowdepth":"8.000","Units":"in","Rept_Date":"2021-01-19 13"},"coordinates":[2599,6642]},{"type":"Point","properties":{"Station_ID":"MI-MQ-19","Station_Nam":"ISHPEMING 7.2 SW, MI","Latitude":"46.40550","Longitude":"-87.75670","Snowdepth":"8.000","Units":"in","Rept_Date":"2021-01-19 11"},"coordinates":[2455,6697]},{"type":"Point","properties":{"Station_ID":"MI-CP-14","Station_Nam":"SAULT STE. MARIE 2.2 E, MI","Latitude":"46.48933","Longitude":"-84.31971","Snowdepth":"8.000","Units":"in","Rept_Date":"2021-01-19 14"},"coordinates":[3345,6749]},{"type":"Point","properties":{"Station_ID":"MI-AG-6","Station_Nam":"MUNISING 11.1 SSW, MI","Latitude":"46.27805","Longitude":"-86.75747","Snowdepth":"8.000","Units":"in","Rept_Date":"2021-01-19 12"},"coordinates":[2714,6618]},{"type":"Point","properties":{"Station_ID":"ME-SM-10","Station_Nam":"NORTH NEW PORTLAND 0.3 WSW, ME","Latitude":"44.92353","Longitude":"-70.02788","Snowdepth":"8.000","Units":"in","Rept_Date":"2021-01-19 12"},"coordinates":[7045,5778]},{"type":"Point","properties":{"Station_ID":"LVDW3","Station_Nam":"LAC VIEUX DESERT","Latitude":"46.12110","Longitude":"-89.07580","Snowdepth":"8.000","Units":"in","Rept_Date":"2021-01-19 14"},"coordinates":[2113,6521]},{"type":"Point","properties":{"Station_ID":"ISLV1","Station_Nam":"ISLAND POND","Latitude":"44.81280","Longitude":"-71.89020","Snowdepth":"8.000","Units":"in","Rept_Date":"2021-01-19 14"},"coordinates":[6563,5709]},{"type":"Point","properties":{"Station_ID":"ISEM5","Station_Nam":"ISLE 12N","Latitude":"46.31970","Longitude":"-93.50140","Snowdepth":"8.000","Units":"in","Rept_Date":"2021-01-19 13"},"coordinates":[968,6644]},{"type":"Point","properties":{"Station_ID":"HRTM1","Station_Nam":"HARTFORD","Latitude":"44.37440","Longitude":"-70.31620","Snowdepth":"8.000","Units":"in","Rept_Date":"2021-01-19 12"},"coordinates":[6970,5437]},{"type":"Point","properties":{"Station_ID":"ELKM5","Station_Nam":"ELK RIVER","Latitude":"45.30470","Longitude":"-93.58420","Snowdepth":"8.000","Units":"in","Rept_Date":"2021-01-19 13"},"coordinates":[946,6014]},{"type":"Point","properties":{"Station_ID":"EJNM4","Station_Nam":"EAST JORDAN 2NW","Latitude":"45.18630","Longitude":"-85.14770","Snowdepth":"8.000","Units":"in","Rept_Date":"2021-01-19 13"},"coordinates":[3130,5941]},{"type":"Point","properties":{"Station_ID":"DLHM5","Station_Nam":"DULUTH NWS","Latitude":"46.83680","Longitude":"-92.21080","Snowdepth":"8.000","Units":"in","Rept_Date":"2021-01-20 06"},"coordinates":[1302,6965]},{"type":"Point","properties":{"Station_ID":"DLH","Station_Nam":"DULUTH, MN","Latitude":"46.83690","Longitude":"-92.21030","Snowdepth":"8.000","Units":"in","Rept_Date":"2021-01-20 00"},"coordinates":[1302,6965]},{"type":"Point","properties":{"Station_ID":"CORV1","Station_Nam":"CORINTH","Latitude":"44.00690","Longitude":"-72.31940","Snowdepth":"8.000","Units":"in","Rept_Date":"2021-01-19 12"},"coordinates":[6452,5209]},{"type":"Point","properties":{"Station_ID":"COKM5","Station_Nam":"COOK","Latitude":"47.85060","Longitude":"-92.69250","Snowdepth":"8.000","Units":"in","Rept_Date":"2021-01-19 11"},"coordinates":[1177,7594]},{"type":"Point","properties":{"Station_ID":"CNRM1","Station_Nam":"CONNOR TWP","Latitude":"46.95830","Longitude":"-68.03330","Snowdepth":"8.000","Units":"in","Rept_Date":"2021-01-19 12"},"coordinates":[7561,7040]},{"type":"Point","properties":{"Station_ID":"CARM1","Station_Nam":"CARIBOU WFO","Latitude":"46.86810","Longitude":"-68.01250","Snowdepth":"8.000","Units":"in","Rept_Date":"2021-01-20 05"},"coordinates":[7567,6984]},{"type":"Point","properties":{"Station_ID":"CAR","Station_Nam":"CARIBOU, ME","Latitude":"46.86830","Longitude":"-68.01360","Snowdepth":"8.000","Units":"in","Rept_Date":"2021-01-19 12"},"coordinates":[7567,6985]},{"type":"Point","properties":{"Station_ID":"CAN-ON-771","Station_Nam":"KENORA 8.7 NNE - CANWARN, CAN","Latitude":"49.84171","Longitude":"-94.44386","Snowdepth":"8.000","Units":"in","Rept_Date":"2021-01-19 13"},"coordinates":[724,8829]},{"type":"Point","properties":{"Station_ID":"BRMM5","Station_Nam":"BRIMSON 2S","Latitude":"47.24720","Longitude":"-91.86240","Snowdepth":"8.000","Units":"in","Rept_Date":"2021-01-20 01"},"coordinates":[1392,7220]},{"type":"Point","properties":{"Station_ID":"BRLN3","Station_Nam":"BERLIN","Latitude":"44.45350","Longitude":"-71.18540","Snowdepth":"8.000","Units":"in","Rept_Date":"2021-01-19 12"},"coordinates":[6745,5486]},{"type":"Point","properties":{"Station_ID":"ARX","Station_Nam":"LA CROSSE, WI","Latitude":"43.82280","Longitude":"-91.19190","Snowdepth":"8.000","Units":"in","Rept_Date":"2021-01-20 06"},"coordinates":[1566,5095]},{"type":"Point","properties":{"Station_ID":"ADFN6","Station_Nam":"WEST ALMOND 2NNE SNOW","Latitude":"42.33330","Longitude":"-77.86670","Snowdepth":"8.000","Units":"in","Rept_Date":"2021-01-19 15"},"coordinates":[5016,4171]},{"type":"Point","properties":{"Station_ID":"ADEN6","Station_Nam":"WEST ALMOND 1E SNOW","Latitude":"42.30000","Longitude":"-77.86670","Snowdepth":"8.000","Units":"in","Rept_Date":"2021-01-19 15"},"coordinates":[5016,4150]},{"type":"Point","properties":{"Station_ID":"ADCN6","Station_Nam":"ALFRED 1NW SNOW","Latitude":"42.26670","Longitude":"-77.80000","Snowdepth":"8.000","Units":"in","Rept_Date":"2021-01-19 15"},"coordinates":[5033,4130]},{"type":"Point","properties":{"Station_ID":"42.2168_079.8473","Station_Nam":"NORTH EAST  SNOW SPOTTER (X4220798)","Latitude":"42.21680","Longitude":"-79.84730","Snowdepth":"8.000","Units":"in","Rept_Date":"2021-01-19 23"},"coordinates":[4503,4099]},{"type":"Point","properties":{"Station_ID":"42.0452_080.3039","Station_Nam":"LAKE CITY  SNOW SPOTTER (CLE0157)","Latitude":"42.04520","Longitude":"-80.30390","Snowdepth":"8.000","Units":"in","Rept_Date":"2021-01-19 14"},"coordinates":[4385,3992]},{"type":"Point","properties":{"Station_ID":"42.0131_080.3276","Station_Nam":"1 NNW Girard  Trained Spotter (CLE0196)","Latitude":"42.01312","Longitude":"-80.32758","Snowdepth":"8.000","Units":"in","Rept_Date":"2021-01-19 09"},"coordinates":[4378,3972]},{"type":"Point","properties":{"Station_ID":"IL-SP-26","Station_Nam":"FREEPORT 2.9 WSW, IL","Latitude":"42.26779","Longitude":"-89.68323","Snowdepth":"7.800","Units":"in","Rept_Date":"2021-01-19 15"},"coordinates":[1956,4130]},{"type":"Point","properties":{"Station_ID":"HPN04_MADIS","Station_Nam":"HANOVER","Latitude":"45.16770","Longitude":"-93.63430","Snowdepth":"7.800","Units":"in","Rept_Date":"2021-01-20 01"},"coordinates":[933,5929]},{"type":"Point","properties":{"Station_ID":"WI-VL-14","Station_Nam":"BOULDER JUNCTION 1.4 NE, WI","Latitude":"46.12840","Longitude":"-89.62470","Snowdepth":"7.500","Units":"in","Rept_Date":"2021-01-19 14"},"coordinates":[1971,6525]},{"type":"Point","properties":{"Station_ID":"WI-PR-6","Station_Nam":"PHILLIPS 1.3 S, WI","Latitude":"45.67677","Longitude":"-90.39543","Snowdepth":"7.500","Units":"in","Rept_Date":"2021-01-19 12"},"coordinates":[1772,6245]},{"type":"Point","properties":{"Station_ID":"WI-BY-1","Station_Nam":"BAYFIELD 8.8 N, WI","Latitude":"46.93855","Longitude":"-90.83490","Snowdepth":"7.500","Units":"in","Rept_Date":"2021-01-19 13"},"coordinates":[1658,7028]},{"type":"Point","properties":{"Station_ID":"WI-BT-14","Station_Nam":"OAKLAND 9.0 ENE, WI","Latitude":"45.95184","Longitude":"-92.21653","Snowdepth":"7.500","Units":"in","Rept_Date":"2021-01-19 13"},"coordinates":[1300,6416]},{"type":"Point","properties":{"Station_ID":"VT-OL-24","Station_Nam":"DERBY LINE 1.9 W, VT","Latitude":"45.00454","Longitude":"-72.14170","Snowdepth":"7.500","Units":"in","Rept_Date":"2021-01-19 12"},"coordinates":[6498,5828]},{"type":"Point","properties":{"Station_ID":"OXBM1","Station_Nam":"OXBOW - MCOOP","Latitude":"46.42700","Longitude":"-68.55300","Snowdepth":"7.500","Units":"in","Rept_Date":"2021-01-19 13"},"coordinates":[7427,6711]},{"type":"Point","properties":{"Station_ID":"NY-ER-66","Station_Nam":"EAST AURORA 1.0 ESE, NY","Latitude":"42.76450","Longitude":"-78.59800","Snowdepth":"7.500","Units":"in","Rept_Date":"2021-01-19 12"},"coordinates":[4826,4438]},{"type":"Point","properties":{"Station_ID":"NY-DL-32","Station_Nam":"DELHI 6.6 WNW, NY","Latitude":"42.32118","Longitude":"-75.02991","Snowdepth":"7.500","Units":"in","Rept_Date":"2021-01-19 12"},"coordinates":[5750,4163]},{"type":"Point","properties":{"Station_ID":"NH-GR-47","Station_Nam":"LITTLETON 7.3 W, NH","Latitude":"44.31847","Longitude":"-71.91086","Snowdepth":"7.500","Units":"in","Rept_Date":"2021-01-19 13"},"coordinates":[6558,5403]},{"type":"Point","properties":{"Station_ID":"NH-CS-7","Station_Nam":"LANCASTER 0.5 N, NH","Latitude":"44.49611","Longitude":"-71.57640","Snowdepth":"7.500","Units":"in","Rept_Date":"2021-01-19 12"},"coordinates":[6644,5513]},{"type":"Point","properties":{"Station_ID":"MN-WG-74","Station_Nam":"OAKDALE 0.4 S, MN","Latitude":"44.98208","Longitude":"-92.96510","Snowdepth":"7.500","Units":"in","Rept_Date":"2021-01-19 13"},"coordinates":[1106,5814]},{"type":"Point","properties":{"Station_ID":"MN-SL-115","Station_Nam":"COTTON 5.7 ESE, MN","Latitude":"47.15142","Longitude":"-92.35772","Snowdepth":"7.500","Units":"in","Rept_Date":"2021-01-19 14"},"coordinates":[1264,7160]},{"type":"Point","properties":{"Station_ID":"MI-CX-7","Station_Nam":"EAST JORDAN 2.1 NNW, MI","Latitude":"45.18639","Longitude":"-85.14750","Snowdepth":"7.500","Units":"in","Rept_Date":"2021-01-19 13"},"coordinates":[3130,5941]},{"type":"Point","properties":{"Station_ID":"ME-SM-4","Station_Nam":"SOLON 3.9 ESE, ME","Latitude":"44.94705","Longitude":"-69.77790","Snowdepth":"7.500","Units":"in","Rept_Date":"2021-01-19 12"},"coordinates":[7110,5793]},{"type":"Point","properties":{"Station_ID":"MA-BE-24","Station_Nam":"HANCOCK 3.6 NNE, MA","Latitude":"42.59130","Longitude":"-73.29530","Snowdepth":"7.500","Units":"in","Rept_Date":"2021-01-19 17"},"coordinates":[6199,4331]},{"type":"Point","properties":{"Station_ID":"IL-CR-12","Station_Nam":"MOUNT CARROLL 6.8 NNW, IL","Latitude":"42.18735","Longitude":"-90.02185","Snowdepth":"7.500","Units":"in","Rept_Date":"2021-01-19 13"},"coordinates":[1868,4080]},{"type":"Point","properties":{"Station_ID":"BDJP1","Station_Nam":"GERMANIA 2 SNOW","Latitude":"41.65000","Longitude":"-77.66940","Snowdepth":"7.500","Units":"in","Rept_Date":"2021-01-19 18"},"coordinates":[5067,3747]},{"type":"Point","properties":{"Station_ID":"VT-CL-23","Station_Nam":"RYEGATE 1.5 N, VT","Latitude":"44.23024","Longitude":"-72.10523","Snowdepth":"7.300","Units":"in","Rept_Date":"2021-01-19 12"},"coordinates":[6507,5348]},{"type":"Point","properties":{"Station_ID":"NFGT1","Station_Nam":"NEW FOUND GAP","Latitude":"35.61080","Longitude":"-83.42890","Snowdepth":"7.120","Units":"in","Rept_Date":"2021-01-20 06"},"coordinates":[3575,0]},{"type":"Point","properties":{"Station_ID":"HPN08_MADIS","Station_Nam":"ORONO","Latitude":"44.93630","Longitude":"-93.62000","Snowdepth":"7.100","Units":"in","Rept_Date":"2021-01-20 06"},"coordinates":[937,5786]},{"type":"Point","properties":{"Station_ID":"HPN02_MADIS","Station_Nam":"MAPLE GROVE","Latitude":"45.11820","Longitude":"-93.42830","Snowdepth":"7.100","Units":"in","Rept_Date":"2021-01-20 06"},"coordinates":[987,5899]},{"type":"Point","properties":{"Station_ID":"WRTS2","Station_Nam":"WATERTOWN,SD","Latitude":"44.90280","Longitude":"-97.11360","Snowdepth":"7.000","Units":"in","Rept_Date":"2021-01-19 15"},"coordinates":[32,5765]},{"type":"Point","properties":{"Station_ID":"WI-RK-12","Station_Nam":"JANESVILLE 3.1 W, WI","Latitude":"42.67576","Longitude":"-89.07614","Snowdepth":"7.000","Units":"in","Rept_Date":"2021-01-19 13"},"coordinates":[2113,4383]},{"type":"Point","properties":{"Station_ID":"WDSV1","Station_Nam":"WOODSTOCK","Latitude":"43.63030","Longitude":"-72.50720","Snowdepth":"7.000","Units":"in","Rept_Date":"2021-01-19 13"},"coordinates":[6403,4976]},{"type":"Point","properties":{"Station_ID":"WAUI4","Station_Nam":"WAUKON","Latitude":"43.27410","Longitude":"-91.47110","Snowdepth":"7.000","Units":"in","Rept_Date":"2021-01-19 12"},"coordinates":[1493,4755]},{"type":"Point","properties":{"Station_ID":"VRGV1","Station_Nam":"VERGENNES","Latitude":"44.17190","Longitude":"-73.24720","Snowdepth":"7.000","Units":"in","Rept_Date":"2021-01-19 11"},"coordinates":[6212,5312]},{"type":"Point","properties":{"Station_ID":"SWIP1","Station_Nam":"STILLWATER DAM 2NE SNOW W SLOPE","Latitude":"41.72420","Longitude":"-75.47780","Snowdepth":"7.000","Units":"in","Rept_Date":"2021-01-19 17"},"coordinates":[5634,3793]},{"type":"Point","properties":{"Station_ID":"SVSN6","Station_Nam":"SILVER SPRINGS 3N","Latitude":"42.70580","Longitude":"-78.09370","Snowdepth":"7.000","Units":"in","Rept_Date":"2021-01-19 12"},"coordinates":[4957,4402]},{"type":"Point","properties":{"Station_ID":"STMM4","Station_Nam":"STAMBAUGH 2SSE","Latitude":"46.05550","Longitude":"-88.62780","Snowdepth":"7.000","Units":"in","Rept_Date":"2021-01-19 13"},"coordinates":[2229,6480]},{"type":"Point","properties":{"Station_ID":"STGW3","Station_Nam":"ST GERMAIN","Latitude":"45.91550","Longitude":"-89.48940","Snowdepth":"7.000","Units":"in","Rept_Date":"2021-01-19 12"},"coordinates":[2006,6393]},{"type":"Point","properties":{"Station_ID":"SPOW3","Station_Nam":"SPOONER,WI","Latitude":"45.82360","Longitude":"-91.70000","Snowdepth":"7.000","Units":"in","Rept_Date":"2021-01-19 14"},"coordinates":[1434,6336]},{"type":"Point","properties":{"Station_ID":"SNOW2","Station_Nam":"SNOWSHOE","Latitude":"38.39900","Longitude":"-79.99490","Snowdepth":"7.000","Units":"in","Rept_Date":"2021-01-19 11"},"coordinates":[4465,1730]},{"type":"Point","properties":{"Station_ID":"PRDM4","Station_Nam":"PARADISE","Latitude":"46.60380","Longitude":"-85.03960","Snowdepth":"7.000","Units":"in","Rept_Date":"2021-01-19 11"},"coordinates":[3158,6820]},{"type":"Point","properties":{"Station_ID":"PA-PT-2","Station_Nam":"ROULETTE 1.8 NNE, PA","Latitude":"41.80759","Longitude":"-78.14140","Snowdepth":"7.000","Units":"in","Rept_Date":"2021-01-19 12"},"coordinates":[4944,3845]},{"type":"Point","properties":{"Station_ID":"OLNI4","Station_Nam":"OELWEIN 1E","Latitude":"42.68010","Longitude":"-91.87510","Snowdepth":"7.000","Units":"in","Rept_Date":"2021-01-19 12"},"coordinates":[1389,4386]},{"type":"Point","properties":{"Station_ID":"NY-CR-5","Station_Nam":"MARATHON 1.0 NW, NY","Latitude":"42.45161","Longitude":"-76.04370","Snowdepth":"7.000","Units":"in","Rept_Date":"2021-01-19 12"},"coordinates":[5488,4244]},{"type":"Point","properties":{"Station_ID":"NY-CQ-35","Station_Nam":"FALCONER 0.3 WSW, NY","Latitude":"42.11766","Longitude":"-79.20278","Snowdepth":"7.000","Units":"in","Rept_Date":"2021-01-19 12"},"coordinates":[4670,4037]},{"type":"Point","properties":{"Station_ID":"NWSM1","Station_Nam":"NEW SHARON","Latitude":"44.63520","Longitude":"-70.00020","Snowdepth":"7.000","Units":"in","Rept_Date":"2021-01-19 12"},"coordinates":[7052,5599]},{"type":"Point","properties":{"Station_ID":"NCKN6","Station_Nam":"NORTH CREEK 5 SE","Latitude":"43.66110","Longitude":"-73.89690","Snowdepth":"7.000","Units":"in","Rept_Date":"2021-01-19 12"},"coordinates":[6043,4995]},{"type":"Point","properties":{"Station_ID":"MYOM4","Station_Nam":"MIO WWTP","Latitude":"44.64660","Longitude":"-84.11580","Snowdepth":"7.000","Units":"in","Rept_Date":"2021-01-19 13"},"coordinates":[3398,5606]},{"type":"Point","properties":{"Station_ID":"MPXM5","Station_Nam":"CHANHASSEN WSFO","Latitude":"44.84960","Longitude":"-93.56440","Snowdepth":"7.000","Units":"in","Rept_Date":"2021-01-20 06"},"coordinates":[951,5732]},{"type":"Point","properties":{"Station_ID":"MN-WR-25","Station_Nam":"SAINT MICHAEL 2.0 ENE, MN","Latitude":"45.20820","Longitude":"-93.65280","Snowdepth":"7.000","Units":"in","Rept_Date":"2021-01-19 12"},"coordinates":[928,5955]},{"type":"Point","properties":{"Station_ID":"MN-SV-4","Station_Nam":"DONNELLY 2.9 NW, MN","Latitude":"45.71649","Longitude":"-96.06043","Snowdepth":"7.000","Units":"in","Rept_Date":"2021-01-19 13"},"coordinates":[305,6270]},{"type":"Point","properties":{"Station_ID":"MN-SH-985","Station_Nam":"PRINCETON 3.3 WSW, MN","Latitude":"45.55211","Longitude":"-93.64481","Snowdepth":"7.000","Units":"in","Rept_Date":"2021-01-19 11"},"coordinates":[930,6168]},{"type":"Point","properties":{"Station_ID":"MN-RM-2","Station_Nam":"NORTH SAINT PAUL 1.0 NNW, MN","Latitude":"45.02629","Longitude":"-93.00790","Snowdepth":"7.000","Units":"in","Rept_Date":"2021-01-19 12"},"coordinates":[1095,5842]},{"type":"Point","properties":{"Station_ID":"MN-KB-17","Station_Nam":"MORA 2.5 S, MN","Latitude":"45.84100","Longitude":"-93.29700","Snowdepth":"7.000","Units":"in","Rept_Date":"2021-01-19 13"},"coordinates":[1021,6347]},{"type":"Point","properties":{"Station_ID":"MN-HN-31","Station_Nam":"MAPLE GROVE 1.0 NNE, MN","Latitude":"45.12261","Longitude":"-93.45790","Snowdepth":"7.000","Units":"in","Rept_Date":"2021-01-19 16"},"coordinates":[979,5901]},{"type":"Point","properties":{"Station_ID":"MN-HN-298","Station_Nam":"EXCELSIOR 1.8 W, MN","Latitude":"44.89722","Longitude":"-93.60286","Snowdepth":"7.000","Units":"in","Rept_Date":"2021-01-19 13"},"coordinates":[941,5762]},{"type":"Point","properties":{"Station_ID":"MN-GH-4","Station_Nam":"NERSTRAND 4.2 E, MN","Latitude":"44.34247","Longitude":"-92.97920","Snowdepth":"7.000","Units":"in","Rept_Date":"2021-01-19 13"},"coordinates":[1103,5417]},{"type":"Point","properties":{"Station_ID":"MN-CV-22","Station_Nam":"VICTORIA 1.6 WSW, MN","Latitude":"44.85670","Longitude":"-93.68640","Snowdepth":"7.000","Units":"in","Rept_Date":"2021-01-19 13"},"coordinates":[920,5736]},{"type":"Point","properties":{"Station_ID":"MI-IC-6","Station_Nam":"NATIONAL CITY 4.5 NNE, MI","Latitude":"44.29330","Longitude":"-83.68410","Snowdepth":"7.000","Units":"in","Rept_Date":"2021-01-19 14"},"coordinates":[3509,5387]},{"type":"Point","properties":{"Station_ID":"KLKM4","Station_Nam":"KALKASKA","Latitude":"44.72800","Longitude":"-85.17270","Snowdepth":"7.000","Units":"in","Rept_Date":"2021-01-19 13"},"coordinates":[3124,5657]},{"type":"Point","properties":{"Station_ID":"JCBM4","Station_Nam":"JACOBSVILLE","Latitude":"47.00830","Longitude":"-88.43180","Snowdepth":"7.000","Units":"in","Rept_Date":"2021-01-19 12"},"coordinates":[2280,7071]},{"type":"Point","properties":{"Station_ID":"IL-SP-6","Station_Nam":"FREEPORT 2.0 NW, IL","Latitude":"42.30955","Longitude":"-89.66370","Snowdepth":"7.000","Units":"in","Rept_Date":"2021-01-19 13"},"coordinates":[1961,4156]},{"type":"Point","properties":{"Station_ID":"IL-MCH-13","Station_Nam":"BULL VALLEY 2.5 WNW, IL","Latitude":"42.32455","Longitude":"-88.39460","Snowdepth":"7.000","Units":"in","Rept_Date":"2021-01-19 14"},"coordinates":[2290,4165]},{"type":"Point","properties":{"Station_ID":"IA-ST-3","Station_Nam":"PARK VIEW 0.2 WSW, IA","Latitude":"41.68855","Longitude":"-90.54380","Snowdepth":"7.000","Units":"in","Rept_Date":"2021-01-19 13"},"coordinates":[1733,3771]},{"type":"Point","properties":{"Station_ID":"IA-JH-20","Station_Nam":"CORALVILLE 1.4 S, IA","Latitude":"41.67016","Longitude":"-91.60296","Snowdepth":"7.000","Units":"in","Rept_Date":"2021-01-19 14"},"coordinates":[1459,3759]},{"type":"Point","properties":{"Station_ID":"HWLM4","Station_Nam":"HALFWAY LAKE","Latitude":"46.47480","Longitude":"-85.59250","Snowdepth":"7.000","Units":"in","Rept_Date":"2021-01-19 14"},"coordinates":[3015,6740]},{"type":"Point","properties":{"Station_ID":"HPN11_MADIS","Station_Nam":"SAINT BONIFACIUS","Latitude":"44.89792","Longitude":"-93.73460","Snowdepth":"7.000","Units":"in","Rept_Date":"2021-01-20 06"},"coordinates":[907,5762]},{"type":"Point","properties":{"Station_ID":"GSBP1","Station_Nam":"BROOKS RUN SNOW","Latitude":"41.41670","Longitude":"-78.05000","Snowdepth":"7.000","Units":"in","Rept_Date":"2021-01-19 16"},"coordinates":[4968,3602]},{"type":"Point","properties":{"Station_ID":"FLAM4","Station_Nam":"FIFE LAKE 2WNW","Latitude":"44.58480","Longitude":"-85.36530","Snowdepth":"7.000","Units":"in","Rept_Date":"2021-01-19 12"},"coordinates":[3074,5568]},{"type":"Point","properties":{"Station_ID":"FARM1","Station_Nam":"FARMINGTON","Latitude":"44.68930","Longitude":"-70.15640","Snowdepth":"7.000","Units":"in","Rept_Date":"2021-01-19 12"},"coordinates":[7012,5633]},{"type":"Point","properties":{"Station_ID":"EVRW3","Station_Nam":"EAGLE RIVER-4 E","Latitude":"45.91890","Longitude":"-89.15280","Snowdepth":"7.000","Units":"in","Rept_Date":"2021-01-19 13"},"coordinates":[2093,6396]},{"type":"Point","properties":{"Station_ID":"EGRW3","Station_Nam":"EAGLE RIVER-SOUTH","Latitude":"45.91360","Longitude":"-89.24360","Snowdepth":"7.000","Units":"in","Rept_Date":"2021-01-19 13"},"coordinates":[2070,6392]},{"type":"Point","properties":{"Station_ID":"CLTV1","Station_Nam":"CHARLOTTE","Latitude":"44.31060","Longitude":"-73.24950","Snowdepth":"7.000","Units":"in","Rept_Date":"2021-01-19 21"},"coordinates":[6211,5398]},{"type":"Point","properties":{"Station_ID":"CLNI4","Station_Nam":"CLINTON NO 1","Latitude":"41.79470","Longitude":"-90.26390","Snowdepth":"7.000","Units":"in","Rept_Date":"2021-01-20 00"},"coordinates":[1806,3837]},{"type":"Point","properties":{"Station_ID":"CLDM5","Station_Nam":"CALEDONIA","Latitude":"43.63090","Longitude":"-91.50270","Snowdepth":"7.000","Units":"in","Rept_Date":"2021-01-19 13"},"coordinates":[1485,4976]},{"type":"Point","properties":{"Station_ID":"CBLW3","Station_Nam":"CUMBERLAND","Latitude":"45.53310","Longitude":"-92.02260","Snowdepth":"7.000","Units":"in","Rept_Date":"2021-01-19 13"},"coordinates":[1350,6156]},{"type":"Point","properties":{"Station_ID":"CAN-NS-103","Station_Nam":"TRAFALGAR 4.9 WSW, CAN","Latitude":"45.26217","Longitude":"-62.72285","Snowdepth":"7.000","Units":"in","Rept_Date":"2021-01-19 12"},"coordinates":[8936,5988]},{"type":"Point","properties":{"Station_ID":"CAN-MB-56","Station_Nam":"WINNIPEG 7.6 ENE, CAN","Latitude":"49.93264","Longitude":"-97.04752","Snowdepth":"7.000","Units":"in","Rept_Date":"2021-01-19 14"},"coordinates":[49,8886]},{"type":"Point","properties":{"Station_ID":"BRAM5","Station_Nam":"BRAINERD","Latitude":"46.34320","Longitude":"-94.20900","Snowdepth":"7.000","Units":"in","Rept_Date":"2021-01-19 13"},"coordinates":[784,6659]},{"type":"Point","properties":{"Station_ID":"BDHP1","Station_Nam":"CARTER CAMP SNOW","Latitude":"41.61670","Longitude":"-77.71670","Snowdepth":"7.000","Units":"in","Rept_Date":"2021-01-19 18"},"coordinates":[5054,3726]},{"type":"Point","properties":{"Station_ID":"BDFP1","Station_Nam":"BRADFORD,PA","Latitude":"41.95000","Longitude":"-78.73330","Snowdepth":"7.000","Units":"in","Rept_Date":"2021-01-19 13"},"coordinates":[4791,3933]},{"type":"Point","properties":{"Station_ID":"BDBP1","Station_Nam":"LEADS HOLLOW SNOW","Latitude":"41.43330","Longitude":"-77.88330","Snowdepth":"7.000","Units":"in","Rept_Date":"2021-01-19 18"},"coordinates":[5011,3612]},{"type":"Point","properties":{"Station_ID":"AVTW3","Station_Nam":"ARBOR VITAE-JOHNSON LAKE","Latitude":"45.89940","Longitude":"-89.72670","Snowdepth":"7.000","Units":"in","Rept_Date":"2021-01-19 12"},"coordinates":[1945,6383]},{"type":"Point","properties":{"Station_ID":"ATLI4","Station_Nam":"ATLANTIC,IA","Latitude":"41.41810","Longitude":"-95.00310","Snowdepth":"7.000","Units":"in","Rept_Date":"2021-01-19 13"},"coordinates":[579,3603]},{"type":"Point","properties":{"Station_ID":"AMAM4","Station_Nam":"AMASA 1W","Latitude":"46.23470","Longitude":"-88.45440","Snowdepth":"7.000","Units":"in","Rept_Date":"2021-01-19 14"},"coordinates":[2274,6591]},{"type":"Point","properties":{"Station_ID":"41.9996_080.1669","Station_Nam":"MCKEAN  SNOW SPOTTER (X4200802)","Latitude":"41.99960","Longitude":"-80.16690","Snowdepth":"7.000","Units":"in","Rept_Date":"2021-01-19 13"},"coordinates":[4420,3964]},{"type":"Point","properties":{"Station_ID":"38.3990_079.9949","Station_Nam":"SNOWSHOE  CO-OP OBSERVER (X3840800)","Latitude":"38.39900","Longitude":"-79.99490","Snowdepth":"7.000","Units":"in","Rept_Date":"2021-01-19 11"},"coordinates":[4465,1730]},{"type":"Point","properties":{"Station_ID":"HPN19_MADIS","Station_Nam":"GREENFIELD","Latitude":"45.20343","Longitude":"-93.69130","Snowdepth":"6.900","Units":"in","Rept_Date":"2021-01-20 06"},"coordinates":[918,5952]},{"type":"Point","properties":{"Station_ID":"CAN-NB-97","Station_Nam":"NEW MARYLAND 0.6 NW, CAN","Latitude":"45.90112","Longitude":"-66.68739","Snowdepth":"6.900","Units":"in","Rept_Date":"2021-01-19 12"},"coordinates":[7910,6384]},{"type":"Point","properties":{"Station_ID":"NY-JF-30","Station_Nam":"WEST CARTHAGE 0.3 ENE, NY","Latitude":"43.97493","Longitude":"-75.61640","Snowdepth":"6.700","Units":"in","Rept_Date":"2021-01-19 12"},"coordinates":[5598,5189]},{"type":"Point","properties":{"Station_ID":"HPN20_MADIS","Station_Nam":"HOPKINS","Latitude":"44.95556","Longitude":"-93.41140","Snowdepth":"6.700","Units":"in","Rept_Date":"2021-01-20 06"},"coordinates":[991,5798]},{"type":"Point","properties":{"Station_ID":"CAN-ON-526","Station_Nam":"HILTON BEACH 0.7 SW - MNRF, CAN","Latitude":"46.25357","Longitude":"-83.90014","Snowdepth":"6.700","Units":"in","Rept_Date":"2021-01-19 12"},"coordinates":[3453,6603]},{"type":"Point","properties":{"Station_ID":"HPN09_MADIS","Station_Nam":"PLYMOUTH","Latitude":"44.98992","Longitude":"-93.47910","Snowdepth":"6.600","Units":"in","Rept_Date":"2021-01-20 06"},"coordinates":[973,5819]},{"type":"Point","properties":{"Station_ID":"WV-PR-11","Station_Nam":"THOMAS 7.4 N, WV","Latitude":"39.25361","Longitude":"-79.51055","Snowdepth":"6.500","Units":"in","Rept_Date":"2021-01-19 12"},"coordinates":[4590,2260]},{"type":"Point","properties":{"Station_ID":"WI-JF-10","Station_Nam":"PALMYRA 1.5 N, WI","Latitude":"42.90084","Longitude":"-88.58620","Snowdepth":"6.500","Units":"in","Rept_Date":"2021-01-19 13"},"coordinates":[2240,4523]},{"type":"Point","properties":{"Station_ID":"WI-IW-3","Station_Nam":"MINERAL POINT 7.3 ENE, WI","Latitude":"42.91400","Longitude":"-90.05700","Snowdepth":"6.500","Units":"in","Rept_Date":"2021-01-19 13"},"coordinates":[1859,4531]},{"type":"Point","properties":{"Station_ID":"NY-WY-11","Station_Nam":"SILVER SPRINGS COOP, NY","Latitude":"42.70580","Longitude":"-78.09370","Snowdepth":"6.500","Units":"in","Rept_Date":"2021-01-19 12"},"coordinates":[4957,4402]},{"type":"Point","properties":{"Station_ID":"NY-GR-14","Station_Nam":"LEXINGTON 1.5 N, NY","Latitude":"42.26024","Longitude":"-74.35875","Snowdepth":"6.500","Units":"in","Rept_Date":"2021-01-19 12"},"coordinates":[5924,4126]},{"type":"Point","properties":{"Station_ID":"NY-CQ-39","Station_Nam":"GERRY 0.8 N, NY","Latitude":"42.20500","Longitude":"-79.24700","Snowdepth":"6.500","Units":"in","Rept_Date":"2021-01-19 13"},"coordinates":[4658,4091]},{"type":"Point","properties":{"Station_ID":"NY-CL-7","Station_Nam":"PERU 4.1 ESE, NY","Latitude":"44.56461","Longitude":"-73.45390","Snowdepth":"6.500","Units":"in","Rept_Date":"2021-01-19 11"},"coordinates":[6158,5555]},{"type":"Point","properties":{"Station_ID":"NY-BM-14","Station_Nam":"WHITNEY POINT 1.7 SSE, NY","Latitude":"42.30837","Longitude":"-75.95690","Snowdepth":"6.500","Units":"in","Rept_Date":"2021-01-19 13"},"coordinates":[5510,4155]},{"type":"Point","properties":{"Station_ID":"ND-CS-25","Station_Nam":"FARGO 2.1 N, ND","Latitude":"46.90816","Longitude":"-96.77937","Snowdepth":"6.500","Units":"in","Rept_Date":"2021-01-19 14"},"coordinates":[119,7009]},{"type":"Point","properties":{"Station_ID":"MN-RM-120","Station_Nam":"MAPLEWOOD 5.6 SSE, MN","Latitude":"44.90588","Longitude":"-92.99712","Snowdepth":"6.500","Units":"in","Rept_Date":"2021-01-19 14"},"coordinates":[1098,5767]},{"type":"Point","properties":{"Station_ID":"MN-HN-6","Station_Nam":"LONG LAKE 0.2 WSW, MN","Latitude":"44.98290","Longitude":"-93.57360","Snowdepth":"6.500","Units":"in","Rept_Date":"2021-01-19 14"},"coordinates":[949,5815]},{"type":"Point","properties":{"Station_ID":"MN-DK-73","Station_Nam":"LAKEVILLE 2.6 NNE, MN","Latitude":"44.71250","Longitude":"-93.23043","Snowdepth":"6.500","Units":"in","Rept_Date":"2021-01-19 13"},"coordinates":[1038,5647]},{"type":"Point","properties":{"Station_ID":"IL-SP-25","Station_Nam":"FREEPORT 1.7 NW, IL","Latitude":"42.30427","Longitude":"-89.66285","Snowdepth":"6.500","Units":"in","Rept_Date":"2021-01-19 13"},"coordinates":[1961,4153]},{"type":"Point","properties":{"Station_ID":"IA-ST-1","Station_Nam":"LE CLAIRE 1.8 NNE, IA","Latitude":"41.62355","Longitude":"-90.35140","Snowdepth":"6.500","Units":"in","Rept_Date":"2021-01-19 14"},"coordinates":[1783,3731]},{"type":"Point","properties":{"Station_ID":"CAN-ON-5","Station_Nam":"OWEN SOUND 1.5 NW - GSCA, CAN","Latitude":"44.57837","Longitude":"-80.95461","Snowdepth":"6.500","Units":"in","Rept_Date":"2021-01-19 13"},"coordinates":[4216,5564]},{"type":"Point","properties":{"Station_ID":"CAN-ON-118","Station_Nam":"DURHAM 1.4 S, CAN","Latitude":"44.16525","Longitude":"-80.82064","Snowdepth":"6.500","Units":"in","Rept_Date":"2021-01-19 12"},"coordinates":[4251,5307]},{"type":"Point","properties":{"Station_ID":"CAN-ON-92","Station_Nam":"DUNROBIN 1.9 W - MVCA, CAN","Latitude":"45.42318","Longitude":"-76.04525","Snowdepth":"6.400","Units":"in","Rept_Date":"2021-01-19 12"},"coordinates":[5487,6088]},{"type":"Point","properties":{"Station_ID":"CAN-ON-757","Station_Nam":"SAULT STE. MARIE 2.8 ESE - GLFC, CAN","Latitude":"46.50300","Longitude":"-84.30300","Snowdepth":"6.400","Units":"in","Rept_Date":"2021-01-19 13"},"coordinates":[3349,6758]},{"type":"Point","properties":{"Station_ID":"MRL","Station_Nam":"MRL","Latitude":"51.28330","Longitude":"-68.84060","Snowdepth":"6.339","Units":"in","Rept_Date":"2021-01-19 12"},"coordinates":[7352,9724]},{"type":"Point","properties":{"Station_ID":"MN-CW-29","Station_Nam":"BRAINERD 7.7 SSE, MN","Latitude":"46.24996","Longitude":"-94.14576","Snowdepth":"6.300","Units":"in","Rept_Date":"2021-01-19 13"},"coordinates":[801,6601]},{"type":"Point","properties":{"Station_ID":"NY-CQ-9","Station_Nam":"DUNKIRK 0.7 SW, NY","Latitude":"42.47167","Longitude":"-79.33360","Snowdepth":"6.200","Units":"in","Rept_Date":"2021-01-19 13"},"coordinates":[4636,4257]},{"type":"Point","properties":{"Station_ID":"PA-CR-1","Station_Nam":"EMPORIUM 2.6 S, PA","Latitude":"41.47342","Longitude":"-78.24330","Snowdepth":"6.100","Units":"in","Rept_Date":"2021-01-19 13"},"coordinates":[4918,3637]},{"type":"Point","properties":{"Station_ID":"WTRM4","Station_Nam":"WATERSMEET 12WSW","Latitude":"46.22310","Longitude":"-89.40850","Snowdepth":"6.000","Units":"in","Rept_Date":"2021-01-19 14"},"coordinates":[2027,6584]},{"type":"Point","properties":{"Station_ID":"WSFW3","Station_Nam":"TOWN OF WESTFORD","Latitude":"43.47190","Longitude":"-88.88250","Snowdepth":"6.000","Units":"in","Rept_Date":"2021-01-19 13"},"coordinates":[2163,4877]},{"type":"Point","properties":{"Station_ID":"WRUM5","Station_Nam":"WARROAD 4W","Latitude":"48.89600","Longitude":"-95.40700","Snowdepth":"6.000","Units":"in","Rept_Date":"2021-01-20 04"},"coordinates":[474,8243]},{"type":"Point","properties":{"Station_ID":"WPGN6","Station_Nam":"GEORGETOWN 2SE SNOW","Latitude":"42.75000","Longitude":"-75.70000","Snowdepth":"6.000","Units":"in","Rept_Date":"2021-01-19 14"},"coordinates":[5576,4429]},{"type":"Point","properties":{"Station_ID":"WODI2","Station_Nam":"WOODSTOCK","Latitude":"42.36280","Longitude":"-88.53140","Snowdepth":"6.000","Units":"in","Rept_Date":"2021-01-19 13"},"coordinates":[2254,4189]},{"type":"Point","properties":{"Station_ID":"WNNM5","Station_Nam":"WINNEBAGO","Latitude":"43.76920","Longitude":"-94.18730","Snowdepth":"6.000","Units":"in","Rept_Date":"2021-01-19 14"},"coordinates":[790,5062]},{"type":"Point","properties":{"Station_ID":"WMTI4","Station_Nam":"FORT DODGE,IA","Latitude":"42.50610","Longitude":"-94.20110","Snowdepth":"6.000","Units":"in","Rept_Date":"2021-01-19 13"},"coordinates":[786,4278]},{"type":"Point","properties":{"Station_ID":"WI-WS-15","Station_Nam":"WEST BEND 5.4 SE, WI","Latitude":"43.37259","Longitude":"-88.10086","Snowdepth":"6.000","Units":"in","Rept_Date":"2021-01-19 14"},"coordinates":[2366,4816]},{"type":"Point","properties":{"Station_ID":"WI-WK-61","Station_Nam":"HARTLAND 5.0 NNE, WI","Latitude":"43.16351","Longitude":"-88.30400","Snowdepth":"6.000","Units":"in","Rept_Date":"2021-01-19 13"},"coordinates":[2313,4686]},{"type":"Point","properties":{"Station_ID":"WI-PR-8","Station_Nam":"PHILLIPS 0.4 SSW, WI","Latitude":"45.69086","Longitude":"-90.40200","Snowdepth":"6.000","Units":"in","Rept_Date":"2021-01-19 13"},"coordinates":[1770,6254]},{"type":"Point","properties":{"Station_ID":"WI-PC-5","Station_Nam":"RIVER FALLS 1.2 SSW, WI","Latitude":"44.84032","Longitude":"-92.63500","Snowdepth":"6.000","Units":"in","Rept_Date":"2021-01-19 13"},"coordinates":[1192,5726]},{"type":"Point","properties":{"Station_ID":"WI-OZ-17","Station_Nam":"WEST BEND 7.3 E, WI","Latitude":"43.42860","Longitude":"-88.03870","Snowdepth":"6.000","Units":"in","Rept_Date":"2021-01-19 13"},"coordinates":[2382,4850]},{"type":"Point","properties":{"Station_ID":"WI-DD-16","Station_Nam":"BEAVER DAM 2.4 WNW, WI","Latitude":"43.47210","Longitude":"-88.88280","Snowdepth":"6.000","Units":"in","Rept_Date":"2021-01-19 13"},"coordinates":[2163,4877]},{"type":"Point","properties":{"Station_ID":"WI-DA-99","Station_Nam":"FITCHBURG 1.1 NW, WI","Latitude":"42.99740","Longitude":"-89.44046","Snowdepth":"6.000","Units":"in","Rept_Date":"2021-01-19 13"},"coordinates":[2019,4583]},{"type":"Point","properties":{"Station_ID":"WI-BR-2","Station_Nam":"CHETEK 2.0 SE, WI","Latitude":"45.29427","Longitude":"-91.62470","Snowdepth":"6.000","Units":"in","Rept_Date":"2021-01-19 13"},"coordinates":[1453,6008]},{"type":"Point","properties":{"Station_ID":"VQAW3","Station_Nam":"VIROQUA","Latitude":"43.55970","Longitude":"-90.87560","Snowdepth":"6.000","Units":"in","Rept_Date":"2021-01-19 13"},"coordinates":[1647,4932]},{"type":"Point","properties":{"Station_ID":"VANM1","Station_Nam":"VAN BUREN","Latitude":"47.16600","Longitude":"-67.93900","Snowdepth":"6.000","Units":"in","Rept_Date":"2021-01-19 12"},"coordinates":[7586,7169]},{"type":"Point","properties":{"Station_ID":"TRPI4","Station_Nam":"TRIPOLI,IA","Latitude":"42.81310","Longitude":"-92.25830","Snowdepth":"6.000","Units":"in","Rept_Date":"2021-01-19 13"},"coordinates":[1289,4469]},{"type":"Point","properties":{"Station_ID":"TOPM1","Station_Nam":"TOPSFIELD","Latitude":"45.43470","Longitude":"-67.72020","Snowdepth":"6.000","Units":"in","Rept_Date":"2021-01-19 12"},"coordinates":[7643,6095]},{"type":"Point","properties":{"Station_ID":"TMWN3","Station_Nam":"TAMWORTH 4","Latitude":"43.86390","Longitude":"-71.26610","Snowdepth":"6.000","Units":"in","Rept_Date":"2021-01-19 12"},"coordinates":[6724,5121]},{"type":"Point","properties":{"Station_ID":"TAHW3","Station_Nam":"TAYCHEEDAH","Latitude":"43.83390","Longitude":"-88.34690","Snowdepth":"6.000","Units":"in","Rept_Date":"2021-01-19 13"},"coordinates":[2302,5102]},{"type":"Point","properties":{"Station_ID":"SWHP1","Station_Nam":"STILLWATER DAM 2NE SNOW S SLOPE","Latitude":"41.72940","Longitude":"-75.46750","Snowdepth":"6.000","Units":"in","Rept_Date":"2021-01-19 17"},"coordinates":[5637,3796]},