{"type":"Topology","objects":{"snowdepth_geo":{"type":"GeometryCollection","name":"snowdepth","crs":{"type":"name","properties":{"name":"urn:ogc:def:crs:OGC:1.3:CRS84"}},"geometries":[{"type":"Point","properties":{"Station_ID":"PRKM4","Station_Nam":"MUNISING EAST","Latitude":"46.42580","Longitude":"-86.62000","Snowdepth":"76.500","Units":"in","Rept_Date":"2020-02-09 06"},"coordinates":[2492,6935]},{"type":"Point","properties":{"Station_ID":"OGIQ6","Station_Nam":"OGOKI CAMP","Latitude":"50.76680","Longitude":"-87.85820","Snowdepth":"61.100","Units":"in","Rept_Date":"2020-02-09 06"},"coordinates":[2202,9444]},{"type":"Point","properties":{"Station_ID":"MMNV1","Station_Nam":"MT. MANSFIELD","Latitude":"44.52480","Longitude":"-72.81540","Snowdepth":"60.000","Units":"in","Rept_Date":"2020-02-08 21"},"coordinates":[5732,5837]},{"type":"Point","properties":{"Station_ID":"HTLN3","Station_Nam":"HERMIT LAKE SNOWPLOT","Latitude":"44.26130","Longitude":"-71.28330","Snowdepth":"52.000","Units":"in","Rept_Date":"2020-02-08 10"},"coordinates":[6092,5684]},{"type":"Point","properties":{"Station_ID":"PDLM4","Station_Nam":"PAINESDALE","Latitude":"47.04160","Longitude":"-88.67170","Snowdepth":"51.000","Units":"in","Rept_Date":"2020-02-08 13"},"coordinates":[2011,7291]},{"type":"Point","properties":{"Station_ID":"AUDQ6","Station_Nam":"AUDEN","Latitude":"48.52600","Longitude":"-82.57570","Snowdepth":"47.640","Units":"in","Rept_Date":"2020-02-09 06"},"coordinates":[3441,8149]},{"type":"Point","properties":{"Station_ID":"CLUM4","Station_Nam":"CALUMET-TAMARACK","Latitude":"47.24550","Longitude":"-88.46790","Snowdepth":"47.000","Units":"in","Rept_Date":"2020-02-08 14"},"coordinates":[2058,7409]},{"type":"Point","properties":{"Station_ID":"KSGM4","Station_Nam":"KEARSARGE","Latitude":"47.27520","Longitude":"-88.41700","Snowdepth":"44.000","Units":"in","Rept_Date":"2020-02-08 13"},"coordinates":[2070,7426]},{"type":"Point","properties":{"Station_ID":"DVLQ6","Station_Nam":"DEVIOUS LAKE","Latitude":"49.19890","Longitude":"-87.76440","Snowdepth":"43.460","Units":"in","Rept_Date":"2020-02-09 06"},"coordinates":[2224,8538]},{"type":"Point","properties":{"Station_ID":"WLFM5","Station_Nam":"WOLF RIDGE ENVIRON LEARNING CENTER","Latitude":"47.38240","Longitude":"-91.19730","Snowdepth":"42.000","Units":"in","Rept_Date":"2020-02-08 13"},"coordinates":[1418,7488]},{"type":"Point","properties":{"Station_ID":"GMSM4","Station_Nam":"GRAND MARAIS 10S","Latitude":"46.50940","Longitude":"-85.96310","Snowdepth":"42.000","Units":"in","Rept_Date":"2020-02-08 12"},"coordinates":[2646,6984]},{"type":"Point","properties":{"Station_ID":"MQT","Station_Nam":"MARQUETTE, MI","Latitude":"46.53140","Longitude":"-87.54920","Snowdepth":"38.000","Units":"in","Rept_Date":"2020-02-09 06"},"coordinates":[2274,6996]},{"type":"Point","properties":{"Station_ID":"CAN-NL-82","Station_Nam":"GANDER 2.7 NW, CAN","Latitude":"48.97737","Longitude":"-54.63396","Snowdepth":"37.800","Units":"in","Rept_Date":"2020-02-08 10"},"coordinates":[9999,8410]},{"type":"Point","properties":{"Station_ID":"IBLM5","Station_Nam":"ISABELLA 14W","Latitude":"47.59360","Longitude":"-91.65140","Snowdepth":"36.000","Units":"in","Rept_Date":"2020-02-08 15"},"coordinates":[1311,7610]},{"type":"Point","properties":{"Station_ID":"HVCN3","Station_Nam":"HARVARD CABIN SNOWPLOT","Latitude":"44.26630","Longitude":"-71.27790","Snowdepth":"36.000","Units":"in","Rept_Date":"2020-02-08 10"},"coordinates":[6093,5687]},{"type":"Point","properties":{"Station_ID":"CAN-QC-47","Station_Nam":"SAINTE-FOY 1.8 ENE, CAN","Latitude":"46.76934","Longitude":"-71.27124","Snowdepth":"35.400","Units":"in","Rept_Date":"2020-02-08 12"},"coordinates":[6094,7134]},{"type":"Point","properties":{"Station_ID":"QNCM4","Station_Nam":"QUINCY HILL","Latitude":"47.13640","Longitude":"-88.57950","Snowdepth":"35.000","Units":"in","Rept_Date":"2020-02-08 13"},"coordinates":[2032,7346]},{"type":"Point","properties":{"Station_ID":"PHEW3","Station_Nam":"PHELPS","Latitude":"46.06630","Longitude":"-89.07520","Snowdepth":"35.000","Units":"in","Rept_Date":"2020-02-08 13"},"coordinates":[1916,6728]},{"type":"Point","properties":{"Station_ID":"ME-AR-23","Station_Nam":"MADAWASKA 2.5 E, ME","Latitude":"47.34933","Longitude":"-68.28141","Snowdepth":"35.000","Units":"in","Rept_Date":"2020-02-08 12"},"coordinates":[6796,7469]},{"type":"Point","properties":{"Station_ID":"MI-BG-3","Station_Nam":"L'ANSE 17.8 SE, MI","Latitude":"46.55730","Longitude":"-88.20770","Snowdepth":"34.500","Units":"in","Rept_Date":"2020-02-08 13"},"coordinates":[2119,7011]},{"type":"Point","properties":{"Station_ID":"QGO","Station_Nam":"QGO","Latitude":"48.85500","Longitude":"-74.20640","Snowdepth":"33.307","Units":"in","Rept_Date":"2020-02-08 12"},"coordinates":[5405,8339]},{"type":"Point","properties":{"Station_ID":"BBEM4","Station_Nam":"BIG BAY 9SW","Latitude":"46.74620","Longitude":"-87.88160","Snowdepth":"33.000","Units":"in","Rept_Date":"2020-02-08 13"},"coordinates":[2196,7121]},{"type":"Point","properties":{"Station_ID":"QWE","Station_Nam":"QWE","Latitude":"47.84610","Longitude":"-73.80670","Snowdepth":"32.402","Units":"in","Rept_Date":"2020-02-08 12"},"coordinates":[5499,7756]},{"type":"Point","properties":{"Station_ID":"QOU","Station_Nam":"QOU","Latitude":"50.79250","Longitude":"-69.67470","Snowdepth":"31.811","Units":"in","Rept_Date":"2020-02-08 12"},"coordinates":[6469,9459]},{"type":"Point","properties":{"Station_ID":"MLZ","Station_Nam":"MLZ","Latitude":"50.66170","Longitude":"-68.82360","Snowdepth":"30.905","Units":"in","Rept_Date":"2020-02-08 12"},"coordinates":[6669,9383]},{"type":"Point","properties":{"Station_ID":"VANM1","Station_Nam":"VAN BUREN","Latitude":"47.16600","Longitude":"-67.93900","Snowdepth":"30.000","Units":"in","Rept_Date":"2020-02-08 12"},"coordinates":[6876,7363]},{"type":"Point","properties":{"Station_ID":"STEM4","Station_Nam":"STEUBEN","Latitude":"46.18530","Longitude":"-86.46410","Snowdepth":"30.000","Units":"in","Rept_Date":"2020-02-08 14"},"coordinates":[2529,6796]},{"type":"Point","properties":{"Station_ID":"LVDW3","Station_Nam":"LAC VIEUX DESERT","Latitude":"46.12110","Longitude":"-89.07580","Snowdepth":"30.000","Units":"in","Rept_Date":"2020-02-08 14"},"coordinates":[1916,6759]},{"type":"Point","properties":{"Station_ID":"HERM4","Station_Nam":"HERMAN,MI","Latitude":"46.65000","Longitude":"-88.33330","Snowdepth":"30.000","Units":"in","Rept_Date":"2020-02-08 13"},"coordinates":[2090,7065]},{"type":"Point","properties":{"Station_ID":"FISM1","Station_Nam":"FORT KENT COOP","Latitude":"47.23850","Longitude":"-68.61240","Snowdepth":"30.000","Units":"in","Rept_Date":"2020-02-08 12"},"coordinates":[6718,7405]},{"type":"Point","properties":{"Station_ID":"QCU","Station_Nam":"QCU","Latitude":"47.82750","Longitude":"-76.59830","Snowdepth":"29.882","Units":"in","Rept_Date":"2020-02-08 12"},"coordinates":[4844,7745]},{"type":"Point","properties":{"Station_ID":"QGD","Station_Nam":"QGD","Latitude":"51.11140","Longitude":"-67.13940","Snowdepth":"29.213","Units":"in","Rept_Date":"2020-02-08 12"},"coordinates":[7064,9643]},{"type":"Point","properties":{"Station_ID":"LPLN6","Station_Nam":"LAKE PLACID 2 S","Latitude":"44.30420","Longitude":"-73.98390","Snowdepth":"29.000","Units":"in","Rept_Date":"2020-02-08 12"},"coordinates":[5458,5709]},{"type":"Point","properties":{"Station_ID":"CAN-NS-39","Station_Nam":"ST. ANNS 2.8 NW, CA","Latitude":"46.25082","Longitude":"-60.64340","Snowdepth":"29.000","Units":"in","Rept_Date":"2020-02-08 12"},"coordinates":[8589,6834]},{"type":"Point","properties":{"Station_ID":"WI-VL-10","Station_Nam":"LAND O LAKES 4.3 WNW, WI","Latitude":"46.17440","Longitude":"-89.30380","Snowdepth":"28.500","Units":"in","Rept_Date":"2020-02-08 13"},"coordinates":[1862,6790]},{"type":"Point","properties":{"Station_ID":"VT-OL-1","Station_Nam":"WESTFIELD 0.7 WNW, VT","Latitude":"44.89160","Longitude":"-72.44350","Snowdepth":"28.500","Units":"in","Rept_Date":"2020-02-08 12"},"coordinates":[5819,6049]},{"type":"Point","properties":{"Station_ID":"CAN-NL-65","Station_Nam":"KIPPENS 0.7 NE, CA","Latitude":"48.55436","Longitude":"-58.61850","Snowdepth":"28.500","Units":"in","Rept_Date":"2020-02-08 12"},"coordinates":[9064,8166]},{"type":"Point","properties":{"Station_ID":"WRPW3","Station_Nam":"WATER PURIFICATION PLANT","Latitude":"44.38800","Longitude":"-89.80550","Snowdepth":"28.000","Units":"in","Rept_Date":"2020-02-08 12"},"coordinates":[1744,5758]},{"type":"Point","properties":{"Station_ID":"MNSM4","Station_Nam":"MUNISING","Latitude":"46.41210","Longitude":"-86.66250","Snowdepth":"28.000","Units":"in","Rept_Date":"2020-02-08 11"},"coordinates":[2482,6927]},{"type":"Point","properties":{"Station_ID":"MI-MQ-19","Station_Nam":"ISHPEMING 7.2 SW, MI","Latitude":"46.40550","Longitude":"-87.75670","Snowdepth":"28.000","Units":"in","Rept_Date":"2020-02-08 11"},"coordinates":[2225,6924]},{"type":"Point","properties":{"Station_ID":"MAIW3","Station_Nam":"MADELINE ISLAND","Latitude":"46.78330","Longitude":"-90.76670","Snowdepth":"28.000","Units":"in","Rept_Date":"2020-02-08 14"},"coordinates":[1519,7142]},{"type":"Point","properties":{"Station_ID":"HURW3","Station_Nam":"HURLEY","Latitude":"46.46250","Longitude":"-90.19550","Snowdepth":"28.000","Units":"in","Rept_Date":"2020-02-08 14"},"coordinates":[1653,6957]},{"type":"Point","properties":{"Station_ID":"BABM5","Station_Nam":"BABBITT","Latitude":"47.71210","Longitude":"-91.95330","Snowdepth":"28.000","Units":"in","Rept_Date":"2020-02-08 13"},"coordinates":[1240,7679]},{"type":"Point","properties":{"Station_ID":"QLB","Station_Nam":"QLB","Latitude":"50.72360","Longitude":"-75.10000","Snowdepth":"27.205","Units":"in","Rept_Date":"2020-02-08 12"},"coordinates":[5196,9419]},{"type":"Point","properties":{"Station_ID":"WRSM5","Station_Nam":"WRENSHALL","Latitude":"46.61550","Longitude":"-92.38380","Snowdepth":"27.000","Units":"in","Rept_Date":"2020-02-08 14"},"coordinates":[1139,7045]},{"type":"Point","properties":{"Station_ID":"WI-VL-9","Station_Nam":"LAND O' LAKES 11.7 W, WI","Latitude":"46.19023","Longitude":"-89.45790","Snowdepth":"27.000","Units":"in","Rept_Date":"2020-02-08 13"},"coordinates":[1826,6799]},{"type":"Point","properties":{"Station_ID":"PDGM4","Station_Nam":"PAULDING","Latitude":"46.39760","Longitude":"-89.17940","Snowdepth":"27.000","Units":"in","Rept_Date":"2020-02-08 14"},"coordinates":[1891,6919]},{"type":"Point","properties":{"Station_ID":"LNOW3","Station_Nam":"LAND O LAKES","Latitude":"46.19000","Longitude":"-89.45700","Snowdepth":"27.000","Units":"in","Rept_Date":"2020-02-08 13"},"coordinates":[1826,6799]},{"type":"Point","properties":{"Station_ID":"CARM1","Station_Nam":"CARIBOU WFO","Latitude":"46.86810","Longitude":"-68.01250","Snowdepth":"27.000","Units":"in","Rept_Date":"2020-02-09 05"},"coordinates":[6859,7191]},{"type":"Point","properties":{"Station_ID":"CAR","Station_Nam":"CARIBOU, ME","Latitude":"46.86830","Longitude":"-68.01360","Snowdepth":"27.000","Units":"in","Rept_Date":"2020-02-08 12"},"coordinates":[6859,7191]},{"type":"Point","properties":{"Station_ID":"CAN-NB-11","Station_Nam":"MIRAMICHI 3.3 S, CAN","Latitude":"46.99343","Longitude":"-65.50690","Snowdepth":"27.000","Units":"in","Rept_Date":"2020-02-08 11"},"coordinates":[7447,7263]},{"type":"Point","properties":{"Station_ID":"NY-FK-9","Station_Nam":"GABRIELS 1.3 SE, NY","Latitude":"44.41934","Longitude":"-74.16194","Snowdepth":"26.500","Units":"in","Rept_Date":"2020-02-08 12"},"coordinates":[5416,5776]},{"type":"Point","properties":{"Station_ID":"QGA","Station_Nam":"QGA","Latitude":"47.25640","Longitude":"-73.73810","Snowdepth":"26.299","Units":"in","Rept_Date":"2020-02-08 12"},"coordinates":[5515,7415]},{"type":"Point","properties":{"Station_ID":"SUTV1","Station_Nam":"SUTTON","Latitude":"44.61220","Longitude":"-72.04810","Snowdepth":"26.000","Units":"in","Rept_Date":"2020-02-08 13"},"coordinates":[5912,5887]},{"type":"Point","properties":{"Station_ID":"STGW3","Station_Nam":"ST GERMAIN","Latitude":"45.91550","Longitude":"-89.48940","Snowdepth":"26.000","Units":"in","Rept_Date":"2020-02-08 12"},"coordinates":[1819,6640]},{"type":"Point","properties":{"Station_ID":"MN-SL-18","Station_Nam":"DULUTH 1.4 NNW, MN","Latitude":"46.80321","Longitude":"-92.11240","Snowdepth":"26.000","Units":"in","Rept_Date":"2020-02-08 14"},"coordinates":[1203,7154]},{"type":"Point","properties":{"Station_ID":"MN-CK-6","Station_Nam":"GRAND MARAIS 4.4 W, MN","Latitude":"47.74865","Longitude":"-90.43760","Snowdepth":"26.000","Units":"in","Rept_Date":"2020-02-08 13"},"coordinates":[1596,7700]},{"type":"Point","properties":{"Station_ID":"ME-AR-15","Station_Nam":"PRESQUE ISLE 1.3 WSW, ME","Latitude":"46.67960","Longitude":"-68.01270","Snowdepth":"26.000","Units":"in","Rept_Date":"2020-02-08 12"},"coordinates":[6859,7082]},{"type":"Point","properties":{"Station_ID":"LILM1","Station_Nam":"LILLE","Latitude":"47.27770","Longitude":"-68.10520","Snowdepth":"26.000","Units":"in","Rept_Date":"2020-02-08 12"},"coordinates":[6837,7428]},{"type":"Point","properties":{"Station_ID":"GNLM4","Station_Nam":"GREENLAND 6N","Latitude":"46.87360","Longitude":"-89.10060","Snowdepth":"26.000","Units":"in","Rept_Date":"2020-02-08 13"},"coordinates":[1910,7194]},{"type":"Point","properties":{"Station_ID":"DLHM5","Station_Nam":"DULUTH NWS","Latitude":"46.83680","Longitude":"-92.21080","Snowdepth":"26.000","Units":"in","Rept_Date":"2020-02-09 06"},"coordinates":[1180,7173]},{"type":"Point","properties":{"Station_ID":"DLH","Station_Nam":"DULUTH, MN","Latitude":"46.83690","Longitude":"-92.21030","Snowdepth":"26.000","Units":"in","Rept_Date":"2020-02-09 00"},"coordinates":[1180,7173]},{"type":"Point","properties":{"Station_ID":"CAN-NB-13","Station_Nam":"BATHURST 3.8 NW, CAN","Latitude":"47.64212","Longitude":"-65.68756","Snowdepth":"26.000","Units":"in","Rept_Date":"2020-02-08 11"},"coordinates":[7405,7638]},{"type":"Point","properties":{"Station_ID":"QTV","Station_Nam":"QTV","Latitude":"49.66000","Longitude":"-69.35690","Snowdepth":"25.984","Units":"in","Rept_Date":"2020-02-08 12"},"coordinates":[6544,8805]},{"type":"Point","properties":{"Station_ID":"WI-IR-2","Station_Nam":"MERCER 2.0 SE, WI","Latitude":"46.14749","Longitude":"-90.03097","Snowdepth":"25.400","Units":"in","Rept_Date":"2020-02-08 13"},"coordinates":[1692,6775]},{"type":"Point","properties":{"Station_ID":"PTLQ6","Station_Nam":"PORTAGE LAKE","Latitude":"49.06950","Longitude":"-86.65940","Snowdepth":"25.390","Units":"in","Rept_Date":"2020-02-09 06"},"coordinates":[2483,8463]},{"type":"Point","properties":{"Station_ID":"QFT","Station_Nam":"QFT","Latitude":"50.83280","Longitude":"-74.40390","Snowdepth":"25.157","Units":"in","Rept_Date":"2020-02-08 12"},"coordinates":[5359,9482]},{"type":"Point","properties":{"Station_ID":"VT-CL-40","Station_Nam":"LYNDONVILLE 4.2 NNW, VT","Latitude":"44.59440","Longitude":"-72.02389","Snowdepth":"25.000","Units":"in","Rept_Date":"2020-02-08 12"},"coordinates":[5918,5877]},{"type":"Point","properties":{"Station_ID":"PRDM4","Station_Nam":"PARADISE","Latitude":"46.60380","Longitude":"-85.03960","Snowdepth":"25.000","Units":"in","Rept_Date":"2020-02-08 12"},"coordinates":[2863,7038]},{"type":"Point","properties":{"Station_ID":"NY-FK-7","Station_Nam":"SARANAC LAKE 6.2 N, NY","Latitude":"44.41359","Longitude":"-74.15211","Snowdepth":"25.000","Units":"in","Rept_Date":"2020-02-08 12"},"coordinates":[5418,5773]},{"type":"Point","properties":{"Station_ID":"GNFM5","Station_Nam":"GUNFLINT LAKE","Latitude":"48.16670","Longitude":"-90.88750","Snowdepth":"25.000","Units":"in","Rept_Date":"2020-02-08 13"},"coordinates":[1491,7941]},{"type":"Point","properties":{"Station_ID":"EVRW3","Station_Nam":"EAGLE RIVER-4 E","Latitude":"45.91890","Longitude":"-89.15280","Snowdepth":"25.000","Units":"in","Rept_Date":"2020-02-08 11"},"coordinates":[1898,6642]},{"type":"Point","properties":{"Station_ID":"BNDM5","Station_Nam":"ELY 25E","Latitude":"47.97190","Longitude":"-91.44860","Snowdepth":"25.000","Units":"in","Rept_Date":"2020-02-08 13"},"coordinates":[1359,7829]},{"type":"Point","properties":{"Station_ID":"ALLT1","Station_Nam":"ALLARDT","Latitude":"36.38050","Longitude":"-84.87440","Snowdepth":"25.000","Units":"in","Rept_Date":"2020-02-08 14"},"coordinates":[2902,1130]},{"type":"Point","properties":{"Station_ID":"MN-SL-15","Station_Nam":"CHISHOLM 0.4 WSW, MN","Latitude":"47.48557","Longitude":"-92.88690","Snowdepth":"24.500","Units":"in","Rept_Date":"2020-02-08 13"},"coordinates":[1021,7548]},{"type":"Point","properties":{"Station_ID":"MI-HG-1","Station_Nam":"HOUGHTON 1.6 ESE, MI","Latitude":"47.10774","Longitude":"-88.52940","Snowdepth":"24.500","Units":"in","Rept_Date":"2020-02-08 13"},"coordinates":[2044,7330]},{"type":"Point","properties":{"Station_ID":"QMA","Station_Nam":"QMA","Latitude":"50.10330","Longitude":"-70.47190","Snowdepth":"24.016","Units":"in","Rept_Date":"2020-02-08 12"},"coordinates":[6282,9061]},{"type":"Point","properties":{"Station_ID":"VT-WS-33","Station_Nam":"WAITSFIELD 3.5 WNW, VT","Latitude":"44.20052","Longitude":"-72.89421","Snowdepth":"24.000","Units":"in","Rept_Date":"2020-02-08 13"},"coordinates":[5713,5649]},{"type":"Point","properties":{"Station_ID":"VT-OL-9","Station_Nam":"GREENSBORO 2.1 NNW, VT","Latitude":"44.60528","Longitude":"-72.30940","Snowdepth":"24.000","Units":"in","Rept_Date":"2020-02-08 12"},"coordinates":[5851,5883]},{"type":"Point","properties":{"Station_ID":"VT-OL-12","Station_Nam":"GREENSBORO 3.9 NNE, VT","Latitude":"44.63100","Longitude":"-72.28000","Snowdepth":"24.000","Units":"in","Rept_Date":"2020-02-08 12"},"coordinates":[5858,5898]},{"type":"Point","properties":{"Station_ID":"SUAW3","Station_Nam":"SUAMICO","Latitude":"44.60190","Longitude":"-88.09780","Snowdepth":"24.000","Units":"in","Rept_Date":"2020-02-08 12"},"coordinates":[2145,5881]},{"type":"Point","properties":{"Station_ID":"NH-CS-10","Station_Nam":"RANDOLPH 1.4 NE, NH","Latitude":"44.38824","Longitude":"-71.26950","Snowdepth":"24.000","Units":"in","Rept_Date":"2020-02-08 12"},"coordinates":[6095,5758]},{"type":"Point","properties":{"Station_ID":"ISLV1","Station_Nam":"ISLAND POND","Latitude":"44.81280","Longitude":"-71.89020","Snowdepth":"24.000","Units":"in","Rept_Date":"2020-02-08 20"},"coordinates":[5949,6003]},{"type":"Point","properties":{"Station_ID":"GLDM4","Station_Nam":"GLADSTONE NO. 2","Latitude":"45.84330","Longitude":"-87.03910","Snowdepth":"24.000","Units":"in","Rept_Date":"2020-02-08 12"},"coordinates":[2394,6599]},{"type":"Point","properties":{"Station_ID":"GGRM4","Station_Nam":"GREEN GARDEN NO.2","Latitude":"46.45330","Longitude":"-87.30380","Snowdepth":"24.000","Units":"in","Rept_Date":"2020-02-08 10"},"coordinates":[2332,6951]},{"type":"Point","properties":{"Station_ID":"EAHV1","Station_Nam":"EAST HAVEN","Latitude":"44.64250","Longitude":"-71.89120","Snowdepth":"24.000","Units":"in","Rept_Date":"2020-02-08 12"},"coordinates":[5949,5905]},{"type":"Point","properties":{"Station_ID":"BRAM1","Station_Nam":"BRASSUA DAM","Latitude":"45.66020","Longitude":"-69.81190","Snowdepth":"24.000","Units":"in","Rept_Date":"2020-02-08 12"},"coordinates":[6437,6493]},{"type":"Point","properties":{"Station_ID":"WI-VL-14","Station_Nam":"BOULDER JUNCTION 1.4 NE, WI","Latitude":"46.12840","Longitude":"-89.62470","Snowdepth":"23.500","Units":"in","Rept_Date":"2020-02-08 14"},"coordinates":[1787,6764]},{"type":"Point","properties":{"Station_ID":"MN-IT-23","Station_Nam":"BOVEY 13.4 N, MN","Latitude":"47.48855","Longitude":"-93.43497","Snowdepth":"23.500","Units":"in","Rept_Date":"2020-02-08 13"},"coordinates":[893,7550]},{"type":"Point","properties":{"Station_ID":"SVBQ6","Station_Nam":"SAVANT BASE","Latitude":"50.28730","Longitude":"-90.65670","Snowdepth":"23.230","Units":"in","Rept_Date":"2020-02-09 06"},"coordinates":[1545,9167]},{"type":"Point","properties":{"Station_ID":"WI-WB-2","Station_Nam":"STONE LAKE 2.0 NW, WI","Latitude":"45.85960","Longitude":"-91.57710","Snowdepth":"23.000","Units":"in","Rept_Date":"2020-02-08 13"},"coordinates":[1329,6608]},{"type":"Point","properties":{"Station_ID":"WI-BY-14","Station_Nam":"ASHLAND 9.8 W, WI","Latitude":"46.59742","Longitude":"-91.07856","Snowdepth":"23.000","Units":"in","Rept_Date":"2020-02-08 13"},"coordinates":[1446,7035]},{"type":"Point","properties":{"Station_ID":"VT-CH-4","Station_Nam":"UNDERHILL 4.4 NNE, VT","Latitude":"44.58774","Longitude":"-72.92250","Snowdepth":"23.000","Units":"in","Rept_Date":"2020-02-08 12"},"coordinates":[5707,5873]},{"type":"Point","properties":{"Station_ID":"TOHM5","Station_Nam":"TWO HARBORS WWTP","Latitude":"47.01760","Longitude":"-91.66480","Snowdepth":"23.000","Units":"in","Rept_Date":"2020-02-08 13"},"coordinates":[1308,7277]},{"type":"Point","properties":{"Station_ID":"NUNV1","Station_Nam":"NORTH UNDERHILL","Latitude":"44.58760","Longitude":"-72.92150","Snowdepth":"23.000","Units":"in","Rept_Date":"2020-02-08 12"},"coordinates":[5707,5873]},{"type":"Point","properties":{"Station_ID":"MALN6","Station_Nam":"MALONE","Latitude":"44.84180","Longitude":"-74.30600","Snowdepth":"23.000","Units":"in","Rept_Date":"2020-02-08 12"},"coordinates":[5382,6020]},{"type":"Point","properties":{"Station_ID":"IRMM4","Station_Nam":"WWTP","Latitude":"46.46670","Longitude":"-90.18330","Snowdepth":"23.000","Units":"in","Rept_Date":"2020-02-08 13"},"coordinates":[1656,6959]},{"type":"Point","properties":{"Station_ID":"COKM5","Station_Nam":"COOK","Latitude":"47.85060","Longitude":"-92.69250","Snowdepth":"23.000","Units":"in","Rept_Date":"2020-02-08 12"},"coordinates":[1067,7759]},{"type":"Point","properties":{"Station_ID":"BRDM1","Station_Nam":"BRIDGEWATER","Latitude":"46.42870","Longitude":"-67.84370","Snowdepth":"23.000","Units":"in","Rept_Date":"2020-02-08 23"},"coordinates":[6899,6937]},{"type":"Point","properties":{"Station_ID":"QLM","Station_Nam":"QLM","Latitude":"48.92030","Longitude":"-70.25280","Snowdepth":"22.598","Units":"in","Rept_Date":"2020-02-08 12"},"coordinates":[6333,8377]},{"type":"Point","properties":{"Station_ID":"VT-WS-7","Station_Nam":"MIDDLESEX 3.1 ENE, VT","Latitude":"44.31799","Longitude":"-72.62650","Snowdepth":"22.500","Units":"in","Rept_Date":"2020-02-08 13"},"coordinates":[5776,5717]},{"type":"Point","properties":{"Station_ID":"QCX","Station_Nam":"QCX","Latitude":"51.32830","Longitude":"-70.08060","Snowdepth":"22.244","Units":"in","Rept_Date":"2020-02-08 12"},"coordinates":[6374,9769]},{"type":"Point","properties":{"Station_ID":"WTRM4","Station_Nam":"WATERSMEET 12WSW","Latitude":"46.22310","Longitude":"-89.40850","Snowdepth":"22.000","Units":"in","Rept_Date":"2020-02-08 12"},"coordinates":[1838,6818]},{"type":"Point","properties":{"Station_ID":"VT-CH-11","Station_Nam":"UNDERHILL 5.1 NNE, VT","Latitude":"44.59811","Longitude":"-72.91880","Snowdepth":"22.000","Units":"in","Rept_Date":"2020-02-08 13"},"coordinates":[5708,5879]},{"type":"Point","properties":{"Station_ID":"TOGM5","Station_Nam":"CELINA 2E","Latitude":"47.86630","Longitude":"-93.02660","Snowdepth":"22.000","Units":"in","Rept_Date":"2020-02-08 14"},"coordinates":[989,7768]},{"type":"Point","properties":{"Station_ID":"RKWM1","Station_Nam":"MOOSEHEAD LAKE","Latitude":"45.58330","Longitude":"-69.71670","Snowdepth":"22.000","Units":"in","Rept_Date":"2020-02-08 12"},"coordinates":[6459,6448]},{"type":"Point","properties":{"Station_ID":"RHIW3","Station_Nam":"RHINELANDER","Latitude":"45.59860","Longitude":"-89.45080","Snowdepth":"22.000","Units":"in","Rept_Date":"2020-02-08 13"},"coordinates":[1828,6457]},{"type":"Point","properties":{"Station_ID":"RDFN6","Station_Nam":"REDFIELD 8N","Latitude":"43.64130","Longitude":"-75.88400","Snowdepth":"22.000","Units":"in","Rept_Date":"2020-02-08 12"},"coordinates":[5012,5326]},{"type":"Point","properties":{"Station_ID":"NH-CS-4","Station_Nam":"PITTSBURG 6.1 NE, NH","Latitude":"45.11060","Longitude":"-71.29760","Snowdepth":"22.000","Units":"in","Rept_Date":"2020-02-08 12"},"coordinates":[6088,6175]},{"type":"Point","properties":{"Station_ID":"MN-SL-108","Station_Nam":"IRON JUNCTION 3.4 NNW, MN","Latitude":"47.46150","Longitude":"-92.63130","Snowdepth":"22.000","Units":"in","Rept_Date":"2020-02-08 13"},"coordinates":[1081,7534]},{"type":"Point","properties":{"Station_ID":"KABM5","Station_Nam":"KABETOGAMA LAKE VISITOR CTR","Latitude":"48.40880","Longitude":"-93.04840","Snowdepth":"22.000","Units":"in","Rept_Date":"2020-02-08 13"},"coordinates":[983,8081]},{"type":"Point","properties":{"Station_ID":"EGRW3","Station_Nam":"EAGLE RIVER-SOUTH","Latitude":"45.91360","Longitude":"-89.24360","Snowdepth":"22.000","Units":"in","Rept_Date":"2020-02-08 13"},"coordinates":[1876,6639]},{"type":"Point","properties":{"Station_ID":"CRVW3","Station_Nam":"CRIVITZ HIGH FALLS","Latitude":"45.35750","Longitude":"-88.19190","Snowdepth":"22.000","Units":"in","Rept_Date":"2020-02-08 13"},"coordinates":[2123,6318]},{"type":"Point","properties":{"Station_ID":"KABQ6","Station_Nam":"CAB LAKE","Latitude":"49.59950","Longitude":"-89.17990","Snowdepth":"21.770","Units":"in","Rept_Date":"2020-02-09 06"},"coordinates":[1891,8770]},{"type":"Point","properties":{"Station_ID":"QYR","Station_Nam":"QYR","Latitude":"48.87220","Longitude":"-75.61470","Snowdepth":"21.457","Units":"in","Rept_Date":"2020-02-08 12"},"coordinates":[5075,8349]},{"type":"Point","properties":{"Station_ID":"QLP","Station_Nam":"QLP","Latitude":"48.13920","Longitude":"-72.63830","Snowdepth":"21.181","Units":"in","Rept_Date":"2020-02-08 12"},"coordinates":[5774,7926]},{"type":"Point","properties":{"Station_ID":"TRIQ6","Station_Nam":"TRIO LAKE","Latitude":"49.22880","Longitude":"-87.22920","Snowdepth":"21.140","Units":"in","Rept_Date":"2020-02-09 06"},"coordinates":[2349,8555]},{"type":"Point","properties":{"Station_ID":"QTM","Station_Nam":"QTM","Latitude":"51.05780","Longitude":"-72.57190","Snowdepth":"21.063","Units":"in","Rept_Date":"2020-02-08 12"},"coordinates":[5789,9612]},{"type":"Point","properties":{"Station_ID":"WLKM5","Station_Nam":"AH-GWAH-CHING","Latitude":"47.15000","Longitude":"-94.65000","Snowdepth":"21.000","Units":"in","Rept_Date":"2020-02-08 15"},"coordinates":[608,7354]},{"type":"Point","properties":{"Station_ID":"WI-BY-2","Station_Nam":"MELLEN 18.6 SW, WI","Latitude":"46.16937","Longitude":"-90.98090","Snowdepth":"21.000","Units":"in","Rept_Date":"2020-02-08 13"},"coordinates":[1469,6787]},{"type":"Point","properties":{"Station_ID":"VT-ES-1","Station_Nam":"GRANBY 1.4 NW, VT","Latitude":"44.58330","Longitude":"-71.77870","Snowdepth":"21.000","Units":"in","Rept_Date":"2020-02-08 14"},"coordinates":[5975,5871]},{"type":"Point","properties":{"Station_ID":"VT-CL-18","Station_Nam":"WHEELOCK 1.6 S, VT","Latitude":"44.56491","Longitude":"-72.08830","Snowdepth":"21.000","Units":"in","Rept_Date":"2020-02-08 12"},"coordinates":[5903,5860]},{"type":"Point","properties":{"Station_ID":"NY-ES-6","Station_Nam":"OLMSTEDVILLE 4.6 NNE, NY","Latitude":"43.83350","Longitude":"-73.89780","Snowdepth":"21.000","Units":"in","Rept_Date":"2020-02-08 13"},"coordinates":[5478,5437]},{"type":"Point","properties":{"Station_ID":"LEIM5","Station_Nam":"ORR 3E","Latitude":"48.05810","Longitude":"-92.75220","Snowdepth":"21.000","Units":"in","Rept_Date":"2020-02-08 12"},"coordinates":[1053,7879]},{"type":"Point","properties":{"Station_ID":"INDN6","Station_Nam":"INDIAN LAKE","Latitude":"43.75500","Longitude":"-74.27560","Snowdepth":"21.000","Units":"in","Rept_Date":"2020-02-08 13"},"coordinates":[5389,5392]},{"type":"Point","properties":{"Station_ID":"EMBM5","Station_Nam":"EMBARASS,MN","Latitude":"47.65810","Longitude":"-92.19580","Snowdepth":"21.000","Units":"in","Rept_Date":"2020-02-08 12"},"coordinates":[1184,7648]},{"type":"Point","properties":{"Station_ID":"CMKW3","Station_Nam":"CLAM LAKE 4W","Latitude":"46.16940","Longitude":"-90.98080","Snowdepth":"21.000","Units":"in","Rept_Date":"2020-02-08 13"},"coordinates":[1469,6787]},{"type":"Point","properties":{"Station_ID":"CLKM4","Station_Nam":"CLARKSBURG","Latitude":"46.49910","Longitude":"-87.84500","Snowdepth":"21.000","Units":"in","Rept_Date":"2020-02-08 12"},"coordinates":[2205,6978]},{"type":"Point","properties":{"Station_ID":"AURW3","Station_Nam":"AURORA","Latitude":"45.77000","Longitude":"-88.11810","Snowdepth":"21.000","Units":"in","Rept_Date":"2020-02-08 13"},"coordinates":[2141,6556]},{"type":"Point","properties":{"Station_ID":"QIQ","Station_Nam":"QIQ","Latitude":"49.82390","Longitude":"-68.54310","Snowdepth":"20.787","Units":"in","Rept_Date":"2020-02-08 12"},"coordinates":[6735,8899]},{"type":"Point","properties":{"Station_ID":"MN-IT-17","Station_Nam":"GRAND RAPIDS 6.1 N, MN","Latitude":"47.31165","Longitude":"-93.55036","Snowdepth":"20.500","Units":"in","Rept_Date":"2020-02-08 13"},"coordinates":[866,7447]},{"type":"Point","properties":{"Station_ID":"MN-BK-6","Station_Nam":"LAKE PARK 6.0 S, MN","Latitude":"46.79850","Longitude":"-96.12180","Snowdepth":"20.500","Units":"in","Rept_Date":"2020-02-08 13"},"coordinates":[262,7151]},{"type":"Point","properties":{"Station_ID":"CAN-QC-16","Station_Nam":"SAINT-ARMAND 3.6 W, CAN","Latitude":"45.02631","Longitude":"-73.08795","Snowdepth":"20.500","Units":"in","Rept_Date":"2020-02-08 12"},"coordinates":[5668,6127]},{"type":"Point","properties":{"Station_ID":"QMD","Station_Nam":"QMD","Latitude":"49.29060","Longitude":"-75.84500","Snowdepth":"20.236","Units":"in","Rept_Date":"2020-02-08 12"},"coordinates":[5021,8591]},{"type":"Point","properties":{"Station_ID":"WTRW3","Station_Nam":"WINTER","Latitude":"45.79920","Longitude":"-90.99470","Snowdepth":"20.000","Units":"in","Rept_Date":"2020-02-08 15"},"coordinates":[1465,6573]},{"type":"Point","properties":{"Station_ID":"WTNM4","Station_Nam":"WATTON 2WSW","Latitude":"46.52660","Longitude":"-88.64240","Snowdepth":"20.000","Units":"in","Rept_Date":"2020-02-08 13"},"coordinates":[2017,6994]},{"type":"Point","properties":{"Station_ID":"VT-WS-30","Station_Nam":"WOODBURY 3.4 NNW, VT","Latitude":"44.48825","Longitude":"-72.43258","Snowdepth":"20.000","Units":"in","Rept_Date":"2020-02-08 12"},"coordinates":[5822,5816]},{"type":"Point","properties":{"Station_ID":"VT-WS-19","Station_Nam":"WATERBURY 3.0 NW, VT","Latitude":"44.36060","Longitude":"-72.80770","Snowdepth":"20.000","Units":"in","Rept_Date":"2020-02-08 11"},"coordinates":[5734,5742]},{"type":"Point","properties":{"Station_ID":"NY-HR-18","Station_Nam":"SALISBURY CENTER 1.8 NW, NY","Latitude":"43.16260","Longitude":"-74.80880","Snowdepth":"20.000","Units":"in","Rept_Date":"2020-02-08 11"},"coordinates":[5264,5050]},{"type":"Point","properties":{"Station_ID":"NY-CL-12","Station_Nam":"SARANAC 0.8 SSE, NY","Latitude":"44.63980","Longitude":"-73.73848","Snowdepth":"20.000","Units":"in","Rept_Date":"2020-02-08 12"},"coordinates":[5515,5903]},{"type":"Point","properties":{"Station_ID":"NCBN6","Station_Nam":"NEWCOMB","Latitude":"43.97070","Longitude":"-74.22200","Snowdepth":"20.000","Units":"in","Rept_Date":"2020-02-08 12"},"coordinates":[5402,5517]},{"type":"Point","properties":{"Station_ID":"MN-IT-1","Station_Nam":"GRAND RAPIDS 2.0 E, MN","Latitude":"47.22266","Longitude":"-93.49600","Snowdepth":"20.000","Units":"in","Rept_Date":"2020-02-08 14"},"coordinates":[878,7396]},{"type":"Point","properties":{"Station_ID":"ME-PN-45","Station_Nam":"MILLINOCKET 2.7 ESE, ME","Latitude":"45.65002","Longitude":"-68.64472","Snowdepth":"20.000","Units":"in","Rept_Date":"2020-02-08 12"},"coordinates":[6711,6487]},{"type":"Point","properties":{"Station_ID":"IFSM5","Station_Nam":"INTERNATIONAL FALLS SNOW","Latitude":"48.57780","Longitude":"-93.39640","Snowdepth":"20.000","Units":"in","Rept_Date":"2020-02-09 06"},"coordinates":[902,8179]},{"type":"Point","properties":{"Station_ID":"ELYM5","Station_Nam":"ELY","Latitude":"47.90560","Longitude":"-91.82830","Snowdepth":"20.000","Units":"in","Rept_Date":"2020-02-08 16"},"coordinates":[1270,7791]},{"type":"Point","properties":{"Station_ID":"CORV1","Station_Nam":"CORINTH","Latitude":"44.00690","Longitude":"-72.31940","Snowdepth":"20.000","Units":"in","Rept_Date":"2020-02-08 12"},"coordinates":[5848,5537]},{"type":"Point","properties":{"Station_ID":"AVTW3","Station_Nam":"ARBOR VITAE-JOHNSON LAKE","Latitude":"45.89940","Longitude":"-89.72670","Snowdepth":"20.000","Units":"in","Rept_Date":"2020-02-08 13"},"coordinates":[1763,6631]},{"type":"Point","properties":{"Station_ID":"AGNW3","Station_Nam":"ARGONNE-1.5 NW","Latitude":"45.67360","Longitude":"-88.90380","Snowdepth":"20.000","Units":"in","Rept_Date":"2020-02-08 13"},"coordinates":[1956,6501]},{"type":"Point","properties":{"Station_ID":"WI-BY-22","Station_Nam":"MASON 11.5 WNW, WI","Latitude":"46.50198","Longitude":"-91.28339","Snowdepth":"19.500","Units":"in","Rept_Date":"2020-02-08 14"},"coordinates":[1398,6979]},{"type":"Point","properties":{"Station_ID":"NY-OD-2","Station_Nam":"POINT ROCK 0.6 SE, NY","Latitude":"43.37335","Longitude":"-75.53840","Snowdepth":"19.500","Units":"in","Rept_Date":"2020-02-08 12"},"coordinates":[5093,5171]},{"type":"Point","properties":{"Station_ID":"SOCQ6","Station_Nam":"SOCKET LAKE","Latitude":"50.77870","Longitude":"-91.79300","Snowdepth":"19.170","Units":"in","Rept_Date":"2020-02-09 06"},"coordinates":[1278,9451]},{"type":"Point","properties":{"Station_ID":"WORV1","Station_Nam":"WORCESTER 2 W","Latitude":"44.37470","Longitude":"-72.58220","Snowdepth":"19.000","Units":"in","Rept_Date":"2020-02-08 12"},"coordinates":[5787,5750]},{"type":"Point","properties":{"Station_ID":"WI-BY-1","Station_Nam":"BAYFIELD 8.8 N, WI","Latitude":"46.93855","Longitude":"-90.83490","Snowdepth":"19.000","Units":"in","Rept_Date":"2020-02-08 13"},"coordinates":[1503,7232]},{"type":"Point","properties":{"Station_ID":"VT-OL-2","Station_Nam":"BARTON 3.0 ENE, VT","Latitude":"44.75863","Longitude":"-72.11680","Snowdepth":"19.000","Units":"in","Rept_Date":"2020-02-08 12"},"coordinates":[5896,5972]},{"type":"Point","properties":{"Station_ID":"TOPN6","Station_Nam":"TUPPER LAKE SUNMOUNT","Latitude":"44.23070","Longitude":"-74.43820","Snowdepth":"19.000","Units":"in","Rept_Date":"2020-02-08 12"},"coordinates":[5351,5667]},{"type":"Point","properties":{"Station_ID":"SULW3","Station_Nam":"SUMMIT LAKE","Latitude":"45.37880","Longitude":"-89.19410","Snowdepth":"19.000","Units":"in","Rept_Date":"2020-02-08 11"},"coordinates":[1888,6330]},{"type":"Point","properties":{"Station_ID":"PTBN3","Station_Nam":"PITTSBURG RESERVOIR","Latitude":"45.04690","Longitude":"-71.38300","Snowdepth":"19.000","Units":"in","Rept_Date":"2020-02-08 12"},"coordinates":[6068,6139]},{"type":"Point","properties":{"Station_ID":"MIEM4","Station_Nam":"MICHIGAMME 3WNW","Latitude":"46.54530","Longitude":"-88.18000","Snowdepth":"19.000","Units":"in","Rept_Date":"2020-02-08 13"},"coordinates":[2126,7004]},{"type":"Point","properties":{"Station_ID":"JOHV1","Station_Nam":"JOHNSON 2 N","Latitude":"44.65790","Longitude":"-72.67850","Snowdepth":"19.000","Units":"in","Rept_Date":"2020-02-08 12"},"coordinates":[5764,5914]},{"type":"Point","properties":{"Station_ID":"INL","Station_Nam":"FALLS INTERNATIONAL ARPT","Latitude":"48.56640","Longitude":"-93.40310","Snowdepth":"19.000","Units":"in","Rept_Date":"2020-02-09 00"},"coordinates":[900,8172]},{"type":"Point","properties":{"Station_ID":"GHMN3","Station_Nam":"PINKHAM NOTCH","Latitude":"44.25800","Longitude":"-71.25250","Snowdepth":"19.000","Units":"in","Rept_Date":"2020-02-08 15"},"coordinates":[6099,5683]},{"type":"Point","properties":{"Station_ID":"BFHW3","Station_Nam":"BAYFIELD FISH HATCHERY","Latitude":"46.78670","Longitude":"-90.86420","Snowdepth":"19.000","Units":"in","Rept_Date":"2020-02-08 14"},"coordinates":[1496,7144]},{"type":"Point","properties":{"Station_ID":"VT-OL-5","Station_Nam":"DERBY CENTER 1.8 NW, VT","Latitude":"44.97200","Longitude":"-72.14780","Snowdepth":"18.500","Units":"in","Rept_Date":"2020-02-08 12"},"coordinates":[5889,6095]},{"type":"Point","properties":{"Station_ID":"VT-LM-7","Station_Nam":"HYDE PARK 2.9 NE, VT","Latitude":"44.62080","Longitude":"-72.57250","Snowdepth":"18.500","Units":"in","Rept_Date":"2020-02-08 12"},"coordinates":[5789,5892]},{"type":"Point","properties":{"Station_ID":"CATQ6","Station_Nam":"CAT LAKE","Latitude":"51.72690","Longitude":"-91.82210","Snowdepth":"18.030","Units":"in","Rept_Date":"2020-02-09 06"},"coordinates":[1271,9999]},{"type":"Point","properties":{"Station_ID":"WI-ON-6","Station_Nam":"RHINELANDER 5.2 N, WI","Latitude":"45.71388","Longitude":"-89.42150","Snowdepth":"18.000","Units":"in","Rept_Date":"2020-02-08 14"},"coordinates":[1835,6524]},{"type":"Point","properties":{"Station_ID":"VT-WS-15","Station_Nam":"EAST CALAIS 1.5 SW, VT","Latitude":"44.35523","Longitude":"-72.45540","Snowdepth":"18.000","Units":"in","Rept_Date":"2020-02-08 12"},"coordinates":[5816,5739]},{"type":"Point","properties":{"Station_ID":"VT-WS-10","Station_Nam":"NORTHFIELD 1.5 N, VT","Latitude":"44.16986","Longitude":"-72.65200","Snowdepth":"18.000","Units":"in","Rept_Date":"2020-02-08 12"},"coordinates":[5770,5632]},{"type":"Point","properties":{"Station_ID":"VT-CH-13","Station_Nam":"RICHMOND 3.4 SSE, VT","Latitude":"44.36084","Longitude":"-72.96400","Snowdepth":"18.000","Units":"in","Rept_Date":"2020-02-08 12"},"coordinates":[5697,5742]},{"type":"Point","properties":{"Station_ID":"STMM4","Station_Nam":"STAMBAUGH 2SSE","Latitude":"46.05550","Longitude":"-88.62780","Snowdepth":"18.000","Units":"in","Rept_Date":"2020-02-08 13"},"coordinates":[2021,6721]},{"type":"Point","properties":{"Station_ID":"RPDM4","Station_Nam":"RAPID RIVER 4SSE","Latitude":"45.87270","Longitude":"-86.94960","Snowdepth":"18.000","Units":"in","Rept_Date":"2020-02-08 14"},"coordinates":[2415,6616]},{"type":"Point","properties":{"Station_ID":"RHLW3","Station_Nam":"RHINELANDER 4NE","Latitude":"45.65270","Longitude":"-89.30740","Snowdepth":"18.000","Units":"in","Rept_Date":"2020-02-08 12"},"coordinates":[1861,6489]},{"type":"Point","properties":{"Station_ID":"OCON6","Station_Nam":"OSCEOLA","Latitude":"43.49910","Longitude":"-75.71210","Snowdepth":"18.000","Units":"in","Rept_Date":"2020-02-08 12"},"coordinates":[5052,5244]},{"type":"Point","properties":{"Station_ID":"NPTV1","Station_Nam":"NEWPORT","Latitude":"44.94900","Longitude":"-72.19120","Snowdepth":"18.000","Units":"in","Rept_Date":"2020-02-08 12"},"coordinates":[5878,6082]},{"type":"Point","properties":{"Station_ID":"MTQM4","Station_Nam":"MANISTIQUE WWTP","Latitude":"45.95120","Longitude":"-86.25130","Snowdepth":"18.000","Units":"in","Rept_Date":"2020-02-08 12"},"coordinates":[2579,6661]},{"type":"Point","properties":{"Station_ID":"MN2EOYHJ","Station_Nam":"OGILVIE 5.6 N","Latitude":"45.91288","Longitude":"-93.42259","Snowdepth":"18.000","Units":"in","Rept_Date":"2020-02-08 14"},"coordinates":[896,6639]},{"type":"Point","properties":{"Station_ID":"MN-CW-22","Station_Nam":"FORT RIPLEY 0.8 N, MN","Latitude":"46.18089","Longitude":"-94.36510","Snowdepth":"18.000","Units":"in","Rept_Date":"2020-02-08 13"},"coordinates":[674,6794]},{"type":"Point","properties":{"Station_ID":"MCLN8","Station_Nam":"MC LEOD,ND","Latitude":"46.40250","Longitude":"-97.23810","Snowdepth":"18.000","Units":"in","Rept_Date":"2020-02-08 13"},"coordinates":[0,6922]},{"type":"Point","properties":{"Station_ID":"JEFV1","Station_Nam":"JEFFERSONVILLE","Latitude":"44.58430","Longitude":"-72.78700","Snowdepth":"18.000","Units":"in","Rept_Date":"2020-02-08 12"},"coordinates":[5739,5871]},{"type":"Point","properties":{"Station_ID":"HGHN6","Station_Nam":"HIGHMARKET","Latitude":"43.57520","Longitude":"-75.52070","Snowdepth":"18.000","Units":"in","Rept_Date":"2020-02-08 11"},"coordinates":[5097,5288]},{"type":"Point","properties":{"Station_ID":"GFDN6","Station_Nam":"CHASES LAKE","Latitude":"43.75920","Longitude":"-75.29980","Snowdepth":"18.000","Units":"in","Rept_Date":"2020-02-08 11"},"coordinates":[5149,5394]},{"type":"Point","properties":{"Station_ID":"COTM5","Station_Nam":"COTTON","Latitude":"47.16870","Longitude":"-92.46290","Snowdepth":"18.000","Units":"in","Rept_Date":"2020-02-08 13"},"coordinates":[1121,7365]},{"type":"Point","properties":{"Station_ID":"CAN-NB-2","Station_Nam":"GRAFTON 2.7 NNE, CA","Latitude":"46.17062","Longitude":"-67.55330","Snowdepth":"18.000","Units":"in","Rept_Date":"2020-02-08 11"},"coordinates":[6967,6788]},{"type":"Point","properties":{"Station_ID":"CAN-NB-18","Station_Nam":"MCLEOD HILL 1.1 ENE, CA","Latitude":"46.02725","Longitude":"-66.67460","Snowdepth":"18.000","Units":"in","Rept_Date":"2020-02-08 12"},"coordinates":[7173,6705]},{"type":"Point","properties":{"Station_ID":"BRAM5","Station_Nam":"BRAINERD","Latitude":"46.34320","Longitude":"-94.20900","Snowdepth":"18.000","Units":"in","Rept_Date":"2020-02-08 13"},"coordinates":[711,6888]},{"type":"Point","properties":{"Station_ID":"ASTW3","Station_Nam":"ATHELSTANE","Latitude":"45.42500","Longitude":"-88.05750","Snowdepth":"18.000","Units":"in","Rept_Date":"2020-02-08 12"},"coordinates":[2155,6357]},{"type":"Point","properties":{"Station_ID":"CAN-QC-34","Station_Nam":"SAINT-JEAN-SUR-RICHELIEU 4.8 NNW, CAN","Latitude":"45.34868","Longitude":"-73.30298","Snowdepth":"17.700","Units":"in","Rept_Date":"2020-02-08 12"},"coordinates":[5618,6313]},{"type":"Point","properties":{"Station_ID":"QCO","Station_Nam":"QCO","Latitude":"51.45280","Longitude":"-72.20110","Snowdepth":"17.677","Units":"in","Rept_Date":"2020-02-08 12"},"coordinates":[5876,9841]},{"type":"Point","properties":{"Station_ID":"NY-ER-77","Station_Nam":"COLDEN 2.4 ENE, NY","Latitude":"42.65088","Longitude":"-78.61060","Snowdepth":"17.500","Units":"in","Rept_Date":"2020-02-08 13"},"coordinates":[4372,4754]},{"type":"Point","properties":{"Station_ID":"WI-SR-1","Station_Nam":"HAYWARD 9.2 NNE, WI","Latitude":"46.13255","Longitude":"-91.40500","Snowdepth":"17.400","Units":"in","Rept_Date":"2020-02-08 12"},"coordinates":[1369,6766]},{"type":"Point","properties":{"Station_ID":"CAN-NB-64","Station_Nam":"KESWICK RIDGE 4.0 SE, CAN","Latitude":"45.97014","Longitude":"-66.85538","Snowdepth":"17.300","Units":"in","Rept_Date":"2020-02-08 13"},"coordinates":[7131,6672]},{"type":"Point","properties":{"Station_ID":"QWG","Station_Nam":"QWG","Latitude":"48.48890","Longitude":"-73.45940","Snowdepth":"17.165","Units":"in","Rept_Date":"2020-02-08 12"},"coordinates":[5581,8128]},{"type":"Point","properties":{"Station_ID":"QLI","Station_Nam":"QLI","Latitude":"50.27080","Longitude":"-73.92280","Snowdepth":"17.047","Units":"in","Rept_Date":"2020-02-08 12"},"coordinates":[5472,9157]},{"type":"Point","properties":{"Station_ID":"WRTS2","Station_Nam":"WATERTOWN,SD","Latitude":"44.90280","Longitude":"-97.11360","Snowdepth":"17.000","Units":"in","Rept_Date":"2020-02-08 15"},"coordinates":[29,6055]},{"type":"Point","properties":{"Station_ID":"VT-CL-14","Station_Nam":"LYNDONVILLE 1.1 W, VT","Latitude":"44.53582","Longitude":"-72.02867","Snowdepth":"17.000","Units":"in","Rept_Date":"2020-02-08 12"},"coordinates":[5917,5843]},{"type":"Point","properties":{"Station_ID":"VT-CH-38","Station_Nam":"WILLISTON 0.2 WSW, VT","Latitude":"44.43669","Longitude":"-73.07154","Snowdepth":"17.000","Units":"in","Rept_Date":"2020-02-08 12"},"coordinates":[5672,5786]},{"type":"Point","properties":{"Station_ID":"TETM5","Station_Nam":"TETTEGOUCHE STATE PARK","Latitude":"47.33900","Longitude":"-91.19590","Snowdepth":"17.000","Units":"in","Rept_Date":"2020-02-08 14"},"coordinates":[1418,7463]},{"type":"Point","properties":{"Station_ID":"TAKW3","Station_Nam":"RICE RESERVOIR NO. 2","Latitude":"45.53770","Longitude":"-89.73220","Snowdepth":"17.000","Units":"in","Rept_Date":"2020-02-08 13"},"coordinates":[1762,6422]},{"type":"Point","properties":{"Station_ID":"SLNV1","Station_Nam":"SOUTH LINCOLN","Latitude":"44.07460","Longitude":"-72.97180","Snowdepth":"17.000","Units":"in","Rept_Date":"2020-02-08 12"},"coordinates":[5695,5577]},{"type":"Point","properties":{"Station_ID":"PRGN6","Station_Nam":"PERRYSBURG","Latitude":"42.46470","Longitude":"-79.00310","Snowdepth":"17.000","Units":"in","Rept_Date":"2020-02-08 13"},"coordinates":[4280,4646]},{"type":"Point","properties":{"Station_ID":"NVLV1","Station_Nam":"NASHVILLE","Latitude":"44.44970","Longitude":"-72.92640","Snowdepth":"17.000","Units":"in","Rept_Date":"2020-02-08 11"},"coordinates":[5706,5793]},{"type":"Point","properties":{"Station_ID":"NSNM1","Station_Nam":"NEW SHARON","Latitude":"44.63330","Longitude":"-70.00000","Snowdepth":"17.000","Units":"in","Rept_Date":"2020-02-08 12"},"coordinates":[6393,5899]},{"type":"Point","properties":{"Station_ID":"MXON6","Station_Nam":"MEXICO","Latitude":"43.43830","Longitude":"-76.26560","Snowdepth":"17.000","Units":"in","Rept_Date":"2020-02-08 12"},"coordinates":[4922,5209]},{"type":"Point","properties":{"Station_ID":"MN-BK-10","Station_Nam":"DETROIT LAKES 5.7 N, MN","Latitude":"46.88666","Longitude":"-95.84444","Snowdepth":"17.000","Units":"in","Rept_Date":"2020-02-08 10"},"coordinates":[327,7202]},{"type":"Point","properties":{"Station_ID":"MI-AT-6","Station_Nam":"MANCELONA 0.5 ESE, MI","Latitude":"44.89981","Longitude":"-85.05100","Snowdepth":"17.000","Units":"in","Rept_Date":"2020-02-08 13"},"coordinates":[2860,6053]},{"type":"Point","properties":{"Station_ID":"LBKV1","Station_Nam":"LYE BROOK","Latitude":"43.05000","Longitude":"-73.03330","Snowdepth":"17.000","Units":"in","Rept_Date":"2020-02-09 06"},"coordinates":[5681,4984]},{"type":"Point","properties":{"Station_ID":"JEFN3","Station_Nam":"JEFFERSON","Latitude":"44.41690","Longitude":"-71.50080","Snowdepth":"17.000","Units":"in","Rept_Date":"2020-02-08 12"},"coordinates":[6040,5774]},{"type":"Point","properties":{"Station_ID":"JCBM4","Station_Nam":"JACOBSVILLE","Latitude":"47.00830","Longitude":"-88.43180","Snowdepth":"17.000","Units":"in","Rept_Date":"2020-02-08 12"},"coordinates":[2067,7272]},{"type":"Point","properties":{"Station_ID":"GLRM5","Station_Nam":"GLACIAL RIDGE","Latitude":"47.71670","Longitude":"-96.26670","Snowdepth":"17.000","Units":"in","Rept_Date":"2020-02-09 06"},"coordinates":[228,7681]},{"type":"Point","properties":{"Station_ID":"ESGM1","Station_Nam":"EAST SANGERVILLE","Latitude":"45.13690","Longitude":"-69.28060","Snowdepth":"17.000","Units":"in","Rept_Date":"2020-02-08 12"},"coordinates":[6562,6191]},{"type":"Point","properties":{"Station_ID":"ENFV1","Station_Nam":"ENOSBURG FALLS 2","Latitude":"44.90960","Longitude":"-72.81370","Snowdepth":"17.000","Units":"in","Rept_Date":"2020-02-08 13"},"coordinates":[5732,6059]},{"type":"Point","properties":{"Station_ID":"CAN-NS-61","Station_Nam":"ASPY  BAY 0.9 SW, CA","Latitude":"46.91621","Longitude":"-60.49460","Snowdepth":"17.000","Units":"in","Rept_Date":"2020-02-08 11"},"coordinates":[8624,7219]},{"type":"Point","properties":{"Station_ID":"ATY","Station_Nam":"WATERTOWN MUNICIPAL AIRPORT","Latitude":"44.91420","Longitude":"-97.15440","Snowdepth":"17.000","Units":"in","Rept_Date":"2020-02-09 00"},"coordinates":[20,6062]},{"type":"Point","properties":{"Station_ID":"CAN-QC-51","Station_Nam":"BELOEIL 0.7 NW, CAN","Latitude":"45.58049","Longitude":"-73.21218","Snowdepth":"16.900","Units":"in","Rept_Date":"2020-02-08 12"},"coordinates":[5639,6447]},{"type":"Point","properties":{"Station_ID":"CAN-PE-19","Station_Nam":"CHARLOTTETOWN 6.5 NNW, CAN","Latitude":"46.29235","Longitude":"-63.17271","Snowdepth":"16.900","Units":"in","Rept_Date":"2020-02-08 12"},"coordinates":[7995,6858]},{"type":"Point","properties":{"Station_ID":"NY-SL-6","Station_Nam":"HANNAWA FALLS 0.1 SW, NY","Latitude":"44.61154","Longitude":"-74.97190","Snowdepth":"16.500","Units":"in","Rept_Date":"2020-02-08 12"},"coordinates":[5226,5887]},{"type":"Point","properties":{"Station_ID":"NY-ES-7","Station_Nam":"KEESEVILLE 0.8 SE, NY","Latitude":"44.49504","Longitude":"-73.47109","Snowdepth":"16.500","Units":"in","Rept_Date":"2020-02-08 12"},"coordinates":[5578,5820]},{"type":"Point","properties":{"Station_ID":"MI-OT-17","Station_Nam":"GAYLORD 4.1 S, MI","Latitude":"44.96388","Longitude":"-84.68467","Snowdepth":"16.500","Units":"in","Rept_Date":"2020-02-08 12"},"coordinates":[2946,6091]},{"type":"Point","properties":{"Station_ID":"CAN-NB-96","Station_Nam":"SAINT-IGNACE 2.6 NE, CAN","Latitude":"46.71424","Longitude":"-65.05609","Snowdepth":"16.500","Units":"in","Rept_Date":"2020-02-08 11"},"coordinates":[7553,7102]},{"type":"Point","properties":{"Station_ID":"ZNOM4","Station_Nam":"NORWAY","Latitude":"45.77810","Longitude":"-87.89560","Snowdepth":"16.000","Units":"in","Rept_Date":"2020-02-08 13"},"coordinates":[2193,6561]},{"type":"Point","properties":{"Station_ID":"WLKW3","Station_Nam":"WHITE LAKE 1 SE","Latitude":"45.14520","Longitude":"-88.74160","Snowdepth":"16.000","Units":"in","Rept_Date":"2020-02-08 14"},"coordinates":[1994,6195]},{"type":"Point","properties":{"Station_ID":"WI-RS-1","Station_Nam":"LADYSMITH 2.8 WNW, WI","Latitude":"45.48180","Longitude":"-91.14680","Snowdepth":"16.000","Units":"in","Rept_Date":"2020-02-08 13"},"coordinates":[1430,6390]},{"type":"Point","properties":{"Station_ID":"WI-PR-6","Station_Nam":"PHILLIPS 1.3 S, WI","Latitude":"45.67677","Longitude":"-90.39543","Snowdepth":"16.000","Units":"in","Rept_Date":"2020-02-08 12"},"coordinates":[1606,6503]},{"type":"Point","properties":{"Station_ID":"VT-CL-27","Station_Nam":"DANVILLE 0.4 N, VT","Latitude":"44.41769","Longitude":"-72.13936","Snowdepth":"16.000","Units":"in","Rept_Date":"2020-02-08 12"},"coordinates":[5891,5775]},{"type":"Point","properties":{"Station_ID":"THEN6","Station_Nam":"THERESA 4 NW","Latitude":"44.27540","Longitude":"-75.83690","Snowdepth":"16.000","Units":"in","Rept_Date":"2020-02-08 14"},"coordinates":[5023,5693]},{"type":"Point","properties":{"Station_ID":"RSTW3","Station_Nam":"ROSHOLT","Latitude":"44.62710","Longitude":"-89.30600","Snowdepth":"16.000","Units":"in","Rept_Date":"2020-02-08 14"},"coordinates":[1862,5896]},{"type":"Point","properties":{"Station_ID":"RLKW3","Station_Nam":"REST LAKE","Latitude":"46.12220","Longitude":"-89.87720","Snowdepth":"16.000","Units":"in","Rept_Date":"2020-02-08 14"},"coordinates":[1728,6760]},{"type":"Point","properties":{"Station_ID":"RHRW3","Station_Nam":"RHINELANDER WJFW TV-12","Latitude":"45.62220","Longitude":"-89.41000","Snowdepth":"16.000","Units":"in","Rept_Date":"2020-02-09 04"},"coordinates":[1837,6471]},{"type":"Point","properties":{"Station_ID":"RGNM1","Station_Nam":"RANGELEY 2NW","Latitude":"44.98940","Longitude":"-70.67220","Snowdepth":"16.000","Units":"in","Rept_Date":"2020-02-08 17"},"coordinates":[6235,6105]},{"type":"Point","properties":{"Station_ID":"RANM1","Station_Nam":"RANGELEY","Latitude":"44.98910","Longitude":"-70.67190","Snowdepth":"16.000","Units":"in","Rept_Date":"2020-02-08 15"},"coordinates":[6235,6105]},{"type":"Point","properties":{"Station_ID":"NY-OG-2","Station_Nam":"DE WITT 1.4 WSW, NY","Latitude":"43.03333","Longitude":"-76.10000","Snowdepth":"16.000","Units":"in","Rept_Date":"2020-02-08 13"},"coordinates":[4961,4975]},{"type":"Point","properties":{"Station_ID":"NY-ER-63","Station_Nam":"GLENWOOD 1.5 SE, NY","Latitude":"42.60195","Longitude":"-78.63910","Snowdepth":"16.000","Units":"in","Rept_Date":"2020-02-08 12"},"coordinates":[4365,4726]},{"type":"Point","properties":{"Station_ID":"NUMN3","Station_Nam":"NORTHUMBERLAND","Latitude":"44.52830","Longitude":"-71.50440","Snowdepth":"16.000","Units":"in","Rept_Date":"2020-02-08 13"},"coordinates":[6040,5839]},{"type":"Point","properties":{"Station_ID":"MQRW3","Station_Nam":"MINOCQUA","Latitude":"45.88630","Longitude":"-89.73220","Snowdepth":"16.000","Units":"in","Rept_Date":"2020-02-08 12"},"coordinates":[1762,6624]},{"type":"Point","properties":{"Station_ID":"KBTV","Station_Nam":"BURLINGTON INTERNATIONAL","Latitude":"44.46666","Longitude":"-73.15000","Snowdepth":"16.000","Units":"in","Rept_Date":"2020-02-08 18"},"coordinates":[5653,5803]},{"type":"Point","properties":{"Station_ID":"FLDM5","Station_Nam":"FLOODWOOD,MN","Latitude":"47.00000","Longitude":"-92.91670","Snowdepth":"16.000","Units":"in","Rept_Date":"2020-02-08 14"},"coordinates":[1014,7267]},{"type":"Point","properties":{"Station_ID":"DFXM1","Station_Nam":"DOVER-FOXCROFT","Latitude":"45.18720","Longitude":"-69.18350","Snowdepth":"16.000","Units":"in","Rept_Date":"2020-02-08 12"},"coordinates":[6584,6220]},{"type":"Point","properties":{"Station_ID":"COUW3","Station_Nam":"COUDERAY,WI","Latitude":"45.86670","Longitude":"-91.45000","Snowdepth":"16.000","Units":"in","Rept_Date":"2020-02-08 22"},"coordinates":[1359,6612]},{"type":"Point","properties":{"Station_ID":"BTV","Station_Nam":"BURLINGTON, VT","Latitude":"44.47140","Longitude":"-73.15330","Snowdepth":"16.000","Units":"in","Rept_Date":"2020-02-09 01"},"coordinates":[5653,5806]},{"type":"Point","properties":{"Station_ID":"BRUM5","Station_Nam":"BRUNO,MN","Latitude":"46.28330","Longitude":"-92.50000","Snowdepth":"16.000","Units":"in","Rept_Date":"2020-02-08 14"},"coordinates":[1112,6853]},{"type":"Point","properties":{"Station_ID":"WI-SR-5","Station_Nam":"HAYWARD 9.7 NE, WI","Latitude":"46.12030","Longitude":"-91.35370","Snowdepth":"15.500","Units":"in","Rept_Date":"2020-02-08 14"},"coordinates":[1381,6759]},{"type":"Point","properties":{"Station_ID":"VT-BN-3","Station_Nam":"LANDGROVE 1.1 NNE, VT","Latitude":"43.29092","Longitude":"-72.83260","Snowdepth":"15.500","Units":"in","Rept_Date":"2020-02-08 12"},"coordinates":[5728,5124]},{"type":"Point","properties":{"Station_ID":"NY-ER-166","Station_Nam":"BOSTON 2.5 NE, NY","Latitude":"42.65480","Longitude":"-78.70300","Snowdepth":"15.500","Units":"in","Rept_Date":"2020-02-08 12"},"coordinates":[4350,4756]},{"type":"Point","properties":{"Station_ID":"NH-CR-15","Station_Nam":"JACKSON 3.7 NW, NH","Latitude":"44.19069","Longitude":"-71.22598","Snowdepth":"15.500","Units":"in","Rept_Date":"2020-02-08 12"},"coordinates":[6105,5644]},{"type":"Point","properties":{"Station_ID":"CAN-ON-208","Station_Nam":"PAKENHAM 7.8 NNW, CAN","Latitude":"45.39166","Longitude":"-76.34111","Snowdepth":"15.500","Units":"in","Rept_Date":"2020-02-08 12"},"coordinates":[4904,6338]},{"type":"Point","properties":{"Station_ID":"CAN-NS-163","Station_Nam":"SYDNEY MINES 2.2 WNW, CAN","Latitude":"46.24851","Longitude":"-60.25161","Snowdepth":"15.400","Units":"in","Rept_Date":"2020-02-08 12"},"coordinates":[8681,6833]},{"type":"Point","properties":{"Station_ID":"MFU","Station_Nam":"MFU","Latitude":"51.52170","Longitude":"-66.91110","Snowdepth":"15.236","Units":"in","Rept_Date":"2020-02-08 12"},"coordinates":[7118,9880]},{"type":"Point","properties":{"Station_ID":"WI-PR-8","Station_Nam":"PHILLIPS 0.4 SSW, WI","Latitude":"45.69086","Longitude":"-90.40200","Snowdepth":"15.000","Units":"in","Rept_Date":"2020-02-08 13"},"coordinates":[1605,6511]},{"type":"Point","properties":{"Station_ID":"WI-MT-14","Station_Nam":"MOSINEE 2.7 WSW, WI","Latitude":"44.77240","Longitude":"-89.73441","Snowdepth":"15.000","Units":"in","Rept_Date":"2020-02-08 13"},"coordinates":[1761,5980]},{"type":"Point","properties":{"Station_ID":"WAIV1","Station_Nam":"WAITSFIELD","Latitude":"44.17560","Longitude":"-72.79610","Snowdepth":"15.000","Units":"in","Rept_Date":"2020-02-08 12"},"coordinates":[5736,5635]},{"type":"Point","properties":{"Station_ID":"VT-WS-34","Station_Nam":"MORETOWN 5.2 E, VT","Latitude":"44.23933","Longitude":"-72.65826","Snowdepth":"15.000","Units":"in","Rept_Date":"2020-02-08 12"},"coordinates":[5769,5672]},{"type":"Point","properties":{"Station_ID":"VT-WS-11","Station_Nam":"WAITSFIELD 1.8 SE, VT","Latitude":"44.17551","Longitude":"-72.79540","Snowdepth":"15.000","Units":"in","Rept_Date":"2020-02-08 12"},"coordinates":[5737,5635]},{"type":"Point","properties":{"Station_ID":"VT-OG-11","Station_Nam":"VERSHIRE 1.5 ESE, VT","Latitude":"43.96138","Longitude":"-72.29777","Snowdepth":"15.000","Units":"in","Rept_Date":"2020-02-08 13"},"coordinates":[5853,5511]},{"type":"Point","properties":{"Station_ID":"VT-ES-3","Station_Nam":"LUNENBURG 2.3 NNW, VT","Latitude":"44.49324","Longitude":"-71.70446","Snowdepth":"15.000","Units":"in","Rept_Date":"2020-02-08 12"},"coordinates":[5993,5819]},{"type":"Point","properties":{"Station_ID":"SSMM4","Station_Nam":"SAULT STE MARIE","Latitude":"46.48660","Longitude":"-84.40250","Snowdepth":"15.000","Units":"in","Rept_Date":"2020-02-08 13"},"coordinates":[3013,6971]},{"type":"Point","properties":{"Station_ID":"SBNM5","Station_Nam":"SABIN","Latitude":"46.77690","Longitude":"-96.65610","Snowdepth":"15.000","Units":"in","Rept_Date":"2020-02-08 14"},"coordinates":[137,7138]},{"type":"Point","properties":{"Station_ID":"SAUW3","Station_Nam":"WAUSAU WSAW TV","Latitude":"44.94630","Longitude":"-89.62220","Snowdepth":"15.000","Units":"in","Rept_Date":"2020-02-09 05"},"coordinates":[1788,6080]},{"type":"Point","properties":{"Station_ID":"RRVM4","Station_Nam":"RAPID RIVER 9S","Latitude":"45.78750","Longitude":"-86.93920","Snowdepth":"15.000","Units":"in","Rept_Date":"2020-02-08 16"},"coordinates":[2417,6567]},{"type":"Point","properties":{"Station_ID":"PLBN6","Station_Nam":"PLATTSBURGH COOP","Latitude":"44.69180","Longitude":"-73.45560","Snowdepth":"15.000","Units":"in","Rept_Date":"2020-02-08 16"},"coordinates":[5582,5933]},{"type":"Point","properties":{"Station_ID":"OTTM5","Station_Nam":"OTTERTAIL,MN","Latitude":"46.41670","Longitude":"-95.56670","Snowdepth":"15.000","Units":"in","Rept_Date":"2020-02-08 14"},"coordinates":[392,6930]},{"type":"Point","properties":{"Station_ID":"NY-OG-46","Station_Nam":"BALDWINSVILLE 3.5 NE, NY","Latitude":"43.19506","Longitude":"-76.28830","Snowdepth":"15.000","Units":"in","Rept_Date":"2020-02-08 12"},"coordinates":[4917,5068]},{"type":"Point","properties":{"Station_ID":"NY-OG-12","Station_Nam":"CLAY 4.6 NW, NY","Latitude":"43.20000","Longitude":"-76.26000","Snowdepth":"15.000","Units":"in","Rept_Date":"2020-02-08 12"},"coordinates":[4924,5071]},{"type":"Point","properties":{"Station_ID":"NY-CL-7","Station_Nam":"PERU 4.1 ESE, NY","Latitude":"44.56461","Longitude":"-73.45390","Snowdepth":"15.000","Units":"in","Rept_Date":"2020-02-08 11"},"coordinates":[5582,5860]},{"type":"Point","properties":{"Station_ID":"NH-MR-6","Station_Nam":"DANBURY 2.2 ESE, NH","Latitude":"43.52000","Longitude":"-71.81900","Snowdepth":"15.000","Units":"in","Rept_Date":"2020-02-08 13"},"coordinates":[5966,5256]},{"type":"Point","properties":{"Station_ID":"MNLGGILP","Station_Nam":"LONG PRAIRIE 1.1 WSW","Latitude":"45.96913","Longitude":"-94.88686","Snowdepth":"15.000","Units":"in","Rept_Date":"2020-02-08 12"},"coordinates":[552,6671]},{"type":"Point","properties":{"Station_ID":"MN-PK-15","Station_Nam":"MENTOR 2.5 SSW, MN","Latitude":"47.66625","Longitude":"-96.17328","Snowdepth":"15.000","Units":"in","Rept_Date":"2020-02-08 13"},"coordinates":[250,7652]},{"type":"Point","properties":{"Station_ID":"MN-AT-5","Station_Nam":"TAMARACK 1.4 SW, MN","Latitude":"46.63760","Longitude":"-93.14554","Snowdepth":"15.000","Units":"in","Rept_Date":"2020-02-08 11"},"coordinates":[961,7058]},{"type":"Point","properties":{"Station_ID":"MLLW3","Station_Nam":"MERRILL 8W","Latitude":"45.17810","Longitude":"-89.84810","Snowdepth":"15.000","Units":"in","Rept_Date":"2020-02-08 12"},"coordinates":[1735,6214]},{"type":"Point","properties":{"Station_ID":"MI-OT-16","Station_Nam":"GAYLORD 2.2 SSE, MI","Latitude":"44.99441","Longitude":"-84.65820","Snowdepth":"15.000","Units":"in","Rept_Date":"2020-02-08 13"},"coordinates":[2953,6108]},{"type":"Point","properties":{"Station_ID":"ME-FR-22","Station_Nam":"FARMINGTON 4.8 NNW, ME","Latitude":"44.73396","Longitude":"-70.18007","Snowdepth":"15.000","Units":"in","Rept_Date":"2020-02-08 15"},"coordinates":[6350,5958]},{"type":"Point","properties":{"Station_ID":"LNGM5","Station_Nam":"LONG PRAIRIE","Latitude":"45.96460","Longitude":"-94.88920","Snowdepth":"15.000","Units":"in","Rept_Date":"2020-02-08 12"},"coordinates":[551,6669]},{"type":"Point","properties":{"Station_ID":"JKMM1","Station_Nam":"JACKMAN","Latitude":"45.62600","Longitude":"-70.24600","Snowdepth":"15.000","Units":"in","Rept_Date":"2020-02-08 12"},"coordinates":[6335,6473]},{"type":"Point","properties":{"Station_ID":"CAN-PE-7","Station_Nam":"MORELL 1.4 NNW, CA","Latitude":"46.42741","Longitude":"-62.70870","Snowdepth":"15.000","Units":"in","Rept_Date":"2020-02-08 12"},"coordinates":[8104,6936]},{"type":"Point","properties":{"Station_ID":"CAN-ON-42","Station_Nam":"VANKLEEK HILL 3.4 S, CA","Latitude":"45.48987","Longitude":"-74.64570","Snowdepth":"15.000","Units":"in","Rept_Date":"2020-02-08 12"},"coordinates":[5302,6395]},{"type":"Point","properties":{"Station_ID":"ATAN6","Station_Nam":"ATTICA 7 SW","Latitude":"42.81070","Longitude":"-78.39790","Snowdepth":"15.000","Units":"in","Rept_Date":"2020-02-08 11"},"coordinates":[4422,4846]},{"type":"Point","properties":{"Station_ID":"ANJM4","Station_Nam":"SNOW PAID OBSERVER FOR KANJ","Latitude":"46.48670","Longitude":"-84.40260","Snowdepth":"15.000","Units":"in","Rept_Date":"2020-02-08 18"},"coordinates":[3013,6971]},{"type":"Point","properties":{"Station_ID":"ANJ","Station_Nam":"SAULT STE MARIE","Latitude":"46.46670","Longitude":"-84.36670","Snowdepth":"15.000","Units":"in","Rept_Date":"2020-02-09 00"},"coordinates":[3021,6959]},{"type":"Point","properties":{"Station_ID":"QGT","Station_Nam":"QGT","Latitude":"49.64720","Longitude":"-67.62640","Snowdepth":"14.528","Units":"in","Rept_Date":"2020-02-08 12"},"coordinates":[6950,8797]},{"type":"Point","properties":{"Station_ID":"WI-LN-2","Station_Nam":"MERRILL 7.0 W, WI","Latitude":"45.17746","Longitude":"-89.84820","Snowdepth":"14.500","Units":"in","Rept_Date":"2020-02-08 12"},"coordinates":[1734,6214]},{"type":"Point","properties":{"Station_ID":"VT-OG-10","Station_Nam":"BRAINTREE 2.8 SW, VT","Latitude":"43.93570","Longitude":"-72.74830","Snowdepth":"14.500","Units":"in","Rept_Date":"2020-02-08 11"},"coordinates":[5748,5496]},{"type":"Point","properties":{"Station_ID":"NH-GR-49","Station_Nam":"PLYMOUTH 3.7 N, NH","Latitude":"43.79048","Longitude":"-71.68413","Snowdepth":"14.500","Units":"in","Rept_Date":"2020-02-08 12"},"coordinates":[5997,5412]},{"type":"Point","properties":{"Station_ID":"ME-OX-2","Station_Nam":"HARTFORD 1.4 N, ME","Latitude":"44.39318","Longitude":"-70.34760","Snowdepth":"14.500","Units":"in","Rept_Date":"2020-02-08 12"},"coordinates":[6311,5761]},{"type":"Point","properties":{"Station_ID":"WSWN6","Station_Nam":"WARSAW","Latitude":"42.74300","Longitude":"-78.21000","Snowdepth":"14.000","Units":"in","Rept_Date":"2020-02-08 12"},"coordinates":[4466,4807]},{"type":"Point","properties":{"Station_ID":"WRSN6","Station_Nam":"WARSAW 6SW","Latitude":"42.68550","Longitude":"-78.22020","Snowdepth":"14.000","Units":"in","Rept_Date":"2020-02-08 12"},"coordinates":[4463,4774]},{"type":"Point","properties":{"Station_ID":"WI-DN-1","Station_Nam":"BOYCEVILLE 3.3 N, WI","Latitude":"45.08913","Longitude":"-92.02760","Snowdepth":"14.000","Units":"in","Rept_Date":"2020-02-08 13"},"coordinates":[1223,6163]},{"type":"Point","properties":{"Station_ID":"VRGV1","Station_Nam":"VERGENNES","Latitude":"44.17190","Longitude":"-73.24720","Snowdepth":"14.000","Units":"in","Rept_Date":"2020-02-08 11"},"coordinates":[5631,5633]},{"type":"Point","properties":{"Station_ID":"NY-TM-5","Station_Nam":"FREEVILLE 1.5 NE, NY","Latitude":"42.52530","Longitude":"-76.32180","Snowdepth":"14.000","Units":"in","Rept_Date":"2020-02-08 12"},"coordinates":[4909,4681]},{"type":"Point","properties":{"Station_ID":"NY-OG-72","Station_Nam":"LIVERPOOL 4.5 N, NY","Latitude":"43.17016","Longitude":"-76.22385","Snowdepth":"14.000","Units":"in","Rept_Date":"2020-02-08 14"},"coordinates":[4932,5054]},{"type":"Point","properties":{"Station_ID":"NY-OG-61","Station_Nam":"SKANEATELES 0.8 NNW, NY","Latitude":"42.95538","Longitude":"-76.43362","Snowdepth":"14.000","Units":"in","Rept_Date":"2020-02-08 13"},"coordinates":[4883,4930]},{"type":"Point","properties":{"Station_ID":"NY-HR-12","Station_Nam":"DOLGEVILLE 1.9 NW, NY","Latitude":"43.12320","Longitude":"-74.79740","Snowdepth":"14.000","Units":"in","Rept_Date":"2020-02-08 12"},"coordinates":[5267,5027]},{"type":"Point","properties":{"Station_ID":"NSFN3","Station_Nam":"NORTH STRATFORD","Latitude":"44.68190","Longitude":"-71.58570","Snowdepth":"14.000","Units":"in","Rept_Date":"2020-02-08 12"},"coordinates":[6021,5928]},{"type":"Point","properties":{"Station_ID":"NH-CR-26","Station_Nam":"CENTER SANDWICH 4.9 E, NH","Latitude":"43.80976","Longitude":"-71.34150","Snowdepth":"14.000","Units":"in","Rept_Date":"2020-02-08 12"},"coordinates":[6078,5424]},{"type":"Point","properties":{"Station_ID":"MRAM4","Station_Nam":"MORAN","Latitude":"45.99030","Longitude":"-84.83610","Snowdepth":"14.000","Units":"in","Rept_Date":"2020-02-08 13"},"coordinates":[2911,6684]},{"type":"Point","properties":{"Station_ID":"MN-MR-13","Station_Nam":"LITTLE FALLS 8.0 NE, MN","Latitude":"46.06785","Longitude":"-94.24789","Snowdepth":"14.000","Units":"in","Rept_Date":"2020-02-08 13"},"coordinates":[702,6729]},{"type":"Point","properties":{"Station_ID":"MI-OT-4","Station_Nam":"GAYLORD 1.7 WNW, MI","Latitude":"45.03280","Longitude":"-84.71090","Snowdepth":"14.000","Units":"in","Rept_Date":"2020-02-08 13"},"coordinates":[2940,6130]},{"type":"Point","properties":{"Station_ID":"ME-FR-4","Station_Nam":"NEW SHARON 2.0 NW, ME","Latitude":"44.66582","Longitude":"-70.02720","Snowdepth":"14.000","Units":"in","Rept_Date":"2020-02-08 12"},"coordinates":[6386,5918]},{"type":"Point","properties":{"Station_ID":"ME-CM-98","Station_Nam":"SEBAGO 2.4 ESE, ME","Latitude":"43.88000","Longitude":"-70.63000","Snowdepth":"14.000","Units":"in","Rept_Date":"2020-02-08 14"},"coordinates":[6245,5464]},{"type":"Point","properties":{"Station_ID":"KINM1","Station_Nam":"KINGFIELD","Latitude":"44.95950","Longitude":"-70.17530","Snowdepth":"14.000","Units":"in","Rept_Date":"2020-02-08 14"},"coordinates":[6352,6088]},{"type":"Point","properties":{"Station_ID":"GAYM4","Station_Nam":"GAYLORD","Latitude":"45.03320","Longitude":"-84.71130","Snowdepth":"14.000","Units":"in","Rept_Date":"2020-02-08 13"},"coordinates":[2940,6131]},{"type":"Point","properties":{"Station_ID":"ESDN3","Station_Nam":"EAST SANDWICH","Latitude":"43.80990","Longitude":"-71.34250","Snowdepth":"14.000","Units":"in","Rept_Date":"2020-02-08 11"},"coordinates":[6078,5424]},{"type":"Point","properties":{"Station_ID":"COLN3","Station_Nam":"COLEBROOK 3SW","Latitude":"44.86100","Longitude":"-71.53920","Snowdepth":"14.000","Units":"in","Rept_Date":"2020-02-08 12"},"coordinates":[6031,6031]},{"type":"Point","properties":{"Station_ID":"CODN6","Station_Nam":"COLDEN","Latitude":"42.64720","Longitude":"-78.71110","Snowdepth":"14.000","Units":"in","Rept_Date":"2020-02-08 12"},"coordinates":[4348,4752]},{"type":"Point","properties":{"Station_ID":"CAN-NS-103","Station_Nam":"TRAFALGAR 4.9 WSW, CAN","Latitude":"45.26217","Longitude":"-62.72285","Snowdepth":"14.000","Units":"in","Rept_Date":"2020-02-08 12"},"coordinates":[8101,6263]},{"type":"Point","properties":{"Station_ID":"BREW3","Station_Nam":"SURING","Latitude":"44.99580","Longitude":"-88.37860","Snowdepth":"14.000","Units":"in","Rept_Date":"2020-02-08 12"},"coordinates":[2079,6109]},{"type":"Point","properties":{"Station_ID":"APXM4","Station_Nam":"GAYLORD 9SSW","Latitude":"44.90720","Longitude":"-84.71880","Snowdepth":"14.000","Units":"in","Rept_Date":"2020-02-09 05"},"coordinates":[2938,6058]},{"type":"Point","properties":{"Station_ID":"ALXM5","Station_Nam":"ALEXANDRIA","Latitude":"45.87820","Longitude":"-95.38270","Snowdepth":"14.000","Units":"in","Rept_Date":"2020-02-08 12"},"coordinates":[436,6619]},{"type":"Point","properties":{"Station_ID":"42.2002_079.8021","Station_Nam":"2 ESE North East  Trained Spotter (CLE0183)","Latitude":"42.20018","Longitude":"-79.80210","Snowdepth":"14.000","Units":"in","Rept_Date":"2020-02-09 00"},"coordinates":[4092,4493]},{"type":"Point","properties":{"Station_ID":"FTHQ6","Station_Nam":"FORT HOPE","Latitude":"51.55820","Longitude":"-87.90510","Snowdepth":"13.740","Units":"in","Rept_Date":"2020-02-09 06"},"coordinates":[2191,9902]},{"type":"Point","properties":{"Station_ID":"ND-CS-25","Station_Nam":"FARGO 2.1 N, ND","Latitude":"46.90816","Longitude":"-96.77937","Snowdepth":"13.500","Units":"in","Rept_Date":"2020-02-08 14"},"coordinates":[108,7214]},{"type":"Point","properties":{"Station_ID":"MI-CP-14","Station_Nam":"SAULT STE. MARIE 2.2 E, MI","Latitude":"46.48933","Longitude":"-84.31971","Snowdepth":"13.500","Units":"in","Rept_Date":"2020-02-08 12"},"coordinates":[3032,6972]},{"type":"Point","properties":{"Station_ID":"CAN-ON-245","Station_Nam":"PHELPSTON 3.1 ESE, CAN","Latitude":"44.50564","Longitude":"-79.81035","Snowdepth":"13.500","Units":"in","Rept_Date":"2020-02-08 15"},"coordinates":[4090,5826]},{"type":"Point","properties":{"Station_ID":"CAN-NB-97","Station_Nam":"NEW MARYLAND 0.6 NW, CAN","Latitude":"45.90112","Longitude":"-66.68739","Snowdepth":"13.400","Units":"in","Rept_Date":"2020-02-08 12"},"coordinates":[7170,6632]},{"type":"Point","properties":{"Station_ID":"WYON6","Station_Nam":"WYOMING 3W","Latitude":"42.82060","Longitude":"-78.14810","Snowdepth":"13.000","Units":"in","Rept_Date":"2020-02-08 12"},"coordinates":[4480,4852]},{"type":"Point","properties":{"Station_ID":"WUNW3","Station_Nam":"WAUSAU-NORTHEAST","Latitude":"44.97310","Longitude":"-89.61690","Snowdepth":"13.000","Units":"in","Rept_Date":"2020-02-08 13"},"coordinates":[1789,6096]},{"type":"Point","properties":{"Station_ID":"WSTN6","Station_Nam":"WESTMORELAND 4 N","Latitude":"43.15950","Longitude":"-75.46110","Snowdepth":"13.000","Units":"in","Rept_Date":"2020-02-08 12"},"coordinates":[5111,5048]},{"type":"Point","properties":{"Station_ID":"WI-CK-3","Station_Nam":"COLBY 5.9 WSW, WI","Latitude":"44.87209","Longitude":"-90.42463","Snowdepth":"13.000","Units":"in","Rept_Date":"2020-02-09 01"},"coordinates":[1599,6037]},{"type":"Point","properties":{"Station_ID":"WI-BT-14","Station_Nam":"OAKLAND 9.0 ENE, WI","Latitude":"45.95184","Longitude":"-92.21653","Snowdepth":"13.000","Units":"in","Rept_Date":"2020-02-08 13"},"coordinates":[1179,6661]},{"type":"Point","properties":{"Station_ID":"VT-WR-2","Station_Nam":"POMFRET 2.6 N, VT","Latitude":"43.74230","Longitude":"-72.52550","Snowdepth":"13.000","Units":"in","Rept_Date":"2020-02-08 12"},"coordinates":[5800,5385]},{"type":"Point","properties":{"Station_ID":"VT-WR-17","Station_Nam":"ROCHESTER 2.3 NE, VT","Latitude":"43.89418","Longitude":"-72.76992","Snowdepth":"13.000","Units":"in","Rept_Date":"2020-02-08 12"},"coordinates":[5743,5472]},{"type":"Point","properties":{"Station_ID":"VT-LM-1","Station_Nam":"STOWE 0.2 SW, VT","Latitude":"44.46399","Longitude":"-72.69070","Snowdepth":"13.000","Units":"in","Rept_Date":"2020-02-08 12"},"coordinates":[5761,5802]},{"type":"Point","properties":{"Station_ID":"VT-BN-12","Station_Nam":"STAMFORD 5.0 NNE, VT","Latitude":"42.82000","Longitude":"-73.02000","Snowdepth":"13.000","Units":"in","Rept_Date":"2020-02-08 21"},"coordinates":[5684,4852]},{"type":"Point","properties":{"Station_ID":"SGVN6","Station_Nam":"SPRINGVILLE","Latitude":"42.54970","Longitude":"-78.57670","Snowdepth":"13.000","Units":"in","Rept_Date":"2020-02-08 22"},"coordinates":[4380,4695]},{"type":"Point","properties":{"Station_ID":"SD-CD-30","Station_Nam":"WATERTOWN 2.3 E, SD","Latitude":"44.91604","Longitude":"-97.11925","Snowdepth":"13.000","Units":"in","Rept_Date":"2020-02-08 13"},"coordinates":[28,6063]},{"type":"Point","properties":{"Station_ID":"PLFV1","Station_Nam":"PLAINFIELD","Latitude":"44.27610","Longitude":"-72.41500","Snowdepth":"13.000","Units":"in","Rept_Date":"2020-02-08 12"},"coordinates":[5826,5693]},{"type":"Point","properties":{"Station_ID":"PEKN6","Station_Nam":"PECK LAKE","Latitude":"43.11500","Longitude":"-74.42360","Snowdepth":"13.000","Units":"in","Rept_Date":"2020-02-08 13"},"coordinates":[5355,5022]},{"type":"Point","properties":{"Station_ID":"NY-WY-10","Station_Nam":"WYOMING COOP, NY","Latitude":"42.82060","Longitude":"-78.14810","Snowdepth":"13.000","Units":"in","Rept_Date":"2020-02-08 12"},"coordinates":[4480,4852]},{"type":"Point","properties":{"Station_ID":"NY-OS-15","Station_Nam":"MINETTO 0.1 SE, NY","Latitude":"43.39771","Longitude":"-76.47960","Snowdepth":"13.000","Units":"in","Rept_Date":"2020-02-08 12"},"coordinates":[4872,5185]},{"type":"Point","properties":{"Station_ID":"NY-OD-21","Station_Nam":"ROME 4.8 SSE, NY","Latitude":"43.16000","Longitude":"-75.46000","Snowdepth":"13.000","Units":"in","Rept_Date":"2020-02-08 12"},"coordinates":[5111,5048]},{"type":"Point","properties":{"Station_ID":"NY-JF-30","Station_Nam":"WEST CARTHAGE 0.3 ENE, NY","Latitude":"43.97493","Longitude":"-75.61640","Snowdepth":"13.000","Units":"in","Rept_Date":"2020-02-08 12"},"coordinates":[5075,5519]},{"type":"Point","properties":{"Station_ID":"NY-CR-5","Station_Nam":"MARATHON 1.0 NW, NY","Latitude":"42.45161","Longitude":"-76.04370","Snowdepth":"13.000","Units":"in","Rept_Date":"2020-02-08 12"},"coordinates":[4974,4639]},{"type":"Point","properties":{"Station_ID":"MI-DL-1","Station_Nam":"GARDEN CORNERS 0.8 NW, MI","Latitude":"45.89815","Longitude":"-86.54850","Snowdepth":"13.000","Units":"in","Rept_Date":"2020-02-08 13"},"coordinates":[2509,6630]},{"type":"Point","properties":{"Station_ID":"ME-YK-3","Station_Nam":"HOLLIS CENTER 5.4 NW, ME","Latitude":"43.64750","Longitude":"-70.67510","Snowdepth":"13.000","Units":"in","Rept_Date":"2020-02-08 12"},"coordinates":[6234,5330]},{"type":"Point","properties":{"Station_ID":"ME-CM-86","Station_Nam":"POWNAL 4.1 S, ME","Latitude":"43.85370","Longitude":"-70.17210","Snowdepth":"13.000","Units":"in","Rept_Date":"2020-02-08 12"},"coordinates":[6352,5449]},{"type":"Point","properties":{"Station_ID":"LOWN6","Station_Nam":"LOWVILLE","Latitude":"43.79280","Longitude":"-75.48290","Snowdepth":"13.000","Units":"in","Rept_Date":"2020-02-08 12"},"coordinates":[5106,5414]},{"type":"Point","properties":{"Station_ID":"LGRN8","Station_Nam":"LIDGERWOOD,ND","Latitude":"46.06670","Longitude":"-97.16670","Snowdepth":"13.000","Units":"in","Rept_Date":"2020-02-08 13"},"coordinates":[17,6728]},{"type":"Point","properties":{"Station_ID":"LBRM5","Station_Nam":"LAKE BRONSON DAM","Latitude":"48.72410","Longitude":"-96.62180","Snowdepth":"13.000","Units":"in","Rept_Date":"2020-02-08 14"},"coordinates":[145,8264]},{"type":"Point","properties":{"Station_ID":"KSYR","Station_Nam":"SYRACUSE HANCOCK INTERNATIONAL  AIRPORT","Latitude":"43.11666","Longitude":"-76.10000","Snowdepth":"13.000","Units":"in","Rept_Date":"2020-02-09 00"},"coordinates":[4961,5023]},{"type":"Point","properties":{"Station_ID":"KGFK","Station_Nam":"GRAND FORKS INTERNATIONAL","Latitude":"47.95000","Longitude":"-97.18333","Snowdepth":"13.000","Units":"in","Rept_Date":"2020-02-09 00"},"coordinates":[13,7816]},{"type":"Point","properties":{"Station_ID":"HOLM1","Station_Nam":"HOLLIS","Latitude":"43.64750","Longitude":"-70.67490","Snowdepth":"13.000","Units":"in","Rept_Date":"2020-02-08 12"},"coordinates":[6234,5330]},{"type":"Point","properties":{"Station_ID":"GRFN8","Station_Nam":"UNIVERSITY","Latitude":"47.93330","Longitude":"-97.08330","Snowdepth":"13.000","Units":"in","Rept_Date":"2020-02-09 06"},"coordinates":[36,7807]},{"type":"Point","properties":{"Station_ID":"GFK","Station_Nam":"GRAND FORKS INTERNATIONAL AIRPORT","Latitude":"47.94920","Longitude":"-97.17610","Snowdepth":"13.000","Units":"in","Rept_Date":"2020-02-09 00"},"coordinates":[15,7816]},{"type":"Point","properties":{"Station_ID":"GDCM4","Station_Nam":"GARDEN CORNERS","Latitude":"45.89830","Longitude":"-86.54850","Snowdepth":"13.000","Units":"in","Rept_Date":"2020-02-08 13"},"coordinates":[2509,6631]},{"type":"Point","properties":{"Station_ID":"FARM1","Station_Nam":"FARMINGTON","Latitude":"44.68930","Longitude":"-70.15640","Snowdepth":"13.000","Units":"in","Rept_Date":"2020-02-08 12"},"coordinates":[6356,5932]},{"type":"Point","properties":{"Station_ID":"EPTW3","Station_Nam":"EAU PLEINE TENDER","Latitude":"44.77220","Longitude":"-89.76720","Snowdepth":"13.000","Units":"in","Rept_Date":"2020-02-08 13"},"coordinates":[1753,5980]},{"type":"Point","properties":{"Station_ID":"BTLN3","Station_Nam":"BARTLETT","Latitude":"44.08380","Longitude":"-71.29340","Snowdepth":"13.000","Units":"in","Rept_Date":"2020-02-08 12"},"coordinates":[6089,5582]},{"type":"Point","properties":{"Station_ID":"ARTM5","Station_Nam":"ARTICHOKE LAKE 1 E","Latitude":"45.38560","Longitude":"-96.12570","Snowdepth":"13.000","Units":"in","Rept_Date":"2020-02-09 00"},"coordinates":[261,6334]},{"type":"Point","properties":{"Station_ID":"42.0800_080.0143","Station_Nam":"ERIE 5SE  SNOW SPOTTER (X4210800)","Latitude":"42.08000","Longitude":"-80.01430","Snowdepth":"13.000","Units":"in","Rept_Date":"2020-02-09 01"},"coordinates":[4042,4424]},{"type":"Point","properties":{"Station_ID":"VT-CL-23","Station_Nam":"RYEGATE 1.5 N, VT","Latitude":"44.23024","Longitude":"-72.10523","Snowdepth":"12.700","Units":"in","Rept_Date":"2020-02-08 12"},"coordinates":[5899,5667]},{"type":"Point","properties":{"Station_ID":"WI-CH-7","Station_Nam":"CHIPPEWA FALLS 1.2 E, WI","Latitude":"44.92920","Longitude":"-91.36730","Snowdepth":"12.500","Units":"in","Rept_Date":"2020-02-08 13"},"coordinates":[1378,6070]},{"type":"Point","properties":{"Station_ID":"NH-CR-27","Station_Nam":"TAMWORTH 0.4 NNW, NH","Latitude":"43.86449","Longitude":"-71.26610","Snowdepth":"12.500","Units":"in","Rept_Date":"2020-02-08 12"},"coordinates":[6096,5455]},{"type":"Point","properties":{"Station_ID":"CAN-ON-757","Station_Nam":"SAULT STE. MARIE 2.8 ESE - GLFC, CAN","Latitude":"46.50300","Longitude":"-84.30300","Snowdepth":"12.500","Units":"in","Rept_Date":"2020-02-08 13"},"coordinates":[3036,6980]},{"type":"Point","properties":{"Station_ID":"CAN-ON-120","Station_Nam":"DUNROBIN 5.8 NE MIVCA, CA","Latitude":"45.46243","Longitude":"-75.97120","Snowdepth":"12.200","Units":"in","Rept_Date":"2020-02-08 12"},"coordinates":[4991,6379]},{"type":"Point","properties":{"Station_ID":"WILW3","Station_Nam":"RESERVOIR","Latitude":"45.70000","Longitude":"-89.83330","Snowdepth":"12.000","Units":"in","Rept_Date":"2020-02-08 12"},"coordinates":[1738,6516]},{"type":"Point","properties":{"Station_ID":"TOPM1","Station_Nam":"TOPSFIELD","Latitude":"45.43470","Longitude":"-67.72020","Snowdepth":"12.000","Units":"in","Rept_Date":"2020-02-08 12"},"coordinates":[6928,6363]},{"type":"Point","properties":{"Station_ID":"TMWN3","Station_Nam":"TAMWORTH 4","Latitude":"43.86390","Longitude":"-71.26610","Snowdepth":"12.000","Units":"in","Rept_Date":"2020-02-08 12"},"coordinates":[6096,5455]},{"type":"Point","properties":{"Station_ID":"SIBI4","Station_Nam":"SIBLEY","Latitude":"43.40470","Longitude":"-95.74830","Snowdepth":"12.000","Units":"in","Rept_Date":"2020-02-08 13"},"coordinates":[350,5189]},{"type":"Point","properties":{"Station_ID":"SD-BK-9","Station_Nam":"BRUCE 4.1 NE, SD","Latitude":"44.48479","Longitude":"-96.83750","Snowdepth":"12.000","Units":"in","Rept_Date":"2020-02-08 13"},"coordinates":[94,5814]},{"type":"Point","properties":{"Station_ID":"SBOP1","Station_Nam":"SPRINGBORO","Latitude":"41.81660","Longitude":"-80.43330","Snowdepth":"12.000","Units":"in","Rept_Date":"2020-02-08 12"},"coordinates":[3944,4272]},{"type":"Point","properties":{"Station_ID":"RRLW3","Station_Nam":"MERRILL,WI","Latitude":"45.17860","Longitude":"-89.66170","Snowdepth":"12.000","Units":"in","Rept_Date":"2020-02-08 14"},"coordinates":[1778,6215]},{"type":"Point","properties":{"Station_ID":"RCEM5","Station_Nam":"RICE","Latitude":"45.75760","Longitude":"-94.20720","Snowdepth":"12.000","Units":"in","Rept_Date":"2020-02-08 13"},"coordinates":[711,6549]},{"type":"Point","properties":{"Station_ID":"RARM4","Station_Nam":"RAPID RIVER 1 SW","Latitude":"45.91500","Longitude":"-86.98800","Snowdepth":"12.000","Units":"in","Rept_Date":"2020-02-08 12"},"coordinates":[2406,6640]},{"type":"Point","properties":{"Station_ID":"PERV1","Station_Nam":"PERU","Latitude":"43.26670","Longitude":"-72.90000","Snowdepth":"12.000","Units":"in","Rept_Date":"2020-02-08 12"},"coordinates":[5712,5110]},{"type":"Point","properties":{"Station_ID":"PA-CW-8","Station_Nam":"SPRINGBORO 3.0 WNW, PA","Latitude":"41.81654","Longitude":"-80.42540","Snowdepth":"12.000","Units":"in","Rept_Date":"2020-02-08 12"},"coordinates":[3946,4272]},{"type":"Point","properties":{"Station_ID":"NY-TG-15","Station_Nam":"BERKSHIRE 1.9 ENE, NY","Latitude":"42.31910","Longitude":"-76.21940","Snowdepth":"12.000","Units":"in","Rept_Date":"2020-02-08 13"},"coordinates":[4933,4562]},{"type":"Point","properties":{"Station_ID":"NY-OT-4","Station_Nam":"BRIDGEWATER 4.3 SSE, NY","Latitude":"42.81667","Longitude":"-75.23330","Snowdepth":"12.000","Units":"in","Rept_Date":"2020-02-08 12"},"coordinates":[5164,4850]},{"type":"Point","properties":{"Station_ID":"NY-MD-16","Station_Nam":"CHITTENANGO 2.1 ESE, NY","Latitude":"43.03297","Longitude":"-75.83480","Snowdepth":"12.000","Units":"in","Rept_Date":"2020-02-08 13"},"coordinates":[5023,4975]},{"type":"Point","properties":{"Station_ID":"NH-MR-41","Station_Nam":"NEWBURY 1.6 NW, NH","Latitude":"43.33667","Longitude":"-72.06060","Snowdepth":"12.000","Units":"in","Rept_Date":"2020-02-08 12"},"coordinates":[5909,5150]},{"type":"Point","properties":{"Station_ID":"NH-CS-7","Station_Nam":"LANCASTER 0.5 N, NH","Latitude":"44.49611","Longitude":"-71.57640","Snowdepth":"12.000","Units":"in","Rept_Date":"2020-02-08 12"},"coordinates":[6023,5820]},{"type":"Point","properties":{"Station_ID":"NCON3","Station_Nam":"NORTH CONWAY","Latitude":"44.05620","Longitude":"-71.12970","Snowdepth":"12.000","Units":"in","Rept_Date":"2020-02-08 12"},"coordinates":[6128,5566]},{"type":"Point","properties":{"Station_ID":"MN-MR-4","Station_Nam":"LITTLE FALLS 1.2 SW, MN","Latitude":"45.96886","Longitude":"-94.37720","Snowdepth":"12.000","Units":"in","Rept_Date":"2020-02-08 13"},"coordinates":[672,6671]},{"type":"Point","properties":{"Station_ID":"MI-CX-7","Station_Nam":"EAST JORDAN 2.1 NNW, MI","Latitude":"45.18639","Longitude":"-85.14750","Snowdepth":"12.000","Units":"in","Rept_Date":"2020-02-08 13"},"coordinates":[2838,6219]},{"type":"Point","properties":{"Station_ID":"GRBM5","Station_Nam":"GRAND RAPIDS 12N","Latitude":"47.39800","Longitude":"-93.51330","Snowdepth":"12.000","Units":"in","Rept_Date":"2020-02-08 14"},"coordinates":[874,7497]},{"type":"Point","properties":{"Station_ID":"FDRN8","Station_Nam":"FARGO 3S","Latitude":"46.82930","Longitude":"-96.79620","Snowdepth":"12.000","Units":"in","Rept_Date":"2020-02-09 06"},"coordinates":[104,7169]},{"type":"Point","properties":{"Station_ID":"FAR","Station_Nam":"HECTOR INTERNATIONAL ARPT","Latitude":"46.91560","Longitude":"-96.81440","Snowdepth":"12.000","Units":"in","Rept_Date":"2020-02-09 00"},"coordinates":[100,7218]},{"type":"Point","properties":{"Station_ID":"EJNM4","Station_Nam":"EAST JORDAN 2NW","Latitude":"45.18630","Longitude":"-85.14770","Snowdepth":"12.000","Units":"in","Rept_Date":"2020-02-08 13"},"coordinates":[2838,6219]},{"type":"Point","properties":{"Station_ID":"CAN-MB-298","Station_Nam":"GARDENTON 4.2 W - SRRCD, CAN","Latitude":"49.09480","Longitude":"-96.75446","Snowdepth":"12.000","Units":"in","Rept_Date":"2020-02-08 15"},"coordinates":[114,8478]},{"type":"Point","properties":{"Station_ID":"BRLN3","Station_Nam":"BERLIN","Latitude":"44.45350","Longitude":"-71.18540","Snowdepth":"12.000","Units":"in","Rept_Date":"2020-02-08 16"},"coordinates":[6115,5796]},{"type":"Point","properties":{"Station_ID":"BETM1","Station_Nam":"BETHEL 6 SSE","Latitude":"44.32000","Longitude":"-70.75680","Snowdepth":"12.000","Units":"in","Rept_Date":"2020-02-08 12"},"coordinates":[6215,5718]},{"type":"Point","properties":{"Station_ID":"AUBN6","Station_Nam":"AUBURN","Latitude":"42.93270","Longitude":"-76.54470","Snowdepth":"12.000","Units":"in","Rept_Date":"2020-02-08 12"},"coordinates":[4857,4917]},{"type":"Point","properties":{"Station_ID":"41.8275_080.5321","Station_Nam":"MONROE TWP  SNOW SPOTTER (X4180805)","Latitude":"41.82750","Longitude":"-80.53210","Snowdepth":"12.000","Units":"in","Rept_Date":"2020-02-08 14"},"coordinates":[3921,4278]},{"type":"Point","properties":{"Station_ID":"41.8166_080.4333","Station_Nam":"3 WNW Springboro  Co-Op Observer (SBOP1)","Latitude":"41.81660","Longitude":"-80.43330","Snowdepth":"12.000","Units":"in","Rept_Date":"2020-02-08 12"},"coordinates":[3944,4272]},{"type":"Point","properties":{"Station_ID":"41.8165_080.4254","Station_Nam":"3 WNW Springboro  CoCoRaHS (PA-CW-8)","Latitude":"41.81650","Longitude":"-80.42540","Snowdepth":"12.000","Units":"in","Rept_Date":"2020-02-08 12"},"coordinates":[3946,4272]},{"type":"Point","properties":{"Station_ID":"NY-WN-10","Station_Nam":"WALWORTH 1.7 SW, NY","Latitude":"43.12500","Longitude":"-77.29900","Snowdepth":"11.500","Units":"in","Rept_Date":"2020-02-08 12"},"coordinates":[4680,5028]},{"type":"Point","properties":{"Station_ID":"NY-OG-71","Station_Nam":"LIVERPOOL 6.1 NNW, NY","Latitude":"43.18876","Longitude":"-76.25193","Snowdepth":"11.500","Units":"in","Rept_Date":"2020-02-08 11"},"coordinates":[4925,5065]},{"type":"Point","properties":{"Station_ID":"NY-OD-23","Station_Nam":"DURHAMVILLE 3.5 NNW, NY","Latitude":"43.17115","Longitude":"-75.68280","Snowdepth":"11.500","Units":"in","Rept_Date":"2020-02-08 12"},"coordinates":[5059,5054]},{"type":"Point","properties":{"Station_ID":"NY-MD-22","Station_Nam":"ONEIDA 0.4 NW, NY","Latitude":"43.08012","Longitude":"-75.66860","Snowdepth":"11.500","Units":"in","Rept_Date":"2020-02-08 12"},"coordinates":[5062,5002]},{"type":"Point","properties":{"Station_ID":"NY-CN-9","Station_Nam":"NORWICH 5.4 W, NY","Latitude":"42.53356","Longitude":"-75.63060","Snowdepth":"11.500","Units":"in","Rept_Date":"2020-02-08 12"},"coordinates":[5071,4686]},{"type":"Point","properties":{"Station_ID":"NH-MR-45","Station_Nam":"NORTHFIELD 2.8 E, NH","Latitude":"43.43945","Longitude":"-71.53730","Snowdepth":"11.500","Units":"in","Rept_Date":"2020-02-08 12"},"coordinates":[6032,5210]},{"type":"Point","properties":{"Station_ID":"ME-CM-3","Station_Nam":"NEW GLOUCESTER 3.0 SE, ME","Latitude":"43.92372","Longitude":"-70.25790","Snowdepth":"11.500","Units":"in","Rept_Date":"2020-02-08 12"},"coordinates":[6332,5489]},{"type":"Point","properties":{"Station_ID":"ME-CM-125","Station_Nam":"CUMBERLAND CENTER 4.4 NW, ME","Latitude":"43.84640","Longitude":"-70.31340","Snowdepth":"11.500","Units":"in","Rept_Date":"2020-02-08 12"},"coordinates":[6319,5445]},{"type":"Point","properties":{"Station_ID":"WRUM5","Station_Nam":"WARROAD 4W","Latitude":"48.89600","Longitude":"-95.40700","Snowdepth":"11.000","Units":"in","Rept_Date":"2020-02-09 04"},"coordinates":[430,8363]},{"type":"Point","properties":{"Station_ID":"WNDM1","Station_Nam":"WINDHAM 2NW","Latitude":"43.85670","Longitude":"-70.46630","Snowdepth":"11.000","Units":"in","Rept_Date":"2020-02-08 12"},"coordinates":[6283,5451]},{"type":"Point","properties":{"Station_ID":"WLDM5","Station_Nam":"WILD RIVER STATE PARK","Latitude":"45.52310","Longitude":"-92.74890","Snowdepth":"11.000","Units":"in","Rept_Date":"2020-02-08 14"},"coordinates":[1054,6414]},{"type":"Point","properties":{"Station_ID":"WI-BR-2","Station_Nam":"CHETEK 2.0 SE, WI","Latitude":"45.29427","Longitude":"-91.62470","Snowdepth":"11.000","Units":"in","Rept_Date":"2020-02-08 13"},"coordinates":[1318,6281]},{"type":"Point","properties":{"Station_ID":"VT-BN-7","Station_Nam":"MANCHESTER 2.8 ENE, VT","Latitude":"43.17274","Longitude":"-73.01811","Snowdepth":"11.000","Units":"in","Rept_Date":"2020-02-08 12"},"coordinates":[5684,5055]},{"type":"Point","properties":{"Station_ID":"PBAN8","Station_Nam":"SITE 1-3MI.N","Latitude":"48.97420","Longitude":"-97.23860","Snowdepth":"11.000","Units":"in","Rept_Date":"2020-02-08 13"},"coordinates":[0,8408]},{"type":"Point","properties":{"Station_ID":"ORAN3","Station_Nam":"ORANGE","Latitude":"43.66880","Longitude":"-71.94830","Snowdepth":"11.000","Units":"in","Rept_Date":"2020-02-08 12"},"coordinates":[5935,5342]},{"type":"Point","properties":{"Station_ID":"OCNW3","Station_Nam":"OCONTO 4 W","Latitude":"44.89190","Longitude":"-87.95500","Snowdepth":"11.000","Units":"in","Rept_Date":"2020-02-08 13"},"coordinates":[2179,6049]},{"type":"Point","properties":{"Station_ID":"NY-OS-21","Station_Nam":"PULASKI 0.5 NE, NY","Latitude":"43.56997","Longitude":"-76.11950","Snowdepth":"11.000","Units":"in","Rept_Date":"2020-02-08 18"},"coordinates":[4957,5285]},{"type":"Point","properties":{"Station_ID":"NY-MR-21","Station_Nam":"PITTSFORD 4.0 SSE, NY","Latitude":"43.03498","Longitude":"-77.49450","Snowdepth":"11.000","Units":"in","Rept_Date":"2020-02-08 13"},"coordinates":[4634,4976]},{"type":"Point","properties":{"Station_ID":"NY-ER-65","Station_Nam":"BOSTON 1.5 NE, NY","Latitude":"42.65470","Longitude":"-78.72010","Snowdepth":"11.000","Units":"in","Rept_Date":"2020-02-08 12"},"coordinates":[4346,4756]},{"type":"Point","properties":{"Station_ID":"NY-CY-31","Station_Nam":"SCIPIO CENTER 3.0 S, NY","Latitude":"42.74002","Longitude":"-76.55682","Snowdepth":"11.000","Units":"in","Rept_Date":"2020-02-08 11"},"coordinates":[4854,4805]},{"type":"Point","properties":{"Station_ID":"NH-GR-47","Station_Nam":"LITTLETON 7.3 W, NH","Latitude":"44.31847","Longitude":"-71.91086","Snowdepth":"11.000","Units":"in","Rept_Date":"2020-02-08 13"},"coordinates":[5944,5718]},{"type":"Point","properties":{"Station_ID":"MRQM4","Station_Nam":"MARQUETTE WFP","Latitude":"46.54580","Longitude":"-87.37950","Snowdepth":"11.000","Units":"in","Rept_Date":"2020-02-08 13"},"coordinates":[2314,7005]},{"type":"Point","properties":{"Station_ID":"MN-SH-10","Station_Nam":"BIG LAKE 5.6 NNE, MN","Latitude":"45.41409","Longitude":"-93.69190","Snowdepth":"11.000","Units":"in","Rept_Date":"2020-02-08 13"},"coordinates":[832,6351]},{"type":"Point","properties":{"Station_ID":"MEDW3","Station_Nam":"MEDFORD","Latitude":"45.13080","Longitude":"-90.34390","Snowdepth":"11.000","Units":"in","Rept_Date":"2020-02-08 14"},"coordinates":[1618,6187]},{"type":"Point","properties":{"Station_ID":"LUCW3","Station_Nam":"LUCK","Latitude":"45.57330","Longitude":"-92.48520","Snowdepth":"11.000","Units":"in","Rept_Date":"2020-02-08 12"},"coordinates":[1116,6443]},{"type":"Point","properties":{"Station_ID":"HRTM1","Station_Nam":"HARTFORD","Latitude":"44.37440","Longitude":"-70.31620","Snowdepth":"11.000","Units":"in","Rept_Date":"2020-02-08 12"},"coordinates":[6318,5750]},{"type":"Point","properties":{"Station_ID":"ESAM4","Station_Nam":"ESCANABA","Latitude":"45.74380","Longitude":"-87.04060","Snowdepth":"11.000","Units":"in","Rept_Date":"2020-02-08 12"},"coordinates":[2393,6541]},{"type":"Point","properties":{"Station_ID":"CSPP1","Station_Nam":"COUDERSPORT 1 SW","Latitude":"41.77500","Longitude":"-78.04170","Snowdepth":"11.000","Units":"in","Rept_Date":"2020-02-08 12"},"coordinates":[4505,4248]},{"type":"Point","properties":{"Station_ID":"CANM5","Station_Nam":"CANBY","Latitude":"44.71840","Longitude":"-96.26960","Snowdepth":"11.000","Units":"in","Rept_Date":"2020-02-08 14"},"coordinates":[227,5949]},{"type":"Point","properties":{"Station_ID":"BRVM5","Station_Nam":"BROWNS VALLEY,MN","Latitude":"45.61670","Longitude":"-96.83330","Snowdepth":"11.000","Units":"in","Rept_Date":"2020-02-08 12"},"coordinates":[95,6468]},{"type":"Point","properties":{"Station_ID":"BKEM5","Station_Nam":"BRECKENRIDGE 4NE","Latitude":"46.30470","Longitude":"-96.52170","Snowdepth":"11.000","Units":"in","Rept_Date":"2020-02-08 13"},"coordinates":[168,6865]},{"type":"Point","properties":{"Station_ID":"AMDW3","Station_Nam":"ALMOND-5 NE","Latitude":"44.30830","Longitude":"-89.34640","Snowdepth":"11.000","Units":"in","Rept_Date":"2020-02-08 14"},"coordinates":[1852,5712]},{"type":"Point","properties":{"Station_ID":"ABGW3","Station_Nam":"AMBERG 9 E","Latitude":"45.48250","Longitude":"-87.81190","Snowdepth":"11.000","Units":"in","Rept_Date":"2020-02-08 12"},"coordinates":[2212,6390]},{"type":"Point","properties":{"Station_ID":"42.1284_079.8945","Station_Nam":"NORTHEAST 6SW (CLE0249)","Latitude":"42.12840","Longitude":"-79.89450","Snowdepth":"11.000","Units":"in","Rept_Date":"2020-02-09 00"},"coordinates":[4071,4452]},{"type":"Point","properties":{"Station_ID":"41.9034_079.6523","Station_Nam":"CORRY (CLE0230)","Latitude":"41.90340","Longitude":"-79.65230","Snowdepth":"11.000","Units":"in","Rept_Date":"2020-02-08 14"},"coordinates":[4127,4322]},{"type":"Point","properties":{"Station_ID":"41.8966_080.1567","Station_Nam":"2 NW EDINBORO  SNOW SPOTTER (CLE0251)","Latitude":"41.89660","Longitude":"-80.15670","Snowdepth":"11.000","Units":"in","Rept_Date":"2020-02-08 23"},"coordinates":[4009,4318]},{"type":"Point","properties":{"Station_ID":"ME-CM-54","Station_Nam":"WINDHAM 3.9 NW, ME","Latitude":"43.85787","Longitude":"-70.46200","Snowdepth":"10.700","Units":"in","Rept_Date":"2020-02-08 12"},"coordinates":[6284,5451]},{"type":"Point","properties":{"Station_ID":"WI-PT-8","Station_Nam":"RUDOLPH 2.1 NNE, WI","Latitude":"44.52553","Longitude":"-89.78677","Snowdepth":"10.500","Units":"in","Rept_Date":"2020-02-08 11"},"coordinates":[1749,5837]},{"type":"Point","properties":{"Station_ID":"VT-RT-24","Station_Nam":"MIDDLETOWN SPRINGS 0.9 WNW, VT","Latitude":"43.49194","Longitude":"-73.13350","Snowdepth":"10.500","Units":"in","Rept_Date":"2020-02-08 12"},"coordinates":[5657,5240]},{"type":"Point","properties":{"Station_ID":"NY-SY-1","Station_Nam":"SMITH VALLEY 1.9 SE, NY","Latitude":"42.39072","Longitude":"-76.71760","Snowdepth":"10.500","Units":"in","Rept_Date":"2020-02-08 12"},"coordinates":[4816,4603]},{"type":"Point","properties":{"Station_ID":"NY-OS-20","Station_Nam":"FULTON 0.2 W, NY","Latitude":"43.31650","Longitude":"-76.41850","Snowdepth":"10.500","Units":"in","Rept_Date":"2020-02-08 10"},"coordinates":[4886,5138]},{"type":"Point","properties":{"Station_ID":"NY-CY-8","Station_Nam":"AUBURN 8.3 SSE, NY","Latitude":"42.82869","Longitude":"-76.48670","Snowdepth":"10.500","Units":"in","Rept_Date":"2020-02-08 12"},"coordinates":[4870,4857]},{"type":"Point","properties":{"Station_ID":"CAN-ON-491","Station_Nam":"MILVERTON 1.1 ESE- CANWARN, CAN","Latitude":"43.56074","Longitude":"-80.90887","Snowdepth":"10.200","Units":"in","Rept_Date":"2020-02-08 11"},"coordinates":[3832,5280]},{"type":"Point","properties":{"Station_ID":"WNNM5","Station_Nam":"WINNEBAGO","Latitude":"43.76920","Longitude":"-94.18730","Snowdepth":"10.000","Units":"in","Rept_Date":"2020-02-08 13"},"coordinates":[716,5400]},{"type":"Point","properties":{"Station_ID":"WLSN6","Station_Nam":"WALES","Latitude":"42.73920","Longitude":"-78.58780","Snowdepth":"10.000","Units":"in","Rept_Date":"2020-02-08 12"},"coordinates":[4377,4805]},{"type":"Point","properties":{"Station_ID":"WDOM5","Station_Nam":"WINDOM","Latitude":"43.87700","Longitude":"-95.11590","Snowdepth":"10.000","Units":"in","Rept_Date":"2020-02-08 14"},"coordinates":[498,5462]},{"type":"Point","properties":{"Station_ID":"STRW3","Station_Nam":"STRATFORD 1NW","Latitude":"44.81750","Longitude":"-90.08990","Snowdepth":"10.000","Units":"in","Rept_Date":"2020-02-08 12"},"coordinates":[1678,6006]},{"type":"Point","properties":{"Station_ID":"SIWS2","Station_Nam":"SISSETON 3W","Latitude":"45.65870","Longitude":"-97.12450","Snowdepth":"10.000","Units":"in","Rept_Date":"2020-02-08 13"},"coordinates":[27,6492]},{"type":"Point","properties":{"Station_ID":"SD-RB-1","Station_Nam":"SISSETON 3.8 W, SD","Latitude":"45.65865","Longitude":"-97.12370","Snowdepth":"10.000","Units":"in","Rept_Date":"2020-02-08 13"},"coordinates":[27,6492]},{"type":"Point","properties":{"Station_ID":"RKWI4","Station_Nam":"ROCKWELL CITY,IA","Latitude":"42.40000","Longitude":"-94.61670","Snowdepth":"10.000","Units":"in","Rept_Date":"2020-02-08 13"},"coordinates":[615,4609]},{"type":"Point","properties":{"Station_ID":"PELW3","Station_Nam":"PELLA 3SE","Latitude":"44.73580","Longitude":"-88.73780","Snowdepth":"10.000","Units":"in","Rept_Date":"2020-02-08 11"},"coordinates":[1995,5959]},{"type":"Point","properties":{"Station_ID":"NY-WR-17","Station_Nam":"LAKE GEORGE 1.0 N, NY","Latitude":"43.44030","Longitude":"-73.71260","Snowdepth":"10.000","Units":"in","Rept_Date":"2020-02-08 11"},"coordinates":[5521,5210]},{"type":"Point","properties":{"Station_ID":"NY-TM-4","Station_Nam":"GROTON 0.5 NW, NY","Latitude":"42.59127","Longitude":"-76.37200","Snowdepth":"10.000","Units":"in","Rept_Date":"2020-02-08 12"},"coordinates":[4897,4719]},{"type":"Point","properties":{"Station_ID":"NY-TM-27","Station_Nam":"GROTON 3.2 SSW, NY","Latitude":"42.54725","Longitude":"-76.39960","Snowdepth":"10.000","Units":"in","Rept_Date":"2020-02-08 12"},"coordinates":[4891,4694]},{"type":"Point","properties":{"Station_ID":"NY-HR-16","Station_Nam":"ILION 0.7 WSW, NY","Latitude":"43.00880","Longitude":"-75.05390","Snowdepth":"10.000","Units":"in","Rept_Date":"2020-02-08 13"},"coordinates":[5207,4961]},{"type":"Point","properties":{"Station_ID":"NY-CT-22","Station_Nam":"FRANKLINVILLE 0.5 NNE, NY","Latitude":"42.34166","Longitude":"-78.45280","Snowdepth":"10.000","Units":"in","Rept_Date":"2020-02-08 12"},"coordinates":[4409,4575]},{"type":"Point","properties":{"Station_ID":"NY-CR-1","Station_Nam":"FREETOWN 1.0 NE, NY","Latitude":"42.53299","Longitude":"-76.02111","Snowdepth":"10.000","Units":"in","Rept_Date":"2020-02-08 12"},"coordinates":[4980,4686]},{"type":"Point","properties":{"Station_ID":"NY-BM-14","Station_Nam":"WHITNEY POINT 1.7 SSE, NY","Latitude":"42.30837","Longitude":"-75.95690","Snowdepth":"10.000","Units":"in","Rept_Date":"2020-02-08 12"},"coordinates":[4995,4556]},{"type":"Point","properties":{"Station_ID":"NHBN6","Station_Nam":"HEBRON","Latitude":"43.29540","Longitude":"-73.39830","Snowdepth":"10.000","Units":"in","Rept_Date":"2020-02-08 12"},"coordinates":[5595,5126]},{"type":"Point","properties":{"Station_ID":"NH-GR-1","Station_Nam":"BRISTOL 0.4 SSE, NH","Latitude":"43.59490","Longitude":"-71.74140","Snowdepth":"10.000","Units":"in","Rept_Date":"2020-02-08 12"},"coordinates":[5984,5299]},{"type":"Point","properties":{"Station_ID":"NH-CR-9","Station_Nam":"MADISON 1.7 SE, NH","Latitude":"43.87928","Longitude":"-71.12660","Snowdepth":"10.000","Units":"in","Rept_Date":"2020-02-08 12"},"coordinates":[6128,5464]},{"type":"Point","properties":{"Station_ID":"NH-CR-16","Station_Nam":"WOLFEBORO 0.6 SW, NH","Latitude":"43.58464","Longitude":"-71.21760","Snowdepth":"10.000","Units":"in","Rept_Date":"2020-02-08 12"},"coordinates":[6107,5293]},{"type":"Point","properties":{"Station_ID":"MWTM1","Station_Nam":"MILLINOCKET WWTP","Latitude":"45.64030","Longitude":"-68.67480","Snowdepth":"10.000","Units":"in","Rept_Date":"2020-02-08 12"},"coordinates":[6704,6481]},{"type":"Point","properties":{"Station_ID":"MRAM5","Station_Nam":"MORA","Latitude":"45.87760","Longitude":"-93.31470","Snowdepth":"10.000","Units":"in","Rept_Date":"2020-02-08 13"},"coordinates":[921,6619]},{"type":"Point","properties":{"Station_ID":"MNG0GYSN","Station_Nam":"LONSDALE 1.1 SSW","Latitude":"44.46445","Longitude":"-93.43293","Snowdepth":"10.000","Units":"in","Rept_Date":"2020-02-08 12"},"coordinates":[893,5802]},{"type":"Point","properties":{"Station_ID":"MN-SR-29","Station_Nam":"ALBANY 3.8 S, MN","Latitude":"45.57441","Longitude":"-94.55543","Snowdepth":"10.000","Units":"in","Rept_Date":"2020-02-08 13"},"coordinates":[630,6443]},{"type":"Point","properties":{"Station_ID":"MN-RC-1","Station_Nam":"MONTGOMERY 3.2 ENE, MN","Latitude":"44.46400","Longitude":"-93.51980","Snowdepth":"10.000","Units":"in","Rept_Date":"2020-02-08 12"},"coordinates":[873,5802]},{"type":"Point","properties":{"Station_ID":"MLCM5","Station_Nam":"MILACA","Latitude":"45.75320","Longitude":"-93.66170","Snowdepth":"10.000","Units":"in","Rept_Date":"2020-02-08 13"},"coordinates":[839,6547]},{"type":"Point","properties":{"Station_ID":"MI-GT-21","Station_Nam":"KINGSLEY 2.7 ENE, MI","Latitude":"44.59871","Longitude":"-85.48426","Snowdepth":"10.000","Units":"in","Rept_Date":"2020-02-08 13"},"coordinates":[2759,5879]},{"type":"Point","properties":{"Station_ID":"MECN6","Station_Nam":"MECKLENBURG 4 SW","Latitude":"42.44220","Longitude":"-76.75740","Snowdepth":"10.000","Units":"in","Rept_Date":"2020-02-08 12"},"coordinates":[4807,4633]},