{"type":"Topology","objects":{"snowdepth_geo":{"type":"GeometryCollection","name":"snowdepth","crs":{"type":"name","properties":{"name":"urn:ogc:def:crs:OGC:1.3:CRS84"}},"geometries":[{"type":"Point","properties":{"Station_ID":"PRKM4","Station_Nam":"MUNISING EAST","Latitude":"46.42580","Longitude":"-86.62000","Snowdepth":"76.500","Units":"in","Rept_Date":"2020-01-08 06"},"coordinates":[2429,6701]},{"type":"Point","properties":{"Station_ID":"OGIQ6","Station_Nam":"OGOKI CAMP","Latitude":"50.76680","Longitude":"-87.85820","Snowdepth":"61.100","Units":"in","Rept_Date":"2020-01-08 06"},"coordinates":[2145,9402]},{"type":"Point","properties":{"Station_ID":"HTLN3","Station_Nam":"HERMIT LAKE SNOWPLOT","Latitude":"44.26130","Longitude":"-71.28330","Snowdepth":"41.000","Units":"in","Rept_Date":"2020-01-07 10"},"coordinates":[5936,5354]},{"type":"Point","properties":{"Station_ID":"PDLM4","Station_Nam":"PAINESDALE","Latitude":"47.04160","Longitude":"-88.67170","Snowdepth":"38.000","Units":"in","Rept_Date":"2020-01-07 13"},"coordinates":[1959,7084]},{"type":"Point","properties":{"Station_ID":"GMSM4","Station_Nam":"GRAND MARAIS 10S","Latitude":"46.50940","Longitude":"-85.96310","Snowdepth":"33.000","Units":"in","Rept_Date":"2020-01-07 12"},"coordinates":[2579,6753]},{"type":"Point","properties":{"Station_ID":"HVCN3","Station_Nam":"HARVARD CABIN SNOWPLOT","Latitude":"44.26630","Longitude":"-71.27790","Snowdepth":"31.000","Units":"in","Rept_Date":"2020-01-07 11"},"coordinates":[5937,5357]},{"type":"Point","properties":{"Station_ID":"QGO","Station_Nam":"QGO","Latitude":"48.85500","Longitude":"-74.20640","Snowdepth":"30.236","Units":"in","Rept_Date":"2020-01-07 12"},"coordinates":[5268,8212]},{"type":"Point","properties":{"Station_ID":"WLFM5","Station_Nam":"WOLF RIDGE ENVIRON LEARNING CENTER","Latitude":"47.38240","Longitude":"-91.19730","Snowdepth":"30.000","Units":"in","Rept_Date":"2020-01-07 13"},"coordinates":[1382,7296]},{"type":"Point","properties":{"Station_ID":"MN5ZKXWG","Station_Nam":"ILLGEN CITY 2.3 NNW","Latitude":"47.37901","Longitude":"-91.20365","Snowdepth":"30.000","Units":"in","Rept_Date":"2020-01-07 13"},"coordinates":[1380,7294]},{"type":"Point","properties":{"Station_ID":"MMNV1","Station_Nam":"MT. MANSFIELD","Latitude":"44.52480","Longitude":"-72.81540","Snowdepth":"30.000","Units":"in","Rept_Date":"2020-01-07 21"},"coordinates":[5586,5518]},{"type":"Point","properties":{"Station_ID":"KSGM4","Station_Nam":"KEARSARGE","Latitude":"47.27520","Longitude":"-88.41700","Snowdepth":"30.000","Units":"in","Rept_Date":"2020-01-07 13"},"coordinates":[2018,7229]},{"type":"Point","properties":{"Station_ID":"QOU","Station_Nam":"QOU","Latitude":"50.79250","Longitude":"-69.67470","Snowdepth":"28.228","Units":"in","Rept_Date":"2020-01-07 12"},"coordinates":[6304,9418]},{"type":"Point","properties":{"Station_ID":"QGD","Station_Nam":"QGD","Latitude":"51.11140","Longitude":"-67.13940","Snowdepth":"27.283","Units":"in","Rept_Date":"2020-01-07 12"},"coordinates":[6884,9616]},{"type":"Point","properties":{"Station_ID":"MLZ","Station_Nam":"MLZ","Latitude":"50.66170","Longitude":"-68.82360","Snowdepth":"26.772","Units":"in","Rept_Date":"2020-01-07 12"},"coordinates":[6499,9336]},{"type":"Point","properties":{"Station_ID":"QCU","Station_Nam":"QCU","Latitude":"47.82750","Longitude":"-76.59830","Snowdepth":"26.339","Units":"in","Rept_Date":"2020-01-07 12"},"coordinates":[4721,7573]},{"type":"Point","properties":{"Station_ID":"QNCM4","Station_Nam":"QUINCY HILL","Latitude":"47.13640","Longitude":"-88.57950","Snowdepth":"26.000","Units":"in","Rept_Date":"2020-01-07 12"},"coordinates":[1980,7143]},{"type":"Point","properties":{"Station_ID":"NY-JF-30","Station_Nam":"WEST CARTHAGE 0.3 ENE, NY","Latitude":"43.97493","Longitude":"-75.61640","Snowdepth":"25.500","Units":"in","Rept_Date":"2020-01-07 12"},"coordinates":[4945,5176]},{"type":"Point","properties":{"Station_ID":"NWCM4","Station_Nam":"NEWBERRY CITY","Latitude":"46.35720","Longitude":"-85.51780","Snowdepth":"25.000","Units":"in","Rept_Date":"2020-01-07 12"},"coordinates":[2681,6658]},{"type":"Point","properties":{"Station_ID":"NOHM5","Station_Nam":"NORTHOME","Latitude":"47.83590","Longitude":"-94.25550","Snowdepth":"25.000","Units":"in","Rept_Date":"2020-01-07 13"},"coordinates":[682,7578]},{"type":"Point","properties":{"Station_ID":"MQT","Station_Nam":"MARQUETTE, MI","Latitude":"46.53140","Longitude":"-87.54920","Snowdepth":"25.000","Units":"in","Rept_Date":"2020-01-08 06"},"coordinates":[2216,6767]},{"type":"Point","properties":{"Station_ID":"MNRG04NE","Station_Nam":"NORTHOME 2.5 SSE","Latitude":"47.83898","Longitude":"-94.25738","Snowdepth":"25.000","Units":"in","Rept_Date":"2020-01-07 13"},"coordinates":[682,7580]},{"type":"Point","properties":{"Station_ID":"IBLM5","Station_Nam":"ISABELLA 14W","Latitude":"47.59360","Longitude":"-91.65140","Snowdepth":"25.000","Units":"in","Rept_Date":"2020-01-07 15"},"coordinates":[1278,7428]},{"type":"Point","properties":{"Station_ID":"HURW3","Station_Nam":"HURLEY","Latitude":"46.46250","Longitude":"-90.19550","Snowdepth":"25.000","Units":"in","Rept_Date":"2020-01-07 14"},"coordinates":[1611,6724]},{"type":"Point","properties":{"Station_ID":"MI-BG-3","Station_Nam":"L'ANSE 17.8 SE, MI","Latitude":"46.55730","Longitude":"-88.20770","Snowdepth":"24.500","Units":"in","Rept_Date":"2020-01-07 13"},"coordinates":[2065,6783]},{"type":"Point","properties":{"Station_ID":"IWOM4","Station_Nam":"IRONWOOD#2","Latitude":"46.46520","Longitude":"-90.13820","Snowdepth":"24.000","Units":"in","Rept_Date":"2020-01-07 13"},"coordinates":[1624,6725]},{"type":"Point","properties":{"Station_ID":"CLKS2","Station_Nam":"WATERTOWN-23MI.ESE","Latitude":"44.75000","Longitude":"-96.68330","Snowdepth":"24.000","Units":"in","Rept_Date":"2020-01-07 15"},"coordinates":[127,5658]},{"type":"Point","properties":{"Station_ID":"QLB","Station_Nam":"QLB","Latitude":"50.72360","Longitude":"-75.10000","Snowdepth":"23.583","Units":"in","Rept_Date":"2020-01-07 12"},"coordinates":[5063,9375]},{"type":"Point","properties":{"Station_ID":"MN-SL-15","Station_Nam":"CHISHOLM 0.4 WSW, MN","Latitude":"47.48557","Longitude":"-92.88690","Snowdepth":"23.500","Units":"in","Rept_Date":"2020-01-07 13"},"coordinates":[995,7360]},{"type":"Point","properties":{"Station_ID":"QCX","Station_Nam":"QCX","Latitude":"51.32830","Longitude":"-70.08060","Snowdepth":"22.205","Units":"in","Rept_Date":"2020-01-07 12"},"coordinates":[6211,9751]},{"type":"Point","properties":{"Station_ID":"AUDQ6","Station_Nam":"AUDEN","Latitude":"48.52600","Longitude":"-82.57570","Snowdepth":"22.200","Units":"in","Rept_Date":"2020-01-08 06"},"coordinates":[3354,8008]},{"type":"Point","properties":{"Station_ID":"WRSM5","Station_Nam":"WRENSHALL","Latitude":"46.61550","Longitude":"-92.38380","Snowdepth":"22.000","Units":"in","Rept_Date":"2020-01-07 14"},"coordinates":[1110,6819]},{"type":"Point","properties":{"Station_ID":"WRPW3","Station_Nam":"WATER PURIFICATION PLANT","Latitude":"44.38800","Longitude":"-89.80550","Snowdepth":"22.000","Units":"in","Rept_Date":"2020-01-07 12"},"coordinates":[1700,5433]},{"type":"Point","properties":{"Station_ID":"WNBM5","Station_Nam":"DAM","Latitude":"47.43060","Longitude":"-94.05000","Snowdepth":"22.000","Units":"in","Rept_Date":"2020-01-07 14"},"coordinates":[729,7326]},{"type":"Point","properties":{"Station_ID":"WI-IR-3","Station_Nam":"PENCE 0.1 E, WI","Latitude":"46.41555","Longitude":"-90.27013","Snowdepth":"22.000","Units":"in","Rept_Date":"2020-01-07 13"},"coordinates":[1594,6695]},{"type":"Point","properties":{"Station_ID":"MNSM4","Station_Nam":"MUNISING","Latitude":"46.41210","Longitude":"-86.66250","Snowdepth":"22.000","Units":"in","Rept_Date":"2020-01-07 11"},"coordinates":[2419,6692]},{"type":"Point","properties":{"Station_ID":"ILIM5","Station_Nam":"ISLAND LAKE","Latitude":"47.02400","Longitude":"-92.07000","Snowdepth":"22.000","Units":"in","Rept_Date":"2020-01-07 15"},"coordinates":[1182,7073]},{"type":"Point","properties":{"Station_ID":"CLQM5","Station_Nam":"CLOQUET","Latitude":"46.70470","Longitude":"-92.52530","Snowdepth":"22.000","Units":"in","Rept_Date":"2020-01-07 14"},"coordinates":[1078,6874]},{"type":"Point","properties":{"Station_ID":"SVBQ6","Station_Nam":"SAVANT BASE","Latitude":"50.28730","Longitude":"-90.65670","Snowdepth":"21.570","Units":"in","Rept_Date":"2020-01-08 06"},"coordinates":[1505,9103]},{"type":"Point","properties":{"Station_ID":"PTLQ6","Station_Nam":"PORTAGE LAKE","Latitude":"49.06950","Longitude":"-86.65940","Snowdepth":"21.540","Units":"in","Rept_Date":"2020-01-08 06"},"coordinates":[2420,8346]},{"type":"Point","properties":{"Station_ID":"WI-VL-10","Station_Nam":"LAND O LAKES 4.3 WNW, WI","Latitude":"46.17440","Longitude":"-89.30380","Snowdepth":"21.500","Units":"in","Rept_Date":"2020-01-07 13"},"coordinates":[1815,6545]},{"type":"Point","properties":{"Station_ID":"QYR","Station_Nam":"QYR","Latitude":"48.87220","Longitude":"-75.61470","Snowdepth":"21.417","Units":"in","Rept_Date":"2020-01-07 12"},"coordinates":[4946,8223]},{"type":"Point","properties":{"Station_ID":"DVLQ6","Station_Nam":"DEVIOUS LAKE","Latitude":"49.19890","Longitude":"-87.76440","Snowdepth":"21.380","Units":"in","Rept_Date":"2020-01-08 06"},"coordinates":[2167,8426]},{"type":"Point","properties":{"Station_ID":"TRIQ6","Station_Nam":"TRIO LAKE","Latitude":"49.22880","Longitude":"-87.22920","Snowdepth":"21.100","Units":"in","Rept_Date":"2020-01-08 06"},"coordinates":[2289,8445]},{"type":"Point","properties":{"Station_ID":"PDGM4","Station_Nam":"PAULDING","Latitude":"46.39760","Longitude":"-89.17940","Snowdepth":"21.000","Units":"in","Rept_Date":"2020-01-07 13"},"coordinates":[1843,6683]},{"type":"Point","properties":{"Station_ID":"MN8JKXE2","Station_Nam":"PRAIRIE PORTAGE 5.2 SSW","Latitude":"47.97663","Longitude":"-91.46744","Snowdepth":"21.000","Units":"in","Rept_Date":"2020-01-07 12"},"coordinates":[1320,7666]},{"type":"Point","properties":{"Station_ID":"MN6ZK0BT","Station_Nam":"BABBITT 0.4 ESE","Latitude":"47.70874","Longitude":"-91.93886","Snowdepth":"21.000","Units":"in","Rept_Date":"2020-01-07 13"},"coordinates":[1212,7499]},{"type":"Point","properties":{"Station_ID":"GNLM4","Station_Nam":"GREENLAND 6N","Latitude":"46.87360","Longitude":"-89.10060","Snowdepth":"21.000","Units":"in","Rept_Date":"2020-01-07 13"},"coordinates":[1861,6980]},{"type":"Point","properties":{"Station_ID":"BNDM5","Station_Nam":"ELY 25E","Latitude":"47.97190","Longitude":"-91.44860","Snowdepth":"21.000","Units":"in","Rept_Date":"2020-01-07 13"},"coordinates":[1324,7663]},{"type":"Point","properties":{"Station_ID":"BBEM4","Station_Nam":"BIG BAY 9SW","Latitude":"46.74620","Longitude":"-87.88160","Snowdepth":"21.000","Units":"in","Rept_Date":"2020-01-07 13"},"coordinates":[2140,6900]},{"type":"Point","properties":{"Station_ID":"BABM5","Station_Nam":"BABBITT","Latitude":"47.71210","Longitude":"-91.95330","Snowdepth":"21.000","Units":"in","Rept_Date":"2020-01-07 13"},"coordinates":[1209,7501]},{"type":"Point","properties":{"Station_ID":"MN-BK-6","Station_Nam":"LAKE PARK 6.0 S, MN","Latitude":"46.79850","Longitude":"-96.12180","Snowdepth":"20.500","Units":"in","Rept_Date":"2020-01-07 13"},"coordinates":[255,6933]},{"type":"Point","properties":{"Station_ID":"MI-MQ-25","Station_Nam":"ISHPEMING 6.3 NW, MI","Latitude":"46.54140","Longitude":"-87.77153","Snowdepth":"20.500","Units":"in","Rept_Date":"2020-01-07 15"},"coordinates":[2165,6773]},{"type":"Point","properties":{"Station_ID":"QMD","Station_Nam":"QMD","Latitude":"49.29060","Longitude":"-75.84500","Snowdepth":"20.079","Units":"in","Rept_Date":"2020-01-07 12"},"coordinates":[4893,8483]},{"type":"Point","properties":{"Station_ID":"WI-WB-2","Station_Nam":"STONE LAKE 2.0 NW, WI","Latitude":"45.85960","Longitude":"-91.57710","Snowdepth":"20.000","Units":"in","Rept_Date":"2020-01-07 13"},"coordinates":[1295,6349]},{"type":"Point","properties":{"Station_ID":"WI-VL-9","Station_Nam":"LAND O' LAKES 11.7 W, WI","Latitude":"46.19023","Longitude":"-89.45790","Snowdepth":"20.000","Units":"in","Rept_Date":"2020-01-07 14"},"coordinates":[1780,6554]},{"type":"Point","properties":{"Station_ID":"VT-OL-12","Station_Nam":"GREENSBORO 3.9 NNE, VT","Latitude":"44.63100","Longitude":"-72.28000","Snowdepth":"20.000","Units":"in","Rept_Date":"2020-01-07 11"},"coordinates":[5708,5584]},{"type":"Point","properties":{"Station_ID":"MN4DC1DW","Station_Nam":"FOUR CORNERS 3.6 E","Latitude":"46.84373","Longitude":"-92.20633","Snowdepth":"20.000","Units":"in","Rept_Date":"2020-01-07 12"},"coordinates":[1151,6961]},{"type":"Point","properties":{"Station_ID":"MN-SL-138","Station_Nam":"DULUTH 4.8 NW, MN","Latitude":"46.83425","Longitude":"-92.17438","Snowdepth":"20.000","Units":"in","Rept_Date":"2020-01-07 14"},"coordinates":[1158,6955]},{"type":"Point","properties":{"Station_ID":"MI-MQ-19","Station_Nam":"ISHPEMING 7.2 SW, MI","Latitude":"46.40550","Longitude":"-87.75670","Snowdepth":"20.000","Units":"in","Rept_Date":"2020-01-07 11"},"coordinates":[2169,6688]},{"type":"Point","properties":{"Station_ID":"MCLN8","Station_Nam":"MC LEOD,ND","Latitude":"46.40250","Longitude":"-97.23810","Snowdepth":"20.000","Units":"in","Rept_Date":"2020-01-07 15"},"coordinates":[0,6686]},{"type":"Point","properties":{"Station_ID":"LNOW3","Station_Nam":"LAND O LAKES","Latitude":"46.19000","Longitude":"-89.45700","Snowdepth":"20.000","Units":"in","Rept_Date":"2020-01-07 14"},"coordinates":[1780,6554]},{"type":"Point","properties":{"Station_ID":"EVRW3","Station_Nam":"EAGLE RIVER-4 E","Latitude":"45.91890","Longitude":"-89.15280","Snowdepth":"20.000","Units":"in","Rept_Date":"2020-01-07 12"},"coordinates":[1849,6386]},{"type":"Point","properties":{"Station_ID":"DLHM5","Station_Nam":"DULUTH NWS","Latitude":"46.83680","Longitude":"-92.21080","Snowdepth":"20.000","Units":"in","Rept_Date":"2020-01-08 06"},"coordinates":[1150,6957]},{"type":"Point","properties":{"Station_ID":"DLH","Station_Nam":"DULUTH, MN","Latitude":"46.83690","Longitude":"-92.21030","Snowdepth":"20.000","Units":"in","Rept_Date":"2020-01-08 00"},"coordinates":[1150,6957]},{"type":"Point","properties":{"Station_ID":"MN-IT-23","Station_Nam":"BOVEY 13.4 N, MN","Latitude":"47.48855","Longitude":"-93.43497","Snowdepth":"19.500","Units":"in","Rept_Date":"2020-01-07 13"},"coordinates":[870,7362]},{"type":"Point","properties":{"Station_ID":"QWE","Station_Nam":"QWE","Latitude":"47.84610","Longitude":"-73.80670","Snowdepth":"19.449","Units":"in","Rept_Date":"2020-01-07 12"},"coordinates":[5359,7585]},{"type":"Point","properties":{"Station_ID":"KABQ6","Station_Nam":"CAB LAKE","Latitude":"49.59950","Longitude":"-89.17990","Snowdepth":"19.250","Units":"in","Rept_Date":"2020-01-08 06"},"coordinates":[1843,8675]},{"type":"Point","properties":{"Station_ID":"QTV","Station_Nam":"QTV","Latitude":"49.66000","Longitude":"-69.35690","Snowdepth":"19.173","Units":"in","Rept_Date":"2020-01-07 12"},"coordinates":[6377,8713]},{"type":"Point","properties":{"Station_ID":"STGW3","Station_Nam":"ST GERMAIN","Latitude":"45.91550","Longitude":"-89.48940","Snowdepth":"19.000","Units":"in","Rept_Date":"2020-01-07 12"},"coordinates":[1772,6383]},{"type":"Point","properties":{"Station_ID":"MI-HG-6","Station_Nam":"CALUMET 5.8 ENE, MI","Latitude":"47.27200","Longitude":"-88.33400","Snowdepth":"19.000","Units":"in","Rept_Date":"2020-01-07 11"},"coordinates":[2037,7227]},{"type":"Point","properties":{"Station_ID":"MAIW3","Station_Nam":"MADELINE ISLAND","Latitude":"46.78330","Longitude":"-90.76670","Snowdepth":"19.000","Units":"in","Rept_Date":"2020-01-07 14"},"coordinates":[1480,6923]},{"type":"Point","properties":{"Station_ID":"HERM4","Station_Nam":"HERMAN,MI","Latitude":"46.65000","Longitude":"-88.33330","Snowdepth":"19.000","Units":"in","Rept_Date":"2020-01-07 13"},"coordinates":[2037,6840]},{"type":"Point","properties":{"Station_ID":"QFT","Station_Nam":"QFT","Latitude":"50.83280","Longitude":"-74.40390","Snowdepth":"18.740","Units":"in","Rept_Date":"2020-01-07 12"},"coordinates":[5223,9443]},{"type":"Point","properties":{"Station_ID":"WI-BY-14","Station_Nam":"ASHLAND 9.8 W, WI","Latitude":"46.59742","Longitude":"-91.07856","Snowdepth":"18.500","Units":"in","Rept_Date":"2020-01-07 12"},"coordinates":[1409,6808]},{"type":"Point","properties":{"Station_ID":"MI-HG-1","Station_Nam":"HOUGHTON 1.6 ESE, MI","Latitude":"47.10774","Longitude":"-88.52940","Snowdepth":"18.500","Units":"in","Rept_Date":"2020-01-07 13"},"coordinates":[1992,7125]},{"type":"Point","properties":{"Station_ID":"QCO","Station_Nam":"QCO","Latitude":"51.45280","Longitude":"-72.20110","Snowdepth":"18.150","Units":"in","Rept_Date":"2020-01-07 12"},"coordinates":[5726,9828]},{"type":"Point","properties":{"Station_ID":"WTRM4","Station_Nam":"WATERSMEET 12WSW","Latitude":"46.22310","Longitude":"-89.40850","Snowdepth":"18.000","Units":"in","Rept_Date":"2020-01-07 12"},"coordinates":[1791,6575]},{"type":"Point","properties":{"Station_ID":"SUTV1","Station_Nam":"SUTTON","Latitude":"44.61220","Longitude":"-72.04810","Snowdepth":"18.000","Units":"in","Rept_Date":"2020-01-07 13"},"coordinates":[5761,5573]},{"type":"Point","properties":{"Station_ID":"SUAW3","Station_Nam":"SUAMICO","Latitude":"44.60190","Longitude":"-88.09780","Snowdepth":"18.000","Units":"in","Rept_Date":"2020-01-07 12"},"coordinates":[2091,5566]},{"type":"Point","properties":{"Station_ID":"RHIW3","Station_Nam":"RHINELANDER","Latitude":"45.59860","Longitude":"-89.45080","Snowdepth":"18.000","Units":"in","Rept_Date":"2020-01-07 13"},"coordinates":[1781,6186]},{"type":"Point","properties":{"Station_ID":"PKGM5","Station_Nam":"POKEGANA LK DAM","Latitude":"47.25080","Longitude":"-93.58610","Snowdepth":"18.000","Units":"in","Rept_Date":"2020-01-07 14"},"coordinates":[835,7214]},{"type":"Point","properties":{"Station_ID":"CSLM5","Station_Nam":"CASS LAKE,MN","Latitude":"47.38470","Longitude":"-94.61470","Snowdepth":"18.000","Units":"in","Rept_Date":"2020-01-07 14"},"coordinates":[600,7298]},{"type":"Point","properties":{"Station_ID":"QMA","Station_Nam":"QMA","Latitude":"50.10330","Longitude":"-70.47190","Snowdepth":"17.953","Units":"in","Rept_Date":"2020-01-07 12"},"coordinates":[6122,8989]},{"type":"Point","properties":{"Station_ID":"CAN-NL-14","Station_Nam":"WHITBOURNE 1.4 NE, CA","Latitude":"47.42741","Longitude":"-53.51950","Snowdepth":"17.700","Units":"in","Rept_Date":"2020-01-07 11"},"coordinates":[9999,7324]},{"type":"Point","properties":{"Station_ID":"WI-VL-14","Station_Nam":"BOULDER JUNCTION 1.4 NE, WI","Latitude":"46.12840","Longitude":"-89.62470","Snowdepth":"17.500","Units":"in","Rept_Date":"2020-01-07 13"},"coordinates":[1741,6516]},{"type":"Point","properties":{"Station_ID":"MFU","Station_Nam":"MFU","Latitude":"51.52170","Longitude":"-66.91110","Snowdepth":"17.244","Units":"in","Rept_Date":"2020-01-07 12"},"coordinates":[6936,9871]},{"type":"Point","properties":{"Station_ID":"QIQ","Station_Nam":"QIQ","Latitude":"49.82390","Longitude":"-68.54310","Snowdepth":"17.047","Units":"in","Rept_Date":"2020-01-07 12"},"coordinates":[6563,8815]},{"type":"Point","properties":{"Station_ID":"WI-ON-8","Station_Nam":"HAZELHURST 2.1 SSE, WI","Latitude":"45.78186","Longitude":"-89.70330","Snowdepth":"17.000","Units":"in","Rept_Date":"2020-01-07 13"},"coordinates":[1723,6300]},{"type":"Point","properties":{"Station_ID":"WI-DG-20","Station_Nam":"SOLON SPRINGS 1.2 W, WI","Latitude":"46.35217","Longitude":"-91.84405","Snowdepth":"17.000","Units":"in","Rept_Date":"2020-01-07 13"},"coordinates":[1234,6655]},{"type":"Point","properties":{"Station_ID":"MN9UO3KA","Station_Nam":"GAPPAS LANDING CG 3.8 N","Latitude":"48.49307","Longitude":"-93.03634","Snowdepth":"17.000","Units":"in","Rept_Date":"2020-01-07 13"},"coordinates":[961,7987]},{"type":"Point","properties":{"Station_ID":"MN8O09O3","Station_Nam":"ORR 3.6 E","Latitude":"48.04403","Longitude":"-92.75427","Snowdepth":"17.000","Units":"in","Rept_Date":"2020-01-07 12"},"coordinates":[1026,7708]},{"type":"Point","properties":{"Station_ID":"MN70GOES","Station_Nam":"EMBARRASS 0.6 SSE","Latitude":"47.65101","Longitude":"-92.19222","Snowdepth":"17.000","Units":"in","Rept_Date":"2020-01-07 12"},"coordinates":[1154,7463]},{"type":"Point","properties":{"Station_ID":"MN-CK-3","Station_Nam":"TOFTE 4.9 NE, MN","Latitude":"47.62394","Longitude":"-90.76100","Snowdepth":"17.000","Units":"in","Rept_Date":"2020-01-07 13"},"coordinates":[1481,7446]},{"type":"Point","properties":{"Station_ID":"LEIM5","Station_Nam":"ORR 3E","Latitude":"48.05810","Longitude":"-92.75220","Snowdepth":"17.000","Units":"in","Rept_Date":"2020-01-07 12"},"coordinates":[1026,7716]},{"type":"Point","properties":{"Station_ID":"KABM5","Station_Nam":"KABETOGAMA LAKE VISITOR CTR","Latitude":"48.40880","Longitude":"-93.04840","Snowdepth":"17.000","Units":"in","Rept_Date":"2020-01-07 13"},"coordinates":[958,7935]},{"type":"Point","properties":{"Station_ID":"IRMM4","Station_Nam":"WWTP","Latitude":"46.46670","Longitude":"-90.18330","Snowdepth":"17.000","Units":"in","Rept_Date":"2020-01-07 13"},"coordinates":[1614,6726]},{"type":"Point","properties":{"Station_ID":"GLDM4","Station_Nam":"GLADSTONE NO. 2","Latitude":"45.84330","Longitude":"-87.03910","Snowdepth":"17.000","Units":"in","Rept_Date":"2020-01-07 12"},"coordinates":[2333,6339]},{"type":"Point","properties":{"Station_ID":"EMBM5","Station_Nam":"EMBARASS,MN","Latitude":"47.65810","Longitude":"-92.19580","Snowdepth":"17.000","Units":"in","Rept_Date":"2020-01-07 12"},"coordinates":[1153,7468]},{"type":"Point","properties":{"Station_ID":"ELYM5","Station_Nam":"ELY","Latitude":"47.90560","Longitude":"-91.82830","Snowdepth":"17.000","Units":"in","Rept_Date":"2020-01-07 14"},"coordinates":[1237,7622]},{"type":"Point","properties":{"Station_ID":"EGRW3","Station_Nam":"EAGLE RIVER-SOUTH","Latitude":"45.91360","Longitude":"-89.24360","Snowdepth":"17.000","Units":"in","Rept_Date":"2020-01-07 13"},"coordinates":[1829,6382]},{"type":"Point","properties":{"Station_ID":"SOCQ6","Station_Nam":"SOCKET LAKE","Latitude":"50.77870","Longitude":"-91.79300","Snowdepth":"16.500","Units":"in","Rept_Date":"2020-01-08 06"},"coordinates":[1245,9409]},{"type":"Point","properties":{"Station_ID":"NH-CS-10","Station_Nam":"RANDOLPH 1.4 NE, NH","Latitude":"44.38824","Longitude":"-71.26950","Snowdepth":"16.500","Units":"in","Rept_Date":"2020-01-07 12"},"coordinates":[5939,5433]},{"type":"Point","properties":{"Station_ID":"MN-SL-108","Station_Nam":"IRON JUNCTION 3.4 NNW, MN","Latitude":"47.46150","Longitude":"-92.63130","Snowdepth":"16.500","Units":"in","Rept_Date":"2020-01-07 15"},"coordinates":[1054,7345]},{"type":"Point","properties":{"Station_ID":"CAN-MB-32","Station_Nam":"PINAWA 1.0 SW, CA","Latitude":"50.14747","Longitude":"-95.89020","Snowdepth":"16.500","Units":"in","Rept_Date":"2020-01-07 13"},"coordinates":[308,9016]},{"type":"Point","properties":{"Station_ID":"WI-BY-2","Station_Nam":"MELLEN 18.6 SW, WI","Latitude":"46.16937","Longitude":"-90.98090","Snowdepth":"16.400","Units":"in","Rept_Date":"2020-01-07 13"},"coordinates":[1431,6541]},{"type":"Point","properties":{"Station_ID":"QLM","Station_Nam":"QLM","Latitude":"48.92030","Longitude":"-70.25280","Snowdepth":"16.299","Units":"in","Rept_Date":"2020-01-07 12"},"coordinates":[6172,8253]},{"type":"Point","properties":{"Station_ID":"VT-OL-9","Station_Nam":"GREENSBORO 2.1 NNW, VT","Latitude":"44.60528","Longitude":"-72.30940","Snowdepth":"16.000","Units":"in","Rept_Date":"2020-01-07 12"},"coordinates":[5702,5568]},{"type":"Point","properties":{"Station_ID":"VT-OL-1","Station_Nam":"WESTFIELD 0.7 WNW, VT","Latitude":"44.89160","Longitude":"-72.44350","Snowdepth":"16.000","Units":"in","Rept_Date":"2020-01-07 12"},"coordinates":[5671,5746]},{"type":"Point","properties":{"Station_ID":"VT-CL-40","Station_Nam":"LYNDONVILLE 4.2 NNW, VT","Latitude":"44.59440","Longitude":"-72.02389","Snowdepth":"16.000","Units":"in","Rept_Date":"2020-01-07 12"},"coordinates":[5767,5562]},{"type":"Point","properties":{"Station_ID":"NYMM5","Station_Nam":"NEW YORK MILLS","Latitude":"46.50920","Longitude":"-95.37990","Snowdepth":"16.000","Units":"in","Rept_Date":"2020-01-07 13"},"coordinates":[425,6753]},{"type":"Point","properties":{"Station_ID":"MWN","Station_Nam":"MOUNT WASHINGTON","Latitude":"44.26670","Longitude":"-71.30000","Snowdepth":"16.000","Units":"in","Rept_Date":"2020-01-08 05"},"coordinates":[5932,5358]},{"type":"Point","properties":{"Station_ID":"MNMZK7NS","Station_Nam":"NEW YORK MILLS 0.2 NNE","Latitude":"46.52057","Longitude":"-95.37394","Snowdepth":"16.000","Units":"in","Rept_Date":"2020-01-07 13"},"coordinates":[426,6760]},{"type":"Point","properties":{"Station_ID":"MN-PK-15","Station_Nam":"MENTOR 2.5 SSW, MN","Latitude":"47.66625","Longitude":"-96.17328","Snowdepth":"16.000","Units":"in","Rept_Date":"2020-01-07 13"},"coordinates":[244,7473]},{"type":"Point","properties":{"Station_ID":"LTMW3","Station_Nam":"LAKE TOMAHAWK 2 SE","Latitude":"45.80750","Longitude":"-89.55830","Snowdepth":"16.000","Units":"in","Rept_Date":"2020-01-07 12"},"coordinates":[1757,6316]},{"type":"Point","properties":{"Station_ID":"KMWN","Station_Nam":"MOUNT WASHINGTON","Latitude":"44.26666","Longitude":"-71.30000","Snowdepth":"16.000","Units":"in","Rept_Date":"2020-01-08 06"},"coordinates":[5932,5358]},{"type":"Point","properties":{"Station_ID":"GLRM5","Station_Nam":"GLACIAL RIDGE","Latitude":"47.71670","Longitude":"-96.26670","Snowdepth":"16.000","Units":"in","Rept_Date":"2020-01-08 02"},"coordinates":[222,7504]},{"type":"Point","properties":{"Station_ID":"GGRM4","Station_Nam":"GREEN GARDEN NO.2","Latitude":"46.45330","Longitude":"-87.30380","Snowdepth":"16.000","Units":"in","Rept_Date":"2020-01-07 11"},"coordinates":[2272,6718]},{"type":"Point","properties":{"Station_ID":"FEDM5","Station_Nam":"LEECH LAKE DAM","Latitude":"47.24670","Longitude":"-94.22280","Snowdepth":"16.000","Units":"in","Rept_Date":"2020-01-07 14"},"coordinates":[690,7212]},{"type":"Point","properties":{"Station_ID":"CRLM5","Station_Nam":"CROSS LAKE DAM","Latitude":"46.66930","Longitude":"-94.11060","Snowdepth":"16.000","Units":"in","Rept_Date":"2020-01-07 14"},"coordinates":[715,6852]},{"type":"Point","properties":{"Station_ID":"CMKW3","Station_Nam":"CLAM LAKE 4W","Latitude":"46.16940","Longitude":"-90.98080","Snowdepth":"16.000","Units":"in","Rept_Date":"2020-01-07 13"},"coordinates":[1431,6541]},{"type":"Point","properties":{"Station_ID":"AGNW3","Station_Nam":"ARGONNE-1.5 NW","Latitude":"45.67360","Longitude":"-88.90380","Snowdepth":"16.000","Units":"in","Rept_Date":"2020-01-07 13"},"coordinates":[1906,6233]},{"type":"Point","properties":{"Station_ID":"QLP","Station_Nam":"QLP","Latitude":"48.13920","Longitude":"-72.63830","Snowdepth":"15.866","Units":"in","Rept_Date":"2020-01-07 12"},"coordinates":[5626,7767]},{"type":"Point","properties":{"Station_ID":"QGA","Station_Nam":"QGA","Latitude":"47.25640","Longitude":"-73.73810","Snowdepth":"15.433","Units":"in","Rept_Date":"2020-01-07 12"},"coordinates":[5375,7218]},{"type":"Point","properties":{"Station_ID":"WRTS2","Station_Nam":"WATERTOWN,SD","Latitude":"44.90280","Longitude":"-97.11360","Snowdepth":"15.000","Units":"in","Rept_Date":"2020-01-07 15"},"coordinates":[29,5753]},{"type":"Point","properties":{"Station_ID":"WI-ON-6","Station_Nam":"RHINELANDER 5.2 N, WI","Latitude":"45.71388","Longitude":"-89.42150","Snowdepth":"15.000","Units":"in","Rept_Date":"2020-01-07 14"},"coordinates":[1788,6258]},{"type":"Point","properties":{"Station_ID":"VT-OL-2","Station_Nam":"BARTON 3.0 ENE, VT","Latitude":"44.75863","Longitude":"-72.11680","Snowdepth":"15.000","Units":"in","Rept_Date":"2020-01-07 12"},"coordinates":[5746,5664]},{"type":"Point","properties":{"Station_ID":"VT-CL-18","Station_Nam":"WHEELOCK 1.6 S, VT","Latitude":"44.56491","Longitude":"-72.08830","Snowdepth":"15.000","Units":"in","Rept_Date":"2020-01-07 12"},"coordinates":[5752,5543]},{"type":"Point","properties":{"Station_ID":"QTM","Station_Nam":"QTM","Latitude":"51.05780","Longitude":"-72.57190","Snowdepth":"15.000","Units":"in","Rept_Date":"2020-01-07 12"},"coordinates":[5642,9583]},{"type":"Point","properties":{"Station_ID":"OTTM5","Station_Nam":"OTTERTAIL,MN","Latitude":"46.41670","Longitude":"-95.56670","Snowdepth":"15.000","Units":"in","Rept_Date":"2020-01-07 13"},"coordinates":[382,6695]},{"type":"Point","properties":{"Station_ID":"ND-CS-25","Station_Nam":"FARGO 2.1 N, ND","Latitude":"46.90816","Longitude":"-96.77937","Snowdepth":"15.000","Units":"in","Rept_Date":"2020-01-07 14"},"coordinates":[105,7001]},{"type":"Point","properties":{"Station_ID":"ND-CS-1","Station_Nam":"WEST FARGO 3.8 SSE, ND","Latitude":"46.82750","Longitude":"-96.85280","Snowdepth":"15.000","Units":"in","Rept_Date":"2020-01-07 13"},"coordinates":[88,6951]},{"type":"Point","properties":{"Station_ID":"MNMQO9OI","Station_Nam":"OTTERTAIL 1.5 WNW","Latitude":"46.43378","Longitude":"-95.58416","Snowdepth":"15.000","Units":"in","Rept_Date":"2020-01-07 13"},"coordinates":[378,6706]},{"type":"Point","properties":{"Station_ID":"MN3LTZND","Station_Nam":"BRAINERD 1.4 S","Latitude":"46.33224","Longitude":"-94.20905","Snowdepth":"15.000","Units":"in","Rept_Date":"2020-01-07 13"},"coordinates":[693,6643]},{"type":"Point","properties":{"Station_ID":"MN-BM-15","Station_Nam":"BEMIDJI 7.8 ENE, MN","Latitude":"47.52043","Longitude":"-94.72121","Snowdepth":"15.000","Units":"in","Rept_Date":"2020-01-07 13"},"coordinates":[576,7382]},{"type":"Point","properties":{"Station_ID":"FDRN8","Station_Nam":"FARGO 3S","Latitude":"46.82930","Longitude":"-96.79620","Snowdepth":"15.000","Units":"in","Rept_Date":"2020-01-08 00"},"coordinates":[101,6952]},{"type":"Point","properties":{"Station_ID":"FAR","Station_Nam":"HECTOR INTERNATIONAL ARPT","Latitude":"46.91560","Longitude":"-96.81440","Snowdepth":"15.000","Units":"in","Rept_Date":"2020-01-08 00"},"coordinates":[97,7006]},{"type":"Point","properties":{"Station_ID":"CRVW3","Station_Nam":"CRIVITZ HIGH FALLS","Latitude":"45.35750","Longitude":"-88.19190","Snowdepth":"15.000","Units":"in","Rept_Date":"2020-01-07 13"},"coordinates":[2069,6036]},{"type":"Point","properties":{"Station_ID":"BRAM5","Station_Nam":"BRAINERD","Latitude":"46.34320","Longitude":"-94.20900","Snowdepth":"15.000","Units":"in","Rept_Date":"2020-01-07 13"},"coordinates":[693,6650]},{"type":"Point","properties":{"Station_ID":"BGBM4","Station_Nam":"BIG BAY 1NW","Latitude":"46.83250","Longitude":"-87.75040","Snowdepth":"15.000","Units":"in","Rept_Date":"2020-01-07 13"},"coordinates":[2170,6954]},{"type":"Point","properties":{"Station_ID":"AVTW3","Station_Nam":"ARBOR VITAE-JOHNSON LAKE","Latitude":"45.89940","Longitude":"-89.72670","Snowdepth":"15.000","Units":"in","Rept_Date":"2020-01-07 12"},"coordinates":[1718,6373]},{"type":"Point","properties":{"Station_ID":"AURW3","Station_Nam":"AURORA","Latitude":"45.77000","Longitude":"-88.11810","Snowdepth":"15.000","Units":"in","Rept_Date":"2020-01-07 13"},"coordinates":[2086,6293]},{"type":"Point","properties":{"Station_ID":"ATY","Station_Nam":"WATERTOWN MUNICIPAL AIRPORT","Latitude":"44.91420","Longitude":"-97.15440","Snowdepth":"15.000","Units":"in","Rept_Date":"2020-01-07 12"},"coordinates":[19,5761]},{"type":"Point","properties":{"Station_ID":"ANTW3","Station_Nam":"ANTIGO,WI","Latitude":"45.13330","Longitude":"-89.15000","Snowdepth":"15.000","Units":"in","Rept_Date":"2020-01-07 14"},"coordinates":[1850,5897]},{"type":"Point","properties":{"Station_ID":"QLI","Station_Nam":"QLI","Latitude":"50.27080","Longitude":"-73.92280","Snowdepth":"14.921","Units":"in","Rept_Date":"2020-01-07 12"},"coordinates":[5333,9093]},{"type":"Point","properties":{"Station_ID":"CATQ6","Station_Nam":"CAT LAKE","Latitude":"51.72690","Longitude":"-91.82210","Snowdepth":"14.290","Units":"in","Rept_Date":"2020-01-08 06"},"coordinates":[1239,9999]},{"type":"Point","properties":{"Station_ID":"VT-WH-9","Station_Nam":"WEST HALIFAX 0.2 SE, VT","Latitude":"42.78561","Longitude":"-72.76950","Snowdepth":"14.000","Units":"in","Rept_Date":"2020-01-07 13"},"coordinates":[5596,4436]},{"type":"Point","properties":{"Station_ID":"TAKW3","Station_Nam":"RICE RESERVOIR NO. 2","Latitude":"45.53770","Longitude":"-89.73220","Snowdepth":"14.000","Units":"in","Rept_Date":"2020-01-07 13"},"coordinates":[1717,6148]},{"type":"Point","properties":{"Station_ID":"SSMM4","Station_Nam":"SAULT STE MARIE","Latitude":"46.48660","Longitude":"-84.40250","Snowdepth":"14.000","Units":"in","Rept_Date":"2020-01-07 13"},"coordinates":[2936,6739]},{"type":"Point","properties":{"Station_ID":"RLKW3","Station_Nam":"REST LAKE","Latitude":"46.12220","Longitude":"-89.87720","Snowdepth":"14.000","Units":"in","Rept_Date":"2020-01-07 14"},"coordinates":[1684,6512]},{"type":"Point","properties":{"Station_ID":"RARM4","Station_Nam":"RAPID RIVER 1 SW","Latitude":"45.91500","Longitude":"-86.98800","Snowdepth":"14.000","Units":"in","Rept_Date":"2020-01-07 12"},"coordinates":[2344,6383]},{"type":"Point","properties":{"Station_ID":"MIEM4","Station_Nam":"MICHIGAMME 3WNW","Latitude":"46.54530","Longitude":"-88.18000","Snowdepth":"14.000","Units":"in","Rept_Date":"2020-01-07 13"},"coordinates":[2072,6775]},{"type":"Point","properties":{"Station_ID":"MI-OT-17","Station_Nam":"GAYLORD 4.1 S, MI","Latitude":"44.96388","Longitude":"-84.68467","Snowdepth":"14.000","Units":"in","Rept_Date":"2020-01-07 12"},"coordinates":[2871,5791]},{"type":"Point","properties":{"Station_ID":"MI-MQ-2","Station_Nam":"MARQUETTE 6.5 SSE, MI","Latitude":"46.46461","Longitude":"-87.34064","Snowdepth":"14.000","Units":"in","Rept_Date":"2020-01-07 13"},"coordinates":[2264,6725]},{"type":"Point","properties":{"Station_ID":"ME-AR-23","Station_Nam":"MADAWASKA 2.5 E, ME","Latitude":"47.34933","Longitude":"-68.28141","Snowdepth":"14.000","Units":"in","Rept_Date":"2020-01-07 12"},"coordinates":[6623,7276]},{"type":"Point","properties":{"Station_ID":"JOHV1","Station_Nam":"JOHNSON 2 N","Latitude":"44.65790","Longitude":"-72.67850","Snowdepth":"14.000","Units":"in","Rept_Date":"2020-01-07 12"},"coordinates":[5617,5601]},{"type":"Point","properties":{"Station_ID":"INL","Station_Nam":"FALLS INTERNATIONAL ARPT","Latitude":"48.56640","Longitude":"-93.40310","Snowdepth":"14.000","Units":"in","Rept_Date":"2020-01-08 00"},"coordinates":[877,8033]},{"type":"Point","properties":{"Station_ID":"IFSM5","Station_Nam":"INTERNATIONAL FALLS SNOW","Latitude":"48.57780","Longitude":"-93.39640","Snowdepth":"14.000","Units":"in","Rept_Date":"2020-01-07 12"},"coordinates":[879,8040]},{"type":"Point","properties":{"Station_ID":"HRVM4","Station_Nam":"HARVEY","Latitude":"46.49080","Longitude":"-87.35470","Snowdepth":"14.000","Units":"in","Rept_Date":"2020-01-07 11"},"coordinates":[2261,6741]},{"type":"Point","properties":{"Station_ID":"BRVM5","Station_Nam":"BROWNS VALLEY,MN","Latitude":"45.61670","Longitude":"-96.83330","Snowdepth":"14.000","Units":"in","Rept_Date":"2020-01-07 11"},"coordinates":[93,6198]},{"type":"Point","properties":{"Station_ID":"BFHW3","Station_Nam":"BAYFIELD FISH HATCHERY","Latitude":"46.78670","Longitude":"-90.86420","Snowdepth":"14.000","Units":"in","Rept_Date":"2020-01-07 14"},"coordinates":[1458,6926]},{"type":"Point","properties":{"Station_ID":"AVLV1","Station_Nam":"AVERILL","Latitude":"45.00570","Longitude":"-71.69030","Snowdepth":"14.000","Units":"in","Rept_Date":"2020-01-07 13"},"coordinates":[5843,5817]},{"type":"Point","properties":{"Station_ID":"AROM4","Station_Nam":"ARNOLD,MI","Latitude":"46.06670","Longitude":"-87.48330","Snowdepth":"14.000","Units":"in","Rept_Date":"2020-01-07 13"},"coordinates":[2231,6478]},{"type":"Point","properties":{"Station_ID":"ANJM4","Station_Nam":"SNOW PAID OBSERVER FOR KANJ","Latitude":"46.48670","Longitude":"-84.40260","Snowdepth":"14.000","Units":"in","Rept_Date":"2020-01-08 06"},"coordinates":[2936,6739]},{"type":"Point","properties":{"Station_ID":"AMAM4","Station_Nam":"AMASA 1W","Latitude":"46.23470","Longitude":"-88.45440","Snowdepth":"14.000","Units":"in","Rept_Date":"2020-01-07 14"},"coordinates":[2009,6582]},{"type":"Point","properties":{"Station_ID":"QWG","Station_Nam":"QWG","Latitude":"48.48890","Longitude":"-73.45940","Snowdepth":"13.898","Units":"in","Rept_Date":"2020-01-07 12"},"coordinates":[5439,7985]},{"type":"Point","properties":{"Station_ID":"WI-AS-4","Station_Nam":"ASHLAND 0.5 WNW, WI","Latitude":"46.58240","Longitude":"-90.88390","Snowdepth":"13.500","Units":"in","Rept_Date":"2020-01-07 13"},"coordinates":[1453,6798]},{"type":"Point","properties":{"Station_ID":"MN-IT-1","Station_Nam":"GRAND RAPIDS 2.0 E, MN","Latitude":"47.22266","Longitude":"-93.49600","Snowdepth":"13.500","Units":"in","Rept_Date":"2020-01-07 12"},"coordinates":[856,7197]},{"type":"Point","properties":{"Station_ID":"MN-CW-22","Station_Nam":"FORT RIPLEY 0.8 N, MN","Latitude":"46.18089","Longitude":"-94.36510","Snowdepth":"13.500","Units":"in","Rept_Date":"2020-01-07 13"},"coordinates":[657,6549]},{"type":"Point","properties":{"Station_ID":"CAN-ON-757","Station_Nam":"SAULT STE. MARIE 2.8 ESE - GLFC, CAN","Latitude":"46.50300","Longitude":"-84.30300","Snowdepth":"13.500","Units":"in","Rept_Date":"2020-01-07 13"},"coordinates":[2959,6749]},{"type":"Point","properties":{"Station_ID":"CAN-NB-105","Station_Nam":"SISSON BROOK 3.8 E, CAN","Latitude":"46.98305","Longitude":"-67.32532","Snowdepth":"13.400","Units":"in","Rept_Date":"2020-01-07 12"},"coordinates":[6841,7048]},{"type":"Point","properties":{"Station_ID":"WI-SR-1","Station_Nam":"HAYWARD 9.2 NNE, WI","Latitude":"46.13255","Longitude":"-91.40500","Snowdepth":"13.300","Units":"in","Rept_Date":"2020-01-07 12"},"coordinates":[1334,6519]},{"type":"Point","properties":{"Station_ID":"WILW3","Station_Nam":"RESERVOIR","Latitude":"45.70000","Longitude":"-89.83330","Snowdepth":"13.000","Units":"in","Rept_Date":"2020-01-07 12"},"coordinates":[1694,6249]},{"type":"Point","properties":{"Station_ID":"WI-RS-1","Station_Nam":"LADYSMITH 2.8 WNW, WI","Latitude":"45.48180","Longitude":"-91.14680","Snowdepth":"13.000","Units":"in","Rept_Date":"2020-01-07 13"},"coordinates":[1393,6114]},{"type":"Point","properties":{"Station_ID":"WI-PR-6","Station_Nam":"PHILLIPS 1.3 S, WI","Latitude":"45.67677","Longitude":"-90.39543","Snowdepth":"13.000","Units":"in","Rept_Date":"2020-01-07 12"},"coordinates":[1565,6235]},{"type":"Point","properties":{"Station_ID":"WI-PR-2","Station_Nam":"BUTTERNUT 5.9 SW, WI","Latitude":"45.96501","Longitude":"-90.59750","Snowdepth":"13.000","Units":"in","Rept_Date":"2020-01-07 12"},"coordinates":[1519,6414]},{"type":"Point","properties":{"Station_ID":"VT-ES-3","Station_Nam":"LUNENBURG 2.3 NNW, VT","Latitude":"44.49324","Longitude":"-71.70446","Snowdepth":"13.000","Units":"in","Rept_Date":"2020-01-07 10"},"coordinates":[5840,5499]},{"type":"Point","properties":{"Station_ID":"TOHM5","Station_Nam":"TWO HARBORS WWTP","Latitude":"47.01760","Longitude":"-91.66480","Snowdepth":"13.000","Units":"in","Rept_Date":"2020-01-07 13"},"coordinates":[1275,7069]},{"type":"Point","properties":{"Station_ID":"SIWS2","Station_Nam":"SISSETON 3W","Latitude":"45.65870","Longitude":"-97.12450","Snowdepth":"13.000","Units":"in","Rept_Date":"2020-01-07 13"},"coordinates":[26,6224]},{"type":"Point","properties":{"Station_ID":"SD-RB-1","Station_Nam":"SISSETON 3.8 W, SD","Latitude":"45.65865","Longitude":"-97.12370","Snowdepth":"13.000","Units":"in","Rept_Date":"2020-01-07 13"},"coordinates":[26,6224]},{"type":"Point","properties":{"Station_ID":"RHLW3","Station_Nam":"RHINELANDER 4NE","Latitude":"45.65270","Longitude":"-89.30740","Snowdepth":"13.000","Units":"in","Rept_Date":"2020-01-07 12"},"coordinates":[1814,6220]},{"type":"Point","properties":{"Station_ID":"MN4QO5TH","Station_Nam":"TWO HARBORS 0.7 ESE","Latitude":"47.03297","Longitude":"-91.65673","Snowdepth":"13.000","Units":"in","Rept_Date":"2020-01-07 13"},"coordinates":[1277,7079]},{"type":"Point","properties":{"Station_ID":"MI-AT-6","Station_Nam":"MANCELONA 0.5 ESE, MI","Latitude":"44.89981","Longitude":"-85.05100","Snowdepth":"13.000","Units":"in","Rept_Date":"2020-01-07 13"},"coordinates":[2787,5752]},{"type":"Point","properties":{"Station_ID":"JCBM4","Station_Nam":"JACOBSVILLE","Latitude":"47.00830","Longitude":"-88.43180","Snowdepth":"13.000","Units":"in","Rept_Date":"2020-01-07 12"},"coordinates":[2014,7063]},{"type":"Point","properties":{"Station_ID":"ISPM4","Station_Nam":"WWTP","Latitude":"46.50000","Longitude":"-87.68330","Snowdepth":"13.000","Units":"in","Rept_Date":"2020-01-07 13"},"coordinates":[2185,6747]},{"type":"Point","properties":{"Station_ID":"INDM5","Station_Nam":"INDUS,MN","Latitude":"48.61670","Longitude":"-93.90000","Snowdepth":"13.000","Units":"in","Rept_Date":"2020-01-07 14"},"coordinates":[764,8064]},{"type":"Point","properties":{"Station_ID":"HGHN6","Station_Nam":"HIGHMARKET","Latitude":"43.57520","Longitude":"-75.52070","Snowdepth":"13.000","Units":"in","Rept_Date":"2020-01-07 11"},"coordinates":[4967,4927]},{"type":"Point","properties":{"Station_ID":"GRFN8","Station_Nam":"UNIVERSITY","Latitude":"47.93330","Longitude":"-97.08330","Snowdepth":"13.000","Units":"in","Rept_Date":"2020-01-08 06"},"coordinates":[36,7639]},{"type":"Point","properties":{"Station_ID":"GHMN3","Station_Nam":"PINKHAM NOTCH","Latitude":"44.25800","Longitude":"-71.25250","Snowdepth":"13.000","Units":"in","Rept_Date":"2020-01-07 11"},"coordinates":[5943,5352]},{"type":"Point","properties":{"Station_ID":"EAHV1","Station_Nam":"EAST HAVEN","Latitude":"44.64250","Longitude":"-71.89120","Snowdepth":"13.000","Units":"in","Rept_Date":"2020-01-07 12"},"coordinates":[5797,5592]},{"type":"Point","properties":{"Station_ID":"COUW3","Station_Nam":"COUDERAY,WI","Latitude":"45.86670","Longitude":"-91.45000","Snowdepth":"13.000","Units":"in","Rept_Date":"2020-01-07 22"},"coordinates":[1324,6353]},{"type":"Point","properties":{"Station_ID":"COTM5","Station_Nam":"COTTON","Latitude":"47.16870","Longitude":"-92.46290","Snowdepth":"13.000","Units":"in","Rept_Date":"2020-01-07 12"},"coordinates":[1092,7163]},{"type":"Point","properties":{"Station_ID":"CORV1","Station_Nam":"CORINTH","Latitude":"44.00690","Longitude":"-72.31940","Snowdepth":"13.000","Units":"in","Rept_Date":"2020-01-07 12"},"coordinates":[5699,5196]},{"type":"Point","properties":{"Station_ID":"BRDM1","Station_Nam":"BRIDGEWATER","Latitude":"46.42870","Longitude":"-67.84370","Snowdepth":"13.000","Units":"in","Rept_Date":"2020-01-07 23"},"coordinates":[6723,6703]},{"type":"Point","properties":{"Station_ID":"AWXW3","Station_Nam":"ASHLAND","Latitude":"46.58240","Longitude":"-90.88390","Snowdepth":"13.000","Units":"in","Rept_Date":"2020-01-07 13"},"coordinates":[1453,6798]},{"type":"Point","properties":{"Station_ID":"ANJ","Station_Nam":"SAULT STE MARIE","Latitude":"46.46670","Longitude":"-84.36670","Snowdepth":"13.000","Units":"in","Rept_Date":"2020-01-08 00"},"coordinates":[2944,6726]},{"type":"Point","properties":{"Station_ID":"SD-RB-4","Station_Nam":"SISSETON 10.4 ENE, SD","Latitude":"45.69480","Longitude":"-96.83480","Snowdepth":"12.500","Units":"in","Rept_Date":"2020-01-07 13"},"coordinates":[92,6246]},{"type":"Point","properties":{"Station_ID":"SD-CD-30","Station_Nam":"WATERTOWN 2.3 E, SD","Latitude":"44.91604","Longitude":"-97.11925","Snowdepth":"12.500","Units":"in","Rept_Date":"2020-01-07 14"},"coordinates":[27,5762]},{"type":"Point","properties":{"Station_ID":"MN-BK-10","Station_Nam":"DETROIT LAKES 5.7 N, MN","Latitude":"46.88666","Longitude":"-95.84444","Snowdepth":"12.500","Units":"in","Rept_Date":"2020-01-07 14"},"coordinates":[319,6988]},{"type":"Point","properties":{"Station_ID":"MI-CX-7","Station_Nam":"EAST JORDAN 2.1 NNW, MI","Latitude":"45.18639","Longitude":"-85.14750","Snowdepth":"12.500","Units":"in","Rept_Date":"2020-01-07 13"},"coordinates":[2765,5930]},{"type":"Point","properties":{"Station_ID":"ME-PN-45","Station_Nam":"MILLINOCKET 2.7 ESE, ME","Latitude":"45.65002","Longitude":"-68.64472","Snowdepth":"12.500","Units":"in","Rept_Date":"2020-01-07 12"},"coordinates":[6540,6218]},{"type":"Point","properties":{"Station_ID":"WTNM4","Station_Nam":"WATTON 2WSW","Latitude":"46.52660","Longitude":"-88.64240","Snowdepth":"12.000","Units":"in","Rept_Date":"2020-01-07 13"},"coordinates":[1966,6764]},{"type":"Point","properties":{"Station_ID":"WI-SR-5","Station_Nam":"HAYWARD 9.7 NE, WI","Latitude":"46.12030","Longitude":"-91.35370","Snowdepth":"12.000","Units":"in","Rept_Date":"2020-01-07 14"},"coordinates":[1346,6511]},{"type":"Point","properties":{"Station_ID":"WI-CH-3","Station_Nam":"CORNELL 4.1 W, WI","Latitude":"45.17024","Longitude":"-91.23610","Snowdepth":"12.000","Units":"in","Rept_Date":"2020-01-07 14"},"coordinates":[1373,5920]},{"type":"Point","properties":{"Station_ID":"WI-BR-2","Station_Nam":"CHETEK 2.0 SE, WI","Latitude":"45.29427","Longitude":"-91.62470","Snowdepth":"12.000","Units":"in","Rept_Date":"2020-01-07 13"},"coordinates":[1284,5997]},{"type":"Point","properties":{"Station_ID":"SWTW3","Station_Nam":"SUPERIOR WWTP","Latitude":"46.72700","Longitude":"-92.07200","Snowdepth":"12.000","Units":"in","Rept_Date":"2020-01-08 06"},"coordinates":[1182,6888]},{"type":"Point","properties":{"Station_ID":"RQLN6","Station_Nam":"RAQUETTE LAKE","Latitude":"43.80000","Longitude":"-74.66670","Snowdepth":"12.000","Units":"in","Rept_Date":"2020-01-07 17"},"coordinates":[5162,5067]},{"type":"Point","properties":{"Station_ID":"RHRW3","Station_Nam":"RHINELANDER WJFW TV-12","Latitude":"45.62220","Longitude":"-89.41000","Snowdepth":"12.000","Units":"in","Rept_Date":"2020-01-08 04"},"coordinates":[1790,6201]},{"type":"Point","properties":{"Station_ID":"RGNM1","Station_Nam":"RANGELEY 2NW","Latitude":"44.98940","Longitude":"-70.67220","Snowdepth":"12.000","Units":"in","Rept_Date":"2020-01-07 11"},"coordinates":[6076,5807]},{"type":"Point","properties":{"Station_ID":"PRNW3","Station_Nam":"PRENTICE,WI","Latitude":"45.54780","Longitude":"-90.30000","Snowdepth":"12.000","Units":"in","Rept_Date":"2020-01-07 14"},"coordinates":[1587,6155]},{"type":"Point","properties":{"Station_ID":"ORAN3","Station_Nam":"ORANGE","Latitude":"43.66880","Longitude":"-71.94830","Snowdepth":"12.000","Units":"in","Rept_Date":"2020-01-07 12"},"coordinates":[5784,4986]},{"type":"Point","properties":{"Station_ID":"NY-ES-6","Station_Nam":"OLMSTEDVILLE 4.6 NNE, NY","Latitude":"43.83350","Longitude":"-73.89780","Snowdepth":"12.000","Units":"in","Rept_Date":"2020-01-07 13"},"coordinates":[5338,5088]},{"type":"Point","properties":{"Station_ID":"NH-CR-26","Station_Nam":"CENTER SANDWICH 4.9 E, NH","Latitude":"43.80976","Longitude":"-71.34150","Snowdepth":"12.000","Units":"in","Rept_Date":"2020-01-07 12"},"coordinates":[5923,5073]},{"type":"Point","properties":{"Station_ID":"NH-CR-1","Station_Nam":"EAST WAKEFIELD 1.2 SE, NH","Latitude":"43.60370","Longitude":"-70.98670","Snowdepth":"12.000","Units":"in","Rept_Date":"2020-01-07 12"},"coordinates":[6004,4945]},{"type":"Point","properties":{"Station_ID":"NCON3","Station_Nam":"NORTH CONWAY,NH","Latitude":"44.05000","Longitude":"-71.13330","Snowdepth":"12.000","Units":"in","Rept_Date":"2020-01-07 13"},"coordinates":[5971,5223]},{"type":"Point","properties":{"Station_ID":"MN7TCHCK","Station_Nam":"COOK 0.2 ENE","Latitude":"47.85225","Longitude":"-92.68378","Snowdepth":"12.000","Units":"in","Rept_Date":"2020-01-07 12"},"coordinates":[1042,7588]},{"type":"Point","properties":{"Station_ID":"MI-OT-16","Station_Nam":"GAYLORD 2.2 SSE, MI","Latitude":"44.99441","Longitude":"-84.65820","Snowdepth":"12.000","Units":"in","Rept_Date":"2020-01-07 11"},"coordinates":[2877,5810]},{"type":"Point","properties":{"Station_ID":"HOLW3","Station_Nam":"HOLCOMBE","Latitude":"45.22370","Longitude":"-91.12700","Snowdepth":"12.000","Units":"in","Rept_Date":"2020-01-07 13"},"coordinates":[1398,5953]},{"type":"Point","properties":{"Station_ID":"FLDM5","Station_Nam":"FLOODWOOD,MN","Latitude":"47.00000","Longitude":"-92.91670","Snowdepth":"12.000","Units":"in","Rept_Date":"2020-01-07 14"},"coordinates":[988,7058]},{"type":"Point","properties":{"Station_ID":"ESDN3","Station_Nam":"EAST SANDWICH","Latitude":"43.80990","Longitude":"-71.34250","Snowdepth":"12.000","Units":"in","Rept_Date":"2020-01-07 11"},"coordinates":[5923,5074]},{"type":"Point","properties":{"Station_ID":"ESAM4","Station_Nam":"ESCANABA","Latitude":"45.74380","Longitude":"-87.04060","Snowdepth":"12.000","Units":"in","Rept_Date":"2020-01-07 12"},"coordinates":[2332,6277]},{"type":"Point","properties":{"Station_ID":"ERG29","Station_Nam":"NMPS RAQUETTE LAKE","Latitude":"44.23000","Longitude":"-74.75000","Snowdepth":"12.000","Units":"in","Rept_Date":"2020-01-07 17"},"coordinates":[5143,5335]},{"type":"Point","properties":{"Station_ID":"EJNM4","Station_Nam":"EAST JORDAN 2NW","Latitude":"45.18630","Longitude":"-85.14770","Snowdepth":"12.000","Units":"in","Rept_Date":"2020-01-07 13"},"coordinates":[2765,5930]},{"type":"Point","properties":{"Station_ID":"COKM5","Station_Nam":"COOK","Latitude":"47.85060","Longitude":"-92.69250","Snowdepth":"12.000","Units":"in","Rept_Date":"2020-01-07 12"},"coordinates":[1040,7587]},{"type":"Point","properties":{"Station_ID":"CLGM5","Station_Nam":"COLLEGEVILLE ST JOHN","Latitude":"45.57940","Longitude":"-94.39200","Snowdepth":"12.000","Units":"in","Rept_Date":"2020-01-08 00"},"coordinates":[651,6174]},{"type":"Point","properties":{"Station_ID":"CEFM4","Station_Nam":"EXPERIMENT FARM #2","Latitude":"46.33330","Longitude":"-86.91670","Snowdepth":"12.000","Units":"in","Rept_Date":"2020-01-07 13"},"coordinates":[2361,6643]},{"type":"Point","properties":{"Station_ID":"BTLN3","Station_Nam":"BARTLETT","Latitude":"44.08380","Longitude":"-71.29340","Snowdepth":"12.000","Units":"in","Rept_Date":"2020-01-07 12"},"coordinates":[5934,5244]},{"type":"Point","properties":{"Station_ID":"BETM1","Station_Nam":"BETHEL 6 SSE","Latitude":"44.32000","Longitude":"-70.75680","Snowdepth":"12.000","Units":"in","Rept_Date":"2020-01-07 12"},"coordinates":[6057,5391]},{"type":"Point","properties":{"Station_ID":"BAUM5","Station_Nam":"BAUDETTE,MN","Latitude":"48.71670","Longitude":"-94.61670","Snowdepth":"12.000","Units":"in","Rept_Date":"2020-01-07 21"},"coordinates":[600,8126]},{"type":"Point","properties":{"Station_ID":"FTHQ6","Station_Nam":"FORT HOPE","Latitude":"51.55820","Longitude":"-87.90510","Snowdepth":"11.650","Units":"in","Rept_Date":"2020-01-08 06"},"coordinates":[2135,9894]},{"type":"Point","properties":{"Station_ID":"QGT","Station_Nam":"QGT","Latitude":"49.64720","Longitude":"-67.62640","Snowdepth":"11.575","Units":"in","Rept_Date":"2020-01-07 12"},"coordinates":[6773,8705]},{"type":"Point","properties":{"Station_ID":"WI-PR-8","Station_Nam":"PHILLIPS 0.4 SSW, WI","Latitude":"45.69086","Longitude":"-90.40200","Snowdepth":"11.500","Units":"in","Rept_Date":"2020-01-07 13"},"coordinates":[1564,6244]},{"type":"Point","properties":{"Station_ID":"NH-MR-6","Station_Nam":"DANBURY 2.2 ESE, NH","Latitude":"43.52000","Longitude":"-71.81900","Snowdepth":"11.500","Units":"in","Rept_Date":"2020-01-07 13"},"coordinates":[5814,4893]},{"type":"Point","properties":{"Station_ID":"CAN-NS-94","Station_Nam":"MARGAREE FORKS 2.6 SSE CBN, CAN","Latitude":"46.30937","Longitude":"-61.07603","Snowdepth":"11.400","Units":"in","Rept_Date":"2020-01-07 13"},"coordinates":[8271,6629]},{"type":"Point","properties":{"Station_ID":"ZNOM4","Station_Nam":"NORWAY","Latitude":"45.77810","Longitude":"-87.89560","Snowdepth":"11.000","Units":"in","Rept_Date":"2020-01-08 01"},"coordinates":[2137,6298]},{"type":"Point","properties":{"Station_ID":"WLKM5","Station_Nam":"AH-GWAH-CHING","Latitude":"47.15000","Longitude":"-94.65000","Snowdepth":"11.000","Units":"in","Rept_Date":"2020-01-07 11"},"coordinates":[592,7152]},{"type":"Point","properties":{"Station_ID":"WI-DN-1","Station_Nam":"BOYCEVILLE 3.3 N, WI","Latitude":"45.08913","Longitude":"-92.02760","Snowdepth":"11.000","Units":"in","Rept_Date":"2020-01-07 13"},"coordinates":[1192,5869]},{"type":"Point","properties":{"Station_ID":"WI-BT-14","Station_Nam":"OAKLAND 9.0 ENE, WI","Latitude":"45.95184","Longitude":"-92.21653","Snowdepth":"11.000","Units":"in","Rept_Date":"2020-01-07 13"},"coordinates":[1149,6406]},{"type":"Point","properties":{"Station_ID":"VT-OG-11","Station_Nam":"VERSHIRE 1.5 ESE, VT","Latitude":"43.96138","Longitude":"-72.29777","Snowdepth":"11.000","Units":"in","Rept_Date":"2020-01-07 13"},"coordinates":[5704,5168]},{"type":"Point","properties":{"Station_ID":"RDFN6","Station_Nam":"REDFIELD 8N","Latitude":"43.64130","Longitude":"-75.88400","Snowdepth":"11.000","Units":"in","Rept_Date":"2020-01-07 12"},"coordinates":[4884,4969]},{"type":"Point","properties":{"Station_ID":"NPTV1","Station_Nam":"NEWPORT","Latitude":"44.94900","Longitude":"-72.19120","Snowdepth":"11.000","Units":"in","Rept_Date":"2020-01-07 12"},"coordinates":[5729,5782]},{"type":"Point","properties":{"Station_ID":"NH-CR-11","Station_Nam":"NORTH CONWAY 1.4 SSW, NH","Latitude":"44.03556","Longitude":"-71.14010","Snowdepth":"11.000","Units":"in","Rept_Date":"2020-01-07 12"},"coordinates":[5969,5214]},{"type":"Point","properties":{"Station_ID":"NCBN6","Station_Nam":"NEWCOMB","Latitude":"43.97070","Longitude":"-74.22200","Snowdepth":"11.000","Units":"in","Rept_Date":"2020-01-07 13"},"coordinates":[5264,5174]},{"type":"Point","properties":{"Station_ID":"MQRW3","Station_Nam":"MINOCQUA","Latitude":"45.88630","Longitude":"-89.73220","Snowdepth":"11.000","Units":"in","Rept_Date":"2020-01-07 12"},"coordinates":[1717,6365]},{"type":"Point","properties":{"Station_ID":"MNP0GYWA","Station_Nam":"WALKER 2.0 SSE","Latitude":"47.07505","Longitude":"-94.56757","Snowdepth":"11.000","Units":"in","Rept_Date":"2020-01-07 11"},"coordinates":[611,7105]},{"type":"Point","properties":{"Station_ID":"MNLGGILP","Station_Nam":"LONG PRAIRIE 1.1 WSW","Latitude":"45.96913","Longitude":"-94.88686","Snowdepth":"11.000","Units":"in","Rept_Date":"2020-01-07 12"},"coordinates":[538,6417]},{"type":"Point","properties":{"Station_ID":"MN7M8EBJ","Station_Nam":"LUTSEN 15.7 NNW","Latitude":"47.85324","Longitude":"-89.92908","Snowdepth":"11.000","Units":"in","Rept_Date":"2020-01-07 14"},"coordinates":[1672,7589]},{"type":"Point","properties":{"Station_ID":"MN-CK-6","Station_Nam":"GRAND MARAIS 4.4 W, MN","Latitude":"47.74865","Longitude":"-90.43760","Snowdepth":"11.000","Units":"in","Rept_Date":"2020-01-07 13"},"coordinates":[1555,7524]},{"type":"Point","properties":{"Station_ID":"MLBS2","Station_Nam":"MILBANK","Latitude":"45.22040","Longitude":"-96.62530","Snowdepth":"11.000","Units":"in","Rept_Date":"2020-01-07 13"},"coordinates":[140,5951]},{"type":"Point","properties":{"Station_ID":"MI-CP-14","Station_Nam":"SAULT STE. MARIE 2.2 E, MI","Latitude":"46.48933","Longitude":"-84.31971","Snowdepth":"11.000","Units":"in","Rept_Date":"2020-01-07 12"},"coordinates":[2955,6740]},{"type":"Point","properties":{"Station_ID":"ME-OX-2","Station_Nam":"HARTFORD 1.4 N, ME","Latitude":"44.39318","Longitude":"-70.34760","Snowdepth":"11.000","Units":"in","Rept_Date":"2020-01-07 12"},"coordinates":[6150,5436]},{"type":"Point","properties":{"Station_ID":"ME-FR-4","Station_Nam":"NEW SHARON 2.0 NW, ME","Latitude":"44.66582","Longitude":"-70.02720","Snowdepth":"11.000","Units":"in","Rept_Date":"2020-01-07 12"},"coordinates":[6224,5606]},{"type":"Point","properties":{"Station_ID":"ME-CM-125","Station_Nam":"CUMBERLAND CENTER 4.4 NW, ME","Latitude":"43.84640","Longitude":"-70.31340","Snowdepth":"11.000","Units":"in","Rept_Date":"2020-01-07 12"},"coordinates":[6158,5096]},{"type":"Point","properties":{"Station_ID":"LNGM5","Station_Nam":"LONG PRAIRIE","Latitude":"45.96460","Longitude":"-94.88920","Snowdepth":"11.000","Units":"in","Rept_Date":"2020-01-07 12"},"coordinates":[537,6414]},{"type":"Point","properties":{"Station_ID":"LGRN8","Station_Nam":"LIDGERWOOD,ND","Latitude":"46.06670","Longitude":"-97.16670","Snowdepth":"11.000","Units":"in","Rept_Date":"2020-01-07 13"},"coordinates":[16,6478]},{"type":"Point","properties":{"Station_ID":"KGFK","Station_Nam":"GRAND FORKS INTERNATIONAL","Latitude":"47.95000","Longitude":"-97.18333","Snowdepth":"11.000","Units":"in","Rept_Date":"2020-01-08 06"},"coordinates":[13,7649]},{"type":"Point","properties":{"Station_ID":"JEFN3","Station_Nam":"JEFFERSON","Latitude":"44.41690","Longitude":"-71.50080","Snowdepth":"11.000","Units":"in","Rept_Date":"2020-01-07 12"},"coordinates":[5886,5451]},{"type":"Point","properties":{"Station_ID":"INDN6","Station_Nam":"INDIAN LAKE","Latitude":"43.75500","Longitude":"-74.27560","Snowdepth":"11.000","Units":"in","Rept_Date":"2020-01-07 13"},"coordinates":[5252,5039]},{"type":"Point","properties":{"Station_ID":"GFK","Station_Nam":"GRAND FORKS INTERNATIONAL AIRPORT","Latitude":"47.94920","Longitude":"-97.17610","Snowdepth":"11.000","Units":"in","Rept_Date":"2020-01-08 00"},"coordinates":[14,7649]},{"type":"Point","properties":{"Station_ID":"CANM5","Station_Nam":"CANBY","Latitude":"44.71840","Longitude":"-96.26960","Snowdepth":"11.000","Units":"in","Rept_Date":"2020-01-07 14"},"coordinates":[222,5639]},{"type":"Point","properties":{"Station_ID":"CAN-NB-2","Station_Nam":"GRAFTON 2.7 NNE, CA","Latitude":"46.17062","Longitude":"-67.55330","Snowdepth":"11.000","Units":"in","Rept_Date":"2020-01-07 11"},"coordinates":[6789,6542]},{"type":"Point","properties":{"Station_ID":"CAN-NB-11","Station_Nam":"MIRAMICHI 3.3 S, CAN","Latitude":"46.99343","Longitude":"-65.50690","Snowdepth":"11.000","Units":"in","Rept_Date":"2020-01-07 11"},"coordinates":[7257,7054]},{"type":"Point","properties":{"Station_ID":"BKEM5","Station_Nam":"BRECKENRIDGE 4NE","Latitude":"46.30470","Longitude":"-96.52170","Snowdepth":"11.000","Units":"in","Rept_Date":"2020-01-07 13"},"coordinates":[164,6626]},{"type":"Point","properties":{"Station_ID":"NH-MR-41","Station_Nam":"NEWBURY 1.6 NW, NH","Latitude":"43.33667","Longitude":"-72.06060","Snowdepth":"10.500","Units":"in","Rept_Date":"2020-01-07 12"},"coordinates":[5758,4779]},{"type":"Point","properties":{"Station_ID":"MN-CW-29","Station_Nam":"BRAINERD 7.7 SSE, MN","Latitude":"46.24996","Longitude":"-94.14576","Snowdepth":"10.500","Units":"in","Rept_Date":"2020-01-07 13"},"coordinates":[707,6592]},{"type":"Point","properties":{"Station_ID":"CAN-ON-245","Station_Nam":"PHELPSTON 3.1 ESE, CAN","Latitude":"44.50564","Longitude":"-79.81035","Snowdepth":"10.500","Units":"in","Rept_Date":"2020-01-07 14"},"coordinates":[3986,5506]},{"type":"Point","properties":{"Station_ID":"WORV1","Station_Nam":"WORCESTER 2 W","Latitude":"44.37470","Longitude":"-72.58220","Snowdepth":"10.000","Units":"in","Rept_Date":"2020-01-07 12"},"coordinates":[5639,5425]},{"type":"Point","properties":{"Station_ID":"WI-LN-2","Station_Nam":"MERRILL 7.0 W, WI","Latitude":"45.17746","Longitude":"-89.84820","Snowdepth":"10.000","Units":"in","Rept_Date":"2020-01-07 12"},"coordinates":[1690,5924]},{"type":"Point","properties":{"Station_ID":"VT-WS-30","Station_Nam":"WOODBURY 3.4 NNW, VT","Latitude":"44.48825","Longitude":"-72.43258","Snowdepth":"10.000","Units":"in","Rept_Date":"2020-01-07 12"},"coordinates":[5673,5496]},{"type":"Point","properties":{"Station_ID":"UVDV1","Station_Nam":"NERON SITE AT UNION VILLAGE DAM","Latitude":"43.79140","Longitude":"-72.25720","Snowdepth":"10.000","Units":"in","Rept_Date":"2020-01-07 12"},"coordinates":[5714,5062]},{"type":"Point","properties":{"Station_ID":"TUPN6","Station_Nam":"TUPPER LAKE SNOW COURSE","Latitude":"44.10560","Longitude":"-74.53440","Snowdepth":"10.000","Units":"in","Rept_Date":"2020-01-07 17"},"coordinates":[5193,5257]},{"type":"Point","properties":{"Station_ID":"SULW3","Station_Nam":"SUMMIT LAKE","Latitude":"45.37880","Longitude":"-89.19410","Snowdepth":"10.000","Units":"in","Rept_Date":"2020-01-07 17"},"coordinates":[1840,6050]},{"type":"Point","properties":{"Station_ID":"RRVM4","Station_Nam":"RAPID RIVER 9S","Latitude":"45.78750","Longitude":"-86.93920","Snowdepth":"10.000","Units":"in","Rept_Date":"2020-01-07 16"},"coordinates":[2356,6304]},{"type":"Point","properties":{"Station_ID":"NUMN3","Station_Nam":"NORTHUMBERLAND","Latitude":"44.52830","Longitude":"-71.50440","Snowdepth":"10.000","Units":"in","Rept_Date":"2020-01-07 12"},"coordinates":[5886,5520]},{"type":"Point","properties":{"Station_ID":"NH-CR-41","Station_Nam":"ALBANY 2.8 SW, NH","Latitude":"43.92648","Longitude":"-71.21556","Snowdepth":"10.000","Units":"in","Rept_Date":"2020-01-07 13"},"coordinates":[5952,5146]},{"type":"Point","properties":{"Station_ID":"NH-CR-16","Station_Nam":"WOLFEBORO 0.6 SW, NH","Latitude":"43.58464","Longitude":"-71.21760","Snowdepth":"10.000","Units":"in","Rept_Date":"2020-01-07 12"},"coordinates":[5951,4933]},{"type":"Point","properties":{"Station_ID":"NCKN6","Station_Nam":"NORTH CREEK 5 SE","Latitude":"43.66110","Longitude":"-73.89690","Snowdepth":"10.000","Units":"in","Rept_Date":"2020-01-07 12"},"coordinates":[5338,4981]},{"type":"Point","properties":{"Station_ID":"MTQM4","Station_Nam":"MANISTIQUE WWTP","Latitude":"45.95120","Longitude":"-86.25130","Snowdepth":"10.000","Units":"in","Rept_Date":"2020-01-07 12"},"coordinates":[2513,6406]},{"type":"Point","properties":{"Station_ID":"MN-MR-13","Station_Nam":"LITTLE FALLS 8.0 NE, MN","Latitude":"46.06785","Longitude":"-94.24789","Snowdepth":"10.000","Units":"in","Rept_Date":"2020-01-07 13"},"coordinates":[684,6478]},{"type":"Point","properties":{"Station_ID":"MLLW3","Station_Nam":"MERRILL 8W","Latitude":"45.17810","Longitude":"-89.84810","Snowdepth":"10.000","Units":"in","Rept_Date":"2020-01-07 12"},"coordinates":[1690,5925]},{"type":"Point","properties":{"Station_ID":"MI-OT-4","Station_Nam":"GAYLORD 1.7 WNW, MI","Latitude":"45.03280","Longitude":"-84.71090","Snowdepth":"10.000","Units":"in","Rept_Date":"2020-01-07 13"},"coordinates":[2865,5834]},{"type":"Point","properties":{"Station_ID":"MEDW3","Station_Nam":"MEDFORD","Latitude":"45.13080","Longitude":"-90.34390","Snowdepth":"10.000","Units":"in","Rept_Date":"2020-01-07 14"},"coordinates":[1577,5895]},{"type":"Point","properties":{"Station_ID":"ME-SG-1","Station_Nam":"BATH 1.1 WSW, ME","Latitude":"43.93063","Longitude":"-69.85730","Snowdepth":"10.000","Units":"in","Rept_Date":"2020-01-07 12"},"coordinates":[6262,5149]},{"type":"Point","properties":{"Station_ID":"MADM5","Station_Nam":"MADISON WWTP","Latitude":"45.00230","Longitude":"-96.16610","Snowdepth":"10.000","Units":"in","Rept_Date":"2020-01-07 14"},"coordinates":[245,5815]},{"type":"Point","properties":{"Station_ID":"LPLN6","Station_Nam":"LAKE PLACID 2 S","Latitude":"44.30420","Longitude":"-73.98390","Snowdepth":"10.000","Units":"in","Rept_Date":"2020-01-07 12"},"coordinates":[5319,5381]},{"type":"Point","properties":{"Station_ID":"LADW3","Station_Nam":"LADYSMITH WTP","Latitude":"45.44290","Longitude":"-91.08970","Snowdepth":"10.000","Units":"in","Rept_Date":"2020-01-07 13"},"coordinates":[1406,6089]},{"type":"Point","properties":{"Station_ID":"HRSN6","Station_Nam":"HORSESHOE LAKE SNOW COURSE","Latitude":"44.13920","Longitude":"-74.57000","Snowdepth":"10.000","Units":"in","Rept_Date":"2020-01-07 17"},"coordinates":[5185,5278]},{"type":"Point","properties":{"Station_ID":"GAYM4","Station_Nam":"GAYLORD","Latitude":"45.03320","Longitude":"-84.71130","Snowdepth":"10.000","Units":"in","Rept_Date":"2020-01-07 13"},"coordinates":[2865,5835]},{"type":"Point","properties":{"Station_ID":"ERG36","Station_Nam":"NMPS TUPPER LAKE","Latitude":"44.12000","Longitude":"-74.55000","Snowdepth":"10.000","Units":"in","Rept_Date":"2020-01-07 17"},"coordinates":[5189,5266]},{"type":"Point","properties":{"Station_ID":"ERG18","Station_Nam":"NMPS HORSESHOE LAKE","Latitude":"44.15000","Longitude":"-74.60000","Snowdepth":"10.000","Units":"in","Rept_Date":"2020-01-07 17"},"coordinates":[5178,5285]},{"type":"Point","properties":{"Station_ID":"ENGM4","Station_Nam":"ENGADINE MDOT","Latitude":"46.12800","Longitude":"-85.56960","Snowdepth":"10.000","Units":"in","Rept_Date":"2020-01-07 12"},"coordinates":[2669,6516]},{"type":"Point","properties":{"Station_ID":"DURM1","Station_Nam":"DURHAM","Latitude":"43.99960","Longitude":"-70.09630","Snowdepth":"10.000","Units":"in","Rept_Date":"2020-01-07 12"},"coordinates":[6208,5192]},{"type":"Point","properties":{"Station_ID":"DFXM1","Station_Nam":"DOVER-FOXCROFT","Latitude":"45.18720","Longitude":"-69.18350","Snowdepth":"10.000","Units":"in","Rept_Date":"2020-01-07 12"},"coordinates":[6416,5930]},{"type":"Point","properties":{"Station_ID":"COLN3","Station_Nam":"COLEBROOK 3SW","Latitude":"44.86100","Longitude":"-71.53920","Snowdepth":"10.000","Units":"in","Rept_Date":"2020-01-07 12"},"coordinates":[5878,5727]},{"type":"Point","properties":{"Station_ID":"CHRM4","Station_Nam":"CHARLEVOIX","Latitude":"45.31720","Longitude":"-85.26720","Snowdepth":"10.000","Units":"in","Rept_Date":"2020-01-07 13"},"coordinates":[2738,6011]},{"type":"Point","properties":{"Station_ID":"CARM1","Station_Nam":"CARIBOU WFO","Latitude":"46.86810","Longitude":"-68.01250","Snowdepth":"10.000","Units":"in","Rept_Date":"2020-01-08 05"},"coordinates":[6684,6976]},{"type":"Point","properties":{"Station_ID":"BTHM1","Station_Nam":"BATH","Latitude":"43.93160","Longitude":"-69.85640","Snowdepth":"10.000","Units":"in","Rept_Date":"2020-01-07 11"},"coordinates":[6263,5149]},{"type":"Point","properties":{"Station_ID":"ARTM5","Station_Nam":"ARTICHOKE LAKE 1 E","Latitude":"45.38560","Longitude":"-96.12570","Snowdepth":"10.000","Units":"in","Rept_Date":"2020-01-08 00"},"coordinates":[255,6054]},{"type":"Point","properties":{"Station_ID":"APXM4","Station_Nam":"GAYLORD 9SSW","Latitude":"44.90720","Longitude":"-84.71880","Snowdepth":"10.000","Units":"in","Rept_Date":"2020-01-08 06"},"coordinates":[2863,5756]},{"type":"Point","properties":{"Station_ID":"VT-WS-10","Station_Nam":"NORTHFIELD 1.5 N, VT","Latitude":"44.16986","Longitude":"-72.65200","Snowdepth":"9.500","Units":"in","Rept_Date":"2020-01-07 12"},"coordinates":[5623,5297]},{"type":"Point","properties":{"Station_ID":"NH-ST-31","Station_Nam":"STRAFFORD 2.9 N, NH","Latitude":"43.31175","Longitude":"-71.13510","Snowdepth":"9.500","Units":"in","Rept_Date":"2020-01-07 13"},"coordinates":[5970,4764]},{"type":"Point","properties":{"Station_ID":"NH-GR-49","Station_Nam":"PLYMOUTH 3.7 N, NH","Latitude":"43.79048","Longitude":"-71.68413","Snowdepth":"9.500","Units":"in","Rept_Date":"2020-01-07 12"},"coordinates":[5845,5061]},{"type":"Point","properties":{"Station_ID":"NH-BK-9","Station_Nam":"MEREDITH 2.9 SSW, NH","Latitude":"43.62245","Longitude":"-71.53510","Snowdepth":"9.500","Units":"in","Rept_Date":"2020-01-07 12"},"coordinates":[5879,4957]},{"type":"Point","properties":{"Station_ID":"NH-BK-7","Station_Nam":"LACONIA 7.9 E, NH","Latitude":"43.55415","Longitude":"-71.32310","Snowdepth":"9.500","Units":"in","Rept_Date":"2020-01-07 12"},"coordinates":[5927,4914]},{"type":"Point","properties":{"Station_ID":"MA-HS-7","Station_Nam":"PLAINFIELD 2.2 SW, MA","Latitude":"42.49272","Longitude":"-72.94540","Snowdepth":"9.500","Units":"in","Rept_Date":"2020-01-07 13"},"coordinates":[5556,4254]},{"type":"Point","properties":{"Station_ID":"WLDM5","Station_Nam":"WILD RIVER STATE PARK","Latitude":"45.52310","Longitude":"-92.74890","Snowdepth":"9.000","Units":"in","Rept_Date":"2020-01-07 14"},"coordinates":[1027,6139]},{"type":"Point","properties":{"Station_ID":"WI-MT-14","Station_Nam":"MOSINEE 2.7 WSW, WI","Latitude":"44.77240","Longitude":"-89.73441","Snowdepth":"9.000","Units":"in","Rept_Date":"2020-01-07 13"},"coordinates":[1716,5672]},{"type":"Point","properties":{"Station_ID":"VT-LM-7","Station_Nam":"HYDE PARK 2.9 NE, VT","Latitude":"44.62080","Longitude":"-72.57250","Snowdepth":"9.000","Units":"in","Rept_Date":"2020-01-07 12"},"coordinates":[5641,5578]},{"type":"Point","properties":{"Station_ID":"VANM1","Station_Nam":"VAN BUREN","Latitude":"47.16600","Longitude":"-67.93900","Snowdepth":"9.000","Units":"in","Rept_Date":"2020-01-07 13"},"coordinates":[6701,7161]},{"type":"Point","properties":{"Station_ID":"SSSS2","Station_Nam":"MILBANK-36MI.NW","Latitude":"45.66670","Longitude":"-97.00000","Snowdepth":"9.000","Units":"in","Rept_Date":"2020-01-08 04"},"coordinates":[55,6229]},{"type":"Point","properties":{"Station_ID":"SLNV1","Station_Nam":"SOUTH LINCOLN","Latitude":"44.07460","Longitude":"-72.97180","Snowdepth":"9.000","Units":"in","Rept_Date":"2020-01-07 12"},"coordinates":[5550,5238]},{"type":"Point","properties":{"Station_ID":"ROWM3","Station_Nam":"ROWE 3NE","Latitude":"42.73500","Longitude":"-72.86920","Snowdepth":"9.000","Units":"in","Rept_Date":"2020-01-07 12"},"coordinates":[5574,4405]},{"type":"Point","properties":{"Station_ID":"RDYM4","Station_Nam":"RUDYARD 4S","Latitude":"46.18170","Longitude":"-84.60140","Snowdepth":"9.000","Units":"in","Rept_Date":"2020-01-07 12"},"coordinates":[2890,6549]},{"type":"Point","properties":{"Station_ID":"NH-MR-45","Station_Nam":"NORTHFIELD 2.8 E, NH","Latitude":"43.43945","Longitude":"-71.53730","Snowdepth":"9.000","Units":"in","Rept_Date":"2020-01-07 12"},"coordinates":[5878,4843]},{"type":"Point","properties":{"Station_ID":"NH-GR-47","Station_Nam":"LITTLETON 7.3 W, NH","Latitude":"44.31847","Longitude":"-71.91086","Snowdepth":"9.000","Units":"in","Rept_Date":"2020-01-07 13"},"coordinates":[5793,5390]},{"type":"Point","properties":{"Station_ID":"MSTI3","Station_Nam":"MORRISTOWN","Latitude":"39.67110","Longitude":"-85.70660","Snowdepth":"9.000","Units":"in","Rept_Date":"2020-01-07 12"},"coordinates":[2637,2499]},{"type":"Point","properties":{"Station_ID":"MRAM4","Station_Nam":"MORAN","Latitude":"45.99030","Longitude":"-84.83610","Snowdepth":"9.000","Units":"in","Rept_Date":"2020-01-07 13"},"coordinates":[2837,6430]},{"type":"Point","properties":{"Station_ID":"MN-SH-10","Station_Nam":"BIG LAKE 5.6 NNE, MN","Latitude":"45.41409","Longitude":"-93.69190","Snowdepth":"9.000","Units":"in","Rept_Date":"2020-01-07 13"},"coordinates":[811,6072]},{"type":"Point","properties":{"Station_ID":"MN-MR-4","Station_Nam":"LITTLE FALLS 1.2 SW, MN","Latitude":"45.96886","Longitude":"-94.37720","Snowdepth":"9.000","Units":"in","Rept_Date":"2020-01-07 13"},"coordinates":[654,6417]},{"type":"Point","properties":{"Station_ID":"ME-YK-67","Station_Nam":"CORNISH 5.6 ESE, ME","Latitude":"43.78308","Longitude":"-70.69539","Snowdepth":"9.000","Units":"in","Rept_Date":"2020-01-07 12"},"coordinates":[6071,5057]},{"type":"Point","properties":{"Station_ID":"ME-YK-3","Station_Nam":"HOLLIS CENTER 5.4 NW, ME","Latitude":"43.64750","Longitude":"-70.67510","Snowdepth":"9.000","Units":"in","Rept_Date":"2020-01-07 12"},"coordinates":[6075,4972]},{"type":"Point","properties":{"Station_ID":"ME-CM-86","Station_Nam":"POWNAL 4.1 S, ME","Latitude":"43.85370","Longitude":"-70.17210","Snowdepth":"9.000","Units":"in","Rept_Date":"2020-01-07 12"},"coordinates":[6190,5101]},{"type":"Point","properties":{"Station_ID":"ME-CM-3","Station_Nam":"NEW GLOUCESTER 3.0 SE, ME","Latitude":"43.92372","Longitude":"-70.25790","Snowdepth":"9.000","Units":"in","Rept_Date":"2020-01-07 12"},"coordinates":[6171,5144]},{"type":"Point","properties":{"Station_ID":"ME-AR-15","Station_Nam":"PRESQUE ISLE 1.3 WSW, ME","Latitude":"46.67960","Longitude":"-68.01270","Snowdepth":"9.000","Units":"in","Rept_Date":"2020-01-07 12"},"coordinates":[6684,6859]},{"type":"Point","properties":{"Station_ID":"LLKN6","Station_Nam":"LONG LAKE","Latitude":"43.98330","Longitude":"-74.45000","Snowdepth":"9.000","Units":"in","Rept_Date":"2020-01-07 17"},"coordinates":[5212,5181]},{"type":"Point","properties":{"Station_ID":"LBRM5","Station_Nam":"LAKE BRONSON DAM","Latitude":"48.72410","Longitude":"-96.62180","Snowdepth":"9.000","Units":"in","Rept_Date":"2020-01-07 14"},"coordinates":[141,8131]},{"type":"Point","properties":{"Station_ID":"LBKV1","Station_Nam":"LYE BROOK","Latitude":"43.05000","Longitude":"-73.03330","Snowdepth":"9.000","Units":"in","Rept_Date":"2020-01-08 06"},"coordinates":[5536,4601]},{"type":"Point","properties":{"Station_ID":"KINM1","Station_Nam":"KINGFIELD","Latitude":"44.95950","Longitude":"-70.17530","Snowdepth":"9.000","Units":"in","Rept_Date":"2020-01-07 13"},"coordinates":[6190,5789]},{"type":"Point","properties":{"Station_ID":"HYTS2","Station_Nam":"HAYTI 1W","Latitude":"44.66330","Longitude":"-97.22670","Snowdepth":"9.000","Units":"in","Rept_Date":"2020-01-07 14"},"coordinates":[3,5604]},{"type":"Point","properties":{"Station_ID":"HRTM1","Station_Nam":"HARTFORD","Latitude":"44.37440","Longitude":"-70.31620","Snowdepth":"9.000","Units":"in","Rept_Date":"2020-01-07 12"},"coordinates":[6157,5425]},{"type":"Point","properties":{"Station_ID":"HOLM1","Station_Nam":"HOLLIS","Latitude":"43.64750","Longitude":"-70.67490","Snowdepth":"9.000","Units":"in","Rept_Date":"2020-01-07 11"},"coordinates":[6075,4972]},{"type":"Point","properties":{"Station_ID":"HANN3","Station_Nam":"HANOVER","Latitude":"43.70520","Longitude":"-72.28550","Snowdepth":"9.000","Units":"in","Rept_Date":"2020-01-07 20"},"coordinates":[5707,5008]},{"type":"Point","properties":{"Station_ID":"GFDN6","Station_Nam":"CHASES LAKE","Latitude":"43.75920","Longitude":"-75.29980","Snowdepth":"9.000","Units":"in","Rept_Date":"2020-01-07 11"},"coordinates":[5018,5042]},{"type":"Point","properties":{"Station_ID":"ESGM1","Station_Nam":"EAST SANGERVILLE","Latitude":"45.13690","Longitude":"-69.28060","Snowdepth":"9.000","Units":"in","Rept_Date":"2020-01-07 12"},"coordinates":[6394,5899]},{"type":"Point","properties":{"Station_ID":"ERG20","Station_Nam":"NMPS LONG LAKE","Latitude":"43.98000","Longitude":"-74.45000","Snowdepth":"9.000","Units":"in","Rept_Date":"2020-01-07 17"},"coordinates":[5212,5179]},{"type":"Point","properties":{"Station_ID":"EPTW3","Station_Nam":"EAU PLEINE TENDER","Latitude":"44.77220","Longitude":"-89.76720","Snowdepth":"9.000","Units":"in","Rept_Date":"2020-01-07 13"},"coordinates":[1709,5672]},{"type":"Point","properties":{"Station_ID":"CAN-NB-13","Station_Nam":"BATHURST 3.8 NW, CAN","Latitude":"47.64212","Longitude":"-65.68756","Snowdepth":"9.000","Units":"in","Rept_Date":"2020-01-07 11"},"coordinates":[7216,7458]},{"type":"Point","properties":{"Station_ID":"BRLN3","Station_Nam":"BERLIN","Latitude":"44.45350","Longitude":"-71.18540","Snowdepth":"9.000","Units":"in","Rept_Date":"2020-01-07 12"},"coordinates":[5959,5474]},{"type":"Point","properties":{"Station_ID":"CAN-PE-19","Station_Nam":"CHARLOTTETOWN 6.5 NNW, CAN","Latitude":"46.29235","Longitude":"-63.17271","Snowdepth":"8.900","Units":"in","Rept_Date":"2020-01-07 12"},"coordinates":[7791,6618]},{"type":"Point","properties":{"Station_ID":"NY-HR-18","Station_Nam":"SALISBURY CENTER 1.8 NW, NY","Latitude":"43.16260","Longitude":"-74.80880","Snowdepth":"8.800","Units":"in","Rept_Date":"2020-01-07 11"},"coordinates":[5130,4671]},{"type":"Point","properties":{"Station_ID":"ME-AN-32","Station_Nam":"WINTHROP 9.4 W, ME","Latitude":"44.30476","Longitude":"-70.15835","Snowdepth":"8.700","Units":"in","Rept_Date":"2020-01-07 12"},"coordinates":[6194,5381]},{"type":"Point","properties":{"Station_ID":"WI-CH-7","Station_Nam":"CHIPPEWA FALLS 1.2 E, WI","Latitude":"44.92920","Longitude":"-91.36730","Snowdepth":"8.500","Units":"in","Rept_Date":"2020-01-07 13"},"coordinates":[1343,5770]},{"type":"Point","properties":{"Station_ID":"SD-BK-7","Station_Nam":"BROOKINGS 0.2 SSW, SD","Latitude":"44.30389","Longitude":"-96.78780","Snowdepth":"8.500","Units":"in","Rept_Date":"2020-01-07 13"},"coordinates":[103,5381]},{"type":"Point","properties":{"Station_ID":"NH-GR-1","Station_Nam":"BRISTOL 0.4 SSE, NH","Latitude":"43.59490","Longitude":"-71.74140","Snowdepth":"8.500","Units":"in","Rept_Date":"2020-01-07 12"},"coordinates":[5831,4940]},{"type":"Point","properties":{"Station_ID":"NH-CR-15","Station_Nam":"JACKSON 3.7 NW, NH","Latitude":"44.19069","Longitude":"-71.22598","Snowdepth":"8.500","Units":"in","Rept_Date":"2020-01-07 12"},"coordinates":[5949,5310]},{"type":"Point","properties":{"Station_ID":"NH-BK-1","Station_Nam":"TILTON NORTHFIELD 3.3 NE, NH","Latitude":"43.48000","Longitude":"-71.55000","Snowdepth":"8.500","Units":"in","Rept_Date":"2020-01-07 12"},"coordinates":[5875,4868]},{"type":"Point","properties":{"Station_ID":"ME-FR-22","Station_Nam":"FARMINGTON 4.8 NNW, ME","Latitude":"44.73396","Longitude":"-70.18007","Snowdepth":"8.500","Units":"in","Rept_Date":"2020-01-07 14"},"coordinates":[6189,5648]},{"type":"Point","properties":{"Station_ID":"MA-HS-14","Station_Nam":"PLAINFIELD 2.4 ESE, MA","Latitude":"42.49792","Longitude":"-72.87769","Snowdepth":"8.500","Units":"in","Rept_Date":"2020-01-07 12"},"coordinates":[5572,4257]},{"type":"Point","properties":{"Station_ID":"WUNW3","Station_Nam":"WAUSAU-NORTHEAST","Latitude":"44.97310","Longitude":"-89.61690","Snowdepth":"8.000","Units":"in","Rept_Date":"2020-01-07 12"},"coordinates":[1743,5797]},{"type":"Point","properties":{"Station_ID":"WSKW3","Station_Nam":"WAUSAUKEE","Latitude":"45.38020","Longitude":"-87.95660","Snowdepth":"8.000","Units":"in","Rept_Date":"2020-01-07 14"},"coordinates":[2123,6050]},{"type":"Point","properties":{"Station_ID":"WRUM5","Station_Nam":"WARROAD 4W","Latitude":"48.89600","Longitude":"-95.40700","Snowdepth":"8.000","Units":"in","Rept_Date":"2020-01-08 04"},"coordinates":[419,8238]},{"type":"Point","properties":{"Station_ID":"WDOM5","Station_Nam":"WINDOM","Latitude":"43.87700","Longitude":"-95.11590","Snowdepth":"8.000","Units":"in","Rept_Date":"2020-01-07 14"},"coordinates":[485,5115]},{"type":"Point","properties":{"Station_ID":"VT-WR-2","Station_Nam":"POMFRET 2.6 N, VT","Latitude":"43.74230","Longitude":"-72.52550","Snowdepth":"8.000","Units":"in","Rept_Date":"2020-01-07 12"},"coordinates":[5652,5031]},{"type":"Point","properties":{"Station_ID":"VT-WR-17","Station_Nam":"ROCHESTER 2.3 NE, VT","Latitude":"43.89418","Longitude":"-72.76992","Snowdepth":"8.000","Units":"in","Rept_Date":"2020-01-07 12"},"coordinates":[5596,5126]},{"type":"Point","properties":{"Station_ID":"VT-CH-4","Station_Nam":"UNDERHILL 4.4 NNE, VT","Latitude":"44.58774","Longitude":"-72.92250","Snowdepth":"8.000","Units":"in","Rept_Date":"2020-01-07 12"},"coordinates":[5561,5557]},{"type":"Point","properties":{"Station_ID":"VT-BN-3","Station_Nam":"LANDGROVE 1.1 NNE, VT","Latitude":"43.29092","Longitude":"-72.83260","Snowdepth":"8.000","Units":"in","Rept_Date":"2020-01-07 12"},"coordinates":[5582,4751]},{"type":"Point","properties":{"Station_ID":"VT-AD-20","Station_Nam":"HANCOCK 0.3 S, VT","Latitude":"43.92166","Longitude":"-72.84042","Snowdepth":"8.000","Units":"in","Rept_Date":"2020-01-07 12"},"coordinates":[5580,5143]},{"type":"Point","properties":{"Station_ID":"VANM4","Station_Nam":"VANDERBILT 11ENE","Latitude":"45.17020","Longitude":"-84.43970","Snowdepth":"8.000","Units":"in","Rept_Date":"2020-01-07 13"},"coordinates":[2927,5920]},{"type":"Point","properties":{"Station_ID":"TMWN3","Station_Nam":"TAMWORTH 4","Latitude":"43.86390","Longitude":"-71.26610","Snowdepth":"8.000","Units":"in","Rept_Date":"2020-01-07 12"},"coordinates":[5940,5107]},{"type":"Point","properties":{"Station_ID":"STRW3","Station_Nam":"STRATFORD 1NW","Latitude":"44.81750","Longitude":"-90.08990","Snowdepth":"8.000","Units":"in","Rept_Date":"2020-01-07 13"},"coordinates":[1635,5700]},{"type":"Point","properties":{"Station_ID":"RSTW3","Station_Nam":"ROSHOLT","Latitude":"44.62710","Longitude":"-89.30600","Snowdepth":"8.000","Units":"in","Rept_Date":"2020-01-07 17"},"coordinates":[1814,5582]},{"type":"Point","properties":{"Station_ID":"RRLW3","Station_Nam":"MERRILL,WI","Latitude":"45.17860","Longitude":"-89.66170","Snowdepth":"8.000","Units":"in","Rept_Date":"2020-01-07 14"},"coordinates":[1733,5925]},{"type":"Point","properties":{"Station_ID":"RCEM5","Station_Nam":"RICE","Latitude":"45.75760","Longitude":"-94.20720","Snowdepth":"8.000","Units":"in","Rept_Date":"2020-01-07 13"},"coordinates":[693,6285]},{"type":"Point","properties":{"Station_ID":"RANM1","Station_Nam":"RANGELEY,ME","Latitude":"44.96670","Longitude":"-70.65000","Snowdepth":"8.000","Units":"in","Rept_Date":"2020-01-07 11"},"coordinates":[6081,5793]},{"type":"Point","properties":{"Station_ID":"POLM1","Station_Nam":"POLAND,ME","Latitude":"44.00750","Longitude":"-70.36190","Snowdepth":"8.000","Units":"in","Rept_Date":"2020-01-07 12"},"coordinates":[6147,5196]},{"type":"Point","properties":{"Station_ID":"PLFV1","Station_Nam":"PLAINFIELD","Latitude":"44.27610","Longitude":"-72.41500","Snowdepth":"8.000","Units":"in","Rept_Date":"2020-01-07 12"},"coordinates":[5677,5364]},{"type":"Point","properties":{"Station_ID":"NY-FK-7","Station_Nam":"SARANAC LAKE 6.2 N, NY","Latitude":"44.41359","Longitude":"-74.15211","Snowdepth":"8.000","Units":"in","Rept_Date":"2020-01-07 12"},"coordinates":[5280,5449]},{"type":"Point","properties":{"Station_ID":"NH-CR-9","Station_Nam":"MADISON 1.7 SE, NH","Latitude":"43.87928","Longitude":"-71.12660","Snowdepth":"8.000","Units":"in","Rept_Date":"2020-01-07 12"},"coordinates":[5972,5117]},{"type":"Point","properties":{"Station_ID":"NH-CR-46","Station_Nam":"NORTH CONWAY 1.8 SSE, NH","Latitude":"44.02955","Longitude":"-71.11664","Snowdepth":"8.000","Units":"in","Rept_Date":"2020-01-07 15"},"coordinates":[5974,5210]},{"type":"Point","properties":{"Station_ID":"NH-CR-27","Station_Nam":"TAMWORTH 0.4 NNW, NH","Latitude":"43.86449","Longitude":"-71.26610","Snowdepth":"8.000","Units":"in","Rept_Date":"2020-01-07 12"},"coordinates":[5940,5107]},{"type":"Point","properties":{"Station_ID":"NH-BK-29","Station_Nam":"SANBORNTON 2.3 WNW, NH","Latitude":"43.49730","Longitude":"-71.62800","Snowdepth":"8.000","Units":"in","Rept_Date":"2020-01-07 12"},"coordinates":[5857,4879]},{"type":"Point","properties":{"Station_ID":"MWTM1","Station_Nam":"MILLINOCKET WWTP","Latitude":"45.64030","Longitude":"-68.67480","Snowdepth":"8.000","Units":"in","Rept_Date":"2020-01-07 11"},"coordinates":[6533,6212]},{"type":"Point","properties":{"Station_ID":"MRQM4","Station_Nam":"MARQUETTE WFP","Latitude":"46.54580","Longitude":"-87.37950","Snowdepth":"8.000","Units":"in","Rept_Date":"2020-01-07 13"},"coordinates":[2255,6776]},{"type":"Point","properties":{"Station_ID":"MRAM5","Station_Nam":"MORA","Latitude":"45.87760","Longitude":"-93.31470","Snowdepth":"8.000","Units":"in","Rept_Date":"2020-01-07 13"},"coordinates":[897,6360]},{"type":"Point","properties":{"Station_ID":"MNCR4NWM","Station_Nam":"WINDOM 1.3 NNE","Latitude":"43.87817","Longitude":"-95.12003","Snowdepth":"8.000","Units":"in","Rept_Date":"2020-01-07 14"},"coordinates":[485,5116]},{"type":"Point","properties":{"Station_ID":"MN228RRE","Station_Nam":"RICE 0.8 ENE","Latitude":"45.75724","Longitude":"-94.20638","Snowdepth":"8.000","Units":"in","Rept_Date":"2020-01-07 13"},"coordinates":[694,6285]},{"type":"Point","properties":{"Station_ID":"MN20GPME","Station_Nam":"MILACA 0.7 W","Latitude":"45.75695","Longitude":"-93.66835","Snowdepth":"8.000","Units":"in","Rept_Date":"2020-01-07 13"},"coordinates":[817,6285]},{"type":"Point","properties":{"Station_ID":"MN-SR-29","Station_Nam":"ALBANY 3.8 S, MN","Latitude":"45.57441","Longitude":"-94.55543","Snowdepth":"8.000","Units":"in","Rept_Date":"2020-01-07 13"},"coordinates":[614,6171]},{"type":"Point","properties":{"Station_ID":"MLCM5","Station_Nam":"MILACA","Latitude":"45.75320","Longitude":"-93.66170","Snowdepth":"8.000","Units":"in","Rept_Date":"2020-01-07 13"},"coordinates":[818,6283]},{"type":"Point","properties":{"Station_ID":"MI-DL-1","Station_Nam":"GARDEN CORNERS 0.8 NW, MI","Latitude":"45.89815","Longitude":"-86.54850","Snowdepth":"8.000","Units":"in","Rept_Date":"2020-01-07 13"},"coordinates":[2445,6373]},{"type":"Point","properties":{"Station_ID":"ME-CM-18","Station_Nam":"PORTLAND 5.5 WNW, ME","Latitude":"43.70288","Longitude":"-70.30550","Snowdepth":"8.000","Units":"in","Rept_Date":"2020-01-07 12"},"coordinates":[6160,5007]},{"type":"Point","properties":{"Station_ID":"LNCM1","Station_Nam":"LINCOLN WATER DISTRICT","Latitude":"45.32410","Longitude":"-68.58300","Snowdepth":"8.000","Units":"in","Rept_Date":"2020-01-07 13"},"coordinates":[6554,6016]},{"type":"Point","properties":{"Station_ID":"LKPN3","Station_Nam":"LAKEPORT 2","Latitude":"43.54910","Longitude":"-71.46450","Snowdepth":"8.000","Units":"in","Rept_Date":"2020-01-07 14"},"coordinates":[5895,4911]},{"type":"Point","properties":{"Station_ID":"LEWM4","Station_Nam":"LEWISTON 3W","Latitude":"44.88210","Longitude":"-84.36540","Snowdepth":"8.000","Units":"in","Rept_Date":"2020-01-07 13"},"coordinates":[2944,5741]},{"type":"Point","properties":{"Station_ID":"GYX","Station_Nam":"PORTLAND, ME","Latitude":"43.89250","Longitude":"-70.25500","Snowdepth":"8.000","Units":"in","Rept_Date":"2020-01-07 12"},"coordinates":[6171,5125]},{"type":"Point","properties":{"Station_ID":"GDCM4","Station_Nam":"GARDEN CORNERS","Latitude":"45.89830","Longitude":"-86.54850","Snowdepth":"8.000","Units":"in","Rept_Date":"2020-01-07 13"},"coordinates":[2445,6373]},{"type":"Point","properties":{"Station_ID":"CAN-NS-103","Station_Nam":"TRAFALGAR 4.9 WSW, CAN","Latitude":"45.26217","Longitude":"-62.72285","Snowdepth":"8.000","Units":"in","Rept_Date":"2020-01-07 11"},"coordinates":[7894,5977]},{"type":"Point","properties":{"Station_ID":"BRAM1","Station_Nam":"BRASSUA DAM","Latitude":"45.66020","Longitude":"-69.81190","Snowdepth":"8.000","Units":"in","Rept_Date":"2020-01-07 12"},"coordinates":[6273,6225]},{"type":"Point","properties":{"Station_ID":"AUW","Station_Nam":"WAUSAU MUNICIPAL AIRPORT","Latitude":"44.92580","Longitude":"-89.62560","Snowdepth":"8.000","Units":"in","Rept_Date":"2020-01-07 12"},"coordinates":[1741,5768]},{"type":"Point","properties":{"Station_ID":"8D3","Station_Nam":"SISSETON MUNICIPAL AP","Latitude":"45.67080","Longitude":"-96.99610","Snowdepth":"8.000","Units":"in","Rept_Date":"2020-01-07 12"},"coordinates":[55,6231]},{"type":"Point","properties":{"Station_ID":"CAN-QC-51","Station_Nam":"BELOEIL 0.7 NW, CAN","Latitude":"45.58049","Longitude":"-73.21218","Snowdepth":"7.900","Units":"in","Rept_Date":"2020-01-07 12"},"coordinates":[5495,6175]},{"type":"Point","properties":{"Station_ID":"VT-CH-11","Station_Nam":"UNDERHILL 5.1 NNE, VT","Latitude":"44.59811","Longitude":"-72.91880","Snowdepth":"7.500","Units":"in","Rept_Date":"2020-01-07 13"},"coordinates":[5562,5564]},{"type":"Point","properties":{"Station_ID":"NH-MR-60","Station_Nam":"SOUTH SUTTON 1.3 SE, NH","Latitude":"43.29531","Longitude":"-71.90238","Snowdepth":"7.500","Units":"in","Rept_Date":"2020-01-07 13"},"coordinates":[5795,4753]},{"type":"Point","properties":{"Station_ID":"ME-YK-5","Station_Nam":"KENNEBUNK 1.8 WNW, ME","Latitude":"43.39320","Longitude":"-70.58060","Snowdepth":"7.500","Units":"in","Rept_Date":"2020-01-07 12"},"coordinates":[6097,4814]},{"type":"Point","properties":{"Station_ID":"ME-CM-128","Station_Nam":"SOUTH PORTLAND 1.6 S, ME","Latitude":"43.60900","Longitude":"-70.28600","Snowdepth":"7.500","Units":"in","Rept_Date":"2020-01-07 12"},"coordinates":[6164,4949]},{"type":"Point","properties":{"Station_ID":"CAN-NB-18","Station_Nam":"MCLEOD HILL 1.1 ENE, CA","Latitude":"46.02725","Longitude":"-66.67460","Snowdepth":"7.500","Units":"in","Rept_Date":"2020-01-07 12"},"coordinates":[6990,6453]},{"type":"Point","properties":{"Station_ID":"CAN-QC-47","Station_Nam":"SAINTE-FOY 1.8 ENE, CAN","Latitude":"46.76934","Longitude":"-71.27124","Snowdepth":"7.100","Units":"in","Rept_Date":"2020-01-07 12"},"coordinates":[5939,6915]},{"type":"Point","properties":{"Station_ID":"WMRM5","Station_Nam":"WILLMAR 5N","Latitude":"45.19010","Longitude":"-95.05860","Snowdepth":"7.000","Units":"in","Rept_Date":"2020-01-07 12"},"coordinates":[499,5932]},{"type":"Point","properties":{"Station_ID":"WHTM5","Station_Nam":"WHEATON,MN","Latitude":"45.80000","Longitude":"-96.48330","Snowdepth":"7.000","Units":"in","Rept_Date":"2020-01-07 14"},"coordinates":[173,6312]},{"type":"Point","properties":{"Station_ID":"WENN3","Station_Nam":"P.O. BOX 197 WENTWORTH, NH","Latitude":"43.95190","Longitude":"-71.91560","Snowdepth":"7.000","Units":"in","Rept_Date":"2020-01-07 12"},"coordinates":[5792,5162]},{"type":"Point","properties":{"Station_ID":"WDSV1","Station_Nam":"WOODSTOCK","Latitude":"43.63030","Longitude":"-72.50720","Snowdepth":"7.000","Units":"in","Rept_Date":"2020-01-07 13"},"coordinates":[5656,4962]},{"type":"Point","properties":{"Station_ID":"WAIV1","Station_Nam":"WAITSFIELD","Latitude":"44.17560","Longitude":"-72.79610","Snowdepth":"7.000","Units":"in","Rept_Date":"2020-01-07 12"},"coordinates":[5590,5301]},{"type":"Point","properties":{"Station_ID":"VT-WS-11","Station_Nam":"WAITSFIELD 1.8 SE, VT","Latitude":"44.17551","Longitude":"-72.79540","Snowdepth":"7.000","Units":"in","Rept_Date":"2020-01-07 12"},"coordinates":[5590,5301]},{"type":"Point","properties":{"Station_ID":"TURM1","Station_Nam":"TURNER","Latitude":"44.28220","Longitude":"-70.25610","Snowdepth":"7.000","Units":"in","Rept_Date":"2020-01-07 12"},"coordinates":[6171,5367]},{"type":"Point","properties":{"Station_ID":"TOPM1","Station_Nam":"TOPSFIELD","Latitude":"45.43470","Longitude":"-67.72020","Snowdepth":"7.000","Units":"in","Rept_Date":"2020-01-07 12"},"coordinates":[6751,6084]},{"type":"Point","properties":{"Station_ID":"TETM5","Station_Nam":"TETTEGOUCHE STATE PARK","Latitude":"47.33900","Longitude":"-91.19590","Snowdepth":"7.000","Units":"in","Rept_Date":"2020-01-07 14"},"coordinates":[1382,7269]},{"type":"Point","properties":{"Station_ID":"SJBV1","Station_Nam":"SAINT JOHNSBURY","Latitude":"44.42000","Longitude":"-72.01940","Snowdepth":"7.000","Units":"in","Rept_Date":"2020-01-07 21"},"coordinates":[5768,5453]},{"type":"Point","properties":{"Station_ID":"SIBI4","Station_Nam":"SIBLEY","Latitude":"43.40470","Longitude":"-95.74830","Snowdepth":"7.000","Units":"in","Rept_Date":"2020-01-07 13"},"coordinates":[341,4821]},{"type":"Point","properties":{"Station_ID":"SD-BK-2","Station_Nam":"ASTORIA 2.2 SSE, SD","Latitude":"44.53093","Longitude":"-96.52270","Snowdepth":"7.000","Units":"in","Rept_Date":"2020-01-07 13"},"coordinates":[164,5522]},{"type":"Point","properties":{"Station_ID":"RKWM1","Station_Nam":"MOOSEHEAD LAKE","Latitude":"45.58330","Longitude":"-69.71670","Snowdepth":"7.000","Units":"in","Rept_Date":"2020-01-07 12"},"coordinates":[6295,6177]},{"type":"Point","properties":{"Station_ID":"RFDM5","Station_Nam":"ROCKFORD","Latitude":"45.08960","Longitude":"-93.73990","Snowdepth":"7.000","Units":"in","Rept_Date":"2020-01-07 13"},"coordinates":[800,5870]},{"type":"Point","properties":{"Station_ID":"PEKN6","Station_Nam":"PECK LAKE","Latitude":"43.11500","Longitude":"-74.42360","Snowdepth":"7.000","Units":"in","Rept_Date":"2020-01-07 13"},"coordinates":[5218,4641]},{"type":"Point","properties":{"Station_ID":"OWEW3","Station_Nam":"OWEN 1E","Latitude":"44.94610","Longitude":"-90.55170","Snowdepth":"7.000","Units":"in","Rept_Date":"2020-01-07 13"},"coordinates":[1529,5780]},{"type":"Point","properties":{"Station_ID":"OCON6","Station_Nam":"OSCEOLA","Latitude":"43.49910","Longitude":"-75.71210","Snowdepth":"7.000","Units":"in","Rept_Date":"2020-01-07 12"},"coordinates":[4923,4880]},{"type":"Point","properties":{"Station_ID":"NY-FK-9","Station_Nam":"GABRIELS 1.3 SE, NY","Latitude":"44.41934","Longitude":"-74.16194","Snowdepth":"7.000","Units":"in","Rept_Date":"2020-01-07 12"},"coordinates":[5278,5453]},{"type":"Point","properties":{"Station_ID":"NOHV1","Station_Nam":"NORTH HARTLAND LAKE","Latitude":"43.60270","Longitude":"-72.36210","Snowdepth":"7.000","Units":"in","Rept_Date":"2020-01-07 12"},"coordinates":[5690,4945]},{"type":"Point","properties":{"Station_ID":"MONS2","Station_Nam":"SIOUX FALLS-26MI.WNW","Latitude":"43.70190","Longitude":"-97.18330","Snowdepth":"7.000","Units":"in","Rept_Date":"2020-01-07 14"},"coordinates":[13,5006]},{"type":"Point","properties":{"Station_ID":"MNJ3AYM2","Station_Nam":"WILLMAR 2.8 NNE","Latitude":"45.16114","Longitude":"-95.03260","Snowdepth":"7.000","Units":"in","Rept_Date":"2020-01-07 12"},"coordinates":[505,5914]},{"type":"Point","properties":{"Station_ID":"MNIMTS5D","Station_Nam":"ROCKFORD 0.2 SW","Latitude":"45.07964","Longitude":"-93.74464","Snowdepth":"7.000","Units":"in","Rept_Date":"2020-01-07 13"},"coordinates":[799,5863]},{"type":"Point","properties":{"Station_ID":"MN-SH-985","Station_Nam":"PRINCETON 3.3 WSW, MN","Latitude":"45.55211","Longitude":"-93.64481","Snowdepth":"7.000","Units":"in","Rept_Date":"2020-01-07 10"},"coordinates":[822,6157]},{"type":"Point","properties":{"Station_ID":"MIAM5","Station_Nam":"MILAN 1NW","Latitude":"45.12190","Longitude":"-95.92690","Snowdepth":"7.000","Units":"in","Rept_Date":"2020-01-08 00"},"coordinates":[300,5890]},{"type":"Point","properties":{"Station_ID":"ME-AN-41","Station_Nam":"AUBURN 2.1 NNW, ME","Latitude":"44.11275","Longitude":"-70.26452","Snowdepth":"7.000","Units":"in","Rept_Date":"2020-01-07 12"},"coordinates":[6169,5262]},{"type":"Point","properties":{"Station_ID":"MA-HS-2","Station_Nam":"WESTHAMPTON 1.8 SW, MA","Latitude":"42.27943","Longitude":"-72.78700","Snowdepth":"7.000","Units":"in","Rept_Date":"2020-01-07 13"},"coordinates":[5592,4121]},{"type":"Point","properties":{"Station_ID":"LTPN6","Station_Nam":"LITTLE TUPPER LAKE","Latitude":"44.06670","Longitude":"-74.63330","Snowdepth":"7.000","Units":"in","Rept_Date":"2020-01-07 17"},"coordinates":[5170,5233]},{"type":"Point","properties":{"Station_ID":"LOWN6","Station_Nam":"LOWVILLE","Latitude":"43.79280","Longitude":"-75.48290","Snowdepth":"7.000","Units":"in","Rept_Date":"2020-01-07 12"},"coordinates":[4976,5063]},{"type":"Point","properties":{"Station_ID":"JKMM1","Station_Nam":"JACKMAN","Latitude":"45.62600","Longitude":"-70.24600","Snowdepth":"7.000","Units":"in","Rept_Date":"2020-01-07 12"},"coordinates":[6173,6203]},{"type":"Point","properties":{"Station_ID":"JEFV1","Station_Nam":"JEFFERSONVILLE","Latitude":"44.58430","Longitude":"-72.78700","Snowdepth":"7.000","Units":"in","Rept_Date":"2020-01-07 12"},"coordinates":[5592,5555]},{"type":"Point","properties":{"Station_ID":"FORM5","Station_Nam":"FOREST LAKE 5NE","Latitude":"45.33170","Longitude":"-92.89820","Snowdepth":"7.000","Units":"in","Rept_Date":"2020-01-07 13"},"coordinates":[993,6020]},{"type":"Point","properties":{"Station_ID":"ERG19","Station_Nam":"NMPS LITTLE TUPPER LAKE","Latitude":"44.07000","Longitude":"-74.63000","Snowdepth":"7.000","Units":"in","Rept_Date":"2020-01-07 17"},"coordinates":[5171,5235]},{"type":"Point","properties":{"Station_ID":"EAU","Station_Nam":"CHIPPEWA VALLEY REGIONAL AIRPORT","Latitude":"44.86650","Longitude":"-91.48790","Snowdepth":"7.000","Units":"in","Rept_Date":"2020-01-08 00"},"coordinates":[1315,5731]},{"type":"Point","properties":{"Station_ID":"CBLW3","Station_Nam":"CUMBERLAND","Latitude":"45.53310","Longitude":"-92.02260","Snowdepth":"7.000","Units":"in","Rept_Date":"2020-01-07 13"},"coordinates":[1193,6146]},{"type":"Point","properties":{"Station_ID":"BALW3","Station_Nam":"BALDWIN","Latitude":"44.96330","Longitude":"-92.39050","Snowdepth":"7.000","Units":"in","Rept_Date":"2020-01-07 13"},"coordinates":[1109,5791]},{"type":"Point","properties":{"Station_ID":"ASTW3","Station_Nam":"ATHELSTANE","Latitude":"45.42500","Longitude":"-88.05750","Snowdepth":"7.000","Units":"in","Rept_Date":"2020-01-07 12"},"coordinates":[2100,6078]},{"type":"Point","properties":{"Station_ID":"ABGW3","Station_Nam":"AMBERG 9 E","Latitude":"45.48250","Longitude":"-87.81190","Snowdepth":"7.000","Units":"in","Rept_Date":"2020-01-07 12"},"coordinates":[2156,6114]},{"type":"Point","properties":{"Station_ID":"CAN-PE-43","Station_Nam":"GLENCOE 0.3 W, CAN","Latitude":"46.20115","Longitude":"-62.81740","Snowdepth":"6.900","Units":"in","Rept_Date":"2020-01-07 12"},"coordinates":[7872,6561]},{"type":"Point","properties":{"Station_ID":"NH-RC-18","Station_Nam":"DEERFIELD 3.2 WSW, NH","Latitude":"43.13350","Longitude":"-71.27940","Snowdepth":"6.500","Units":"in","Rept_Date":"2020-01-07 12"},"coordinates":[5937,4653]},{"type":"Point","properties":{"Station_ID":"NH-MR-4","Station_Nam":"BOW 1.6 NW, NH","Latitude":"43.14994","Longitude":"-71.55650","Snowdepth":"6.500","Units":"in","Rept_Date":"2020-01-07 12"},"coordinates":[5874,4663]},{"type":"Point","properties":{"Station_ID":"NH-MR-26","Station_Nam":"PITTSFIELD 0.2 SSW, NH","Latitude":"43.29880","Longitude":"-71.33450","Snowdepth":"6.500","Units":"in","Rept_Date":"2020-01-07 13"},"coordinates":[5925,4756]},{"type":"Point","properties":{"Station_ID":"NH-BK-2","Station_Nam":"BELMONT 1.7 SW, NH","Latitude":"43.43556","Longitude":"-71.50690","Snowdepth":"6.500","Units":"in","Rept_Date":"2020-01-07 12"},"coordinates":[5885,4841]},{"type":"Point","properties":{"Station_ID":"ME-PN-30","Station_Nam":"OLD TOWN 4.1 ESE, ME","Latitude":"44.93543","Longitude":"-68.65840","Snowdepth":"6.500","Units":"in","Rept_Date":"2020-01-07 12"},"coordinates":[6537,5774]},{"type":"Point","properties":{"Station_ID":"CAN-NB-97","Station_Nam":"NEW MARYLAND 0.6 NW, CAN","Latitude":"45.90112","Longitude":"-66.68739","Snowdepth":"6.500","Units":"in","Rept_Date":"2020-01-07 11"},"coordinates":[6987,6375]},{"type":"Point","properties":{"Station_ID":"CAN-ON-220","Station_Nam":"DEEP RIVER 1.5 SE - MNRF, CAN","Latitude":"46.09592","Longitude":"-77.47853","Snowdepth":"6.300","Units":"in","Rept_Date":"2020-01-07 12"},"coordinates":[4519,6496]},{"type":"Point","properties":{"Station_ID":"CAN-NS-163","Station_Nam":"SYDNEY MINES 2.2 WNW, CAN","Latitude":"46.24851","Longitude":"-60.25161","Snowdepth":"6.300","Units":"in","Rept_Date":"2020-01-07 12"},"coordinates":[8459,6591]},{"type":"Point","properties":{"Station_ID":"CAN-NB-98","Station_Nam":"HOYT 4.2 S, CAN","Latitude":"45.54763","Longitude":"-66.55440","Snowdepth":"6.100","Units":"in","Rept_Date":"2020-01-07 11"},"coordinates":[7018,6155]},{"type":"Point","properties":{"Station_ID":"WI-PT-8","Station_Nam":"RUDOLPH 2.1 NNE, WI","Latitude":"44.52553","Longitude":"-89.78677","Snowdepth":"6.000","Units":"in","Rept_Date":"2020-01-07 11"},"coordinates":[1704,5519]},{"type":"Point","properties":{"Station_ID":"WI-PK-4","Station_Nam":"DRESSER 6.1 ESE, WI","Latitude":"45.32436","Longitude":"-92.52080","Snowdepth":"6.000","Units":"in","Rept_Date":"2020-01-07 14"},"coordinates":[1079,6016]},{"type":"Point","properties":{"Station_ID":"VT-WS-33","Station_Nam":"WAITSFIELD 3.5 WNW, VT","Latitude":"44.20052","Longitude":"-72.89421","Snowdepth":"6.000","Units":"in","Rept_Date":"2020-01-07 13"},"coordinates":[5568,5317]},{"type":"Point","properties":{"Station_ID":"VT-WS-19","Station_Nam":"WATERBURY 3.0 NW, VT","Latitude":"44.36060","Longitude":"-72.80770","Snowdepth":"6.000","Units":"in","Rept_Date":"2020-01-07 11"},"coordinates":[5588,5416]},{"type":"Point","properties":{"Station_ID":"VT-LM-1","Station_Nam":"STOWE 0.2 SW, VT","Latitude":"44.46399","Longitude":"-72.69070","Snowdepth":"6.000","Units":"in","Rept_Date":"2020-01-07 12"},"coordinates":[5614,5480]},{"type":"Point","properties":{"Station_ID":"TOPN6","Station_Nam":"TUPPER LAKE SUNMOUNT","Latitude":"44.23070","Longitude":"-74.43820","Snowdepth":"6.000","Units":"in","Rept_Date":"2020-01-07 12"},"coordinates":[5215,5335]},{"type":"Point","properties":{"Station_ID":"TLLM3","Station_Nam":"TULLY LAKE","Latitude":"42.63940","Longitude":"-72.22440","Snowdepth":"6.000","Units":"in","Rept_Date":"2020-01-07 12"},"coordinates":[5721,4345]},{"type":"Point","properties":{"Station_ID":"ROBM1","Station_Nam":"ROBBINSTON","Latitude":"45.08520","Longitude":"-67.12050","Snowdepth":"6.000","Units":"in","Rept_Date":"2020-01-08 05"},"coordinates":[6888,5867]},{"type":"Point","properties":{"Station_ID":"PBAN8","Station_Nam":"SITE 1-3MI.N","Latitude":"48.97420","Longitude":"-97.23860","Snowdepth":"6.000","Units":"in","Rept_Date":"2020-01-07 13"},"coordinates":[0,8286]},{"type":"Point","properties":{"Station_ID":"NWSM1","Station_Nam":"NEW SHARON","Latitude":"44.63520","Longitude":"-70.00020","Snowdepth":"6.000","Units":"in","Rept_Date":"2020-01-07 12"},"coordinates":[6230,5587]},{"type":"Point","properties":{"Station_ID":"NVLV1","Station_Nam":"NASHVILLE","Latitude":"44.44970","Longitude":"-72.92640","Snowdepth":"6.000","Units":"in","Rept_Date":"2020-01-07 12"},"coordinates":[5560,5472]},{"type":"Point","properties":{"Station_ID":"NH-RC-48","Station_Nam":"NORTHWOOD 2.9 WSW, NH","Latitude":"43.20114","Longitude":"-71.25750","Snowdepth":"6.000","Units":"in","Rept_Date":"2020-01-07 12"},"coordinates":[5942,4695]},