{"type":"Topology","objects":{"snowdepth_geo":{"type":"GeometryCollection","name":"snowdepth","crs":{"type":"name","properties":{"name":"urn:ogc:def:crs:OGC:1.3:CRS84"}},"geometries":[{"type":"Point","properties":{"Station_ID":"PRKM4","Station_Nam":"MUNISING EAST","Latitude":"46.42580","Longitude":"-86.62000","Snowdepth":"76.500","Units":"in","Rept_Date":"2020-03-20 06"},"coordinates":[2492,4906]},{"type":"Point","properties":{"Station_ID":"MMNV1","Station_Nam":"MT. MANSFIELD","Latitude":"44.52480","Longitude":"-72.81540","Snowdepth":"62.000","Units":"in","Rept_Date":"2020-03-19 20"},"coordinates":[5732,3079]},{"type":"Point","properties":{"Station_ID":"OGIQ6","Station_Nam":"OGOKI CAMP","Latitude":"50.76680","Longitude":"-87.85820","Snowdepth":"61.100","Units":"in","Rept_Date":"2020-03-20 06"},"coordinates":[2201,9077]},{"type":"Point","properties":{"Station_ID":"HTLN3","Station_Nam":"HERMIT LAKE SNOWPLOT","Latitude":"44.26130","Longitude":"-71.28330","Snowdepth":"61.000","Units":"in","Rept_Date":"2020-03-19 09"},"coordinates":[6091,2826]},{"type":"Point","properties":{"Station_ID":"HVCN3","Station_Nam":"HARVARD CABIN SNOWPLOT","Latitude":"44.26630","Longitude":"-71.27790","Snowdepth":"51.000","Units":"in","Rept_Date":"2020-03-19 10"},"coordinates":[6093,2831]},{"type":"Point","properties":{"Station_ID":"AUDQ6","Station_Nam":"AUDEN","Latitude":"48.52600","Longitude":"-82.57570","Snowdepth":"47.640","Units":"in","Rept_Date":"2020-03-20 06"},"coordinates":[3441,6924]},{"type":"Point","properties":{"Station_ID":"PDLM4","Station_Nam":"PAINESDALE","Latitude":"47.04160","Longitude":"-88.67170","Snowdepth":"47.000","Units":"in","Rept_Date":"2020-03-19 12"},"coordinates":[2011,5497]},{"type":"Point","properties":{"Station_ID":"DVLQ6","Station_Nam":"DEVIOUS LAKE","Latitude":"49.19890","Longitude":"-87.76440","Snowdepth":"43.460","Units":"in","Rept_Date":"2020-03-20 06"},"coordinates":[2223,7570]},{"type":"Point","properties":{"Station_ID":"KSGM4","Station_Nam":"KEARSARGE","Latitude":"47.27520","Longitude":"-88.41700","Snowdepth":"38.000","Units":"in","Rept_Date":"2020-03-19 12"},"coordinates":[2070,5722]},{"type":"Point","properties":{"Station_ID":"ME-AR-18","Station_Nam":"NEW SWEDEN 4.9 NNW, ME","Latitude":"47.01080","Longitude":"-68.14390","Snowdepth":"37.000","Units":"in","Rept_Date":"2020-03-19 12"},"coordinates":[6828,5468]},{"type":"Point","properties":{"Station_ID":"PTLQ6","Station_Nam":"PORTAGE LAKE","Latitude":"49.06950","Longitude":"-86.65940","Snowdepth":"36.690","Units":"in","Rept_Date":"2020-03-20 06"},"coordinates":[2483,7446]},{"type":"Point","properties":{"Station_ID":"CAN-NS-39","Station_Nam":"ST. ANNS 2.8 NW, CA","Latitude":"46.25082","Longitude":"-60.64340","Snowdepth":"36.000","Units":"in","Rept_Date":"2020-03-19 12"},"coordinates":[8589,4738]},{"type":"Point","properties":{"Station_ID":"CAN-NL-82","Station_Nam":"GANDER 2.7 NW, CAN","Latitude":"48.97737","Longitude":"-54.63396","Snowdepth":"35.800","Units":"in","Rept_Date":"2020-03-19 10"},"coordinates":[9999,7357]},{"type":"Point","properties":{"Station_ID":"CAN-QC-47","Station_Nam":"SAINTE-FOY 1.8 ENE, CAN","Latitude":"46.76934","Longitude":"-71.27124","Snowdepth":"35.000","Units":"in","Rept_Date":"2020-03-19 12"},"coordinates":[6094,5236]},{"type":"Point","properties":{"Station_ID":"MNSM4","Station_Nam":"MUNISING","Latitude":"46.41210","Longitude":"-86.66250","Snowdepth":"34.000","Units":"in","Rept_Date":"2020-03-19 10"},"coordinates":[2482,4893]},{"type":"Point","properties":{"Station_ID":"CAN-NB-105","Station_Nam":"SISSON BROOK 3.8 E, CAN","Latitude":"46.98305","Longitude":"-67.32532","Snowdepth":"33.500","Units":"in","Rept_Date":"2020-03-19 12"},"coordinates":[7020,5441]},{"type":"Point","properties":{"Station_ID":"VANM1","Station_Nam":"VAN BUREN","Latitude":"47.16600","Longitude":"-67.93900","Snowdepth":"33.000","Units":"in","Rept_Date":"2020-03-19 11"},"coordinates":[6876,5617]},{"type":"Point","properties":{"Station_ID":"MQT","Station_Nam":"MARQUETTE, MI","Latitude":"46.53140","Longitude":"-87.54920","Snowdepth":"33.000","Units":"in","Rept_Date":"2020-03-20 06"},"coordinates":[2274,5007]},{"type":"Point","properties":{"Station_ID":"QNCM4","Station_Nam":"QUINCY HILL","Latitude":"47.13640","Longitude":"-88.57950","Snowdepth":"32.000","Units":"in","Rept_Date":"2020-03-19 11"},"coordinates":[2032,5589]},{"type":"Point","properties":{"Station_ID":"FISM1","Station_Nam":"FORT KENT COOP","Latitude":"47.23850","Longitude":"-68.61240","Snowdepth":"32.000","Units":"in","Rept_Date":"2020-03-19 11"},"coordinates":[6718,5687]},{"type":"Point","properties":{"Station_ID":"CAN-NB-13","Station_Nam":"BATHURST 3.8 NW, CAN","Latitude":"47.64212","Longitude":"-65.68756","Snowdepth":"31.000","Units":"in","Rept_Date":"2020-03-19 09"},"coordinates":[7405,6074]},{"type":"Point","properties":{"Station_ID":"STEM4","Station_Nam":"STEUBEN","Latitude":"46.18530","Longitude":"-86.46410","Snowdepth":"30.000","Units":"in","Rept_Date":"2020-03-19 13"},"coordinates":[2529,4675]},{"type":"Point","properties":{"Station_ID":"MI-KW-2","Station_Nam":"DELAWARE 5.2 SW, MI","Latitude":"47.36928","Longitude":"-88.17919","Snowdepth":"30.000","Units":"in","Rept_Date":"2020-03-19 09"},"coordinates":[2126,5812]},{"type":"Point","properties":{"Station_ID":"CARM1","Station_Nam":"CARIBOU WFO","Latitude":"46.86810","Longitude":"-68.01250","Snowdepth":"30.000","Units":"in","Rept_Date":"2020-03-20 04"},"coordinates":[6859,5331]},{"type":"Point","properties":{"Station_ID":"CAR","Station_Nam":"CARIBOU, ME","Latitude":"46.86830","Longitude":"-68.01360","Snowdepth":"30.000","Units":"in","Rept_Date":"2020-03-19 12"},"coordinates":[6859,5331]},{"type":"Point","properties":{"Station_ID":"TWOM5","Station_Nam":"TWO HARBORS,MN","Latitude":"47.12580","Longitude":"-91.70750","Snowdepth":"29.000","Units":"in","Rept_Date":"2020-03-20 00"},"coordinates":[1298,5578]},{"type":"Point","properties":{"Station_ID":"MI-BG-3","Station_Nam":"L'ANSE 17.8 SE, MI","Latitude":"46.55730","Longitude":"-88.20770","Snowdepth":"29.000","Units":"in","Rept_Date":"2020-03-19 13"},"coordinates":[2119,5032]},{"type":"Point","properties":{"Station_ID":"CAN-NB-11","Station_Nam":"MIRAMICHI 3.3 S, CAN","Latitude":"46.99343","Longitude":"-65.50690","Snowdepth":"29.000","Units":"in","Rept_Date":"2020-03-19 10"},"coordinates":[7447,5451]},{"type":"Point","properties":{"Station_ID":"TRIQ6","Station_Nam":"TRIO LAKE","Latitude":"49.22880","Longitude":"-87.22920","Snowdepth":"28.900","Units":"in","Rept_Date":"2020-03-20 06"},"coordinates":[2349,7599]},{"type":"Point","properties":{"Station_ID":"IBLM5","Station_Nam":"ISABELLA 14W","Latitude":"47.59360","Longitude":"-91.65140","Snowdepth":"28.000","Units":"in","Rept_Date":"2020-03-19 14"},"coordinates":[1311,6028]},{"type":"Point","properties":{"Station_ID":"CNRM1","Station_Nam":"CONNOR TWP","Latitude":"46.95830","Longitude":"-68.03330","Snowdepth":"28.000","Units":"in","Rept_Date":"2020-03-19 12"},"coordinates":[6854,5417]},{"type":"Point","properties":{"Station_ID":"SVBQ6","Station_Nam":"SAVANT BASE","Latitude":"50.28730","Longitude":"-90.65670","Snowdepth":"27.870","Units":"in","Rept_Date":"2020-03-20 06"},"coordinates":[1545,8616]},{"type":"Point","properties":{"Station_ID":"HERM4","Station_Nam":"HERMAN,MI","Latitude":"46.65000","Longitude":"-88.33330","Snowdepth":"27.000","Units":"in","Rept_Date":"2020-03-19 13"},"coordinates":[2090,5121]},{"type":"Point","properties":{"Station_ID":"MN-CK-18","Station_Nam":"GRAND MARAIS 4.4 WSW, MN","Latitude":"47.74462","Longitude":"-90.43796","Snowdepth":"26.500","Units":"in","Rept_Date":"2020-03-19 13"},"coordinates":[1596,6173]},{"type":"Point","properties":{"Station_ID":"KABQ6","Station_Nam":"CAB LAKE","Latitude":"49.59950","Longitude":"-89.17990","Snowdepth":"26.260","Units":"in","Rept_Date":"2020-03-20 06"},"coordinates":[1891,7955]},{"type":"Point","properties":{"Station_ID":"SOCQ6","Station_Nam":"SOCKET LAKE","Latitude":"50.77870","Longitude":"-91.79300","Snowdepth":"25.000","Units":"in","Rept_Date":"2020-03-20 06"},"coordinates":[1278,9088]},{"type":"Point","properties":{"Station_ID":"CAN-NB-89","Station_Nam":"MEMRAMCOOK 4.0 W, CAN","Latitude":"46.01133","Longitude":"-64.60244","Snowdepth":"24.400","Units":"in","Rept_Date":"2020-03-19 13"},"coordinates":[7659,4508]},{"type":"Point","properties":{"Station_ID":"WRPW3","Station_Nam":"WATER PURIFICATION PLANT","Latitude":"44.38800","Longitude":"-89.80550","Snowdepth":"24.000","Units":"in","Rept_Date":"2020-03-19 11"},"coordinates":[1744,2948]},{"type":"Point","properties":{"Station_ID":"CAN-NB-96","Station_Nam":"SAINT-IGNACE 2.6 NE, CAN","Latitude":"46.71424","Longitude":"-65.05609","Snowdepth":"23.600","Units":"in","Rept_Date":"2020-03-19 11"},"coordinates":[7553,5183]},{"type":"Point","properties":{"Station_ID":"MI-HG-1","Station_Nam":"HOUGHTON 1.6 ESE, MI","Latitude":"47.10774","Longitude":"-88.52940","Snowdepth":"23.500","Units":"in","Rept_Date":"2020-03-19 13"},"coordinates":[2044,5561]},{"type":"Point","properties":{"Station_ID":"MN9UO3KA","Station_Nam":"GAPPAS LANDING CG 3.8 N","Latitude":"48.49307","Longitude":"-93.03634","Snowdepth":"23.000","Units":"in","Rept_Date":"2020-03-19 12"},"coordinates":[986,6892]},{"type":"Point","properties":{"Station_ID":"KABM5","Station_Nam":"KABETOGAMA LAKE VISITOR CTR","Latitude":"48.40880","Longitude":"-93.04840","Snowdepth":"23.000","Units":"in","Rept_Date":"2020-03-19 12"},"coordinates":[983,6811]},{"type":"Point","properties":{"Station_ID":"ME-AR-15","Station_Nam":"PRESQUE ISLE 1.3 WSW, ME","Latitude":"46.67960","Longitude":"-68.01270","Snowdepth":"22.000","Units":"in","Rept_Date":"2020-03-19 12"},"coordinates":[6859,5150]},{"type":"Point","properties":{"Station_ID":"CRVW3","Station_Nam":"CRIVITZ HIGH FALLS","Latitude":"45.35750","Longitude":"-88.19190","Snowdepth":"22.000","Units":"in","Rept_Date":"2020-03-19 12"},"coordinates":[2123,3879]},{"type":"Point","properties":{"Station_ID":"CATQ6","Station_Nam":"CAT LAKE","Latitude":"51.72690","Longitude":"-91.82210","Snowdepth":"21.650","Units":"in","Rept_Date":"2020-03-20 06"},"coordinates":[1271,9999]},{"type":"Point","properties":{"Station_ID":"RGNM1","Station_Nam":"RANGELEY 2NW","Latitude":"44.98940","Longitude":"-70.67220","Snowdepth":"21.000","Units":"in","Rept_Date":"2020-03-19 10"},"coordinates":[6235,3526]},{"type":"Point","properties":{"Station_ID":"MN-IT-23","Station_Nam":"BOVEY 13.4 N, MN","Latitude":"47.48855","Longitude":"-93.43497","Snowdepth":"21.000","Units":"in","Rept_Date":"2020-03-19 13"},"coordinates":[893,5927]},{"type":"Point","properties":{"Station_ID":"MN-IT-10","Station_Nam":"DEER RIVER 3.7 W, MN","Latitude":"47.33564","Longitude":"-93.87514","Snowdepth":"21.000","Units":"in","Rept_Date":"2020-03-19 14"},"coordinates":[789,5780]},{"type":"Point","properties":{"Station_ID":"LILM1","Station_Nam":"LILLE","Latitude":"47.27770","Longitude":"-68.10520","Snowdepth":"21.000","Units":"in","Rept_Date":"2020-03-19 11"},"coordinates":[6837,5724]},{"type":"Point","properties":{"Station_ID":"CLQM5","Station_Nam":"CLOQUET","Latitude":"46.70470","Longitude":"-92.52530","Snowdepth":"21.000","Units":"in","Rept_Date":"2020-03-19 13"},"coordinates":[1106,5174]},{"type":"Point","properties":{"Station_ID":"BRAM1","Station_Nam":"BRASSUA DAM","Latitude":"45.66020","Longitude":"-69.81190","Snowdepth":"21.000","Units":"in","Rept_Date":"2020-03-19 11"},"coordinates":[6437,4170]},{"type":"Point","properties":{"Station_ID":"VT-OL-12","Station_Nam":"GREENSBORO 3.9 NNE, VT","Latitude":"44.63100","Longitude":"-72.28000","Snowdepth":"20.500","Units":"in","Rept_Date":"2020-03-19 12"},"coordinates":[5858,3181]},{"type":"Point","properties":{"Station_ID":"WNBM5","Station_Nam":"DAM","Latitude":"47.43060","Longitude":"-94.05000","Snowdepth":"20.000","Units":"in","Rept_Date":"2020-03-19 13"},"coordinates":[748,5871]},{"type":"Point","properties":{"Station_ID":"WI-VL-9","Station_Nam":"LAND O' LAKES 11.7 W, WI","Latitude":"46.19023","Longitude":"-89.45790","Snowdepth":"20.000","Units":"in","Rept_Date":"2020-03-19 13"},"coordinates":[1826,4679]},{"type":"Point","properties":{"Station_ID":"WI-VL-10","Station_Nam":"LAND O LAKES 4.3 WNW, WI","Latitude":"46.17440","Longitude":"-89.30380","Snowdepth":"20.000","Units":"in","Rept_Date":"2020-03-19 13"},"coordinates":[1862,4664]},{"type":"Point","properties":{"Station_ID":"RLWM5","Station_Nam":"CAMP NORRIS DNR","Latitude":"48.61000","Longitude":"-95.18170","Snowdepth":"20.000","Units":"in","Rept_Date":"2020-03-19 13"},"coordinates":[483,7004]},{"type":"Point","properties":{"Station_ID":"PDGM4","Station_Nam":"PAULDING","Latitude":"46.39760","Longitude":"-89.17940","Snowdepth":"20.000","Units":"in","Rept_Date":"2020-03-19 13"},"coordinates":[1891,4879]},{"type":"Point","properties":{"Station_ID":"MN-IT-17","Station_Nam":"GRAND RAPIDS 6.1 N, MN","Latitude":"47.31165","Longitude":"-93.55036","Snowdepth":"20.000","Units":"in","Rept_Date":"2020-03-19 13"},"coordinates":[866,5757]},{"type":"Point","properties":{"Station_ID":"LNOW3","Station_Nam":"LAND O LAKES","Latitude":"46.19000","Longitude":"-89.45700","Snowdepth":"20.000","Units":"in","Rept_Date":"2020-03-19 12"},"coordinates":[1826,4679]},{"type":"Point","properties":{"Station_ID":"INL","Station_Nam":"FALLS INTERNATIONAL ARPT","Latitude":"48.56640","Longitude":"-93.40310","Snowdepth":"20.000","Units":"in","Rept_Date":"2020-03-20 00"},"coordinates":[900,6962]},{"type":"Point","properties":{"Station_ID":"IFSM5","Station_Nam":"INTERNATIONAL FALLS SNOW","Latitude":"48.57780","Longitude":"-93.39640","Snowdepth":"20.000","Units":"in","Rept_Date":"2020-03-19 18"},"coordinates":[902,6973]},{"type":"Point","properties":{"Station_ID":"GLDM4","Station_Nam":"GLADSTONE NO. 2","Latitude":"45.84330","Longitude":"-87.03910","Snowdepth":"20.000","Units":"in","Rept_Date":"2020-03-19 11"},"coordinates":[2394,4346]},{"type":"Point","properties":{"Station_ID":"ELYM5","Station_Nam":"ELY","Latitude":"47.90560","Longitude":"-91.82830","Snowdepth":"20.000","Units":"in","Rept_Date":"2020-03-19 13"},"coordinates":[1270,6328]},{"type":"Point","properties":{"Station_ID":"CEFM4","Station_Nam":"EXPERIMENT FARM #2","Latitude":"46.33330","Longitude":"-86.91670","Snowdepth":"20.000","Units":"in","Rept_Date":"2020-03-19 15"},"coordinates":[2422,4817]},{"type":"Point","properties":{"Station_ID":"BRDM1","Station_Nam":"BRIDGEWATER","Latitude":"46.42870","Longitude":"-67.84370","Snowdepth":"20.000","Units":"in","Rept_Date":"2020-03-19 22"},"coordinates":[6899,4909]},{"type":"Point","properties":{"Station_ID":"SUAW3","Station_Nam":"SUAMICO","Latitude":"44.60190","Longitude":"-88.09780","Snowdepth":"19.000","Units":"in","Rept_Date":"2020-03-19 11"},"coordinates":[2145,3153]},{"type":"Point","properties":{"Station_ID":"MNV905PW","Station_Nam":"ROOSEVELT 5.3 N","Latitude":"48.87933","Longitude":"-95.08224","Snowdepth":"19.000","Units":"in","Rept_Date":"2020-03-19 12"},"coordinates":[506,7263]},{"type":"Point","properties":{"Station_ID":"MN6ZK0BT","Station_Nam":"BABBITT 0.4 ESE","Latitude":"47.70874","Longitude":"-91.93886","Snowdepth":"19.000","Units":"in","Rept_Date":"2020-03-19 12"},"coordinates":[1244,6138]},{"type":"Point","properties":{"Station_ID":"DFXM1","Station_Nam":"DOVER-FOXCROFT","Latitude":"45.18720","Longitude":"-69.18350","Snowdepth":"19.000","Units":"in","Rept_Date":"2020-03-19 11"},"coordinates":[6584,3716]},{"type":"Point","properties":{"Station_ID":"BABM5","Station_Nam":"BABBITT","Latitude":"47.71210","Longitude":"-91.95330","Snowdepth":"19.000","Units":"in","Rept_Date":"2020-03-19 12"},"coordinates":[1240,6142]},{"type":"Point","properties":{"Station_ID":"ANJM4","Station_Nam":"SNOW PAID OBSERVER FOR KANJ","Latitude":"46.48670","Longitude":"-84.40260","Snowdepth":"19.000","Units":"in","Rept_Date":"2020-03-19 18"},"coordinates":[3012,4964]},{"type":"Point","properties":{"Station_ID":"ANJ","Station_Nam":"SAULT STE MARIE","Latitude":"46.46670","Longitude":"-84.36670","Snowdepth":"19.000","Units":"in","Rept_Date":"2020-03-20 00"},"coordinates":[3021,4945]},{"type":"Point","properties":{"Station_ID":"CAN-PE-19","Station_Nam":"CHARLOTTETOWN 6.5 NNW, CAN","Latitude":"46.29235","Longitude":"-63.17271","Snowdepth":"18.900","Units":"in","Rept_Date":"2020-03-19 12"},"coordinates":[7995,4778]},{"type":"Point","properties":{"Station_ID":"UPSW3","Station_Nam":"UPSON,WI","Latitude":"46.36780","Longitude":"-90.41220","Snowdepth":"18.000","Units":"in","Rept_Date":"2020-03-19 23"},"coordinates":[1602,4850]},{"type":"Point","properties":{"Station_ID":"MN70GOES","Station_Nam":"EMBARRASS 0.6 SSE","Latitude":"47.65101","Longitude":"-92.19222","Snowdepth":"18.000","Units":"in","Rept_Date":"2020-03-19 11"},"coordinates":[1184,6083]},{"type":"Point","properties":{"Station_ID":"JKMM1","Station_Nam":"JACKMAN","Latitude":"45.62600","Longitude":"-70.24600","Snowdepth":"18.000","Units":"in","Rept_Date":"2020-03-19 11"},"coordinates":[6335,4137]},{"type":"Point","properties":{"Station_ID":"IWOM4","Station_Nam":"IRONWOOD#2","Latitude":"46.46520","Longitude":"-90.13820","Snowdepth":"18.000","Units":"in","Rept_Date":"2020-03-19 12"},"coordinates":[1666,4944]},{"type":"Point","properties":{"Station_ID":"EVRW3","Station_Nam":"EAGLE RIVER-4 E","Latitude":"45.91890","Longitude":"-89.15280","Snowdepth":"18.000","Units":"in","Rept_Date":"2020-03-19 10"},"coordinates":[1898,4419]},{"type":"Point","properties":{"Station_ID":"EMBM5","Station_Nam":"EMBARASS,MN","Latitude":"47.65810","Longitude":"-92.19580","Snowdepth":"18.000","Units":"in","Rept_Date":"2020-03-19 11"},"coordinates":[1183,6090]},{"type":"Point","properties":{"Station_ID":"CAN-NB-18","Station_Nam":"MCLEOD HILL 1.1 ENE, CA","Latitude":"46.02725","Longitude":"-66.67460","Snowdepth":"18.000","Units":"in","Rept_Date":"2020-03-19 12"},"coordinates":[7173,4523]},{"type":"Point","properties":{"Station_ID":"CAN-MB-298","Station_Nam":"GARDENTON 4.2 W - SRRCD, CAN","Latitude":"49.09480","Longitude":"-96.75446","Snowdepth":"17.700","Units":"in","Rept_Date":"2020-03-19 14"},"coordinates":[114,7470]},{"type":"Point","properties":{"Station_ID":"MI-CP-14","Station_Nam":"SAULT STE. MARIE 2.2 E, MI","Latitude":"46.48933","Longitude":"-84.31971","Snowdepth":"17.500","Units":"in","Rept_Date":"2020-03-19 14"},"coordinates":[3032,4967]},{"type":"Point","properties":{"Station_ID":"VT-CL-3","Station_Nam":"GROTON 4.4 WSW, VT","Latitude":"44.19440","Longitude":"-72.28240","Snowdepth":"17.000","Units":"in","Rept_Date":"2020-03-19 11"},"coordinates":[5857,2762]},{"type":"Point","properties":{"Station_ID":"STGW3","Station_Nam":"ST GERMAIN","Latitude":"45.91550","Longitude":"-89.48940","Snowdepth":"17.000","Units":"in","Rept_Date":"2020-03-19 11"},"coordinates":[1819,4416]},{"type":"Point","properties":{"Station_ID":"MN-SL-15","Station_Nam":"CHISHOLM 0.4 WSW, MN","Latitude":"47.48557","Longitude":"-92.88690","Snowdepth":"17.000","Units":"in","Rept_Date":"2020-03-19 13"},"coordinates":[1021,5924]},{"type":"Point","properties":{"Station_ID":"MN-IT-7","Station_Nam":"GRAND RAPIDS 6.2 SSW, MN","Latitude":"47.13687","Longitude":"-93.56660","Snowdepth":"17.000","Units":"in","Rept_Date":"2020-03-19 12"},"coordinates":[862,5589]},{"type":"Point","properties":{"Station_ID":"LVDW3","Station_Nam":"LAC VIEUX DESERT","Latitude":"46.12110","Longitude":"-89.07580","Snowdepth":"17.000","Units":"in","Rept_Date":"2020-03-19 13"},"coordinates":[1916,4613]},{"type":"Point","properties":{"Station_ID":"IRMM4","Station_Nam":"WWTP","Latitude":"46.46670","Longitude":"-90.18330","Snowdepth":"17.000","Units":"in","Rept_Date":"2020-03-19 12"},"coordinates":[1656,4945]},{"type":"Point","properties":{"Station_ID":"DLHM5","Station_Nam":"DULUTH NWS","Latitude":"46.83680","Longitude":"-92.21080","Snowdepth":"17.000","Units":"in","Rept_Date":"2020-03-20 06"},"coordinates":[1180,5301]},{"type":"Point","properties":{"Station_ID":"DLH","Station_Nam":"DULUTH, MN","Latitude":"46.83690","Longitude":"-92.21030","Snowdepth":"17.000","Units":"in","Rept_Date":"2020-03-20 00"},"coordinates":[1180,5301]},{"type":"Point","properties":{"Station_ID":"CSLM5","Station_Nam":"CASS LAKE,MN","Latitude":"47.38470","Longitude":"-94.61470","Snowdepth":"17.000","Units":"in","Rept_Date":"2020-03-19 13"},"coordinates":[616,5827]},{"type":"Point","properties":{"Station_ID":"WI-VL-14","Station_Nam":"BOULDER JUNCTION 1.4 NE, WI","Latitude":"46.12840","Longitude":"-89.62470","Snowdepth":"16.000","Units":"in","Rept_Date":"2020-03-19 13"},"coordinates":[1787,4620]},{"type":"Point","properties":{"Station_ID":"TOGM5","Station_Nam":"CELINA 2E","Latitude":"47.86630","Longitude":"-93.02660","Snowdepth":"16.000","Units":"in","Rept_Date":"2020-03-19 13"},"coordinates":[988,6290]},{"type":"Point","properties":{"Station_ID":"THRM5","Station_Nam":"THORHULT,MN","Latitude":"48.21670","Longitude":"-95.25000","Snowdepth":"16.000","Units":"in","Rept_Date":"2020-03-19 22"},"coordinates":[467,6626]},{"type":"Point","properties":{"Station_ID":"PRDM4","Station_Nam":"PARADISE","Latitude":"46.60380","Longitude":"-85.03960","Snowdepth":"16.000","Units":"in","Rept_Date":"2020-03-19 10"},"coordinates":[2863,5077]},{"type":"Point","properties":{"Station_ID":"PHEW3","Station_Nam":"PHELPS","Latitude":"46.06630","Longitude":"-89.07520","Snowdepth":"16.000","Units":"in","Rept_Date":"2020-03-19 12"},"coordinates":[1916,4560]},{"type":"Point","properties":{"Station_ID":"NH-CS-10","Station_Nam":"RANDOLPH 1.4 NE, NH","Latitude":"44.38824","Longitude":"-71.26950","Snowdepth":"16.000","Units":"in","Rept_Date":"2020-03-19 12"},"coordinates":[6095,2948]},{"type":"Point","properties":{"Station_ID":"MN8O09O3","Station_Nam":"ORR 3.6 E","Latitude":"48.04403","Longitude":"-92.75427","Snowdepth":"16.000","Units":"in","Rept_Date":"2020-03-19 11"},"coordinates":[1052,6461]},{"type":"Point","properties":{"Station_ID":"MN8JKXE2","Station_Nam":"PRAIRIE PORTAGE 5.2 SSW","Latitude":"47.97663","Longitude":"-91.46744","Snowdepth":"16.000","Units":"in","Rept_Date":"2020-03-19 11"},"coordinates":[1354,6396]},{"type":"Point","properties":{"Station_ID":"MN7TCHCK","Station_Nam":"COOK 0.2 ENE","Latitude":"47.85225","Longitude":"-92.68378","Snowdepth":"16.000","Units":"in","Rept_Date":"2020-03-19 11"},"coordinates":[1069,6276]},{"type":"Point","properties":{"Station_ID":"MN-SL-18","Station_Nam":"DULUTH 1.4 NNW, MN","Latitude":"46.80321","Longitude":"-92.11240","Snowdepth":"16.000","Units":"in","Rept_Date":"2020-03-19 14"},"coordinates":[1203,5268]},{"type":"Point","properties":{"Station_ID":"LEIM5","Station_Nam":"ORR 3E","Latitude":"48.05810","Longitude":"-92.75220","Snowdepth":"16.000","Units":"in","Rept_Date":"2020-03-19 11"},"coordinates":[1053,6474]},{"type":"Point","properties":{"Station_ID":"INDM5","Station_Nam":"INDUS,MN","Latitude":"48.61670","Longitude":"-93.90000","Snowdepth":"16.000","Units":"in","Rept_Date":"2020-03-19 13"},"coordinates":[783,7011]},{"type":"Point","properties":{"Station_ID":"HURW3","Station_Nam":"HURLEY","Latitude":"46.46250","Longitude":"-90.19550","Snowdepth":"16.000","Units":"in","Rept_Date":"2020-03-19 13"},"coordinates":[1653,4941]},{"type":"Point","properties":{"Station_ID":"GHMN3","Station_Nam":"PINKHAM NOTCH","Latitude":"44.25800","Longitude":"-71.25250","Snowdepth":"16.000","Units":"in","Rept_Date":"2020-03-19 09"},"coordinates":[6099,2823]},{"type":"Point","properties":{"Station_ID":"CRLM5","Station_Nam":"CROSS LAKE DAM","Latitude":"46.66930","Longitude":"-94.11060","Snowdepth":"16.000","Units":"in","Rept_Date":"2020-03-19 13"},"coordinates":[734,5140]},{"type":"Point","properties":{"Station_ID":"COKM5","Station_Nam":"COOK","Latitude":"47.85060","Longitude":"-92.69250","Snowdepth":"16.000","Units":"in","Rept_Date":"2020-03-19 11"},"coordinates":[1067,6275]},{"type":"Point","properties":{"Station_ID":"CAN-NS-103","Station_Nam":"TRAFALGAR 4.9 WSW, CAN","Latitude":"45.26217","Longitude":"-62.72285","Snowdepth":"16.000","Units":"in","Rept_Date":"2020-03-19 11"},"coordinates":[8101,3788]},{"type":"Point","properties":{"Station_ID":"BNDM5","Station_Nam":"ELY 25E","Latitude":"47.97190","Longitude":"-91.44860","Snowdepth":"16.000","Units":"in","Rept_Date":"2020-03-19 12"},"coordinates":[1359,6391]},{"type":"Point","properties":{"Station_ID":"MN-SL-108","Station_Nam":"IRON JUNCTION 3.4 NNW, MN","Latitude":"47.46150","Longitude":"-92.63130","Snowdepth":"15.500","Units":"in","Rept_Date":"2020-03-19 13"},"coordinates":[1081,5901]},{"type":"Point","properties":{"Station_ID":"MN-IT-1","Station_Nam":"GRAND RAPIDS 2.0 E, MN","Latitude":"47.22266","Longitude":"-93.49600","Snowdepth":"15.500","Units":"in","Rept_Date":"2020-03-19 12"},"coordinates":[878,5671]},{"type":"Point","properties":{"Station_ID":"FTHQ6","Station_Nam":"FORT HOPE","Latitude":"51.55820","Longitude":"-87.90510","Snowdepth":"15.350","Units":"in","Rept_Date":"2020-03-20 06"},"coordinates":[2190,9837]},{"type":"Point","properties":{"Station_ID":"WTNM4","Station_Nam":"WATTON 2WSW","Latitude":"46.52660","Longitude":"-88.64240","Snowdepth":"15.000","Units":"in","Rept_Date":"2020-03-19 12"},"coordinates":[2017,5003]},{"type":"Point","properties":{"Station_ID":"WI-ON-8","Station_Nam":"HAZELHURST 2.1 SSE, WI","Latitude":"45.78186","Longitude":"-89.70330","Snowdepth":"15.000","Units":"in","Rept_Date":"2020-03-19 13"},"coordinates":[1768,4287]},{"type":"Point","properties":{"Station_ID":"WI-BY-22","Station_Nam":"MASON 11.5 WNW, WI","Latitude":"46.50198","Longitude":"-91.28339","Snowdepth":"15.000","Units":"in","Rept_Date":"2020-03-19 14"},"coordinates":[1398,4979]},{"type":"Point","properties":{"Station_ID":"WI-BY-2","Station_Nam":"MELLEN 18.6 SW, WI","Latitude":"46.16937","Longitude":"-90.98090","Snowdepth":"15.000","Units":"in","Rept_Date":"2020-03-19 13"},"coordinates":[1469,4659]},{"type":"Point","properties":{"Station_ID":"RANM1","Station_Nam":"RANGELEY","Latitude":"44.98910","Longitude":"-70.67190","Snowdepth":"15.000","Units":"in","Rept_Date":"2020-03-19 10"},"coordinates":[6235,3525]},{"type":"Point","properties":{"Station_ID":"MWN","Station_Nam":"MOUNT WASHINGTON","Latitude":"44.26670","Longitude":"-71.30000","Snowdepth":"15.000","Units":"in","Rept_Date":"2020-03-20 04"},"coordinates":[6088,2831]},{"type":"Point","properties":{"Station_ID":"MN-CK-6","Station_Nam":"GRAND MARAIS 4.4 W, MN","Latitude":"47.74865","Longitude":"-90.43760","Snowdepth":"15.000","Units":"in","Rept_Date":"2020-03-19 13"},"coordinates":[1596,6177]},{"type":"Point","properties":{"Station_ID":"MIEM4","Station_Nam":"MICHIGAMME 3WNW","Latitude":"46.54530","Longitude":"-88.18000","Snowdepth":"15.000","Units":"in","Rept_Date":"2020-03-19 12"},"coordinates":[2126,5021]},{"type":"Point","properties":{"Station_ID":"JCBM4","Station_Nam":"JACOBSVILLE","Latitude":"47.00830","Longitude":"-88.43180","Snowdepth":"15.000","Units":"in","Rept_Date":"2020-03-19 11"},"coordinates":[2067,5465]},{"type":"Point","properties":{"Station_ID":"GGRM4","Station_Nam":"GREEN GARDEN NO.2","Latitude":"46.45330","Longitude":"-87.30380","Snowdepth":"15.000","Units":"in","Rept_Date":"2020-03-19 12"},"coordinates":[2332,4932]},{"type":"Point","properties":{"Station_ID":"FEDM5","Station_Nam":"LEECH LAKE DAM","Latitude":"47.24670","Longitude":"-94.22280","Snowdepth":"15.000","Units":"in","Rept_Date":"2020-03-19 13"},"coordinates":[708,5695]},{"type":"Point","properties":{"Station_ID":"CMKW3","Station_Nam":"CLAM LAKE 4W","Latitude":"46.16940","Longitude":"-90.98080","Snowdepth":"15.000","Units":"in","Rept_Date":"2020-03-19 12"},"coordinates":[1469,4659]},{"type":"Point","properties":{"Station_ID":"AVLV1","Station_Nam":"AVERILL","Latitude":"45.00570","Longitude":"-71.69030","Snowdepth":"15.000","Units":"in","Rept_Date":"2020-03-19 12"},"coordinates":[5996,3541]},{"type":"Point","properties":{"Station_ID":"AMAM4","Station_Nam":"AMASA 1W","Latitude":"46.23470","Longitude":"-88.45440","Snowdepth":"15.000","Units":"in","Rept_Date":"2020-03-19 13"},"coordinates":[2061,4722]},{"type":"Point","properties":{"Station_ID":"CAN-NB-64","Station_Nam":"KESWICK RIDGE 4.0 SE, CAN","Latitude":"45.97014","Longitude":"-66.85538","Snowdepth":"14.500","Units":"in","Rept_Date":"2020-03-19 13"},"coordinates":[7131,4468]},{"type":"Point","properties":{"Station_ID":"ZFEM4","Station_Nam":"FELCH - SNOW SURVEY LOCATION","Latitude":"45.99690","Longitude":"-87.82530","Snowdepth":"14.000","Units":"in","Rept_Date":"2020-03-19 17"},"coordinates":[2209,4494]},{"type":"Point","properties":{"Station_ID":"WRUM5","Station_Nam":"WARROAD 4W","Latitude":"48.89600","Longitude":"-95.40700","Snowdepth":"14.000","Units":"in","Rept_Date":"2020-03-20 03"},"coordinates":[430,7279]},{"type":"Point","properties":{"Station_ID":"WRSM5","Station_Nam":"WRENSHALL","Latitude":"46.61550","Longitude":"-92.38380","Snowdepth":"14.000","Units":"in","Rept_Date":"2020-03-19 13"},"coordinates":[1139,5088]},{"type":"Point","properties":{"Station_ID":"WI-IR-3","Station_Nam":"PENCE 0.1 E, WI","Latitude":"46.41555","Longitude":"-90.27013","Snowdepth":"14.000","Units":"in","Rept_Date":"2020-03-19 13"},"coordinates":[1635,4896]},{"type":"Point","properties":{"Station_ID":"WI-DG-20","Station_Nam":"SOLON SPRINGS 1.2 W, WI","Latitude":"46.35217","Longitude":"-91.84405","Snowdepth":"14.000","Units":"in","Rept_Date":"2020-03-19 13"},"coordinates":[1266,4835]},{"type":"Point","properties":{"Station_ID":"WI-BY-14","Station_Nam":"ASHLAND 9.8 W, WI","Latitude":"46.59742","Longitude":"-91.07856","Snowdepth":"14.000","Units":"in","Rept_Date":"2020-03-19 12"},"coordinates":[1446,5071]},{"type":"Point","properties":{"Station_ID":"SUTV1","Station_Nam":"SUTTON","Latitude":"44.61220","Longitude":"-72.04810","Snowdepth":"14.000","Units":"in","Rept_Date":"2020-03-19 12"},"coordinates":[5912,3163]},{"type":"Point","properties":{"Station_ID":"PTBN3","Station_Nam":"PITTSBURG RESERVOIR","Latitude":"45.04690","Longitude":"-71.38300","Snowdepth":"14.000","Units":"in","Rept_Date":"2020-03-19 12"},"coordinates":[6068,3581]},{"type":"Point","properties":{"Station_ID":"PKGM5","Station_Nam":"POKEGANA LK DAM","Latitude":"47.25080","Longitude":"-93.58610","Snowdepth":"14.000","Units":"in","Rept_Date":"2020-03-19 13"},"coordinates":[857,5698]},{"type":"Point","properties":{"Station_ID":"MI-DL-1","Station_Nam":"GARDEN CORNERS 0.8 NW, MI","Latitude":"45.89815","Longitude":"-86.54850","Snowdepth":"14.000","Units":"in","Rept_Date":"2020-03-19 13"},"coordinates":[2509,4399]},{"type":"Point","properties":{"Station_ID":"LPLN6","Station_Nam":"LAKE PLACID 2 S","Latitude":"44.30420","Longitude":"-73.98390","Snowdepth":"14.000","Units":"in","Rept_Date":"2020-03-19 13"},"coordinates":[5458,2867]},{"type":"Point","properties":{"Station_ID":"KMWN","Station_Nam":"MOUNT WASHINGTON","Latitude":"44.26666","Longitude":"-71.30000","Snowdepth":"14.000","Units":"in","Rept_Date":"2020-03-20 06"},"coordinates":[6088,2831]},{"type":"Point","properties":{"Station_ID":"KINM1","Station_Nam":"KINGFIELD","Latitude":"44.95950","Longitude":"-70.17530","Snowdepth":"14.000","Units":"in","Rept_Date":"2020-03-19 11"},"coordinates":[6352,3497]},{"type":"Point","properties":{"Station_ID":"GDCM4","Station_Nam":"GARDEN CORNERS","Latitude":"45.89830","Longitude":"-86.54850","Snowdepth":"14.000","Units":"in","Rept_Date":"2020-03-19 12"},"coordinates":[2509,4399]},{"type":"Point","properties":{"Station_ID":"CAN-MB-32","Station_Nam":"PINAWA 1.0 SW, CA","Latitude":"50.14747","Longitude":"-95.89020","Snowdepth":"14.000","Units":"in","Rept_Date":"2020-03-19 13"},"coordinates":[316,8482]},{"type":"Point","properties":{"Station_ID":"BBEM4","Station_Nam":"BIG BAY 9SW","Latitude":"46.74620","Longitude":"-87.88160","Snowdepth":"14.000","Units":"in","Rept_Date":"2020-03-19 12"},"coordinates":[2196,5214]},{"type":"Point","properties":{"Station_ID":"AVTW3","Station_Nam":"ARBOR VITAE-JOHNSON LAKE","Latitude":"45.89940","Longitude":"-89.72670","Snowdepth":"14.000","Units":"in","Rept_Date":"2020-03-19 11"},"coordinates":[1763,4400]},{"type":"Point","properties":{"Station_ID":"CAN-ON-757","Station_Nam":"SAULT STE. MARIE 2.8 ESE - GLFC, CAN","Latitude":"46.50300","Longitude":"-84.30300","Snowdepth":"13.900","Units":"in","Rept_Date":"2020-03-19 13"},"coordinates":[3036,4980]},{"type":"Point","properties":{"Station_ID":"VT-BN-12","Station_Nam":"STAMFORD 5.0 NNE, VT","Latitude":"42.82000","Longitude":"-73.02000","Snowdepth":"13.500","Units":"in","Rept_Date":"2020-03-19 21"},"coordinates":[5684,1441]},{"type":"Point","properties":{"Station_ID":"MN-BK-6","Station_Nam":"LAKE PARK 6.0 S, MN","Latitude":"46.79850","Longitude":"-96.12180","Snowdepth":"13.500","Units":"in","Rept_Date":"2020-03-19 13"},"coordinates":[262,5264]},{"type":"Point","properties":{"Station_ID":"NH-CR-15","Station_Nam":"JACKSON 3.7 NW, NH","Latitude":"44.19069","Longitude":"-71.22598","Snowdepth":"13.000","Units":"in","Rept_Date":"2020-03-19 12"},"coordinates":[6105,2758]},{"type":"Point","properties":{"Station_ID":"GRFN8","Station_Nam":"UNIVERSITY","Latitude":"47.93330","Longitude":"-97.08330","Snowdepth":"13.000","Units":"in","Rept_Date":"2020-03-20 05"},"coordinates":[36,6354]},{"type":"Point","properties":{"Station_ID":"CLKM4","Station_Nam":"CLARKSBURG","Latitude":"46.49910","Longitude":"-87.84500","Snowdepth":"13.000","Units":"in","Rept_Date":"2020-03-19 11"},"coordinates":[2205,4976]},{"type":"Point","properties":{"Station_ID":"CAN-NB-97","Station_Nam":"NEW MARYLAND 0.6 NW, CAN","Latitude":"45.90112","Longitude":"-66.68739","Snowdepth":"12.800","Units":"in","Rept_Date":"2020-03-19 11"},"coordinates":[7170,4402]},{"type":"Point","properties":{"Station_ID":"CAN-NB-16","Station_Nam":"DORCHESTER 1.0 SSE, CAN","Latitude":"45.89160","Longitude":"-64.51269","Snowdepth":"12.800","Units":"in","Rept_Date":"2020-03-19 12"},"coordinates":[7681,4393]},{"type":"Point","properties":{"Station_ID":"MI-DL-4","Station_Nam":"GLADSTONE 2.1 SW, MI","Latitude":"45.83218","Longitude":"-87.05727","Snowdepth":"12.500","Units":"in","Rept_Date":"2020-03-19 12"},"coordinates":[2389,4335]},{"type":"Point","properties":{"Station_ID":"ZNOM4","Station_Nam":"NORWAY","Latitude":"45.77810","Longitude":"-87.89560","Snowdepth":"12.000","Units":"in","Rept_Date":"2020-03-19 12"},"coordinates":[2193,4284]},{"type":"Point","properties":{"Station_ID":"WERW3","Station_Nam":"CHIPPEWA R BISHOP'S BRIDGE","Latitude":"45.84920","Longitude":"-91.07890","Snowdepth":"12.000","Units":"in","Rept_Date":"2020-03-19 12"},"coordinates":[1446,4352]},{"type":"Point","properties":{"Station_ID":"TAKW3","Station_Nam":"RICE RESERVOIR NO. 2","Latitude":"45.53770","Longitude":"-89.73220","Snowdepth":"12.000","Units":"in","Rept_Date":"2020-03-19 11"},"coordinates":[1762,4053]},{"type":"Point","properties":{"Station_ID":"NY-ES-6","Station_Nam":"OLMSTEDVILLE 4.6 NNE, NY","Latitude":"43.83350","Longitude":"-73.89780","Snowdepth":"12.000","Units":"in","Rept_Date":"2020-03-19 13"},"coordinates":[5478,2415]},{"type":"Point","properties":{"Station_ID":"MWTM1","Station_Nam":"MILLINOCKET WWTP","Latitude":"45.64030","Longitude":"-68.67480","Snowdepth":"12.000","Units":"in","Rept_Date":"2020-03-19 10"},"coordinates":[6704,4151]},{"type":"Point","properties":{"Station_ID":"MRAM4","Station_Nam":"MORAN","Latitude":"45.99030","Longitude":"-84.83610","Snowdepth":"12.000","Units":"in","Rept_Date":"2020-03-19 12"},"coordinates":[2911,4487]},{"type":"Point","properties":{"Station_ID":"MN7M8EBJ","Station_Nam":"LUTSEN 15.7 NNW","Latitude":"47.85324","Longitude":"-89.92908","Snowdepth":"12.000","Units":"in","Rept_Date":"2020-03-19 13"},"coordinates":[1715,6277]},{"type":"Point","properties":{"Station_ID":"MN-IT-19","Station_Nam":"COHASSET 7.6 NNW, MN","Latitude":"47.34204","Longitude":"-93.69765","Snowdepth":"12.000","Units":"in","Rept_Date":"2020-03-19 13"},"coordinates":[831,5786]},{"type":"Point","properties":{"Station_ID":"ME-FR-4","Station_Nam":"NEW SHARON 2.0 NW, ME","Latitude":"44.66582","Longitude":"-70.02720","Snowdepth":"12.000","Units":"in","Rept_Date":"2020-03-19 12"},"coordinates":[6386,3215]},{"type":"Point","properties":{"Station_ID":"LBRM5","Station_Nam":"LAKE BRONSON DAM","Latitude":"48.72410","Longitude":"-96.62180","Snowdepth":"12.000","Units":"in","Rept_Date":"2020-03-19 13"},"coordinates":[145,7114]},{"type":"Point","properties":{"Station_ID":"IMNM4","Station_Nam":"IRON MOUTAIN 5N","Latitude":"45.87580","Longitude":"-88.04030","Snowdepth":"12.000","Units":"in","Rept_Date":"2020-03-20 00"},"coordinates":[2159,4377]},{"type":"Point","properties":{"Station_ID":"FLNW3","Station_Nam":"FLORENCE","Latitude":"45.93360","Longitude":"-88.25830","Snowdepth":"12.000","Units":"in","Rept_Date":"2020-03-19 12"},"coordinates":[2108,4433]},{"type":"Point","properties":{"Station_ID":"EAHV1","Station_Nam":"EAST HAVEN","Latitude":"44.64250","Longitude":"-71.89120","Snowdepth":"12.000","Units":"in","Rept_Date":"2020-03-19 11"},"coordinates":[5949,3192]},{"type":"Point","properties":{"Station_ID":"CAN-NS-86","Station_Nam":"NAPPAN 1.7 E, CA","Latitude":"45.76986","Longitude":"-64.21800","Snowdepth":"12.000","Units":"in","Rept_Date":"2020-03-19 14"},"coordinates":[7750,4276]},{"type":"Point","properties":{"Station_ID":"BTLN3","Station_Nam":"BARTLETT","Latitude":"44.08380","Longitude":"-71.29340","Snowdepth":"12.000","Units":"in","Rept_Date":"2020-03-19 11"},"coordinates":[6089,2656]},{"type":"Point","properties":{"Station_ID":"AURW3","Station_Nam":"AURORA","Latitude":"45.77000","Longitude":"-88.11810","Snowdepth":"12.000","Units":"in","Rept_Date":"2020-03-19 12"},"coordinates":[2140,4276]},{"type":"Point","properties":{"Station_ID":"AGNW3","Station_Nam":"ARGONNE-1.5 NW","Latitude":"45.67360","Longitude":"-88.90380","Snowdepth":"12.000","Units":"in","Rept_Date":"2020-03-19 12"},"coordinates":[1956,4183]},{"type":"Point","properties":{"Station_ID":"CAN-PE-3","Station_Nam":"WELLINGTON 1.6 NE, CA","Latitude":"46.46672","Longitude":"-63.98920","Snowdepth":"11.500","Units":"in","Rept_Date":"2020-03-19 11"},"coordinates":[7803,4945]},{"type":"Point","properties":{"Station_ID":"CAN-PE-7","Station_Nam":"MORELL 1.4 NNW, CA","Latitude":"46.42741","Longitude":"-62.70870","Snowdepth":"11.200","Units":"in","Rept_Date":"2020-03-19 12"},"coordinates":[8104,4907]},{"type":"Point","properties":{"Station_ID":"MN2EOYHJ","Station_Nam":"OGILVIE 5.6 N","Latitude":"45.91288","Longitude":"-93.42259","Snowdepth":"11.000","Units":"in","Rept_Date":"2020-03-19 13"},"coordinates":[895,4413]},{"type":"Point","properties":{"Station_ID":"MN-PK-15","Station_Nam":"MENTOR 2.5 SSW, MN","Latitude":"47.66625","Longitude":"-96.17328","Snowdepth":"11.000","Units":"in","Rept_Date":"2020-03-19 13"},"coordinates":[250,6098]},{"type":"Point","properties":{"Station_ID":"LBKV1","Station_Nam":"LYE BROOK","Latitude":"43.05000","Longitude":"-73.03330","Snowdepth":"11.000","Units":"in","Rept_Date":"2020-03-20 05"},"coordinates":[5681,1662]},{"type":"Point","properties":{"Station_ID":"INDN6","Station_Nam":"INDIAN LAKE","Latitude":"43.75500","Longitude":"-74.27560","Snowdepth":"11.000","Units":"in","Rept_Date":"2020-03-19 12"},"coordinates":[5389,2340]},{"type":"Point","properties":{"Station_ID":"CAN-NB-1","Station_Nam":"FREDERICTON 4.0 SSE, CA","Latitude":"45.92897","Longitude":"-66.62830","Snowdepth":"10.600","Units":"in","Rept_Date":"2020-03-19 12"},"coordinates":[7184,4428]},{"type":"Point","properties":{"Station_ID":"WI-ON-6","Station_Nam":"RHINELANDER 5.2 N, WI","Latitude":"45.71388","Longitude":"-89.42150","Snowdepth":"10.500","Units":"in","Rept_Date":"2020-03-19 14"},"coordinates":[1835,4222]},{"type":"Point","properties":{"Station_ID":"MI-AT-6","Station_Nam":"MANCELONA 0.5 ESE, MI","Latitude":"44.89981","Longitude":"-85.05100","Snowdepth":"10.500","Units":"in","Rept_Date":"2020-03-19 13"},"coordinates":[2860,3440]},{"type":"Point","properties":{"Station_ID":"WTRM4","Station_Nam":"WATERSMEET 12WSW","Latitude":"46.22310","Longitude":"-89.40850","Snowdepth":"10.000","Units":"in","Rept_Date":"2020-03-19 11"},"coordinates":[1838,4711]},{"type":"Point","properties":{"Station_ID":"WI-SR-1","Station_Nam":"HAYWARD 9.2 NNE, WI","Latitude":"46.13255","Longitude":"-91.40500","Snowdepth":"10.000","Units":"in","Rept_Date":"2020-03-19 12"},"coordinates":[1369,4624]},{"type":"Point","properties":{"Station_ID":"WI-PR-2","Station_Nam":"BUTTERNUT 5.9 SW, WI","Latitude":"45.96501","Longitude":"-90.59750","Snowdepth":"10.000","Units":"in","Rept_Date":"2020-03-19 12"},"coordinates":[1559,4463]},{"type":"Point","properties":{"Station_ID":"VT-CL-18","Station_Nam":"WHEELOCK 1.6 S, VT","Latitude":"44.56491","Longitude":"-72.08830","Snowdepth":"10.000","Units":"in","Rept_Date":"2020-03-19 12"},"coordinates":[5903,3118]},{"type":"Point","properties":{"Station_ID":"NY-FK-7","Station_Nam":"SARANAC LAKE 6.2 N, NY","Latitude":"44.41359","Longitude":"-74.15211","Snowdepth":"10.000","Units":"in","Rept_Date":"2020-03-19 11"},"coordinates":[5418,2973]},{"type":"Point","properties":{"Station_ID":"NH-CR-41","Station_Nam":"ALBANY 2.8 SW, NH","Latitude":"43.92648","Longitude":"-71.21556","Snowdepth":"10.000","Units":"in","Rept_Date":"2020-03-19 14"},"coordinates":[6107,2505]},{"type":"Point","properties":{"Station_ID":"MN-CW-22","Station_Nam":"FORT RIPLEY 0.8 N, MN","Latitude":"46.18089","Longitude":"-94.36510","Snowdepth":"10.000","Units":"in","Rept_Date":"2020-03-19 13"},"coordinates":[674,4671]},{"type":"Point","properties":{"Station_ID":"MI-OT-17","Station_Nam":"GAYLORD 4.1 S, MI","Latitude":"44.96388","Longitude":"-84.68467","Snowdepth":"10.000","Units":"in","Rept_Date":"2020-03-19 12"},"coordinates":[2946,3501]},{"type":"Point","properties":{"Station_ID":"ME-OX-2","Station_Nam":"HARTFORD 1.4 N, ME","Latitude":"44.39318","Longitude":"-70.34760","Snowdepth":"10.000","Units":"in","Rept_Date":"2020-03-19 12"},"coordinates":[6311,2953]},{"type":"Point","properties":{"Station_ID":"LNKM1","Station_Nam":"LINCOLN SANITARY DISTRICT/WTP","Latitude":"45.37520","Longitude":"-68.50820","Snowdepth":"10.000","Units":"in","Rept_Date":"2020-03-19 11"},"coordinates":[6743,3896]},{"type":"Point","properties":{"Station_ID":"ASTW3","Station_Nam":"ATHELSTANE","Latitude":"45.42500","Longitude":"-88.05750","Snowdepth":"10.000","Units":"in","Rept_Date":"2020-03-19 11"},"coordinates":[2155,3944]},{"type":"Point","properties":{"Station_ID":"VT-OL-1","Station_Nam":"WESTFIELD 0.7 WNW, VT","Latitude":"44.89160","Longitude":"-72.44350","Snowdepth":"9.500","Units":"in","Rept_Date":"2020-03-19 12"},"coordinates":[5819,3432]},{"type":"Point","properties":{"Station_ID":"MN-BK-10","Station_Nam":"DETROIT LAKES 5.7 N, MN","Latitude":"46.88666","Longitude":"-95.84444","Snowdepth":"9.500","Units":"in","Rept_Date":"2020-03-19 14"},"coordinates":[327,5349]},{"type":"Point","properties":{"Station_ID":"CAN-NS-166","Station_Nam":"PORT MORIEN 5.7 SSE, CAN","Latitude":"46.08367","Longitude":"-59.85858","Snowdepth":"9.100","Units":"in","Rept_Date":"2020-03-19 10"},"coordinates":[8773,4577]},{"type":"Point","properties":{"Station_ID":"WI-BN-6","Station_Nam":"SUAMICO 4.4 WNW, WI","Latitude":"44.66111","Longitude":"-88.11780","Snowdepth":"9.000","Units":"in","Rept_Date":"2020-03-19 13"},"coordinates":[2140,3210]},{"type":"Point","properties":{"Station_ID":"VT-OL-9","Station_Nam":"GREENSBORO 2.1 NNW, VT","Latitude":"44.60528","Longitude":"-72.30940","Snowdepth":"9.000","Units":"in","Rept_Date":"2020-03-19 12"},"coordinates":[5851,3157]},{"type":"Point","properties":{"Station_ID":"RHIW3","Station_Nam":"RHINELANDER","Latitude":"45.59860","Longitude":"-89.45080","Snowdepth":"9.000","Units":"in","Rept_Date":"2020-03-19 12"},"coordinates":[1828,4111]},{"type":"Point","properties":{"Station_ID":"NH-GR-49","Station_Nam":"PLYMOUTH 3.7 N, NH","Latitude":"43.79048","Longitude":"-71.68413","Snowdepth":"9.000","Units":"in","Rept_Date":"2020-03-19 12"},"coordinates":[5997,2374]},{"type":"Point","properties":{"Station_ID":"MN3LTZND","Station_Nam":"BRAINERD 1.4 S","Latitude":"46.33224","Longitude":"-94.20905","Snowdepth":"9.000","Units":"in","Rept_Date":"2020-03-19 12"},"coordinates":[711,4816]},{"type":"Point","properties":{"Station_ID":"MN-BM-15","Station_Nam":"BEMIDJI 7.8 ENE, MN","Latitude":"47.52043","Longitude":"-94.72121","Snowdepth":"9.000","Units":"in","Rept_Date":"2020-03-19 13"},"coordinates":[591,5958]},{"type":"Point","properties":{"Station_ID":"KGFK","Station_Nam":"GRAND FORKS INTERNATIONAL","Latitude":"47.95000","Longitude":"-97.18333","Snowdepth":"9.000","Units":"in","Rept_Date":"2020-03-20 00"},"coordinates":[13,6370]},{"type":"Point","properties":{"Station_ID":"HUBN3","Station_Nam":"HUBBARD BROOK","Latitude":"43.93330","Longitude":"-71.71670","Snowdepth":"9.000","Units":"in","Rept_Date":"2020-03-19 07"},"coordinates":[5990,2511]},{"type":"Point","properties":{"Station_ID":"GFK","Station_Nam":"GRAND FORKS INTERNATIONAL AIRPORT","Latitude":"47.94920","Longitude":"-97.17610","Snowdepth":"9.000","Units":"in","Rept_Date":"2020-03-20 00"},"coordinates":[15,6369]},{"type":"Point","properties":{"Station_ID":"ESGM1","Station_Nam":"EAST SANGERVILLE","Latitude":"45.13690","Longitude":"-69.28060","Snowdepth":"9.000","Units":"in","Rept_Date":"2020-03-19 11"},"coordinates":[6562,3667]},{"type":"Point","properties":{"Station_ID":"CORV1","Station_Nam":"CORINTH","Latitude":"44.00690","Longitude":"-72.31940","Snowdepth":"9.000","Units":"in","Rept_Date":"2020-03-19 11"},"coordinates":[5848,2582]},{"type":"Point","properties":{"Station_ID":"CAN-ON-245","Station_Nam":"PHELPSTON 3.1 ESE, CAN","Latitude":"44.50564","Longitude":"-79.81035","Snowdepth":"9.000","Units":"in","Rept_Date":"2020-03-19 14"},"coordinates":[4090,3061]},{"type":"Point","properties":{"Station_ID":"BRAM5","Station_Nam":"BRAINERD","Latitude":"46.34320","Longitude":"-94.20900","Snowdepth":"9.000","Units":"in","Rept_Date":"2020-03-19 12"},"coordinates":[711,4826]},{"type":"Point","properties":{"Station_ID":"NH-CR-11","Station_Nam":"NORTH CONWAY 1.4 SSW, NH","Latitude":"44.03556","Longitude":"-71.14010","Snowdepth":"8.500","Units":"in","Rept_Date":"2020-03-19 12"},"coordinates":[6125,2609]},{"type":"Point","properties":{"Station_ID":"MI-OT-16","Station_Nam":"GAYLORD 2.2 SSE, MI","Latitude":"44.99441","Longitude":"-84.65820","Snowdepth":"8.500","Units":"in","Rept_Date":"2020-03-19 13"},"coordinates":[2952,3531]},{"type":"Point","properties":{"Station_ID":"CAN-ON-92","Station_Nam":"DUNROBIN 1.9 W - MVCA, CAN","Latitude":"45.42318","Longitude":"-76.04525","Snowdepth":"8.500","Units":"in","Rept_Date":"2020-03-19 12"},"coordinates":[4974,3943]},{"type":"Point","properties":{"Station_ID":"CAN-NS-163","Station_Nam":"SYDNEY MINES 2.2 WNW, CAN","Latitude":"46.24851","Longitude":"-60.25161","Snowdepth":"8.300","Units":"in","Rept_Date":"2020-03-19 12"},"coordinates":[8681,4735]},{"type":"Point","properties":{"Station_ID":"WI-SR-5","Station_Nam":"HAYWARD 9.7 NE, WI","Latitude":"46.12030","Longitude":"-91.35370","Snowdepth":"8.000","Units":"in","Rept_Date":"2020-03-19 14"},"coordinates":[1381,4612]},{"type":"Point","properties":{"Station_ID":"VT-WS-15","Station_Nam":"EAST CALAIS 1.5 SW, VT","Latitude":"44.35523","Longitude":"-72.45540","Snowdepth":"8.000","Units":"in","Rept_Date":"2020-03-19 12"},"coordinates":[5816,2916]},{"type":"Point","properties":{"Station_ID":"VT-ES-3","Station_Nam":"LUNENBURG 2.3 NNW, VT","Latitude":"44.49324","Longitude":"-71.70446","Snowdepth":"8.000","Units":"in","Rept_Date":"2020-03-19 10"},"coordinates":[5993,3049]},{"type":"Point","properties":{"Station_ID":"VT-BN-3","Station_Nam":"LANDGROVE 1.1 NNE, VT","Latitude":"43.29092","Longitude":"-72.83260","Snowdepth":"8.000","Units":"in","Rept_Date":"2020-03-19 12"},"coordinates":[5728,1894]},{"type":"Point","properties":{"Station_ID":"TOPM1","Station_Nam":"TOPSFIELD","Latitude":"45.43470","Longitude":"-67.72020","Snowdepth":"8.000","Units":"in","Rept_Date":"2020-03-19 11"},"coordinates":[6928,3954]},{"type":"Point","properties":{"Station_ID":"STMM4","Station_Nam":"STAMBAUGH 2SSE","Latitude":"46.05550","Longitude":"-88.62780","Snowdepth":"8.000","Units":"in","Rept_Date":"2020-03-19 12"},"coordinates":[2021,4550]},{"type":"Point","properties":{"Station_ID":"NUMN3","Station_Nam":"NORTHUMBERLAND","Latitude":"44.52830","Longitude":"-71.50440","Snowdepth":"8.000","Units":"in","Rept_Date":"2020-03-19 11"},"coordinates":[6040,3083]},{"type":"Point","properties":{"Station_ID":"NH-CR-26","Station_Nam":"CENTER SANDWICH 4.9 E, NH","Latitude":"43.80976","Longitude":"-71.34150","Snowdepth":"8.000","Units":"in","Rept_Date":"2020-03-19 11"},"coordinates":[6078,2392]},{"type":"Point","properties":{"Station_ID":"ESDN3","Station_Nam":"EAST SANDWICH","Latitude":"43.80990","Longitude":"-71.34250","Snowdepth":"8.000","Units":"in","Rept_Date":"2020-03-19 10"},"coordinates":[6078,2393]},{"type":"Point","properties":{"Station_ID":"EGRW3","Station_Nam":"EAGLE RIVER-SOUTH","Latitude":"45.91360","Longitude":"-89.24360","Snowdepth":"8.000","Units":"in","Rept_Date":"2020-03-19 12"},"coordinates":[1876,4414]},{"type":"Point","properties":{"Station_ID":"BREW3","Station_Nam":"SURING","Latitude":"44.99580","Longitude":"-88.37860","Snowdepth":"8.000","Units":"in","Rept_Date":"2020-03-19 11"},"coordinates":[2079,3532]},{"type":"Point","properties":{"Station_ID":"MN-AT-5","Station_Nam":"TAMARACK 1.4 SW, MN","Latitude":"46.63760","Longitude":"-93.14554","Snowdepth":"7.500","Units":"in","Rept_Date":"2020-03-19 11"},"coordinates":[961,5109]},{"type":"Point","properties":{"Station_ID":"MI-CX-7","Station_Nam":"EAST JORDAN 2.1 NNW, MI","Latitude":"45.18639","Longitude":"-85.14750","Snowdepth":"7.500","Units":"in","Rept_Date":"2020-03-19 13"},"coordinates":[2838,3715]},{"type":"Point","properties":{"Station_ID":"ME-FR-22","Station_Nam":"FARMINGTON 4.8 NNW, ME","Latitude":"44.73396","Longitude":"-70.18007","Snowdepth":"7.500","Units":"in","Rept_Date":"2020-03-19 14"},"coordinates":[6350,3280]},{"type":"Point","properties":{"Station_ID":"CAN-NB-98","Station_Nam":"HOYT 4.2 S, CAN","Latitude":"45.54763","Longitude":"-66.55440","Snowdepth":"7.500","Units":"in","Rept_Date":"2020-03-19 11"},"coordinates":[7201,4062]},{"type":"Point","properties":{"Station_ID":"CAN-ON-120","Station_Nam":"DUNROBIN 5.8 NE MIVCA, CA","Latitude":"45.46243","Longitude":"-75.97120","Snowdepth":"7.100","Units":"in","Rept_Date":"2020-03-19 12"},"coordinates":[4991,3980]},{"type":"Point","properties":{"Station_ID":"ZCAM4","Station_Nam":"CHANNING - SNOW SURVEY LOCATION","Latitude":"46.11060","Longitude":"-88.07830","Snowdepth":"7.000","Units":"in","Rept_Date":"2020-03-19 19"},"coordinates":[2150,4603]},{"type":"Point","properties":{"Station_ID":"WLKW3","Station_Nam":"WHITE LAKE 1 SE","Latitude":"45.14520","Longitude":"-88.74160","Snowdepth":"7.000","Units":"in","Rept_Date":"2020-03-19 13"},"coordinates":[1994,3675]},{"type":"Point","properties":{"Station_ID":"WI-WB-2","Station_Nam":"STONE LAKE 2.0 NW, WI","Latitude":"45.85960","Longitude":"-91.57710","Snowdepth":"7.000","Units":"in","Rept_Date":"2020-03-19 13"},"coordinates":[1329,4362]},{"type":"Point","properties":{"Station_ID":"PERV1","Station_Nam":"PERU","Latitude":"43.26670","Longitude":"-72.90000","Snowdepth":"7.000","Units":"in","Rept_Date":"2020-03-19 11"},"coordinates":[5712,1871]},{"type":"Point","properties":{"Station_ID":"HOKN6","Station_Nam":"HOOKER 12 NNW","Latitude":"43.85240","Longitude":"-75.71580","Snowdepth":"7.000","Units":"in","Rept_Date":"2020-03-19 11"},"coordinates":[5051,2433]},{"type":"Point","properties":{"Station_ID":"ENGM4","Station_Nam":"ENGADINE MDOT","Latitude":"46.12800","Longitude":"-85.56960","Snowdepth":"7.000","Units":"in","Rept_Date":"2020-03-19 11"},"coordinates":[2739,4620]},{"type":"Point","properties":{"Station_ID":"EJNM4","Station_Nam":"EAST JORDAN 2NW","Latitude":"45.18630","Longitude":"-85.14770","Snowdepth":"7.000","Units":"in","Rept_Date":"2020-03-19 12"},"coordinates":[2838,3715]},{"type":"Point","properties":{"Station_ID":"COUW3","Station_Nam":"COUDERAY,WI","Latitude":"45.86670","Longitude":"-91.45000","Snowdepth":"7.000","Units":"in","Rept_Date":"2020-03-19 21"},"coordinates":[1358,4369]},{"type":"Point","properties":{"Station_ID":"CAN-PE-10","Station_Nam":"NEW LONDON 1.6 ENE, CA","Latitude":"46.46985","Longitude":"-63.49200","Snowdepth":"7.000","Units":"in","Rept_Date":"2020-03-19 12"},"coordinates":[7920,4948]},{"type":"Point","properties":{"Station_ID":"AROM4","Station_Nam":"ARNOLD,MI","Latitude":"46.06670","Longitude":"-87.48330","Snowdepth":"7.000","Units":"in","Rept_Date":"2020-03-19 12"},"coordinates":[2289,4561]},{"type":"Point","properties":{"Station_ID":"WILW3","Station_Nam":"RESERVOIR","Latitude":"45.70000","Longitude":"-89.83330","Snowdepth":"6.000","Units":"in","Rept_Date":"2020-03-19 11"},"coordinates":[1738,4208]},{"type":"Point","properties":{"Station_ID":"WI-TY-2","Station_Nam":"SHELDON 8.1 ENE, WI","Latitude":"45.35598","Longitude":"-90.80296","Snowdepth":"6.000","Units":"in","Rept_Date":"2020-03-19 13"},"coordinates":[1510,3878]},{"type":"Point","properties":{"Station_ID":"VT-OG-11","Station_Nam":"VERSHIRE 1.5 ESE, VT","Latitude":"43.96138","Longitude":"-72.29777","Snowdepth":"6.000","Units":"in","Rept_Date":"2020-03-19 12"},"coordinates":[5853,2538]},{"type":"Point","properties":{"Station_ID":"RRVM4","Station_Nam":"RAPID RIVER 9S","Latitude":"45.78750","Longitude":"-86.93920","Snowdepth":"6.000","Units":"in","Rept_Date":"2020-03-19 12"},"coordinates":[2417,4293]},{"type":"Point","properties":{"Station_ID":"RHRW3","Station_Nam":"RHINELANDER WJFW TV-12","Latitude":"45.62220","Longitude":"-89.41000","Snowdepth":"6.000","Units":"in","Rept_Date":"2020-03-20 03"},"coordinates":[1837,4134]},{"type":"Point","properties":{"Station_ID":"RHLW3","Station_Nam":"RHINELANDER 4NE","Latitude":"45.65270","Longitude":"-89.30740","Snowdepth":"6.000","Units":"in","Rept_Date":"2020-03-19 11"},"coordinates":[1861,4163]},{"type":"Point","properties":{"Station_ID":"RHI","Station_Nam":"RHINELANDER-ONEIDA COUNTY AIRPORT","Latitude":"45.63080","Longitude":"-89.46530","Snowdepth":"6.000","Units":"in","Rept_Date":"2020-03-19 12"},"coordinates":[1824,4142]},{"type":"Point","properties":{"Station_ID":"OTTM5","Station_Nam":"OTTERTAIL,MN","Latitude":"46.41670","Longitude":"-95.56670","Snowdepth":"6.000","Units":"in","Rept_Date":"2020-03-19 11"},"coordinates":[392,4897]},{"type":"Point","properties":{"Station_ID":"NY-HR-18","Station_Nam":"SALISBURY CENTER 1.8 NW, NY","Latitude":"43.16260","Longitude":"-74.80880","Snowdepth":"6.000","Units":"in","Rept_Date":"2020-03-19 11"},"coordinates":[5264,1771]},{"type":"Point","properties":{"Station_ID":"NY-ES-11","Station_Nam":"VERMONTVILLE 2.8 S, NY","Latitude":"44.41205","Longitude":"-74.06760","Snowdepth":"6.000","Units":"in","Rept_Date":"2020-03-19 12"},"coordinates":[5438,2971]},{"type":"Point","properties":{"Station_ID":"ND-CS-25","Station_Nam":"FARGO 2.1 N, ND","Latitude":"46.90816","Longitude":"-96.77937","Snowdepth":"6.000","Units":"in","Rept_Date":"2020-03-19 14"},"coordinates":[108,5369]},{"type":"Point","properties":{"Station_ID":"MNMQO9OI","Station_Nam":"OTTERTAIL 1.5 WNW","Latitude":"46.43378","Longitude":"-95.58416","Snowdepth":"6.000","Units":"in","Rept_Date":"2020-03-19 11"},"coordinates":[388,4913]},{"type":"Point","properties":{"Station_ID":"MNLGGILP","Station_Nam":"LONG PRAIRIE 1.1 WSW","Latitude":"45.96913","Longitude":"-94.88686","Snowdepth":"6.000","Units":"in","Rept_Date":"2020-03-19 11"},"coordinates":[552,4467]},{"type":"Point","properties":{"Station_ID":"LNGM5","Station_Nam":"LONG PRAIRIE","Latitude":"45.96460","Longitude":"-94.88920","Snowdepth":"6.000","Units":"in","Rept_Date":"2020-03-19 11"},"coordinates":[551,4463]},{"type":"Point","properties":{"Station_ID":"ISLV1","Station_Nam":"ISLAND POND","Latitude":"44.81280","Longitude":"-71.89020","Snowdepth":"6.000","Units":"in","Rept_Date":"2020-03-19 14"},"coordinates":[5949,3356]},{"type":"Point","properties":{"Station_ID":"HOLW3","Station_Nam":"HOLCOMBE","Latitude":"45.22370","Longitude":"-91.12700","Snowdepth":"6.000","Units":"in","Rept_Date":"2020-03-19 12"},"coordinates":[1434,3751]},{"type":"Point","properties":{"Station_ID":"BFHW3","Station_Nam":"BAYFIELD FISH HATCHERY","Latitude":"46.78670","Longitude":"-90.86420","Snowdepth":"6.000","Units":"in","Rept_Date":"2020-03-19 13"},"coordinates":[1496,5253]},{"type":"Point","properties":{"Station_ID":"AWXW3","Station_Nam":"ASHLAND","Latitude":"46.58240","Longitude":"-90.88390","Snowdepth":"6.000","Units":"in","Rept_Date":"2020-03-19 12"},"coordinates":[1491,5056]},{"type":"Point","properties":{"Station_ID":"WI-AS-4","Station_Nam":"ASHLAND 0.5 WNW, WI","Latitude":"46.58240","Longitude":"-90.88390","Snowdepth":"5.500","Units":"in","Rept_Date":"2020-03-19 13"},"coordinates":[1491,5056]},{"type":"Point","properties":{"Station_ID":"VT-WS-30","Station_Nam":"WOODBURY 3.4 NNW, VT","Latitude":"44.48825","Longitude":"-72.43258","Snowdepth":"5.500","Units":"in","Rept_Date":"2020-03-19 12"},"coordinates":[5822,3044]},{"type":"Point","properties":{"Station_ID":"VT-WR-2","Station_Nam":"POMFRET 2.6 N, VT","Latitude":"43.74230","Longitude":"-72.52550","Snowdepth":"5.500","Units":"in","Rept_Date":"2020-03-19 12"},"coordinates":[5800,2328]},{"type":"Point","properties":{"Station_ID":"ND-CS-1","Station_Nam":"WEST FARGO 3.8 SSE, ND","Latitude":"46.82750","Longitude":"-96.85280","Snowdepth":"5.500","Units":"in","Rept_Date":"2020-03-19 13"},"coordinates":[90,5292]},{"type":"Point","properties":{"Station_ID":"MN-CW-29","Station_Nam":"BRAINERD 7.7 SSE, MN","Latitude":"46.24996","Longitude":"-94.14576","Snowdepth":"5.500","Units":"in","Rept_Date":"2020-03-19 13"},"coordinates":[726,4737]},{"type":"Point","properties":{"Station_ID":"MI-CP-7","Station_Nam":"DRUMMOND 2.9 NE, MI","Latitude":"46.05329","Longitude":"-83.69060","Snowdepth":"5.500","Units":"in","Rept_Date":"2020-03-19 14"},"coordinates":[3180,4548]},{"type":"Point","properties":{"Station_ID":"WI-RS-1","Station_Nam":"LADYSMITH 2.8 WNW, WI","Latitude":"45.48180","Longitude":"-91.14680","Snowdepth":"5.000","Units":"in","Rept_Date":"2020-03-19 13"},"coordinates":[1430,3999]},{"type":"Point","properties":{"Station_ID":"WI-MT-14","Station_Nam":"MOSINEE 2.7 WSW, WI","Latitude":"44.77240","Longitude":"-89.73441","Snowdepth":"5.000","Units":"in","Rept_Date":"2020-03-19 14"},"coordinates":[1761,3317]},{"type":"Point","properties":{"Station_ID":"WHFN6","Station_Nam":"WILMINGTON 2W","Latitude":"44.39310","Longitude":"-73.85890","Snowdepth":"5.000","Units":"in","Rept_Date":"2020-03-19 12"},"coordinates":[5487,2953]},{"type":"Point","properties":{"Station_ID":"VT-OL-2","Station_Nam":"BARTON 3.0 ENE, VT","Latitude":"44.75863","Longitude":"-72.11680","Snowdepth":"5.000","Units":"in","Rept_Date":"2020-03-19 12"},"coordinates":[5896,3304]},{"type":"Point","properties":{"Station_ID":"VT-CL-14","Station_Nam":"LYNDONVILLE 1.1 W, VT","Latitude":"44.53582","Longitude":"-72.02867","Snowdepth":"5.000","Units":"in","Rept_Date":"2020-03-19 13"},"coordinates":[5917,3090]},{"type":"Point","properties":{"Station_ID":"TMWN3","Station_Nam":"TAMWORTH 4","Latitude":"43.86390","Longitude":"-71.26610","Snowdepth":"5.000","Units":"in","Rept_Date":"2020-03-19 11"},"coordinates":[6096,2444]},{"type":"Point","properties":{"Station_ID":"SULW3","Station_Nam":"SUMMIT LAKE","Latitude":"45.37880","Longitude":"-89.19410","Snowdepth":"5.000","Units":"in","Rept_Date":"2020-03-19 10"},"coordinates":[1888,3900]},{"type":"Point","properties":{"Station_ID":"SBNM5","Station_Nam":"SABIN","Latitude":"46.77690","Longitude":"-96.65610","Snowdepth":"5.000","Units":"in","Rept_Date":"2020-03-19 14"},"coordinates":[137,5243]},{"type":"Point","properties":{"Station_ID":"RSTW3","Station_Nam":"ROSHOLT","Latitude":"44.62710","Longitude":"-89.30600","Snowdepth":"5.000","Units":"in","Rept_Date":"2020-03-19 13"},"coordinates":[1862,3178]},{"type":"Point","properties":{"Station_ID":"PEKN6","Station_Nam":"PECK LAKE","Latitude":"43.11500","Longitude":"-74.42360","Snowdepth":"5.000","Units":"in","Rept_Date":"2020-03-19 11"},"coordinates":[5354,1725]},{"type":"Point","properties":{"Station_ID":"NYMM5","Station_Nam":"NEW YORK MILLS","Latitude":"46.50920","Longitude":"-95.37990","Snowdepth":"5.000","Units":"in","Rept_Date":"2020-03-19 12"},"coordinates":[436,4986]},{"type":"Point","properties":{"Station_ID":"NH-CR-27","Station_Nam":"TAMWORTH 0.4 NNW, NH","Latitude":"43.86449","Longitude":"-71.26610","Snowdepth":"5.000","Units":"in","Rept_Date":"2020-03-19 12"},"coordinates":[6096,2445]},{"type":"Point","properties":{"Station_ID":"MQRW3","Station_Nam":"MINOCQUA","Latitude":"45.88630","Longitude":"-89.73220","Snowdepth":"5.000","Units":"in","Rept_Date":"2020-03-19 11"},"coordinates":[1762,4387]},{"type":"Point","properties":{"Station_ID":"MNMZK7NS","Station_Nam":"NEW YORK MILLS 0.2 NNE","Latitude":"46.52057","Longitude":"-95.37394","Snowdepth":"5.000","Units":"in","Rept_Date":"2020-03-19 12"},"coordinates":[438,4997]},{"type":"Point","properties":{"Station_ID":"MN-CY-1","Station_Nam":"MOORHEAD 2.0 N, MN","Latitude":"46.88766","Longitude":"-96.74800","Snowdepth":"5.000","Units":"in","Rept_Date":"2020-03-19 13"},"coordinates":[115,5350]},{"type":"Point","properties":{"Station_ID":"KSEM4","Station_Nam":"KALKASKA 11SE","Latitude":"44.58970","Longitude":"-85.04860","Snowdepth":"5.000","Units":"in","Rept_Date":"2020-03-19 12"},"coordinates":[2861,3142]},{"type":"Point","properties":{"Station_ID":"HMYM1","Station_Nam":"HARMONY","Latitude":"44.94660","Longitude":"-69.54560","Snowdepth":"5.000","Units":"in","Rept_Date":"2020-03-19 11"},"coordinates":[6499,3485]},{"type":"Point","properties":{"Station_ID":"FLDM5","Station_Nam":"FLOODWOOD,MN","Latitude":"47.00000","Longitude":"-92.91670","Snowdepth":"5.000","Units":"in","Rept_Date":"2020-03-19 13"},"coordinates":[1014,5458]},{"type":"Point","properties":{"Station_ID":"FDRN8","Station_Nam":"FARGO 3S","Latitude":"46.82930","Longitude":"-96.79620","Snowdepth":"5.000","Units":"in","Rept_Date":"2020-03-20 05"},"coordinates":[104,5294]},{"type":"Point","properties":{"Station_ID":"FAR","Station_Nam":"HECTOR INTERNATIONAL ARPT","Latitude":"46.91560","Longitude":"-96.81440","Snowdepth":"5.000","Units":"in","Rept_Date":"2020-03-20 00"},"coordinates":[99,5376]},{"type":"Point","properties":{"Station_ID":"BRLN3","Station_Nam":"BERLIN","Latitude":"44.45350","Longitude":"-71.18540","Snowdepth":"5.000","Units":"in","Rept_Date":"2020-03-19 11"},"coordinates":[6114,3011]},{"type":"Point","properties":{"Station_ID":"RLKW3","Station_Nam":"REST LAKE","Latitude":"46.12220","Longitude":"-89.87720","Snowdepth":"4.000","Units":"in","Rept_Date":"2020-03-19 16"},"coordinates":[1728,4614]},{"type":"Point","properties":{"Station_ID":"PARM4","Station_Nam":"PARENT BAY","Latitude":"45.79610","Longitude":"-86.40110","Snowdepth":"4.000","Units":"in","Rept_Date":"2020-03-19 13"},"coordinates":[2543,4301]},{"type":"Point","properties":{"Station_ID":"NCKN6","Station_Nam":"NORTH CREEK 5 SE","Latitude":"43.66110","Longitude":"-73.89690","Snowdepth":"4.000","Units":"in","Rept_Date":"2020-03-19 11"},"coordinates":[5478,2250]},{"type":"Point","properties":{"Station_ID":"MTQM4","Station_Nam":"MANISTIQUE WWTP","Latitude":"45.95120","Longitude":"-86.25130","Snowdepth":"4.000","Units":"in","Rept_Date":"2020-03-19 11"},"coordinates":[2579,4450]},{"type":"Point","properties":{"Station_ID":"MCLN8","Station_Nam":"MC LEOD,ND","Latitude":"46.40250","Longitude":"-97.23810","Snowdepth":"4.000","Units":"in","Rept_Date":"2020-03-19 14"},"coordinates":[0,4883]},{"type":"Point","properties":{"Station_ID":"JEFV1","Station_Nam":"JEFFERSONVILLE","Latitude":"44.58430","Longitude":"-72.78700","Snowdepth":"4.000","Units":"in","Rept_Date":"2020-03-19 11"},"coordinates":[5739,3137]},{"type":"Point","properties":{"Station_ID":"FARM1","Station_Nam":"FARMINGTON","Latitude":"44.68930","Longitude":"-70.15640","Snowdepth":"4.000","Units":"in","Rept_Date":"2020-03-19 12"},"coordinates":[6356,3237]},{"type":"Point","properties":{"Station_ID":"DTVM4","Station_Nam":"DETOUR VILLAGE","Latitude":"45.99830","Longitude":"-83.90130","Snowdepth":"4.000","Units":"in","Rept_Date":"2020-03-19 12"},"coordinates":[3130,4495]},{"type":"Point","properties":{"Station_ID":"CLGM5","Station_Nam":"COLLEGEVILLE ST JOHN","Latitude":"45.57940","Longitude":"-94.39200","Snowdepth":"4.000","Units":"in","Rept_Date":"2020-03-19 23"},"coordinates":[668,4093]},{"type":"Point","properties":{"Station_ID":"CAN-ON-42","Station_Nam":"VANKLEEK HILL 3.4 S, CA","Latitude":"45.48987","Longitude":"-74.64570","Snowdepth":"4.000","Units":"in","Rept_Date":"2020-03-19 12"},"coordinates":[5302,4007]},{"type":"Point","properties":{"Station_ID":"WI-PR-8","Station_Nam":"PHILLIPS 0.4 SSW, WI","Latitude":"45.69086","Longitude":"-90.40200","Snowdepth":"3.500","Units":"in","Rept_Date":"2020-03-19 13"},"coordinates":[1604,4200]},{"type":"Point","properties":{"Station_ID":"NH-MR-60","Station_Nam":"SOUTH SUTTON 1.3 SE, NH","Latitude":"43.29531","Longitude":"-71.90238","Snowdepth":"3.500","Units":"in","Rept_Date":"2020-03-19 13"},"coordinates":[5946,1898]},{"type":"Point","properties":{"Station_ID":"VT-WH-9","Station_Nam":"WEST HALIFAX 0.2 SE, VT","Latitude":"42.78561","Longitude":"-72.76950","Snowdepth":"3.100","Units":"in","Rept_Date":"2020-03-19 13"},"coordinates":[5743,1408]},{"type":"Point","properties":{"Station_ID":"WI-BT-14","Station_Nam":"OAKLAND 9.0 ENE, WI","Latitude":"45.95184","Longitude":"-92.21653","Snowdepth":"3.000","Units":"in","Rept_Date":"2020-03-19 13"},"coordinates":[1179,4450]},{"type":"Point","properties":{"Station_ID":"SURN3","Station_Nam":"SURRY MOUNTAIN LAKE","Latitude":"42.99630","Longitude":"-72.31310","Snowdepth":"3.000","Units":"in","Rept_Date":"2020-03-19 11"},"coordinates":[5850,1611]},{"type":"Point","properties":{"Station_ID":"RFDM1","Station_Nam":"RUMFORD 7SW","Latitude":"44.49470","Longitude":"-70.65640","Snowdepth":"3.000","Units":"in","Rept_Date":"2020-03-19 11"},"coordinates":[6239,3050]},{"type":"Point","properties":{"Station_ID":"PKFW3","Station_Nam":"PARK FALLS,WI","Latitude":"45.93360","Longitude":"-90.45060","Snowdepth":"3.000","Units":"in","Rept_Date":"2020-03-19 13"},"coordinates":[1593,4433]},{"type":"Point","properties":{"Station_ID":"NH-HL-48","Station_Nam":"GREENVILLE 1.1 ENE, NH","Latitude":"42.77674","Longitude":"-71.77990","Snowdepth":"3.000","Units":"in","Rept_Date":"2020-03-19 14"},"coordinates":[5975,1400]},{"type":"Point","properties":{"Station_ID":"MRLV1","Station_Nam":"MARLBORO","Latitude":"42.86000","Longitude":"-72.72000","Snowdepth":"3.000","Units":"in","Rept_Date":"2020-03-19 11"},"coordinates":[5754,1480]},{"type":"Point","properties":{"Station_ID":"MN-MR-4","Station_Nam":"LITTLE FALLS 1.2 SW, MN","Latitude":"45.96886","Longitude":"-94.37720","Snowdepth":"3.000","Units":"in","Rept_Date":"2020-03-19 13"},"coordinates":[671,4467]},{"type":"Point","properties":{"Station_ID":"LNCM1","Station_Nam":"LINCOLN WATER DISTRICT","Latitude":"45.32410","Longitude":"-68.58300","Snowdepth":"3.000","Units":"in","Rept_Date":"2020-03-19 11"},"coordinates":[6725,3847]},{"type":"Point","properties":{"Station_ID":"CORM1","Station_Nam":"CORINNA","Latitude":"44.91980","Longitude":"-69.24180","Snowdepth":"3.000","Units":"in","Rept_Date":"2020-03-19 15"},"coordinates":[6571,3459]},{"type":"Point","properties":{"Station_ID":"CAN-ON-208","Station_Nam":"PAKENHAM 7.8 NNW, CAN","Latitude":"45.39166","Longitude":"-76.34111","Snowdepth":"3.000","Units":"in","Rept_Date":"2020-03-19 12"},"coordinates":[4904,3912]},{"type":"Point","properties":{"Station_ID":"BETM1","Station_Nam":"BETHEL 6 SSE","Latitude":"44.32000","Longitude":"-70.75680","Snowdepth":"3.000","Units":"in","Rept_Date":"2020-03-19 12"},"coordinates":[6215,2883]},{"type":"Point","properties":{"Station_ID":"APXM4","Station_Nam":"GAYLORD 9SSW","Latitude":"44.90720","Longitude":"-84.71880","Snowdepth":"3.000","Units":"in","Rept_Date":"2020-03-20 06"},"coordinates":[2938,3447]},{"type":"Point","properties":{"Station_ID":"AMDW3","Station_Nam":"ALMOND-5 NE","Latitude":"44.30830","Longitude":"-89.34640","Snowdepth":"3.000","Units":"in","Rept_Date":"2020-03-19 13"},"coordinates":[1852,2871]},{"type":"Point","properties":{"Station_ID":"ALXM5","Station_Nam":"ALEXANDRIA","Latitude":"45.87820","Longitude":"-95.38270","Snowdepth":"3.000","Units":"in","Rept_Date":"2020-03-19 11"},"coordinates":[435,4380]},{"type":"Point","properties":{"Station_ID":"ABNM3","Station_Nam":"ASHBURNHAM NORTH","Latitude":"42.66170","Longitude":"-71.93590","Snowdepth":"3.000","Units":"in","Rept_Date":"2020-03-19 11"},"coordinates":[5938,1289]},{"type":"Point","properties":{"Station_ID":"ABGW3","Station_Nam":"AMBERG 9 E","Latitude":"45.48250","Longitude":"-87.81190","Snowdepth":"3.000","Units":"in","Rept_Date":"2020-03-19 11"},"coordinates":[2212,4000]},{"type":"Point","properties":{"Station_ID":"WENN3","Station_Nam":"P.O. BOX 197 WENTWORTH, NH","Latitude":"43.95190","Longitude":"-71.91560","Snowdepth":"2.000","Units":"in","Rept_Date":"2020-03-19 11"},"coordinates":[5943,2529]},{"type":"Point","properties":{"Station_ID":"VT-WH-25","Station_Nam":"PUTNEY 0.7 NE, VT","Latitude":"42.98326","Longitude":"-72.51215","Snowdepth":"2.000","Units":"in","Rept_Date":"2020-03-19 18"},"coordinates":[5803,1598]},{"type":"Point","properties":{"Station_ID":"VT-WH-17","Station_Nam":"ROCKINGHAM 1.1 NNE, VT","Latitude":"43.20388","Longitude":"-72.48222","Snowdepth":"2.000","Units":"in","Rept_Date":"2020-03-19 12"},"coordinates":[5810,1810]},{"type":"Point","properties":{"Station_ID":"TOHM5","Station_Nam":"TWO HARBORS WWTP","Latitude":"47.01760","Longitude":"-91.66480","Snowdepth":"2.000","Units":"in","Rept_Date":"2020-03-19 12"},"coordinates":[1308,5474]},{"type":"Point","properties":{"Station_ID":"NWSM1","Station_Nam":"NEW SHARON","Latitude":"44.63520","Longitude":"-70.00020","Snowdepth":"2.000","Units":"in","Rept_Date":"2020-03-19 11"},"coordinates":[6393,3185]},{"type":"Point","properties":{"Station_ID":"NH-SL-3","Station_Nam":"WEST UNITY 0.7 WSW, NH","Latitude":"43.28652","Longitude":"-72.32970","Snowdepth":"2.000","Units":"in","Rept_Date":"2020-03-19 12"},"coordinates":[5846,1890]},{"type":"Point","properties":{"Station_ID":"NH-MR-6","Station_Nam":"DANBURY 2.2 ESE, NH","Latitude":"43.52000","Longitude":"-71.81900","Snowdepth":"2.000","Units":"in","Rept_Date":"2020-03-19 13"},"coordinates":[5966,2114]},{"type":"Point","properties":{"Station_ID":"MYOM4","Station_Nam":"MIO WWTP","Latitude":"44.64660","Longitude":"-84.11580","Snowdepth":"2.000","Units":"in","Rept_Date":"2020-03-19 12"},"coordinates":[3080,3196]},{"type":"Point","properties":{"Station_ID":"MN4QO5TH","Station_Nam":"TWO HARBORS 0.7 ESE","Latitude":"47.03297","Longitude":"-91.65673","Snowdepth":"2.000","Units":"in","Rept_Date":"2020-03-19 12"},"coordinates":[1310,5489]},{"type":"Point","properties":{"Station_ID":"MN-SH-10","Station_Nam":"BIG LAKE 5.6 NNE, MN","Latitude":"45.41409","Longitude":"-93.69190","Snowdepth":"2.000","Units":"in","Rept_Date":"2020-03-19 13"},"coordinates":[832,3934]},{"type":"Point","properties":{"Station_ID":"MN-MR-13","Station_Nam":"LITTLE FALLS 8.0 NE, MN","Latitude":"46.06785","Longitude":"-94.24789","Snowdepth":"2.000","Units":"in","Rept_Date":"2020-03-19 13"},"coordinates":[702,4562]},{"type":"Point","properties":{"Station_ID":"MA-WR-58","Station_Nam":"LUNENBURG 0.6 NE, MA","Latitude":"42.60180","Longitude":"-71.71653","Snowdepth":"2.000","Units":"in","Rept_Date":"2020-03-19 13"},"coordinates":[5990,1232]},{"type":"Point","properties":{"Station_ID":"JAPN3","Station_Nam":"JAFFREY SILVER RANCH AIRPARK","Latitude":"42.80880","Longitude":"-72.00530","Snowdepth":"2.000","Units":"in","Rept_Date":"2020-03-19 11"},"coordinates":[5922,1431]},{"type":"Point","properties":{"Station_ID":"ISEM5","Station_Nam":"ISLE 12N","Latitude":"46.31970","Longitude":"-93.50140","Snowdepth":"2.000","Units":"in","Rept_Date":"2020-03-19 13"},"coordinates":[877,4804]},{"type":"Point","properties":{"Station_ID":"HRTM1","Station_Nam":"HARTFORD","Latitude":"44.37440","Longitude":"-70.31620","Snowdepth":"2.000","Units":"in","Rept_Date":"2020-03-19 11"},"coordinates":[6318,2935]},{"type":"Point","properties":{"Station_ID":"GREN3","Station_Nam":"GREENVILLE 1 NNE","Latitude":"42.78270","Longitude":"-71.79850","Snowdepth":"2.000","Units":"in","Rept_Date":"2020-03-19 12"},"coordinates":[5971,1406]},{"type":"Point","properties":{"Station_ID":"GFDN6","Station_Nam":"CHASES LAKE","Latitude":"43.75920","Longitude":"-75.29980","Snowdepth":"2.000","Units":"in","Rept_Date":"2020-03-19 10"},"coordinates":[5149,2344]},{"type":"Point","properties":{"Station_ID":"FSDS2","Station_Nam":"SIOUX FALLS NWS WFO AP","Latitude":"43.58780","Longitude":"-96.73000","Snowdepth":"2.000","Units":"in","Rept_Date":"2020-03-20 05"},"coordinates":[119,2179]},{"type":"Point","properties":{"Station_ID":"BIRM3","Station_Nam":"BIRCH HILL DAM","Latitude":"42.63240","Longitude":"-72.12270","Snowdepth":"2.000","Units":"in","Rept_Date":"2020-03-19 11"},"coordinates":[5894,1261]},{"type":"Point","properties":{"Station_ID":"BFSW3","Station_Nam":"BIG FALLS-5 NW","Latitude":"44.63980","Longitude":"-89.11330","Snowdepth":"2.000","Units":"in","Rept_Date":"2020-03-19 12"},"coordinates":[1907,3190]},{"type":"Point","properties":{"Station_ID":"AUW","Station_Nam":"WAUSAU MUNICIPAL AIRPORT","Latitude":"44.92580","Longitude":"-89.62560","Snowdepth":"2.000","Units":"in","Rept_Date":"2020-03-19 12"},"coordinates":[1787,3465]},{"type":"Point","properties":{"Station_ID":"ASBM3","Station_Nam":"ASHBURNHAM","Latitude":"42.61780","Longitude":"-71.91590","Snowdepth":"2.000","Units":"in","Rept_Date":"2020-03-19 11"},"coordinates":[5943,1247]},{"type":"Point","properties":{"Station_ID":"ANTW3","Station_Nam":"ANTIGO,WI","Latitude":"45.13330","Longitude":"-89.15000","Snowdepth":"2.000","Units":"in","Rept_Date":"2020-03-19 13"},"coordinates":[1898,3664]},{"type":"Point","properties":{"Station_ID":"VT-WH-29","Station_Nam":"BRATTLEBORO 0.7 S, VT","Latitude":"42.84030","Longitude":"-72.55580","Snowdepth":"1.600","Units":"in","Rept_Date":"2020-03-19 12"},"coordinates":[5793,1461]},{"type":"Point","properties":{"Station_ID":"CAN-NB-84","Station_Nam":"NORTON 7.1 WNW - KWRC, CAN","Latitude":"45.66195","Longitude":"-65.78279","Snowdepth":"1.600","Units":"in","Rept_Date":"2020-03-19 11"},"coordinates":[7382,4172]},{"type":"Point","properties":{"Station_ID":"CAN-NB-5","Station_Nam":"OAK POINT 0.9 SSW, CA","Latitude":"45.50752","Longitude":"-66.09860","Snowdepth":"1.600","Units":"in","Rept_Date":"2020-03-19 12"},"coordinates":[7308,4024]},{"type":"Point","properties":{"Station_ID":"WI-LN-2","Station_Nam":"MERRILL 7.0 W, WI","Latitude":"45.17746","Longitude":"-89.84820","Snowdepth":"1.500","Units":"in","Rept_Date":"2020-03-19 12"},"coordinates":[1734,3706]},{"type":"Point","properties":{"Station_ID":"VT-WR-10","Station_Nam":"WEST WINDSOR 1.7 S, VT","Latitude":"43.46164","Longitude":"-72.49197","Snowdepth":"1.500","Units":"in","Rept_Date":"2020-03-19 12"},"coordinates":[5808,2058]},{"type":"Point","properties":{"Station_ID":"VT-LM-7","Station_Nam":"HYDE PARK 2.9 NE, VT","Latitude":"44.62080","Longitude":"-72.57250","Snowdepth":"1.500","Units":"in","Rept_Date":"2020-03-19 13"},"coordinates":[5789,3172]},{"type":"Point","properties":{"Station_ID":"NH-MR-41","Station_Nam":"NEWBURY 1.6 NW, NH","Latitude":"43.33667","Longitude":"-72.06060","Snowdepth":"1.500","Units":"in","Rept_Date":"2020-03-19 11"},"coordinates":[5909,1938]},{"type":"Point","properties":{"Station_ID":"NH-MR-15","Station_Nam":"DUNBARTON 0.3 N, NH","Latitude":"43.10698","Longitude":"-71.61710","Snowdepth":"1.500","Units":"in","Rept_Date":"2020-03-19 15"},"coordinates":[6013,1717]},{"type":"Point","properties":{"Station_ID":"CAN-NB-29","Station_Nam":"SUSSEX 1.0 WNW - KWRC, CAN","Latitude":"45.72670","Longitude":"-65.52858","Snowdepth":"1.300","Units":"in","Rept_Date":"2020-03-19 12"},"coordinates":[7442,4234]},{"type":"Point","properties":{"Station_ID":"NH-HL-49","Station_Nam":"MONT VERNON 1.3 SSW, NH","Latitude":"42.87616","Longitude":"-71.68280","Snowdepth":"1.200","Units":"in","Rept_Date":"2020-03-19 12"},"coordinates":[5998,1495]},{"type":"Point","properties":{"Station_ID":"WUNW3","Station_Nam":"WAUSAU-NORTHEAST","Latitude":"44.97310","Longitude":"-89.61690","Snowdepth":"1.000","Units":"in","Rept_Date":"2020-03-19 11"},"coordinates":[1789,3510]},{"type":"Point","properties":{"Station_ID":"WSFW3","Station_Nam":"TOWN OF WESTFORD","Latitude":"43.47190","Longitude":"-88.88250","Snowdepth":"1.000","Units":"in","Rept_Date":"2020-03-19 12"},"coordinates":[1961,2068]},{"type":"Point","properties":{"Station_ID":"WORV1","Station_Nam":"WORCESTER 2 W","Latitude":"44.37470","Longitude":"-72.58220","Snowdepth":"1.000","Units":"in","Rept_Date":"2020-03-19 11"},"coordinates":[5787,2935]},{"type":"Point","properties":{"Station_ID":"WNDM1","Station_Nam":"WINDHAM 2NW","Latitude":"43.85670","Longitude":"-70.46630","Snowdepth":"1.000","Units":"in","Rept_Date":"2020-03-19 11"},"coordinates":[6283,2437]},{"type":"Point","properties":{"Station_ID":"WI-DR-5","Station_Nam":"ELLISON BAY 2.2 E, WI","Latitude":"45.25750","Longitude":"-87.02670","Snowdepth":"1.000","Units":"in","Rept_Date":"2020-03-19 13"},"coordinates":[2397,3783]},{"type":"Point","properties":{"Station_ID":"WI-DD-16","Station_Nam":"BEAVER DAM 2.4 WNW, WI","Latitude":"43.47210","Longitude":"-88.88280","Snowdepth":"1.000","Units":"in","Rept_Date":"2020-03-19 13"},"coordinates":[1961,2068]},{"type":"Point","properties":{"Station_ID":"WHTM5","Station_Nam":"WHEATON,MN","Latitude":"45.80000","Longitude":"-96.48330","Snowdepth":"1.000","Units":"in","Rept_Date":"2020-03-19 13"},"coordinates":[177,4305]},{"type":"Point","properties":{"Station_ID":"WDSV1","Station_Nam":"WOODSTOCK","Latitude":"43.63030","Longitude":"-72.50720","Snowdepth":"1.000","Units":"in","Rept_Date":"2020-03-19 12"},"coordinates":[5804,2220]},{"type":"Point","properties":{"Station_ID":"VT-WR-17","Station_Nam":"ROCHESTER 2.3 NE, VT","Latitude":"43.89418","Longitude":"-72.76992","Snowdepth":"1.000","Units":"in","Rept_Date":"2020-03-19 12"},"coordinates":[5743,2474]},{"type":"Point","properties":{"Station_ID":"SPOW3","Station_Nam":"SPOONER,WI","Latitude":"45.82360","Longitude":"-91.70000","Snowdepth":"1.000","Units":"in","Rept_Date":"2020-03-19 13"},"coordinates":[1300,4327]},{"type":"Point","properties":{"Station_ID":"RWGM5","Station_Nam":"RED WING","Latitude":"44.57120","Longitude":"-92.52830","Snowdepth":"1.000","Units":"in","Rept_Date":"2020-03-19 13"},"coordinates":[1105,3124]},{"type":"Point","properties":{"Station_ID":"ROBM1","Station_Nam":"ROBBINSTON","Latitude":"45.08520","Longitude":"-67.12050","Snowdepth":"1.000","Units":"in","Rept_Date":"2020-03-20 04"},"coordinates":[7068,3618]},{"type":"Point","properties":{"Station_ID":"RCEM5","Station_Nam":"RICE","Latitude":"45.75760","Longitude":"-94.20720","Snowdepth":"1.000","Units":"in","Rept_Date":"2020-03-19 12"},"coordinates":[711,4264]},{"type":"Point","properties":{"Station_ID":"PSHW3","Station_Nam":"PESHTIGO","Latitude":"45.02810","Longitude":"-87.73560","Snowdepth":"1.000","Units":"in","Rept_Date":"2020-03-19 12"},"coordinates":[2230,3563]},{"type":"Point","properties":{"Station_ID":"OTTN3","Station_Nam":"OTTER BROOK LAKE","Latitude":"42.95000","Longitude":"-72.23330","Snowdepth":"1.000","Units":"in","Rept_Date":"2020-03-19 11"},"coordinates":[5869,1566]},{"type":"Point","properties":{"Station_ID":"ORAN3","Station_Nam":"ORANGE","Latitude":"43.66880","Longitude":"-71.94830","Snowdepth":"1.000","Units":"in","Rept_Date":"2020-03-19 11"},"coordinates":[5935,2257]},{"type":"Point","properties":{"Station_ID":"OAXN1","Station_Nam":"VALLEY 1WNW","Latitude":"41.31970","Longitude":"-96.36720","Snowdepth":"1.000","Units":"in","Rept_Date":"2020-03-20 05"},"coordinates":[204,0]},{"type":"Point","properties":{"Station_ID":"NSFN3","Station_Nam":"NORTH STRATFORD","Latitude":"44.68190","Longitude":"-71.58570","Snowdepth":"1.000","Units":"in","Rept_Date":"2020-03-19 10"},"coordinates":[6021,3230]},{"type":"Point","properties":{"Station_ID":"NOSV1","Station_Nam":"NORTH SPRINGFIELD LAKE","Latitude":"43.33920","Longitude":"-72.50560","Snowdepth":"1.000","Units":"in","Rept_Date":"2020-03-19 11"},"coordinates":[5805,1940]},{"type":"Point","properties":{"Station_ID":"NHNW3","Station_Nam":"NEW HOLSTEIN-EAST-WWTP","Latitude":"43.95310","Longitude":"-88.07720","Snowdepth":"1.000","Units":"in","Rept_Date":"2020-03-19 11"},"coordinates":[2150,2530]},{"type":"Point","properties":{"Station_ID":"MRAM5","Station_Nam":"MORA","Latitude":"45.87760","Longitude":"-93.31470","Snowdepth":"1.000","Units":"in","Rept_Date":"2020-03-19 12"},"coordinates":[921,4379]},{"type":"Point","properties":{"Station_ID":"MN26O9MA","Station_Nam":"MORA 1.2 WNW","Latitude":"45.88239","Longitude":"-93.31788","Snowdepth":"1.000","Units":"in","Rept_Date":"2020-03-19 12"},"coordinates":[920,4384]},{"type":"Point","properties":{"Station_ID":"MN228RRE","Station_Nam":"RICE 0.8 ENE","Latitude":"45.75724","Longitude":"-94.20638","Snowdepth":"1.000","Units":"in","Rept_Date":"2020-03-19 12"},"coordinates":[712,4263]},{"type":"Point","properties":{"Station_ID":"MLLW3","Station_Nam":"MERRILL 8W","Latitude":"45.17810","Longitude":"-89.84810","Snowdepth":"1.000","Units":"in","Rept_Date":"2020-03-19 11"},"coordinates":[1734,3707]},{"type":"Point","properties":{"Station_ID":"ME-CM-54","Station_Nam":"WINDHAM 3.9 NW, ME","Latitude":"43.85787","Longitude":"-70.46200","Snowdepth":"1.000","Units":"in","Rept_Date":"2020-03-19 12"},"coordinates":[6284,2439]},{"type":"Point","properties":{"Station_ID":"MA-WR-44","Station_Nam":"WESTMINSTER 0.6 WSW, MA","Latitude":"42.54505","Longitude":"-71.91032","Snowdepth":"1.000","Units":"in","Rept_Date":"2020-03-19 12"},"coordinates":[5944,1177]},{"type":"Point","properties":{"Station_ID":"KEEN3","Station_Nam":"KEENE","Latitude":"42.93900","Longitude":"-72.32470","Snowdepth":"1.000","Units":"in","Rept_Date":"2020-03-19 10"},"coordinates":[5847,1556]},{"type":"Point","properties":{"Station_ID":"JEFN3","Station_Nam":"JEFFERSON","Latitude":"44.41690","Longitude":"-71.50080","Snowdepth":"1.000","Units":"in","Rept_Date":"2020-03-19 11"},"coordinates":[6040,2976]},{"type":"Point","properties":{"Station_ID":"FORM5","Station_Nam":"FOREST LAKE 5NE","Latitude":"45.33170","Longitude":"-92.89820","Snowdepth":"1.000","Units":"in","Rept_Date":"2020-03-19 12"},"coordinates":[1019,3855]},{"type":"Point","properties":{"Station_ID":"EMLN3","Station_Nam":"EAST MILFORD","Latitude":"42.82660","Longitude":"-71.62600","Snowdepth":"1.000","Units":"in","Rept_Date":"2020-03-19 11"},"coordinates":[6011,1448]},{"type":"Point","properties":{"Station_ID":"EHYM3","Station_Nam":"EAST HAWLEY","Latitude":"42.57410","Longitude":"-72.86790","Snowdepth":"1.000","Units":"in","Rept_Date":"2020-03-19 12"},"coordinates":[5720,1205]},{"type":"Point","properties":{"Station_ID":"CHIW3","Station_Nam":"CHILTON,WI","Latitude":"44.03330","Longitude":"-88.15000","Snowdepth":"1.000","Units":"in","Rept_Date":"2020-03-19 12"},"coordinates":[2133,2607]},{"type":"Point","properties":{"Station_ID":"BKEM5","Station_Nam":"BRECKENRIDGE 4NE","Latitude":"46.30470","Longitude":"-96.52170","Snowdepth":"1.000","Units":"in","Rept_Date":"2020-03-19 12"},"coordinates":[168,4789]},{"type":"Point","properties":{"Station_ID":"BDDN3","Station_Nam":"BRADFORD 2","Latitude":"43.25880","Longitude":"-72.00210","Snowdepth":"1.000","Units":"in","Rept_Date":"2020-03-19 17"},"coordinates":[5923,1863]},{"type":"Point","properties":{"Station_ID":"BARM3","Station_Nam":"BARRE FALLS DAM","Latitude":"42.42800","Longitude":"-72.02750","Snowdepth":"1.000","Units":"in","Rept_Date":"2020-03-19 11"},"coordinates":[5917,1065]}]}},"arcs":[],"transform":{"scale":[0.004260840084008401,0.0010408240824082411],"translate":[-97.2381,41.3197]}}