{"type":"Topology","objects":{"snowdepth_geo":{"type":"GeometryCollection","name":"snowdepth","crs":{"type":"name","properties":{"name":"urn:ogc:def:crs:OGC:1.3:CRS84"}},"geometries":[{"type":"Point","properties":{"Station_ID":"PRKM4","Station_Nam":"MUNISING EAST","Latitude":"46.42580","Longitude":"-86.62000","Snowdepth":"76.500","Units":"in","Rept_Date":"2019-12-15 06"},"coordinates":[2749,5621]},{"type":"Point","properties":{"Station_ID":"MMSV1","Station_Nam":"MOUNT MANSFIELD","Latitude":"44.53330","Longitude":"-72.83330","Snowdepth":"76.000","Units":"in","Rept_Date":"2019-12-15 05"},"coordinates":[6319,4058]},{"type":"Point","properties":{"Station_ID":"OGIQ6","Station_Nam":"OGOKI CAMP","Latitude":"50.76680","Longitude":"-87.85820","Snowdepth":"61.100","Units":"in","Rept_Date":"2019-12-15 06"},"coordinates":[2429,9206]},{"type":"Point","properties":{"Station_ID":"AUDQ6","Station_Nam":"AUDEN","Latitude":"48.52600","Longitude":"-82.57570","Snowdepth":"47.640","Units":"in","Rept_Date":"2019-12-15 06"},"coordinates":[3796,7355]},{"type":"Point","properties":{"Station_ID":"DVLQ6","Station_Nam":"DEVIOUS LAKE","Latitude":"49.19890","Longitude":"-87.76440","Snowdepth":"43.460","Units":"in","Rept_Date":"2019-12-15 06"},"coordinates":[2453,7911]},{"type":"Point","properties":{"Station_ID":"PDLM4","Station_Nam":"PAINESDALE","Latitude":"47.04160","Longitude":"-88.67170","Snowdepth":"36.000","Units":"in","Rept_Date":"2019-12-14 13"},"coordinates":[2218,6129]},{"type":"Point","properties":{"Station_ID":"SWTW3","Station_Nam":"SUPERIOR WWTP","Latitude":"46.72700","Longitude":"-92.07200","Snowdepth":"34.000","Units":"in","Rept_Date":"2019-12-15 06"},"coordinates":[1338,5870]},{"type":"Point","properties":{"Station_ID":"HURW3","Station_Nam":"HURLEY","Latitude":"46.46250","Longitude":"-90.19550","Snowdepth":"33.000","Units":"in","Rept_Date":"2019-12-14 14"},"coordinates":[1824,5651]},{"type":"Point","properties":{"Station_ID":"WLFM5","Station_Nam":"WOLF RIDGE ENVIRON LEARNING CENTER","Latitude":"47.38240","Longitude":"-91.19730","Snowdepth":"30.000","Units":"in","Rept_Date":"2019-12-14 13"},"coordinates":[1564,6411]},{"type":"Point","properties":{"Station_ID":"WI-IR-3","Station_Nam":"PENCE 0.1 E, WI","Latitude":"46.41555","Longitude":"-90.27013","Snowdepth":"29.500","Units":"in","Rept_Date":"2019-12-14 13"},"coordinates":[1804,5612]},{"type":"Point","properties":{"Station_ID":"MQT","Station_Nam":"MARQUETTE, MI","Latitude":"46.53140","Longitude":"-87.54920","Snowdepth":"29.000","Units":"in","Rept_Date":"2019-12-15 06"},"coordinates":[2509,5708]},{"type":"Point","properties":{"Station_ID":"MI-HG-18","Station_Nam":"CALUMET 0.7 W (TAMARACK), MI","Latitude":"47.24560","Longitude":"-88.46791","Snowdepth":"29.000","Units":"in","Rept_Date":"2019-12-14 13"},"coordinates":[2271,6298]},{"type":"Point","properties":{"Station_ID":"LVDW3","Station_Nam":"LAC VIEUX DESERT","Latitude":"46.12110","Longitude":"-89.07580","Snowdepth":"29.000","Units":"in","Rept_Date":"2019-12-14 14"},"coordinates":[2113,5369]},{"type":"Point","properties":{"Station_ID":"KSGM4","Station_Nam":"KEARSARGE","Latitude":"47.27520","Longitude":"-88.41700","Snowdepth":"29.000","Units":"in","Rept_Date":"2019-12-14 13"},"coordinates":[2284,6322]},{"type":"Point","properties":{"Station_ID":"WRPW3","Station_Nam":"WATER PURIFICATION PLANT","Latitude":"44.38800","Longitude":"-89.80550","Snowdepth":"28.000","Units":"in","Rept_Date":"2019-12-14 12"},"coordinates":[1924,3938]},{"type":"Point","properties":{"Station_ID":"ASXW3","Station_Nam":"ASHLAND,WI","Latitude":"46.55220","Longitude":"-90.91610","Snowdepth":"28.000","Units":"in","Rept_Date":"2019-12-14 14"},"coordinates":[1637,5725]},{"type":"Point","properties":{"Station_ID":"MI-BG-3","Station_Nam":"L'ANSE 17.8 SE, MI","Latitude":"46.55730","Longitude":"-88.20770","Snowdepth":"27.300","Units":"in","Rept_Date":"2019-12-14 13"},"coordinates":[2338,5729]},{"type":"Point","properties":{"Station_ID":"WRSM5","Station_Nam":"WRENSHALL","Latitude":"46.61550","Longitude":"-92.38380","Snowdepth":"27.000","Units":"in","Rept_Date":"2019-12-14 14"},"coordinates":[1257,5778]},{"type":"Point","properties":{"Station_ID":"WI-FL-3","Station_Nam":"FLORENCE 0.7 ESE, WI","Latitude":"45.91760","Longitude":"-88.23900","Snowdepth":"26.000","Units":"in","Rept_Date":"2019-12-14 12"},"coordinates":[2330,5201]},{"type":"Point","properties":{"Station_ID":"KISM4","Station_Nam":"K.I. SAWYER WWTP","Latitude":"46.33410","Longitude":"-87.37790","Snowdepth":"26.000","Units":"in","Rept_Date":"2019-12-14 13"},"coordinates":[2553,5545]},{"type":"Point","properties":{"Station_ID":"IBLM5","Station_Nam":"ISABELLA 14W","Latitude":"47.59360","Longitude":"-91.65140","Snowdepth":"26.000","Units":"in","Rept_Date":"2019-12-14 15"},"coordinates":[1447,6585]},{"type":"Point","properties":{"Station_ID":"WI-DG-20","Station_Nam":"SOLON SPRINGS 1.2 W, WI","Latitude":"46.35217","Longitude":"-91.84405","Snowdepth":"25.000","Units":"in","Rept_Date":"2019-12-14 13"},"coordinates":[1397,5560]},{"type":"Point","properties":{"Station_ID":"QNCM4","Station_Nam":"QUINCY HILL","Latitude":"47.13640","Longitude":"-88.57950","Snowdepth":"25.000","Units":"in","Rept_Date":"2019-12-14 12"},"coordinates":[2242,6208]},{"type":"Point","properties":{"Station_ID":"PHEW3","Station_Nam":"PHELPS","Latitude":"46.06630","Longitude":"-89.07520","Snowdepth":"25.000","Units":"in","Rept_Date":"2019-12-14 13"},"coordinates":[2114,5324]},{"type":"Point","properties":{"Station_ID":"PDGM4","Station_Nam":"PAULDING","Latitude":"46.39760","Longitude":"-89.17940","Snowdepth":"25.000","Units":"in","Rept_Date":"2019-12-14 13"},"coordinates":[2087,5598]},{"type":"Point","properties":{"Station_ID":"GNLM4","Station_Nam":"GREENLAND 6N","Latitude":"46.87360","Longitude":"-89.10060","Snowdepth":"25.000","Units":"in","Rept_Date":"2019-12-14 13"},"coordinates":[2107,5991]},{"type":"Point","properties":{"Station_ID":"WI-WB-2","Station_Nam":"STONE LAKE 2.0 NW, WI","Latitude":"45.85960","Longitude":"-91.57710","Snowdepth":"24.000","Units":"in","Rept_Date":"2019-12-14 13"},"coordinates":[1466,5153]},{"type":"Point","properties":{"Station_ID":"MAIW3","Station_Nam":"MADELINE ISLAND","Latitude":"46.78330","Longitude":"-90.76670","Snowdepth":"24.000","Units":"in","Rept_Date":"2019-12-14 14"},"coordinates":[1676,5916]},{"type":"Point","properties":{"Station_ID":"LTMW3","Station_Nam":"LAKE TOMAHAWK 2 SE","Latitude":"45.80750","Longitude":"-89.55830","Snowdepth":"24.000","Units":"in","Rept_Date":"2019-12-14 14"},"coordinates":[1988,5110]},{"type":"Point","properties":{"Station_ID":"WI-BY-14","Station_Nam":"ASHLAND 9.8 W, WI","Latitude":"46.59742","Longitude":"-91.07856","Snowdepth":"23.500","Units":"in","Rept_Date":"2019-12-14 12"},"coordinates":[1595,5763]},{"type":"Point","properties":{"Station_ID":"WI-VL-9","Station_Nam":"LAND O' LAKES 11.7 W, WI","Latitude":"46.19023","Longitude":"-89.45790","Snowdepth":"23.000","Units":"in","Rept_Date":"2019-12-14 13"},"coordinates":[2014,5426]},{"type":"Point","properties":{"Station_ID":"WI-VL-10","Station_Nam":"LAND O LAKES 4.3 WNW, WI","Latitude":"46.17440","Longitude":"-89.30380","Snowdepth":"23.000","Units":"in","Rept_Date":"2019-12-14 13"},"coordinates":[2054,5413]},{"type":"Point","properties":{"Station_ID":"WI-BY-2","Station_Nam":"MELLEN 18.6 SW, WI","Latitude":"46.16937","Longitude":"-90.98090","Snowdepth":"23.000","Units":"in","Rept_Date":"2019-12-14 13"},"coordinates":[1620,5409]},{"type":"Point","properties":{"Station_ID":"WI-BY-1","Station_Nam":"BAYFIELD 8.8 N, WI","Latitude":"46.93855","Longitude":"-90.83490","Snowdepth":"23.000","Units":"in","Rept_Date":"2019-12-14 13"},"coordinates":[1658,6044]},{"type":"Point","properties":{"Station_ID":"MN4DC1DW","Station_Nam":"FOUR CORNERS 3.6 E","Latitude":"46.84373","Longitude":"-92.20633","Snowdepth":"23.000","Units":"in","Rept_Date":"2019-12-14 12"},"coordinates":[1303,5966]},{"type":"Point","properties":{"Station_ID":"LNOW3","Station_Nam":"LAND O LAKES","Latitude":"46.19000","Longitude":"-89.45700","Snowdepth":"23.000","Units":"in","Rept_Date":"2019-12-14 13"},"coordinates":[2015,5426]},{"type":"Point","properties":{"Station_ID":"DLHM5","Station_Nam":"DULUTH NWS","Latitude":"46.83680","Longitude":"-92.21080","Snowdepth":"23.000","Units":"in","Rept_Date":"2019-12-15 06"},"coordinates":[1302,5960]},{"type":"Point","properties":{"Station_ID":"DLH","Station_Nam":"DULUTH, MN","Latitude":"46.83690","Longitude":"-92.21030","Snowdepth":"23.000","Units":"in","Rept_Date":"2019-12-15 00"},"coordinates":[1302,5960]},{"type":"Point","properties":{"Station_ID":"CMKW3","Station_Nam":"CLAM LAKE 4W","Latitude":"46.16940","Longitude":"-90.98080","Snowdepth":"23.000","Units":"in","Rept_Date":"2019-12-14 13"},"coordinates":[1620,5409]},{"type":"Point","properties":{"Station_ID":"AURW3","Station_Nam":"AURORA","Latitude":"45.77000","Longitude":"-88.11810","Snowdepth":"23.000","Units":"in","Rept_Date":"2019-12-14 14"},"coordinates":[2361,5079]},{"type":"Point","properties":{"Station_ID":"QOU","Station_Nam":"QOU","Latitude":"50.79250","Longitude":"-69.67470","Snowdepth":"22.520","Units":"in","Rept_Date":"2019-12-14 12"},"coordinates":[7136,9227]},{"type":"Point","properties":{"Station_ID":"WTRM4","Station_Nam":"WATERSMEET 12WSW","Latitude":"46.22310","Longitude":"-89.40850","Snowdepth":"22.000","Units":"in","Rept_Date":"2019-12-14 12"},"coordinates":[2027,5453]},{"type":"Point","properties":{"Station_ID":"MI-MQ-19","Station_Nam":"ISHPEMING 7.2 SW, MI","Latitude":"46.40550","Longitude":"-87.75670","Snowdepth":"22.000","Units":"in","Rept_Date":"2019-12-14 11"},"coordinates":[2455,5604]},{"type":"Point","properties":{"Station_ID":"MI-HG-11","Station_Nam":"HOUGHTON 3.0 SSW, MI","Latitude":"47.07704","Longitude":"-88.59680","Snowdepth":"22.000","Units":"in","Rept_Date":"2019-12-14 13"},"coordinates":[2237,6159]},{"type":"Point","properties":{"Station_ID":"ILIM5","Station_Nam":"ISLAND LAKE","Latitude":"47.02400","Longitude":"-92.07000","Snowdepth":"22.000","Units":"in","Rept_Date":"2019-12-14 15"},"coordinates":[1338,6115]},{"type":"Point","properties":{"Station_ID":"HTLN3","Station_Nam":"HERMIT LAKE SNOWPLOT","Latitude":"44.26130","Longitude":"-71.28330","Snowdepth":"22.000","Units":"in","Rept_Date":"2019-12-14 10"},"coordinates":[6720,3833]},{"type":"Point","properties":{"Station_ID":"WI-BY-6","Station_Nam":"BARNES 2.2 S, WI","Latitude":"46.30264","Longitude":"-91.50320","Snowdepth":"21.500","Units":"in","Rept_Date":"2019-12-14 13"},"coordinates":[1485,5519]},{"type":"Point","properties":{"Station_ID":"VT-WH-9","Station_Nam":"WEST HALIFAX 0.2 SE, VT","Latitude":"42.78561","Longitude":"-72.76950","Snowdepth":"21.000","Units":"in","Rept_Date":"2019-12-14 13"},"coordinates":[6335,2614]},{"type":"Point","properties":{"Station_ID":"SUAW3","Station_Nam":"SUAMICO","Latitude":"44.60190","Longitude":"-88.09780","Snowdepth":"21.000","Units":"in","Rept_Date":"2019-12-14 12"},"coordinates":[2367,4115]},{"type":"Point","properties":{"Station_ID":"RLKW3","Station_Nam":"REST LAKE","Latitude":"46.12220","Longitude":"-89.87720","Snowdepth":"21.000","Units":"in","Rept_Date":"2019-12-14 14"},"coordinates":[1906,5370]},{"type":"Point","properties":{"Station_ID":"MNSM4","Station_Nam":"MUNISING","Latitude":"46.41210","Longitude":"-86.66250","Snowdepth":"21.000","Units":"in","Rept_Date":"2019-12-14 11"},"coordinates":[2738,5610]},{"type":"Point","properties":{"Station_ID":"MI-HG-17","Station_Nam":"CALUMET 0.5 NE (CALUMET LAKE), MI","Latitude":"47.25300","Longitude":"-88.44652","Snowdepth":"21.000","Units":"in","Rept_Date":"2019-12-14 13"},"coordinates":[2276,6304]},{"type":"Point","properties":{"Station_ID":"IRMM4","Station_Nam":"WWTP","Latitude":"46.46670","Longitude":"-90.18330","Snowdepth":"21.000","Units":"in","Rept_Date":"2019-12-14 13"},"coordinates":[1827,5655]},{"type":"Point","properties":{"Station_ID":"GLDM4","Station_Nam":"GLADSTONE NO. 2","Latitude":"45.84330","Longitude":"-87.03910","Snowdepth":"21.000","Units":"in","Rept_Date":"2019-12-14 12"},"coordinates":[2641,5140]},{"type":"Point","properties":{"Station_ID":"GGRM4","Station_Nam":"GREEN GARDEN NO.2","Latitude":"46.45330","Longitude":"-87.30380","Snowdepth":"21.000","Units":"in","Rept_Date":"2019-12-14 13"},"coordinates":[2572,5644]},{"type":"Point","properties":{"Station_ID":"EVRW3","Station_Nam":"EAGLE RIVER-4 E","Latitude":"45.91890","Longitude":"-89.15280","Snowdepth":"21.000","Units":"in","Rept_Date":"2019-12-14 13"},"coordinates":[2093,5202]},{"type":"Point","properties":{"Station_ID":"BRUM5","Station_Nam":"BRUNO,MN","Latitude":"46.28330","Longitude":"-92.50000","Snowdepth":"21.000","Units":"in","Rept_Date":"2019-12-14 14"},"coordinates":[1227,5503]},{"type":"Point","properties":{"Station_ID":"WI-VL-14","Station_Nam":"BOULDER JUNCTION 1.4 NE, WI","Latitude":"46.12840","Longitude":"-89.62470","Snowdepth":"20.500","Units":"in","Rept_Date":"2019-12-14 13"},"coordinates":[1971,5375]},{"type":"Point","properties":{"Station_ID":"MN-SL-105","Station_Nam":"DULUTH 11.8 NNE, MN","Latitude":"46.94680","Longitude":"-92.03925","Snowdepth":"20.000","Units":"in","Rept_Date":"2019-12-14 13"},"coordinates":[1346,6051]},{"type":"Point","properties":{"Station_ID":"MI-HG-1","Station_Nam":"HOUGHTON 1.6 ESE, MI","Latitude":"47.10774","Longitude":"-88.52940","Snowdepth":"20.000","Units":"in","Rept_Date":"2019-12-14 13"},"coordinates":[2255,6184]},{"type":"Point","properties":{"Station_ID":"HERM4","Station_Nam":"HERMAN,MI","Latitude":"46.65000","Longitude":"-88.33330","Snowdepth":"20.000","Units":"in","Rept_Date":"2019-12-14 13"},"coordinates":[2306,5806]},{"type":"Point","properties":{"Station_ID":"EGRW3","Station_Nam":"EAGLE RIVER-SOUTH","Latitude":"45.91360","Longitude":"-89.24360","Snowdepth":"20.000","Units":"in","Rept_Date":"2019-12-14 13"},"coordinates":[2070,5198]},{"type":"Point","properties":{"Station_ID":"CRVW3","Station_Nam":"CRIVITZ HIGH FALLS","Latitude":"45.35750","Longitude":"-88.19190","Snowdepth":"20.000","Units":"in","Rept_Date":"2019-12-14 13"},"coordinates":[2342,4739]},{"type":"Point","properties":{"Station_ID":"COUW3","Station_Nam":"COUDERAY,WI","Latitude":"45.86670","Longitude":"-91.45000","Snowdepth":"20.000","Units":"in","Rept_Date":"2019-12-14 22"},"coordinates":[1499,5159]},{"type":"Point","properties":{"Station_ID":"BBEM4","Station_Nam":"BIG BAY 9SW","Latitude":"46.74620","Longitude":"-87.88160","Snowdepth":"20.000","Units":"in","Rept_Date":"2019-12-14 13"},"coordinates":[2423,5885]},{"type":"Point","properties":{"Station_ID":"QGD","Station_Nam":"QGD","Latitude":"51.11140","Longitude":"-67.13940","Snowdepth":"19.764","Units":"in","Rept_Date":"2019-12-14 12"},"coordinates":[7793,9491]},{"type":"Point","properties":{"Station_ID":"PRDM4","Station_Nam":"PARADISE","Latitude":"46.60380","Longitude":"-85.03960","Snowdepth":"19.000","Units":"in","Rept_Date":"2019-12-14 11"},"coordinates":[3158,5768]},{"type":"Point","properties":{"Station_ID":"MN6ZK0BT","Station_Nam":"BABBITT 0.4 ESE","Latitude":"47.70874","Longitude":"-91.93886","Snowdepth":"19.000","Units":"in","Rept_Date":"2019-12-14 13"},"coordinates":[1372,6680]},{"type":"Point","properties":{"Station_ID":"MI-MQ-2","Station_Nam":"MARQUETTE 6.5 SSE, MI","Latitude":"46.46461","Longitude":"-87.34064","Snowdepth":"19.000","Units":"in","Rept_Date":"2019-12-14 14"},"coordinates":[2563,5653]},{"type":"Point","properties":{"Station_ID":"MI-HG-12","Station_Nam":"DOLLAR BAY 0.2 ENE, MI","Latitude":"47.12067","Longitude":"-88.49895","Snowdepth":"19.000","Units":"in","Rept_Date":"2019-12-14 13"},"coordinates":[2263,6195]},{"type":"Point","properties":{"Station_ID":"CNNW3","Station_Nam":"CRANDON","Latitude":"45.55110","Longitude":"-88.89830","Snowdepth":"19.000","Units":"in","Rept_Date":"2019-12-14 12"},"coordinates":[2159,4898]},{"type":"Point","properties":{"Station_ID":"BABM5","Station_Nam":"BABBITT","Latitude":"47.71210","Longitude":"-91.95330","Snowdepth":"19.000","Units":"in","Rept_Date":"2019-12-14 13"},"coordinates":[1368,6683]},{"type":"Point","properties":{"Station_ID":"ABGW3","Station_Nam":"AMBERG 9 E","Latitude":"45.48250","Longitude":"-87.81190","Snowdepth":"19.000","Units":"in","Rept_Date":"2019-12-14 12"},"coordinates":[2441,4842]},{"type":"Point","properties":{"Station_ID":"QGO","Station_Nam":"QGO","Latitude":"48.85500","Longitude":"-74.20640","Snowdepth":"18.740","Units":"in","Rept_Date":"2019-12-14 12"},"coordinates":[5963,7627]},{"type":"Point","properties":{"Station_ID":"WI-WB-16","Station_Nam":"SARONA 4.5 NNE, WI","Latitude":"45.77030","Longitude":"-91.76890","Snowdepth":"18.500","Units":"in","Rept_Date":"2019-12-14 13"},"coordinates":[1416,5079]},{"type":"Point","properties":{"Station_ID":"MN-SL-15","Station_Nam":"CHISHOLM 0.4 WSW, MN","Latitude":"47.48557","Longitude":"-92.88690","Snowdepth":"18.500","Units":"in","Rept_Date":"2019-12-14 13"},"coordinates":[1127,6496]},{"type":"Point","properties":{"Station_ID":"QCU","Station_Nam":"QCU","Latitude":"47.82750","Longitude":"-76.59830","Snowdepth":"18.425","Units":"in","Rept_Date":"2019-12-14 12"},"coordinates":[5344,6779]},{"type":"Point","properties":{"Station_ID":"WI-SR-1","Station_Nam":"HAYWARD 9.2 NNE, WI","Latitude":"46.13255","Longitude":"-91.40500","Snowdepth":"18.400","Units":"in","Rept_Date":"2019-12-14 12"},"coordinates":[1510,5379]},{"type":"Point","properties":{"Station_ID":"WI-SR-5","Station_Nam":"HAYWARD 9.7 NE, WI","Latitude":"46.12030","Longitude":"-91.35370","Snowdepth":"18.000","Units":"in","Rept_Date":"2019-12-14 14"},"coordinates":[1524,5369]},{"type":"Point","properties":{"Station_ID":"WI-PR-2","Station_Nam":"BUTTERNUT 5.9 SW, WI","Latitude":"45.96501","Longitude":"-90.59750","Snowdepth":"18.000","Units":"in","Rept_Date":"2019-12-14 12"},"coordinates":[1719,5240]},{"type":"Point","properties":{"Station_ID":"WI-ON-8","Station_Nam":"HAZELHURST 2.1 SSE, WI","Latitude":"45.78186","Longitude":"-89.70330","Snowdepth":"18.000","Units":"in","Rept_Date":"2019-12-14 13"},"coordinates":[1951,5089]},{"type":"Point","properties":{"Station_ID":"WI-BT-14","Station_Nam":"OAKLAND 9.0 ENE, WI","Latitude":"45.95184","Longitude":"-92.21653","Snowdepth":"18.000","Units":"in","Rept_Date":"2019-12-14 13"},"coordinates":[1300,5229]},{"type":"Point","properties":{"Station_ID":"TOHM5","Station_Nam":"TWO HARBORS WWTP","Latitude":"47.01760","Longitude":"-91.66480","Snowdepth":"18.000","Units":"in","Rept_Date":"2019-12-14 13"},"coordinates":[1443,6110]},{"type":"Point","properties":{"Station_ID":"STMM4","Station_Nam":"STAMBAUGH 2SSE","Latitude":"46.05550","Longitude":"-88.62780","Snowdepth":"18.000","Units":"in","Rept_Date":"2019-12-14 13"},"coordinates":[2229,5315]},{"type":"Point","properties":{"Station_ID":"RRVM4","Station_Nam":"RAPID RIVER 9S","Latitude":"45.78750","Longitude":"-86.93920","Snowdepth":"18.000","Units":"in","Rept_Date":"2019-12-14 15"},"coordinates":[2667,5094]},{"type":"Point","properties":{"Station_ID":"RHIW3","Station_Nam":"RHINELANDER","Latitude":"45.59860","Longitude":"-89.45080","Snowdepth":"18.000","Units":"in","Rept_Date":"2019-12-14 13"},"coordinates":[2016,4938]},{"type":"Point","properties":{"Station_ID":"MRQM4","Station_Nam":"MARQUETTE WFP","Latitude":"46.54580","Longitude":"-87.37950","Snowdepth":"18.000","Units":"in","Rept_Date":"2019-12-14 13"},"coordinates":[2553,5720]},{"type":"Point","properties":{"Station_ID":"MN8JKXE2","Station_Nam":"PRAIRIE PORTAGE 5.2 SSW","Latitude":"47.97663","Longitude":"-91.46744","Snowdepth":"18.000","Units":"in","Rept_Date":"2019-12-14 12"},"coordinates":[1494,6902]},{"type":"Point","properties":{"Station_ID":"MN4QO5TH","Station_Nam":"TWO HARBORS 0.7 ESE","Latitude":"47.03297","Longitude":"-91.65673","Snowdepth":"18.000","Units":"in","Rept_Date":"2019-12-14 13"},"coordinates":[1445,6122]},{"type":"Point","properties":{"Station_ID":"MI-HG-14","Station_Nam":"HOUGHTON 0.6 SE, MI","Latitude":"47.10847","Longitude":"-88.55235","Snowdepth":"18.000","Units":"in","Rept_Date":"2019-12-14 13"},"coordinates":[2249,6185]},{"type":"Point","properties":{"Station_ID":"IMNM4","Station_Nam":"IRON MOUTAIN 5N","Latitude":"45.87580","Longitude":"-88.04030","Snowdepth":"18.000","Units":"in","Rept_Date":"2019-12-15 01"},"coordinates":[2382,5167]},{"type":"Point","properties":{"Station_ID":"CLKM4","Station_Nam":"CLARKSBURG","Latitude":"46.49910","Longitude":"-87.84500","Snowdepth":"18.000","Units":"in","Rept_Date":"2019-12-14 12"},"coordinates":[2432,5681]},{"type":"Point","properties":{"Station_ID":"CLGM5","Station_Nam":"COLLEGEVILLE ST JOHN","Latitude":"45.57940","Longitude":"-94.39200","Snowdepth":"18.000","Units":"in","Rept_Date":"2019-12-15 00"},"coordinates":[737,4922]},{"type":"Point","properties":{"Station_ID":"BRMM5","Station_Nam":"BRIMSON 2S","Latitude":"47.24720","Longitude":"-91.86240","Snowdepth":"18.000","Units":"in","Rept_Date":"2019-12-15 01"},"coordinates":[1392,6299]},{"type":"Point","properties":{"Station_ID":"BNDM5","Station_Nam":"ELY 25E","Latitude":"47.97190","Longitude":"-91.44860","Snowdepth":"18.000","Units":"in","Rept_Date":"2019-12-14 13"},"coordinates":[1499,6898]},{"type":"Point","properties":{"Station_ID":"MN-AT-5","Station_Nam":"TAMARACK 1.4 SW, MN","Latitude":"46.63760","Longitude":"-93.14554","Snowdepth":"17.500","Units":"in","Rept_Date":"2019-12-14 11"},"coordinates":[1060,5796]},{"type":"Point","properties":{"Station_ID":"MLZ","Station_Nam":"MLZ","Latitude":"50.66170","Longitude":"-68.82360","Snowdepth":"17.047","Units":"in","Rept_Date":"2019-12-14 12"},"coordinates":[7357,9119]},{"type":"Point","properties":{"Station_ID":"ZNOM4","Station_Nam":"NORWAY","Latitude":"45.77810","Longitude":"-87.89560","Snowdepth":"17.000","Units":"in","Rept_Date":"2019-12-15 01"},"coordinates":[2419,5086]},{"type":"Point","properties":{"Station_ID":"WILW3","Station_Nam":"RESERVOIR","Latitude":"45.70000","Longitude":"-89.83330","Snowdepth":"17.000","Units":"in","Rept_Date":"2019-12-14 12"},"coordinates":[1917,5021]},{"type":"Point","properties":{"Station_ID":"WI-PR-6","Station_Nam":"PHILLIPS 1.3 S, WI","Latitude":"45.67677","Longitude":"-90.39543","Snowdepth":"17.000","Units":"in","Rept_Date":"2019-12-14 12"},"coordinates":[1772,5002]},{"type":"Point","properties":{"Station_ID":"AVTW3","Station_Nam":"ARBOR VITAE-JOHNSON LAKE","Latitude":"45.89940","Longitude":"-89.72670","Snowdepth":"17.000","Units":"in","Rept_Date":"2019-12-14 13"},"coordinates":[1945,5186]},{"type":"Point","properties":{"Station_ID":"QLB","Station_Nam":"QLB","Latitude":"50.72360","Longitude":"-75.10000","Snowdepth":"16.968","Units":"in","Rept_Date":"2019-12-14 12"},"coordinates":[5732,9170]},{"type":"Point","properties":{"Station_ID":"WI-RS-1","Station_Nam":"LADYSMITH 2.8 WNW, WI","Latitude":"45.48180","Longitude":"-91.14680","Snowdepth":"16.000","Units":"in","Rept_Date":"2019-12-14 13"},"coordinates":[1577,4841]},{"type":"Point","properties":{"Station_ID":"WI-PR-8","Station_Nam":"PHILLIPS 0.4 SSW, WI","Latitude":"45.69086","Longitude":"-90.40200","Snowdepth":"16.000","Units":"in","Rept_Date":"2019-12-14 14"},"coordinates":[1770,5014]},{"type":"Point","properties":{"Station_ID":"RHLW3","Station_Nam":"RHINELANDER 4NE","Latitude":"45.65270","Longitude":"-89.30740","Snowdepth":"16.000","Units":"in","Rept_Date":"2019-12-14 12"},"coordinates":[2053,4982]},{"type":"Point","properties":{"Station_ID":"MN4R4TSR","Station_Nam":"KNIFE RIVER 0.8 NNW","Latitude":"46.96007","Longitude":"-91.78365","Snowdepth":"16.000","Units":"in","Rept_Date":"2019-12-14 12"},"coordinates":[1412,6062]},{"type":"Point","properties":{"Station_ID":"MN2EOYHJ","Station_Nam":"OGILVIE 5.6 N","Latitude":"45.91288","Longitude":"-93.42259","Snowdepth":"16.000","Units":"in","Rept_Date":"2019-12-14 14"},"coordinates":[988,5197]},{"type":"Point","properties":{"Station_ID":"MN-SL-139","Station_Nam":"DULUTH 1.2 SE, MN","Latitude":"46.77000","Longitude":"-92.08826","Snowdepth":"16.000","Units":"in","Rept_Date":"2019-12-14 12"},"coordinates":[1333,5905]},{"type":"Point","properties":{"Station_ID":"MN-IT-23","Station_Nam":"BOVEY 13.4 N, MN","Latitude":"47.48855","Longitude":"-93.43497","Snowdepth":"16.000","Units":"in","Rept_Date":"2019-12-14 13"},"coordinates":[985,6499]},{"type":"Point","properties":{"Station_ID":"MN-CK-3","Station_Nam":"TOFTE 4.9 NE, MN","Latitude":"47.62394","Longitude":"-90.76100","Snowdepth":"16.000","Units":"in","Rept_Date":"2019-12-14 13"},"coordinates":[1677,6610]},{"type":"Point","properties":{"Station_ID":"JCBM4","Station_Nam":"JACOBSVILLE","Latitude":"47.00830","Longitude":"-88.43180","Snowdepth":"16.000","Units":"in","Rept_Date":"2019-12-14 12"},"coordinates":[2280,6102]},{"type":"Point","properties":{"Station_ID":"EMBM5","Station_Nam":"EMBARASS,MN","Latitude":"47.65810","Longitude":"-92.19580","Snowdepth":"16.000","Units":"in","Rept_Date":"2019-12-14 13"},"coordinates":[1306,6639]},{"type":"Point","properties":{"Station_ID":"ELYM5","Station_Nam":"ELY","Latitude":"47.90560","Longitude":"-91.82830","Snowdepth":"16.000","Units":"in","Rept_Date":"2019-12-14 14"},"coordinates":[1401,6843]},{"type":"Point","properties":{"Station_ID":"BAGM4","Station_Nam":"BARAGA 7NW","Latitude":"46.82100","Longitude":"-88.60590","Snowdepth":"16.000","Units":"in","Rept_Date":"2019-12-14 13"},"coordinates":[2235,5947]},{"type":"Point","properties":{"Station_ID":"AGNW3","Station_Nam":"ARGONNE-1.5 NW","Latitude":"45.67360","Longitude":"-88.90380","Snowdepth":"16.000","Units":"in","Rept_Date":"2019-12-14 13"},"coordinates":[2158,5000]},{"type":"Point","properties":{"Station_ID":"WTNM4","Station_Nam":"WATTON 2WSW","Latitude":"46.52660","Longitude":"-88.64240","Snowdepth":"15.000","Units":"in","Rept_Date":"2019-12-14 13"},"coordinates":[2226,5704]},{"type":"Point","properties":{"Station_ID":"WI-ON-6","Station_Nam":"RHINELANDER 5.2 N, WI","Latitude":"45.71388","Longitude":"-89.42150","Snowdepth":"15.000","Units":"in","Rept_Date":"2019-12-14 14"},"coordinates":[2024,5033]},{"type":"Point","properties":{"Station_ID":"TOGM5","Station_Nam":"CELINA 2E","Latitude":"47.86630","Longitude":"-93.02660","Snowdepth":"15.000","Units":"in","Rept_Date":"2019-12-14 14"},"coordinates":[1091,6811]},{"type":"Point","properties":{"Station_ID":"TAKW3","Station_Nam":"RICE RESERVOIR NO. 2","Latitude":"45.53770","Longitude":"-89.73220","Snowdepth":"15.000","Units":"in","Rept_Date":"2019-12-14 13"},"coordinates":[1943,4887]},{"type":"Point","properties":{"Station_ID":"RHI","Station_Nam":"RHINELANDER-ONEIDA COUNTY AIRPORT","Latitude":"45.63080","Longitude":"-89.46530","Snowdepth":"15.000","Units":"in","Rept_Date":"2019-12-15 00"},"coordinates":[2013,4964]},{"type":"Point","properties":{"Station_ID":"RBLW3","Station_Nam":"RIB LAKE","Latitude":"45.31530","Longitude":"-90.20640","Snowdepth":"15.000","Units":"in","Rept_Date":"2019-12-14 13"},"coordinates":[1821,4704]},{"type":"Point","properties":{"Station_ID":"NYMM5","Station_Nam":"NEW YORK MILLS","Latitude":"46.50920","Longitude":"-95.37990","Snowdepth":"15.000","Units":"in","Rept_Date":"2019-12-14 13"},"coordinates":[481,5690]},{"type":"Point","properties":{"Station_ID":"MQRW3","Station_Nam":"MINOCQUA","Latitude":"45.88630","Longitude":"-89.73220","Snowdepth":"15.000","Units":"in","Rept_Date":"2019-12-14 12"},"coordinates":[1943,5175]},{"type":"Point","properties":{"Station_ID":"MNMZK7NS","Station_Nam":"NEW YORK MILLS 0.2 NNE","Latitude":"46.52057","Longitude":"-95.37394","Snowdepth":"15.000","Units":"in","Rept_Date":"2019-12-14 13"},"coordinates":[483,5699]},{"type":"Point","properties":{"Station_ID":"MLLW3","Station_Nam":"MERRILL 8W","Latitude":"45.17810","Longitude":"-89.84810","Snowdepth":"15.000","Units":"in","Rept_Date":"2019-12-14 12"},"coordinates":[1913,4590]},{"type":"Point","properties":{"Station_ID":"MI-HG-16","Station_Nam":"SOUTH RANGE 12.6 WSW, MI","Latitude":"47.02452","Longitude":"-88.90350","Snowdepth":"15.000","Units":"in","Rept_Date":"2019-12-14 13"},"coordinates":[2158,6115]},{"type":"Point","properties":{"Station_ID":"ESAM4","Station_Nam":"ESCANABA","Latitude":"45.74380","Longitude":"-87.04060","Snowdepth":"15.000","Units":"in","Rept_Date":"2019-12-14 12"},"coordinates":[2640,5058]},{"type":"Point","properties":{"Station_ID":"CAN-ON-526","Station_Nam":"HILTON BEACH 0.7 SW - MNRF, CAN","Latitude":"46.25357","Longitude":"-83.90014","Snowdepth":"15.000","Units":"in","Rept_Date":"2019-12-14 12"},"coordinates":[3453,5479]},{"type":"Point","properties":{"Station_ID":"BALW3","Station_Nam":"BALDWIN","Latitude":"44.96330","Longitude":"-92.39050","Snowdepth":"15.000","Units":"in","Rept_Date":"2019-12-14 13"},"coordinates":[1255,4413]},{"type":"Point","properties":{"Station_ID":"QFT","Station_Nam":"QFT","Latitude":"50.83280","Longitude":"-74.40390","Snowdepth":"14.882","Units":"in","Rept_Date":"2019-12-14 12"},"coordinates":[5912,9261]},{"type":"Point","properties":{"Station_ID":"WI-LN-2","Station_Nam":"MERRILL 7.0 W, WI","Latitude":"45.17746","Longitude":"-89.84820","Snowdepth":"14.500","Units":"in","Rept_Date":"2019-12-14 12"},"coordinates":[1913,4590]},{"type":"Point","properties":{"Station_ID":"QCX","Station_Nam":"QCX","Latitude":"51.32830","Longitude":"-70.08060","Snowdepth":"14.409","Units":"in","Rept_Date":"2019-12-14 12"},"coordinates":[7031,9670]},{"type":"Point","properties":{"Station_ID":"MFU","Station_Nam":"MFU","Latitude":"51.52170","Longitude":"-66.91110","Snowdepth":"14.331","Units":"in","Rept_Date":"2019-12-14 12"},"coordinates":[7852,9830]},{"type":"Point","properties":{"Station_ID":"WLKW3","Station_Nam":"WHITE LAKE 1 SE","Latitude":"45.14520","Longitude":"-88.74160","Snowdepth":"14.000","Units":"in","Rept_Date":"2019-12-14 14"},"coordinates":[2200,4563]},{"type":"Point","properties":{"Station_ID":"WI-CH-3","Station_Nam":"CORNELL 4.1 W, WI","Latitude":"45.17024","Longitude":"-91.23610","Snowdepth":"14.000","Units":"in","Rept_Date":"2019-12-14 14"},"coordinates":[1554,4584]},{"type":"Point","properties":{"Station_ID":"WASW3","Station_Nam":"WASHINGTON IS","Latitude":"45.35800","Longitude":"-86.89110","Snowdepth":"14.000","Units":"in","Rept_Date":"2019-12-14 13"},"coordinates":[2679,4739]},{"type":"Point","properties":{"Station_ID":"TOWM5","Station_Nam":"TOWER,MN","Latitude":"47.75530","Longitude":"-92.28580","Snowdepth":"14.000","Units":"in","Rept_Date":"2019-12-14 13"},"coordinates":[1282,6719]},{"type":"Point","properties":{"Station_ID":"SULW3","Station_Nam":"SUMMIT LAKE","Latitude":"45.37880","Longitude":"-89.19410","Snowdepth":"14.000","Units":"in","Rept_Date":"2019-12-14 11"},"coordinates":[2083,4756]},{"type":"Point","properties":{"Station_ID":"SAUW3","Station_Nam":"WAUSAU WSAW TV","Latitude":"44.94630","Longitude":"-89.62220","Snowdepth":"14.000","Units":"in","Rept_Date":"2019-12-15 04"},"coordinates":[1972,4399]},{"type":"Point","properties":{"Station_ID":"RHRW3","Station_Nam":"RHINELANDER WJFW TV-12","Latitude":"45.62220","Longitude":"-89.41000","Snowdepth":"14.000","Units":"in","Rept_Date":"2019-12-15 04"},"coordinates":[2027,4957]},{"type":"Point","properties":{"Station_ID":"MN3LTZND","Station_Nam":"BRAINERD 1.4 S","Latitude":"46.33224","Longitude":"-94.20905","Snowdepth":"14.000","Units":"in","Rept_Date":"2019-12-14 13"},"coordinates":[784,5544]},{"type":"Point","properties":{"Station_ID":"MI-HG-13","Station_Nam":"HOUGHTON 1.2 WNW, MI","Latitude":"47.12035","Longitude":"-88.58525","Snowdepth":"14.000","Units":"in","Rept_Date":"2019-12-14 13"},"coordinates":[2240,6194]},{"type":"Point","properties":{"Station_ID":"MI-DL-1","Station_Nam":"GARDEN CORNERS 0.8 NW, MI","Latitude":"45.89815","Longitude":"-86.54850","Snowdepth":"14.000","Units":"in","Rept_Date":"2019-12-14 13"},"coordinates":[2768,5185]},{"type":"Point","properties":{"Station_ID":"GDCM4","Station_Nam":"GARDEN CORNERS","Latitude":"45.89830","Longitude":"-86.54850","Snowdepth":"14.000","Units":"in","Rept_Date":"2019-12-14 13"},"coordinates":[2768,5185]},{"type":"Point","properties":{"Station_ID":"DTVM4","Station_Nam":"DETOUR VILLAGE","Latitude":"45.99830","Longitude":"-83.90130","Snowdepth":"14.000","Units":"in","Rept_Date":"2019-12-14 13"},"coordinates":[3453,5268]},{"type":"Point","properties":{"Station_ID":"BRAM5","Station_Nam":"BRAINERD","Latitude":"46.34320","Longitude":"-94.20900","Snowdepth":"14.000","Units":"in","Rept_Date":"2019-12-14 13"},"coordinates":[784,5553]},{"type":"Point","properties":{"Station_ID":"SVBQ6","Station_Nam":"SAVANT BASE","Latitude":"50.28730","Longitude":"-90.65670","Snowdepth":"13.900","Units":"in","Rept_Date":"2019-12-15 06"},"coordinates":[1704,8810]},{"type":"Point","properties":{"Station_ID":"WI-WB-15","Station_Nam":"SARONA 3.6 NE, WI","Latitude":"45.74290","Longitude":"-91.74887","Snowdepth":"13.600","Units":"in","Rept_Date":"2019-12-14 15"},"coordinates":[1421,5057]},{"type":"Point","properties":{"Station_ID":"MN-SL-115","Station_Nam":"COTTON 5.7 ESE, MN","Latitude":"47.15142","Longitude":"-92.35772","Snowdepth":"13.500","Units":"in","Rept_Date":"2019-12-14 14"},"coordinates":[1264,6220]},{"type":"Point","properties":{"Station_ID":"MN-CK-18","Station_Nam":"GRAND MARAIS 4.4 WSW, MN","Latitude":"47.74462","Longitude":"-90.43796","Snowdepth":"13.500","Units":"in","Rept_Date":"2019-12-14 13"},"coordinates":[1761,6710]},{"type":"Point","properties":{"Station_ID":"QTV","Station_Nam":"QTV","Latitude":"49.66000","Longitude":"-69.35690","Snowdepth":"13.346","Units":"in","Rept_Date":"2019-12-14 12"},"coordinates":[7219,8292]},{"type":"Point","properties":{"Station_ID":"QMA","Station_Nam":"QMA","Latitude":"50.10330","Longitude":"-70.47190","Snowdepth":"13.307","Units":"in","Rept_Date":"2019-12-14 12"},"coordinates":[6930,8658]},{"type":"Point","properties":{"Station_ID":"PTLQ6","Station_Nam":"PORTAGE LAKE","Latitude":"49.06950","Longitude":"-86.65940","Snowdepth":"13.230","Units":"in","Rept_Date":"2019-12-15 06"},"coordinates":[2739,7804]},{"type":"Point","properties":{"Station_ID":"QYR","Station_Nam":"QYR","Latitude":"48.87220","Longitude":"-75.61470","Snowdepth":"13.071","Units":"in","Rept_Date":"2019-12-14 12"},"coordinates":[5599,7641]},{"type":"Point","properties":{"Station_ID":"WUNW3","Station_Nam":"WAUSAU-NORTHEAST","Latitude":"44.97310","Longitude":"-89.61690","Snowdepth":"13.000","Units":"in","Rept_Date":"2019-12-14 11"},"coordinates":[1973,4421]},{"type":"Point","properties":{"Station_ID":"WI-EC-5","Station_Nam":"ALTOONA 0.4 SW, WI","Latitude":"44.80128","Longitude":"-91.44819","Snowdepth":"13.000","Units":"in","Rept_Date":"2019-12-14 13"},"coordinates":[1499,4279]},{"type":"Point","properties":{"Station_ID":"WI-DN-1","Station_Nam":"BOYCEVILLE 3.3 N, WI","Latitude":"45.08913","Longitude":"-92.02760","Snowdepth":"13.000","Units":"in","Rept_Date":"2019-12-14 13"},"coordinates":[1349,4517]},{"type":"Point","properties":{"Station_ID":"STRW3","Station_Nam":"STRATFORD 1NW","Latitude":"44.81750","Longitude":"-90.08990","Snowdepth":"13.000","Units":"in","Rept_Date":"2019-12-14 13"},"coordinates":[1851,4293]},{"type":"Point","properties":{"Station_ID":"MRAM4","Station_Nam":"MORAN","Latitude":"45.99030","Longitude":"-84.83610","Snowdepth":"13.000","Units":"in","Rept_Date":"2019-12-14 13"},"coordinates":[3211,5261]},{"type":"Point","properties":{"Station_ID":"MN8O09O3","Station_Nam":"ORR 3.6 E","Latitude":"48.04403","Longitude":"-92.75427","Snowdepth":"13.000","Units":"in","Rept_Date":"2019-12-14 12"},"coordinates":[1161,6957]},{"type":"Point","properties":{"Station_ID":"MN-SL-108","Station_Nam":"IRON JUNCTION 3.4 NNW, MN","Latitude":"47.46150","Longitude":"-92.63130","Snowdepth":"13.000","Units":"in","Rept_Date":"2019-12-14 13"},"coordinates":[1193,6476]},{"type":"Point","properties":{"Station_ID":"MN-IT-1","Station_Nam":"GRAND RAPIDS 2.0 E, MN","Latitude":"47.22266","Longitude":"-93.49600","Snowdepth":"13.000","Units":"in","Rept_Date":"2019-12-14 15"},"coordinates":[969,6279]},{"type":"Point","properties":{"Station_ID":"MN-CK-6","Station_Nam":"GRAND MARAIS 4.4 W, MN","Latitude":"47.74865","Longitude":"-90.43760","Snowdepth":"13.000","Units":"in","Rept_Date":"2019-12-14 13"},"coordinates":[1761,6713]},{"type":"Point","properties":{"Station_ID":"MIEM4","Station_Nam":"MICHIGAMME 3WNW","Latitude":"46.54530","Longitude":"-88.18000","Snowdepth":"13.000","Units":"in","Rept_Date":"2019-12-14 13"},"coordinates":[2345,5720]},{"type":"Point","properties":{"Station_ID":"MCLN8","Station_Nam":"MC LEOD,ND","Latitude":"46.40250","Longitude":"-97.23810","Snowdepth":"13.000","Units":"in","Rept_Date":"2019-12-14 13"},"coordinates":[0,5602]},{"type":"Point","properties":{"Station_ID":"LUCW3","Station_Nam":"LUCK","Latitude":"45.57330","Longitude":"-92.48520","Snowdepth":"13.000","Units":"in","Rept_Date":"2019-12-14 15"},"coordinates":[1231,4917]},{"type":"Point","properties":{"Station_ID":"LEIM5","Station_Nam":"ORR 3E","Latitude":"48.05810","Longitude":"-92.75220","Snowdepth":"13.000","Units":"in","Rept_Date":"2019-12-14 12"},"coordinates":[1162,6969]},{"type":"Point","properties":{"Station_ID":"KGFK","Station_Nam":"GRAND FORKS INTERNATIONAL","Latitude":"47.95000","Longitude":"-97.18333","Snowdepth":"13.000","Units":"in","Rept_Date":"2019-12-15 06"},"coordinates":[14,6880]},{"type":"Point","properties":{"Station_ID":"GFK","Station_Nam":"GRAND FORKS INTERNATIONAL AIRPORT","Latitude":"47.94920","Longitude":"-97.17610","Snowdepth":"13.000","Units":"in","Rept_Date":"2019-12-15 00"},"coordinates":[16,6879]},{"type":"Point","properties":{"Station_ID":"AUW","Station_Nam":"WAUSAU MUNICIPAL AIRPORT","Latitude":"44.92580","Longitude":"-89.62560","Snowdepth":"13.000","Units":"in","Rept_Date":"2019-12-15 00"},"coordinates":[1971,4382]},{"type":"Point","properties":{"Station_ID":"QMD","Station_Nam":"QMD","Latitude":"49.29060","Longitude":"-75.84500","Snowdepth":"12.953","Units":"in","Rept_Date":"2019-12-14 12"},"coordinates":[5539,7987]},{"type":"Point","properties":{"Station_ID":"MN-IT-21","Station_Nam":"BOVEY 15.9 N, MN","Latitude":"47.52679","Longitude":"-93.40270","Snowdepth":"12.500","Units":"in","Rept_Date":"2019-12-14 10"},"coordinates":[993,6530]},{"type":"Point","properties":{"Station_ID":"QTM","Station_Nam":"QTM","Latitude":"51.05780","Longitude":"-72.57190","Snowdepth":"12.480","Units":"in","Rept_Date":"2019-12-14 12"},"coordinates":[6386,9446]},{"type":"Point","properties":{"Station_ID":"QLM","Station_Nam":"QLM","Latitude":"48.92030","Longitude":"-70.25280","Snowdepth":"12.165","Units":"in","Rept_Date":"2019-12-14 12"},"coordinates":[6987,7681]},{"type":"Point","properties":{"Station_ID":"WLDM5","Station_Nam":"WILD RIVER STATE PARK","Latitude":"45.52310","Longitude":"-92.74890","Snowdepth":"12.000","Units":"in","Rept_Date":"2019-12-14 14"},"coordinates":[1162,4875]},{"type":"Point","properties":{"Station_ID":"WI-PK-24","Station_Nam":"ST. CROIX FALLS 0.7 S, WI","Latitude":"45.39944","Longitude":"-92.63274","Snowdepth":"12.000","Units":"in","Rept_Date":"2019-12-14 13"},"coordinates":[1192,4773]},{"type":"Point","properties":{"Station_ID":"WI-MT-14","Station_Nam":"MOSINEE 2.7 WSW, WI","Latitude":"44.77240","Longitude":"-89.73441","Snowdepth":"12.000","Units":"in","Rept_Date":"2019-12-14 13"},"coordinates":[1943,4255]},{"type":"Point","properties":{"Station_ID":"WI-MT-1","Station_Nam":"SCHOFIELD 3.3 E, WI","Latitude":"44.91806","Longitude":"-89.54470","Snowdepth":"12.000","Units":"in","Rept_Date":"2019-12-14 13"},"coordinates":[1992,4376]},{"type":"Point","properties":{"Station_ID":"WI-BR-2","Station_Nam":"CHETEK 2.0 SE, WI","Latitude":"45.29427","Longitude":"-91.62470","Snowdepth":"12.000","Units":"in","Rept_Date":"2019-12-14 13"},"coordinates":[1453,4686]},{"type":"Point","properties":{"Station_ID":"STIM4","Station_Nam":"ST IGNACE","Latitude":"45.86080","Longitude":"-84.71960","Snowdepth":"12.000","Units":"in","Rept_Date":"2019-12-14 12"},"coordinates":[3241,5154]},{"type":"Point","properties":{"Station_ID":"SEBM5","Station_Nam":"SEBEKA","Latitude":"46.62540","Longitude":"-95.09670","Snowdepth":"12.000","Units":"in","Rept_Date":"2019-12-14 13"},"coordinates":[555,5786]},{"type":"Point","properties":{"Station_ID":"RRLW3","Station_Nam":"MERRILL,WI","Latitude":"45.17860","Longitude":"-89.66170","Snowdepth":"12.000","Units":"in","Rept_Date":"2019-12-14 14"},"coordinates":[1962,4591]},{"type":"Point","properties":{"Station_ID":"OWEW3","Station_Nam":"OWEN 2N","Latitude":"44.98010","Longitude":"-90.55440","Snowdepth":"12.000","Units":"in","Rept_Date":"2019-12-14 13"},"coordinates":[1731,4427]},{"type":"Point","properties":{"Station_ID":"MN20GPME","Station_Nam":"MILACA 0.7 W","Latitude":"45.75695","Longitude":"-93.66835","Snowdepth":"12.000","Units":"in","Rept_Date":"2019-12-14 13"},"coordinates":[924,5068]},{"type":"Point","properties":{"Station_ID":"MN-SR-29","Station_Nam":"ALBANY 3.8 S, MN","Latitude":"45.57441","Longitude":"-94.55543","Snowdepth":"12.000","Units":"in","Rept_Date":"2019-12-14 13"},"coordinates":[695,4918]},{"type":"Point","properties":{"Station_ID":"MN-IT-10","Station_Nam":"DEER RIVER 3.7 W, MN","Latitude":"47.33564","Longitude":"-93.87514","Snowdepth":"12.000","Units":"in","Rept_Date":"2019-12-14 14"},"coordinates":[871,6372]},{"type":"Point","properties":{"Station_ID":"MN-CW-8","Station_Nam":"BRAINERD 11.5 E, MN","Latitude":"46.38556","Longitude":"-93.95720","Snowdepth":"12.000","Units":"in","Rept_Date":"2019-12-14 14"},"coordinates":[850,5588]},{"type":"Point","properties":{"Station_ID":"MN-CW-22","Station_Nam":"FORT RIPLEY 0.8 N, MN","Latitude":"46.18089","Longitude":"-94.36510","Snowdepth":"12.000","Units":"in","Rept_Date":"2019-12-14 13"},"coordinates":[744,5419]},{"type":"Point","properties":{"Station_ID":"MN-BM-15","Station_Nam":"BEMIDJI 7.8 ENE, MN","Latitude":"47.52043","Longitude":"-94.72121","Snowdepth":"12.000","Units":"in","Rept_Date":"2019-12-14 13"},"coordinates":[652,6525]},{"type":"Point","properties":{"Station_ID":"MMNV1","Station_Nam":"MT. MANSFIELD","Latitude":"44.52480","Longitude":"-72.81540","Snowdepth":"12.000","Units":"in","Rept_Date":"2019-12-14 21"},"coordinates":[6323,4051]},{"type":"Point","properties":{"Station_ID":"MLCM5","Station_Nam":"MILACA","Latitude":"45.75320","Longitude":"-93.66170","Snowdepth":"12.000","Units":"in","Rept_Date":"2019-12-14 13"},"coordinates":[926,5065]},{"type":"Point","properties":{"Station_ID":"MI-MC-4","Station_Nam":"ST. IGNACE 0.5SE, MI","Latitude":"45.86057","Longitude":"-84.71980","Snowdepth":"12.000","Units":"in","Rept_Date":"2019-12-14 12"},"coordinates":[3241,5154]},{"type":"Point","properties":{"Station_ID":"ME-AR-23","Station_Nam":"MADAWASKA 2.5 E, ME","Latitude":"47.34933","Longitude":"-68.28141","Snowdepth":"12.000","Units":"in","Rept_Date":"2019-12-14 12"},"coordinates":[7497,6384]},{"type":"Point","properties":{"Station_ID":"GRBM5","Station_Nam":"GRAND RAPIDS 12N","Latitude":"47.39800","Longitude":"-93.51330","Snowdepth":"12.000","Units":"in","Rept_Date":"2019-12-14 14"},"coordinates":[965,6424]},{"type":"Point","properties":{"Station_ID":"EPTW3","Station_Nam":"EAU PLEINE TENDER","Latitude":"44.77220","Longitude":"-89.76720","Snowdepth":"12.000","Units":"in","Rept_Date":"2019-12-14 13"},"coordinates":[1934,4255]},{"type":"Point","properties":{"Station_ID":"CSLM5","Station_Nam":"CASS LAKE,MN","Latitude":"47.38470","Longitude":"-94.61470","Snowdepth":"12.000","Units":"in","Rept_Date":"2019-12-14 14"},"coordinates":[679,6413]},{"type":"Point","properties":{"Station_ID":"TRIQ6","Station_Nam":"TRIO LAKE","Latitude":"49.22880","Longitude":"-87.22920","Snowdepth":"11.770","Units":"in","Rept_Date":"2019-12-15 06"},"coordinates":[2592,7936]},{"type":"Point","properties":{"Station_ID":"SOCQ6","Station_Nam":"SOCKET LAKE","Latitude":"50.77870","Longitude":"-91.79300","Snowdepth":"11.540","Units":"in","Rept_Date":"2019-12-15 06"},"coordinates":[1410,9216]},{"type":"Point","properties":{"Station_ID":"QCO","Station_Nam":"QCO","Latitude":"51.45280","Longitude":"-72.20110","Snowdepth":"11.535","Units":"in","Rept_Date":"2019-12-14 12"},"coordinates":[6482,9773]},{"type":"Point","properties":{"Station_ID":"WI-PC-25","Station_Nam":"ELLSWORTH 2.6 SW, WI","Latitude":"44.71119","Longitude":"-92.51849","Snowdepth":"11.000","Units":"in","Rept_Date":"2019-12-14 13"},"coordinates":[1222,4205]},{"type":"Point","properties":{"Station_ID":"SSMM4","Station_Nam":"SAULT STE MARIE","Latitude":"46.48660","Longitude":"-84.40250","Snowdepth":"11.000","Units":"in","Rept_Date":"2019-12-14 13"},"coordinates":[3323,5671]},{"type":"Point","properties":{"Station_ID":"OTTM5","Station_Nam":"OTTERTAIL,MN","Latitude":"46.41670","Longitude":"-95.56670","Snowdepth":"11.000","Units":"in","Rept_Date":"2019-12-14 21"},"coordinates":[433,5613]},{"type":"Point","properties":{"Station_ID":"ND-CS-25","Station_Nam":"FARGO 2.1 N, ND","Latitude":"46.90816","Longitude":"-96.77937","Snowdepth":"11.000","Units":"in","Rept_Date":"2019-12-14 14"},"coordinates":[119,6019]},{"type":"Point","properties":{"Station_ID":"MN-SH-10","Station_Nam":"BIG LAKE 5.6 NNE, MN","Latitude":"45.41409","Longitude":"-93.69190","Snowdepth":"11.000","Units":"in","Rept_Date":"2019-12-14 13"},"coordinates":[918,4785]},{"type":"Point","properties":{"Station_ID":"MN-IT-17","Station_Nam":"GRAND RAPIDS 6.1 N, MN","Latitude":"47.31165","Longitude":"-93.55036","Snowdepth":"11.000","Units":"in","Rept_Date":"2019-12-14 13"},"coordinates":[955,6352]},{"type":"Point","properties":{"Station_ID":"MI-CP-7","Station_Nam":"DRUMMOND 2.9 NE, MI","Latitude":"46.05329","Longitude":"-83.69060","Snowdepth":"11.000","Units":"in","Rept_Date":"2019-12-14 14"},"coordinates":[3508,5313]},{"type":"Point","properties":{"Station_ID":"MEDW3","Station_Nam":"MEDFORD","Latitude":"45.13080","Longitude":"-90.34390","Snowdepth":"11.000","Units":"in","Rept_Date":"2019-12-14 14"},"coordinates":[1785,4551]},{"type":"Point","properties":{"Station_ID":"JIMW3","Station_Nam":"JIM FALLS 3NW","Latitude":"45.08270","Longitude":"-91.33130","Snowdepth":"11.000","Units":"in","Rept_Date":"2019-12-14 12"},"coordinates":[1529,4512]},{"type":"Point","properties":{"Station_ID":"FLDM5","Station_Nam":"FLOODWOOD,MN","Latitude":"47.00000","Longitude":"-92.91670","Snowdepth":"11.000","Units":"in","Rept_Date":"2019-12-14 14"},"coordinates":[1119,6095]},{"type":"Point","properties":{"Station_ID":"EAU","Station_Nam":"CHIPPEWA VALLEY REGIONAL AIRPORT","Latitude":"44.86650","Longitude":"-91.48790","Snowdepth":"11.000","Units":"in","Rept_Date":"2019-12-15 00"},"coordinates":[1489,4333]},{"type":"Point","properties":{"Station_ID":"BREW3","Station_Nam":"SURING","Latitude":"44.99580","Longitude":"-88.37860","Snowdepth":"11.000","Units":"in","Rept_Date":"2019-12-14 12"},"coordinates":[2294,4440]},{"type":"Point","properties":{"Station_ID":"ANJM4","Station_Nam":"SNOW PAID OBSERVER FOR KANJ","Latitude":"46.48670","Longitude":"-84.40260","Snowdepth":"11.000","Units":"in","Rept_Date":"2019-12-15 06"},"coordinates":[3323,5671]},{"type":"Point","properties":{"Station_ID":"ANJ","Station_Nam":"SAULT STE MARIE","Latitude":"46.46670","Longitude":"-84.36670","Snowdepth":"11.000","Units":"in","Rept_Date":"2019-12-15 00"},"coordinates":[3333,5655]},{"type":"Point","properties":{"Station_ID":"QWE","Station_Nam":"QWE","Latitude":"47.84610","Longitude":"-73.80670","Snowdepth":"10.945","Units":"in","Rept_Date":"2019-12-14 12"},"coordinates":[6067,6794]},{"type":"Point","properties":{"Station_ID":"MN-IT-7","Station_Nam":"GRAND RAPIDS 6.2 SSW, MN","Latitude":"47.13687","Longitude":"-93.56660","Snowdepth":"10.600","Units":"in","Rept_Date":"2019-12-14 12"},"coordinates":[951,6208]},{"type":"Point","properties":{"Station_ID":"MN-CW-29","Station_Nam":"BRAINERD 7.7 SSE, MN","Latitude":"46.24996","Longitude":"-94.14576","Snowdepth":"10.500","Units":"in","Rept_Date":"2019-12-14 13"},"coordinates":[801,5476]},{"type":"Point","properties":{"Station_ID":"WI-PC-5","Station_Nam":"RIVER FALLS 1.2 SSW, WI","Latitude":"44.84032","Longitude":"-92.63500","Snowdepth":"10.000","Units":"in","Rept_Date":"2019-12-14 13"},"coordinates":[1192,4311]},{"type":"Point","properties":{"Station_ID":"VT-ES-1","Station_Nam":"GRANBY 1.4 NW, VT","Latitude":"44.58330","Longitude":"-71.77870","Snowdepth":"10.000","Units":"in","Rept_Date":"2019-12-14 13"},"coordinates":[6592,4099]},{"type":"Point","properties":{"Station_ID":"PARM4","Station_Nam":"PARENT BAY","Latitude":"45.79610","Longitude":"-86.40110","Snowdepth":"10.000","Units":"in","Rept_Date":"2019-12-14 17"},"coordinates":[2806,5101]},{"type":"Point","properties":{"Station_ID":"MNLGGILP","Station_Nam":"LONG PRAIRIE 1.1 WSW","Latitude":"45.96913","Longitude":"-94.88686","Snowdepth":"10.000","Units":"in","Rept_Date":"2019-12-14 12"},"coordinates":[609,5244]},{"type":"Point","properties":{"Station_ID":"MN9UO3KA","Station_Nam":"GAPPAS LANDING CG 3.8 N","Latitude":"48.49307","Longitude":"-93.03634","Snowdepth":"10.000","Units":"in","Rept_Date":"2019-12-14 13"},"coordinates":[1088,7328]},{"type":"Point","properties":{"Station_ID":"MN7TCHCK","Station_Nam":"COOK 0.2 ENE","Latitude":"47.85225","Longitude":"-92.68378","Snowdepth":"10.000","Units":"in","Rept_Date":"2019-12-14 12"},"coordinates":[1179,6799]},{"type":"Point","properties":{"Station_ID":"MN-MR-4","Station_Nam":"LITTLE FALLS 1.2 SW, MN","Latitude":"45.96886","Longitude":"-94.37720","Snowdepth":"10.000","Units":"in","Rept_Date":"2019-12-14 13"},"coordinates":[741,5243]},{"type":"Point","properties":{"Station_ID":"MENM4","Station_Nam":"MENOMINEE NO.2","Latitude":"45.11100","Longitude":"-87.61170","Snowdepth":"10.000","Units":"in","Rept_Date":"2019-12-14 14"},"coordinates":[2492,4535]},{"type":"Point","properties":{"Station_ID":"LNGM5","Station_Nam":"LONG PRAIRIE","Latitude":"45.96460","Longitude":"-94.88920","Snowdepth":"10.000","Units":"in","Rept_Date":"2019-12-14 12"},"coordinates":[608,5240]},{"type":"Point","properties":{"Station_ID":"KABM5","Station_Nam":"KABETOGAMA LAKE VISITOR CTR","Latitude":"48.40880","Longitude":"-93.04840","Snowdepth":"10.000","Units":"in","Rept_Date":"2019-12-14 13"},"coordinates":[1085,7259]},{"type":"Point","properties":{"Station_ID":"COKM5","Station_Nam":"COOK","Latitude":"47.85060","Longitude":"-92.69250","Snowdepth":"10.000","Units":"in","Rept_Date":"2019-12-14 12"},"coordinates":[1177,6798]},{"type":"Point","properties":{"Station_ID":"CHPW3","Station_Nam":"CHIPPEWA FALLS","Latitude":"44.92770","Longitude":"-91.40810","Snowdepth":"10.000","Units":"in","Rept_Date":"2019-12-14 14"},"coordinates":[1510,4384]},{"type":"Point","properties":{"Station_ID":"CBVM1","Station_Nam":"CARRABASSETT VALLEY","Latitude":"45.08040","Longitude":"-70.30310","Snowdepth":"10.000","Units":"in","Rept_Date":"2019-12-14 12"},"coordinates":[6974,4510]},{"type":"Point","properties":{"Station_ID":"QGA","Station_Nam":"QGA","Latitude":"47.25640","Longitude":"-73.73810","Snowdepth":"9.724","Units":"in","Rept_Date":"2019-12-14 12"},"coordinates":[6084,6307]},{"type":"Point","properties":{"Station_ID":"MN-MR-13","Station_Nam":"LITTLE FALLS 8.0 NE, MN","Latitude":"46.06785","Longitude":"-94.24789","Snowdepth":"9.500","Units":"in","Rept_Date":"2019-12-14 13"},"coordinates":[774,5325]},{"type":"Point","properties":{"Station_ID":"MN-AA-76","Station_Nam":"NOWTHEN 2.9 SSE, MN","Latitude":"45.30360","Longitude":"-93.42620","Snowdepth":"9.500","Units":"in","Rept_Date":"2019-12-14 13"},"coordinates":[987,4694]},{"type":"Point","properties":{"Station_ID":"MI-CP-14","Station_Nam":"SAULT STE. MARIE 2.2 E, MI","Latitude":"46.48933","Longitude":"-84.31971","Snowdepth":"9.500","Units":"in","Rept_Date":"2019-12-14 13"},"coordinates":[3345,5673]},{"type":"Point","properties":{"Station_ID":"WI-DR-5","Station_Nam":"ELLISON BAY 2.2 E, WI","Latitude":"45.25750","Longitude":"-87.02670","Snowdepth":"9.000","Units":"in","Rept_Date":"2019-12-14 13"},"coordinates":[2644,4656]},{"type":"Point","properties":{"Station_ID":"WI-DN-5","Station_Nam":"ELK MOUND 1.3 NE, WI","Latitude":"44.88627","Longitude":"-91.66680","Snowdepth":"9.000","Units":"in","Rept_Date":"2019-12-14 13"},"coordinates":[1443,4349]},{"type":"Point","properties":{"Station_ID":"SIBI4","Station_Nam":"SIBLEY","Latitude":"43.40470","Longitude":"-95.74830","Snowdepth":"9.000","Units":"in","Rept_Date":"2019-12-14 13"},"coordinates":[386,3126]},{"type":"Point","properties":{"Station_ID":"SHHW3","Station_Nam":"SHAWANO 2SSW","Latitude":"44.76310","Longitude":"-88.61830","Snowdepth":"9.000","Units":"in","Rept_Date":"2019-12-14 14"},"coordinates":[2232,4248]},{"type":"Point","properties":{"Station_ID":"SCSM5","Station_Nam":"ST CLOUD STATE","Latitude":"45.55100","Longitude":"-94.14950","Snowdepth":"9.000","Units":"in","Rept_Date":"2019-12-14 12"},"coordinates":[800,4898]},{"type":"Point","properties":{"Station_ID":"RSTW3","Station_Nam":"ROSHOLT","Latitude":"44.62710","Longitude":"-89.30600","Snowdepth":"9.000","Units":"in","Rept_Date":"2019-12-14 14"},"coordinates":[2054,4135]},{"type":"Point","properties":{"Station_ID":"RCEM5","Station_Nam":"RICE","Latitude":"45.75760","Longitude":"-94.20720","Snowdepth":"9.000","Units":"in","Rept_Date":"2019-12-14 13"},"coordinates":[785,5069]},{"type":"Point","properties":{"Station_ID":"PSHW3","Station_Nam":"PESHTIGO","Latitude":"45.02810","Longitude":"-87.73560","Snowdepth":"9.000","Units":"in","Rept_Date":"2019-12-14 13"},"coordinates":[2460,4467]},{"type":"Point","properties":{"Station_ID":"MRIW3","Station_Nam":"MARINETTE","Latitude":"45.09830","Longitude":"-87.62360","Snowdepth":"9.000","Units":"in","Rept_Date":"2019-12-14 13"},"coordinates":[2489,4524]},{"type":"Point","properties":{"Station_ID":"MN228YHJ","Station_Nam":"RICE 2.8 ESE","Latitude":"45.73609","Longitude":"-94.17230","Snowdepth":"9.000","Units":"in","Rept_Date":"2019-12-14 13"},"coordinates":[794,5051]},{"type":"Point","properties":{"Station_ID":"MN228RRE","Station_Nam":"RICE 0.8 ENE","Latitude":"45.75724","Longitude":"-94.20638","Snowdepth":"9.000","Units":"in","Rept_Date":"2019-12-14 13"},"coordinates":[785,5069]},{"type":"Point","properties":{"Station_ID":"MN-WR-40","Station_Nam":"CLEARWATER 5.4 SSE, MN","Latitude":"45.34795","Longitude":"-94.03374","Snowdepth":"9.000","Units":"in","Rept_Date":"2019-12-14 14"},"coordinates":[830,4731]},{"type":"Point","properties":{"Station_ID":"MN-ML-1","Station_Nam":"ONAMIA 4.3 NW, MN","Latitude":"46.10883","Longitude":"-93.73890","Snowdepth":"9.000","Units":"in","Rept_Date":"2019-12-14 15"},"coordinates":[906,5359]},{"type":"Point","properties":{"Station_ID":"MN-DK-73","Station_Nam":"LAKEVILLE 2.6 NNE, MN","Latitude":"44.71250","Longitude":"-93.23043","Snowdepth":"9.000","Units":"in","Rept_Date":"2019-12-14 13"},"coordinates":[1038,4206]},{"type":"Point","properties":{"Station_ID":"MN-CY-1","Station_Nam":"MOORHEAD 2.0 N, MN","Latitude":"46.88766","Longitude":"-96.74800","Snowdepth":"9.000","Units":"in","Rept_Date":"2019-12-14 13"},"coordinates":[127,6002]},{"type":"Point","properties":{"Station_ID":"MN-AA-85","Station_Nam":"LINO LAKES 1.8 W, MN","Latitude":"45.16640","Longitude":"-93.12063","Snowdepth":"9.000","Units":"in","Rept_Date":"2019-12-14 13"},"coordinates":[1066,4581]},{"type":"Point","properties":{"Station_ID":"ME-AR-18","Station_Nam":"NEW SWEDEN 4.9 NNW, ME","Latitude":"47.01080","Longitude":"-68.14390","Snowdepth":"9.000","Units":"in","Rept_Date":"2019-12-14 12"},"coordinates":[7533,6104]},{"type":"Point","properties":{"Station_ID":"MA-MD-47","Station_Nam":"WEST TOWNSEND 0.5 W, MA","Latitude":"42.67623","Longitude":"-71.74983","Snowdepth":"9.000","Units":"in","Rept_Date":"2019-12-14 11"},"coordinates":[6599,2524]},{"type":"Point","properties":{"Station_ID":"INL","Station_Nam":"FALLS INTERNATIONAL ARPT","Latitude":"48.56640","Longitude":"-93.40310","Snowdepth":"9.000","Units":"in","Rept_Date":"2019-12-15 00"},"coordinates":[993,7389]},{"type":"Point","properties":{"Station_ID":"IFSM5","Station_Nam":"INTERNATIONAL FALLS SNOW","Latitude":"48.57780","Longitude":"-93.39640","Snowdepth":"9.000","Units":"in","Rept_Date":"2019-12-14 12"},"coordinates":[995,7398]},{"type":"Point","properties":{"Station_ID":"GRFN8","Station_Nam":"UNIVERSITY","Latitude":"47.93330","Longitude":"-97.08330","Snowdepth":"9.000","Units":"in","Rept_Date":"2019-12-15 06"},"coordinates":[40,6866]},{"type":"Point","properties":{"Station_ID":"FDRN8","Station_Nam":"FARGO 3S","Latitude":"46.82930","Longitude":"-96.79620","Snowdepth":"9.000","Units":"in","Rept_Date":"2019-12-14 22"},"coordinates":[115,5954]},{"type":"Point","properties":{"Station_ID":"FAR","Station_Nam":"HECTOR INTERNATIONAL ARPT","Latitude":"46.91560","Longitude":"-96.81440","Snowdepth":"9.000","Units":"in","Rept_Date":"2019-12-15 00"},"coordinates":[110,6025]},{"type":"Point","properties":{"Station_ID":"EPMW3","Station_Nam":"EPHRAIM-1 NE WWTP","Latitude":"45.17080","Longitude":"-87.15360","Snowdepth":"9.000","Units":"in","Rept_Date":"2019-12-14 14"},"coordinates":[2611,4584]},{"type":"Point","properties":{"Station_ID":"BMRW3","Station_Nam":"BLOOMER","Latitude":"45.09070","Longitude":"-91.48640","Snowdepth":"9.000","Units":"in","Rept_Date":"2019-12-14 14"},"coordinates":[1489,4518]},{"type":"Point","properties":{"Station_ID":"BFSW3","Station_Nam":"BIG FALLS-5 NW","Latitude":"44.63980","Longitude":"-89.11330","Snowdepth":"9.000","Units":"in","Rept_Date":"2019-12-14 13"},"coordinates":[2104,4146]},{"type":"Point","properties":{"Station_ID":"KABQ6","Station_Nam":"CAB LAKE","Latitude":"49.59950","Longitude":"-89.17990","Snowdepth":"8.940","Units":"in","Rept_Date":"2019-12-15 06"},"coordinates":[2086,8242]},{"type":"Point","properties":{"Station_ID":"QIQ","Station_Nam":"QIQ","Latitude":"49.82390","Longitude":"-68.54310","Snowdepth":"8.819","Units":"in","Rept_Date":"2019-12-14 12"},"coordinates":[7429,8427]},{"type":"Point","properties":{"Station_ID":"MN-SR-36","Station_Nam":"SAINT JOSEPH 6.4 N, MN","Latitude":"45.65317","Longitude":"-94.28876","Snowdepth":"8.700","Units":"in","Rept_Date":"2019-12-14 15"},"coordinates":[764,4983]},{"type":"Point","properties":{"Station_ID":"CATQ6","Station_Nam":"CAT LAKE","Latitude":"51.72690","Longitude":"-91.82210","Snowdepth":"8.580","Units":"in","Rept_Date":"2019-12-15 06"},"coordinates":[1402,9999]},{"type":"Point","properties":{"Station_ID":"NH-HL-19","Station_Nam":"BROOKLINE 2.1 SW, NH","Latitude":"42.71235","Longitude":"-71.69760","Snowdepth":"8.500","Units":"in","Rept_Date":"2019-12-14 13"},"coordinates":[6613,2554]},{"type":"Point","properties":{"Station_ID":"MN-BK-10","Station_Nam":"DETROIT LAKES 5.7 N, MN","Latitude":"46.88666","Longitude":"-95.84444","Snowdepth":"8.500","Units":"in","Rept_Date":"2019-12-14 10"},"coordinates":[361,6001]},{"type":"Point","properties":{"Station_ID":"MN-BN-7","Station_Nam":"SAINT CLOUD 1.1 NE, MN","Latitude":"45.56440","Longitude":"-94.12310","Snowdepth":"8.300","Units":"in","Rept_Date":"2019-12-14 13"},"coordinates":[807,4909]},{"type":"Point","properties":{"Station_ID":"QLI","Station_Nam":"QLI","Latitude":"50.27080","Longitude":"-73.92280","Snowdepth":"8.228","Units":"in","Rept_Date":"2019-12-14 12"},"coordinates":[6037,8796]},{"type":"Point","properties":{"Station_ID":"WMRM5","Station_Nam":"WILLMAR 5N","Latitude":"45.19010","Longitude":"-95.05860","Snowdepth":"8.000","Units":"in","Rept_Date":"2019-12-14 12"},"coordinates":[564,4600]},{"type":"Point","properties":{"Station_ID":"WI-PT-8","Station_Nam":"RUDOLPH 2.1 NNE, WI","Latitude":"44.52553","Longitude":"-89.78677","Snowdepth":"8.000","Units":"in","Rept_Date":"2019-12-14 11"},"coordinates":[1929,4051]},{"type":"Point","properties":{"Station_ID":"WI-PC-10","Station_Nam":"RIVER FALLS 1.4 S, WI","Latitude":"44.83580","Longitude":"-92.62100","Snowdepth":"8.000","Units":"in","Rept_Date":"2019-12-14 13"},"coordinates":[1196,4308]},{"type":"Point","properties":{"Station_ID":"WABM5","Station_Nam":"WABASHA","Latitude":"44.38500","Longitude":"-92.04860","Snowdepth":"8.000","Units":"in","Rept_Date":"2019-12-14 13"},"coordinates":[1344,3935]},{"type":"Point","properties":{"Station_ID":"SBNM5","Station_Nam":"SABIN","Latitude":"46.77690","Longitude":"-96.65610","Snowdepth":"8.000","Units":"in","Rept_Date":"2019-12-14 16"},"coordinates":[151,5911]},{"type":"Point","properties":{"Station_ID":"RGNM1","Station_Nam":"RANGELEY 2NW","Latitude":"44.98940","Longitude":"-70.67220","Snowdepth":"8.000","Units":"in","Rept_Date":"2019-12-14 13"},"coordinates":[6878,4435]},{"type":"Point","properties":{"Station_ID":"MTQM4","Station_Nam":"MANISTIQUE WWTP","Latitude":"45.95120","Longitude":"-86.25130","Snowdepth":"8.000","Units":"in","Rept_Date":"2019-12-14 12"},"coordinates":[2845,5229]},{"type":"Point","properties":{"Station_ID":"MSP","Station_Nam":"MINNEAPOLIS-ST PAUL INTL AP","Latitude":"44.88310","Longitude":"-93.22890","Snowdepth":"8.000","Units":"in","Rept_Date":"2019-12-15 00"},"coordinates":[1038,4347]},{"type":"Point","properties":{"Station_ID":"MNJLCQKL","Station_Nam":"KIMBALL 2.6 NNW","Latitude":"45.34917","Longitude":"-94.31303","Snowdepth":"8.000","Units":"in","Rept_Date":"2019-12-14 12"},"coordinates":[757,4732]},{"type":"Point","properties":{"Station_ID":"MNFF4VWA","Station_Nam":"WABASHA 0.8 SSW","Latitude":"44.37265","Longitude":"-92.04459","Snowdepth":"8.000","Units":"in","Rept_Date":"2019-12-14 13"},"coordinates":[1345,3925]},{"type":"Point","properties":{"Station_ID":"MN-WR-25","Station_Nam":"SAINT MICHAEL 2.0 ENE, MN","Latitude":"45.20820","Longitude":"-93.65280","Snowdepth":"8.000","Units":"in","Rept_Date":"2019-12-14 12"},"coordinates":[928,4615]},{"type":"Point","properties":{"Station_ID":"MN-RM-2","Station_Nam":"NORTH SAINT PAUL 1.0 NNW, MN","Latitude":"45.02629","Longitude":"-93.00790","Snowdepth":"8.000","Units":"in","Rept_Date":"2019-12-14 12"},"coordinates":[1095,4465]},{"type":"Point","properties":{"Station_ID":"MN-MC-16","Station_Nam":"HUTCHINSON 0.1 ENE, MN","Latitude":"44.88633","Longitude":"-94.37503","Snowdepth":"8.000","Units":"in","Rept_Date":"2019-12-14 13"},"coordinates":[741,4349]},{"type":"Point","properties":{"Station_ID":"MN-HN-6","Station_Nam":"LONG LAKE 0.2 WSW, MN","Latitude":"44.98290","Longitude":"-93.57360","Snowdepth":"8.000","Units":"in","Rept_Date":"2019-12-14 13"},"coordinates":[949,4429]},{"type":"Point","properties":{"Station_ID":"MN-DK-70","Station_Nam":"EAGAN 2.0 NNW, MN","Latitude":"44.84322","Longitude":"-93.17899","Snowdepth":"8.000","Units":"in","Rept_Date":"2019-12-14 15"},"coordinates":[1051,4314]},{"type":"Point","properties":{"Station_ID":"MN-DK-44","Station_Nam":"ROSEMOUNT 4.5 WSW, MN","Latitude":"44.72079","Longitude":"-93.14970","Snowdepth":"8.000","Units":"in","Rept_Date":"2019-12-14 13"},"coordinates":[1059,4213]},{"type":"Point","properties":{"Station_ID":"MN-CV-22","Station_Nam":"VICTORIA 1.6 WSW, MN","Latitude":"44.85670","Longitude":"-93.68640","Snowdepth":"8.000","Units":"in","Rept_Date":"2019-12-14 13"},"coordinates":[920,4325]},{"type":"Point","properties":{"Station_ID":"MN-CG-16","Station_Nam":"NORTH BRANCH 1.3 NNW, MN","Latitude":"45.53121","Longitude":"-92.97110","Snowdepth":"8.000","Units":"in","Rept_Date":"2019-12-14 12"},"coordinates":[1105,4882]},{"type":"Point","properties":{"Station_ID":"MI-AT-6","Station_Nam":"MANCELONA 0.5 ESE, MI","Latitude":"44.89981","Longitude":"-85.05100","Snowdepth":"8.000","Units":"in","Rept_Date":"2019-12-14 13"},"coordinates":[3155,4361]},{"type":"Point","properties":{"Station_ID":"LGRN8","Station_Nam":"LIDGERWOOD,ND","Latitude":"46.06670","Longitude":"-97.16670","Snowdepth":"8.000","Units":"in","Rept_Date":"2019-12-14 13"},"coordinates":[19,5324]},{"type":"Point","properties":{"Station_ID":"KMSP","Station_Nam":"MINNEAPOLIS-ST PAUL INTERNATIONAL","Latitude":"44.86666","Longitude":"-93.21666","Snowdepth":"8.000","Units":"in","Rept_Date":"2019-12-15 06"},"coordinates":[1041,4333]},{"type":"Point","properties":{"Station_ID":"KIMM5","Station_Nam":"KIMBALL 3N","Latitude":"45.35330","Longitude":"-94.30560","Snowdepth":"8.000","Units":"in","Rept_Date":"2019-12-14 12"},"coordinates":[759,4735]},{"type":"Point","properties":{"Station_ID":"JUDW3","Station_Nam":"FISH CREEK 3S - JUDDVILLE","Latitude":"45.08920","Longitude":"-87.25890","Snowdepth":"8.000","Units":"in","Rept_Date":"2019-12-14 14"},"coordinates":[2584,4517]},{"type":"Point","properties":{"Station_ID":"FORM5","Station_Nam":"FOREST LAKE 5NE","Latitude":"45.33170","Longitude":"-92.89820","Snowdepth":"8.000","Units":"in","Rept_Date":"2019-12-14 13"},"coordinates":[1124,4717]},{"type":"Point","properties":{"Station_ID":"ETTW3","Station_Nam":"ETTRICK 4WNW","Latitude":"44.19000","Longitude":"-91.34240","Snowdepth":"8.000","Units":"in","Rept_Date":"2019-12-14 14"},"coordinates":[1527,3774]},{"type":"Point","properties":{"Station_ID":"ELWW3","Station_Nam":"ELLSWORTH 1E","Latitude":"44.73030","Longitude":"-92.45860","Snowdepth":"8.000","Units":"in","Rept_Date":"2019-12-14 13"},"coordinates":[1238,4221]},{"type":"Point","properties":{"Station_ID":"DRDW3","Station_Nam":"DURAND","Latitude":"44.61970","Longitude":"-91.97950","Snowdepth":"8.000","Units":"in","Rept_Date":"2019-12-14 14"},"coordinates":[1362,4129]},{"type":"Point","properties":{"Station_ID":"42.1284_079.8945","Station_Nam":"NORTHEAST 6SW (CLE0249)","Latitude":"42.12840","Longitude":"-79.89450","Snowdepth":"8.000","Units":"in","Rept_Date":"2019-12-14 23"},"coordinates":[4491,2072]},{"type":"Point","properties":{"Station_ID":"QLP","Station_Nam":"QLP","Latitude":"48.13920","Longitude":"-72.63830","Snowdepth":"7.874","Units":"in","Rept_Date":"2019-12-14 12"},"coordinates":[6369,7036]},{"type":"Point","properties":{"Station_ID":"MI-OT-17","Station_Nam":"GAYLORD 4.1 S, MI","Latitude":"44.96388","Longitude":"-84.68467","Snowdepth":"7.500","Units":"in","Rept_Date":"2019-12-14 12"},"coordinates":[3250,4413]},{"type":"Point","properties":{"Station_ID":"CAN-NB-13","Station_Nam":"BATHURST 3.8 NW, CAN","Latitude":"47.64212","Longitude":"-65.68756","Snowdepth":"7.500","Units":"in","Rept_Date":"2019-12-14 11"},"coordinates":[8169,6625]},{"type":"Point","properties":{"Station_ID":"FTHQ6","Station_Nam":"FORT HOPE","Latitude":"51.55820","Longitude":"-87.90510","Snowdepth":"7.400","Units":"in","Rept_Date":"2019-12-15 06"},"coordinates":[2417,9860]},{"type":"Point","properties":{"Station_ID":"CAN-MB-368","Station_Nam":"WHITESHELL 1.3 NE, CAN","Latitude":"49.74405","Longitude":"-95.19123","Snowdepth":"7.300","Units":"in","Rept_Date":"2019-12-14 14"},"coordinates":[530,8361]},{"type":"Point","properties":{"Station_ID":"MN-RM-99","Station_Nam":"ROSEVILLE 0.7 SSE, MN","Latitude":"45.00583","Longitude":"-93.15040","Snowdepth":"7.200","Units":"in","Rept_Date":"2019-12-14 13"},"coordinates":[1058,4448]},{"type":"Point","properties":{"Station_ID":"QWG","Station_Nam":"QWG","Latitude":"48.48890","Longitude":"-73.45940","Snowdepth":"7.126","Units":"in","Rept_Date":"2019-12-14 12"},"coordinates":[6157,7325]},{"type":"Point","properties":{"Station_ID":"WI-BN-6","Station_Nam":"SUAMICO 4.4 WNW, WI","Latitude":"44.66111","Longitude":"-88.11780","Snowdepth":"7.000","Units":"in","Rept_Date":"2019-12-14 13"},"coordinates":[2361,4163]},{"type":"Point","properties":{"Station_ID":"STPW3","Station_Nam":"STEVENS POINT","Latitude":"44.51130","Longitude":"-89.58550","Snowdepth":"7.000","Units":"in","Rept_Date":"2019-12-14 13"},"coordinates":[1981,4040]},{"type":"Point","properties":{"Station_ID":"SPRI4","Station_Nam":"SPIRIT LAKE","Latitude":"43.42310","Longitude":"-95.10000","Snowdepth":"7.000","Units":"in","Rept_Date":"2019-12-14 13"},"coordinates":[554,3141]},{"type":"Point","properties":{"Station_ID":"ROBW3","Station_Nam":"ROBERTS WWTP","Latitude":"44.97070","Longitude":"-92.56200","Snowdepth":"7.000","Units":"in","Rept_Date":"2019-12-14 14"},"coordinates":[1211,4419]},{"type":"Point","properties":{"Station_ID":"RFDM5","Station_Nam":"ROCKFORD","Latitude":"45.08960","Longitude":"-93.73990","Snowdepth":"7.000","Units":"in","Rept_Date":"2019-12-14 13"},"coordinates":[906,4517]},{"type":"Point","properties":{"Station_ID":"PELW3","Station_Nam":"PELLA 3SE","Latitude":"44.73580","Longitude":"-88.73780","Snowdepth":"7.000","Units":"in","Rept_Date":"2019-12-14 11"},"coordinates":[2201,4225]},{"type":"Point","properties":{"Station_ID":"NY-JF-30","Station_Nam":"WEST CARTHAGE 0.3 ENE, NY","Latitude":"43.97493","Longitude":"-75.61640","Snowdepth":"7.000","Units":"in","Rept_Date":"2019-12-14 12"},"coordinates":[5598,3597]},{"type":"Point","properties":{"Station_ID":"NY-AB-1","Station_Nam":"ALTAMONT 2.7 SSW, NY","Latitude":"42.66696","Longitude":"-74.05090","Snowdepth":"7.000","Units":"in","Rept_Date":"2019-12-14 13"},"coordinates":[6003,2516]},{"type":"Point","properties":{"Station_ID":"MNIMTS5D","Station_Nam":"ROCKFORD 0.2 SW","Latitude":"45.07964","Longitude":"-93.74464","Snowdepth":"7.000","Units":"in","Rept_Date":"2019-12-14 13"},"coordinates":[905,4509]},{"type":"Point","properties":{"Station_ID":"MNDI83EN","Station_Nam":"ELGIN 2.2 SSW","Latitude":"44.10044","Longitude":"-92.26947","Snowdepth":"7.000","Units":"in","Rept_Date":"2019-12-14 13"},"coordinates":[1287,3700]},{"type":"Point","properties":{"Station_ID":"MNBNKQLL","Station_Nam":"LAKEFIELD 1.9 NE","Latitude":"43.69634","Longitude":"-95.14496","Snowdepth":"7.000","Units":"in","Rept_Date":"2019-12-14 13"},"coordinates":[542,3367]},{"type":"Point","properties":{"Station_ID":"MN7M8EBJ","Station_Nam":"LUTSEN 15.7 NNW","Latitude":"47.85324","Longitude":"-89.92908","Snowdepth":"7.000","Units":"in","Rept_Date":"2019-12-14 14"},"coordinates":[1892,6800]},{"type":"Point","properties":{"Station_ID":"MN-SC-2","Station_Nam":"PRIOR LAKE 2.0 W, MN","Latitude":"44.71250","Longitude":"-93.46360","Snowdepth":"7.000","Units":"in","Rept_Date":"2019-12-14 15"},"coordinates":[977,4206]},{"type":"Point","properties":{"Station_ID":"MN-HN-78","Station_Nam":"RICHFIELD 1.9 WNW, MN","Latitude":"44.89129","Longitude":"-93.31410","Snowdepth":"7.000","Units":"in","Rept_Date":"2019-12-14 11"},"coordinates":[1016,4354]},{"type":"Point","properties":{"Station_ID":"MN-HN-72","Station_Nam":"MAPLE GROVE 2.9 NE, MN","Latitude":"45.13953","Longitude":"-93.42070","Snowdepth":"7.000","Units":"in","Rept_Date":"2019-12-14 14"},"coordinates":[988,4559]},{"type":"Point","properties":{"Station_ID":"MI-CX-7","Station_Nam":"EAST JORDAN 2.1 NNW, MI","Latitude":"45.18639","Longitude":"-85.14750","Snowdepth":"7.000","Units":"in","Rept_Date":"2019-12-14 13"},"coordinates":[3130,4597]},{"type":"Point","properties":{"Station_ID":"ME-AR-15","Station_Nam":"PRESQUE ISLE 1.3 WSW, ME","Latitude":"46.67960","Longitude":"-68.01270","Snowdepth":"7.000","Units":"in","Rept_Date":"2019-12-14 12"},"coordinates":[7567,5830]},{"type":"Point","properties":{"Station_ID":"MA-HS-7","Station_Nam":"PLAINFIELD 2.2 SW, MA","Latitude":"42.49272","Longitude":"-72.94540","Snowdepth":"7.000","Units":"in","Rept_Date":"2019-12-14 13"},"coordinates":[6290,2373]},{"type":"Point","properties":{"Station_ID":"LKFM5","Station_Nam":"LAKEFIELD,MN","Latitude":"43.68330","Longitude":"-95.18330","Snowdepth":"7.000","Units":"in","Rept_Date":"2019-12-14 13"},"coordinates":[532,3356]},{"type":"Point","properties":{"Station_ID":"EJNM4","Station_Nam":"EAST JORDAN 2NW","Latitude":"45.18630","Longitude":"-85.14770","Snowdepth":"7.000","Units":"in","Rept_Date":"2019-12-14 13"},"coordinates":[3130,4597]},{"type":"Point","properties":{"Station_ID":"EGNM5","Station_Nam":"ELGIN 2SSW","Latitude":"44.09700","Longitude":"-92.27010","Snowdepth":"7.000","Units":"in","Rept_Date":"2019-12-14 13"},"coordinates":[1286,3698]},{"type":"Point","properties":{"Station_ID":"CAR","Station_Nam":"CARIBOU, ME","Latitude":"46.86830","Longitude":"-68.01360","Snowdepth":"7.000","Units":"in","Rept_Date":"2019-12-14 12"},"coordinates":[7567,5986]},{"type":"Point","properties":{"Station_ID":"ANDM1","Station_Nam":"ANDOVER 2","Latitude":"44.65300","Longitude":"-70.79410","Snowdepth":"7.000","Units":"in","Rept_Date":"2019-12-14 12"},"coordinates":[6847,4157]},{"type":"Point","properties":{"Station_ID":"ALTM5","Station_Nam":"ALTURA 5W","Latitude":"44.06330","Longitude":"-92.03970","Snowdepth":"7.000","Units":"in","Rept_Date":"2019-12-14 13"},"coordinates":[1346,3670]},{"type":"Point","properties":{"Station_ID":"NY-HR-18","Station_Nam":"SALISBURY CENTER 1.8 NW, NY","Latitude":"43.16260","Longitude":"-74.80880","Snowdepth":"6.800","Units":"in","Rept_Date":"2019-12-14 11"},"coordinates":[5807,2926]},{"type":"Point","properties":{"Station_ID":"MN-PK-15","Station_Nam":"MENTOR 2.5 SSW, MN","Latitude":"47.66625","Longitude":"-96.17328","Snowdepth":"6.800","Units":"in","Rept_Date":"2019-12-14 13"},"coordinates":[276,6645]},{"type":"Point","properties":{"Station_ID":"MN-SR-24","Station_Nam":"PAYNESVILLE 1.9 SSW, MN","Latitude":"45.35170","Longitude":"-94.73120","Snowdepth":"6.500","Units":"in","Rept_Date":"2019-12-14 13"},"coordinates":[649,4734]},{"type":"Point","properties":{"Station_ID":"MN-RM-54","Station_Nam":"SAINT PAUL 5.1 SW, MN","Latitude":"44.90390","Longitude":"-93.18820","Snowdepth":"6.500","Units":"in","Rept_Date":"2019-12-14 13"},"coordinates":[1049,4364]},{"type":"Point","properties":{"Station_ID":"MN-HN-31","Station_Nam":"MAPLE GROVE 1.0 NNE, MN","Latitude":"45.12261","Longitude":"-93.45790","Snowdepth":"6.500","Units":"in","Rept_Date":"2019-12-14 16"},"coordinates":[979,4545]},{"type":"Point","properties":{"Station_ID":"MN-GH-28","Station_Nam":"CANNON FALLS 0.5 SE, MN","Latitude":"44.50866","Longitude":"-92.89526","Snowdepth":"6.500","Units":"in","Rept_Date":"2019-12-14 14"},"coordinates":[1125,4038]},{"type":"Point","properties":{"Station_ID":"WSKM5","Station_Nam":"WASKISH,MN","Latitude":"48.21670","Longitude":"-94.43330","Snowdepth":"6.000","Units":"in","Rept_Date":"2019-12-14 14"},"coordinates":[726,7100]},{"type":"Point","properties":{"Station_ID":"WRNM5","Station_Nam":"WORTHINGTON,MN","Latitude":"43.65440","Longitude":"-95.57920","Snowdepth":"6.000","Units":"in","Rept_Date":"2019-12-14 13"},"coordinates":[430,3332]},{"type":"Point","properties":{"Station_ID":"WIRW3","Station_Nam":"WIS RAPIDS GRAND AV B","Latitude":"44.39940","Longitude":"-89.83050","Snowdepth":"6.000","Units":"in","Rept_Date":"2019-12-14 13"},"coordinates":[1918,3947]},{"type":"Point","properties":{"Station_ID":"WI-PK-4","Station_Nam":"DRESSER 6.1 ESE, WI","Latitude":"45.32436","Longitude":"-92.52080","Snowdepth":"6.000","Units":"in","Rept_Date":"2019-12-14 14"},"coordinates":[1221,4711]},{"type":"Point","properties":{"Station_ID":"WI-DR-6","Station_Nam":"SISTER BAY 1.3 NNE, WI","Latitude":"45.20296","Longitude":"-87.11326","Snowdepth":"6.000","Units":"in","Rept_Date":"2019-12-14 12"},"coordinates":[2622,4611]},{"type":"Point","properties":{"Station_ID":"WI-DR-12","Station_Nam":"BAILEYS HARBOR 2.3 WNW, WI","Latitude":"45.07416","Longitude":"-87.16972","Snowdepth":"6.000","Units":"in","Rept_Date":"2019-12-14 13"},"coordinates":[2607,4505]},{"type":"Point","properties":{"Station_ID":"WDOM5","Station_Nam":"WINDOM","Latitude":"43.87700","Longitude":"-95.11590","Snowdepth":"6.000","Units":"in","Rept_Date":"2019-12-14 14"},"coordinates":[550,3516]},{"type":"Point","properties":{"Station_ID":"WACM5","Station_Nam":"WACONIA","Latitude":"44.85330","Longitude":"-93.80260","Snowdepth":"6.000","Units":"in","Rept_Date":"2019-12-14 12"},"coordinates":[890,4322]},{"type":"Point","properties":{"Station_ID":"VANM1","Station_Nam":"VAN BUREN","Latitude":"47.16600","Longitude":"-67.93900","Snowdepth":"6.000","Units":"in","Rept_Date":"2019-12-14 12"},"coordinates":[7586,6232]},{"type":"Point","properties":{"Station_ID":"SHHN6","Station_Nam":"SCHOHARIE VILLAGE","Latitude":"42.66500","Longitude":"-74.30360","Snowdepth":"6.000","Units":"in","Rept_Date":"2019-12-14 12"},"coordinates":[5938,2515]},{"type":"Point","properties":{"Station_ID":"PBAN8","Station_Nam":"SITE 1-3MI.N","Latitude":"48.97420","Longitude":"-97.23860","Snowdepth":"6.000","Units":"in","Rept_Date":"2019-12-14 15"},"coordinates":[0,7726]},{"type":"Point","properties":{"Station_ID":"ONAM4","Station_Nam":"ONAWAY 4N","Latitude":"45.41080","Longitude":"-84.22330","Snowdepth":"6.000","Units":"in","Rept_Date":"2019-12-14 23"},"coordinates":[3370,4783]},{"type":"Point","properties":{"Station_ID":"NY-SR-22","Station_Nam":"GREENFIELD CENTER 1.6 W, NY","Latitude":"43.12684","Longitude":"-73.87860","Snowdepth":"6.000","Units":"in","Rept_Date":"2019-12-14 13"},"coordinates":[6048,2896]},{"type":"Point","properties":{"Station_ID":"NY-AB-54","Station_Nam":"ALTAMONT 2.9 SW, NY","Latitude":"42.68182","Longitude":"-74.08326","Snowdepth":"6.000","Units":"in","Rept_Date":"2019-12-14 15"},"coordinates":[5995,2529]},{"type":"Point","properties":{"Station_ID":"MSCM5","Station_Nam":"MINNESOTA CITY","Latitude":"44.16000","Longitude":"-91.81220","Snowdepth":"6.000","Units":"in","Rept_Date":"2019-12-14 14"},"coordinates":[1405,3750]},{"type":"Point","properties":{"Station_ID":"MPXM5","Station_Nam":"CHANHASSEN WSFO","Latitude":"44.84960","Longitude":"-93.56440","Snowdepth":"6.000","Units":"in","Rept_Date":"2019-12-15 06"},"coordinates":[951,4319]},{"type":"Point","properties":{"Station_ID":"MNKQ8XME","Station_Nam":"MELROSE 0.7 NW","Latitude":"45.68070","Longitude":"-94.82005","Snowdepth":"6.000","Units":"in","Rept_Date":"2019-12-14 13"},"coordinates":[626,5005]},{"type":"Point","properties":{"Station_ID":"MNHMOECS","Station_Nam":"HAZELTINE 1.9 NE","Latitude":"44.85545","Longitude":"-93.57125","Snowdepth":"6.000","Units":"in","Rept_Date":"2019-12-14 12"},"coordinates":[950,4324]},{"type":"Point","properties":{"Station_ID":"MNG0GYSN","Station_Nam":"LONSDALE 1.1 SSW","Latitude":"44.46445","Longitude":"-93.43293","Snowdepth":"6.000","Units":"in","Rept_Date":"2019-12-14 12"},"coordinates":[985,4001]},{"type":"Point","properties":{"Station_ID":"MN0HS1SL","Station_Nam":"NORTH SAINT PAUL 1.6 NW","Latitude":"45.02800","Longitude":"-93.01506","Snowdepth":"6.000","Units":"in","Rept_Date":"2019-12-14 13"},"coordinates":[1094,4466]},{"type":"Point","properties":{"Station_ID":"MN-SV-4","Station_Nam":"DONNELLY 2.9 NW, MN","Latitude":"45.71649","Longitude":"-96.06043","Snowdepth":"6.000","Units":"in","Rept_Date":"2019-12-14 14"},"coordinates":[305,5035]},{"type":"Point","properties":{"Station_ID":"MN-SE-2","Station_Nam":"OWATONNA 0.8 E, MN","Latitude":"44.09170","Longitude":"-93.21380","Snowdepth":"6.000","Units":"in","Rept_Date":"2019-12-14 13"},"coordinates":[1042,3693]},{"type":"Point","properties":{"Station_ID":"MN-RM-63","Station_Nam":"NORTH SAINT PAUL 1.0 NW, MN","Latitude":"45.02410","Longitude":"-93.01400","Snowdepth":"6.000","Units":"in","Rept_Date":"2019-12-14 13"},"coordinates":[1094,4463]},{"type":"Point","properties":{"Station_ID":"MN-RC-1","Station_Nam":"MONTGOMERY 3.2 ENE, MN","Latitude":"44.46400","Longitude":"-93.51980","Snowdepth":"6.000","Units":"in","Rept_Date":"2019-12-14 10"},"coordinates":[963,4001]},{"type":"Point","properties":{"Station_ID":"MN-HN-88","Station_Nam":"GOLDEN VALLEY 0.8 WSW, MN","Latitude":"44.98461","Longitude":"-93.37440","Snowdepth":"6.000","Units":"in","Rept_Date":"2019-12-14 13"},"coordinates":[1000,4431]},{"type":"Point","properties":{"Station_ID":"MN-HN-110","Station_Nam":"EDINA 1.9 SSE, MN","Latitude":"44.86875","Longitude":"-93.33940","Snowdepth":"6.000","Units":"in","Rept_Date":"2019-12-14 13"},"coordinates":[1010,4335]},{"type":"Point","properties":{"Station_ID":"MLRM5","Station_Nam":"MELROSE","Latitude":"45.67710","Longitude":"-94.80200","Snowdepth":"6.000","Units":"in","Rept_Date":"2019-12-14 13"},"coordinates":[631,5003]},{"type":"Point","properties":{"Station_ID":"MA-WR-54","Station_Nam":"BARRE 1.4 NNE, MA","Latitude":"42.44082","Longitude":"-72.09591","Snowdepth":"6.000","Units":"in","Rept_Date":"2019-12-14 12"},"coordinates":[6510,2330]},{"type":"Point","properties":{"Station_ID":"GHMN3","Station_Nam":"PINKHAM NOTCH","Latitude":"44.25800","Longitude":"-71.25250","Snowdepth":"6.000","Units":"in","Rept_Date":"2019-12-14 10"},"coordinates":[6728,3830]},{"type":"Point","properties":{"Station_ID":"FORW3","Station_Nam":"FORESTVILLE-4E","Latitude":"44.69780","Longitude":"-87.39690","Snowdepth":"6.000","Units":"in","Rept_Date":"2019-12-14 14"},"coordinates":[2548,4194]},{"type":"Point","properties":{"Station_ID":"FISW3","Station_Nam":"FISH CREEK 1 E WWTP","Latitude":"45.12420","Longitude":"-87.22920","Snowdepth":"6.000","Units":"in","Rept_Date":"2019-12-14 13"},"coordinates":[2592,4546]},{"type":"Point","properties":{"Station_ID":"BKEM5","Station_Nam":"BRECKENRIDGE 4NE","Latitude":"46.30470","Longitude":"-96.52170","Snowdepth":"6.000","Units":"in","Rept_Date":"2019-12-14 13"},"coordinates":[186,5521]},{"type":"Point","properties":{"Station_ID":"AVLV1","Station_Nam":"AVERILL","Latitude":"45.00570","Longitude":"-71.69030","Snowdepth":"6.000","Units":"in","Rept_Date":"2019-12-14 13"},"coordinates":[6615,4448]},{"type":"Point","properties":{"Station_ID":"APXM4","Station_Nam":"GAYLORD 9SSW","Latitude":"44.90720","Longitude":"-84.71880","Snowdepth":"6.000","Units":"in","Rept_Date":"2019-12-15 06"},"coordinates":[3241,4367]},{"type":"Point","properties":{"Station_ID":"ALMW3","Station_Nam":"ALMA DAM 4","Latitude":"44.32710","Longitude":"-91.91940","Snowdepth":"6.000","Units":"in","Rept_Date":"2019-12-14 14"},"coordinates":[1377,3888]},{"type":"Point","properties":{"Station_ID":"ABNM3","Station_Nam":"ASHBURNHAM NORTH","Latitude":"42.66170","Longitude":"-71.93590","Snowdepth":"6.000","Units":"in","Rept_Date":"2019-12-14 12"},"coordinates":[6551,2512]},{"type":"Point","properties":{"Station_ID":"NH-CS-10","Station_Nam":"RANDOLPH 1.4 NE, NH","Latitude":"44.38824","Longitude":"-71.26950","Snowdepth":"5.500","Units":"in","Rept_Date":"2019-12-14 12"},"coordinates":[6724,3938]},{"type":"Point","properties":{"Station_ID":"MI-OT-16","Station_Nam":"GAYLORD 2.2 SSE, MI","Latitude":"44.99441","Longitude":"-84.65820","Snowdepth":"5.500","Units":"in","Rept_Date":"2019-12-14 13"},"coordinates":[3257,4439]},{"type":"Point","properties":{"Station_ID":"CAN-MB-32","Station_Nam":"PINAWA 1.0 SW, CA","Latitude":"50.14747","Longitude":"-95.89020","Snowdepth":"5.500","Units":"in","Rept_Date":"2019-12-14 13"},"coordinates":[349,8695]},{"type":"Point","properties":{"Station_ID":"MN-FM-10","Station_Nam":"WYKOFF 3.1 NW, MN","Latitude":"43.74340","Longitude":"-92.30650","Snowdepth":"5.300","Units":"in","Rept_Date":"2019-12-14 13"},"coordinates":[1277,3405]},{"type":"Point","properties":{"Station_ID":"CAN-MB-298","Station_Nam":"GARDENTON 4.2 W - SRRCD, CAN","Latitude":"49.09480","Longitude":"-96.75446","Snowdepth":"5.100","Units":"in","Rept_Date":"2019-12-14 14"},"coordinates":[125,7825]},{"type":"Point","properties":{"Station_ID":"WRUM5","Station_Nam":"WARROAD 4W","Latitude":"48.89600","Longitude":"-95.40700","Snowdepth":"5.000","Units":"in","Rept_Date":"2019-12-15 04"},"coordinates":[474,7661]},{"type":"Point","properties":{"Station_ID":"WNNM5","Station_Nam":"WINNEBAGO","Latitude":"43.76920","Longitude":"-94.18730","Snowdepth":"5.000","Units":"in","Rept_Date":"2019-12-14 13"},"coordinates":[790,3427]},{"type":"Point","properties":{"Station_ID":"WIPW3","Station_Nam":"WISCONSIN RAPIDS-SOUTHEAST","Latitude":"44.38190","Longitude":"-89.80470","Snowdepth":"5.000","Units":"in","Rept_Date":"2019-12-14 13"},"coordinates":[1925,3933]},{"type":"Point","properties":{"Station_ID":"VADM5","Station_Nam":"VADNAIS LAKE","Latitude":"45.04820","Longitude":"-93.09590","Snowdepth":"5.000","Units":"in","Rept_Date":"2019-12-14 20"},"coordinates":[1073,4483]},{"type":"Point","properties":{"Station_ID":"SHIW3","Station_Nam":"SHIOCTON","Latitude":"44.43890","Longitude":"-88.58390","Snowdepth":"5.000","Units":"in","Rept_Date":"2019-12-14 14"},"coordinates":[2241,3980]},{"type":"Point","properties":{"Station_ID":"SGVN6","Station_Nam":"SPRINGVILLE","Latitude":"42.54970","Longitude":"-78.57670","Snowdepth":"5.000","Units":"in","Rept_Date":"2019-12-15 01"},"coordinates":[4832,2420]},{"type":"Point","properties":{"Station_ID":"ROWM3","Station_Nam":"ROWE 3NE","Latitude":"42.73500","Longitude":"-72.86920","Snowdepth":"5.000","Units":"in","Rept_Date":"2019-12-14 12"},"coordinates":[6309,2573]},{"type":"Point","properties":{"Station_ID":"PEKN6","Station_Nam":"PECK LAKE","Latitude":"43.11500","Longitude":"-74.42360","Snowdepth":"5.000","Units":"in","Rept_Date":"2019-12-14 12"},"coordinates":[5907,2886]},{"type":"Point","properties":{"Station_ID":"NH-HL-48","Station_Nam":"GREENVILLE 1.1 ENE, NH","Latitude":"42.77674","Longitude":"-71.77990","Snowdepth":"5.000","Units":"in","Rept_Date":"2019-12-14 14"},"coordinates":[6591,2607]},{"type":"Point","properties":{"Station_ID":"MRLV1","Station_Nam":"MARLBORO","Latitude":"42.86000","Longitude":"-72.72000","Snowdepth":"5.000","Units":"in","Rept_Date":"2019-12-14 12"},"coordinates":[6348,2676]},{"type":"Point","properties":{"Station_ID":"MRFS2","Station_Nam":"MADISON,SD","Latitude":"44.00000","Longitude":"-97.23330","Snowdepth":"5.000","Units":"in","Rept_Date":"2019-12-14 15"},"coordinates":[1,3617]},{"type":"Point","properties":{"Station_ID":"MNGVNTGN","Station_Nam":"JORDAN 1.1 SSW","Latitude":"44.65244","Longitude":"-93.63402","Snowdepth":"5.000","Units":"in","Rept_Date":"2019-12-14 11"},"coordinates":[933,4156]},{"type":"Point","properties":{"Station_ID":"MNE9SLWI","Station_Nam":"LEAVENWORTH 5.4 S","Latitude":"44.14481","Longitude":"-94.78882","Snowdepth":"5.000","Units":"in","Rept_Date":"2019-12-14 13"},"coordinates":[634,3737]},{"type":"Point","properties":{"Station_ID":"MNC40YWG","Station_Nam":"WINNEBAGO 0.4 E","Latitude":"43.77370","Longitude":"-94.16484","Snowdepth":"5.000","Units":"in","Rept_Date":"2019-12-14 13"},"coordinates":[796,3431]},{"type":"Point","properties":{"Station_ID":"MN-WG-74","Station_Nam":"OAKDALE 0.4 S, MN","Latitude":"44.98208","Longitude":"-92.96510","Snowdepth":"5.000","Units":"in","Rept_Date":"2019-12-14 13"},"coordinates":[1106,4429]},{"type":"Point","properties":{"Station_ID":"MN-SC-33","Station_Nam":"SHAKOPEE 2.6 W, MN","Latitude":"44.78173","Longitude":"-93.52868","Snowdepth":"5.000","Units":"in","Rept_Date":"2019-12-14 15"},"coordinates":[961,4263]},{"type":"Point","properties":{"Station_ID":"MN-RM-15","Station_Nam":"ROSEVILLE 2.1 NW, MN","Latitude":"45.03502","Longitude":"-93.18620","Snowdepth":"5.000","Units":"in","Rept_Date":"2019-12-14 12"},"coordinates":[1049,4472]},{"type":"Point","properties":{"Station_ID":"MN-GH-3","Station_Nam":"LAKE CITY 1.2 NNW, MN","Latitude":"44.45597","Longitude":"-92.29070","Snowdepth":"5.000","Units":"in","Rept_Date":"2019-12-14 13"},"coordinates":[1281,3994]},{"type":"Point","properties":{"Station_ID":"ME-PN-45","Station_Nam":"MILLINOCKET 2.7 ESE, ME","Latitude":"45.65002","Longitude":"-68.64472","Snowdepth":"5.000","Units":"in","Rept_Date":"2019-12-14 12"},"coordinates":[7403,4980]},{"type":"Point","properties":{"Station_ID":"LBRM5","Station_Nam":"LAKE BRONSON DAM","Latitude":"48.72410","Longitude":"-96.62180","Snowdepth":"5.000","Units":"in","Rept_Date":"2019-12-14 14"},"coordinates":[160,7519]},{"type":"Point","properties":{"Station_ID":"LBKV1","Station_Nam":"LYE BROOK","Latitude":"43.05000","Longitude":"-73.03330","Snowdepth":"5.000","Units":"in","Rept_Date":"2019-12-15 06"},"coordinates":[6267,2833]},{"type":"Point","properties":{"Station_ID":"JORM5","Station_Nam":"JORDAN 1SSW","Latitude":"44.65010","Longitude":"-93.63560","Snowdepth":"5.000","Units":"in","Rept_Date":"2019-12-14 11"},"coordinates":[933,4154]},{"type":"Point","properties":{"Station_ID":"FBTM5","Station_Nam":"FARIBAULT","Latitude":"44.30920","Longitude":"-93.26600","Snowdepth":"5.000","Units":"in","Rept_Date":"2019-12-14 13"},"coordinates":[1029,3873]},{"type":"Point","properties":{"Station_ID":"DLSN6","Station_Nam":"DELANSON 2NE","Latitude":"42.76720","Longitude":"-74.17110","Snowdepth":"5.000","Units":"in","Rept_Date":"2019-12-14 12"},"coordinates":[5972,2599]},{"type":"Point","properties":{"Station_ID":"CARM1","Station_Nam":"CARIBOU WFO","Latitude":"46.86810","Longitude":"-68.01250","Snowdepth":"5.000","Units":"in","Rept_Date":"2019-12-15 05"},"coordinates":[7567,5986]},{"type":"Point","properties":{"Station_ID":"CAN-ON-245","Station_Nam":"PHELPSTON 3.1 ESE, CAN","Latitude":"44.50564","Longitude":"-79.81035","Snowdepth":"5.000","Units":"in","Rept_Date":"2019-12-14 15"},"coordinates":[4512,4035]},{"type":"Point","properties":{"Station_ID":"BRDM1","Station_Nam":"BRIDGEWATER","Latitude":"46.42870","Longitude":"-67.84370","Snowdepth":"5.000","Units":"in","Rept_Date":"2019-12-14 23"},"coordinates":[7611,5623]},{"type":"Point","properties":{"Station_ID":"BRAM1","Station_Nam":"BRASSUA DAM","Latitude":"45.66020","Longitude":"-69.81190","Snowdepth":"5.000","Units":"in","Rept_Date":"2019-12-14 12"},"coordinates":[7101,4989]},{"type":"Point","properties":{"Station_ID":"BLKW3","Station_Nam":"BLACK RIVER FALLS SEWAGE","Latitude":"44.29040","Longitude":"-90.85360","Snowdepth":"5.000","Units":"in","Rept_Date":"2019-12-14 13"},"coordinates":[1653,3857]},{"type":"Point","properties":{"Station_ID":"ARX","Station_Nam":"LA CROSSE, WI","Latitude":"43.82280","Longitude":"-91.19190","Snowdepth":"5.000","Units":"in","Rept_Date":"2019-12-15 06"},"coordinates":[1566,3471]},{"type":"Point","properties":{"Station_ID":"NY-SC-20","Station_Nam":"ROTTERDAM 0.9 NW, NY","Latitude":"42.78862","Longitude":"-73.96671","Snowdepth":"4.500","Units":"in","Rept_Date":"2019-12-14 14"},"coordinates":[6025,2617]},{"type":"Point","properties":{"Station_ID":"NY-OD-2","Station_Nam":"POINT ROCK 0.6 SE, NY","Latitude":"43.37335","Longitude":"-75.53840","Snowdepth":"4.500","Units":"in","Rept_Date":"2019-12-14 13"},"coordinates":[5618,3100]},{"type":"Point","properties":{"Station_ID":"MN-MW-8","Station_Nam":"AUSTIN 2.4 W, MN","Latitude":"43.67190","Longitude":"-93.02280","Snowdepth":"4.500","Units":"in","Rept_Date":"2019-12-14 13"},"coordinates":[1092,3346]},{"type":"Point","properties":{"Station_ID":"MN-HN-17","Station_Nam":"EDEN PRAIRIE 3.3 WSW, MN","Latitude":"44.82940","Longitude":"-93.52010","Snowdepth":"4.500","Units":"in","Rept_Date":"2019-12-14 14"},"coordinates":[963,4302]},{"type":"Point","properties":{"Station_ID":"MN-BW-8","Station_Nam":"COMFREY 6.5 ENE, MN","Latitude":"44.15109","Longitude":"-94.78516","Snowdepth":"4.500","Units":"in","Rept_Date":"2019-12-14 13"},"coordinates":[635,3742]},{"type":"Point","properties":{"Station_ID":"MA-FR-13","Station_Nam":"CONWAY 2.9 NW, MA","Latitude":"42.54419","Longitude":"-72.72743","Snowdepth":"4.500","Units":"in","Rept_Date":"2019-12-14 12"},"coordinates":[6346,2415]},{"type":"Point","properties":{"Station_ID":"E0729_MADIS","Station_Nam":"EW0729 ROCHESTER","Latitude":"44.03983","Longitude":"-92.43770","Snowdepth":"4.500","Units":"in","Rept_Date":"2019-12-14 07"},"coordinates":[1243,3650]},{"type":"Point","properties":{"Station_ID":"WWWW3","Station_Nam":"WAUPACA","Latitude":"44.35470","Longitude":"-89.05920","Snowdepth":"4.000","Units":"in","Rept_Date":"2019-12-14 14"},"coordinates":[2118,3910]},{"type":"Point","properties":{"Station_ID":"WRTS2","Station_Nam":"WATERTOWN,SD","Latitude":"44.90280","Longitude":"-97.11360","Snowdepth":"4.000","Units":"in","Rept_Date":"2019-12-14 15"},"coordinates":[32,4363]},{"type":"Point","properties":{"Station_ID":"WORM3","Station_Nam":"WORTHINGTON","Latitude":"42.38690","Longitude":"-72.92100","Snowdepth":"4.000","Units":"in","Rept_Date":"2019-12-14 12"},"coordinates":[6296,2285]},{"type":"Point","properties":{"Station_ID":"WI-OG-12","Station_Nam":"KAUKAUNA 1.5 SW, WI","Latitude":"44.26062","Longitude":"-88.28590","Snowdepth":"4.000","Units":"in","Rept_Date":"2019-12-14 12"},"coordinates":[2318,3833]},{"type":"Point","properties":{"Station_ID":"WI-BN-14","Station_Nam":"GREEN BAY 3.8 SSE, WI","Latitude":"44.46772","Longitude":"-87.97350","Snowdepth":"4.000","Units":"in","Rept_Date":"2019-12-14 13"},"coordinates":[2399,4004]},{"type":"Point","properties":{"Station_ID":"WHTM5","Station_Nam":"WHEATON,MN","Latitude":"45.80000","Longitude":"-96.48330","Snowdepth":"4.000","Units":"in","Rept_Date":"2019-12-14 14"},"coordinates":[196,5104]},{"type":"Point","properties":{"Station_ID":"VT-WH-29","Station_Nam":"BRATTLEBORO 0.7 S, VT","Latitude":"42.84030","Longitude":"-72.55580","Snowdepth":"4.000","Units":"in","Rept_Date":"2019-12-14 12"},"coordinates":[6391,2660]},{"type":"Point","properties":{"Station_ID":"SIWS2","Station_Nam":"SISSETON 3W","Latitude":"45.65870","Longitude":"-97.12450","Snowdepth":"4.000","Units":"in","Rept_Date":"2019-12-14 13"},"coordinates":[30,4987]},{"type":"Point","properties":{"Station_ID":"SD-RB-1","Station_Nam":"SISSETON 3.8 W, SD","Latitude":"45.65865","Longitude":"-97.12370","Snowdepth":"4.000","Units":"in","Rept_Date":"2019-12-14 13"},"coordinates":[30,4987]},{"type":"Point","properties":{"Station_ID":"SD-CD-30","Station_Nam":"WATERTOWN 2.3 E, SD","Latitude":"44.91604","Longitude":"-97.11925","Snowdepth":"4.000","Units":"in","Rept_Date":"2019-12-14 14"},"coordinates":[31,4374]},{"type":"Point","properties":{"Station_ID":"SANI4","Station_Nam":"ST ANSGAR","Latitude":"43.38170","Longitude":"-92.92320","Snowdepth":"4.000","Units":"in","Rept_Date":"2019-12-14 12"},"coordinates":[1117,3107]},{"type":"Point","properties":{"Station_ID":"RST","Station_Nam":"ROCHESTER INTERNATIONAL ARPT","Latitude":"43.90890","Longitude":"-92.49780","Snowdepth":"4.000","Units":"in","Rept_Date":"2019-12-15 00"},"coordinates":[1227,3542]},{"type":"Point","properties":{"Station_ID":"RSRM5","Station_Nam":"ROCHESTER AP 2NE","Latitude":"43.92810","Longitude":"-92.47580","Snowdepth":"4.000","Units":"in","Rept_Date":"2019-12-15 00"},"coordinates":[1233,3558]},{"type":"Point","properties":{"Station_ID":"RKWM1","Station_Nam":"MOOSEHEAD LAKE","Latitude":"45.58330","Longitude":"-69.71670","Snowdepth":"4.000","Units":"in","Rept_Date":"2019-12-14 12"},"coordinates":[7126,4925]},{"type":"Point","properties":{"Station_ID":"PVRW3","Station_Nam":"PLOVER-2-E WATER TREATMENT PLANT","Latitude":"44.45920","Longitude":"-89.49530","Snowdepth":"4.000","Units":"in","Rept_Date":"2019-12-14 14"},"coordinates":[2005,3997]},{"type":"Point","properties":{"Station_ID":"OCON6","Station_Nam":"OSCEOLA","Latitude":"43.49910","Longitude":"-75.71210","Snowdepth":"4.000","Units":"in","Rept_Date":"2019-12-14 12"},"coordinates":[5573,3204]},{"type":"Point","properties":{"Station_ID":"NY-SR-4","Station_Nam":"SARATOGA SPRINGS 0.5 S, NY","Latitude":"43.06032","Longitude":"-73.78010","Snowdepth":"4.000","Units":"in","Rept_Date":"2019-12-14 11"},"coordinates":[6074,2841]},{"type":"Point","properties":{"Station_ID":"NY-SR-16","Station_Nam":"BALLSTON SPA 2.9 ESE, NY","Latitude":"42.99000","Longitude":"-73.80000","Snowdepth":"4.000","Units":"in","Rept_Date":"2019-12-14 13"},"coordinates":[6068,2783]},{"type":"Point","properties":{"Station_ID":"NUMM5","Station_Nam":"NEW ULM 3SE","Latitude":"44.29450","Longitude":"-94.40840","Snowdepth":"4.000","Units":"in","Rept_Date":"2019-12-14 11"},"coordinates":[733,3861]},{"type":"Point","properties":{"Station_ID":"MNF74YNU","Station_Nam":"NEW ULM 3.3 ESE","Latitude":"44.29029","Longitude":"-94.40196","Snowdepth":"4.000","Units":"in","Rept_Date":"2019-12-14 11"},"coordinates":[734,3857]},{"type":"Point","properties":{"Station_ID":"MIAM5","Station_Nam":"MILAN 1NW","Latitude":"45.12190","Longitude":"-95.92690","Snowdepth":"4.000","Units":"in","Rept_Date":"2019-12-15 00"},"coordinates":[340,4544]},{"type":"Point","properties":{"Station_ID":"MI-OT-4","Station_Nam":"GAYLORD 1.7 WNW, MI","Latitude":"45.03280","Longitude":"-84.71090","Snowdepth":"4.000","Units":"in","Rept_Date":"2019-12-14 13"},"coordinates":[3244,4470]},{"type":"Point","properties":{"Station_ID":"ME-FR-4","Station_Nam":"NEW SHARON 2.0 NW, ME","Latitude":"44.66582","Longitude":"-70.02720","Snowdepth":"4.000","Units":"in","Rept_Date":"2019-12-14 12"},"coordinates":[7045,4167]},{"type":"Point","properties":{"Station_ID":"ME-FR-22","Station_Nam":"FARMINGTON 4.8 NNW, ME","Latitude":"44.73396","Longitude":"-70.18007","Snowdepth":"4.000","Units":"in","Rept_Date":"2019-12-14 14"},"coordinates":[7006,4224]},{"type":"Point","properties":{"Station_ID":"MA-WR-22","Station_Nam":"FITCHBURG 2.0 NNE, MA","Latitude":"42.61671","Longitude":"-71.80100","Snowdepth":"4.000","Units":"in","Rept_Date":"2019-12-14 13"},"coordinates":[6586,2475]},{"type":"Point","properties":{"Station_ID":"LPLN6","Station_Nam":"LAKE PLACID 2 S","Latitude":"44.30420","Longitude":"-73.98390","Snowdepth":"4.000","Units":"in","Rept_Date":"2019-12-14 12"},"coordinates":[6021,3869]},{"type":"Point","properties":{"Station_ID":"LILM1","Station_Nam":"LILLE","Latitude":"47.27770","Longitude":"-68.10520","Snowdepth":"4.000","Units":"in","Rept_Date":"2019-12-14 12"},"coordinates":[7543,6324]},{"type":"Point","properties":{"Station_ID":"GAYM4","Station_Nam":"GAYLORD","Latitude":"45.03320","Longitude":"-84.71130","Snowdepth":"4.000","Units":"in","Rept_Date":"2019-12-14 13"},"coordinates":[3243,4471]},{"type":"Point","properties":{"Station_ID":"FCHM3","Station_Nam":"FITCHBURG COOP","Latitude":"42.61680","Longitude":"-71.80170","Snowdepth":"4.000","Units":"in","Rept_Date":"2019-12-14 13"},"coordinates":[6586,2475]},{"type":"Point","properties":{"Station_ID":"FARM1","Station_Nam":"FARMINGTON","Latitude":"44.68930","Longitude":"-70.15640","Snowdepth":"4.000","Units":"in","Rept_Date":"2019-12-14 12"},"coordinates":[7012,4187]},{"type":"Point","properties":{"Station_ID":"EVYI4","Station_Nam":"EVERLY,IA","Latitude":"43.18330","Longitude":"-95.36670","Snowdepth":"4.000","Units":"in","Rept_Date":"2019-12-14 13"},"coordinates":[485,2943]},{"type":"Point","properties":{"Station_ID":"ESGM1","Station_Nam":"EAST SANGERVILLE","Latitude":"45.13690","Longitude":"-69.28060","Snowdepth":"4.000","Units":"in","Rept_Date":"2019-12-14 12"},"coordinates":[7239,4556]},{"type":"Point","properties":{"Station_ID":"DENW3","Station_Nam":"DENMARK WWTP","Latitude":"44.35130","Longitude":"-87.81190","Snowdepth":"4.000","Units":"in","Rept_Date":"2019-12-14 14"},"coordinates":[2441,3908]},{"type":"Point","properties":{"Station_ID":"CHRM4","Station_Nam":"CHARLEVOIX","Latitude":"45.31720","Longitude":"-85.26720","Snowdepth":"4.000","Units":"in","Rept_Date":"2019-12-14 13"},"coordinates":[3099,4705]},{"type":"Point","properties":{"Station_ID":"CHES2","Station_Nam":"CHESTER 2N","Latitude":"43.92830","Longitude":"-96.93160","Snowdepth":"4.000","Units":"in","Rept_Date":"2019-12-14 13"},"coordinates":[79,3558]},{"type":"Point","properties":{"Station_ID":"ATY","Station_Nam":"WATERTOWN MUNICIPAL AIRPORT","Latitude":"44.91420","Longitude":"-97.15440","Snowdepth":"4.000","Units":"in","Rept_Date":"2019-12-14 12"},"coordinates":[22,4372]},{"type":"Point","properties":{"Station_ID":"AMHW3","Station_Nam":"AMHERST-3 SE","Latitude":"44.41280","Longitude":"-89.26390","Snowdepth":"4.000","Units":"in","Rept_Date":"2019-12-14 13"},"coordinates":[2065,3958]},{"type":"Point","properties":{"Station_ID":"AMDW3","Station_Nam":"ALMOND-5 NE","Latitude":"44.30830","Longitude":"-89.34640","Snowdepth":"4.000","Units":"in","Rept_Date":"2019-12-14 14"},"coordinates":[2043,3872]},{"type":"Point","properties":{"Station_ID":"CAN-NS-13","Station_Nam":"TRURO 5.0 ENE, CA","Latitude":"45.38252","Longitude":"-63.22810","Snowdepth":"3.900","Units":"in","Rept_Date":"2019-12-14 12"},"coordinates":[8806,4759]},{"type":"Point","properties":{"Station_ID":"NY-WR-10","Station_Nam":"WARRENSBURG 2.1 WNW, NY","Latitude":"43.51784","Longitude":"-73.81069","Snowdepth":"3.500","Units":"in","Rept_Date":"2019-12-14 13"},"coordinates":[6066,3219]},{"type":"Point","properties":{"Station_ID":"NY-SC-16","Station_Nam":"NISKAYUNA 2.0 N, NY","Latitude":"42.84645","Longitude":"-73.89920","Snowdepth":"3.500","Units":"in","Rept_Date":"2019-12-14 12"},"coordinates":[6043,2665]},{"type":"Point","properties":{"Station_ID":"NY-SC-11","Station_Nam":"SCHENECTADY 3.3 E, NY","Latitude":"42.79382","Longitude":"-73.86390","Snowdepth":"3.500","Units":"in","Rept_Date":"2019-12-14 14"},"coordinates":[6052,2621]},{"type":"Point","properties":{"Station_ID":"MN-WC-5","Station_Nam":"WASECA 0.9 NNE, MN","Latitude":"44.09451","Longitude":"-93.49289","Snowdepth":"3.500","Units":"in","Rept_Date":"2019-12-14 13"},"coordinates":[970,3695]},{"type":"Point","properties":{"Station_ID":"MA-FR-17","Station_Nam":"BUCKLAND 1.8 ESE, MA","Latitude":"42.58900","Longitude":"-72.75110","Snowdepth":"3.500","Units":"in","Rept_Date":"2019-12-14 13"},"coordinates":[6340,2452]},