{"type":"Topology","objects":{"snowdepth_geo":{"type":"GeometryCollection","name":"snowdepth","crs":{"type":"name","properties":{"name":"urn:ogc:def:crs:OGC:1.3:CRS84"}},"geometries":[{"type":"Point","properties":{"Station_ID":"PRKM4","Station_Nam":"MUNISING EAST","Latitude":"46.42580","Longitude":"-86.62000","Snowdepth":"76.500","Units":"in","Rept_Date":"2020-12-15 06"},"coordinates":[2376,7371]},{"type":"Point","properties":{"Station_ID":"CAN-NB-50","Station_Nam":"DOYLEVILLE 2.4 WNW, CAN","Latitude":"47.90803","Longitude":"-66.13279","Snowdepth":"23.400","Units":"in","Rept_Date":"2020-12-14 13"},"coordinates":[6984,8106]},{"type":"Point","properties":{"Station_ID":"QOU","Station_Nam":"QOU","Latitude":"50.79250","Longitude":"-69.67470","Snowdepth":"20.512","Units":"in","Rept_Date":"2020-12-14 12"},"coordinates":[6187,9536]},{"type":"Point","properties":{"Station_ID":"MLZ","Station_Nam":"MLZ","Latitude":"50.66170","Longitude":"-68.82360","Snowdepth":"20.118","Units":"in","Rept_Date":"2020-12-14 12"},"coordinates":[6379,9471]},{"type":"Point","properties":{"Station_ID":"QGO","Station_Nam":"QGO","Latitude":"48.85500","Longitude":"-74.20640","Snowdepth":"17.520","Units":"in","Rept_Date":"2020-12-14 12"},"coordinates":[5168,8575]},{"type":"Point","properties":{"Station_ID":"QCO","Station_Nam":"QCO","Latitude":"51.45280","Longitude":"-72.20110","Snowdepth":"17.047","Units":"in","Rept_Date":"2020-12-14 12"},"coordinates":[5619,9863]},{"type":"Point","properties":{"Station_ID":"QLB","Station_Nam":"QLB","Latitude":"50.72360","Longitude":"-75.10000","Snowdepth":"14.370","Units":"in","Rept_Date":"2020-12-14 12"},"coordinates":[4967,9502]},{"type":"Point","properties":{"Station_ID":"QCX","Station_Nam":"QCX","Latitude":"51.32830","Longitude":"-70.08060","Snowdepth":"12.992","Units":"in","Rept_Date":"2020-12-14 12"},"coordinates":[6096,9801]},{"type":"Point","properties":{"Station_ID":"CAN-ON-224","Station_Nam":"NAKINA 3.8 N - MNRF, CAN","Latitude":"50.21269","Longitude":"-86.70099","Snowdepth":"12.600","Units":"in","Rept_Date":"2020-12-14 15"},"coordinates":[2358,9248]},{"type":"Point","properties":{"Station_ID":"QTM","Station_Nam":"QTM","Latitude":"51.05780","Longitude":"-72.57190","Snowdepth":"12.362","Units":"in","Rept_Date":"2020-12-14 12"},"coordinates":[5536,9667]},{"type":"Point","properties":{"Station_ID":"QMD","Station_Nam":"QMD","Latitude":"49.29060","Longitude":"-75.84500","Snowdepth":"12.244","Units":"in","Rept_Date":"2020-12-14 12"},"coordinates":[4800,8791]},{"type":"Point","properties":{"Station_ID":"QTV","Station_Nam":"QTV","Latitude":"49.66000","Longitude":"-69.35690","Snowdepth":"12.205","Units":"in","Rept_Date":"2020-12-14 12"},"coordinates":[6259,8974]},{"type":"Point","properties":{"Station_ID":"ME-AR-18","Station_Nam":"NEW SWEDEN 4.9 NNW, ME","Latitude":"47.01080","Longitude":"-68.14390","Snowdepth":"12.000","Units":"in","Rept_Date":"2020-12-14 11"},"coordinates":[6532,7661]},{"type":"Point","properties":{"Station_ID":"HTLN3","Station_Nam":"HERMIT LAKE SNOWPLOT","Latitude":"44.26130","Longitude":"-71.28330","Snowdepth":"12.000","Units":"in","Rept_Date":"2020-12-14 10"},"coordinates":[5826,6298]},{"type":"Point","properties":{"Station_ID":"APN","Station_Nam":"PHELPS COLLINS FIELD","Latitude":"45.07810","Longitude":"-83.56030","Snowdepth":"12.000","Units":"in","Rept_Date":"2020-12-15 00"},"coordinates":[3064,6703]},{"type":"Point","properties":{"Station_ID":"ALPM4","Station_Nam":"SNOW PAID OBSERVER FOR KAPN","Latitude":"45.03110","Longitude":"-83.55970","Snowdepth":"12.000","Units":"in","Rept_Date":"2020-12-15 00"},"coordinates":[3064,6680]},{"type":"Point","properties":{"Station_ID":"QMA","Station_Nam":"QMA","Latitude":"50.10330","Longitude":"-70.47190","Snowdepth":"11.378","Units":"in","Rept_Date":"2020-12-14 12"},"coordinates":[6008,9194]},{"type":"Point","properties":{"Station_ID":"MFU","Station_Nam":"MFU","Latitude":"51.52170","Longitude":"-66.91110","Snowdepth":"10.905","Units":"in","Rept_Date":"2020-12-14 12"},"coordinates":[6809,9897]},{"type":"Point","properties":{"Station_ID":"QLP","Station_Nam":"QLP","Latitude":"48.13920","Longitude":"-72.63830","Snowdepth":"10.551","Units":"in","Rept_Date":"2020-12-14 12"},"coordinates":[5521,8221]},{"type":"Point","properties":{"Station_ID":"QWE","Station_Nam":"QWE","Latitude":"47.84610","Longitude":"-73.80670","Snowdepth":"10.354","Units":"in","Rept_Date":"2020-12-14 12"},"coordinates":[5258,8075]},{"type":"Point","properties":{"Station_ID":"DVLQ6","Station_Nam":"DEVIOUS LAKE","Latitude":"49.19890","Longitude":"-87.76440","Snowdepth":"10.310","Units":"in","Rept_Date":"2020-12-15 06"},"coordinates":[2119,8746]},{"type":"Point","properties":{"Station_ID":"RGNM1","Station_Nam":"RANGELEY 2NW","Latitude":"44.98940","Longitude":"-70.67220","Snowdepth":"10.000","Units":"in","Rept_Date":"2020-12-14 11"},"coordinates":[5963,6659]},{"type":"Point","properties":{"Station_ID":"CARM1","Station_Nam":"CARIBOU WFO","Latitude":"46.86810","Longitude":"-68.01250","Snowdepth":"10.000","Units":"in","Rept_Date":"2020-12-15 05"},"coordinates":[6561,7590]},{"type":"Point","properties":{"Station_ID":"CAR","Station_Nam":"CARIBOU, ME","Latitude":"46.86830","Longitude":"-68.01360","Snowdepth":"10.000","Units":"in","Rept_Date":"2020-12-14 12"},"coordinates":[6561,7591]},{"type":"Point","properties":{"Station_ID":"QLM","Station_Nam":"QLM","Latitude":"48.92030","Longitude":"-70.25280","Snowdepth":"9.685","Units":"in","Rept_Date":"2020-12-14 12"},"coordinates":[6057,8608]},{"type":"Point","properties":{"Station_ID":"PTLQ6","Station_Nam":"PORTAGE LAKE","Latitude":"49.06950","Longitude":"-86.65940","Snowdepth":"9.570","Units":"in","Rept_Date":"2020-12-15 06"},"coordinates":[2367,8682]},{"type":"Point","properties":{"Station_ID":"TRIQ6","Station_Nam":"TRIO LAKE","Latitude":"49.22880","Longitude":"-87.22920","Snowdepth":"9.060","Units":"in","Rept_Date":"2020-12-15 06"},"coordinates":[2239,8761]},{"type":"Point","properties":{"Station_ID":"ME-AR-15","Station_Nam":"PRESQUE ISLE 1.3 WSW, ME","Latitude":"46.67960","Longitude":"-68.01270","Snowdepth":"9.000","Units":"in","Rept_Date":"2020-12-14 12"},"coordinates":[6561,7497]},{"type":"Point","properties":{"Station_ID":"KMWN","Station_Nam":"MOUNT WASHINGTON","Latitude":"44.26666","Longitude":"-71.30000","Snowdepth":"9.000","Units":"in","Rept_Date":"2020-12-15 06"},"coordinates":[5822,6301]},{"type":"Point","properties":{"Station_ID":"FISM1","Station_Nam":"FORT KENT COOP","Latitude":"47.23850","Longitude":"-68.61240","Snowdepth":"9.000","Units":"in","Rept_Date":"2020-12-14 12"},"coordinates":[6426,7774]},{"type":"Point","properties":{"Station_ID":"HLSN3","Station_Nam":"HERMIT LAKE SNOTEL","Latitude":"44.26130","Longitude":"-71.28320","Snowdepth":"8.820","Units":"in","Rept_Date":"2020-12-15 06"},"coordinates":[5826,6298]},{"type":"Point","properties":{"Station_ID":"VANM1","Station_Nam":"VAN BUREN","Latitude":"47.16600","Longitude":"-67.93900","Snowdepth":"8.000","Units":"in","Rept_Date":"2020-12-14 13"},"coordinates":[6578,7738]},{"type":"Point","properties":{"Station_ID":"ONAM4","Station_Nam":"ONAWAY 4N","Latitude":"45.41080","Longitude":"-84.22330","Snowdepth":"8.000","Units":"in","Rept_Date":"2020-12-14 23"},"coordinates":[2915,6868]},{"type":"Point","properties":{"Station_ID":"MYOM4","Station_Nam":"MIO WWTP","Latitude":"44.64660","Longitude":"-84.11580","Snowdepth":"8.000","Units":"in","Rept_Date":"2020-12-14 13"},"coordinates":[2939,6489]},{"type":"Point","properties":{"Station_ID":"MWN","Station_Nam":"MOUNT WASHINGTON","Latitude":"44.26670","Longitude":"-71.30000","Snowdepth":"8.000","Units":"in","Rept_Date":"2020-12-14 12"},"coordinates":[5822,6301]},{"type":"Point","properties":{"Station_ID":"MI-OT-17","Station_Nam":"GAYLORD 4.1 S, MI","Latitude":"44.96388","Longitude":"-84.68467","Snowdepth":"8.000","Units":"in","Rept_Date":"2020-12-14 11"},"coordinates":[2811,6646]},{"type":"Point","properties":{"Station_ID":"ME-SM-45","Station_Nam":"BRIGHTON PLANTATION 2.1 N, ME","Latitude":"45.07098","Longitude":"-69.69860","Snowdepth":"8.000","Units":"in","Rept_Date":"2020-12-14 12"},"coordinates":[6182,6700]},{"type":"Point","properties":{"Station_ID":"HERM4","Station_Nam":"HERMAN,MI","Latitude":"46.65000","Longitude":"-88.33330","Snowdepth":"8.000","Units":"in","Rept_Date":"2020-12-14 13"},"coordinates":[1991,7482]},{"type":"Point","properties":{"Station_ID":"ATLM4","Station_Nam":"ATLANTA","Latitude":"45.00470","Longitude":"-84.14040","Snowdepth":"8.000","Units":"in","Rept_Date":"2020-12-14 12"},"coordinates":[2934,6667]},{"type":"Point","properties":{"Station_ID":"MRL","Station_Nam":"MRL","Latitude":"51.28330","Longitude":"-68.84060","Snowdepth":"7.953","Units":"in","Rept_Date":"2020-12-14 12"},"coordinates":[6375,9779]},{"type":"Point","properties":{"Station_ID":"WI-DA-35","Station_Nam":"MADISON 5.5 N, WI","Latitude":"43.15858","Longitude":"-89.37280","Snowdepth":"7.900","Units":"in","Rept_Date":"2020-12-14 14"},"coordinates":[1757,5752]},{"type":"Point","properties":{"Station_ID":"QWG","Station_Nam":"QWG","Latitude":"48.48890","Longitude":"-73.45940","Snowdepth":"7.835","Units":"in","Rept_Date":"2020-12-14 12"},"coordinates":[5336,8394]},{"type":"Point","properties":{"Station_ID":"AUDQ6","Station_Nam":"AUDEN","Latitude":"48.52600","Longitude":"-82.57570","Snowdepth":"7.830","Units":"in","Rept_Date":"2020-12-15 06"},"coordinates":[3286,8412]},{"type":"Point","properties":{"Station_ID":"QLI","Station_Nam":"QLI","Latitude":"50.27080","Longitude":"-73.92280","Snowdepth":"7.795","Units":"in","Rept_Date":"2020-12-14 12"},"coordinates":[5232,9277]},{"type":"Point","properties":{"Station_ID":"MI-GT-25","Station_Nam":"TRAVERSE CITY 4.7 ESE, MI","Latitude":"44.73370","Longitude":"-85.51189","Snowdepth":"7.500","Units":"in","Rept_Date":"2020-12-14 12"},"coordinates":[2625,6532]},{"type":"Point","properties":{"Station_ID":"CAN-ON-335","Station_Nam":"NAKINA 1.6 NW - MNRF, CAN","Latitude":"50.18910","Longitude":"-86.72684","Snowdepth":"7.300","Units":"in","Rept_Date":"2020-12-14 13"},"coordinates":[2352,9237]},{"type":"Point","properties":{"Station_ID":"WI-DA-99","Station_Nam":"FITCHBURG 1.1 NW, WI","Latitude":"42.99740","Longitude":"-89.44046","Snowdepth":"7.000","Units":"in","Rept_Date":"2020-12-14 13"},"coordinates":[1742,5672]},{"type":"Point","properties":{"Station_ID":"WI-DA-46","Station_Nam":"MADISON 6.4 W, WI","Latitude":"43.08337","Longitude":"-89.51503","Snowdepth":"7.000","Units":"in","Rept_Date":"2020-12-14 13"},"coordinates":[1725,5714]},{"type":"Point","properties":{"Station_ID":"WI-DA-39","Station_Nam":"MADISON 4.0 W, WI","Latitude":"43.07741","Longitude":"-89.46757","Snowdepth":"7.000","Units":"in","Rept_Date":"2020-12-14 13"},"coordinates":[1735,5711]},{"type":"Point","properties":{"Station_ID":"WBRM4","Station_Nam":"WEST BRANCH 3SE","Latitude":"44.25410","Longitude":"-84.20110","Snowdepth":"7.000","Units":"in","Rept_Date":"2020-12-14 13"},"coordinates":[2920,6295]},{"type":"Point","properties":{"Station_ID":"TCEM4","Station_Nam":"TRAVERSE CITY 5ESE","Latitude":"44.73370","Longitude":"-85.51180","Snowdepth":"7.000","Units":"in","Rept_Date":"2020-12-14 12"},"coordinates":[2625,6532]},{"type":"Point","properties":{"Station_ID":"RANM1","Station_Nam":"RANGELEY","Latitude":"44.98910","Longitude":"-70.67190","Snowdepth":"7.000","Units":"in","Rept_Date":"2020-12-14 11"},"coordinates":[5963,6659]},{"type":"Point","properties":{"Station_ID":"PDLM4","Station_Nam":"PAINESDALE","Latitude":"47.04160","Longitude":"-88.67170","Snowdepth":"7.000","Units":"in","Rept_Date":"2020-12-14 13"},"coordinates":[1914,7676]},{"type":"Point","properties":{"Station_ID":"NH-CS-10","Station_Nam":"RANDOLPH 1.4 NE, NH","Latitude":"44.38824","Longitude":"-71.26950","Snowdepth":"7.000","Units":"in","Rept_Date":"2020-12-14 12"},"coordinates":[5829,6361]},{"type":"Point","properties":{"Station_ID":"MONW3","Station_Nam":"MONROE,WI","Latitude":"42.60000","Longitude":"-89.66670","Snowdepth":"7.000","Units":"in","Rept_Date":"2020-12-14 13"},"coordinates":[1691,5475]},{"type":"Point","properties":{"Station_ID":"MMNV1","Station_Nam":"MT. MANSFIELD","Latitude":"44.52480","Longitude":"-72.81540","Snowdepth":"7.000","Units":"in","Rept_Date":"2020-12-14 21"},"coordinates":[5481,6429]},{"type":"Point","properties":{"Station_ID":"MI-OT-16","Station_Nam":"GAYLORD 2.2 SSE, MI","Latitude":"44.99441","Longitude":"-84.65820","Snowdepth":"7.000","Units":"in","Rept_Date":"2020-12-14 14"},"coordinates":[2817,6662]},{"type":"Point","properties":{"Station_ID":"MI-GT-21","Station_Nam":"KINGSLEY 2.7 ENE, MI","Latitude":"44.59871","Longitude":"-85.48426","Snowdepth":"7.000","Units":"in","Rept_Date":"2020-12-14 13"},"coordinates":[2631,6465]},{"type":"Point","properties":{"Station_ID":"ME-SM-4","Station_Nam":"SOLON 3.9 ESE, ME","Latitude":"44.94705","Longitude":"-69.77790","Snowdepth":"7.000","Units":"in","Rept_Date":"2020-12-14 12"},"coordinates":[6164,6638]},{"type":"Point","properties":{"Station_ID":"LILM1","Station_Nam":"LILLE","Latitude":"47.27770","Longitude":"-68.10520","Snowdepth":"7.000","Units":"in","Rept_Date":"2020-12-14 12"},"coordinates":[6540,7793]},{"type":"Point","properties":{"Station_ID":"KSEM4","Station_Nam":"KALKASKA 11SE","Latitude":"44.58970","Longitude":"-85.04860","Snowdepth":"7.000","Units":"in","Rept_Date":"2020-12-14 13"},"coordinates":[2729,6461]},{"type":"Point","properties":{"Station_ID":"FLAM4","Station_Nam":"FIFE LAKE 2WNW","Latitude":"44.58480","Longitude":"-85.36530","Snowdepth":"7.000","Units":"in","Rept_Date":"2020-12-14 12"},"coordinates":[2658,6459]},{"type":"Point","properties":{"Station_ID":"DUBI4","Station_Nam":"DUBUQUE #3","Latitude":"42.40870","Longitude":"-90.73250","Snowdepth":"7.000","Units":"in","Rept_Date":"2020-12-14 18"},"coordinates":[1451,5380]},{"type":"Point","properties":{"Station_ID":"DBQ","Station_Nam":"DUBUQUE REGIONAL AIRPORT","Latitude":"42.40310","Longitude":"-90.70920","Snowdepth":"7.000","Units":"in","Rept_Date":"2020-12-15 00"},"coordinates":[1456,5377]},{"type":"Point","properties":{"Station_ID":"CLQM5","Station_Nam":"CLOQUET","Latitude":"46.70470","Longitude":"-92.52530","Snowdepth":"7.000","Units":"in","Rept_Date":"2020-12-14 14"},"coordinates":[1048,7509]},{"type":"Point","properties":{"Station_ID":"CAN-NB-13","Station_Nam":"BATHURST 3.8 NW, CAN","Latitude":"47.64212","Longitude":"-65.68756","Snowdepth":"7.000","Units":"in","Rept_Date":"2020-12-14 11"},"coordinates":[7084,7974]},{"type":"Point","properties":{"Station_ID":"APXM4","Station_Nam":"GAYLORD 9SSW","Latitude":"44.90720","Longitude":"-84.71880","Snowdepth":"7.000","Units":"in","Rept_Date":"2020-12-15 06"},"coordinates":[2804,6618]},{"type":"Point","properties":{"Station_ID":"CAN-NB-105","Station_Nam":"SISSON BROOK 3.8 E, CAN","Latitude":"46.98305","Longitude":"-67.32532","Snowdepth":"6.900","Units":"in","Rept_Date":"2020-12-14 12"},"coordinates":[6716,7647]},{"type":"Point","properties":{"Station_ID":"QFT","Station_Nam":"QFT","Latitude":"50.83280","Longitude":"-74.40390","Snowdepth":"6.575","Units":"in","Rept_Date":"2020-12-14 12"},"coordinates":[5124,9556]},{"type":"Point","properties":{"Station_ID":"WI-IW-7","Station_Nam":"DODGEVILLE 2.7 NE, WI","Latitude":"42.99414","Longitude":"-90.09488","Snowdepth":"6.500","Units":"in","Rept_Date":"2020-12-14 13"},"coordinates":[1594,5670]},{"type":"Point","properties":{"Station_ID":"WI-IW-3","Station_Nam":"MINERAL POINT 7.3 ENE, WI","Latitude":"42.91400","Longitude":"-90.05700","Snowdepth":"6.500","Units":"in","Rept_Date":"2020-12-14 13"},"coordinates":[1603,5630]},{"type":"Point","properties":{"Station_ID":"MI-CF-9","Station_Nam":"GRAYLING 15.8 NE, MI","Latitude":"44.80464","Longitude":"-84.46313","Snowdepth":"6.500","Units":"in","Rept_Date":"2020-12-14 11"},"coordinates":[2861,6568]},{"type":"Point","properties":{"Station_ID":"MI-AT-6","Station_Nam":"MANCELONA 0.5 ESE, MI","Latitude":"44.89981","Longitude":"-85.05100","Snowdepth":"6.500","Units":"in","Rept_Date":"2020-12-14 13"},"coordinates":[2729,6615]},{"type":"Point","properties":{"Station_ID":"IA-JH-20","Station_Nam":"CORALVILLE 1.4 S, IA","Latitude":"41.67016","Longitude":"-91.60296","Snowdepth":"6.500","Units":"in","Rept_Date":"2020-12-14 14"},"coordinates":[1255,5014]},{"type":"Point","properties":{"Station_ID":"KABQ6","Station_Nam":"CAB LAKE","Latitude":"49.59950","Longitude":"-89.17990","Snowdepth":"6.300","Units":"in","Rept_Date":"2020-12-15 06"},"coordinates":[1800,8944]},{"type":"Point","properties":{"Station_ID":"CAN-NL-82","Station_Nam":"GANDER 2.7 NW, CAN","Latitude":"48.97737","Longitude":"-54.63396","Snowdepth":"6.300","Units":"in","Rept_Date":"2020-12-14 10"},"coordinates":[9570,8636]},{"type":"Point","properties":{"Station_ID":"QGA","Station_Nam":"QGA","Latitude":"47.25640","Longitude":"-73.73810","Snowdepth":"6.102","Units":"in","Rept_Date":"2020-12-14 12"},"coordinates":[5273,7783]},{"type":"Point","properties":{"Station_ID":"WI-DA-33","Station_Nam":"OREGON 0.4 SSW, WI","Latitude":"42.92080","Longitude":"-89.38540","Snowdepth":"6.000","Units":"in","Rept_Date":"2020-12-14 13"},"coordinates":[1754,5634]},{"type":"Point","properties":{"Station_ID":"STOI2","Station_Nam":"STOCKTON 3 NNE","Latitude":"42.40050","Longitude":"-89.99580","Snowdepth":"6.000","Units":"in","Rept_Date":"2020-12-15 03"},"coordinates":[1617,5376]},{"type":"Point","properties":{"Station_ID":"POLM1","Station_Nam":"POLAND","Latitude":"44.00700","Longitude":"-70.36140","Snowdepth":"6.000","Units":"in","Rept_Date":"2020-12-14 12"},"coordinates":[6033,6172]},{"type":"Point","properties":{"Station_ID":"OK-TL-14","Station_Nam":"TULSA 5.4 SSE, OK","Latitude":"36.05716","Longitude":"-95.87300","Snowdepth":"6.000","Units":"in","Rept_Date":"2020-12-14 13"},"coordinates":[295,2231]},{"type":"Point","properties":{"Station_ID":"MI-OT-4","Station_Nam":"GAYLORD 1.7 WNW, MI","Latitude":"45.03280","Longitude":"-84.71090","Snowdepth":"6.000","Units":"in","Rept_Date":"2020-12-14 13"},"coordinates":[2805,6681]},{"type":"Point","properties":{"Station_ID":"MI-HG-20","Station_Nam":"CALUMET 1.1 SSW, MI","Latitude":"47.23165","Longitude":"-88.45823","Snowdepth":"6.000","Units":"in","Rept_Date":"2020-12-14 11"},"coordinates":[1963,7771]},{"type":"Point","properties":{"Station_ID":"ME-KB-53","Station_Nam":"READFIELD 2.0 NNE, ME","Latitude":"44.41620","Longitude":"-69.95190","Snowdepth":"6.000","Units":"in","Rept_Date":"2020-12-14 12"},"coordinates":[6125,6375]},{"type":"Point","properties":{"Station_ID":"ME-FR-2","Station_Nam":"TEMPLE 1.8 W, ME","Latitude":"44.68329","Longitude":"-70.26420","Snowdepth":"6.000","Units":"in","Rept_Date":"2020-12-14 11"},"coordinates":[6055,6507]},{"type":"Point","properties":{"Station_ID":"KLKM4","Station_Nam":"KALKASKA","Latitude":"44.72800","Longitude":"-85.17270","Snowdepth":"6.000","Units":"in","Rept_Date":"2020-12-14 13"},"coordinates":[2702,6530]},{"type":"Point","properties":{"Station_ID":"KDSM","Station_Nam":"DES MOINES INTERNATIONAL","Latitude":"41.53333","Longitude":"-93.66666","Snowdepth":"6.000","Units":"in","Rept_Date":"2020-12-15 06"},"coordinates":[791,4946]},{"type":"Point","properties":{"Station_ID":"IDAI4","Station_Nam":"INDIANOLA,IA","Latitude":"41.36670","Longitude":"-93.55000","Snowdepth":"6.000","Units":"in","Rept_Date":"2020-12-14 13"},"coordinates":[817,4863]},{"type":"Point","properties":{"Station_ID":"HTLM4","Station_Nam":"SNOW PAID OBSERVER FOR KHTL","Latitude":"44.34470","Longitude":"-84.67730","Snowdepth":"6.000","Units":"in","Rept_Date":"2020-12-14 18"},"coordinates":[2813,6340]},{"type":"Point","properties":{"Station_ID":"HTL","Station_Nam":"ROSCOMMON COUNTY AIRPORT","Latitude":"44.35000","Longitude":"-84.66670","Snowdepth":"6.000","Units":"in","Rept_Date":"2020-12-15 00"},"coordinates":[2815,6342]},{"type":"Point","properties":{"Station_ID":"GAYM4","Station_Nam":"GAYLORD","Latitude":"45.03320","Longitude":"-84.71130","Snowdepth":"6.000","Units":"in","Rept_Date":"2020-12-14 13"},"coordinates":[2805,6681]},{"type":"Point","properties":{"Station_ID":"DSXI4","Station_Nam":"DES MOINES SNOW","Latitude":"41.54130","Longitude":"-93.65570","Snowdepth":"6.000","Units":"in","Rept_Date":"2020-12-15 06"},"coordinates":[793,4950]},{"type":"Point","properties":{"Station_ID":"DSM","Station_Nam":"DES MOINES INTERNATIONAL","Latitude":"41.53340","Longitude":"-93.66300","Snowdepth":"6.000","Units":"in","Rept_Date":"2020-12-15 00"},"coordinates":[792,4946]},{"type":"Point","properties":{"Station_ID":"CUSW3","Station_Nam":"COLUMBUS","Latitude":"43.32610","Longitude":"-89.00810","Snowdepth":"6.000","Units":"in","Rept_Date":"2020-12-14 13"},"coordinates":[1839,5835]},{"type":"Point","properties":{"Station_ID":"BNWI4","Station_Nam":"BOONE,IA","Latitude":"42.05000","Longitude":"-93.93330","Snowdepth":"6.000","Units":"in","Rept_Date":"2020-12-14 14"},"coordinates":[731,5202]},{"type":"Point","properties":{"Station_ID":"BLVI4","Station_Nam":"MISSISSIPPI RIVER","Latitude":"42.26670","Longitude":"-90.41670","Snowdepth":"6.000","Units":"in","Rept_Date":"2020-12-14 12"},"coordinates":[1522,5309]},{"type":"Point","properties":{"Station_ID":"ARBW3","Station_Nam":"SOUTH SIDE-ARBORETUM UNIV WI","Latitude":"43.04110","Longitude":"-89.42860","Snowdepth":"6.000","Units":"in","Rept_Date":"2020-12-14 14"},"coordinates":[1744,5693]},{"type":"Point","properties":{"Station_ID":"AR-BT-45","Station_Nam":"BENTONVILLE 6.6 SSW, AR","Latitude":"36.27877","Longitude":"-94.24370","Snowdepth":"6.000","Units":"in","Rept_Date":"2020-12-14 13"},"coordinates":[661,2341]},{"type":"Point","properties":{"Station_ID":"AR-BT-12","Station_Nam":"DECATUR 2.6 ESE, AR","Latitude":"36.32755","Longitude":"-94.41300","Snowdepth":"6.000","Units":"in","Rept_Date":"2020-12-14 13"},"coordinates":[623,2365]},{"type":"Point","properties":{"Station_ID":"SOCQ6","Station_Nam":"SOCKET LAKE","Latitude":"50.77870","Longitude":"-91.79300","Snowdepth":"5.980","Units":"in","Rept_Date":"2020-12-15 06"},"coordinates":[1212,9529]},{"type":"Point","properties":{"Station_ID":"SVBQ6","Station_Nam":"SAVANT BASE","Latitude":"50.28730","Longitude":"-90.65670","Snowdepth":"5.940","Units":"in","Rept_Date":"2020-12-15 06"},"coordinates":[1468,9285]},{"type":"Point","properties":{"Station_ID":"OGIQ6","Station_Nam":"OGOKI CAMP","Latitude":"50.76680","Longitude":"-87.85820","Snowdepth":"5.870","Units":"in","Rept_Date":"2020-12-15 06"},"coordinates":[2097,9523]},{"type":"Point","properties":{"Station_ID":"FTHQ6","Station_Nam":"FORT HOPE","Latitude":"51.55820","Longitude":"-87.90510","Snowdepth":"5.550","Units":"in","Rept_Date":"2020-12-15 06"},"coordinates":[2087,9915]},{"type":"Point","properties":{"Station_ID":"WI-DA-13","Station_Nam":"MADISON 3.7 WSW, WI","Latitude":"43.06230","Longitude":"-89.45650","Snowdepth":"5.500","Units":"in","Rept_Date":"2020-12-14 13"},"coordinates":[1738,5704]},{"type":"Point","properties":{"Station_ID":"IA-PK-73","Station_Nam":"DES MOINES 4.1 N, IA","Latitude":"41.63605","Longitude":"-93.60630","Snowdepth":"5.500","Units":"in","Rept_Date":"2020-12-14 13"},"coordinates":[805,4997]},{"type":"Point","properties":{"Station_ID":"CAN-NL-11","Station_Nam":"MOUNT PEARL 2.1 SSE, CA","Latitude":"47.50347","Longitude":"-52.79730","Snowdepth":"5.500","Units":"in","Rept_Date":"2020-12-14 10"},"coordinates":[9984,7905]},{"type":"Point","properties":{"Station_ID":"CAN-MB-32","Station_Nam":"PINAWA 1.0 SW, CA","Latitude":"50.14747","Longitude":"-95.89020","Snowdepth":"5.500","Units":"in","Rept_Date":"2020-12-14 13"},"coordinates":[291,9216]},{"type":"Point","properties":{"Station_ID":"AR-CR-8","Station_Nam":"HOLIDAY ISLAND 1.3 SSW, AR","Latitude":"36.46714","Longitude":"-93.73700","Snowdepth":"5.500","Units":"in","Rept_Date":"2020-12-14 13"},"coordinates":[775,2434]},{"type":"Point","properties":{"Station_ID":"AR-BT-58","Station_Nam":"GENTRY 5.6 ENE, AR","Latitude":"36.29325","Longitude":"-94.38862","Snowdepth":"5.500","Units":"in","Rept_Date":"2020-12-14 13"},"coordinates":[629,2348]},{"type":"Point","properties":{"Station_ID":"AR-BT-50","Station_Nam":"ROGERS 2.4 SSW, AR","Latitude":"36.29671","Longitude":"-94.14241","Snowdepth":"5.500","Units":"in","Rept_Date":"2020-12-14 13"},"coordinates":[684,2350]},{"type":"Point","properties":{"Station_ID":"WI-DA-77","Station_Nam":"VERONA 3.9 WSW, WI","Latitude":"42.97286","Longitude":"-89.61041","Snowdepth":"5.400","Units":"in","Rept_Date":"2020-12-14 13"},"coordinates":[1703,5659]},{"type":"Point","properties":{"Station_ID":"CATQ6","Station_Nam":"CAT LAKE","Latitude":"51.72690","Longitude":"-91.82210","Snowdepth":"5.310","Units":"in","Rept_Date":"2020-12-15 06"},"coordinates":[1206,9999]},{"type":"Point","properties":{"Station_ID":"OK-TL-32","Station_Nam":"GLENPOOL 0.6 S, OK","Latitude":"35.94950","Longitude":"-96.00230","Snowdepth":"5.100","Units":"in","Rept_Date":"2020-12-14 13"},"coordinates":[266,2178]},{"type":"Point","properties":{"Station_ID":"CAN-NL-72","Station_Nam":"ST. JOHN'S 3.4 N, CAN","Latitude":"47.59389","Longitude":"-52.72879","Snowdepth":"5.100","Units":"in","Rept_Date":"2020-12-14 12"},"coordinates":[9999,7950]},{"type":"Point","properties":{"Station_ID":"WSFW3","Station_Nam":"TOWN OF WESTFORD","Latitude":"43.47190","Longitude":"-88.88250","Snowdepth":"5.000","Units":"in","Rept_Date":"2020-12-14 13"},"coordinates":[1867,5907]},{"type":"Point","properties":{"Station_ID":"WLFM5","Station_Nam":"WOLF RIDGE ENVIRON LEARNING CENTER","Latitude":"47.38240","Longitude":"-91.19730","Snowdepth":"5.000","Units":"in","Rept_Date":"2020-12-14 13"},"coordinates":[1346,7845]},{"type":"Point","properties":{"Station_ID":"WINA4","Station_Nam":"WINSLOW 7 NE","Latitude":"35.85500","Longitude":"-94.02030","Snowdepth":"5.000","Units":"in","Rept_Date":"2020-12-14 16"},"coordinates":[711,2131]},{"type":"Point","properties":{"Station_ID":"WI-DD-5","Station_Nam":"THERESA 3.1 SE, WI","Latitude":"43.49201","Longitude":"-88.40165","Snowdepth":"5.000","Units":"in","Rept_Date":"2020-12-14 14"},"coordinates":[1975,5917]},{"type":"Point","properties":{"Station_ID":"WI-DD-16","Station_Nam":"BEAVER DAM 2.4 WNW, WI","Latitude":"43.47210","Longitude":"-88.88280","Snowdepth":"5.000","Units":"in","Rept_Date":"2020-12-14 13"},"coordinates":[1867,5907]},{"type":"Point","properties":{"Station_ID":"WI-DA-87","Station_Nam":"DUNKIRK 0.1 NW, WI","Latitude":"42.88356","Longitude":"-89.21056","Snowdepth":"5.000","Units":"in","Rept_Date":"2020-12-14 12"},"coordinates":[1793,5615]},{"type":"Point","properties":{"Station_ID":"TSAO2","Station_Nam":"WFO TULSA","Latitude":"36.14860","Longitude":"-95.86110","Snowdepth":"5.000","Units":"in","Rept_Date":"2020-12-14 12"},"coordinates":[297,2277]},{"type":"Point","properties":{"Station_ID":"SCOM4","Station_Nam":"SCOTTVILLE 2 SE","Latitude":"43.93310","Longitude":"-86.24530","Snowdepth":"5.000","Units":"in","Rept_Date":"2020-12-14 12"},"coordinates":[2460,6135]},{"type":"Point","properties":{"Station_ID":"RKWM1","Station_Nam":"MOOSEHEAD LAKE","Latitude":"45.58330","Longitude":"-69.71670","Snowdepth":"5.000","Units":"in","Rept_Date":"2020-12-14 12"},"coordinates":[6178,6954]},{"type":"Point","properties":{"Station_ID":"QNCM4","Station_Nam":"QUINCY HILL","Latitude":"47.13640","Longitude":"-88.57950","Snowdepth":"5.000","Units":"in","Rept_Date":"2020-12-14 12"},"coordinates":[1935,7723]},{"type":"Point","properties":{"Station_ID":"OK-TL-42","Station_Nam":"BROKEN ARROW 4.6 NNW, OK","Latitude":"36.10028","Longitude":"-95.81360","Snowdepth":"5.000","Units":"in","Rept_Date":"2020-12-14 13"},"coordinates":[308,2253]},{"type":"Point","properties":{"Station_ID":"OK-CG-2","Station_Nam":"VINITA 8.6 ESE, OK","Latitude":"36.57451","Longitude":"-95.02370","Snowdepth":"5.000","Units":"in","Rept_Date":"2020-12-14 13"},"coordinates":[486,2488]},{"type":"Point","properties":{"Station_ID":"NPTM4","Station_Nam":"NORTHPORT 2W","Latitude":"45.13220","Longitude":"-85.64720","Snowdepth":"5.000","Units":"in","Rept_Date":"2020-12-14 13"},"coordinates":[2595,6730]},{"type":"Point","properties":{"Station_ID":"NH-ST-31","Station_Nam":"STRAFFORD 2.9 N, NH","Latitude":"43.31175","Longitude":"-71.13510","Snowdepth":"5.000","Units":"in","Rept_Date":"2020-12-14 13"},"coordinates":[5859,5827]},{"type":"Point","properties":{"Station_ID":"MSN","Station_Nam":"MADISON DANE COUNTY RGNL","Latitude":"43.13970","Longitude":"-89.33750","Snowdepth":"5.000","Units":"in","Rept_Date":"2020-12-15 00"},"coordinates":[1765,5742]},{"type":"Point","properties":{"Station_ID":"MI-OC-3","Station_Nam":"HART 3 WSW, MI","Latitude":"43.67470","Longitude":"-86.42250","Snowdepth":"5.000","Units":"in","Rept_Date":"2020-12-14 12"},"coordinates":[2420,6007]},{"type":"Point","properties":{"Station_ID":"MI-BG-3","Station_Nam":"THREE LAKES, MI","Latitude":"46.55730","Longitude":"-88.20770","Snowdepth":"5.000","Units":"in","Rept_Date":"2020-12-14 13"},"coordinates":[2019,7436]},{"type":"Point","properties":{"Station_ID":"ME-OX-26","Station_Nam":"OXFORD 5.3 SW, ME","Latitude":"44.09787","Longitude":"-70.59612","Snowdepth":"5.000","Units":"in","Rept_Date":"2020-12-14 12"},"coordinates":[5980,6217]},{"type":"Point","properties":{"Station_ID":"MAPM4","Station_Nam":"MAPLE CITY 1E","Latitude":"44.85500","Longitude":"-85.83520","Snowdepth":"5.000","Units":"in","Rept_Date":"2020-12-15 00"},"coordinates":[2552,6592]},{"type":"Point","properties":{"Station_ID":"LSXI4","Station_Nam":"LITTLE SIOUX,IA","Latitude":"41.81670","Longitude":"-96.01670","Snowdepth":"5.000","Units":"in","Rept_Date":"2020-12-14 13"},"coordinates":[262,5086]},{"type":"Point","properties":{"Station_ID":"LOOW3","Station_Nam":"WATERLOO","Latitude":"43.18830","Longitude":"-88.98440","Snowdepth":"5.000","Units":"in","Rept_Date":"2020-12-14 14"},"coordinates":[1844,5766]},{"type":"Point","properties":{"Station_ID":"LODW3","Station_Nam":"LODI","Latitude":"43.32170","Longitude":"-89.53110","Snowdepth":"5.000","Units":"in","Rept_Date":"2020-12-14 13"},"coordinates":[1721,5832]},{"type":"Point","properties":{"Station_ID":"LKMW3","Station_Nam":"LAKE MILLS,WI","Latitude":"43.06670","Longitude":"-88.91220","Snowdepth":"5.000","Units":"in","Rept_Date":"2020-12-14 14"},"coordinates":[1860,5706]},{"type":"Point","properties":{"Station_ID":"KMSN","Station_Nam":"MADISON DANE COUNTY RGNL","Latitude":"43.13333","Longitude":"-89.35000","Snowdepth":"5.000","Units":"in","Rept_Date":"2020-12-15 06"},"coordinates":[1762,5739]},{"type":"Point","properties":{"Station_ID":"IA-SR-17","Station_Nam":"AMES 0.9 ENE, IA","Latitude":"42.02886","Longitude":"-93.60950","Snowdepth":"5.000","Units":"in","Rept_Date":"2020-12-14 13"},"coordinates":[804,5192]},{"type":"Point","properties":{"Station_ID":"IA-PK-89","Station_Nam":"ANKENY 3.7 NNE, IA","Latitude":"41.77305","Longitude":"-93.57635","Snowdepth":"5.000","Units":"in","Rept_Date":"2020-12-14 13"},"coordinates":[811,5065]},{"type":"Point","properties":{"Station_ID":"IA-PK-21","Station_Nam":"JOHNSTON 3.7 NNW, IA","Latitude":"41.73660","Longitude":"-93.72360","Snowdepth":"5.000","Units":"in","Rept_Date":"2020-12-14 13"},"coordinates":[778,5047]},{"type":"Point","properties":{"Station_ID":"IA-DL-33","Station_Nam":"WAUKEE 1.6 N, IA","Latitude":"41.63119","Longitude":"-93.85778","Snowdepth":"5.000","Units":"in","Rept_Date":"2020-12-14 13"},"coordinates":[748,4994]},{"type":"Point","properties":{"Station_ID":"HRTM4","Station_Nam":"HART,MI","Latitude":"43.70000","Longitude":"-86.36670","Snowdepth":"5.000","Units":"in","Rept_Date":"2020-12-14 12"},"coordinates":[2433,6020]},{"type":"Point","properties":{"Station_ID":"HMYM1","Station_Nam":"HARMONY","Latitude":"44.94660","Longitude":"-69.54560","Snowdepth":"5.000","Units":"in","Rept_Date":"2020-12-14 12"},"coordinates":[6216,6638]},{"type":"Point","properties":{"Station_ID":"GLAM4","Station_Nam":"GLADWIN","Latitude":"43.97580","Longitude":"-84.49080","Snowdepth":"5.000","Units":"in","Rept_Date":"2020-12-14 12"},"coordinates":[2855,6157]},{"type":"Point","properties":{"Station_ID":"ESGM1","Station_Nam":"EAST SANGERVILLE","Latitude":"45.13690","Longitude":"-69.28060","Snowdepth":"5.000","Units":"in","Rept_Date":"2020-12-14 12"},"coordinates":[6276,6732]},{"type":"Point","properties":{"Station_ID":"EJNM4","Station_Nam":"EAST JORDAN 2NW","Latitude":"45.18630","Longitude":"-85.14770","Snowdepth":"5.000","Units":"in","Rept_Date":"2020-12-14 13"},"coordinates":[2707,6757]},{"type":"Point","properties":{"Station_ID":"DMX","Station_Nam":"DES MOINES, IA","Latitude":"41.73610","Longitude":"-93.72330","Snowdepth":"5.000","Units":"in","Rept_Date":"2020-12-15 06"},"coordinates":[778,5046]},{"type":"Point","properties":{"Station_ID":"DGVW3","Station_Nam":"DODGEVILLE","Latitude":"42.96670","Longitude":"-90.11670","Snowdepth":"5.000","Units":"in","Rept_Date":"2020-12-14 13"},"coordinates":[1589,5656]},{"type":"Point","properties":{"Station_ID":"DFXM1","Station_Nam":"DOVER-FOXCROFT","Latitude":"45.18720","Longitude":"-69.18350","Snowdepth":"5.000","Units":"in","Rept_Date":"2020-12-14 12"},"coordinates":[6298,6757]},{"type":"Point","properties":{"Station_ID":"CLUI4","Station_Nam":"CLUTIER,IA","Latitude":"42.08330","Longitude":"-92.40000","Snowdepth":"5.000","Units":"in","Rept_Date":"2020-12-14 13"},"coordinates":[1076,5219]},{"type":"Point","properties":{"Station_ID":"CHBM4","Station_Nam":"CHEBOYGAN","Latitude":"45.65270","Longitude":"-84.47250","Snowdepth":"5.000","Units":"in","Rept_Date":"2020-12-14 13"},"coordinates":[2859,6988]},{"type":"Point","properties":{"Station_ID":"CAN-MB-368","Station_Nam":"WHITESHELL 1.3 NE, CAN","Latitude":"49.74405","Longitude":"-95.19123","Snowdepth":"5.000","Units":"in","Rept_Date":"2020-12-14 14"},"coordinates":[448,9016]},{"type":"Point","properties":{"Station_ID":"BRAM1","Station_Nam":"BRASSUA DAM","Latitude":"45.66020","Longitude":"-69.81190","Snowdepth":"5.000","Units":"in","Rept_Date":"2020-12-14 12"},"coordinates":[6157,6992]},{"type":"Point","properties":{"Station_ID":"BDMW3","Station_Nam":"BEAVER DAM 1 N","Latitude":"43.46860","Longitude":"-88.83970","Snowdepth":"5.000","Units":"in","Rept_Date":"2020-12-14 13"},"coordinates":[1877,5905]},{"type":"Point","properties":{"Station_ID":"ARLW3","Station_Nam":"UNIV FARM","Latitude":"43.30000","Longitude":"-89.35000","Snowdepth":"5.000","Units":"in","Rept_Date":"2020-12-14 14"},"coordinates":[1762,5822]},{"type":"Point","properties":{"Station_ID":"ANJM4","Station_Nam":"SNOW PAID OBSERVER FOR KANJ","Latitude":"46.48670","Longitude":"-84.40260","Snowdepth":"5.000","Units":"in","Rept_Date":"2020-12-15 06"},"coordinates":[2875,7401]},{"type":"Point","properties":{"Station_ID":"AMOI4","Station_Nam":"ANAMOSA 3 SSW","Latitude":"42.07630","Longitude":"-91.30190","Snowdepth":"5.000","Units":"in","Rept_Date":"2020-12-14 12"},"coordinates":[1323,5215]},{"type":"Point","properties":{"Station_ID":"ALLW3","Station_Nam":"ALLENTON","Latitude":"43.42360","Longitude":"-88.35110","Snowdepth":"5.000","Units":"in","Rept_Date":"2020-12-14 15"},"coordinates":[1987,5883]},{"type":"Point","properties":{"Station_ID":"WI-RK-6","Station_Nam":"EVANSVILLE 0.4 E, WI","Latitude":"42.77913","Longitude":"-89.29020","Snowdepth":"4.700","Units":"in","Rept_Date":"2020-12-14 12"},"coordinates":[1775,5563]},{"type":"Point","properties":{"Station_ID":"CAN-ON-220","Station_Nam":"DEEP RIVER 1.5 SE - MNRF, CAN","Latitude":"46.09592","Longitude":"-77.47853","Snowdepth":"4.700","Units":"in","Rept_Date":"2020-12-14 12"},"coordinates":[4432,7208]},{"type":"Point","properties":{"Station_ID":"CAN-NL-79","Station_Nam":"MOUNT PEARL 1.3 WNW, CAN","Latitude":"47.51955","Longitude":"-52.82838","Snowdepth":"4.700","Units":"in","Rept_Date":"2020-12-14 12"},"coordinates":[9977,7913]},{"type":"Point","properties":{"Station_ID":"WI-DA-31","Station_Nam":"DEERFIELD 0.6 N, WI","Latitude":"43.05958","Longitude":"-89.07340","Snowdepth":"4.500","Units":"in","Rept_Date":"2020-12-14 14"},"coordinates":[1824,5702]},{"type":"Point","properties":{"Station_ID":"OK-TL-53","Station_Nam":"TULSA 1.4 S, OK","Latitude":"36.10744","Longitude":"-95.91428","Snowdepth":"4.500","Units":"in","Rept_Date":"2020-12-14 13"},"coordinates":[285,2256]},{"type":"Point","properties":{"Station_ID":"OK-TL-35","Station_Nam":"TULSA 3.4 ENE, OK","Latitude":"36.14830","Longitude":"-95.86180","Snowdepth":"4.500","Units":"in","Rept_Date":"2020-12-14 13"},"coordinates":[297,2276]},{"type":"Point","properties":{"Station_ID":"NH-CR-34","Station_Nam":"WAKEFIELD 6.0 NNW, NH","Latitude":"43.63917","Longitude":"-71.05210","Snowdepth":"4.500","Units":"in","Rept_Date":"2020-12-14 12"},"coordinates":[5878,5990]},{"type":"Point","properties":{"Station_ID":"MO-BY-25","Station_Nam":"CASSVILLE 4.8 SSE, MO","Latitude":"36.61445","Longitude":"-93.83630","Snowdepth":"4.500","Units":"in","Rept_Date":"2020-12-14 13"},"coordinates":[753,2507]},{"type":"Point","properties":{"Station_ID":"MI-CX-7","Station_Nam":"EAST JORDAN 2.1 NNW, MI","Latitude":"45.18639","Longitude":"-85.14750","Snowdepth":"4.500","Units":"in","Rept_Date":"2020-12-14 13"},"coordinates":[2707,6757]},{"type":"Point","properties":{"Station_ID":"MI-BZ-1","Station_Nam":"BENZONIA 5.3 S, MI","Latitude":"44.53976","Longitude":"-86.10650","Snowdepth":"4.500","Units":"in","Rept_Date":"2020-12-14 14"},"coordinates":[2491,6436]},{"type":"Point","properties":{"Station_ID":"ME-CM-125","Station_Nam":"GRAY 2.9 SSE, ME","Latitude":"43.84640","Longitude":"-70.31340","Snowdepth":"4.500","Units":"in","Rept_Date":"2020-12-14 12"},"coordinates":[6044,6093]},{"type":"Point","properties":{"Station_ID":"IA-SR-42","Station_Nam":"AMES 2.1 WNW, IA","Latitude":"42.03730","Longitude":"-93.66180","Snowdepth":"4.500","Units":"in","Rept_Date":"2020-12-14 15"},"coordinates":[792,5196]},{"type":"Point","properties":{"Station_ID":"IA-DV-2","Station_Nam":"MOULTON 3.6 ENE, IA","Latitude":"40.70487","Longitude":"-92.61551","Snowdepth":"4.500","Units":"in","Rept_Date":"2020-12-14 13"},"coordinates":[1027,4535]},{"type":"Point","properties":{"Station_ID":"CAN-NL-65","Station_Nam":"KIPPENS 0.7 NE, CA","Latitude":"48.55436","Longitude":"-58.61850","Snowdepth":"4.500","Units":"in","Rept_Date":"2020-12-14 12"},"coordinates":[8674,8426]},{"type":"Point","properties":{"Station_ID":"AR-NW-13","Station_Nam":"JASPER 3.8 SE, AR","Latitude":"35.96980","Longitude":"-93.13810","Snowdepth":"4.500","Units":"in","Rept_Date":"2020-12-14 13"},"coordinates":[910,2188]},{"type":"Point","properties":{"Station_ID":"AR-BT-4","Station_Nam":"PEA RIDGE 0.2 WSW, AR","Latitude":"36.44960","Longitude":"-94.11860","Snowdepth":"4.500","Units":"in","Rept_Date":"2020-12-14 13"},"coordinates":[689,2426]},{"type":"Point","properties":{"Station_ID":"OK-AD-6","Station_Nam":"WATTS 7.2 WSW, OK","Latitude":"36.07720","Longitude":"-94.69444","Snowdepth":"4.400","Units":"in","Rept_Date":"2020-12-14 13"},"coordinates":[560,2241]},{"type":"Point","properties":{"Station_ID":"IA-PK-37","Station_Nam":"WINDSOR HEIGHTS 0.8 SE, IA","Latitude":"41.59810","Longitude":"-93.69950","Snowdepth":"4.300","Units":"in","Rept_Date":"2020-12-14 13"},"coordinates":[784,4978]},{"type":"Point","properties":{"Station_ID":"MN-LK-4","Station_Nam":"TWO HARBORS 3.6 WNW, MN","Latitude":"47.04118","Longitude":"-91.75280","Snowdepth":"4.100","Units":"in","Rept_Date":"2020-12-14 13"},"coordinates":[1221,7676]},{"type":"Point","properties":{"Station_ID":"CAN-ON-771","Station_Nam":"KENORA 8.7 NNE - CANWARN, CAN","Latitude":"49.84171","Longitude":"-94.44386","Snowdepth":"4.100","Units":"in","Rept_Date":"2020-12-14 13"},"coordinates":[616,9064]},{"type":"Point","properties":{"Station_ID":"WTBW3","Station_Nam":"WEST BEND PUBLIC WORKS","Latitude":"43.41110","Longitude":"-88.19380","Snowdepth":"4.000","Units":"in","Rept_Date":"2020-12-14 14"},"coordinates":[2022,5877]},{"type":"Point","properties":{"Station_ID":"WLNM4","Station_Nam":"WELLSTON 1N","Latitude":"44.22940","Longitude":"-85.95690","Snowdepth":"4.000","Units":"in","Rept_Date":"2020-12-14 12"},"coordinates":[2525,6282]},{"type":"Point","properties":{"Station_ID":"WI-JF-2","Station_Nam":"WATERTOWN 1.6 ESE, WI","Latitude":"43.17916","Longitude":"-88.69720","Snowdepth":"4.000","Units":"in","Rept_Date":"2020-12-14 14"},"coordinates":[1909,5762]},{"type":"Point","properties":{"Station_ID":"WI-JF-19","Station_Nam":"WATERTOWN 0.8 S, WI","Latitude":"43.18063","Longitude":"-88.72399","Snowdepth":"4.000","Units":"in","Rept_Date":"2020-12-14 13"},"coordinates":[1903,5762]},{"type":"Point","properties":{"Station_ID":"WI-JF-17","Station_Nam":"JOHNSON CREEK 2.7 SSW, WI","Latitude":"43.04559","Longitude":"-88.79925","Snowdepth":"4.000","Units":"in","Rept_Date":"2020-12-14 13"},"coordinates":[1886,5696]},{"type":"Point","properties":{"Station_ID":"WI-DA-72","Station_Nam":"MADISON 4.0 SW, WI","Latitude":"43.03801","Longitude":"-89.44355","Snowdepth":"4.000","Units":"in","Rept_Date":"2020-12-14 13"},"coordinates":[1741,5692]},{"type":"Point","properties":{"Station_ID":"WGCI4","Station_Nam":"WAVELAND","Latitude":"41.58330","Longitude":"-93.66670","Snowdepth":"4.000","Units":"in","Rept_Date":"2020-12-14 13"},"coordinates":[791,4971]},{"type":"Point","properties":{"Station_ID":"WATW3","Station_Nam":"WATERTOWN,WI","Latitude":"43.17500","Longitude":"-88.73530","Snowdepth":"4.000","Units":"in","Rept_Date":"2020-12-14 13"},"coordinates":[1900,5760]},{"type":"Point","properties":{"Station_ID":"WABM7","Station_Nam":"WASHBURN 5 W","Latitude":"36.57500","Longitude":"-94.05390","Snowdepth":"4.000","Units":"in","Rept_Date":"2020-12-14 13"},"coordinates":[704,2488]},{"type":"Point","properties":{"Station_ID":"TWOM5","Station_Nam":"TWO HARBORS,MN","Latitude":"47.12580","Longitude":"-91.70750","Snowdepth":"4.000","Units":"in","Rept_Date":"2020-12-15 01"},"coordinates":[1232,7718]},{"type":"Point","properties":{"Station_ID":"TURM1","Station_Nam":"TURNER","Latitude":"44.28220","Longitude":"-70.25610","Snowdepth":"4.000","Units":"in","Rept_Date":"2020-12-14 12"},"coordinates":[6057,6309]},{"type":"Point","properties":{"Station_ID":"TILA4","Station_Nam":"WITTS SPRING","Latitude":"35.76920","Longitude":"-92.86960","Snowdepth":"4.000","Units":"in","Rept_Date":"2020-12-14 14"},"coordinates":[970,2088]},{"type":"Point","properties":{"Station_ID":"SUAW3","Station_Nam":"SUAMICO","Latitude":"44.60190","Longitude":"-88.09780","Snowdepth":"4.000","Units":"in","Rept_Date":"2020-12-14 12"},"coordinates":[2044,6467]},{"type":"Point","properties":{"Station_ID":"STOW3","Station_Nam":"STOUGHTON,WI","Latitude":"42.91670","Longitude":"-89.21670","Snowdepth":"4.000","Units":"in","Rept_Date":"2020-12-14 13"},"coordinates":[1792,5632]},{"type":"Point","properties":{"Station_ID":"RCHW3","Station_Nam":"RICHRIELD,WI","Latitude":"43.21080","Longitude":"-88.20940","Snowdepth":"4.000","Units":"in","Rept_Date":"2020-12-14 12"},"coordinates":[2018,5777]},{"type":"Point","properties":{"Station_ID":"OZRM7","Station_Nam":"OZARK BEACH","Latitude":"36.67450","Longitude":"-93.10760","Snowdepth":"4.000","Units":"in","Rept_Date":"2020-12-14 14"},"coordinates":[917,2537]},{"type":"Point","properties":{"Station_ID":"OK-TL-66","Station_Nam":"TULSA 8.4 ESE, OK","Latitude":"36.10114","Longitude":"-95.76878","Snowdepth":"4.000","Units":"in","Rept_Date":"2020-12-14 14"},"coordinates":[318,2253]},{"type":"Point","properties":{"Station_ID":"OK-TL-28","Station_Nam":"BROKEN ARROW 2.2 SW, OK","Latitude":"36.01140","Longitude":"-95.80970","Snowdepth":"4.000","Units":"in","Rept_Date":"2020-12-14 13"},"coordinates":[309,2209]},{"type":"Point","properties":{"Station_ID":"OK-RG-11","Station_Nam":"CLAREMORE 7.5 W, OK","Latitude":"36.30430","Longitude":"-95.75420","Snowdepth":"4.000","Units":"in","Rept_Date":"2020-12-14 13"},"coordinates":[321,2354]},{"type":"Point","properties":{"Station_ID":"OK-DL-2","Station_Nam":"JAY 3.3 NNE, OK","Latitude":"36.47100","Longitude":"-94.78300","Snowdepth":"4.000","Units":"in","Rept_Date":"2020-12-14 14"},"coordinates":[540,2436]},{"type":"Point","properties":{"Station_ID":"NWSM1","Station_Nam":"NEW SHARON","Latitude":"44.63520","Longitude":"-70.00020","Snowdepth":"4.000","Units":"in","Rept_Date":"2020-12-14 12"},"coordinates":[6114,6484]},{"type":"Point","properties":{"Station_ID":"NWKO2","Station_Nam":"NEWKIRK,OK","Latitude":"36.89140","Longitude":"-97.05860","Snowdepth":"4.000","Units":"in","Rept_Date":"2020-12-14 13"},"coordinates":[28,2645]},{"type":"Point","properties":{"Station_ID":"MWTM1","Station_Nam":"MILLINOCKET WWTP","Latitude":"45.64030","Longitude":"-68.67480","Snowdepth":"4.000","Units":"in","Rept_Date":"2020-12-14 11"},"coordinates":[6412,6982]},{"type":"Point","properties":{"Station_ID":"MSHA4","Station_Nam":"MARSHALL","Latitude":"35.91180","Longitude":"-92.65640","Snowdepth":"4.000","Units":"in","Rept_Date":"2020-12-14 12"},"coordinates":[1018,2159]},{"type":"Point","properties":{"Station_ID":"MN-SL-143","Station_Nam":"CANYON 4.6 NNE, MN","Latitude":"47.09800","Longitude":"-92.42170","Snowdepth":"4.000","Units":"in","Rept_Date":"2020-12-14 14"},"coordinates":[1071,7704]},{"type":"Point","properties":{"Station_ID":"MN-CN-36","Station_Nam":"CLOQUET 3.4 ENE, MN","Latitude":"46.74146","Longitude":"-92.42698","Snowdepth":"4.000","Units":"in","Rept_Date":"2020-12-14 13"},"coordinates":[1070,7528]},{"type":"Point","properties":{"Station_ID":"MKX","Station_Nam":"MILWAUKEE, WI","Latitude":"42.96810","Longitude":"-88.54920","Snowdepth":"4.000","Units":"in","Rept_Date":"2020-12-15 06"},"coordinates":[1942,5657]},{"type":"Point","properties":{"Station_ID":"MI-CP-7","Station_Nam":"DRUMMOND 2.9 NE, MI","Latitude":"46.05329","Longitude":"-83.69060","Snowdepth":"4.000","Units":"in","Rept_Date":"2020-12-14 14"},"coordinates":[3035,7186]},{"type":"Point","properties":{"Station_ID":"MI-AP-2","Station_Nam":"OSSINEKE 1.0 NNE, MI","Latitude":"44.92150","Longitude":"-83.42700","Snowdepth":"4.000","Units":"in","Rept_Date":"2020-12-14 13"},"coordinates":[3094,6625]},{"type":"Point","properties":{"Station_ID":"ME-FR-4","Station_Nam":"NEW SHARON 2.0 NW, ME","Latitude":"44.66582","Longitude":"-70.02720","Snowdepth":"4.000","Units":"in","Rept_Date":"2020-12-14 12"},"coordinates":[6108,6499]},{"type":"Point","properties":{"Station_ID":"ME-AN-32","Station_Nam":"WINTHROP 9.4 W, ME","Latitude":"44.30476","Longitude":"-70.15835","Snowdepth":"4.000","Units":"in","Rept_Date":"2020-12-14 12"},"coordinates":[6079,6320]},{"type":"Point","properties":{"Station_ID":"LNCM1","Station_Nam":"LINCOLN WATER DISTRICT","Latitude":"45.32410","Longitude":"-68.58300","Snowdepth":"4.000","Units":"in","Rept_Date":"2020-12-14 14"},"coordinates":[6433,6825]},{"type":"Point","properties":{"Station_ID":"LEIM5","Station_Nam":"ORR 3E","Latitude":"48.05810","Longitude":"-92.75220","Snowdepth":"4.000","Units":"in","Rept_Date":"2020-12-14 12"},"coordinates":[997,8180]},{"type":"Point","properties":{"Station_ID":"KTVC","Station_Nam":"CHERRY CAPITAL AIRPORT","Latitude":"44.73333","Longitude":"-85.56666","Snowdepth":"4.000","Units":"in","Rept_Date":"2020-12-14 12"},"coordinates":[2613,6532]},{"type":"Point","properties":{"Station_ID":"KNGA4","Station_Nam":"KINGSTON 2S","Latitude":"36.00860","Longitude":"-93.52060","Snowdepth":"4.000","Units":"in","Rept_Date":"2020-12-14 16"},"coordinates":[824,2207]},{"type":"Point","properties":{"Station_ID":"IA-WR-7","Station_Nam":"INDIANOLA 0.8 SSW, IA","Latitude":"41.35047","Longitude":"-93.57290","Snowdepth":"4.000","Units":"in","Rept_Date":"2020-12-14 13"},"coordinates":[812,4855]},{"type":"Point","properties":{"Station_ID":"IA-SR-12","Station_Nam":"AMES 2.1 N, IA","Latitude":"42.05442","Longitude":"-93.62670","Snowdepth":"4.000","Units":"in","Rept_Date":"2020-12-14 14"},"coordinates":[800,5204]},{"type":"Point","properties":{"Station_ID":"IA-JH-1","Station_Nam":"SOLON 0.3 ESE, IA","Latitude":"41.80398","Longitude":"-91.48910","Snowdepth":"4.000","Units":"in","Rept_Date":"2020-12-14 13"},"coordinates":[1281,5080]},{"type":"Point","properties":{"Station_ID":"HURW3","Station_Nam":"HURLEY","Latitude":"46.46250","Longitude":"-90.19550","Snowdepth":"4.000","Units":"in","Rept_Date":"2020-12-14 14"},"coordinates":[1572,7389]},{"type":"Point","properties":{"Station_ID":"HRTM1","Station_Nam":"HARTFORD","Latitude":"44.37440","Longitude":"-70.31620","Snowdepth":"4.000","Units":"in","Rept_Date":"2020-12-14 12"},"coordinates":[6043,6354]},{"type":"Point","properties":{"Station_ID":"HRDO2","Station_Nam":"HARDY","Latitude":"36.95440","Longitude":"-96.77990","Snowdepth":"4.000","Units":"in","Rept_Date":"2020-12-14 13"},"coordinates":[91,2676]},{"type":"Point","properties":{"Station_ID":"HORW3","Station_Nam":"HORICON WWTP","Latitude":"43.45000","Longitude":"-88.63330","Snowdepth":"4.000","Units":"in","Rept_Date":"2020-12-14 13"},"coordinates":[1923,5896]},{"type":"Point","properties":{"Station_ID":"GTHI4","Station_Nam":"GUTHRIE CENTER,IA","Latitude":"41.68330","Longitude":"-94.50000","Snowdepth":"4.000","Units":"in","Rept_Date":"2020-12-14 14"},"coordinates":[604,5020]},{"type":"Point","properties":{"Station_ID":"GHMN3","Station_Nam":"PINKHAM NOTCH","Latitude":"44.25800","Longitude":"-71.25250","Snowdepth":"4.000","Units":"in","Rept_Date":"2020-12-14 11"},"coordinates":[5833,6297]},{"type":"Point","properties":{"Station_ID":"FRKM4","Station_Nam":"FRANKFORT 2NE","Latitude":"44.64800","Longitude":"-86.21000","Snowdepth":"4.000","Units":"in","Rept_Date":"2020-12-14 23"},"coordinates":[2468,6490]},{"type":"Point","properties":{"Station_ID":"FDAW3","Station_Nam":"FOND DU LAC","Latitude":"43.76150","Longitude":"-88.45710","Snowdepth":"4.000","Units":"in","Rept_Date":"2020-12-14 14"},"coordinates":[1963,6050]},{"type":"Point","properties":{"Station_ID":"DOUG006","Station_Nam":"OMAHA 2.9 W, NE","Latitude":"41.26580","Longitude":"-95.99270","Snowdepth":"4.000","Units":"in","Rept_Date":"2020-12-14 13"},"coordinates":[268,4813]},{"type":"Point","properties":{"Station_ID":"DLDI4","Station_Nam":"MISSISSIPPI RIVER","Latitude":"42.51670","Longitude":"-90.65000","Snowdepth":"4.000","Units":"in","Rept_Date":"2020-12-14 12"},"coordinates":[1470,5433]},{"type":"Point","properties":{"Station_ID":"COKM5","Station_Nam":"COOK","Latitude":"47.85060","Longitude":"-92.69250","Snowdepth":"4.000","Units":"in","Rept_Date":"2020-12-14 12"},"coordinates":[1010,8077]},{"type":"Point","properties":{"Station_ID":"CMPA4","Station_Nam":"COMPTON","Latitude":"36.09170","Longitude":"-93.32690","Snowdepth":"4.000","Units":"in","Rept_Date":"2020-12-14 13"},"coordinates":[867,2248]},{"type":"Point","properties":{"Station_ID":"BNNM7","Station_Nam":"BRANSON AIRPORT","Latitude":"36.52580","Longitude":"-93.19690","Snowdepth":"4.000","Units":"in","Rept_Date":"2020-12-14 10"},"coordinates":[897,2464]},{"type":"Point","properties":{"Station_ID":"BNDM5","Station_Nam":"ELY 25E","Latitude":"47.97190","Longitude":"-91.44860","Snowdepth":"4.000","Units":"in","Rept_Date":"2020-12-14 13"},"coordinates":[1290,8138]},{"type":"Point","properties":{"Station_ID":"BGRM4","Station_Nam":"WATER WORKS","Latitude":"43.70000","Longitude":"-85.48330","Snowdepth":"4.000","Units":"in","Rept_Date":"2020-12-14 12"},"coordinates":[2632,6020]},{"type":"Point","properties":{"Station_ID":"BGBM4","Station_Nam":"BIG BAY 1NW","Latitude":"46.83250","Longitude":"-87.75040","Snowdepth":"4.000","Units":"in","Rept_Date":"2020-12-14 13"},"coordinates":[2122,7573]},{"type":"Point","properties":{"Station_ID":"BBEM4","Station_Nam":"BIG BAY 9SW","Latitude":"46.74620","Longitude":"-87.88160","Snowdepth":"4.000","Units":"in","Rept_Date":"2020-12-14 13"},"coordinates":[2092,7530]},{"type":"Point","properties":{"Station_ID":"AUDI4","Station_Nam":"AUDUBON,IA","Latitude":"41.71670","Longitude":"-94.93330","Snowdepth":"4.000","Units":"in","Rept_Date":"2020-12-14 14"},"coordinates":[506,5037]},{"type":"Point","properties":{"Station_ID":"AR-MR-15","Station_Nam":"BRUNO 3.1 SSE, AR","Latitude":"36.10055","Longitude":"-92.76020","Snowdepth":"4.000","Units":"in","Rept_Date":"2020-12-14 13"},"coordinates":[995,2253]},{"type":"Point","properties":{"Station_ID":"ABNM3","Station_Nam":"ASHBURNHAM NORTH","Latitude":"42.66170","Longitude":"-71.93590","Snowdepth":"4.000","Units":"in","Rept_Date":"2020-12-14 12"},"coordinates":[5679,5505]},{"type":"Point","properties":{"Station_ID":"CAN-NL-81","Station_Nam":"GRAND FALLS-WINDSOR 1.2 S, CAN","Latitude":"48.93123","Longitude":"-55.65333","Snowdepth":"3.900","Units":"in","Rept_Date":"2020-12-14 10"},"coordinates":[9341,8613]},{"type":"Point","properties":{"Station_ID":"ME-SM-3","Station_Nam":"PALMYRA 3.5 NW, ME","Latitude":"44.87180","Longitude":"-69.41952","Snowdepth":"3.700","Units":"in","Rept_Date":"2020-12-14 12"},"coordinates":[6245,6601]},{"type":"Point","properties":{"Station_ID":"WI-CB-5","Station_Nam":"PORTAGE 7.2 SW, WI","Latitude":"43.47933","Longitude":"-89.57370","Snowdepth":"3.600","Units":"in","Rept_Date":"2020-12-14 13"},"coordinates":[1712,5911]},{"type":"Point","properties":{"Station_ID":"MI-ME-11","Station_Nam":"BIG RAPIDS 5.4 S, MI","Latitude":"43.62630","Longitude":"-85.47600","Snowdepth":"3.600","Units":"in","Rept_Date":"2020-12-14 12"},"coordinates":[2633,5983]},{"type":"Point","properties":{"Station_ID":"MI-GT-27","Station_Nam":"TRAVERSE CITY 4.7 W, MI","Latitude":"44.75372","Longitude":"-85.69934","Snowdepth":"3.600","Units":"in","Rept_Date":"2020-12-14 13"},"coordinates":[2583,6542]},{"type":"Point","properties":{"Station_ID":"WI-WS-4","Station_Nam":"KEWASKUM 1.8 WNW, WI","Latitude":"43.52880","Longitude":"-88.26570","Snowdepth":"3.500","Units":"in","Rept_Date":"2020-12-14 13"},"coordinates":[2006,5935]},{"type":"Point","properties":{"Station_ID":"WI-OZ-17","Station_Nam":"WEST BEND 7.3 E, WI","Latitude":"43.42860","Longitude":"-88.03870","Snowdepth":"3.500","Units":"in","Rept_Date":"2020-12-14 13"},"coordinates":[2057,5885]},{"type":"Point","properties":{"Station_ID":"OK-TL-39","Station_Nam":"TULSA 6.3 WSW, OK","Latitude":"36.09671","Longitude":"-96.02310","Snowdepth":"3.500","Units":"in","Rept_Date":"2020-12-14 14"},"coordinates":[261,2251]},{"type":"Point","properties":{"Station_ID":"OK-PY-9","Station_Nam":"GLENCOE 3.0 W, OK","Latitude":"36.22070","Longitude":"-96.98100","Snowdepth":"3.500","Units":"in","Rept_Date":"2020-12-14 13"},"coordinates":[46,2312]},{"type":"Point","properties":{"Station_ID":"OK-OS-12","Station_Nam":"SAND SPRINGS 4.6 WNW, OK","Latitude":"36.17579","Longitude":"-96.19840","Snowdepth":"3.500","Units":"in","Rept_Date":"2020-12-14 13"},"coordinates":[222,2290]},{"type":"Point","properties":{"Station_ID":"OK-CH-10","Station_Nam":"TAHLEQUAH 2.2 SSW, OK","Latitude":"35.88380","Longitude":"-94.99170","Snowdepth":"3.500","Units":"in","Rept_Date":"2020-12-14 13"},"coordinates":[493,2145]},{"type":"Point","properties":{"Station_ID":"NH-RC-48","Station_Nam":"NORTHWOOD 2.9 WSW, NH","Latitude":"43.20114","Longitude":"-71.25750","Snowdepth":"3.500","Units":"in","Rept_Date":"2020-12-14 12"},"coordinates":[5831,5773]},{"type":"Point","properties":{"Station_ID":"NH-CS-19","Station_Nam":"CARROLL 4.6 NE, NH","Latitude":"44.33765","Longitude":"-71.46461","Snowdepth":"3.500","Units":"in","Rept_Date":"2020-12-14 12"},"coordinates":[5785,6336]},{"type":"Point","properties":{"Station_ID":"MO-TY-27","Station_Nam":"FORSYTH 0.9 S, MO","Latitude":"36.67440","Longitude":"-93.10750","Snowdepth":"3.500","Units":"in","Rept_Date":"2020-12-14 14"},"coordinates":[917,2537]},{"type":"Point","properties":{"Station_ID":"MI-MC-4","Station_Nam":"ST. IGNACE 0.5SE, MI","Latitude":"45.86057","Longitude":"-84.71980","Snowdepth":"3.500","Units":"in","Rept_Date":"2020-12-14 12"},"coordinates":[2803,7091]},{"type":"Point","properties":{"Station_ID":"MA-WR-89","Station_Nam":"HOLDEN 0.9 SSE, MA","Latitude":"42.33809","Longitude":"-71.85686","Snowdepth":"3.500","Units":"in","Rept_Date":"2020-12-14 12"},"coordinates":[5697,5345]},{"type":"Point","properties":{"Station_ID":"IA-HR-16","Station_Nam":"LOGAN 0.8 WNW, IA","Latitude":"41.65000","Longitude":"-95.80577","Snowdepth":"3.500","Units":"in","Rept_Date":"2020-12-14 13"},"coordinates":[310,5004]},{"type":"Point","properties":{"Station_ID":"IA-GT-7","Station_Nam":"BAGLEY 0.2 W, IA","Latitude":"41.84592","Longitude":"-94.43346","Snowdepth":"3.500","Units":"in","Rept_Date":"2020-12-14 14"},"coordinates":[619,5101]},{"type":"Point","properties":{"Station_ID":"IA-DL-31","Station_Nam":"DALLAS CENTER 1.5 E, IA","Latitude":"41.68151","Longitude":"-93.95534","Snowdepth":"3.500","Units":"in","Rept_Date":"2020-12-14 14"},"coordinates":[726,5019]},{"type":"Point","properties":{"Station_ID":"IA-BT-16","Station_Nam":"SHELLSBURG 2.9 S, IA","Latitude":"42.05091","Longitude":"-91.87008","Snowdepth":"3.500","Units":"in","Rept_Date":"2020-12-14 13"},"coordinates":[1195,5202]},{"type":"Point","properties":{"Station_ID":"CAN-NL-14","Station_Nam":"WHITBOURNE 1.4 NE, CA","Latitude":"47.42741","Longitude":"-53.51950","Snowdepth":"3.500","Units":"in","Rept_Date":"2020-12-14 12"},"coordinates":[9821,7868]},{"type":"Point","properties":{"Station_ID":"CAN-NB-11","Station_Nam":"MIRAMICHI 3.3 S, CAN","Latitude":"46.99343","Longitude":"-65.50690","Snowdepth":"3.500","Units":"in","Rept_Date":"2020-12-14 11"},"coordinates":[7125,7653]},{"type":"Point","properties":{"Station_ID":"WV-NC-4","Station_Nam":"CRAIGSVILLE 0.6 NE, WV","Latitude":"38.33698","Longitude":"-80.64520","Snowdepth":"3.000","Units":"in","Rept_Date":"2020-12-14 12"},"coordinates":[3720,3361]},{"type":"Point","properties":{"Station_ID":"WI-VL-9","Station_Nam":"LAND O' LAKES 11.7 W, WI","Latitude":"46.19023","Longitude":"-89.45790","Snowdepth":"3.000","Units":"in","Rept_Date":"2020-12-14 13"},"coordinates":[1738,7254]},{"type":"Point","properties":{"Station_ID":"WI-DD-15","Station_Nam":"COLUMBUS 4.8 ENE, WI","Latitude":"43.35742","Longitude":"-88.93819","Snowdepth":"3.000","Units":"in","Rept_Date":"2020-12-14 15"},"coordinates":[1855,5850]},{"type":"Point","properties":{"Station_ID":"WEBI4","Station_Nam":"WEBSTER CITY,IA","Latitude":"42.46670","Longitude":"-93.80000","Snowdepth":"3.000","Units":"in","Rept_Date":"2020-12-14 13"},"coordinates":[761,5409]},{"type":"Point","properties":{"Station_ID":"UNDI4","Station_Nam":"UNDERWOOD","Latitude":"41.38940","Longitude":"-95.68110","Snowdepth":"3.000","Units":"in","Rept_Date":"2020-12-14 13"},"coordinates":[338,4875]},{"type":"Point","properties":{"Station_ID":"TAHW3","Station_Nam":"TAYCHEEDAH","Latitude":"43.83390","Longitude":"-88.34690","Snowdepth":"3.000","Units":"in","Rept_Date":"2020-12-14 13"},"coordinates":[1988,6086]},{"type":"Point","properties":{"Station_ID":"STIM4","Station_Nam":"ST IGNACE","Latitude":"45.86080","Longitude":"-84.71960","Snowdepth":"3.000","Units":"in","Rept_Date":"2020-12-14 12"},"coordinates":[2803,7091]},{"type":"Point","properties":{"Station_ID":"SPTI4","Station_Nam":"STRAWBERRY POINT","Latitude":"42.68530","Longitude":"-91.53300","Snowdepth":"3.000","Units":"in","Rept_Date":"2020-12-14 13"},"coordinates":[1271,5517]},{"type":"Point","properties":{"Station_ID":"SNOW2","Station_Nam":"SNOWSHOE","Latitude":"38.39900","Longitude":"-79.99490","Snowdepth":"3.000","Units":"in","Rept_Date":"2020-12-14 11"},"coordinates":[3866,3392]},{"type":"Point","properties":{"Station_ID":"SLRW3","Station_Nam":"SLINGER","Latitude":"43.33390","Longitude":"-88.29780","Snowdepth":"3.000","Units":"in","Rept_Date":"2020-12-14 13"},"coordinates":[1999,5838]},{"type":"Point","properties":{"Station_ID":"PTYM4","Station_Nam":"PETOSKEY NCMC","Latitude":"45.36120","Longitude":"-84.95110","Snowdepth":"3.000","Units":"in","Rept_Date":"2020-12-14 13"},"coordinates":[2751,6843]},{"type":"Point","properties":{"Station_ID":"PRGO2","Station_Nam":"PRAGUE,OK","Latitude":"35.48610","Longitude":"-96.69420","Snowdepth":"3.000","Units":"in","Rept_Date":"2020-12-14 13"},"coordinates":[110,1948]},{"type":"Point","properties":{"Station_ID":"OSEI4","Station_Nam":"OSCEOLA,IA","Latitude":"41.01670","Longitude":"-93.81670","Snowdepth":"3.000","Units":"in","Rept_Date":"2020-12-14 13"},"coordinates":[757,4690]},{"type":"Point","properties":{"Station_ID":"OK-LN-5","Station_Nam":"CHANDLER 4.6 NNE, OK","Latitude":"35.77280","Longitude":"-96.86040","Snowdepth":"3.000","Units":"in","Rept_Date":"2020-12-14 13"},"coordinates":[73,2090]},{"type":"Point","properties":{"Station_ID":"NWFM4","Station_Nam":"NW MICHIGAN RESEARCH FARM","Latitude":"44.88300","Longitude":"-85.67520","Snowdepth":"3.000","Units":"in","Rept_Date":"2020-12-14 13"},"coordinates":[2588,6606]},{"type":"Point","properties":{"Station_ID":"NH-CS-4","Station_Nam":"PITTSBURG 6.1 NE, NH","Latitude":"45.11060","Longitude":"-71.29760","Snowdepth":"3.000","Units":"in","Rept_Date":"2020-12-14 12"},"coordinates":[5822,6719]},{"type":"Point","properties":{"Station_ID":"NE-LA-38","Station_Nam":"LINCOLN 4.6 S, NE","Latitude":"40.74920","Longitude":"-96.68970","Snowdepth":"3.000","Units":"in","Rept_Date":"2020-12-14 13"},"coordinates":[111,4557]},{"type":"Point","properties":{"Station_ID":"NE-DG-8","Station_Nam":"OMAHA 7.0 W, NE","Latitude":"41.27451","Longitude":"-96.14630","Snowdepth":"3.000","Units":"in","Rept_Date":"2020-12-14 13"},"coordinates":[233,4818]},{"type":"Point","properties":{"Station_ID":"NE-DG-19","Station_Nam":"ELKHORN 0.7 ENE, NE","Latitude":"41.28780","Longitude":"-96.22450","Snowdepth":"3.000","Units":"in","Rept_Date":"2020-12-14 13"},"coordinates":[216,4824]},{"type":"Point","properties":{"Station_ID":"MSHI4","Station_Nam":"MARSHALLTOWN,IA","Latitude":"42.06670","Longitude":"-92.93330","Snowdepth":"3.000","Units":"in","Rept_Date":"2020-12-14 13"},"coordinates":[956,5210]},{"type":"Point","properties":{"Station_ID":"MO-TY-34","Station_Nam":"BRANSON 3.2 NNW, MO","Latitude":"36.68697","Longitude":"-93.27271","Snowdepth":"3.000","Units":"in","Rept_Date":"2020-12-14 15"},"coordinates":[880,2543]},{"type":"Point","properties":{"Station_ID":"MN-SL-18","Station_Nam":"DULUTH 1.4 NNW, MN","Latitude":"46.80321","Longitude":"-92.11240","Snowdepth":"3.000","Units":"in","Rept_Date":"2020-12-14 14"},"coordinates":[1141,7558]},{"type":"Point","properties":{"Station_ID":"MN-MR-21","Station_Nam":"PILLAGER 2.2 SW, MN","Latitude":"46.30496","Longitude":"-94.50714","Snowdepth":"3.000","Units":"in","Rept_Date":"2020-12-14 13"},"coordinates":[602,7311]},{"type":"Point","properties":{"Station_ID":"MI-NW-8","Station_Nam":"WHITE CLOUD 7.5 ENE, MI","Latitude":"43.60630","Longitude":"-85.64190","Snowdepth":"3.000","Units":"in","Rept_Date":"2020-12-14 12"},"coordinates":[2596,5973]},{"type":"Point","properties":{"Station_ID":"MI-EM-5","Station_Nam":"HARBOR SPRINGS 0.7 ENE, MI","Latitude":"45.43450","Longitude":"-84.97540","Snowdepth":"3.000","Units":"in","Rept_Date":"2020-12-14 12"},"coordinates":[2746,6880]},{"type":"Point","properties":{"Station_ID":"ME-YK-3","Station_Nam":"HOLLIS CENTER 5.4 NW, ME","Latitude":"43.64750","Longitude":"-70.67510","Snowdepth":"3.000","Units":"in","Rept_Date":"2020-12-14 12"},"coordinates":[5962,5994]},{"type":"Point","properties":{"Station_ID":"LOGI4","Station_Nam":"LOGAN,IA","Latitude":"41.63330","Longitude":"-95.81670","Snowdepth":"3.000","Units":"in","Rept_Date":"2020-12-14 13"},"coordinates":[307,4995]},{"type":"Point","properties":{"Station_ID":"LNOW3","Station_Nam":"LAND O LAKES","Latitude":"46.19000","Longitude":"-89.45700","Snowdepth":"3.000","Units":"in","Rept_Date":"2020-12-14 13"},"coordinates":[1738,7254]},{"type":"Point","properties":{"Station_ID":"LBRM5","Station_Nam":"LAKE BRONSON DAM","Latitude":"48.72410","Longitude":"-96.62180","Snowdepth":"3.000","Units":"in","Rept_Date":"2020-12-14 14"},"coordinates":[126,8510]},{"type":"Point","properties":{"Station_ID":"LANW3","Station_Nam":"LANCASTER 4WSW","Latitude":"42.82780","Longitude":"-90.78890","Snowdepth":"3.000","Units":"in","Rept_Date":"2020-12-14 14"},"coordinates":[1438,5588]},{"type":"Point","properties":{"Station_ID":"KSGM4","Station_Nam":"KEARSARGE","Latitude":"47.27520","Longitude":"-88.41700","Snowdepth":"3.000","Units":"in","Rept_Date":"2020-12-14 13"},"coordinates":[1972,7792]},{"type":"Point","properties":{"Station_ID":"KOMA","Station_Nam":"OMAHA EPPLEY AIRFIELD","Latitude":"41.30000","Longitude":"-95.90000","Snowdepth":"3.000","Units":"in","Rept_Date":"2020-12-15 06"},"coordinates":[289,4830]},{"type":"Point","properties":{"Station_ID":"KOFF","Station_Nam":"OMAHA / OFFUTT AIR FORCE BASE","Latitude":"41.11666","Longitude":"-95.90000","Snowdepth":"3.000","Units":"in","Rept_Date":"2020-12-15 00"},"coordinates":[289,4739]},{"type":"Point","properties":{"Station_ID":"KABM5","Station_Nam":"KABETOGAMA LAKE VISITOR CTR","Latitude":"48.40880","Longitude":"-93.04840","Snowdepth":"3.000","Units":"in","Rept_Date":"2020-12-14 13"},"coordinates":[930,8354]},{"type":"Point","properties":{"Station_ID":"JKMM1","Station_Nam":"JACKMAN","Latitude":"45.62600","Longitude":"-70.24600","Snowdepth":"3.000","Units":"in","Rept_Date":"2020-12-14 12"},"coordinates":[6059,6975]},{"type":"Point","properties":{"Station_ID":"JFNW3","Station_Nam":"JEFFERSON - WWTP","Latitude":"42.99470","Longitude":"-88.80390","Snowdepth":"3.000","Units":"in","Rept_Date":"2020-12-14 13"},"coordinates":[1885,5670]},{"type":"Point","properties":{"Station_ID":"IWOM4","Station_Nam":"IRONWOOD#2","Latitude":"46.46520","Longitude":"-90.13820","Snowdepth":"3.000","Units":"in","Rept_Date":"2020-12-14 13"},"coordinates":[1585,7391]},{"type":"Point","properties":{"Station_ID":"IRMM4","Station_Nam":"WWTP","Latitude":"46.46670","Longitude":"-90.18330","Snowdepth":"3.000","Units":"in","Rept_Date":"2020-12-14 13"},"coordinates":[1574,7391]},{"type":"Point","properties":{"Station_ID":"IL-SP-27","Station_Nam":"DAVIS 2.7 N, IL","Latitude":"42.46110","Longitude":"-89.40890","Snowdepth":"3.000","Units":"in","Rept_Date":"2020-12-14 13"},"coordinates":[1749,5406]},{"type":"Point","properties":{"Station_ID":"IL-SP-25","Station_Nam":"FREEPORT 1.7 NW, IL","Latitude":"42.30427","Longitude":"-89.66285","Snowdepth":"3.000","Units":"in","Rept_Date":"2020-12-14 13"},"coordinates":[1692,5328]},{"type":"Point","properties":{"Station_ID":"IL-JD-6","Station_Nam":"HANOVER 0.2 NW, IL","Latitude":"42.25640","Longitude":"-90.28109","Snowdepth":"3.000","Units":"in","Rept_Date":"2020-12-14 13"},"coordinates":[1553,5304]},{"type":"Point","properties":{"Station_ID":"IA-WR-5","Station_Nam":"HARTFORD 1.0 E, IA","Latitude":"41.46014","Longitude":"-93.38550","Snowdepth":"3.000","Units":"in","Rept_Date":"2020-12-14 14"},"coordinates":[854,4910]},{"type":"Point","properties":{"Station_ID":"IA-PT-13","Station_Nam":"COUNCIL BLUFFS 2.1 SSE, IA","Latitude":"41.21159","Longitude":"-95.84800","Snowdepth":"3.000","Units":"in","Rept_Date":"2020-12-14 14"},"coordinates":[300,4786]},{"type":"Point","properties":{"Station_ID":"IA-DV-7","Station_Nam":"BLOOMFIELD 4.2 WNW, IA","Latitude":"40.77675","Longitude":"-92.48850","Snowdepth":"3.000","Units":"in","Rept_Date":"2020-12-14 13"},"coordinates":[1056,4571]},{"type":"Point","properties":{"Station_ID":"HOLM1","Station_Nam":"HOLLIS","Latitude":"43.64750","Longitude":"-70.67490","Snowdepth":"3.000","Units":"in","Rept_Date":"2020-12-14 12"},"coordinates":[5962,5994]},{"type":"Point","properties":{"Station_ID":"HARW3","Station_Nam":"HARTFORD,WI","Latitude":"43.31670","Longitude":"-88.40000","Snowdepth":"3.000","Units":"in","Rept_Date":"2020-12-14 12"},"coordinates":[1976,5830]},{"type":"Point","properties":{"Station_ID":"GNLM4","Station_Nam":"GREENLAND 6N","Latitude":"46.87360","Longitude":"-89.10060","Snowdepth":"3.000","Units":"in","Rept_Date":"2020-12-14 13"},"coordinates":[1818,7593]},{"type":"Point","properties":{"Station_ID":"GERW3","Station_Nam":"GERMANTOWN,WI","Latitude":"43.21670","Longitude":"-88.11670","Snowdepth":"3.000","Units":"in","Rept_Date":"2020-12-14 13"},"coordinates":[2039,5780]},{"type":"Point","properties":{"Station_ID":"FMTN1","Station_Nam":"FREMONT,NE","Latitude":"41.43330","Longitude":"-96.48330","Snowdepth":"3.000","Units":"in","Rept_Date":"2020-12-14 13"},"coordinates":[157,4896]},{"type":"Point","properties":{"Station_ID":"FDCW3","Station_Nam":"FOND DU LAC-MID","Latitude":"43.63330","Longitude":"-88.45000","Snowdepth":"3.000","Units":"in","Rept_Date":"2020-12-15 06"},"coordinates":[1964,5987]},{"type":"Point","properties":{"Station_ID":"FCLN1","Station_Nam":"FT CALHOUN 4W","Latitude":"41.44670","Longitude":"-96.09190","Snowdepth":"3.000","Units":"in","Rept_Date":"2020-12-14 13"},"coordinates":[245,4903]},{"type":"Point","properties":{"Station_ID":"FCDW3","Station_Nam":"FOND DU LAC-AM","Latitude":"43.76670","Longitude":"-88.46670","Snowdepth":"3.000","Units":"in","Rept_Date":"2020-12-14 13"},"coordinates":[1961,6053]},{"type":"Point","properties":{"Station_ID":"FATW3","Station_Nam":"FORT ATKINSON,WI","Latitude":"42.88330","Longitude":"-88.83330","Snowdepth":"3.000","Units":"in","Rept_Date":"2020-12-14 13"},"coordinates":[1878,5615]},{"type":"Point","properties":{"Station_ID":"FARM1","Station_Nam":"FARMINGTON","Latitude":"44.68930","Longitude":"-70.15640","Snowdepth":"3.000","Units":"in","Rept_Date":"2020-12-14 12"},"coordinates":[6079,6510]},{"type":"Point","properties":{"Station_ID":"EZBI2","Station_Nam":"ELIZABETH","Latitude":"42.31620","Longitude":"-90.22690","Snowdepth":"3.000","Units":"in","Rept_Date":"2020-12-14 12"},"coordinates":[1565,5334]},{"type":"Point","properties":{"Station_ID":"EKRI4","Station_Nam":"ELKADER 6SSW","Latitude":"42.77540","Longitude":"-91.45370","Snowdepth":"3.000","Units":"in","Rept_Date":"2020-12-14 13"},"coordinates":[1289,5562]},{"type":"Point","properties":{"Station_ID":"DURM1","Station_Nam":"DURHAM","Latitude":"43.99960","Longitude":"-70.09630","Snowdepth":"3.000","Units":"in","Rept_Date":"2020-12-14 12"},"coordinates":[6093,6168]},{"type":"Point","properties":{"Station_ID":"DLHM5","Station_Nam":"DULUTH NWS","Latitude":"46.83680","Longitude":"-92.21080","Snowdepth":"3.000","Units":"in","Rept_Date":"2020-12-15 06"},"coordinates":[1118,7575]},{"type":"Point","properties":{"Station_ID":"DLH","Station_Nam":"DULUTH, MN","Latitude":"46.83690","Longitude":"-92.21030","Snowdepth":"3.000","Units":"in","Rept_Date":"2020-12-15 00"},"coordinates":[1119,7575]},{"type":"Point","properties":{"Station_ID":"DARW3","Station_Nam":"DARLINGTON","Latitude":"42.67780","Longitude":"-90.11860","Snowdepth":"3.000","Units":"in","Rept_Date":"2020-12-14 13"},"coordinates":[1589,5513]},{"type":"Point","properties":{"Station_ID":"CRTI4","Station_Nam":"CRESTON,IA","Latitude":"41.03690","Longitude":"-94.39440","Snowdepth":"3.000","Units":"in","Rept_Date":"2020-12-14 16"},"coordinates":[627,4700]},{"type":"Point","properties":{"Station_ID":"CRPI4","Station_Nam":"CEDAR RAPIDS NO 1","Latitude":"42.05000","Longitude":"-91.58810","Snowdepth":"3.000","Units":"in","Rept_Date":"2020-12-14 23"},"coordinates":[1259,5202]},{"type":"Point","properties":{"Station_ID":"CRNI4","Station_Nam":"CORNING","Latitude":"40.98860","Longitude":"-94.74910","Snowdepth":"3.000","Units":"in","Rept_Date":"2020-12-14 13"},"coordinates":[548,4676]},{"type":"Point","properties":{"Station_ID":"CORM1","Station_Nam":"CORINNA","Latitude":"44.91980","Longitude":"-69.24180","Snowdepth":"3.000","Units":"in","Rept_Date":"2020-12-14 15"},"coordinates":[6285,6625]},{"type":"Point","properties":{"Station_ID":"CHRM4","Station_Nam":"CHARLEVOIX","Latitude":"45.31720","Longitude":"-85.26720","Snowdepth":"3.000","Units":"in","Rept_Date":"2020-12-14 13"},"coordinates":[2680,6822]},{"type":"Point","properties":{"Station_ID":"CASM7","Station_Nam":"CASSVILLE","Latitude":"36.68740","Longitude":"-93.86950","Snowdepth":"3.000","Units":"in","Rept_Date":"2020-12-14 14"},"coordinates":[745,2544]},{"type":"Point","properties":{"Station_ID":"CASI4","Station_Nam":"CASCADE","Latitude":"42.29880","Longitude":"-90.99840","Snowdepth":"3.000","Units":"in","Rept_Date":"2020-12-14 13"},"coordinates":[1391,5325]},{"type":"Point","properties":{"Station_ID":"CAN-ON-245","Station_Nam":"PHELPSTON 3.1 ESE, CAN","Latitude":"44.50564","Longitude":"-79.81035","Snowdepth":"3.000","Units":"in","Rept_Date":"2020-12-14 13"},"coordinates":[3908,6419]},{"type":"Point","properties":{"Station_ID":"CAAW2","Station_Nam":"CANAAN VALLEY","Latitude":"39.05890","Longitude":"-79.44030","Snowdepth":"3.000","Units":"in","Rept_Date":"2020-12-14 14"},"coordinates":[3991,3719]},{"type":"Point","properties":{"Station_ID":"BROW3","Station_Nam":"BRODHEAD,WI","Latitude":"42.61720","Longitude":"-89.38970","Snowdepth":"3.000","Units":"in","Rept_Date":"2020-12-14 13"},"coordinates":[1753,5483]},{"type":"Point","properties":{"Station_ID":"BKBW2","Station_Nam":"DAVIS.","Latitude":"39.09830","Longitude":"-79.43190","Snowdepth":"3.000","Units":"in","Rept_Date":"2020-12-14 12"},"coordinates":[3993,3739]},{"type":"Point","properties":{"Station_ID":"BEAW3","Station_Nam":"BEAVER DAM,WI","Latitude":"43.45000","Longitude":"-88.85000","Snowdepth":"3.000","Units":"in","Rept_Date":"2020-12-14 13"},"coordinates":[1874,5896]},{"type":"Point","properties":{"Station_ID":"AR-SR-9","Station_Nam":"LESLIE 6.0 SW, AR","Latitude":"35.77460","Longitude":"-92.63870","Snowdepth":"3.000","Units":"in","Rept_Date":"2020-12-14 13"},"coordinates":[1022,2091]},{"type":"Point","properties":{"Station_ID":"ANRM7","Station_Nam":"ANDERSON 3W","Latitude":"36.64490","Longitude":"-94.48550","Snowdepth":"3.000","Units":"in","Rept_Date":"2020-12-14 12"},"coordinates":[607,2523]},{"type":"Point","properties":{"Station_ID":"ANJ","Station_Nam":"SAULT STE MARIE","Latitude":"46.46670","Longitude":"-84.36670","Snowdepth":"3.000","Units":"in","Rept_Date":"2020-12-15 00"},"coordinates":[2883,7391]},{"type":"Point","properties":{"Station_ID":"AKCK1","Station_Nam":"ARKANSAS CITY","Latitude":"37.06310","Longitude":"-97.03990","Snowdepth":"3.000","Units":"in","Rept_Date":"2020-12-14 12"},"coordinates":[32,2730]},{"type":"Point","properties":{"Station_ID":"AESI4","Station_Nam":"BLO SQUAW CK ON THE SOUTH SKUNK R.","Latitude":"41.96250","Longitude":"-93.56110","Snowdepth":"3.000","Units":"in","Rept_Date":"2020-12-14 12"},"coordinates":[815,5159]},{"type":"Point","properties":{"Station_ID":"39.0983_079.4319","Station_Nam":"DAVIS (BKBW2)","Latitude":"39.09830","Longitude":"-79.43190","Snowdepth":"3.000","Units":"in","Rept_Date":"2020-12-14 12"},"coordinates":[3993,3739]},{"type":"Point","properties":{"Station_ID":"39.0589_079.4403","Station_Nam":"CANAAN VALLEY #2 (CAAW2)","Latitude":"39.05888","Longitude":"-79.44027","Snowdepth":"3.000","Units":"in","Rept_Date":"2020-12-14 14"},"coordinates":[3991,3719]},{"type":"Point","properties":{"Station_ID":"WI-SR-1","Station_Nam":"HAYWARD 9.2 NNE, WI","Latitude":"46.13255","Longitude":"-91.40500","Snowdepth":"2.700","Units":"in","Rept_Date":"2020-12-14 12"},"coordinates":[1300,7226]},{"type":"Point","properties":{"Station_ID":"IA-BT-12","Station_Nam":"FAIRFAX 4.0 NW, IA","Latitude":"41.96223","Longitude":"-91.83675","Snowdepth":"2.700","Units":"in","Rept_Date":"2020-12-14 13"},"coordinates":[1203,5158]},{"type":"Point","properties":{"Station_ID":"WI-RK-12","Station_Nam":"JANESVILLE 3.1 W, WI","Latitude":"42.67576","Longitude":"-89.07614","Snowdepth":"2.500","Units":"in","Rept_Date":"2020-12-14 13"},"coordinates":[1824,5512]},{"type":"Point","properties":{"Station_ID":"WI-IR-3","Station_Nam":"PENCE 0.1 E, WI","Latitude":"46.41555","Longitude":"-90.27013","Snowdepth":"2.500","Units":"in","Rept_Date":"2020-12-14 13"},"coordinates":[1555,7366]},{"type":"Point","properties":{"Station_ID":"WI-CB-4","Station_Nam":"PORTAGE 5.7 WSW, WI","Latitude":"43.51411","Longitude":"-89.56910","Snowdepth":"2.500","Units":"in","Rept_Date":"2020-12-14 12"},"coordinates":[1713,5928]},{"type":"Point","properties":{"Station_ID":"NH-GR-56","Station_Nam":"EASTON 0.6 ESE, NH","Latitude":"44.14790","Longitude":"-71.78950","Snowdepth":"2.500","Units":"in","Rept_Date":"2020-12-14 16"},"coordinates":[5712,6242]},{"type":"Point","properties":{"Station_ID":"NE-SY-31","Station_Nam":"GRETNA 3.0 NNE, NE","Latitude":"41.18158","Longitude":"-96.22400","Snowdepth":"2.500","Units":"in","Rept_Date":"2020-12-14 13"},"coordinates":[216,4772]},{"type":"Point","properties":{"Station_ID":"NE-SY-11","Station_Nam":"LA VISTA 2.0 WSW, NE","Latitude":"41.17702","Longitude":"-96.07571","Snowdepth":"2.500","Units":"in","Rept_Date":"2020-12-14 13"},"coordinates":[249,4769]},{"type":"Point","properties":{"Station_ID":"NE-SW-7","Station_Nam":"SEWARD 0.5 NE, NE","Latitude":"40.91689","Longitude":"-97.08981","Snowdepth":"2.500","Units":"in","Rept_Date":"2020-12-14 13"},"coordinates":[21,4640]},{"type":"Point","properties":{"Station_ID":"NE-LA-41","Station_Nam":"MALCOLM 0.3 SSE, NE","Latitude":"40.90461","Longitude":"-96.86279","Snowdepth":"2.500","Units":"in","Rept_Date":"2020-12-14 15"},"coordinates":[72,4634]},{"type":"Point","properties":{"Station_ID":"NE-LA-19","Station_Nam":"LINCOLN 6.8 SE, NE","Latitude":"40.74944","Longitude":"-96.59280","Snowdepth":"2.500","Units":"in","Rept_Date":"2020-12-14 13"},"coordinates":[133,4557]},{"type":"Point","properties":{"Station_ID":"MN-SL-105","Station_Nam":"DULUTH 11.8 NNE, MN","Latitude":"46.94680","Longitude":"-92.03925","Snowdepth":"2.500","Units":"in","Rept_Date":"2020-12-14 14"},"coordinates":[1157,7629]},{"type":"Point","properties":{"Station_ID":"ME-SM-10","Station_Nam":"NORTH NEW PORTLAND 0.3 WSW, ME","Latitude":"44.92353","Longitude":"-70.02788","Snowdepth":"2.500","Units":"in","Rept_Date":"2020-12-14 12"},"coordinates":[6108,6626]},{"type":"Point","properties":{"Station_ID":"KS-CL-19","Station_Nam":"ARKANSAS CITY 3.9 SSW, KS","Latitude":"37.01415","Longitude":"-97.06150","Snowdepth":"2.500","Units":"in","Rept_Date":"2020-12-14 13"},"coordinates":[27,2706]},{"type":"Point","properties":{"Station_ID":"IA-SH-6","Station_Nam":"KIRKMAN 1.0 SE, IA","Latitude":"41.71810","Longitude":"-95.25310","Snowdepth":"2.500","Units":"in","Rept_Date":"2020-12-14 13"},"coordinates":[434,5037]},{"type":"Point","properties":{"Station_ID":"IA-LN-53","Station_Nam":"ROBINS 0.8 SE, IA","Latitude":"42.06960","Longitude":"-91.66042","Snowdepth":"2.500","Units":"in","Rept_Date":"2020-12-14 13"},"coordinates":[1242,5212]},{"type":"Point","properties":{"Station_ID":"WI-WS-5","Station_Nam":"JACKSON 0.2 WSW, WI","Latitude":"43.32007","Longitude":"-88.16820","Snowdepth":"2.400","Units":"in","Rept_Date":"2020-12-14 12"},"coordinates":[2028,5832]},{"type":"Point","properties":{"Station_ID":"ME-CM-54","Station_Nam":"WINDHAM 3.9 NW, ME","Latitude":"43.85787","Longitude":"-70.46200","Snowdepth":"2.400","Units":"in","Rept_Date":"2020-12-14 12"},"coordinates":[6010,6098]},{"type":"Point","properties":{"Station_ID":"CAN-ON-741","Station_Nam":"KIMBERLEY 2.7 WSW, CAN","Latitude":"44.37820","Longitude":"-80.56956","Snowdepth":"2.400","Units":"in","Rept_Date":"2020-12-14 13"},"coordinates":[3737,6356]},{"type":"Point","properties":{"Station_ID":"CAN-ON-620","Station_Nam":"GOODERHAM 3.4 SSW, CAN","Latitude":"44.87690","Longitude":"-78.39265","Snowdepth":"2.400","Units":"in","Rept_Date":"2020-12-14 12"},"coordinates":[4227,6603]},{"type":"Point","properties":{"Station_ID":"OK-RG-14","Station_Nam":"OWASSO 4.6 ENE, OK","Latitude":"36.30176","Longitude":"-95.75649","Snowdepth":"2.300","Units":"in","Rept_Date":"2020-12-14 15"},"coordinates":[321,2352]},{"type":"Point","properties":{"Station_ID":"OK-PW-4","Station_Nam":"TERLTON 3.7 ESE, OK","Latitude":"36.17566","Longitude":"-96.42581","Snowdepth":"2.300","Units":"in","Rept_Date":"2020-12-14 14"},"coordinates":[170,2290]},{"type":"Point","properties":{"Station_ID":"NE-SY-25","Station_Nam":"GRETNA 2.9 NNE, NE","Latitude":"41.17831","Longitude":"-96.21984","Snowdepth":"2.300","Units":"in","Rept_Date":"2020-12-14 14"},"coordinates":[217,4770]},{"type":"Point","properties":{"Station_ID":"WI-GL-4","Station_Nam":"GREEN LAKE 0.8 E, WI","Latitude":"43.84369","Longitude":"-88.94066","Snowdepth":"2.200","Units":"in","Rept_Date":"2020-12-14 13"},"coordinates":[1854,6091]},{"type":"Point","properties":{"Station_ID":"OK-PG-8","Station_Nam":"CANADIAN 1.1 SE, OK","Latitude":"35.16190","Longitude":"-95.63550","Snowdepth":"2.200","Units":"in","Rept_Date":"2020-12-14 13"},"coordinates":[348,1787]},{"type":"Point","properties":{"Station_ID":"NE-LA-64","Station_Nam":"DAVEY 3.7 S, NE","Latitude":"40.92966","Longitude":"-96.65748","Snowdepth":"2.200","Units":"in","Rept_Date":"2020-12-14 13"},"coordinates":[118,4647]},{"type":"Point","properties":{"Station_ID":"IL-HY-15","Station_Nam":"COAL VALLEY 2.6 E, IL","Latitude":"41.44513","Longitude":"-90.39730","Snowdepth":"2.200","Units":"in","Rept_Date":"2020-12-14 13"},"coordinates":[1526,4902]},{"type":"Point","properties":{"Station_ID":"WI-AS-6","Station_Nam":"ODANAH 1.6 E, WI","Latitude":"46.60462","Longitude":"-90.64920","Snowdepth":"2.100","Units":"in","Rept_Date":"2020-12-14 13"},"coordinates":[1470,7460]},{"type":"Point","properties":{"Station_ID":"QGT","Station_Nam":"QGT","Latitude":"49.64720","Longitude":"-67.62640","Snowdepth":"2.087","Units":"in","Rept_Date":"2020-12-14 12"},"coordinates":[6648,8968]},{"type":"Point","properties":{"Station_ID":"WV-PR-10","Station_Nam":"TERRA ALTA 4.9 NNE, WV","Latitude":"39.51024","Longitude":"-79.51024","Snowdepth":"2.000","Units":"in","Rept_Date":"2020-12-14 13"},"coordinates":[3975,3943]},{"type":"Point","properties":{"Station_ID":"WTRM4","Station_Nam":"WATERSMEET 12WSW","Latitude":"46.22310","Longitude":"-89.40850","Snowdepth":"2.000","Units":"in","Rept_Date":"2020-12-14 12"},"coordinates":[1749,7271]},{"type":"Point","properties":{"Station_ID":"WTNM4","Station_Nam":"WATTON 2WSW","Latitude":"46.52660","Longitude":"-88.64240","Snowdepth":"2.000","Units":"in","Rept_Date":"2020-12-14 13"},"coordinates":[1921,7421]},{"type":"Point","properties":{"Station_ID":"WRUM5","Station_Nam":"WARROAD 4W","Latitude":"48.89600","Longitude":"-95.40700","Snowdepth":"2.000","Units":"in","Rept_Date":"2020-12-15 04"},"coordinates":[400,8596]},{"type":"Point","properties":{"Station_ID":"WRSM5","Station_Nam":"WRENSHALL","Latitude":"46.61550","Longitude":"-92.38380","Snowdepth":"2.000","Units":"in","Rept_Date":"2020-12-14 14"},"coordinates":[1080,7465]},{"type":"Point","properties":{"Station_ID":"WNDM1","Station_Nam":"WINDHAM 2NW","Latitude":"43.85670","Longitude":"-70.46630","Snowdepth":"2.000","Units":"in","Rept_Date":"2020-12-14 12"},"coordinates":[6009,6098]},{"type":"Point","properties":{"Station_ID":"WI-WW-14","Station_Nam":"DARIEN 1.6 NNE, WI","Latitude":"42.62361","Longitude":"-88.70083","Snowdepth":"2.000","Units":"in","Rept_Date":"2020-12-14 13"},"coordinates":[1908,5486]},{"type":"Point","properties":{"Station_ID":"WI-SK-2","Station_Nam":"ROCK SPRINGS 2.8 WSW, WI","Latitude":"43.45901","Longitude":"-89.96540","Snowdepth":"2.000","Units":"in","Rept_Date":"2020-12-14 13"},"coordinates":[1624,5900]},{"type":"Point","properties":{"Station_ID":"WI-PR-2","Station_Nam":"BUTTERNUT 5.9 SW, WI","Latitude":"45.96501","Longitude":"-90.59750","Snowdepth":"2.000","Units":"in","Rept_Date":"2020-12-14 12"},"coordinates":[1481,7143]},{"type":"Point","properties":{"Station_ID":"WI-DL-18","Station_Nam":"ELDORADO 2.3 S, WI","Latitude":"43.79206","Longitude":"-88.61655","Snowdepth":"2.000","Units":"in","Rept_Date":"2020-12-14 13"},"coordinates":[1927,6066]},{"type":"Point","properties":{"Station_ID":"WI-DA-86","Station_Nam":"COTTAGE GROVE 3.6 SSW, WI","Latitude":"43.03516","Longitude":"-89.22080","Snowdepth":"2.000","Units":"in","Rept_Date":"2020-12-14 13"},"coordinates":[1791,5690]},{"type":"Point","properties":{"Station_ID":"WELM4","Station_Nam":"WELLSTON TIPPY DAM","Latitude":"44.25860","Longitude":"-85.93940","Snowdepth":"2.000","Units":"in","Rept_Date":"2020-12-14 13"},"coordinates":[2529,6297]},{"type":"Point","properties":{"Station_ID":"WASM7","Station_Nam":"WASOLA 5N","Latitude":"36.85810","Longitude":"-92.58750","Snowdepth":"2.000","Units":"in","Rept_Date":"2020-12-14 14"},"coordinates":[1034,2628]},{"type":"Point","properties":{"Station_ID":"VOLI4","Station_Nam":"VOLGA 1NE","Latitude":"42.81150","Longitude":"-91.52300","Snowdepth":"2.000","Units":"in","Rept_Date":"2020-12-14 12"},"coordinates":[1273,5579]},{"type":"Point","properties":{"Station_ID":"VNTI4","Station_Nam":"VINTON","Latitude":"42.17020","Longitude":"-92.00770","Snowdepth":"2.000","Units":"in","Rept_Date":"2020-12-14 13"},"coordinates":[1164,5262]},{"type":"Point","properties":{"Station_ID":"TX-LT-2","Station_Nam":"MEXIA 9.4 SSE, TX","Latitude":"31.55614","Longitude":"-96.42510","Snowdepth":"2.000","Units":"in","Rept_Date":"2020-12-14 11"},"coordinates":[171,0]},{"type":"Point","properties":{"Station_ID":"TOPM1","Station_Nam":"TOPSFIELD","Latitude":"45.43470","Longitude":"-67.72020","Snowdepth":"2.000","Units":"in","Rept_Date":"2020-12-14 12"},"coordinates":[6627,6880]},{"type":"Point","properties":{"Station_ID":"TOGM5","Station_Nam":"CELINA 2E","Latitude":"47.86630","Longitude":"-93.02660","Snowdepth":"2.000","Units":"in","Rept_Date":"2020-12-14 15"},"coordinates":[935,8085]},{"type":"Point","properties":{"Station_ID":"TLDI4","Station_Nam":"TOLEDO,IA","Latitude":"41.98330","Longitude":"-92.58330","Snowdepth":"2.000","Units":"in","Rept_Date":"2020-12-14 13"},"coordinates":[1035,5169]},{"type":"Point","properties":{"Station_ID":"TCMN1","Station_Nam":"TECUMSEH,NE","Latitude":"40.36670","Longitude":"-96.18330","Snowdepth":"2.000","Units":"in","Rept_Date":"2020-12-14 14"},"coordinates":[225,4368]},{"type":"Point","properties":{"Station_ID":"TCMM4","Station_Nam":"TRAVERSE CITY MUNSON","Latitude":"44.76070","Longitude":"-85.64430","Snowdepth":"2.000","Units":"in","Rept_Date":"2020-12-14 11"},"coordinates":[2595,6546]},{"type":"Point","properties":{"Station_ID":"STWO2","Station_Nam":"STILLWATER","Latitude":"36.11720","Longitude":"-97.09500","Snowdepth":"2.000","Units":"in","Rept_Date":"2020-12-14 14"},"coordinates":[20,2261]},{"type":"Point","properties":{"Station_ID":"SPNN1","Station_Nam":"MAHA SCOUT CAMP","Latitude":"41.06390","Longitude":"-96.00690","Snowdepth":"2.000","Units":"in","Rept_Date":"2020-12-14 14"},"coordinates":[265,4713]},{"type":"Point","properties":{"Station_ID":"SHAO2","Station_Nam":"SHAWNEE,OK","Latitude":"35.35000","Longitude":"-96.90000","Snowdepth":"2.000","Units":"in","Rept_Date":"2020-12-14 14"},"coordinates":[64,1881]},{"type":"Point","properties":{"Station_ID":"SEMO2","Station_Nam":"SEMINOLE","Latitude":"35.23160","Longitude":"-96.65300","Snowdepth":"2.000","Units":"in","Rept_Date":"2020-12-14 13"},"coordinates":[119,1822]},{"type":"Point","properties":{"Station_ID":"SDHI4","Station_Nam":"SHENANDOAH,IA","Latitude":"40.78330","Longitude":"-95.35000","Snowdepth":"2.000","Units":"in","Rept_Date":"2020-12-14 14"},"coordinates":[412,4574]},{"type":"Point","properties":{"Station_ID":"SACW3","Station_Nam":"SAUK CITY","Latitude":"43.26000","Longitude":"-89.73580","Snowdepth":"2.000","Units":"in","Rept_Date":"2020-12-14 12"},"coordinates":[1675,5802]},{"type":"Point","properties":{"Station_ID":"ROCW3","Station_Nam":"ROCHESTER WWTP","Latitude":"42.72690","Longitude":"-88.22580","Snowdepth":"2.000","Units":"in","Rept_Date":"2020-12-14 10"},"coordinates":[2015,5538]},{"type":"Point","properties":{"Station_ID":"RKNW3","Station_Nam":"MARKESAN","Latitude":"43.70280","Longitude":"-88.99890","Snowdepth":"2.000","Units":"in","Rept_Date":"2020-12-14 13"},"coordinates":[1841,6021]},{"type":"Point","properties":{"Station_ID":"RANI4","Station_Nam":"RANDOLPH,IA","Latitude":"40.86670","Longitude":"-95.56670","Snowdepth":"2.000","Units":"in","Rept_Date":"2020-12-14 14"},"coordinates":[364,4615]},{"type":"Point","properties":{"Station_ID":"RALO2","Station_Nam":"RALSTON,OK","Latitude":"36.50000","Longitude":"-96.73330","Snowdepth":"2.000","Units":"in","Rept_Date":"2020-12-14 13"},"coordinates":[101,2451]},{"type":"Point","properties":{"Station_ID":"QCAI2","Station_Nam":"MOLINE SNOW","Latitude":"41.39990","Longitude":"-90.54800","Snowdepth":"2.000","Units":"in","Rept_Date":"2020-12-15 00"},"coordinates":[1492,4880]},{"type":"Point","properties":{"Station_ID":"PTBN3","Station_Nam":"PITTSBURG RESERVOIR","Latitude":"45.04690","Longitude":"-71.38300","Snowdepth":"2.000","Units":"in","Rept_Date":"2020-12-14 12"},"coordinates":[5803,6688]},{"type":"Point","properties":{"Station_ID":"PORW3","Station_Nam":"PORTAGE,WI","Latitude":"43.53190","Longitude":"-89.43780","Snowdepth":"2.000","Units":"in","Rept_Date":"2020-12-14 14"},"coordinates":[1742,5937]},{"type":"Point","properties":{"Station_ID":"PLYW3","Station_Nam":"PLYMOUTH,WI","Latitude":"43.75000","Longitude":"-87.98330","Snowdepth":"2.000","Units":"in","Rept_Date":"2020-12-14 13"},"coordinates":[2069,6045]},{"type":"Point","properties":{"Station_ID":"PHEW3","Station_Nam":"PHELPS","Latitude":"46.06630","Longitude":"-89.07520","Snowdepth":"2.000","Units":"in","Rept_Date":"2020-12-14 13"},"coordinates":[1824,7193]},{"type":"Point","properties":{"Station_ID":"PDGM4","Station_Nam":"PAULDING","Latitude":"46.39760","Longitude":"-89.17940","Snowdepth":"2.000","Units":"in","Rept_Date":"2020-12-14 12"},"coordinates":[1800,7357]},{"type":"Point","properties":{"Station_ID":"OZOA4","Station_Nam":"OZONE","Latitude":"35.64640","Longitude":"-93.43470","Snowdepth":"2.000","Units":"in","Rept_Date":"2020-12-14 15"},"coordinates":[843,2028]},{"type":"Point","properties":{"Station_ID":"ONCW3","Station_Nam":"SOUTH","Latitude":"43.11170","Longitude":"-88.49970","Snowdepth":"2.000","Units":"in","Rept_Date":"2020-12-14 14"},"coordinates":[1953,5728]},{"type":"Point","properties":{"Station_ID":"OK-RG-20","Station_Nam":"OWASSO 1.5 ESE, OK","Latitude":"36.27336","Longitude":"-95.80875","Snowdepth":"2.000","Units":"in","Rept_Date":"2020-12-14 12"},"coordinates":[309,2338]},{"type":"Point","properties":{"Station_ID":"OK-KY-7","Station_Nam":"NEWKIRK 0.3 W, OK","Latitude":"36.88200","Longitude":"-97.06130","Snowdepth":"2.000","Units":"in","Rept_Date":"2020-12-14 14"},"coordinates":[27,2640]},{"type":"Point","properties":{"Station_ID":"OCOW3","Station_Nam":"OCONOMOWOC,WI","Latitude":"43.10190","Longitude":"-88.50330","Snowdepth":"2.000","Units":"in","Rept_Date":"2020-12-14 13"},"coordinates":[1952,5723]},{"type":"Point","properties":{"Station_ID":"OAXN1","Station_Nam":"VALLEY 1WNW","Latitude":"41.31970","Longitude":"-96.36720","Snowdepth":"2.000","Units":"in","Rept_Date":"2020-12-15 06"},"coordinates":[184,4840]},{"type":"Point","properties":{"Station_ID":"NH-MR-47","Station_Nam":"DUNBARTON 3.8 SE, NH","Latitude":"43.08532","Longitude":"-71.54419","Snowdepth":"2.000","Units":"in","Rept_Date":"2020-12-14 11"},"coordinates":[5767,5715]},{"type":"Point","properties":{"Station_ID":"NH-HL-48","Station_Nam":"GREENVILLE 1.1 ENE, NH","Latitude":"42.77674","Longitude":"-71.77990","Snowdepth":"2.000","Units":"in","Rept_Date":"2020-12-14 13"},"coordinates":[5714,5562]},{"type":"Point","properties":{"Station_ID":"NH-BK-2","Station_Nam":"BELMONT 1.7 SW, NH","Latitude":"43.43556","Longitude":"-71.50690","Snowdepth":"2.000","Units":"in","Rept_Date":"2020-12-14 12"},"coordinates":[5775,5889]},{"type":"Point","properties":{"Station_ID":"NE-SY-18","Station_Nam":"PAPILLION 0.8 WSW, NE","Latitude":"41.15318","Longitude":"-96.05580","Snowdepth":"2.000","Units":"in","Rept_Date":"2020-12-14 13"},"coordinates":[254,4757]},{"type":"Point","properties":{"Station_ID":"NE-LA-52","Station_Nam":"LINCOLN 1.2 ENE, NE","Latitude":"40.82411","Longitude":"-96.66780","Snowdepth":"2.000","Units":"in","Rept_Date":"2020-12-14 13"},"coordinates":[116,4594]},{"type":"Point","properties":{"Station_ID":"NE-DD-3","Station_Nam":"FREMONT 0.6 S, NE","Latitude":"41.43141","Longitude":"-96.49210","Snowdepth":"2.000","Units":"in","Rept_Date":"2020-12-14 13"},"coordinates":[155,4895]},{"type":"Point","properties":{"Station_ID":"NCKN1","Station_Nam":"NICKERSON 3NE","Latitude":"41.56500","Longitude":"-96.44250","Snowdepth":"2.000","Units":"in","Rept_Date":"2020-12-14 13"},"coordinates":[167,4962]},{"type":"Point","properties":{"Station_ID":"MQT","Station_Nam":"MARQUETTE, MI","Latitude":"46.53140","Longitude":"-87.54920","Snowdepth":"2.000","Units":"in","Rept_Date":"2020-12-15 06"},"coordinates":[2167,7424]},{"type":"Point","properties":{"Station_ID":"MO-MD-8","Station_Nam":"ANDERSON 2.7 E, MO","Latitude":"36.65796","Longitude":"-94.40019","Snowdepth":"2.000","Units":"in","Rept_Date":"2020-12-14 13"},"coordinates":[626,2529]},{"type":"Point","properties":{"Station_ID":"MO-FSA-145","Station_Nam":"NEOSHO 3.9 WNW, MO","Latitude":"36.86360","Longitude":"-94.44080","Snowdepth":"2.000","Units":"in","Rept_Date":"2020-12-14 13"},"coordinates":[617,2631]},{"type":"Point","properties":{"Station_ID":"MNSM4","Station_Nam":"MUNISING","Latitude":"46.41210","Longitude":"-86.66250","Snowdepth":"2.000","Units":"in","Rept_Date":"2020-12-14 11"},"coordinates":[2366,7364]},{"type":"Point","properties":{"Station_ID":"MNBW2","Station_Nam":"MT. NEBO 1S","Latitude":"38.18790","Longitude":"-80.84840","Snowdepth":"2.000","Units":"in","Rept_Date":"2020-12-14 12"},"coordinates":[3674,3287]},{"type":"Point","properties":{"Station_ID":"MN-SL-175","Station_Nam":"DULUTH 4.6 NE, MN","Latitude":"46.83860","Longitude":"-92.05140","Snowdepth":"2.000","Units":"in","Rept_Date":"2020-12-14 13"},"coordinates":[1154,7576]},{"type":"Point","properties":{"Station_ID":"MN-SL-15","Station_Nam":"CHISHOLM 0.4 WSW, MN","Latitude":"47.48557","Longitude":"-92.88690","Snowdepth":"2.000","Units":"in","Rept_Date":"2020-12-14 13"},"coordinates":[966,7897]},{"type":"Point","properties":{"Station_ID":"MN-SL-108","Station_Nam":"IRON JUNCTION 3.4 NNW, MN","Latitude":"47.46150","Longitude":"-92.63130","Snowdepth":"2.000","Units":"in","Rept_Date":"2020-12-14 14"},"coordinates":[1024,7885]},{"type":"Point","properties":{"Station_ID":"MN-CK-6","Station_Nam":"GRAND MARAIS 4.4 W, MN","Latitude":"47.74865","Longitude":"-90.43760","Snowdepth":"2.000","Units":"in","Rept_Date":"2020-12-14 12"},"coordinates":[1517,8027]},{"type":"Point","properties":{"Station_ID":"MN-CK-18","Station_Nam":"GRAND MARAIS 4.4 WSW, MN","Latitude":"47.74462","Longitude":"-90.43796","Snowdepth":"2.000","Units":"in","Rept_Date":"2020-12-14 13"},"coordinates":[1517,8025]},{"type":"Point","properties":{"Station_ID":"MN-BK-10","Station_Nam":"DETROIT LAKES 5.7 N, MN","Latitude":"46.88666","Longitude":"-95.84444","Snowdepth":"2.000","Units":"in","Rept_Date":"2020-12-14 10"},"coordinates":[301,7600]},{"type":"Point","properties":{"Station_ID":"MLI","Station_Nam":"QUAD CITY INTL","Latitude":"41.44860","Longitude":"-90.50750","Snowdepth":"2.000","Units":"in","Rept_Date":"2020-12-15 00"},"coordinates":[1502,4904]},{"type":"Point","properties":{"Station_ID":"MKTI4","Station_Nam":"MAQUOKETA","Latitude":"42.07710","Longitude":"-90.66470","Snowdepth":"2.000","Units":"in","Rept_Date":"2020-12-14 13"},"coordinates":[1466,5215]},{"type":"Point","properties":{"Station_ID":"MIEM4","Station_Nam":"MICHIGAMME 3WNW","Latitude":"46.54530","Longitude":"-88.18000","Snowdepth":"2.000","Units":"in","Rept_Date":"2020-12-14 13"},"coordinates":[2025,7430]},{"type":"Point","properties":{"Station_ID":"MI-CP-14","Station_Nam":"SAULT STE. MARIE 2.2 E, MI","Latitude":"46.48933","Longitude":"-84.31971","Snowdepth":"2.000","Units":"in","Rept_Date":"2020-12-14 13"},"coordinates":[2893,7403]},{"type":"Point","properties":{"Station_ID":"ME-YK-67","Station_Nam":"CORNISH 5.6 ESE, ME","Latitude":"43.78308","Longitude":"-70.69539","Snowdepth":"2.000","Units":"in","Rept_Date":"2020-12-14 12"},"coordinates":[5958,6061]},{"type":"Point","properties":{"Station_ID":"ME-CM-86","Station_Nam":"POWNAL 4.1 S, ME","Latitude":"43.85370","Longitude":"-70.17210","Snowdepth":"2.000","Units":"in","Rept_Date":"2020-12-14 12"},"coordinates":[6076,6096]},{"type":"Point","properties":{"Station_ID":"ME-CM-3","Station_Nam":"NEW GLOUCESTER 3.0 SE, ME","Latitude":"43.92372","Longitude":"-70.25790","Snowdepth":"2.000","Units":"in","Rept_Date":"2020-12-14 12"},"coordinates":[6056,6131]},{"type":"Point","properties":{"Station_ID":"ME-AN-41","Station_Nam":"AUBURN 2.1 NNW, ME","Latitude":"44.11275","Longitude":"-70.26452","Snowdepth":"2.000","Units":"in","Rept_Date":"2020-12-14 12"},"coordinates":[6055,6225]},{"type":"Point","properties":{"Station_ID":"MD-GR-4","Station_Nam":"MC HENRY 4.8 SSE, MD","Latitude":"39.48539","Longitude":"-79.31830","Snowdepth":"2.000","Units":"in","Rept_Date":"2020-12-14 13"},"coordinates":[4018,3931]},{"type":"Point","properties":{"Station_ID":"LNKM1","Station_Nam":"LINCOLN SANITARY DISTRICT/WTP","Latitude":"45.37520","Longitude":"-68.50820","Snowdepth":"2.000","Units":"in","Rept_Date":"2020-12-14 12"},"coordinates":[6450,6850]},{"type":"Point","properties":{"Station_ID":"LDHA4","Station_Nam":"LEAD HILL","Latitude":"36.41940","Longitude":"-92.91580","Snowdepth":"2.000","Units":"in","Rept_Date":"2020-12-14 14"},"coordinates":[960,2411]},{"type":"Point","properties":{"Station_ID":"KISM4","Station_Nam":"K.I. SAWYER WWTP","Latitude":"46.33410","Longitude":"-87.37790","Snowdepth":"2.000","Units":"in","Rept_Date":"2020-12-14 13"},"coordinates":[2206,7326]},{"type":"Point","properties":{"Station_ID":"JCBM4","Station_Nam":"JACOBSVILLE","Latitude":"47.00830","Longitude":"-88.43180","Snowdepth":"2.000","Units":"in","Rept_Date":"2020-12-14 12"},"coordinates":[1968,7660]},{"type":"Point","properties":{"Station_ID":"JASA4","Station_Nam":"JASPER","Latitude":"36.00550","Longitude":"-93.18770","Snowdepth":"2.000","Units":"in","Rept_Date":"2020-12-14 11"},"coordinates":[899,2206]},{"type":"Point","properties":{"Station_ID":"JACW3","Station_Nam":"JACKSON","Latitude":"43.31940","Longitude":"-88.16810","Snowdepth":"2.000","Units":"in","Rept_Date":"2020-12-14 12"},"coordinates":[2028,5831]},{"type":"Point","properties":{"Station_ID":"INL","Station_Nam":"FALLS INTERNATIONAL ARPT","Latitude":"48.56640","Longitude":"-93.40310","Snowdepth":"2.000","Units":"in","Rept_Date":"2020-12-15 00"},"coordinates":[850,8432]},{"type":"Point","properties":{"Station_ID":"INDM5","Station_Nam":"INDUS,MN","Latitude":"48.61670","Longitude":"-93.90000","Snowdepth":"2.000","Units":"in","Rept_Date":"2020-12-14 14"},"coordinates":[739,8457]},{"type":"Point","properties":{"Station_ID":"IL-HY-5","Station_Nam":"COAL VALLEY 1.9 SE, IL","Latitude":"41.43339","Longitude":"-90.41750","Snowdepth":"2.000","Units":"in","Rept_Date":"2020-12-14 13"},"coordinates":[1522,4896]},{"type":"Point","properties":{"Station_ID":"IFSM5","Station_Nam":"INTERNATIONAL FALLS SNOW","Latitude":"48.57780","Longitude":"-93.39640","Snowdepth":"2.000","Units":"in","Rept_Date":"2020-12-14 12"},"coordinates":[852,8438]},{"type":"Point","properties":{"Station_ID":"ICYI4","Station_Nam":"IOWA CITY","Latitude":"41.60930","Longitude":"-91.50510","Snowdepth":"2.000","Units":"in","Rept_Date":"2020-12-14 13"},"coordinates":[1277,4984]},{"type":"Point","properties":{"Station_ID":"IA-TY-2","Station_Nam":"NEW MARKET 4.7 N, IA","Latitude":"40.80060","Longitude":"-94.91020","Snowdepth":"2.000","Units":"in","Rept_Date":"2020-12-14 13"},"coordinates":[511,4583]},{"type":"Point","properties":{"Station_ID":"IA-IA-2","Station_Nam":"MARENGO 2.6 SSW, IA","Latitude":"41.76208","Longitude":"-92.08470","Snowdepth":"2.000","Units":"in","Rept_Date":"2020-12-14 13"},"coordinates":[1147,5059]},{"type":"Point","properties":{"Station_ID":"IA-BH-6","Station_Nam":"WATERLOO 1.9 SSE, IA","Latitude":"42.46500","Longitude":"-92.34100","Snowdepth":"2.000","Units":"in","Rept_Date":"2020-12-14 13"},"coordinates":[1089,5408]},{"type":"Point","properties":{"Station_ID":"HUBN3","Station_Nam":"HUBBARD BROOK","Latitude":"43.93330","Longitude":"-71.71670","Snowdepth":"2.000","Units":"in","Rept_Date":"2020-12-15 05"},"coordinates":[5728,6136]},{"type":"Point","properties":{"Station_ID":"HRVM4","Station_Nam":"HARVEY","Latitude":"46.49080","Longitude":"-87.35470","Snowdepth":"2.000","Units":"in","Rept_Date":"2020-12-14 12"},"coordinates":[2211,7403]},{"type":"Point","properties":{"Station_ID":"HGHN6","Station_Nam":"HIGHMARKET","Latitude":"43.60510","Longitude":"-75.55430","Snowdepth":"2.000","Units":"in","Rept_Date":"2020-12-14 11"},"coordinates":[4865,5973]},{"type":"Point","properties":{"Station_ID":"HEBI2","Station_Nam":"HEBRON","Latitude":"42.46750","Longitude":"-88.48060","Snowdepth":"2.000","Units":"in","Rept_Date":"2020-12-14 13"},"coordinates":[1957,5409]},