{"type":"Topology","objects":{"snowdepth_geo":{"type":"GeometryCollection","name":"snowdepth","crs":{"type":"name","properties":{"name":"urn:ogc:def:crs:OGC:1.3:CRS84"}},"geometries":[{"type":"Point","properties":{"Station_ID":"PRKM4","Station_Nam":"MUNISING EAST","Latitude":"46.42580","Longitude":"-86.62000","Snowdepth":"76.500","Units":"in","Rept_Date":"2021-01-17 06"},"coordinates":[2385,6787]},{"type":"Point","properties":{"Station_ID":"SMIT1","Station_Nam":"SMITHVILLE 2SE","Latitude":"35.96610","Longitude":"-85.79250","Snowdepth":"34.000","Units":"in","Rept_Date":"2021-01-16 13"},"coordinates":[2571,449]},{"type":"Point","properties":{"Station_ID":"MMNV1","Station_Nam":"MT. MANSFIELD","Latitude":"44.52480","Longitude":"-72.81540","Snowdepth":"22.000","Units":"in","Rept_Date":"2021-01-16 21"},"coordinates":[5487,5635]},{"type":"Point","properties":{"Station_ID":"HLSN3","Station_Nam":"HERMIT LAKE SNOTEL","Latitude":"44.26130","Longitude":"-71.28320","Snowdepth":"21.300","Units":"in","Rept_Date":"2021-01-17 06"},"coordinates":[5831,5476]},{"type":"Point","properties":{"Station_ID":"QCO","Station_Nam":"QCO","Latitude":"51.45280","Longitude":"-72.20110","Snowdepth":"20.079","Units":"in","Rept_Date":"2021-01-16 12"},"coordinates":[5625,9833]},{"type":"Point","properties":{"Station_ID":"QGO","Station_Nam":"QGO","Latitude":"48.85500","Longitude":"-74.20640","Snowdepth":"19.567","Units":"in","Rept_Date":"2021-01-16 12"},"coordinates":[5174,8259]},{"type":"Point","properties":{"Station_ID":"QLB","Station_Nam":"QLB","Latitude":"50.72360","Longitude":"-75.10000","Snowdepth":"19.528","Units":"in","Rept_Date":"2021-01-16 12"},"coordinates":[4973,9391]},{"type":"Point","properties":{"Station_ID":"TRIQ6","Station_Nam":"TRIO LAKE","Latitude":"49.22880","Longitude":"-87.22920","Snowdepth":"19.090","Units":"in","Rept_Date":"2021-01-17 06"},"coordinates":[2249,8485]},{"type":"Point","properties":{"Station_ID":"PTLQ6","Station_Nam":"PORTAGE LAKE","Latitude":"49.06950","Longitude":"-86.65940","Snowdepth":"18.460","Units":"in","Rept_Date":"2021-01-17 06"},"coordinates":[2377,8389]},{"type":"Point","properties":{"Station_ID":"QTM","Station_Nam":"QTM","Latitude":"51.05780","Longitude":"-72.57190","Snowdepth":"18.425","Units":"in","Rept_Date":"2021-01-16 12"},"coordinates":[5541,9594]},{"type":"Point","properties":{"Station_ID":"VT-BN-3","Station_Nam":"LANDGROVE 1.1 NNE, VT","Latitude":"43.29092","Longitude":"-72.83260","Snowdepth":"18.000","Units":"in","Rept_Date":"2021-01-16 13"},"coordinates":[5483,4888]},{"type":"Point","properties":{"Station_ID":"AUDQ6","Station_Nam":"AUDEN","Latitude":"48.52600","Longitude":"-82.57570","Snowdepth":"17.800","Units":"in","Rept_Date":"2021-01-17 06"},"coordinates":[3294,8060]},{"type":"Point","properties":{"Station_ID":"LBKV1","Station_Nam":"LYE BROOK","Latitude":"43.05000","Longitude":"-73.03330","Snowdepth":"17.000","Units":"in","Rept_Date":"2021-01-17 06"},"coordinates":[5438,4742]},{"type":"Point","properties":{"Station_ID":"HURW3","Station_Nam":"HURLEY","Latitude":"46.46250","Longitude":"-90.19550","Snowdepth":"17.000","Units":"in","Rept_Date":"2021-01-16 14"},"coordinates":[1582,6809]},{"type":"Point","properties":{"Station_ID":"QFT","Station_Nam":"QFT","Latitude":"50.83280","Longitude":"-74.40390","Snowdepth":"16.614","Units":"in","Rept_Date":"2021-01-16 12"},"coordinates":[5130,9457]},{"type":"Point","properties":{"Station_ID":"DVLQ6","Station_Nam":"DEVIOUS LAKE","Latitude":"49.19890","Longitude":"-87.76440","Snowdepth":"16.220","Units":"in","Rept_Date":"2021-01-17 06"},"coordinates":[2128,8467]},{"type":"Point","properties":{"Station_ID":"PDLM4","Station_Nam":"PAINESDALE","Latitude":"47.04160","Longitude":"-88.67170","Snowdepth":"16.000","Units":"in","Rept_Date":"2021-01-16 13"},"coordinates":[1925,7160]},{"type":"Point","properties":{"Station_ID":"IWOM4","Station_Nam":"IRONWOOD#2","Latitude":"46.46520","Longitude":"-90.13820","Snowdepth":"16.000","Units":"in","Rept_Date":"2021-01-16 13"},"coordinates":[1595,6811]},{"type":"Point","properties":{"Station_ID":"HTLN3","Station_Nam":"HERMIT LAKE SNOWPLOT","Latitude":"44.26130","Longitude":"-71.28330","Snowdepth":"16.000","Units":"in","Rept_Date":"2021-01-16 10"},"coordinates":[5831,5476]},{"type":"Point","properties":{"Station_ID":"VT-BN-12","Station_Nam":"STAMFORD 5.0 NNE, VT","Latitude":"42.82000","Longitude":"-73.02000","Snowdepth":"14.000","Units":"in","Rept_Date":"2021-01-16 21"},"coordinates":[5441,4602]},{"type":"Point","properties":{"Station_ID":"ROWM3","Station_Nam":"ROWE 3NE","Latitude":"42.73500","Longitude":"-72.86920","Snowdepth":"14.000","Units":"in","Rept_Date":"2021-01-16 14"},"coordinates":[5475,4551]},{"type":"Point","properties":{"Station_ID":"NY-HM-9","Station_Nam":"HOFFMEISTER 2.0 E, NY","Latitude":"43.38695","Longitude":"-74.67723","Snowdepth":"14.000","Units":"in","Rept_Date":"2021-01-16 13"},"coordinates":[5068,4946]},{"type":"Point","properties":{"Station_ID":"KMWN","Station_Nam":"MOUNT WASHINGTON","Latitude":"44.26666","Longitude":"-71.30000","Snowdepth":"14.000","Units":"in","Rept_Date":"2021-01-17 06"},"coordinates":[5827,5479]},{"type":"Point","properties":{"Station_ID":"CAN-ON-245","Station_Nam":"PHELPSTON 3.1 ESE, CAN","Latitude":"44.50564","Longitude":"-79.81035","Snowdepth":"14.000","Units":"in","Rept_Date":"2021-01-16 14"},"coordinates":[3915,5624]},{"type":"Point","properties":{"Station_ID":"QOU","Station_Nam":"QOU","Latitude":"50.79250","Longitude":"-69.67470","Snowdepth":"13.937","Units":"in","Rept_Date":"2021-01-16 12"},"coordinates":[6192,9433]},{"type":"Point","properties":{"Station_ID":"WI-BY-14","Station_Nam":"ASHLAND 9.8 W, WI","Latitude":"46.59742","Longitude":"-91.07856","Snowdepth":"13.500","Units":"in","Rept_Date":"2021-01-16 12"},"coordinates":[1384,6891]},{"type":"Point","properties":{"Station_ID":"NOHM5","Station_Nam":"NORTHOME","Latitude":"47.83590","Longitude":"-94.25550","Snowdepth":"13.000","Units":"in","Rept_Date":"2021-01-16 13"},"coordinates":[670,7641]},{"type":"Point","properties":{"Station_ID":"MQT","Station_Nam":"MARQUETTE, MI","Latitude":"46.53140","Longitude":"-87.54920","Snowdepth":"13.000","Units":"in","Rept_Date":"2021-01-17 06"},"coordinates":[2177,6851]},{"type":"Point","properties":{"Station_ID":"MN-IT-7","Station_Nam":"GRAND RAPIDS 6.2 SSW, MN","Latitude":"47.13687","Longitude":"-93.56660","Snowdepth":"13.000","Units":"in","Rept_Date":"2021-01-16 12"},"coordinates":[825,7218]},{"type":"Point","properties":{"Station_ID":"MI-WX-2","Station_Nam":"CADILLAC 3.0 E, MI","Latitude":"44.25255","Longitude":"-85.35652","Snowdepth":"13.000","Units":"in","Rept_Date":"2021-01-16 12"},"coordinates":[2669,5470]},{"type":"Point","properties":{"Station_ID":"HERM4","Station_Nam":"HERMAN,MI","Latitude":"46.65000","Longitude":"-88.33330","Snowdepth":"13.000","Units":"in","Rept_Date":"2021-01-16 14"},"coordinates":[2001,6923]},{"type":"Point","properties":{"Station_ID":"OGIQ6","Station_Nam":"OGOKI CAMP","Latitude":"50.76680","Longitude":"-87.85820","Snowdepth":"12.560","Units":"in","Rept_Date":"2021-01-17 06"},"coordinates":[2107,9417]},{"type":"Point","properties":{"Station_ID":"WLFM5","Station_Nam":"WOLF RIDGE ENVIRON LEARNING CENTER","Latitude":"47.38240","Longitude":"-91.19730","Snowdepth":"12.000","Units":"in","Rept_Date":"2021-01-16 13"},"coordinates":[1357,7367]},{"type":"Point","properties":{"Station_ID":"WI-BY-22","Station_Nam":"MASON 11.5 WNW, WI","Latitude":"46.50198","Longitude":"-91.28339","Snowdepth":"12.000","Units":"in","Rept_Date":"2021-01-16 14"},"coordinates":[1338,6833]},{"type":"Point","properties":{"Station_ID":"VT-WH-30","Station_Nam":"MARLBORO 2.0 NNE, VT","Latitude":"42.88484","Longitude":"-72.70935","Snowdepth":"12.000","Units":"in","Rept_Date":"2021-01-16 14"},"coordinates":[5510,4642]},{"type":"Point","properties":{"Station_ID":"PERV1","Station_Nam":"PERU","Latitude":"43.26670","Longitude":"-72.90000","Snowdepth":"12.000","Units":"in","Rept_Date":"2021-01-16 12"},"coordinates":[5468,4873]},{"type":"Point","properties":{"Station_ID":"NY-ES-6","Station_Nam":"OLMSTEDVILLE 4.6 NNE, NY","Latitude":"43.83350","Longitude":"-73.89780","Snowdepth":"12.000","Units":"in","Rept_Date":"2021-01-16 13"},"coordinates":[5243,5216]},{"type":"Point","properties":{"Station_ID":"MRLV1","Station_Nam":"MARLBORO","Latitude":"42.86000","Longitude":"-72.72000","Snowdepth":"12.000","Units":"in","Rept_Date":"2021-01-16 14"},"coordinates":[5508,4626]},{"type":"Point","properties":{"Station_ID":"MN-SL-15","Station_Nam":"CHISHOLM 0.4 WSW, MN","Latitude":"47.48557","Longitude":"-92.88690","Snowdepth":"12.000","Units":"in","Rept_Date":"2021-01-16 13"},"coordinates":[978,7429]},{"type":"Point","properties":{"Station_ID":"MN-IS-18","Station_Nam":"BRAHAM 0.7 SW, MN","Latitude":"45.71379","Longitude":"-93.18095","Snowdepth":"12.000","Units":"in","Rept_Date":"2021-01-16 14"},"coordinates":[912,6356]},{"type":"Point","properties":{"Station_ID":"HGHN6","Station_Nam":"HIGHMARKET","Latitude":"43.60510","Longitude":"-75.55430","Snowdepth":"12.000","Units":"in","Rept_Date":"2021-01-16 10"},"coordinates":[4871,5078]},{"type":"Point","properties":{"Station_ID":"CMKW3","Station_Nam":"CLAM LAKE 4W","Latitude":"46.16940","Longitude":"-90.98080","Snowdepth":"12.000","Units":"in","Rept_Date":"2021-01-16 13"},"coordinates":[1406,6632]},{"type":"Point","properties":{"Station_ID":"QMD","Station_Nam":"QMD","Latitude":"49.29060","Longitude":"-75.84500","Snowdepth":"11.772","Units":"in","Rept_Date":"2021-01-16 12"},"coordinates":[4806,8523]},{"type":"Point","properties":{"Station_ID":"KABQ6","Station_Nam":"CAB LAKE","Latitude":"49.59950","Longitude":"-89.17990","Snowdepth":"11.730","Units":"in","Rept_Date":"2021-01-17 06"},"coordinates":[1810,8710]},{"type":"Point","properties":{"Station_ID":"WI-IR-3","Station_Nam":"PENCE 0.1 E, WI","Latitude":"46.41555","Longitude":"-90.27013","Snowdepth":"11.500","Units":"in","Rept_Date":"2021-01-16 13"},"coordinates":[1565,6781]},{"type":"Point","properties":{"Station_ID":"WI-BY-2","Station_Nam":"MELLEN 18.6 SW, WI","Latitude":"46.16937","Longitude":"-90.98090","Snowdepth":"11.500","Units":"in","Rept_Date":"2021-01-16 13"},"coordinates":[1406,6632]},{"type":"Point","properties":{"Station_ID":"MI-BG-3","Station_Nam":"THREE LAKES, MI","Latitude":"46.55730","Longitude":"-88.20770","Snowdepth":"11.500","Units":"in","Rept_Date":"2021-01-16 13"},"coordinates":[2029,6867]},{"type":"Point","properties":{"Station_ID":"QWE","Station_Nam":"QWE","Latitude":"47.84610","Longitude":"-73.80670","Snowdepth":"11.299","Units":"in","Rept_Date":"2021-01-16 12"},"coordinates":[5264,7648]},{"type":"Point","properties":{"Station_ID":"MLZ","Station_Nam":"MLZ","Latitude":"50.66170","Longitude":"-68.82360","Snowdepth":"11.181","Units":"in","Rept_Date":"2021-01-16 12"},"coordinates":[6383,9354]},{"type":"Point","properties":{"Station_ID":"QLI","Station_Nam":"QLI","Latitude":"50.27080","Longitude":"-73.92280","Snowdepth":"11.142","Units":"in","Rept_Date":"2021-01-16 12"},"coordinates":[5238,9117]},{"type":"Point","properties":{"Station_ID":"WRSM5","Station_Nam":"WRENSHALL","Latitude":"46.61550","Longitude":"-92.38380","Snowdepth":"11.000","Units":"in","Rept_Date":"2021-01-16 14"},"coordinates":[1091,6902]},{"type":"Point","properties":{"Station_ID":"WI-IR-2","Station_Nam":"MERCER 2.0 SE, WI","Latitude":"46.14749","Longitude":"-90.03097","Snowdepth":"11.000","Units":"in","Rept_Date":"2021-01-16 13"},"coordinates":[1619,6618]},{"type":"Point","properties":{"Station_ID":"SUAW3","Station_Nam":"SUAMICO","Latitude":"44.60190","Longitude":"-88.09780","Snowdepth":"11.000","Units":"in","Rept_Date":"2021-01-16 12"},"coordinates":[2053,5682]},{"type":"Point","properties":{"Station_ID":"QNCM4","Station_Nam":"QUINCY HILL","Latitude":"47.13640","Longitude":"-88.57950","Snowdepth":"11.000","Units":"in","Rept_Date":"2021-01-16 12"},"coordinates":[1945,7218]},{"type":"Point","properties":{"Station_ID":"NY-HM-10","Station_Nam":"LAKE PLEASANT 2.3 WSW, NY","Latitude":"43.45490","Longitude":"-74.45287","Snowdepth":"11.000","Units":"in","Rept_Date":"2021-01-16 12"},"coordinates":[5119,4987]},{"type":"Point","properties":{"Station_ID":"KSGM4","Station_Nam":"KEARSARGE","Latitude":"47.27520","Longitude":"-88.41700","Snowdepth":"11.000","Units":"in","Rept_Date":"2021-01-16 13"},"coordinates":[1982,7302]},{"type":"Point","properties":{"Station_ID":"KABM5","Station_Nam":"KABETOGAMA LAKE VISITOR CTR","Latitude":"48.40880","Longitude":"-93.04840","Snowdepth":"11.000","Units":"in","Rept_Date":"2021-01-16 13"},"coordinates":[941,7989]},{"type":"Point","properties":{"Station_ID":"SVBQ6","Station_Nam":"SAVANT BASE","Latitude":"50.28730","Longitude":"-90.65670","Snowdepth":"10.790","Units":"in","Rept_Date":"2021-01-17 06"},"coordinates":[1479,9127]},{"type":"Point","properties":{"Station_ID":"SOCQ6","Station_Nam":"SOCKET LAKE","Latitude":"50.77870","Longitude":"-91.79300","Snowdepth":"10.750","Units":"in","Rept_Date":"2021-01-17 06"},"coordinates":[1223,9424]},{"type":"Point","properties":{"Station_ID":"MI-OG-6","Station_Nam":"WEST BRANCH 2.1 SSW, MI","Latitude":"44.24814","Longitude":"-84.25089","Snowdepth":"10.500","Units":"in","Rept_Date":"2021-01-16 12"},"coordinates":[2918,5468]},{"type":"Point","properties":{"Station_ID":"CAN-MB-32","Station_Nam":"PINAWA 1.0 SW, CA","Latitude":"50.14747","Longitude":"-95.89020","Snowdepth":"10.500","Units":"in","Rept_Date":"2021-01-16 13"},"coordinates":[303,9042]},{"type":"Point","properties":{"Station_ID":"CAN-MB-368","Station_Nam":"WHITESHELL 1.3 NE, CAN","Latitude":"49.74405","Longitude":"-95.19123","Snowdepth":"10.200","Units":"in","Rept_Date":"2021-01-16 14"},"coordinates":[460,8798]},{"type":"Point","properties":{"Station_ID":"WI-WB-2","Station_Nam":"STONE LAKE 2.0 NW, WI","Latitude":"45.85960","Longitude":"-91.57710","Snowdepth":"10.000","Units":"in","Rept_Date":"2021-01-16 13"},"coordinates":[1272,6444]},{"type":"Point","properties":{"Station_ID":"WI-SR-1","Station_Nam":"HAYWARD 9.2 NNE, WI","Latitude":"46.13255","Longitude":"-91.40500","Snowdepth":"10.000","Units":"in","Rept_Date":"2021-01-16 12"},"coordinates":[1311,6609]},{"type":"Point","properties":{"Station_ID":"WI-PR-2","Station_Nam":"BUTTERNUT 5.9 SW, WI","Latitude":"45.96501","Longitude":"-90.59750","Snowdepth":"10.000","Units":"in","Rept_Date":"2021-01-16 12"},"coordinates":[1492,6508]},{"type":"Point","properties":{"Station_ID":"WI-DG-20","Station_Nam":"SOLON SPRINGS 1.2 W, WI","Latitude":"46.35217","Longitude":"-91.84405","Snowdepth":"10.000","Units":"in","Rept_Date":"2021-01-16 13"},"coordinates":[1212,6742]},{"type":"Point","properties":{"Station_ID":"PEKN6","Station_Nam":"PECK LAKE","Latitude":"43.11500","Longitude":"-74.42360","Snowdepth":"10.000","Units":"in","Rept_Date":"2021-01-16 12"},"coordinates":[5125,4781]},{"type":"Point","properties":{"Station_ID":"NY-SR-22","Station_Nam":"GREENFIELD CENTER 1.6 W, NY","Latitude":"43.12684","Longitude":"-73.87860","Snowdepth":"10.000","Units":"in","Rept_Date":"2021-01-16 14"},"coordinates":[5248,4788]},{"type":"Point","properties":{"Station_ID":"MWN","Station_Nam":"MOUNT WASHINGTON","Latitude":"44.26670","Longitude":"-71.30000","Snowdepth":"10.000","Units":"in","Rept_Date":"2021-01-16 12"},"coordinates":[5827,5479]},{"type":"Point","properties":{"Station_ID":"MN-SL-18","Station_Nam":"DULUTH 1.4 NNW, MN","Latitude":"46.80321","Longitude":"-92.11240","Snowdepth":"10.000","Units":"in","Rept_Date":"2021-01-16 14"},"coordinates":[1152,7016]},{"type":"Point","properties":{"Station_ID":"MN-SL-108","Station_Nam":"IRON JUNCTION 3.4 NNW, MN","Latitude":"47.46150","Longitude":"-92.63130","Snowdepth":"10.000","Units":"in","Rept_Date":"2021-01-16 11"},"coordinates":[1035,7415]},{"type":"Point","properties":{"Station_ID":"MA-HS-7","Station_Nam":"PLAINFIELD 2.2 SW, MA","Latitude":"42.49272","Longitude":"-72.94540","Snowdepth":"10.000","Units":"in","Rept_Date":"2021-01-16 14"},"coordinates":[5457,4404]},{"type":"Point","properties":{"Station_ID":"LPLN6","Station_Nam":"LAKE PLACID 2 S","Latitude":"44.30420","Longitude":"-73.98390","Snowdepth":"10.000","Units":"in","Rept_Date":"2021-01-16 13"},"coordinates":[5224,5502]},{"type":"Point","properties":{"Station_ID":"LNOW3","Station_Nam":"LAND O LAKES","Latitude":"46.19000","Longitude":"-89.45700","Snowdepth":"10.000","Units":"in","Rept_Date":"2021-01-16 13"},"coordinates":[1748,6644]},{"type":"Point","properties":{"Station_ID":"LEIM5","Station_Nam":"ORR 3E","Latitude":"48.05810","Longitude":"-92.75220","Snowdepth":"10.000","Units":"in","Rept_Date":"2021-01-16 12"},"coordinates":[1008,7776]},{"type":"Point","properties":{"Station_ID":"INL","Station_Nam":"FALLS INTERNATIONAL ARPT","Latitude":"48.56640","Longitude":"-93.40310","Snowdepth":"10.000","Units":"in","Rept_Date":"2021-01-17 01"},"coordinates":[862,8084]},{"type":"Point","properties":{"Station_ID":"INDN6","Station_Nam":"INDIAN LAKE","Latitude":"43.75500","Longitude":"-74.27560","Snowdepth":"10.000","Units":"in","Rept_Date":"2021-01-16 13"},"coordinates":[5159,5169]},{"type":"Point","properties":{"Station_ID":"IL-SP-27","Station_Nam":"DAVIS 2.7 N, IL","Latitude":"42.46110","Longitude":"-89.40890","Snowdepth":"10.000","Units":"in","Rept_Date":"2021-01-16 13"},"coordinates":[1759,4385]},{"type":"Point","properties":{"Station_ID":"IL-JD-8","Station_Nam":"STOCKTON 3.4 NNE, IL","Latitude":"42.39960","Longitude":"-89.99020","Snowdepth":"10.000","Units":"in","Rept_Date":"2021-01-16 13"},"coordinates":[1628,4348]},{"type":"Point","properties":{"Station_ID":"IFSM5","Station_Nam":"INTERNATIONAL FALLS SNOW","Latitude":"48.57780","Longitude":"-93.39640","Snowdepth":"10.000","Units":"in","Rept_Date":"2021-01-16 12"},"coordinates":[863,8091]},{"type":"Point","properties":{"Station_ID":"HWLM4","Station_Nam":"HALFWAY LAKE","Latitude":"46.47480","Longitude":"-85.59250","Snowdepth":"10.000","Units":"in","Rept_Date":"2021-01-16 14"},"coordinates":[2616,6817]},{"type":"Point","properties":{"Station_ID":"CSLM5","Station_Nam":"CASS LAKE,MN","Latitude":"47.38470","Longitude":"-94.61470","Snowdepth":"10.000","Units":"in","Rept_Date":"2021-01-16 14"},"coordinates":[589,7368]},{"type":"Point","properties":{"Station_ID":"COTM5","Station_Nam":"COTTON","Latitude":"47.16870","Longitude":"-92.46290","Snowdepth":"10.000","Units":"in","Rept_Date":"2021-01-16 13"},"coordinates":[1073,7237]},{"type":"Point","properties":{"Station_ID":"BNDM5","Station_Nam":"ELY 25E","Latitude":"47.97190","Longitude":"-91.44860","Snowdepth":"10.000","Units":"in","Rept_Date":"2021-01-16 13"},"coordinates":[1301,7724]},{"type":"Point","properties":{"Station_ID":"BBEM4","Station_Nam":"BIG BAY 9SW","Latitude":"46.74620","Longitude":"-87.88160","Snowdepth":"10.000","Units":"in","Rept_Date":"2021-01-16 13"},"coordinates":[2102,6981]},{"type":"Point","properties":{"Station_ID":"MN-CN-36","Station_Nam":"CLOQUET 3.4 ENE, MN","Latitude":"46.74146","Longitude":"-92.42698","Snowdepth":"9.800","Units":"in","Rept_Date":"2021-01-16 13"},"coordinates":[1081,6978]},{"type":"Point","properties":{"Station_ID":"WI-VL-9","Station_Nam":"LAND O' LAKES 11.7 W, WI","Latitude":"46.19023","Longitude":"-89.45790","Snowdepth":"9.500","Units":"in","Rept_Date":"2021-01-16 13"},"coordinates":[1748,6644]},{"type":"Point","properties":{"Station_ID":"WI-PK-33","Station_Nam":"FREDERIC 4.8 NE, WI","Latitude":"45.70970","Longitude":"-92.39950","Snowdepth":"9.500","Units":"in","Rept_Date":"2021-01-16 13"},"coordinates":[1087,6353]},{"type":"Point","properties":{"Station_ID":"VT-WS-7","Station_Nam":"MIDDLESEX 3.1 ENE, VT","Latitude":"44.31799","Longitude":"-72.62650","Snowdepth":"9.500","Units":"in","Rept_Date":"2021-01-16 14"},"coordinates":[5529,5510]},{"type":"Point","properties":{"Station_ID":"VT-WH-19","Station_Nam":"EAST DOVER 1.8 N, VT","Latitude":"42.97658","Longitude":"-72.77637","Snowdepth":"9.500","Units":"in","Rept_Date":"2021-01-16 12"},"coordinates":[5495,4697]},{"type":"Point","properties":{"Station_ID":"CAN-ON-791","Station_Nam":"METCALFE 4.4 NNW, CAN","Latitude":"45.27286","Longitude":"-75.48952","Snowdepth":"9.300","Units":"in","Rept_Date":"2021-01-16 13"},"coordinates":[4886,6088]},{"type":"Point","properties":{"Station_ID":"VT-WS-23","Station_Nam":"CABOT 2.3 E, VT","Latitude":"44.39807","Longitude":"-72.26570","Snowdepth":"9.100","Units":"in","Rept_Date":"2021-01-16 13"},"coordinates":[5610,5558]},{"type":"Point","properties":{"Station_ID":"WTNM4","Station_Nam":"WATTON 2WSW","Latitude":"46.52660","Longitude":"-88.64240","Snowdepth":"9.000","Units":"in","Rept_Date":"2021-01-16 13"},"coordinates":[1931,6848]},{"type":"Point","properties":{"Station_ID":"WNDP1","Station_Nam":"WINDBER COUNTY CLUB","Latitude":"40.28780","Longitude":"-78.77530","Snowdepth":"9.000","Units":"in","Rept_Date":"2021-01-16 12"},"coordinates":[4148,3068]},{"type":"Point","properties":{"Station_ID":"WLDM5","Station_Nam":"WILD RIVER STATE PARK","Latitude":"45.52310","Longitude":"-92.74890","Snowdepth":"9.000","Units":"in","Rept_Date":"2021-01-16 14"},"coordinates":[1009,6240]},{"type":"Point","properties":{"Station_ID":"WI-SC-21","Station_Nam":"CLEAR LAKE 4.0 S, WI","Latitude":"45.19250","Longitude":"-92.27860","Snowdepth":"9.000","Units":"in","Rept_Date":"2021-01-16 14"},"coordinates":[1114,6040]},{"type":"Point","properties":{"Station_ID":"VT-OL-12","Station_Nam":"GREENSBORO 3.9 NNE, VT","Latitude":"44.63100","Longitude":"-72.28000","Snowdepth":"9.000","Units":"in","Rept_Date":"2021-01-16 13"},"coordinates":[5607,5700]},{"type":"Point","properties":{"Station_ID":"TOGM5","Station_Nam":"CELINA 2E","Latitude":"47.86630","Longitude":"-93.02660","Snowdepth":"9.000","Units":"in","Rept_Date":"2021-01-16 15"},"coordinates":[946,7660]},{"type":"Point","properties":{"Station_ID":"RLKW3","Station_Nam":"REST LAKE","Latitude":"46.12220","Longitude":"-89.87720","Snowdepth":"9.000","Units":"in","Rept_Date":"2021-01-16 14"},"coordinates":[1654,6603]},{"type":"Point","properties":{"Station_ID":"NY-HR-18","Station_Nam":"SALISBURY CENTER 1.8 NW, NY","Latitude":"43.16260","Longitude":"-74.80880","Snowdepth":"9.000","Units":"in","Rept_Date":"2021-01-16 10"},"coordinates":[5039,4810]},{"type":"Point","properties":{"Station_ID":"NH-MR-60","Station_Nam":"SOUTH SUTTON 1.3 SE, NH","Latitude":"43.29531","Longitude":"-71.90238","Snowdepth":"9.000","Units":"in","Rept_Date":"2021-01-16 13"},"coordinates":[5692,4890]},{"type":"Point","properties":{"Station_ID":"MRRN6","Station_Nam":"MORRISVILLE 6 SW","Latitude":"42.84160","Longitude":"-75.72630","Snowdepth":"9.000","Units":"in","Rept_Date":"2021-01-16 12"},"coordinates":[4833,4615]},{"type":"Point","properties":{"Station_ID":"MRAM5","Station_Nam":"MORA","Latitude":"45.87760","Longitude":"-93.31470","Snowdepth":"9.000","Units":"in","Rept_Date":"2021-01-16 13"},"coordinates":[881,6455]},{"type":"Point","properties":{"Station_ID":"MN-SE-2","Station_Nam":"OWATONNA 0.8 E, MN","Latitude":"44.09170","Longitude":"-93.21380","Snowdepth":"9.000","Units":"in","Rept_Date":"2021-01-16 13"},"coordinates":[904,5373]},{"type":"Point","properties":{"Station_ID":"MN-GH-28","Station_Nam":"CANNON FALLS 0.5 SE, MN","Latitude":"44.50866","Longitude":"-92.89526","Snowdepth":"9.000","Units":"in","Rept_Date":"2021-01-16 14"},"coordinates":[976,5625]},{"type":"Point","properties":{"Station_ID":"MI-AR-2","Station_Nam":"ALGER 2.4 ENE, MI","Latitude":"44.13373","Longitude":"-84.07430","Snowdepth":"9.000","Units":"in","Rept_Date":"2021-01-16 15"},"coordinates":[2957,5398]},{"type":"Point","properties":{"Station_ID":"MA-HS-14","Station_Nam":"PLAINFIELD 2.4 ESE, MA","Latitude":"42.49792","Longitude":"-72.87769","Snowdepth":"9.000","Units":"in","Rept_Date":"2021-01-16 12"},"coordinates":[5473,4407]},{"type":"Point","properties":{"Station_ID":"LUCW3","Station_Nam":"LUCK","Latitude":"45.57330","Longitude":"-92.48520","Snowdepth":"9.000","Units":"in","Rept_Date":"2021-01-16 13"},"coordinates":[1068,6270]},{"type":"Point","properties":{"Station_ID":"HTLM4","Station_Nam":"SNOW PAID OBSERVER FOR KHTL","Latitude":"44.34470","Longitude":"-84.67730","Snowdepth":"9.000","Units":"in","Rept_Date":"2021-01-16 18"},"coordinates":[2822,5526]},{"type":"Point","properties":{"Station_ID":"HTL","Station_Nam":"ROSCOMMON COUNTY AIRPORT","Latitude":"44.35000","Longitude":"-84.66670","Snowdepth":"9.000","Units":"in","Rept_Date":"2021-01-16 12"},"coordinates":[2824,5529]},{"type":"Point","properties":{"Station_ID":"ELYM5","Station_Nam":"ELY","Latitude":"47.90560","Longitude":"-91.82830","Snowdepth":"9.000","Units":"in","Rept_Date":"2021-01-16 14"},"coordinates":[1215,7684]},{"type":"Point","properties":{"Station_ID":"ANJM4","Station_Nam":"SNOW PAID OBSERVER FOR KANJ","Latitude":"46.48670","Longitude":"-84.40260","Snowdepth":"9.000","Units":"in","Rept_Date":"2021-01-17 06"},"coordinates":[2884,6824]},{"type":"Point","properties":{"Station_ID":"ANJ","Station_Nam":"SAULT STE MARIE","Latitude":"46.46670","Longitude":"-84.36670","Snowdepth":"9.000","Units":"in","Rept_Date":"2021-01-17 00"},"coordinates":[2892,6812]},{"type":"Point","properties":{"Station_ID":"CATQ6","Station_Nam":"CAT LAKE","Latitude":"51.72690","Longitude":"-91.82210","Snowdepth":"8.820","Units":"in","Rept_Date":"2021-01-17 06"},"coordinates":[1217,9999]},{"type":"Point","properties":{"Station_ID":"WI-BY-29","Station_Nam":"BAYFIELD 5.1 NNW, WI","Latitude":"46.88063","Longitude":"-90.85854","Snowdepth":"8.500","Units":"in","Rept_Date":"2021-01-16 13"},"coordinates":[1433,7063]},{"type":"Point","properties":{"Station_ID":"VT-WR-17","Station_Nam":"ROCHESTER 2.3 NE, VT","Latitude":"43.89418","Longitude":"-72.76992","Snowdepth":"8.500","Units":"in","Rept_Date":"2021-01-16 12"},"coordinates":[5497,5253]},{"type":"Point","properties":{"Station_ID":"MN-IT-23","Station_Nam":"BOVEY 13.4 N, MN","Latitude":"47.48855","Longitude":"-93.43497","Snowdepth":"8.500","Units":"in","Rept_Date":"2021-01-16 13"},"coordinates":[854,7431]},{"type":"Point","properties":{"Station_ID":"MN-IT-1","Station_Nam":"GRAND RAPIDS 2.0 E, MN","Latitude":"47.22266","Longitude":"-93.49600","Snowdepth":"8.500","Units":"in","Rept_Date":"2021-01-16 14"},"coordinates":[841,7270]},{"type":"Point","properties":{"Station_ID":"MN-CW-44","Station_Nam":"CROSBY 1.1 SW, MN","Latitude":"46.47772","Longitude":"-93.97293","Snowdepth":"8.500","Units":"in","Rept_Date":"2021-01-16 13"},"coordinates":[734,6818]},{"type":"Point","properties":{"Station_ID":"MN-CK-18","Station_Nam":"GRAND MARAIS 4.4 WSW, MN","Latitude":"47.74462","Longitude":"-90.43796","Snowdepth":"8.500","Units":"in","Rept_Date":"2021-01-16 13"},"coordinates":[1528,7586]},{"type":"Point","properties":{"Station_ID":"CAN-NS-103","Station_Nam":"TRAFALGAR 4.9 WSW, CAN","Latitude":"45.26217","Longitude":"-62.72285","Snowdepth":"8.500","Units":"in","Rept_Date":"2021-01-16 12"},"coordinates":[7754,6082]},{"type":"Point","properties":{"Station_ID":"VT-CL-3","Station_Nam":"GROTON 4.4 WSW, VT","Latitude":"44.19440","Longitude":"-72.28240","Snowdepth":"8.400","Units":"in","Rept_Date":"2021-01-16 11"},"coordinates":[5606,5435]},{"type":"Point","properties":{"Station_ID":"NFGT1","Station_Nam":"NEW FOUND GAP","Latitude":"35.61080","Longitude":"-83.42890","Snowdepth":"8.320","Units":"in","Rept_Date":"2021-01-17 06"},"coordinates":[3102,234]},{"type":"Point","properties":{"Station_ID":"WTBW3","Station_Nam":"WEST BEND PUBLIC WORKS","Latitude":"43.41110","Longitude":"-88.19380","Snowdepth":"8.000","Units":"in","Rept_Date":"2021-01-16 13"},"coordinates":[2032,4960]},{"type":"Point","properties":{"Station_ID":"WI-VR-2","Station_Nam":"VIROQUA 0.8 ESE, WI","Latitude":"43.55304","Longitude":"-90.87100","Snowdepth":"8.000","Units":"in","Rept_Date":"2021-01-16 14"},"coordinates":[1430,5046]},{"type":"Point","properties":{"Station_ID":"WI-PK-4","Station_Nam":"DRESSER 6.1 ESE, WI","Latitude":"45.32436","Longitude":"-92.52080","Snowdepth":"8.000","Units":"in","Rept_Date":"2021-01-16 14"},"coordinates":[1060,6120]},{"type":"Point","properties":{"Station_ID":"WI-DA-99","Station_Nam":"FITCHBURG 1.1 NW, WI","Latitude":"42.99740","Longitude":"-89.44046","Snowdepth":"8.000","Units":"in","Rept_Date":"2021-01-16 13"},"coordinates":[1752,4710]},{"type":"Point","properties":{"Station_ID":"WI-BY-6","Station_Nam":"BARNES 2.2 S, WI","Latitude":"46.30264","Longitude":"-91.50320","Snowdepth":"8.000","Units":"in","Rept_Date":"2021-01-16 13"},"coordinates":[1288,6712]},{"type":"Point","properties":{"Station_ID":"WELM5","Station_Nam":"WELLS","Latitude":"43.74680","Longitude":"-93.73680","Snowdepth":"8.000","Units":"in","Rept_Date":"2021-01-16 14"},"coordinates":[787,5164]},{"type":"Point","properties":{"Station_ID":"WDOM5","Station_Nam":"WINDOM","Latitude":"43.87700","Longitude":"-95.11590","Snowdepth":"8.000","Units":"in","Rept_Date":"2021-01-16 14"},"coordinates":[477,5243]},{"type":"Point","properties":{"Station_ID":"WBRM4","Station_Nam":"WEST BRANCH 3SE","Latitude":"44.25410","Longitude":"-84.20110","Snowdepth":"8.000","Units":"in","Rept_Date":"2021-01-16 13"},"coordinates":[2929,5471]},{"type":"Point","properties":{"Station_ID":"VT-WS-33","Station_Nam":"WAITSFIELD 3.5 WNW, VT","Latitude":"44.20052","Longitude":"-72.89421","Snowdepth":"8.000","Units":"in","Rept_Date":"2021-01-16 13"},"coordinates":[5469,5439]},{"type":"Point","properties":{"Station_ID":"VT-WR-2","Station_Nam":"POMFRET 2.6 N, VT","Latitude":"43.74230","Longitude":"-72.52550","Snowdepth":"8.000","Units":"in","Rept_Date":"2021-01-16 12"},"coordinates":[5552,5161]},{"type":"Point","properties":{"Station_ID":"VT-OL-1","Station_Nam":"WESTFIELD 0.7 WNW, VT","Latitude":"44.89160","Longitude":"-72.44350","Snowdepth":"8.000","Units":"in","Rept_Date":"2021-01-16 12"},"coordinates":[5570,5857]},{"type":"Point","properties":{"Station_ID":"VQAW3","Station_Nam":"VIROQUA","Latitude":"43.55970","Longitude":"-90.87560","Snowdepth":"8.000","Units":"in","Rept_Date":"2021-01-16 13"},"coordinates":[1429,5050]},{"type":"Point","properties":{"Station_ID":"SWTW3","Station_Nam":"SUPERIOR WWTP","Latitude":"46.72700","Longitude":"-92.07200","Snowdepth":"8.000","Units":"in","Rept_Date":"2021-01-17 06"},"coordinates":[1161,6970]},{"type":"Point","properties":{"Station_ID":"STMM4","Station_Nam":"STAMBAUGH 2SSE","Latitude":"46.05550","Longitude":"-88.62780","Snowdepth":"8.000","Units":"in","Rept_Date":"2021-01-16 13"},"coordinates":[1934,6563]},{"type":"Point","properties":{"Station_ID":"PLEP1","Station_Nam":"PLEASANT MOUNT 1 W","Latitude":"41.73940","Longitude":"-75.44650","Snowdepth":"8.000","Units":"in","Rept_Date":"2021-01-16 12"},"coordinates":[4896,3947]},{"type":"Point","properties":{"Station_ID":"PDGM4","Station_Nam":"PAULDING","Latitude":"46.39760","Longitude":"-89.17940","Snowdepth":"8.000","Units":"in","Rept_Date":"2021-01-16 14"},"coordinates":[1810,6770]},{"type":"Point","properties":{"Station_ID":"NY-FK-7","Station_Nam":"SARANAC LAKE 6.2 N, NY","Latitude":"44.41359","Longitude":"-74.15211","Snowdepth":"8.000","Units":"in","Rept_Date":"2021-01-16 13"},"coordinates":[5186,5568]},{"type":"Point","properties":{"Station_ID":"NY-ES-11","Station_Nam":"VERMONTVILLE 2.8 S, NY","Latitude":"44.41205","Longitude":"-74.06760","Snowdepth":"8.000","Units":"in","Rept_Date":"2021-01-16 12"},"coordinates":[5205,5567]},{"type":"Point","properties":{"Station_ID":"NY-BM-21","Station_Nam":"WINDSOR 8.0 SE, NY","Latitude":"42.00992","Longitude":"-75.51420","Snowdepth":"8.000","Units":"in","Rept_Date":"2021-01-16 12"},"coordinates":[4880,4111]},{"type":"Point","properties":{"Station_ID":"NGLW3","Station_Nam":"NEW GLARUS","Latitude":"42.83500","Longitude":"-89.62080","Snowdepth":"8.000","Units":"in","Rept_Date":"2021-01-16 13"},"coordinates":[1711,4611]},{"type":"Point","properties":{"Station_ID":"NCKN6","Station_Nam":"NORTH CREEK 5 SE","Latitude":"43.66110","Longitude":"-73.89690","Snowdepth":"8.000","Units":"in","Rept_Date":"2021-01-16 12"},"coordinates":[5244,5112]},{"type":"Point","properties":{"Station_ID":"MONW3","Station_Nam":"MONROE,WI","Latitude":"42.60000","Longitude":"-89.66670","Snowdepth":"8.000","Units":"in","Rept_Date":"2021-01-16 13"},"coordinates":[1701,4469]},{"type":"Point","properties":{"Station_ID":"MN-IT-17","Station_Nam":"GRAND RAPIDS 6.1 N, MN","Latitude":"47.31165","Longitude":"-93.55036","Snowdepth":"8.000","Units":"in","Rept_Date":"2021-01-16 13"},"coordinates":[829,7324]},{"type":"Point","properties":{"Station_ID":"MN-CW-54","Station_Nam":"AITKIN 9.6 W, MN","Latitude":"46.53711","Longitude":"-93.90688","Snowdepth":"8.000","Units":"in","Rept_Date":"2021-01-16 14"},"coordinates":[748,6854]},{"type":"Point","properties":{"Station_ID":"MN-CW-22","Station_Nam":"FORT RIPLEY 0.8 N, MN","Latitude":"46.18089","Longitude":"-94.36510","Snowdepth":"8.000","Units":"in","Rept_Date":"2021-01-16 13"},"coordinates":[646,6639]},{"type":"Point","properties":{"Station_ID":"MN-BK-6","Station_Nam":"LAKE PARK 6.0 S, MN","Latitude":"46.79850","Longitude":"-96.12180","Snowdepth":"8.000","Units":"in","Rept_Date":"2021-01-16 13"},"coordinates":[251,7013]},{"type":"Point","properties":{"Station_ID":"MN-AT-5","Station_Nam":"TAMARACK 1.4 SW, MN","Latitude":"46.63760","Longitude":"-93.14554","Snowdepth":"8.000","Units":"in","Rept_Date":"2021-01-16 13"},"coordinates":[919,6915]},{"type":"Point","properties":{"Station_ID":"MIEM4","Station_Nam":"MICHIGAMME 3WNW","Latitude":"46.54530","Longitude":"-88.18000","Snowdepth":"8.000","Units":"in","Rept_Date":"2021-01-16 13"},"coordinates":[2035,6859]},{"type":"Point","properties":{"Station_ID":"MI-MQ-19","Station_Nam":"ISHPEMING 7.2 SW, MI","Latitude":"46.40550","Longitude":"-87.75670","Snowdepth":"8.000","Units":"in","Rept_Date":"2021-01-16 11"},"coordinates":[2130,6775]},{"type":"Point","properties":{"Station_ID":"MI-KW-2","Station_Nam":"DELAWARE 5.2 SW, MI","Latitude":"47.36928","Longitude":"-88.17919","Snowdepth":"8.000","Units":"in","Rept_Date":"2021-01-16 09"},"coordinates":[2035,7359]},{"type":"Point","properties":{"Station_ID":"MI-HG-1","Station_Nam":"HOUGHTON 1.6 ESE, MI","Latitude":"47.10774","Longitude":"-88.52940","Snowdepth":"8.000","Units":"in","Rept_Date":"2021-01-16 13"},"coordinates":[1957,7200]},{"type":"Point","properties":{"Station_ID":"ISEM5","Station_Nam":"ISLE 12N","Latitude":"46.31970","Longitude":"-93.50140","Snowdepth":"8.000","Units":"in","Rept_Date":"2021-01-16 14"},"coordinates":[840,6723]},{"type":"Point","properties":{"Station_ID":"IL-SP-7","Station_Nam":"DAVIS 0.5 N, IL","Latitude":"42.42919","Longitude":"-89.41730","Snowdepth":"8.000","Units":"in","Rept_Date":"2021-01-16 13"},"coordinates":[1757,4365]},{"type":"Point","properties":{"Station_ID":"IL-BN-19","Station_Nam":"BELVIDERE 5.0 NNW, IL","Latitude":"42.32071","Longitude":"-88.88282","Snowdepth":"8.000","Units":"in","Rept_Date":"2021-01-16 13"},"coordinates":[1877,4300]},{"type":"Point","properties":{"Station_ID":"HUBN3","Station_Nam":"HUBBARD BROOK","Latitude":"43.93330","Longitude":"-71.71670","Snowdepth":"8.000","Units":"in","Rept_Date":"2021-01-17 06"},"coordinates":[5733,5277]},{"type":"Point","properties":{"Station_ID":"FORM5","Station_Nam":"FOREST LAKE 5NE","Latitude":"45.33170","Longitude":"-92.89820","Snowdepth":"8.000","Units":"in","Rept_Date":"2021-01-16 13"},"coordinates":[975,6124]},{"type":"Point","properties":{"Station_ID":"EMBM5","Station_Nam":"EMBARASS,MN","Latitude":"47.65810","Longitude":"-92.19580","Snowdepth":"8.000","Units":"in","Rept_Date":"2021-01-16 12"},"coordinates":[1133,7534]},{"type":"Point","properties":{"Station_ID":"DLHM5","Station_Nam":"DULUTH NWS","Latitude":"46.83680","Longitude":"-92.21080","Snowdepth":"8.000","Units":"in","Rept_Date":"2021-01-17 06"},"coordinates":[1129,7036]},{"type":"Point","properties":{"Station_ID":"DLH","Station_Nam":"DULUTH, MN","Latitude":"46.83690","Longitude":"-92.21030","Snowdepth":"8.000","Units":"in","Rept_Date":"2021-01-17 01"},"coordinates":[1130,7036]},{"type":"Point","properties":{"Station_ID":"DARW3","Station_Nam":"DARLINGTON","Latitude":"42.67780","Longitude":"-90.11860","Snowdepth":"8.000","Units":"in","Rept_Date":"2021-01-16 15"},"coordinates":[1599,4516]},{"type":"Point","properties":{"Station_ID":"COKM5","Station_Nam":"COOK","Latitude":"47.85060","Longitude":"-92.69250","Snowdepth":"8.000","Units":"in","Rept_Date":"2021-01-16 12"},"coordinates":[1021,7650]},{"type":"Point","properties":{"Station_ID":"CLKM4","Station_Nam":"CLARKSBURG","Latitude":"46.49910","Longitude":"-87.84500","Snowdepth":"8.000","Units":"in","Rept_Date":"2021-01-16 12"},"coordinates":[2110,6831]},{"type":"Point","properties":{"Station_ID":"CAN-NB-18","Station_Nam":"MCLEOD HILL 1.1 ENE, CA","Latitude":"46.02725","Longitude":"-66.67460","Snowdepth":"8.000","Units":"in","Rept_Date":"2021-01-16 12"},"coordinates":[6866,6546]},{"type":"Point","properties":{"Station_ID":"BGBM4","Station_Nam":"BIG BAY 1NW","Latitude":"46.83250","Longitude":"-87.75040","Snowdepth":"8.000","Units":"in","Rept_Date":"2021-01-16 13"},"coordinates":[2132,7033]},{"type":"Point","properties":{"Station_ID":"CAN-QC-56","Station_Nam":"SUTTON 2.6 N, CAN","Latitude":"45.13119","Longitude":"-72.61218","Snowdepth":"7.900","Units":"in","Rept_Date":"2021-01-16 12"},"coordinates":[5532,6003]},{"type":"Point","properties":{"Station_ID":"CAN-NB-64","Station_Nam":"KESWICK RIDGE 4.0 SE, CAN","Latitude":"45.97014","Longitude":"-66.85538","Snowdepth":"7.700","Units":"in","Rept_Date":"2021-01-16 13"},"coordinates":[6826,6511]},{"type":"Point","properties":{"Station_ID":"QCX","Station_Nam":"QCX","Latitude":"51.32830","Longitude":"-70.08060","Snowdepth":"7.677","Units":"in","Rept_Date":"2021-01-16 12"},"coordinates":[6101,9757]},{"type":"Point","properties":{"Station_ID":"QLP","Station_Nam":"QLP","Latitude":"48.13920","Longitude":"-72.63830","Snowdepth":"7.638","Units":"in","Rept_Date":"2021-01-16 12"},"coordinates":[5526,7825]},{"type":"Point","properties":{"Station_ID":"WI-WK-65","Station_Nam":"EAGLE 3.4 SW, WI","Latitude":"42.85067","Longitude":"-88.52596","Snowdepth":"7.500","Units":"in","Rept_Date":"2021-01-16 14"},"coordinates":[1957,4621]},{"type":"Point","properties":{"Station_ID":"WI-WK-61","Station_Nam":"HARTLAND 5.0 NNE, WI","Latitude":"43.16351","Longitude":"-88.30400","Snowdepth":"7.500","Units":"in","Rept_Date":"2021-01-16 13"},"coordinates":[2007,4810]},{"type":"Point","properties":{"Station_ID":"WI-PR-6","Station_Nam":"PHILLIPS 1.3 S, WI","Latitude":"45.67677","Longitude":"-90.39543","Snowdepth":"7.500","Units":"in","Rept_Date":"2021-01-16 12"},"coordinates":[1537,6333]},{"type":"Point","properties":{"Station_ID":"WI-BT-14","Station_Nam":"OAKLAND 9.0 ENE, WI","Latitude":"45.95184","Longitude":"-92.21653","Snowdepth":"7.500","Units":"in","Rept_Date":"2021-01-16 13"},"coordinates":[1128,6500]},{"type":"Point","properties":{"Station_ID":"VT-WS-30","Station_Nam":"WOODBURY 3.4 NNW, VT","Latitude":"44.48825","Longitude":"-72.43258","Snowdepth":"7.500","Units":"in","Rept_Date":"2021-01-16 12"},"coordinates":[5573,5613]},{"type":"Point","properties":{"Station_ID":"VT-WS-10","Station_Nam":"NORTHFIELD 1.5 N, VT","Latitude":"44.16986","Longitude":"-72.65200","Snowdepth":"7.500","Units":"in","Rept_Date":"2021-01-16 12"},"coordinates":[5523,5420]},{"type":"Point","properties":{"Station_ID":"NY-FK-9","Station_Nam":"GABRIELS 1.3 SE, NY","Latitude":"44.41934","Longitude":"-74.16194","Snowdepth":"7.500","Units":"in","Rept_Date":"2021-01-16 12"},"coordinates":[5184,5571]},{"type":"Point","properties":{"Station_ID":"MN-WG-74","Station_Nam":"OAKDALE 0.4 S, MN","Latitude":"44.98208","Longitude":"-92.96510","Snowdepth":"7.500","Units":"in","Rept_Date":"2021-01-16 13"},"coordinates":[960,5912]},{"type":"Point","properties":{"Station_ID":"MN-SL-115","Station_Nam":"COTTON 5.7 ESE, MN","Latitude":"47.15142","Longitude":"-92.35772","Snowdepth":"7.500","Units":"in","Rept_Date":"2021-01-16 14"},"coordinates":[1096,7227]},{"type":"Point","properties":{"Station_ID":"MN-BM-15","Station_Nam":"BEMIDJI 7.8 ENE, MN","Latitude":"47.52043","Longitude":"-94.72121","Snowdepth":"7.500","Units":"in","Rept_Date":"2021-01-16 13"},"coordinates":[566,7450]},{"type":"Point","properties":{"Station_ID":"IL-SP-6","Station_Nam":"FREEPORT 2.0 NW, IL","Latitude":"42.30955","Longitude":"-89.66370","Snowdepth":"7.500","Units":"in","Rept_Date":"2021-01-16 13"},"coordinates":[1702,4293]},{"type":"Point","properties":{"Station_ID":"IL-MCH-13","Station_Nam":"BULL VALLEY 2.5 WNW, IL","Latitude":"42.32455","Longitude":"-88.39460","Snowdepth":"7.500","Units":"in","Rept_Date":"2021-01-16 14"},"coordinates":[1987,4302]},{"type":"Point","properties":{"Station_ID":"CAN-QC-51","Station_Nam":"BELOEIL 0.7 NW, CAN","Latitude":"45.58049","Longitude":"-73.21218","Snowdepth":"7.500","Units":"in","Rept_Date":"2021-01-16 12"},"coordinates":[5397,6275]},{"type":"Point","properties":{"Station_ID":"CAN-PE-3","Station_Nam":"WELLINGTON 1.6 NE, CA","Latitude":"46.46672","Longitude":"-63.98920","Snowdepth":"7.500","Units":"in","Rept_Date":"2021-01-16 11"},"coordinates":[7469,6812]},{"type":"Point","properties":{"Station_ID":"CAN-NL-11","Station_Nam":"MOUNT PEARL 2.1 SSE, CA","Latitude":"47.50347","Longitude":"-52.79730","Snowdepth":"7.500","Units":"in","Rept_Date":"2021-01-16 10"},"coordinates":[9984,7440]},{"type":"Point","properties":{"Station_ID":"CAN-NB-11","Station_Nam":"MIRAMICHI 3.3 S, CAN","Latitude":"46.99343","Longitude":"-65.50690","Snowdepth":"7.500","Units":"in","Rept_Date":"2021-01-16 09"},"coordinates":[7128,7131]},{"type":"Point","properties":{"Station_ID":"HPN04_MADIS","Station_Nam":"HANOVER","Latitude":"45.16770","Longitude":"-93.63430","Snowdepth":"7.300","Units":"in","Rept_Date":"2021-01-17 06"},"coordinates":[810,6025]},{"type":"Point","properties":{"Station_ID":"CAN-NB-97","Station_Nam":"NEW MARYLAND 0.6 NW, CAN","Latitude":"45.90112","Longitude":"-66.68739","Snowdepth":"7.300","Units":"in","Rept_Date":"2021-01-16 12"},"coordinates":[6863,6469]},{"type":"Point","properties":{"Station_ID":"CAN-ON-771","Station_Nam":"KENORA 8.7 NNE - CANWARN, CAN","Latitude":"49.84171","Longitude":"-94.44386","Snowdepth":"7.200","Units":"in","Rept_Date":"2021-01-16 13"},"coordinates":[628,8857]},{"type":"Point","properties":{"Station_ID":"CAN-QC-47","Station_Nam":"SAINTE-FOY 1.8 ENE, CAN","Latitude":"46.76934","Longitude":"-71.27124","Snowdepth":"7.100","Units":"in","Rept_Date":"2021-01-16 12"},"coordinates":[5833,6995]},{"type":"Point","properties":{"Station_ID":"QLM","Station_Nam":"QLM","Latitude":"48.92030","Longitude":"-70.25280","Snowdepth":"7.047","Units":"in","Rept_Date":"2021-01-16 12"},"coordinates":[6062,8298]},{"type":"Point","properties":{"Station_ID":"WSFW3","Station_Nam":"TOWN OF WESTFORD","Latitude":"43.47190","Longitude":"-88.88250","Snowdepth":"7.000","Units":"in","Rept_Date":"2021-01-16 13"},"coordinates":[1877,4997]},{"type":"Point","properties":{"Station_ID":"WRTS2","Station_Nam":"WATERTOWN,SD","Latitude":"44.90280","Longitude":"-97.11360","Snowdepth":"7.000","Units":"in","Rept_Date":"2021-01-16 15"},"coordinates":[28,5864]},{"type":"Point","properties":{"Station_ID":"WRIM5","Station_Nam":"WRIGHT 3E","Latitude":"46.68040","Longitude":"-92.95420","Snowdepth":"7.000","Units":"in","Rept_Date":"2021-01-16 12"},"coordinates":[962,6941]},{"type":"Point","properties":{"Station_ID":"WODI2","Station_Nam":"WOODSTOCK","Latitude":"42.36280","Longitude":"-88.53140","Snowdepth":"7.000","Units":"in","Rept_Date":"2021-01-16 13"},"coordinates":[1956,4325]},{"type":"Point","properties":{"Station_ID":"WI-VL-14","Station_Nam":"BOULDER JUNCTION 1.4 NE, WI","Latitude":"46.12840","Longitude":"-89.62470","Snowdepth":"7.000","Units":"in","Rept_Date":"2021-01-16 13"},"coordinates":[1710,6607]},{"type":"Point","properties":{"Station_ID":"WI-RK-12","Station_Nam":"JANESVILLE 3.1 W, WI","Latitude":"42.67576","Longitude":"-89.07614","Snowdepth":"7.000","Units":"in","Rept_Date":"2021-01-16 13"},"coordinates":[1834,4515]},{"type":"Point","properties":{"Station_ID":"WI-LF-6","Station_Nam":"SOUTH WAYNE 3.9 SSW, WI","Latitude":"42.51173","Longitude":"-89.89555","Snowdepth":"7.000","Units":"in","Rept_Date":"2021-01-16 13"},"coordinates":[1650,4415]},{"type":"Point","properties":{"Station_ID":"WI-JF-17","Station_Nam":"JOHNSON CREEK 2.7 SSW, WI","Latitude":"43.04559","Longitude":"-88.79925","Snowdepth":"7.000","Units":"in","Rept_Date":"2021-01-16 13"},"coordinates":[1896,4739]},{"type":"Point","properties":{"Station_ID":"WI-DD-16","Station_Nam":"BEAVER DAM 2.4 WNW, WI","Latitude":"43.47210","Longitude":"-88.88280","Snowdepth":"7.000","Units":"in","Rept_Date":"2021-01-16 13"},"coordinates":[1877,4997]},{"type":"Point","properties":{"Station_ID":"WAIV1","Station_Nam":"WAITSFIELD","Latitude":"44.17560","Longitude":"-72.79610","Snowdepth":"7.000","Units":"in","Rept_Date":"2021-01-16 12"},"coordinates":[5491,5424]},{"type":"Point","properties":{"Station_ID":"VT-WS-11","Station_Nam":"WAITSFIELD 1.8 SE, VT","Latitude":"44.17551","Longitude":"-72.79540","Snowdepth":"7.000","Units":"in","Rept_Date":"2021-01-16 12"},"coordinates":[5491,5424]},{"type":"Point","properties":{"Station_ID":"VT-AD-20","Station_Nam":"HANCOCK 0.3 S, VT","Latitude":"43.92166","Longitude":"-72.84042","Snowdepth":"7.000","Units":"in","Rept_Date":"2021-01-16 12"},"coordinates":[5481,5270]},{"type":"Point","properties":{"Station_ID":"VADM5","Station_Nam":"VADNAIS LAKE","Latitude":"45.04820","Longitude":"-93.09590","Snowdepth":"7.000","Units":"in","Rept_Date":"2021-01-16 20"},"coordinates":[931,5952]},{"type":"Point","properties":{"Station_ID":"TOPM1","Station_Nam":"TOPSFIELD","Latitude":"45.43470","Longitude":"-67.72020","Snowdepth":"7.000","Units":"in","Rept_Date":"2021-01-16 12"},"coordinates":[6631,6187]},{"type":"Point","properties":{"Station_ID":"SRAW3","Station_Nam":"SARONA","Latitude":"45.80250","Longitude":"-91.86700","Snowdepth":"7.000","Units":"in","Rept_Date":"2021-01-16 14"},"coordinates":[1207,6409]},{"type":"Point","properties":{"Station_ID":"SLRW3","Station_Nam":"SLINGER","Latitude":"43.33390","Longitude":"-88.29780","Snowdepth":"7.000","Units":"in","Rept_Date":"2021-01-16 13"},"coordinates":[2009,4914]},{"type":"Point","properties":{"Station_ID":"RDFN6","Station_Nam":"REDFIELD 8N","Latitude":"43.64130","Longitude":"-75.88400","Snowdepth":"7.000","Units":"in","Rept_Date":"2021-01-16 12"},"coordinates":[4797,5100]},{"type":"Point","properties":{"Station_ID":"PHEW3","Station_Nam":"PHELPS","Latitude":"46.06630","Longitude":"-89.07520","Snowdepth":"7.000","Units":"in","Rept_Date":"2021-01-16 13"},"coordinates":[1834,6569]},{"type":"Point","properties":{"Station_ID":"OLNI4","Station_Nam":"OELWEIN 1E","Latitude":"42.68010","Longitude":"-91.87510","Snowdepth":"7.000","Units":"in","Rept_Date":"2021-01-16 12"},"coordinates":[1205,4517]},{"type":"Point","properties":{"Station_ID":"OCON6","Station_Nam":"OSCEOLA","Latitude":"43.50370","Longitude":"-75.72170","Snowdepth":"7.000","Units":"in","Rept_Date":"2021-01-16 13"},"coordinates":[4834,5017]},{"type":"Point","properties":{"Station_ID":"NY-OD-2","Station_Nam":"POINT ROCK 0.6 SE, NY","Latitude":"43.37335","Longitude":"-75.53840","Snowdepth":"7.000","Units":"in","Rept_Date":"2021-01-16 13"},"coordinates":[4875,4938]},{"type":"Point","properties":{"Station_ID":"NY-LW-12","Station_Nam":"CHASES LAKE COOP, NY","Latitude":"43.75924","Longitude":"-75.29982","Snowdepth":"7.000","Units":"in","Rept_Date":"2021-01-16 11"},"coordinates":[4928,5171]},{"type":"Point","properties":{"Station_ID":"NY-CL-12","Station_Nam":"SARANAC 0.8 SSE, NY","Latitude":"44.63980","Longitude":"-73.73848","Snowdepth":"7.000","Units":"in","Rept_Date":"2021-01-16 12"},"coordinates":[5279,5705]},{"type":"Point","properties":{"Station_ID":"MTLT1","Station_Nam":"GATLINBURG,TN","Latitude":"35.65500","Longitude":"-83.44110","Snowdepth":"7.000","Units":"in","Rept_Date":"2021-01-16 13"},"coordinates":[3100,261]},{"type":"Point","properties":{"Station_ID":"MSP","Station_Nam":"MINNEAPOLIS-ST PAUL INTL AP","Latitude":"44.88310","Longitude":"-93.22890","Snowdepth":"7.000","Units":"in","Rept_Date":"2021-01-17 00"},"coordinates":[901,5852]},{"type":"Point","properties":{"Station_ID":"MPTI4","Station_Nam":"NO.2","Latitude":"42.16670","Longitude":"-95.78330","Snowdepth":"7.000","Units":"in","Rept_Date":"2021-01-16 13"},"coordinates":[327,4206]},{"type":"Point","properties":{"Station_ID":"MN-WR-25","Station_Nam":"SAINT MICHAEL 2.0 ENE, MN","Latitude":"45.20820","Longitude":"-93.65280","Snowdepth":"7.000","Units":"in","Rept_Date":"2021-01-16 12"},"coordinates":[806,6049]},{"type":"Point","properties":{"Station_ID":"MN-SH-985","Station_Nam":"PRINCETON 3.3 WSW, MN","Latitude":"45.55211","Longitude":"-93.64481","Snowdepth":"7.000","Units":"in","Rept_Date":"2021-01-16 13"},"coordinates":[807,6258]},{"type":"Point","properties":{"Station_ID":"MN-RM-2","Station_Nam":"NORTH SAINT PAUL 1.0 NNW, MN","Latitude":"45.02629","Longitude":"-93.00790","Snowdepth":"7.000","Units":"in","Rept_Date":"2021-01-16 12"},"coordinates":[950,5939]},{"type":"Point","properties":{"Station_ID":"MN-RM-120","Station_Nam":"MAPLEWOOD 5.6 SSE, MN","Latitude":"44.90588","Longitude":"-92.99712","Snowdepth":"7.000","Units":"in","Rept_Date":"2021-01-16 15"},"coordinates":[953,5866]},{"type":"Point","properties":{"Station_ID":"MN-KB-17","Station_Nam":"MORA 2.5 S, MN","Latitude":"45.84100","Longitude":"-93.29700","Snowdepth":"7.000","Units":"in","Rept_Date":"2021-01-16 13"},"coordinates":[885,6433]},{"type":"Point","properties":{"Station_ID":"MN-IS-21","Station_Nam":"ISANTI 5.0 SW, MN","Latitude":"45.43360","Longitude":"-93.30200","Snowdepth":"7.000","Units":"in","Rept_Date":"2021-01-16 14"},"coordinates":[884,6186]},{"type":"Point","properties":{"Station_ID":"MN-HN-31","Station_Nam":"MAPLE GROVE 1.0 NNE, MN","Latitude":"45.12261","Longitude":"-93.45790","Snowdepth":"7.000","Units":"in","Rept_Date":"2021-01-16 16"},"coordinates":[849,5997]},{"type":"Point","properties":{"Station_ID":"MN-HN-298","Station_Nam":"EXCELSIOR 1.8 W, MN","Latitude":"44.89722","Longitude":"-93.60286","Snowdepth":"7.000","Units":"in","Rept_Date":"2021-01-16 13"},"coordinates":[817,5861]},{"type":"Point","properties":{"Station_ID":"MN-DK-73","Station_Nam":"LAKEVILLE 2.6 NNE, MN","Latitude":"44.71250","Longitude":"-93.23043","Snowdepth":"7.000","Units":"in","Rept_Date":"2021-01-16 13"},"coordinates":[900,5749]},{"type":"Point","properties":{"Station_ID":"MN-DK-53","Station_Nam":"LAKEVILLE 3.8 ENE, MN","Latitude":"44.70423","Longitude":"-93.18460","Snowdepth":"7.000","Units":"in","Rept_Date":"2021-01-16 14"},"coordinates":[911,5744]},{"type":"Point","properties":{"Station_ID":"MN-CV-22","Station_Nam":"VICTORIA 1.6 WSW, MN","Latitude":"44.85670","Longitude":"-93.68640","Snowdepth":"7.000","Units":"in","Rept_Date":"2021-01-16 13"},"coordinates":[798,5836]},{"type":"Point","properties":{"Station_ID":"MLCM5","Station_Nam":"MILACA","Latitude":"45.75320","Longitude":"-93.66170","Snowdepth":"7.000","Units":"in","Rept_Date":"2021-01-16 13"},"coordinates":[804,6379]},{"type":"Point","properties":{"Station_ID":"MKX","Station_Nam":"MILWAUKEE, WI","Latitude":"42.96810","Longitude":"-88.54920","Snowdepth":"7.000","Units":"in","Rept_Date":"2021-01-17 06"},"coordinates":[1952,4692]},{"type":"Point","properties":{"Station_ID":"MI-OT-17","Station_Nam":"GAYLORD 4.1 S, MI","Latitude":"44.96388","Longitude":"-84.68467","Snowdepth":"7.000","Units":"in","Rept_Date":"2021-01-16 12"},"coordinates":[2820,5901]},{"type":"Point","properties":{"Station_ID":"LYNW3","Station_Nam":"LYNXVILLE DAM 9","Latitude":"43.21180","Longitude":"-91.09850","Snowdepth":"7.000","Units":"in","Rept_Date":"2021-01-16 14"},"coordinates":[1379,4840]},{"type":"Point","properties":{"Station_ID":"KMSP","Station_Nam":"MINNEAPOLIS-ST PAUL INTERNATIONAL","Latitude":"44.86666","Longitude":"-93.21666","Snowdepth":"7.000","Units":"in","Rept_Date":"2021-01-17 06"},"coordinates":[904,5842]},{"type":"Point","properties":{"Station_ID":"JOHV1","Station_Nam":"JOHNSON 2 N","Latitude":"44.65790","Longitude":"-72.67850","Snowdepth":"7.000","Units":"in","Rept_Date":"2021-01-16 12"},"coordinates":[5517,5716]},{"type":"Point","properties":{"Station_ID":"IL-WN-26","Station_Nam":"ROCKFORD 1.5 ENE, IL","Latitude":"42.27775","Longitude":"-89.03590","Snowdepth":"7.000","Units":"in","Rept_Date":"2021-01-16 15"},"coordinates":[1843,4274]},{"type":"Point","properties":{"Station_ID":"IL-SP-25","Station_Nam":"FREEPORT 1.7 NW, IL","Latitude":"42.30427","Longitude":"-89.66285","Snowdepth":"7.000","Units":"in","Rept_Date":"2021-01-16 13"},"coordinates":[1702,4290]},{"type":"Point","properties":{"Station_ID":"IA-JH-20","Station_Nam":"CORALVILLE 1.4 S, IA","Latitude":"41.67016","Longitude":"-91.60296","Snowdepth":"7.000","Units":"in","Rept_Date":"2021-01-16 14"},"coordinates":[1266,3906]},{"type":"Point","properties":{"Station_ID":"HSTM5","Station_Nam":"HASTINGS DAM 2","Latitude":"44.75970","Longitude":"-92.86890","Snowdepth":"7.000","Units":"in","Rept_Date":"2021-01-16 13"},"coordinates":[982,5778]},{"type":"Point","properties":{"Station_ID":"HPN02_MADIS","Station_Nam":"MAPLE GROVE","Latitude":"45.11820","Longitude":"-93.42830","Snowdepth":"7.000","Units":"in","Rept_Date":"2021-01-17 06"},"coordinates":[856,5995]},{"type":"Point","properties":{"Station_ID":"HEBI2","Station_Nam":"HEBRON","Latitude":"42.46750","Longitude":"-88.48060","Snowdepth":"7.000","Units":"in","Rept_Date":"2021-01-16 13"},"coordinates":[1967,4389]},{"type":"Point","properties":{"Station_ID":"GHMN3","Station_Nam":"PINKHAM NOTCH","Latitude":"44.25800","Longitude":"-71.25250","Snowdepth":"7.000","Units":"in","Rept_Date":"2021-01-16 11"},"coordinates":[5838,5474]},{"type":"Point","properties":{"Station_ID":"GFDN6","Station_Nam":"CHASES LAKE","Latitude":"43.75920","Longitude":"-75.29980","Snowdepth":"7.000","Units":"in","Rept_Date":"2021-01-16 11"},"coordinates":[4928,5171]},{"type":"Point","properties":{"Station_ID":"EVYI4","Station_Nam":"EVERLY,IA","Latitude":"43.18330","Longitude":"-95.36670","Snowdepth":"7.000","Units":"in","Rept_Date":"2021-01-16 13"},"coordinates":[421,4822]},{"type":"Point","properties":{"Station_ID":"EVRW3","Station_Nam":"EAGLE RIVER-4 E","Latitude":"45.91890","Longitude":"-89.15280","Snowdepth":"7.000","Units":"in","Rept_Date":"2021-01-16 13"},"coordinates":[1816,6480]},{"type":"Point","properties":{"Station_ID":"EGRW3","Station_Nam":"EAGLE RIVER-SOUTH","Latitude":"45.91360","Longitude":"-89.24360","Snowdepth":"7.000","Units":"in","Rept_Date":"2021-01-16 13"},"coordinates":[1796,6477]},{"type":"Point","properties":{"Station_ID":"COUW3","Station_Nam":"COUDERAY,WI","Latitude":"45.86670","Longitude":"-91.45000","Snowdepth":"7.000","Units":"in","Rept_Date":"2021-01-16 22"},"coordinates":[1300,6448]},{"type":"Point","properties":{"Station_ID":"CLIW3","Station_Nam":"CLINTON,WI","Latitude":"42.60000","Longitude":"-88.88330","Snowdepth":"7.000","Units":"in","Rept_Date":"2021-01-16 13"},"coordinates":[1877,4469]},{"type":"Point","properties":{"Station_ID":"CLDM5","Station_Nam":"CALEDONIA","Latitude":"43.63090","Longitude":"-91.50270","Snowdepth":"7.000","Units":"in","Rept_Date":"2021-01-16 13"},"coordinates":[1289,5094]},{"type":"Point","properties":{"Station_ID":"CAN-NS-86","Station_Nam":"NAPPAN 1.7 E, CA","Latitude":"45.76986","Longitude":"-64.21800","Snowdepth":"7.000","Units":"in","Rept_Date":"2021-01-16 13"},"coordinates":[7418,6390]},{"type":"Point","properties":{"Station_ID":"CAN-MB-56","Station_Nam":"WINNIPEG 7.6 ENE, CAN","Latitude":"49.93264","Longitude":"-97.04752","Snowdepth":"7.000","Units":"in","Rept_Date":"2021-01-16 14"},"coordinates":[43,8912]},{"type":"Point","properties":{"Station_ID":"BROW3","Station_Nam":"BRODHEAD,WI","Latitude":"42.61720","Longitude":"-89.38970","Snowdepth":"7.000","Units":"in","Rept_Date":"2021-01-16 13"},"coordinates":[1763,4479]},{"type":"Point","properties":{"Station_ID":"BLTW3","Station_Nam":"BELOIT,WI","Latitude":"42.50000","Longitude":"-89.03330","Snowdepth":"7.000","Units":"in","Rept_Date":"2021-01-16 12"},"coordinates":[1843,4408]},{"type":"Point","properties":{"Station_ID":"AMOI4","Station_Nam":"ANAMOSA 3 SSW","Latitude":"42.07630","Longitude":"-91.30190","Snowdepth":"7.000","Units":"in","Rept_Date":"2021-01-16 13"},"coordinates":[1334,4152]},{"type":"Point","properties":{"Station_ID":"HPN08_MADIS","Station_Nam":"ORONO","Latitude":"44.93630","Longitude":"-93.62000","Snowdepth":"6.700","Units":"in","Rept_Date":"2021-01-17 06"},"coordinates":[813,5885]},{"type":"Point","properties":{"Station_ID":"CAN-PE-47","Station_Nam":"LONG CREEK 0.3 NNW, CAN","Latitude":"46.17420","Longitude":"-63.27320","Snowdepth":"6.700","Units":"in","Rept_Date":"2021-01-16 12"},"coordinates":[7630,6635]},{"type":"Point","properties":{"Station_ID":"CAN-NB-98","Station_Nam":"HOYT 4.2 S, CAN","Latitude":"45.54763","Longitude":"-66.55440","Snowdepth":"6.700","Units":"in","Rept_Date":"2021-01-16 11"},"coordinates":[6893,6255]},{"type":"Point","properties":{"Station_ID":"WI-JF-24","Station_Nam":"LAC LABELLE 1.2 SW, WI","Latitude":"43.13126","Longitude":"-88.53959","Snowdepth":"6.600","Units":"in","Rept_Date":"2021-01-16 14"},"coordinates":[1954,4791]},{"type":"Point","properties":{"Station_ID":"MFU","Station_Nam":"MFU","Latitude":"51.52170","Longitude":"-66.91110","Snowdepth":"6.535","Units":"in","Rept_Date":"2021-01-16 12"},"coordinates":[6813,9875]},{"type":"Point","properties":{"Station_ID":"WI-WS-27","Station_Nam":"RICHFIELD 2.8 WNW, WI","Latitude":"43.26840","Longitude":"-88.24890","Snowdepth":"6.500","Units":"in","Rept_Date":"2021-01-16 14"},"coordinates":[2020,4874]},{"type":"Point","properties":{"Station_ID":"WI-WK-29","Station_Nam":"OCONOMOWOC 4.6 NE, WI","Latitude":"43.14621","Longitude":"-88.42860","Snowdepth":"6.500","Units":"in","Rept_Date":"2021-01-16 15"},"coordinates":[1979,4800]},{"type":"Point","properties":{"Station_ID":"WI-OZ-17","Station_Nam":"WEST BEND 7.3 E, WI","Latitude":"43.42860","Longitude":"-88.03870","Snowdepth":"6.500","Units":"in","Rept_Date":"2021-01-16 13"},"coordinates":[2067,4971]},{"type":"Point","properties":{"Station_ID":"WI-JF-22","Station_Nam":"SULLIVAN 2.6 SW, WI","Latitude":"42.98562","Longitude":"-88.62498","Snowdepth":"6.500","Units":"in","Rept_Date":"2021-01-16 14"},"coordinates":[1935,4703]},{"type":"Point","properties":{"Station_ID":"WI-IW-3","Station_Nam":"MINERAL POINT 7.3 ENE, WI","Latitude":"42.91400","Longitude":"-90.05700","Snowdepth":"6.500","Units":"in","Rept_Date":"2021-01-16 13"},"coordinates":[1613,4659]},{"type":"Point","properties":{"Station_ID":"WI-DD-5","Station_Nam":"THERESA 3.1 SE, WI","Latitude":"43.49201","Longitude":"-88.40165","Snowdepth":"6.500","Units":"in","Rept_Date":"2021-01-16 14"},"coordinates":[1985,5009]},{"type":"Point","properties":{"Station_ID":"VT-WS-15","Station_Nam":"EAST CALAIS 1.5 SW, VT","Latitude":"44.35523","Longitude":"-72.45540","Snowdepth":"6.500","Units":"in","Rept_Date":"2021-01-16 12"},"coordinates":[5567,5532]},{"type":"Point","properties":{"Station_ID":"VT-OL-25","Station_Nam":"NEWPORT 1.5 WSW, VT","Latitude":"44.93059","Longitude":"-72.23731","Snowdepth":"6.500","Units":"in","Rept_Date":"2021-01-16 12"},"coordinates":[5616,5881]},{"type":"Point","properties":{"Station_ID":"SD-MH-8","Station_Nam":"HARTFORD 6.4 S, SD","Latitude":"43.53128","Longitude":"-96.95020","Snowdepth":"6.500","Units":"in","Rept_Date":"2021-01-16 14"},"coordinates":[65,5033]},{"type":"Point","properties":{"Station_ID":"NY-SC-30","Station_Nam":"AMSTERDAM 6.4 E, NY","Latitude":"42.93462","Longitude":"-74.06502","Snowdepth":"6.500","Units":"in","Rept_Date":"2021-01-16 14"},"coordinates":[5206,4672]},{"type":"Point","properties":{"Station_ID":"MN-SL-139","Station_Nam":"DULUTH 1.2 SE, MN","Latitude":"46.77000","Longitude":"-92.08826","Snowdepth":"6.500","Units":"in","Rept_Date":"2021-01-16 12"},"coordinates":[1157,6996]},{"type":"Point","properties":{"Station_ID":"MN-MS-8","Station_Nam":"NEWFOLDEN 0.2 W, MN","Latitude":"48.35613","Longitude":"-96.33460","Snowdepth":"6.500","Units":"in","Rept_Date":"2021-01-16 14"},"coordinates":[203,7957]},{"type":"Point","properties":{"Station_ID":"ME-PN-55","Station_Nam":"ORONO 1.1 SSW, ME","Latitude":"44.87005","Longitude":"-68.69446","Snowdepth":"6.500","Units":"in","Rept_Date":"2021-01-16 12"},"coordinates":[6412,5844]},{"type":"Point","properties":{"Station_ID":"IL-WN-32","Station_Nam":"ROCKFORD 5.5 S, IL","Latitude":"42.19058","Longitude":"-89.06040","Snowdepth":"6.500","Units":"in","Rept_Date":"2021-01-16 14"},"coordinates":[1837,4221]},{"type":"Point","properties":{"Station_ID":"IL-SP-26","Station_Nam":"FREEPORT 2.9 WSW, IL","Latitude":"42.26779","Longitude":"-89.68323","Snowdepth":"6.500","Units":"in","Rept_Date":"2021-01-16 14"},"coordinates":[1697,4268]},{"type":"Point","properties":{"Station_ID":"WI-WK-84","Station_Nam":"WAUKESHA 2.5 NW, WI","Latitude":"43.03422","Longitude":"-88.27814","Snowdepth":"6.400","Units":"in","Rept_Date":"2021-01-16 13"},"coordinates":[2013,4732]},{"type":"Point","properties":{"Station_ID":"HPN20_MADIS","Station_Nam":"HOPKINS","Latitude":"44.95556","Longitude":"-93.41140","Snowdepth":"6.400","Units":"in","Rept_Date":"2021-01-17 06"},"coordinates":[860,5896]},{"type":"Point","properties":{"Station_ID":"QIQ","Station_Nam":"QIQ","Latitude":"49.82390","Longitude":"-68.54310","Snowdepth":"6.339","Units":"in","Rept_Date":"2021-01-16 12"},"coordinates":[6446,8846]},{"type":"Point","properties":{"Station_ID":"QGA","Station_Nam":"QGA","Latitude":"47.25640","Longitude":"-73.73810","Snowdepth":"6.299","Units":"in","Rept_Date":"2021-01-16 12"},"coordinates":[5279,7290]},{"type":"Point","properties":{"Station_ID":"WI-SK-2","Station_Nam":"ROCK SPRINGS 2.8 WSW, WI","Latitude":"43.45901","Longitude":"-89.96540","Snowdepth":"6.200","Units":"in","Rept_Date":"2021-01-16 13"},"coordinates":[1634,4989]},{"type":"Point","properties":{"Station_ID":"MI-IC-6","Station_Nam":"NATIONAL CITY 4.5 NNE, MI","Latitude":"44.29330","Longitude":"-83.68410","Snowdepth":"6.200","Units":"in","Rept_Date":"2021-01-16 14"},"coordinates":[3045,5495]},{"type":"Point","properties":{"Station_ID":"HPN19_MADIS","Station_Nam":"GREENFIELD","Latitude":"45.20343","Longitude":"-93.69130","Snowdepth":"6.100","Units":"in","Rept_Date":"2021-01-17 06"},"coordinates":[797,6046]},{"type":"Point","properties":{"Station_ID":"WPKW3","Station_Nam":"SW-WHITNAL PARK","Latitude":"42.91670","Longitude":"-88.03330","Snowdepth":"6.000","Units":"in","Rept_Date":"2021-01-16 13"},"coordinates":[2068,4661]},{"type":"Point","properties":{"Station_ID":"WNNM5","Station_Nam":"WINNEBAGO","Latitude":"43.76920","Longitude":"-94.18730","Snowdepth":"6.000","Units":"in","Rept_Date":"2021-01-16 14"},"coordinates":[685,5177]},{"type":"Point","properties":{"Station_ID":"WI-WS-30","Station_Nam":"HARTFORD 2.9 ENE, WI","Latitude":"43.34256","Longitude":"-88.33687","Snowdepth":"6.000","Units":"in","Rept_Date":"2021-01-16 13"},"coordinates":[2000,4919]},{"type":"Point","properties":{"Station_ID":"WI-WS-15","Station_Nam":"WEST BEND 5.4 SE, WI","Latitude":"43.37259","Longitude":"-88.10086","Snowdepth":"6.000","Units":"in","Rept_Date":"2021-01-16 14"},"coordinates":[2053,4937]},{"type":"Point","properties":{"Station_ID":"WI-WK-68","Station_Nam":"OCONOMOWOC 1.0 S, WI","Latitude":"43.09530","Longitude":"-88.48590","Snowdepth":"6.000","Units":"in","Rept_Date":"2021-01-16 14"},"coordinates":[1966,4769]},{"type":"Point","properties":{"Station_ID":"WI-WK-34","Station_Nam":"MUKWONAGO 5.3 W, WI","Latitude":"42.85380","Longitude":"-88.43550","Snowdepth":"6.000","Units":"in","Rept_Date":"2021-01-16 13"},"coordinates":[1978,4623]},{"type":"Point","properties":{"Station_ID":"WI-WK-20","Station_Nam":"MUKWONAGO 0.5 N, WI","Latitude":"42.87385","Longitude":"-88.33180","Snowdepth":"6.000","Units":"in","Rept_Date":"2021-01-16 14"},"coordinates":[2001,4635]},{"type":"Point","properties":{"Station_ID":"WI-SB-10","Station_Nam":"RANDOM LAKE 0.5 SSE, WI","Latitude":"43.54812","Longitude":"-87.95050","Snowdepth":"6.000","Units":"in","Rept_Date":"2021-01-16 13"},"coordinates":[2087,5043]},{"type":"Point","properties":{"Station_ID":"WI-RC-3","Station_Nam":"RACINE 2.3 WSW, WI","Latitude":"42.71124","Longitude":"-87.84570","Snowdepth":"6.000","Units":"in","Rept_Date":"2021-01-16 13"},"coordinates":[2110,4536]},{"type":"Point","properties":{"Station_ID":"WI-PC-5","Station_Nam":"RIVER FALLS 1.2 SSW, WI","Latitude":"44.84032","Longitude":"-92.63500","Snowdepth":"6.000","Units":"in","Rept_Date":"2021-01-16 13"},"coordinates":[1034,5826]},{"type":"Point","properties":{"Station_ID":"WI-PC-10","Station_Nam":"RIVER FALLS 1.4 S, WI","Latitude":"44.83580","Longitude":"-92.62100","Snowdepth":"6.000","Units":"in","Rept_Date":"2021-01-16 13"},"coordinates":[1037,5824]},{"type":"Point","properties":{"Station_ID":"WI-OZ-22","Station_Nam":"SAUKVILLE 0.9 SSW, WI","Latitude":"43.37254","Longitude":"-87.95009","Snowdepth":"6.000","Units":"in","Rept_Date":"2021-01-16 13"},"coordinates":[2087,4937]},{"type":"Point","properties":{"Station_ID":"WI-DN-1","Station_Nam":"BOYCEVILLE 3.3 N, WI","Latitude":"45.08913","Longitude":"-92.02760","Snowdepth":"6.000","Units":"in","Rept_Date":"2021-01-16 13"},"coordinates":[1171,5977]},{"type":"Point","properties":{"Station_ID":"WI-DD-20","Station_Nam":"BEAVER DAM 3.9 E, WI","Latitude":"43.45950","Longitude":"-88.75930","Snowdepth":"6.000","Units":"in","Rept_Date":"2021-01-16 13"},"coordinates":[1905,4990]},{"type":"Point","properties":{"Station_ID":"WI-BY-1","Station_Nam":"BAYFIELD 8.8 N, WI","Latitude":"46.93855","Longitude":"-90.83490","Snowdepth":"6.000","Units":"in","Rept_Date":"2021-01-16 13"},"coordinates":[1439,7098]},{"type":"Point","properties":{"Station_ID":"WI-BR-2","Station_Nam":"CHETEK 2.0 SE, WI","Latitude":"45.29427","Longitude":"-91.62470","Snowdepth":"6.000","Units":"in","Rept_Date":"2021-01-16 13"},"coordinates":[1261,6101]},{"type":"Point","properties":{"Station_ID":"VT-WS-19","Station_Nam":"WATERBURY 3.0 NW, VT","Latitude":"44.36060","Longitude":"-72.80770","Snowdepth":"6.000","Units":"in","Rept_Date":"2021-01-16 11"},"coordinates":[5488,5536]},{"type":"Point","properties":{"Station_ID":"VT-OL-9","Station_Nam":"GREENSBORO 2.1 NNW, VT","Latitude":"44.60528","Longitude":"-72.30940","Snowdepth":"6.000","Units":"in","Rept_Date":"2021-01-16 12"},"coordinates":[5600,5684]},{"type":"Point","properties":{"Station_ID":"VT-OL-2","Station_Nam":"BARTON 3.0 ENE, VT","Latitude":"44.75863","Longitude":"-72.11680","Snowdepth":"6.000","Units":"in","Rept_Date":"2021-01-16 12"},"coordinates":[5644,5777]},{"type":"Point","properties":{"Station_ID":"VT-CL-14","Station_Nam":"LYNDONVILLE 1.1 W, VT","Latitude":"44.53582","Longitude":"-72.02867","Snowdepth":"6.000","Units":"in","Rept_Date":"2021-01-16 13"},"coordinates":[5663,5642]},{"type":"Point","properties":{"Station_ID":"UGRW3","Station_Nam":"UNION GROVE,WI","Latitude":"42.70000","Longitude":"-88.03220","Snowdepth":"6.000","Units":"in","Rept_Date":"2021-01-16 13"},"coordinates":[2068,4530]},{"type":"Point","properties":{"Station_ID":"TAHW3","Station_Nam":"TAYCHEEDAH","Latitude":"43.83390","Longitude":"-88.34690","Snowdepth":"6.000","Units":"in","Rept_Date":"2021-01-16 12"},"coordinates":[1997,5217]},{"type":"Point","properties":{"Station_ID":"SWHI4","Station_Nam":"SWISHER #2","Latitude":"41.84970","Longitude":"-91.67650","Snowdepth":"6.000","Units":"in","Rept_Date":"2021-01-16 14"},"coordinates":[1250,4014]},{"type":"Point","properties":{"Station_ID":"SUTV1","Station_Nam":"SUTTON","Latitude":"44.61220","Longitude":"-72.04810","Snowdepth":"6.000","Units":"in","Rept_Date":"2021-01-16 13"},"coordinates":[5659,5688]},{"type":"Point","properties":{"Station_ID":"SPTI4","Station_Nam":"STRAWBERRY POINT","Latitude":"42.68530","Longitude":"-91.53300","Snowdepth":"6.000","Units":"in","Rept_Date":"2021-01-16 13"},"coordinates":[1282,4521]},{"type":"Point","properties":{"Station_ID":"SNYI4","Station_Nam":"STANLEY","Latitude":"42.63330","Longitude":"-91.86320","Snowdepth":"6.000","Units":"in","Rept_Date":"2021-01-16 13"},"coordinates":[1208,4489]},{"type":"Point","properties":{"Station_ID":"SIBI4","Station_Nam":"SIBLEY","Latitude":"43.40470","Longitude":"-95.74830","Snowdepth":"6.000","Units":"in","Rept_Date":"2021-01-16 13"},"coordinates":[335,4957]},{"type":"Point","properties":{"Station_ID":"SAVW3","Station_Nam":"SAUKVILLE WWTP","Latitude":"43.37470","Longitude":"-87.93940","Snowdepth":"6.000","Units":"in","Rept_Date":"2021-01-16 12"},"coordinates":[2089,4938]},{"type":"Point","properties":{"Station_ID":"SACI4","Station_Nam":"SAC CITY,IA","Latitude":"42.42390","Longitude":"-94.99080","Snowdepth":"6.000","Units":"in","Rept_Date":"2021-01-16 12"},"coordinates":[505,4362]},{"type":"Point","properties":{"Station_ID":"ROCW3","Station_Nam":"ROCHESTER WWTP","Latitude":"42.72690","Longitude":"-88.22580","Snowdepth":"6.000","Units":"in","Rept_Date":"2021-01-16 14"},"coordinates":[2025,4546]},{"type":"Point","properties":{"Station_ID":"ROBW3","Station_Nam":"ROBERTS WWTP","Latitude":"44.97070","Longitude":"-92.56200","Snowdepth":"6.000","Units":"in","Rept_Date":"2021-01-16 14"},"coordinates":[1051,5905]},{"type":"Point","properties":{"Station_ID":"RKWI4","Station_Nam":"ROCKWELL CITY,IA","Latitude":"42.40000","Longitude":"-94.61670","Snowdepth":"6.000","Units":"in","Rept_Date":"2021-01-16 13"},"coordinates":[589,4348]},{"type":"Point","properties":{"Station_ID":"PTBN3","Station_Nam":"PITTSBURG RESERVOIR","Latitude":"45.04690","Longitude":"-71.38300","Snowdepth":"6.000","Units":"in","Rept_Date":"2021-01-16 12"},"coordinates":[5808,5952]},{"type":"Point","properties":{"Station_ID":"PRNW3","Station_Nam":"PRENTICE,WI","Latitude":"45.54780","Longitude":"-90.30000","Snowdepth":"6.000","Units":"in","Rept_Date":"2021-01-16 14"},"coordinates":[1559,6255]},{"type":"Point","properties":{"Station_ID":"PLLW3","Station_Nam":"PELL LAKE","Latitude":"42.53220","Longitude":"-88.33280","Snowdepth":"6.000","Units":"in","Rept_Date":"2021-01-16 13"},"coordinates":[2001,4428]},{"type":"Point","properties":{"Station_ID":"PIPM5","Station_Nam":"PIPESTONE,MN","Latitude":"44.01390","Longitude":"-96.32580","Snowdepth":"6.000","Units":"in","Rept_Date":"2021-01-16 14"},"coordinates":[205,5326]},{"type":"Point","properties":{"Station_ID":"OWAM5","Station_Nam":"OWATONNA","Latitude":"44.09760","Longitude":"-93.23180","Snowdepth":"6.000","Units":"in","Rept_Date":"2021-01-16 14"},"coordinates":[900,5376]},{"type":"Point","properties":{"Station_ID":"ONCW3","Station_Nam":"SOUTH","Latitude":"43.11170","Longitude":"-88.49970","Snowdepth":"6.000","Units":"in","Rept_Date":"2021-01-16 14"},"coordinates":[1963,4779]},{"type":"Point","properties":{"Station_ID":"NY-BM-14","Station_Nam":"WHITNEY POINT 1.7 SSE, NY","Latitude":"42.30837","Longitude":"-75.95690","Snowdepth":"6.000","Units":"in","Rept_Date":"2021-01-16 12"},"coordinates":[4781,4292]},{"type":"Point","properties":{"Station_ID":"NH-GR-47","Station_Nam":"LITTLETON 7.3 W, NH","Latitude":"44.31847","Longitude":"-71.91086","Snowdepth":"6.000","Units":"in","Rept_Date":"2021-01-16 13"},"coordinates":[5690,5510]},{"type":"Point","properties":{"Station_ID":"NH-CS-4","Station_Nam":"PITTSBURG 6.1 NE, NH","Latitude":"45.11060","Longitude":"-71.29760","Snowdepth":"6.000","Units":"in","Rept_Date":"2021-01-16 12"},"coordinates":[5828,5990]},{"type":"Point","properties":{"Station_ID":"MYOM4","Station_Nam":"MIO WWTP","Latitude":"44.64660","Longitude":"-84.11580","Snowdepth":"6.000","Units":"in","Rept_Date":"2021-01-16 13"},"coordinates":[2948,5709]},{"type":"Point","properties":{"Station_ID":"MWOW3","Station_Nam":"MUKWONAGO","Latitude":"42.85380","Longitude":"-88.43550","Snowdepth":"6.000","Units":"in","Rept_Date":"2021-01-16 13"},"coordinates":[1978,4623]},{"type":"Point","properties":{"Station_ID":"MPXM5","Station_Nam":"CHANHASSEN WSFO","Latitude":"44.84960","Longitude":"-93.56440","Snowdepth":"6.000","Units":"in","Rept_Date":"2021-01-17 06"},"coordinates":[825,5832]},{"type":"Point","properties":{"Station_ID":"MN-SV-4","Station_Nam":"DONNELLY 2.9 NW, MN","Latitude":"45.71649","Longitude":"-96.06043","Snowdepth":"6.000","Units":"in","Rept_Date":"2021-01-16 13"},"coordinates":[265,6357]},{"type":"Point","properties":{"Station_ID":"MN-SR-29","Station_Nam":"ALBANY 3.8 S, MN","Latitude":"45.57441","Longitude":"-94.55543","Snowdepth":"6.000","Units":"in","Rept_Date":"2021-01-16 13"},"coordinates":[603,6271]},{"type":"Point","properties":{"Station_ID":"MN-SH-10","Station_Nam":"BIG LAKE 5.6 NNE, MN","Latitude":"45.41409","Longitude":"-93.69190","Snowdepth":"6.000","Units":"in","Rept_Date":"2021-01-16 13"},"coordinates":[797,6174]},{"type":"Point","properties":{"Station_ID":"MN-SC-2","Station_Nam":"PRIOR LAKE 2.0 W, MN","Latitude":"44.71250","Longitude":"-93.46360","Snowdepth":"6.000","Units":"in","Rept_Date":"2021-01-16 13"},"coordinates":[848,5749]},{"type":"Point","properties":{"Station_ID":"MN-RM-63","Station_Nam":"NORTH SAINT PAUL 1.0 NW, MN","Latitude":"45.02410","Longitude":"-93.01400","Snowdepth":"6.000","Units":"in","Rept_Date":"2021-01-16 13"},"coordinates":[949,5938]},{"type":"Point","properties":{"Station_ID":"MN-RM-15","Station_Nam":"ROSEVILLE 2.1 NW, MN","Latitude":"45.03502","Longitude":"-93.18620","Snowdepth":"6.000","Units":"in","Rept_Date":"2021-01-16 12"},"coordinates":[910,5944]},{"type":"Point","properties":{"Station_ID":"MN-RC-38","Station_Nam":"FARIBAULT 1.6 S, MN","Latitude":"44.27639","Longitude":"-93.27306","Snowdepth":"6.000","Units":"in","Rept_Date":"2021-01-16 13"},"coordinates":[891,5485]},{"type":"Point","properties":{"Station_ID":"MN-MR-13","Station_Nam":"LITTLE FALLS 8.0 NE, MN","Latitude":"46.06785","Longitude":"-94.24789","Snowdepth":"6.000","Units":"in","Rept_Date":"2021-01-16 13"},"coordinates":[672,6570]},{"type":"Point","properties":{"Station_ID":"MN-HN-6","Station_Nam":"LONG LAKE 0.2 WSW, MN","Latitude":"44.98290","Longitude":"-93.57360","Snowdepth":"6.000","Units":"in","Rept_Date":"2021-01-16 13"},"coordinates":[823,5913]},{"type":"Point","properties":{"Station_ID":"MN-HN-267","Station_Nam":"MINNEAPOLIS 2.5 SE, MN","Latitude":"44.93331","Longitude":"-93.23680","Snowdepth":"6.000","Units":"in","Rept_Date":"2021-01-16 13"},"coordinates":[899,5883]},{"type":"Point","properties":{"Station_ID":"MN-HN-241","Station_Nam":"MAPLE GROVE 1.4 WSW, MN","Latitude":"45.10451","Longitude":"-93.48950","Snowdepth":"6.000","Units":"in","Rept_Date":"2021-01-16 13"},"coordinates":[842,5986]},{"type":"Point","properties":{"Station_ID":"MN-HN-240","Station_Nam":"BLOOMINGTON 3.1 E, MN","Latitude":"44.83704","Longitude":"-93.25318","Snowdepth":"6.000","Units":"in","Rept_Date":"2021-01-16 14"},"coordinates":[895,5824]},{"type":"Point","properties":{"Station_ID":"MN-HN-19","Station_Nam":"EDINA 1.3 SW, MN","Latitude":"44.87830","Longitude":"-93.37890","Snowdepth":"6.000","Units":"in","Rept_Date":"2021-01-16 13"},"coordinates":[867,5849]},{"type":"Point","properties":{"Station_ID":"MN-DK-70","Station_Nam":"EAGAN 2.0 NNW, MN","Latitude":"44.84322","Longitude":"-93.17899","Snowdepth":"6.000","Units":"in","Rept_Date":"2021-01-16 13"},"coordinates":[912,5828]},{"type":"Point","properties":{"Station_ID":"MN-CW-29","Station_Nam":"BRAINERD 7.7 SSE, MN","Latitude":"46.24996","Longitude":"-94.14576","Snowdepth":"6.000","Units":"in","Rept_Date":"2021-01-16 13"},"coordinates":[695,6680]},{"type":"Point","properties":{"Station_ID":"MN-CV-1","Station_Nam":"CARVER 0.7 W, MN","Latitude":"44.75728","Longitude":"-93.64160","Snowdepth":"6.000","Units":"in","Rept_Date":"2021-01-16 13"},"coordinates":[808,5776]},{"type":"Point","properties":{"Station_ID":"MN-BK-10","Station_Nam":"DETROIT LAKES 5.7 N, MN","Latitude":"46.88666","Longitude":"-95.84444","Snowdepth":"6.000","Units":"in","Rept_Date":"2021-01-16 14"},"coordinates":[313,7066]},{"type":"Point","properties":{"Station_ID":"MI-OT-4","Station_Nam":"GAYLORD 1.7 WNW, MI","Latitude":"45.03280","Longitude":"-84.71090","Snowdepth":"6.000","Units":"in","Rept_Date":"2021-01-16 13"},"coordinates":[2814,5943]},{"type":"Point","properties":{"Station_ID":"MI-OT-16","Station_Nam":"GAYLORD 2.2 SSE, MI","Latitude":"44.99441","Longitude":"-84.65820","Snowdepth":"6.000","Units":"in","Rept_Date":"2021-01-16 12"},"coordinates":[2826,5920]},{"type":"Point","properties":{"Station_ID":"MI-NW-8","Station_Nam":"WHITE CLOUD 7.5 ENE, MI","Latitude":"43.60630","Longitude":"-85.64190","Snowdepth":"6.000","Units":"in","Rept_Date":"2021-01-16 12"},"coordinates":[2605,5079]},{"type":"Point","properties":{"Station_ID":"MI-MQ-28","Station_Nam":"CARLSHEND, MI","Latitude":"46.31638","Longitude":"-87.19944","Snowdepth":"6.000","Units":"in","Rept_Date":"2021-01-16 13"},"coordinates":[2255,6721]},{"type":"Point","properties":{"Station_ID":"MI-CP-14","Station_Nam":"SAULT STE. MARIE 2.2 E, MI","Latitude":"46.48933","Longitude":"-84.31971","Snowdepth":"6.000","Units":"in","Rept_Date":"2021-01-16 13"},"coordinates":[2902,6826]},{"type":"Point","properties":{"Station_ID":"MI-AG-6","Station_Nam":"MUNISING 11.1 SSW, MI","Latitude":"46.27805","Longitude":"-86.75747","Snowdepth":"6.000","Units":"in","Rept_Date":"2021-01-16 12"},"coordinates":[2355,6698]},{"type":"Point","properties":{"Station_ID":"ME-AR-18","Station_Nam":"NEW SWEDEN 4.9 NNW, ME","Latitude":"47.01080","Longitude":"-68.14390","Snowdepth":"6.000","Units":"in","Rept_Date":"2021-01-16 12"},"coordinates":[6536,7141]},{"type":"Point","properties":{"Station_ID":"MABM5","Station_Nam":"MABEL","Latitude":"43.52410","Longitude":"-91.76160","Snowdepth":"6.000","Units":"in","Rept_Date":"2021-01-16 13"},"coordinates":[1230,5029]},{"type":"Point","properties":{"Station_ID":"LSXI4","Station_Nam":"LITTLE SIOUX,IA","Latitude":"41.81670","Longitude":"-96.01670","Snowdepth":"6.000","Units":"in","Rept_Date":"2021-01-16 13"},"coordinates":[275,3994]},{"type":"Point","properties":{"Station_ID":"LNGM5","Station_Nam":"LONG PRAIRIE","Latitude":"45.96460","Longitude":"-94.88920","Snowdepth":"6.000","Units":"in","Rept_Date":"2021-01-16 12"},"coordinates":[528,6508]},{"type":"Point","properties":{"Station_ID":"LAUP1","Station_Nam":"1.5MI S OF RT 30 ON SMIT (LAUREL RIDGE)","Latitude":"40.05000","Longitude":"-79.22060","Snowdepth":"6.000","Units":"in","Rept_Date":"2021-01-16 12"},"coordinates":[4048,2924]},{"type":"Point","properties":{"Station_ID":"KGTB","Station_Nam":"FORT DRUM / WHEELER-SACK U. S. ARMY AIRFIELD","Latitude":"44.05000","Longitude":"-75.73333","Snowdepth":"6.000","Units":"in","Rept_Date":"2021-01-16 18"},"coordinates":[4831,5348]},{"type":"Point","properties":{"Station_ID":"KBTV","Station_Nam":"BURLINGTON INTERNATIONAL","Latitude":"44.46666","Longitude":"-73.15000","Snowdepth":"6.000","Units":"in","Rept_Date":"2021-01-17 00"},"coordinates":[5411,5600]},{"type":"Point","properties":{"Station_ID":"JEFV1","Station_Nam":"JEFFERSONVILLE","Latitude":"44.58430","Longitude":"-72.78700","Snowdepth":"6.000","Units":"in","Rept_Date":"2021-01-16 12"},"coordinates":[5493,5671]},{"type":"Point","properties":{"Station_ID":"ISLV1","Station_Nam":"ISLAND POND","Latitude":"44.81280","Longitude":"-71.89020","Snowdepth":"6.000","Units":"in","Rept_Date":"2021-01-16 13"},"coordinates":[5694,5810]},{"type":"Point","properties":{"Station_ID":"IMNM4","Station_Nam":"IRON MOUTAIN 5N","Latitude":"45.87580","Longitude":"-88.04030","Snowdepth":"6.000","Units":"in","Rept_Date":"2021-01-17 02"},"coordinates":[2066,6454]},{"type":"Point","properties":{"Station_ID":"IL-JD-6","Station_Nam":"HANOVER 0.2 NW, IL","Latitude":"42.25640","Longitude":"-90.28109","Snowdepth":"6.000","Units":"in","Rept_Date":"2021-01-16 13"},"coordinates":[1563,4261]},{"type":"Point","properties":{"Station_ID":"IA-SR-12","Station_Nam":"AMES 2.1 N, IA","Latitude":"42.05442","Longitude":"-93.62670","Snowdepth":"6.000","Units":"in","Rept_Date":"2021-01-16 14"},"coordinates":[811,4138]},{"type":"Point","properties":{"Station_ID":"IA-PK-3","Station_Nam":"DES MOINES 4.5 WNW, IA","Latitude":"41.60663","Longitude":"-93.69560","Snowdepth":"6.000","Units":"in","Rept_Date":"2021-01-16 13"},"coordinates":[796,3867]},{"type":"Point","properties":{"Station_ID":"IA-DK-11","Station_Nam":"SPIRIT LAKE 1.7 SW, IA","Latitude":"43.40694","Longitude":"-95.13694","Snowdepth":"6.000","Units":"in","Rept_Date":"2021-01-16 13"},"coordinates":[472,4958]},{"type":"Point","properties":{"Station_ID":"IA-AP-8","Station_Nam":"CENTERVILLE 5.6 NE, IA","Latitude":"40.79636","Longitude":"-92.81251","Snowdepth":"6.000","Units":"in","Rept_Date":"2021-01-16 13"},"coordinates":[994,3376]},{"type":"Point","properties":{"Station_ID":"HPN11_MADIS","Station_Nam":"SAINT BONIFACIUS","Latitude":"44.89792","Longitude":"-93.73460","Snowdepth":"6.000","Units":"in","Rept_Date":"2021-01-17 06"},"coordinates":[787,5861]},{"type":"Point","properties":{"Station_ID":"GLAM4","Station_Nam":"GLADWIN","Latitude":"43.97580","Longitude":"-84.49080","Snowdepth":"6.000","Units":"in","Rept_Date":"2021-01-16 12"},"coordinates":[2864,5303]},{"type":"Point","properties":{"Station_ID":"GAYM4","Station_Nam":"GAYLORD","Latitude":"45.03320","Longitude":"-84.71130","Snowdepth":"6.000","Units":"in","Rept_Date":"2021-01-16 13"},"coordinates":[2814,5943]},{"type":"Point","properties":{"Station_ID":"FARM1","Station_Nam":"FARMINGTON","Latitude":"44.68930","Longitude":"-70.15640","Snowdepth":"6.000","Units":"in","Rept_Date":"2021-01-16 12"},"coordinates":[6084,5735]},{"type":"Point","properties":{"Station_ID":"EZBI2","Station_Nam":"ELIZABETH","Latitude":"42.31620","Longitude":"-90.22690","Snowdepth":"6.000","Units":"in","Rept_Date":"2021-01-16 12"},"coordinates":[1575,4297]},{"type":"Point","properties":{"Station_ID":"DUBI4","Station_Nam":"DUBUQUE #3","Latitude":"42.40870","Longitude":"-90.73250","Snowdepth":"6.000","Units":"in","Rept_Date":"2021-01-16 18"},"coordinates":[1462,4353]},{"type":"Point","properties":{"Station_ID":"DLNW3","Station_Nam":"WALWORTH COUNTYMETROPOLITAN SEWERAGE DISTRICT (DELEVAN)","Latitude":"42.63440","Longitude":"-88.66280","Snowdepth":"6.000","Units":"in","Rept_Date":"2021-01-16 12"},"coordinates":[1927,4490]},{"type":"Point","properties":{"Station_ID":"DLDI4","Station_Nam":"MISSISSIPPI RIVER","Latitude":"42.51670","Longitude":"-90.65000","Snowdepth":"6.000","Units":"in","Rept_Date":"2021-01-16 12"},"coordinates":[1480,4418]},{"type":"Point","properties":{"Station_ID":"DBQ","Station_Nam":"DUBUQUE REGIONAL AIRPORT","Latitude":"42.40310","Longitude":"-90.70920","Snowdepth":"6.000","Units":"in","Rept_Date":"2021-01-17 00"},"coordinates":[1467,4350]},{"type":"Point","properties":{"Station_ID":"CORV1","Station_Nam":"CORINTH","Latitude":"44.00690","Longitude":"-72.31940","Snowdepth":"6.000","Units":"in","Rept_Date":"2021-01-16 12"},"coordinates":[5598,5321]},{"type":"Point","properties":{"Station_ID":"CORM1","Station_Nam":"CORINNA","Latitude":"44.91980","Longitude":"-69.24180","Snowdepth":"6.000","Units":"in","Rept_Date":"2021-01-16 12"},"coordinates":[6289,5875]},{"type":"Point","properties":{"Station_ID":"CHMW3","Station_Nam":"MADISON,WI","Latitude":"43.06030","Longitude":"-89.47810","Snowdepth":"6.000","Units":"in","Rept_Date":"2021-01-16 13"},"coordinates":[1743,4748]},{"type":"Point","properties":{"Station_ID":"CARM1","Station_Nam":"CARIBOU WFO","Latitude":"46.86810","Longitude":"-68.01250","Snowdepth":"6.000","Units":"in","Rept_Date":"2021-01-17 05"},"coordinates":[6566,7055]},{"type":"Point","properties":{"Station_ID":"CAR","Station_Nam":"CARIBOU, ME","Latitude":"46.86830","Longitude":"-68.01360","Snowdepth":"6.000","Units":"in","Rept_Date":"2021-01-16 12"},"coordinates":[6565,7055]},{"type":"Point","properties":{"Station_ID":"CAN-ON-5","Station_Nam":"OWEN SOUND 1.5 NW - GSCA, CAN","Latitude":"44.57837","Longitude":"-80.95461","Snowdepth":"6.000","Units":"in","Rept_Date":"2021-01-16 13"},"coordinates":[3658,5668]},{"type":"Point","properties":{"Station_ID":"CAN-ON-208","Station_Nam":"PAKENHAM 7.8 NNW, CAN","Latitude":"45.39166","Longitude":"-76.34111","Snowdepth":"6.000","Units":"in","Rept_Date":"2021-01-16 12"},"coordinates":[4695,6160]},{"type":"Point","properties":{"Station_ID":"BUTW3","Station_Nam":"BUTTERNUT 3SW","Latitude":"45.98080","Longitude":"-90.54170","Snowdepth":"6.000","Units":"in","Rept_Date":"2021-01-16 12"},"coordinates":[1504,6517]},{"type":"Point","properties":{"Station_ID":"BTV","Station_Nam":"BURLINGTON, VT","Latitude":"44.47140","Longitude":"-73.15330","Snowdepth":"6.000","Units":"in","Rept_Date":"2021-01-17 01"},"coordinates":[5411,5603]},{"type":"Point","properties":{"Station_ID":"BRAM5","Station_Nam":"BRAINERD","Latitude":"46.34320","Longitude":"-94.20900","Snowdepth":"6.000","Units":"in","Rept_Date":"2021-01-16 13"},"coordinates":[681,6737]},{"type":"Point","properties":{"Station_ID":"AWXW3","Station_Nam":"ASHLAND","Latitude":"46.58240","Longitude":"-90.88390","Snowdepth":"6.000","Units":"in","Rept_Date":"2021-01-16 13"},"coordinates":[1428,6882]},{"type":"Point","properties":{"Station_ID":"AVLV1","Station_Nam":"AVERILL","Latitude":"45.00570","Longitude":"-71.69030","Snowdepth":"6.000","Units":"in","Rept_Date":"2021-01-16 13"},"coordinates":[5739,5927]},{"type":"Point","properties":{"Station_ID":"ARX","Station_Nam":"LA CROSSE, WI","Latitude":"43.82280","Longitude":"-91.19190","Snowdepth":"6.000","Units":"in","Rept_Date":"2021-01-17 06"},"coordinates":[1358,5210]},{"type":"Point","properties":{"Station_ID":"ARLW3","Station_Nam":"UNIV FARM","Latitude":"43.30000","Longitude":"-89.35000","Snowdepth":"6.000","Units":"in","Rept_Date":"2021-01-16 14"},"coordinates":[1772,4893]},{"type":"Point","properties":{"Station_ID":"AGNW3","Station_Nam":"ARGONNE-1.5 NW","Latitude":"45.67360","Longitude":"-88.90380","Snowdepth":"6.000","Units":"in","Rept_Date":"2021-01-16 13"},"coordinates":[1872,6331]},{"type":"Point","properties":{"Station_ID":"WI-RK-16","Station_Nam":"JANESVILLE 2.7 ENE, WI","Latitude":"42.69228","Longitude":"-88.96319","Snowdepth":"5.900","Units":"in","Rept_Date":"2021-01-16 14"},"coordinates":[1859,4525]},{"type":"Point","properties":{"Station_ID":"WI-DA-45","Station_Nam":"MADISON 6.1 W, WI","Latitude":"43.06948","Longitude":"-89.50788","Snowdepth":"5.900","Units":"in","Rept_Date":"2021-01-16 13"},"coordinates":[1737,4753]},{"type":"Point","properties":{"Station_ID":"PA-CR-1","Station_Nam":"EMPORIUM 2.6 S, PA","Latitude":"41.47342","Longitude":"-78.24330","Snowdepth":"5.900","Units":"in","Rept_Date":"2021-01-16 13"},"coordinates":[4267,3786]},{"type":"Point","properties":{"Station_ID":"HPN09_MADIS","Station_Nam":"PLYMOUTH","Latitude":"44.98992","Longitude":"-93.47910","Snowdepth":"5.900","Units":"in","Rept_Date":"2021-01-17 06"},"coordinates":[845,5917]},{"type":"Point","properties":{"Station_ID":"CAN-ON-452","Station_Nam":"CHATSWORTH 1.8 ENE - GSCA, CAN","Latitude":"44.46118","Longitude":"-80.87506","Snowdepth":"5.900","Units":"in","Rept_Date":"2021-01-16 12"},"coordinates":[3676,5597]},{"type":"Point","properties":{"Station_ID":"CAN-NS-94","Station_Nam":"MARGAREE FORKS 2.6 SSE CBN, CAN","Latitude":"46.30937","Longitude":"-61.07603","Snowdepth":"5.900","Units":"in","Rept_Date":"2021-01-16 13"},"coordinates":[8124,6716]},{"type":"Point","properties":{"Station_ID":"CAN-NB-105","Station_Nam":"SISSON BROOK 3.8 E, CAN","Latitude":"46.98305","Longitude":"-67.32532","Snowdepth":"5.900","Units":"in","Rept_Date":"2021-01-16 12"},"coordinates":[6720,7125]},{"type":"Point","properties":{"Station_ID":"ME-FR-22","Station_Nam":"FARMINGTON 4.8 NNW, ME","Latitude":"44.73396","Longitude":"-70.18007","Snowdepth":"5.800","Units":"in","Rept_Date":"2021-01-16 14"},"coordinates":[6079,5762]},{"type":"Point","properties":{"Station_ID":"IA-CL-4","Station_Nam":"MURRAY 1.7 W, IA","Latitude":"41.04128","Longitude":"-93.98046","Snowdepth":"5.700","Units":"in","Rept_Date":"2021-01-16 13"},"coordinates":[732,3525]},{"type":"Point","properties":{"Station_ID":"QWG","Station_Nam":"QWG","Latitude":"48.48890","Longitude":"-73.45940","Snowdepth":"5.669","Units":"in","Rept_Date":"2021-01-16 12"},"coordinates":[5342,8037]},{"type":"Point","properties":{"Station_ID":"WI-WW-12","Station_Nam":"ELKHORN 0.4 ESE, WI","Latitude":"42.66970","Longitude":"-88.53170","Snowdepth":"5.600","Units":"in","Rept_Date":"2021-01-16 11"},"coordinates":[1956,4511]},{"type":"Point","properties":{"Station_ID":"IA-CL-3","Station_Nam":"MURRAY 0.5 N, IA","Latitude":"41.04831","Longitude":"-93.94960","Snowdepth":"5.600","Units":"in","Rept_Date":"2021-01-16 13"},"coordinates":[739,3529]},{"type":"Point","properties":{"Station_ID":"CAN-NL-72","Station_Nam":"ST. JOHN'S 3.4 N, CAN","Latitude":"47.59389","Longitude":"-52.72879","Snowdepth":"5.600","Units":"in","Rept_Date":"2021-01-16 12"},"coordinates":[9999,7495]},{"type":"Point","properties":{"Station_ID":"CAN-NB-5","Station_Nam":"OAK POINT 0.9 SSW, CA","Latitude":"45.50752","Longitude":"-66.09860","Snowdepth":"5.600","Units":"in","Rept_Date":"2021-01-16 12"},"coordinates":[6996,6231]},{"type":"Point","properties":{"Station_ID":"QTV","Station_Nam":"QTV","Latitude":"49.66000","Longitude":"-69.35690","Snowdepth":"5.551","Units":"in","Rept_Date":"2021-01-16 12"},"coordinates":[6264,8747]},{"type":"Point","properties":{"Station_ID":"WI-WW-2","Station_Nam":"LAKE GENEVA 0.6 ENE, WI","Latitude":"42.59169","Longitude":"-88.41770","Snowdepth":"5.500","Units":"in","Rept_Date":"2021-01-16 13"},"coordinates":[1982,4464]},{"type":"Point","properties":{"Station_ID":"WI-WS-4","Station_Nam":"KEWASKUM 1.8 WNW, WI","Latitude":"43.52880","Longitude":"-88.26570","Snowdepth":"5.500","Units":"in","Rept_Date":"2021-01-16 13"},"coordinates":[2016,5032]},{"type":"Point","properties":{"Station_ID":"WI-WK-73","Station_Nam":"MENOMONEE FALLS 3.2 NNW, WI","Latitude":"43.18817","Longitude":"-88.15555","Snowdepth":"5.500","Units":"in","Rept_Date":"2021-01-16 13"},"coordinates":[2040,4825]},{"type":"Point","properties":{"Station_ID":"WI-PR-8","Station_Nam":"PHILLIPS 0.4 SSW, WI","Latitude":"45.69086","Longitude":"-90.40200","Snowdepth":"5.500","Units":"in","Rept_Date":"2021-01-16 13"},"coordinates":[1536,6342]},{"type":"Point","properties":{"Station_ID":"WI-ON-8","Station_Nam":"HAZELHURST 2.1 SSE, WI","Latitude":"45.78186","Longitude":"-89.70330","Snowdepth":"5.500","Units":"in","Rept_Date":"2021-01-16 13"},"coordinates":[1693,6397]},{"type":"Point","properties":{"Station_ID":"WI-GL-4","Station_Nam":"GREEN LAKE 0.8 E, WI","Latitude":"43.84369","Longitude":"-88.94066","Snowdepth":"5.500","Units":"in","Rept_Date":"2021-01-16 13"},"coordinates":[1864,5223]},{"type":"Point","properties":{"Station_ID":"WI-DA-46","Station_Nam":"MADISON 6.4 W, WI","Latitude":"43.08337","Longitude":"-89.51503","Snowdepth":"5.500","Units":"in","Rept_Date":"2021-01-16 13"},"coordinates":[1735,4762]},{"type":"Point","properties":{"Station_ID":"WI-DA-39","Station_Nam":"MADISON 4.0 W, WI","Latitude":"43.07741","Longitude":"-89.46757","Snowdepth":"5.500","Units":"in","Rept_Date":"2021-01-16 13"},"coordinates":[1746,4758]},{"type":"Point","properties":{"Station_ID":"WI-DA-33","Station_Nam":"OREGON 0.4 SSW, WI","Latitude":"42.92080","Longitude":"-89.38540","Snowdepth":"5.500","Units":"in","Rept_Date":"2021-01-16 13"},"coordinates":[1764,4663]},{"type":"Point","properties":{"Station_ID":"WI-CB-5","Station_Nam":"PORTAGE 7.2 SW, WI","Latitude":"43.47933","Longitude":"-89.57370","Snowdepth":"5.500","Units":"in","Rept_Date":"2021-01-16 13"},"coordinates":[1722,5002]},{"type":"Point","properties":{"Station_ID":"WI-AS-4","Station_Nam":"ASHLAND 0.5 WNW, WI","Latitude":"46.58240","Longitude":"-90.88390","Snowdepth":"5.500","Units":"in","Rept_Date":"2021-01-16 13"},"coordinates":[1428,6882]},{"type":"Point","properties":{"Station_ID":"NY-WR-10","Station_Nam":"WARRENSBURG 2.1 WNW, NY","Latitude":"43.51784","Longitude":"-73.81069","Snowdepth":"5.500","Units":"in","Rept_Date":"2021-01-16 13"},"coordinates":[5263,5025]},{"type":"Point","properties":{"Station_ID":"NY-CR-5","Station_Nam":"MARATHON 1.0 NW, NY","Latitude":"42.45161","Longitude":"-76.04370","Snowdepth":"5.500","Units":"in","Rept_Date":"2021-01-16 12"},"coordinates":[4761,4379]},{"type":"Point","properties":{"Station_ID":"MI-GT-21","Station_Nam":"KINGSLEY 2.7 ENE, MI","Latitude":"44.59871","Longitude":"-85.48426","Snowdepth":"5.500","Units":"in","Rept_Date":"2021-01-16 13"},"coordinates":[2641,5680]},{"type":"Point","properties":{"Station_ID":"ME-SM-45","Station_Nam":"BRIGHTON PLANTATION 2.1 N, ME","Latitude":"45.07098","Longitude":"-69.69860","Snowdepth":"5.500","Units":"in","Rept_Date":"2021-01-16 12"},"coordinates":[6187,5966]},{"type":"Point","properties":{"Station_ID":"ME-FR-2","Station_Nam":"TEMPLE 1.8 W, ME","Latitude":"44.68329","Longitude":"-70.26420","Snowdepth":"5.500","Units":"in","Rept_Date":"2021-01-16 12"},"coordinates":[6060,5731]},{"type":"Point","properties":{"Station_ID":"MA-FR-17","Station_Nam":"BUCKLAND 1.8 ESE, MA","Latitude":"42.58900","Longitude":"-72.75110","Snowdepth":"5.500","Units":"in","Rept_Date":"2021-01-16 13"},"coordinates":[5501,4462]},{"type":"Point","properties":{"Station_ID":"IA-WH-5","Station_Nam":"DECORAH 4.9SE, IA","Latitude":"43.26481","Longitude":"-91.70294","Snowdepth":"5.500","Units":"in","Rept_Date":"2021-01-16 14"},"coordinates":[1244,4872]},{"type":"Point","properties":{"Station_ID":"IA-JH-14","Station_Nam":"SWISHER 0.4 NNE, IA","Latitude":"41.84830","Longitude":"-91.69210","Snowdepth":"5.500","Units":"in","Rept_Date":"2021-01-16 14"},"coordinates":[1246,4013]},{"type":"Point","properties":{"Station_ID":"IA-CS-7","Station_Nam":"ANITA 0.6 S, IA","Latitude":"41.43552","Longitude":"-94.76717","Snowdepth":"5.500","Units":"in","Rept_Date":"2021-01-16 13"},"coordinates":[555,3763]},{"type":"Point","properties":{"Station_ID":"IA-BT-16","Station_Nam":"SHELLSBURG 2.9 S, IA","Latitude":"42.05091","Longitude":"-91.87008","Snowdepth":"5.500","Units":"in","Rept_Date":"2021-01-16 13"},"coordinates":[1206,4136]},{"type":"Point","properties":{"Station_ID":"CAN-ON-526","Station_Nam":"HILTON BEACH 0.7 SW - MNRF, CAN","Latitude":"46.25357","Longitude":"-83.90014","Snowdepth":"5.500","Units":"in","Rept_Date":"2021-01-16 12"},"coordinates":[2996,6683]},{"type":"Point","properties":{"Station_ID":"CAN-NS-159","Station_Nam":"NORTHPORT 0.1 NE, CAN","Latitude":"45.93299","Longitude":"-63.86711","Snowdepth":"5.500","Units":"in","Rept_Date":"2021-01-16 11"},"coordinates":[7497,6488]},{"type":"Point","properties":{"Station_ID":"CAN-NB-57","Station_Nam":"JOLICURE 2.8 NE, CAN","Latitude":"45.96081","Longitude":"-64.18848","Snowdepth":"5.500","Units":"in","Rept_Date":"2021-01-16 12"},"coordinates":[7425,6505]},{"type":"Point","properties":{"Station_ID":"CAN-NB-1","Station_Nam":"FREDERICTON 4.0 SSE, CA","Latitude":"45.92897","Longitude":"-66.62830","Snowdepth":"5.500","Units":"in","Rept_Date":"2021-01-16 12"},"coordinates":[6877,6486]},{"type":"Point","properties":{"Station_ID":"CAN-MB-298","Station_Nam":"GARDENTON 4.2 W - SRRCD, CAN","Latitude":"49.09480","Longitude":"-96.75446","Snowdepth":"5.500","Units":"in","Rept_Date":"2021-01-16 14"},"coordinates":[109,8404]},{"type":"Point","properties":{"Station_ID":"NY-FL-7","Station_Nam":"BROADALBIN 4.7 ESE, NY","Latitude":"43.03940","Longitude":"-74.10845","Snowdepth":"5.400","Units":"in","Rept_Date":"2021-01-16 14"},"coordinates":[5196,4735]},{"type":"Point","properties":{"Station_ID":"CAN-ON-92","Station_Nam":"DUNROBIN 1.9 W - MVCA, CAN","Latitude":"45.42318","Longitude":"-76.04525","Snowdepth":"5.400","Units":"in","Rept_Date":"2021-01-16 12"},"coordinates":[4761,6180]},{"type":"Point","properties":{"Station_ID":"CAN-PE-20","Station_Nam":"BONSHAW 6.6 NNE, CAN","Latitude":"46.25082","Longitude":"-63.33409","Snowdepth":"5.300","Units":"in","Rept_Date":"2021-01-16 12"},"coordinates":[7617,6681]},{"type":"Point","properties":{"Station_ID":"MI-CF-9","Station_Nam":"GRAYLING 15.8 NE, MI","Latitude":"44.80464","Longitude":"-84.46313","Snowdepth":"5.200","Units":"in","Rept_Date":"2021-01-16 12"},"coordinates":[2870,5805]},{"type":"Point","properties":{"Station_ID":"CAN-NS-3","Station_Nam":"WOLFVILLE 7.1 ESE, CAN","Latitude":"45.07921","Longitude":"-64.27107","Snowdepth":"5.100","Units":"in","Rept_Date":"2021-01-16 11"},"coordinates":[7406,5971]},{"type":"Point","properties":{"Station_ID":"CAN-NB-96","Station_Nam":"SAINT-IGNACE 2.6 NE, CAN","Latitude":"46.71424","Longitude":"-65.05609","Snowdepth":"5.100","Units":"in","Rept_Date":"2021-01-16 11"},"coordinates":[7230,6962]},{"type":"Point","properties":{"Station_ID":"WSTW3","Station_Nam":"WEST BEND -FIRE","Latitude":"43.43138","Longitude":"-88.16111","Snowdepth":"5.000","Units":"in","Rept_Date":"2021-01-16 13"},"coordinates":[2039,4973]},{"type":"Point","properties":{"Station_ID":"WRUM5","Station_Nam":"WARROAD 4W","Latitude":"48.89600","Longitude":"-95.40700","Snowdepth":"5.000","Units":"in","Rept_Date":"2021-01-17 04"},"coordinates":[411,8284]},{"type":"Point","properties":{"Station_ID":"WI-WK-46","Station_Nam":"OCONOMOWOC 2.5 NW, WI","Latitude":"43.12632","Longitude":"-88.53465","Snowdepth":"5.000","Units":"in","Rept_Date":"2021-01-16 13"},"coordinates":[1955,4788]},{"type":"Point","properties":{"Station_ID":"WI-TY-3","Station_Nam":"MEDFORD 0.8 ENE, WI","Latitude":"45.14421","Longitude":"-90.33349","Snowdepth":"5.000","Units":"in","Rept_Date":"2021-01-16 14"},"coordinates":[1551,6010]},{"type":"Point","properties":{"Station_ID":"WI-MN-4","Station_Nam":"WILTON 4.2 E, WI","Latitude":"43.81028","Longitude":"-90.44360","Snowdepth":"5.000","Units":"in","Rept_Date":"2021-01-16 14"},"coordinates":[1526,5202]},{"type":"Point","properties":{"Station_ID":"WI-DA-87","Station_Nam":"DUNKIRK 0.1 NW, WI","Latitude":"42.88356","Longitude":"-89.21056","Snowdepth":"5.000","Units":"in","Rept_Date":"2021-01-16 12"},"coordinates":[1803,4641]},{"type":"Point","properties":{"Station_ID":"WI-DA-60","Station_Nam":"MIDDLETON 0.8 SSW, WI","Latitude":"43.09292","Longitude":"-89.51258","Snowdepth":"5.000","Units":"in","Rept_Date":"2021-01-16 14"},"coordinates":[1736,4768]},{"type":"Point","properties":{"Station_ID":"WI-AS-6","Station_Nam":"ODANAH 1.6 E, WI","Latitude":"46.60462","Longitude":"-90.64920","Snowdepth":"5.000","Units":"in","Rept_Date":"2021-01-16 13"},"coordinates":[1480,6895]},{"type":"Point","properties":{"Station_ID":"WHTW3","Station_Nam":"WHITEWATER,WI","Latitude":"42.85670","Longitude":"-88.72940","Snowdepth":"5.000","Units":"in","Rept_Date":"2021-01-16 13"},"coordinates":[1912,4624]},{"type":"Point","properties":{"Station_ID":"WDSV1","Station_Nam":"WOODSTOCK","Latitude":"43.63030","Longitude":"-72.50720","Snowdepth":"5.000","Units":"in","Rept_Date":"2021-01-16 13"},"coordinates":[5556,5093]},{"type":"Point","properties":{"Station_ID":"VT-OG-14","Station_Nam":"BRADFORD 2.2 NNW, VT","Latitude":"44.02268","Longitude":"-72.14756","Snowdepth":"5.000","Units":"in","Rept_Date":"2021-01-16 14"},"coordinates":[5637,5331]},{"type":"Point","properties":{"Station_ID":"VT-ES-3","Station_Nam":"LUNENBURG 2.3 NNW, VT","Latitude":"44.49324","Longitude":"-71.70446","Snowdepth":"5.000","Units":"in","Rept_Date":"2021-01-16 12"},"coordinates":[5736,5616]},{"type":"Point","properties":{"Station_ID":"VT-CL-18","Station_Nam":"WHEELOCK 1.6 S, VT","Latitude":"44.56491","Longitude":"-72.08830","Snowdepth":"5.000","Units":"in","Rept_Date":"2021-01-16 12"},"coordinates":[5650,5659]},{"type":"Point","properties":{"Station_ID":"VT-BN-7","Station_Nam":"MANCHESTER 2.8 ENE, VT","Latitude":"43.17274","Longitude":"-73.01811","Snowdepth":"5.000","Units":"in","Rept_Date":"2021-01-16 12"},"coordinates":[5441,4816]},{"type":"Point","properties":{"Station_ID":"TRPI4","Station_Nam":"TRIPOLI,IA","Latitude":"42.81310","Longitude":"-92.25830","Snowdepth":"5.000","Units":"in","Rept_Date":"2021-01-16 13"},"coordinates":[1119,4598]},{"type":"Point","properties":{"Station_ID":"TOPN6","Station_Nam":"TUPPER LAKE SUNMOUNT","Latitude":"44.23070","Longitude":"-74.43820","Snowdepth":"5.000","Units":"in","Rept_Date":"2021-01-16 12"},"coordinates":[5122,5457]},{"type":"Point","properties":{"Station_ID":"TOHM5","Station_Nam":"TWO HARBORS WWTP","Latitude":"47.01760","Longitude":"-91.66480","Snowdepth":"5.000","Units":"in","Rept_Date":"2021-01-16 13"},"coordinates":[1252,7146]},{"type":"Point","properties":{"Station_ID":"STIM5","Station_Nam":"STILLWATER 2SW","Latitude":"45.04540","Longitude":"-92.85220","Snowdepth":"5.000","Units":"in","Rept_Date":"2021-01-16 14"},