{"type":"Topology","objects":{"snowdepth_geo":{"type":"GeometryCollection","name":"snowdepth","crs":{"type":"name","properties":{"name":"urn:ogc:def:crs:OGC:1.3:CRS84"}},"geometries":[{"type":"Point","properties":{"Station_ID":"PRKM4","Station_Nam":"MUNISING EAST","Latitude":"46.42580","Longitude":"-86.62000","Snowdepth":"76.500","Units":"in","Rept_Date":"2020-01-22 06"},"coordinates":[2492,6734]},{"type":"Point","properties":{"Station_ID":"OGIQ6","Station_Nam":"OGOKI CAMP","Latitude":"50.76680","Longitude":"-87.85820","Snowdepth":"61.100","Units":"in","Rept_Date":"2020-01-22 06"},"coordinates":[2202,9408]},{"type":"Point","properties":{"Station_ID":"PDLM4","Station_Nam":"PAINESDALE","Latitude":"47.04160","Longitude":"-88.67170","Snowdepth":"49.000","Units":"in","Rept_Date":"2020-01-21 13"},"coordinates":[2011,7113]},{"type":"Point","properties":{"Station_ID":"WLFM5","Station_Nam":"WOLF RIDGE ENVIRON LEARNING CENTER","Latitude":"47.38240","Longitude":"-91.19730","Snowdepth":"45.000","Units":"in","Rept_Date":"2020-01-21 13"},"coordinates":[1418,7323]},{"type":"Point","properties":{"Station_ID":"KSGM4","Station_Nam":"KEARSARGE","Latitude":"47.27520","Longitude":"-88.41700","Snowdepth":"45.000","Units":"in","Rept_Date":"2020-01-21 13"},"coordinates":[2070,7257]},{"type":"Point","properties":{"Station_ID":"HTLN3","Station_Nam":"HERMIT LAKE SNOWPLOT","Latitude":"44.26130","Longitude":"-71.28330","Snowdepth":"42.000","Units":"in","Rept_Date":"2020-01-21 10"},"coordinates":[6092,5401]},{"type":"Point","properties":{"Station_ID":"GMSM4","Station_Nam":"GRAND MARAIS 10S","Latitude":"46.50940","Longitude":"-85.96310","Snowdepth":"41.000","Units":"in","Rept_Date":"2020-01-21 12"},"coordinates":[2646,6785]},{"type":"Point","properties":{"Station_ID":"CAN-NL-81","Station_Nam":"GRAND FALLS-WINDSOR 1.2 S, CAN","Latitude":"48.93123","Longitude":"-55.65333","Snowdepth":"40.900","Units":"in","Rept_Date":"2020-01-21 10"},"coordinates":[9760,8277]},{"type":"Point","properties":{"Station_ID":"MMNV1","Station_Nam":"MT. MANSFIELD","Latitude":"44.52480","Longitude":"-72.81540","Snowdepth":"40.000","Units":"in","Rept_Date":"2020-01-21 21"},"coordinates":[5732,5563]},{"type":"Point","properties":{"Station_ID":"IBLM5","Station_Nam":"ISABELLA 14W","Latitude":"47.59360","Longitude":"-91.65140","Snowdepth":"40.000","Units":"in","Rept_Date":"2020-01-21 15"},"coordinates":[1311,7453]},{"type":"Point","properties":{"Station_ID":"ILIM5","Station_Nam":"ISLAND LAKE","Latitude":"47.02400","Longitude":"-92.07000","Snowdepth":"34.000","Units":"in","Rept_Date":"2020-01-21 15"},"coordinates":[1213,7102]},{"type":"Point","properties":{"Station_ID":"PHEW3","Station_Nam":"PHELPS","Latitude":"46.06630","Longitude":"-89.07520","Snowdepth":"33.000","Units":"in","Rept_Date":"2020-01-21 13"},"coordinates":[1916,6512]},{"type":"Point","properties":{"Station_ID":"MQT","Station_Nam":"MARQUETTE, MI","Latitude":"46.53140","Longitude":"-87.54920","Snowdepth":"33.000","Units":"in","Rept_Date":"2020-01-22 06"},"coordinates":[2274,6799]},{"type":"Point","properties":{"Station_ID":"HVCN3","Station_Nam":"HARVARD CABIN SNOWPLOT","Latitude":"44.26630","Longitude":"-71.27790","Snowdepth":"33.000","Units":"in","Rept_Date":"2020-01-21 10"},"coordinates":[6093,5404]},{"type":"Point","properties":{"Station_ID":"QGO","Station_Nam":"QGO","Latitude":"48.85500","Longitude":"-74.20640","Snowdepth":"32.165","Units":"in","Rept_Date":"2020-01-21 12"},"coordinates":[5405,8230]},{"type":"Point","properties":{"Station_ID":"MI-BG-3","Station_Nam":"L'ANSE 17.8 SE, MI","Latitude":"46.55730","Longitude":"-88.20770","Snowdepth":"32.000","Units":"in","Rept_Date":"2020-01-21 13"},"coordinates":[2119,6815]},{"type":"Point","properties":{"Station_ID":"LVDW3","Station_Nam":"LAC VIEUX DESERT","Latitude":"46.12110","Longitude":"-89.07580","Snowdepth":"32.000","Units":"in","Rept_Date":"2020-01-21 14"},"coordinates":[1916,6546]},{"type":"Point","properties":{"Station_ID":"WI-VL-10","Station_Nam":"LAND O LAKES 4.3 WNW, WI","Latitude":"46.17440","Longitude":"-89.30380","Snowdepth":"31.000","Units":"in","Rept_Date":"2020-01-21 13"},"coordinates":[1862,6579]},{"type":"Point","properties":{"Station_ID":"TOGM5","Station_Nam":"CELINA 2E","Latitude":"47.86630","Longitude":"-93.02660","Snowdepth":"31.000","Units":"in","Rept_Date":"2020-01-21 15"},"coordinates":[989,7621]},{"type":"Point","properties":{"Station_ID":"MAIW3","Station_Nam":"MADELINE ISLAND","Latitude":"46.78330","Longitude":"-90.76670","Snowdepth":"31.000","Units":"in","Rept_Date":"2020-01-21 14"},"coordinates":[1519,6954]},{"type":"Point","properties":{"Station_ID":"CAN-NL-82","Station_Nam":"GANDER 2.7 NW, CAN","Latitude":"48.97737","Longitude":"-54.63396","Snowdepth":"30.700","Units":"in","Rept_Date":"2020-01-21 10"},"coordinates":[9999,8305]},{"type":"Point","properties":{"Station_ID":"QOU","Station_Nam":"QOU","Latitude":"50.79250","Longitude":"-69.67470","Snowdepth":"30.591","Units":"in","Rept_Date":"2020-01-21 12"},"coordinates":[6469,9423]},{"type":"Point","properties":{"Station_ID":"MN-SL-15","Station_Nam":"CHISHOLM 0.4 WSW, MN","Latitude":"47.48557","Longitude":"-92.88690","Snowdepth":"30.000","Units":"in","Rept_Date":"2020-01-21 13"},"coordinates":[1021,7387]},{"type":"Point","properties":{"Station_ID":"MN-CK-6","Station_Nam":"GRAND MARAIS 4.4 W, MN","Latitude":"47.74865","Longitude":"-90.43760","Snowdepth":"30.000","Units":"in","Rept_Date":"2020-01-21 13"},"coordinates":[1596,7549]},{"type":"Point","properties":{"Station_ID":"MI-HG-6","Station_Nam":"CALUMET 5.8 ENE, MI","Latitude":"47.27200","Longitude":"-88.33400","Snowdepth":"30.000","Units":"in","Rept_Date":"2020-01-21 11"},"coordinates":[2090,7255]},{"type":"Point","properties":{"Station_ID":"KABM5","Station_Nam":"KABETOGAMA LAKE VISITOR CTR","Latitude":"48.40880","Longitude":"-93.04840","Snowdepth":"30.000","Units":"in","Rept_Date":"2020-01-21 13"},"coordinates":[983,7955]},{"type":"Point","properties":{"Station_ID":"IWOM4","Station_Nam":"IRONWOOD#2","Latitude":"46.46520","Longitude":"-90.13820","Snowdepth":"30.000","Units":"in","Rept_Date":"2020-01-21 13"},"coordinates":[1666,6758]},{"type":"Point","properties":{"Station_ID":"BABM5","Station_Nam":"BABBITT","Latitude":"47.71210","Longitude":"-91.95330","Snowdepth":"30.000","Units":"in","Rept_Date":"2020-01-21 13"},"coordinates":[1240,7526]},{"type":"Point","properties":{"Station_ID":"MN-IT-23","Station_Nam":"BOVEY 13.4 N, MN","Latitude":"47.48855","Longitude":"-93.43497","Snowdepth":"29.500","Units":"in","Rept_Date":"2020-01-21 13"},"coordinates":[893,7388]},{"type":"Point","properties":{"Station_ID":"MLZ","Station_Nam":"MLZ","Latitude":"50.66170","Longitude":"-68.82360","Snowdepth":"29.331","Units":"in","Rept_Date":"2020-01-21 12"},"coordinates":[6669,9343]},{"type":"Point","properties":{"Station_ID":"WTRW3","Station_Nam":"WINTER","Latitude":"45.79920","Longitude":"-90.99470","Snowdepth":"29.000","Units":"in","Rept_Date":"2020-01-21 15"},"coordinates":[1465,6348]},{"type":"Point","properties":{"Station_ID":"WRSM5","Station_Nam":"WRENSHALL","Latitude":"46.61550","Longitude":"-92.38380","Snowdepth":"29.000","Units":"in","Rept_Date":"2020-01-21 14"},"coordinates":[1139,6851]},{"type":"Point","properties":{"Station_ID":"WRPW3","Station_Nam":"WATER PURIFICATION PLANT","Latitude":"44.38800","Longitude":"-89.80550","Snowdepth":"29.000","Units":"in","Rept_Date":"2020-01-21 12"},"coordinates":[1744,5479]},{"type":"Point","properties":{"Station_ID":"MNSM4","Station_Nam":"MUNISING","Latitude":"46.41210","Longitude":"-86.66250","Snowdepth":"29.000","Units":"in","Rept_Date":"2020-01-21 11"},"coordinates":[2482,6725]},{"type":"Point","properties":{"Station_ID":"MI-GG-4","Station_Nam":"WATERSMEET 5.0 SE, MI","Latitude":"46.20333","Longitude":"-89.13170","Snowdepth":"29.000","Units":"in","Rept_Date":"2020-01-21 14"},"coordinates":[1903,6597]},{"type":"Point","properties":{"Station_ID":"HERM4","Station_Nam":"HERMAN,MI","Latitude":"46.65000","Longitude":"-88.33330","Snowdepth":"29.000","Units":"in","Rept_Date":"2020-01-21 13"},"coordinates":[2090,6872]},{"type":"Point","properties":{"Station_ID":"CLQM5","Station_Nam":"CLOQUET","Latitude":"46.70470","Longitude":"-92.52530","Snowdepth":"29.000","Units":"in","Rept_Date":"2020-01-21 14"},"coordinates":[1106,6906]},{"type":"Point","properties":{"Station_ID":"BBEM4","Station_Nam":"BIG BAY 9SW","Latitude":"46.74620","Longitude":"-87.88160","Snowdepth":"29.000","Units":"in","Rept_Date":"2020-01-21 13"},"coordinates":[2196,6931]},{"type":"Point","properties":{"Station_ID":"QWE","Station_Nam":"QWE","Latitude":"47.84610","Longitude":"-73.80670","Snowdepth":"28.898","Units":"in","Rept_Date":"2020-01-21 12"},"coordinates":[5499,7609]},{"type":"Point","properties":{"Station_ID":"QCU","Station_Nam":"QCU","Latitude":"47.82750","Longitude":"-76.59830","Snowdepth":"28.819","Units":"in","Rept_Date":"2020-01-21 12"},"coordinates":[4844,7597]},{"type":"Point","properties":{"Station_ID":"WTRM4","Station_Nam":"WATERSMEET 12WSW","Latitude":"46.22310","Longitude":"-89.40850","Snowdepth":"28.000","Units":"in","Rept_Date":"2020-01-21 12"},"coordinates":[1838,6609]},{"type":"Point","properties":{"Station_ID":"WI-VL-9","Station_Nam":"LAND O' LAKES 11.7 W, WI","Latitude":"46.19023","Longitude":"-89.45790","Snowdepth":"28.000","Units":"in","Rept_Date":"2020-01-21 13"},"coordinates":[1826,6589]},{"type":"Point","properties":{"Station_ID":"WI-BY-14","Station_Nam":"ASHLAND 9.8 W, WI","Latitude":"46.59742","Longitude":"-91.07856","Snowdepth":"28.000","Units":"in","Rept_Date":"2020-01-21 12"},"coordinates":[1446,6840]},{"type":"Point","properties":{"Station_ID":"STGW3","Station_Nam":"ST GERMAIN","Latitude":"45.91550","Longitude":"-89.48940","Snowdepth":"28.000","Units":"in","Rept_Date":"2020-01-21 12"},"coordinates":[1819,6420]},{"type":"Point","properties":{"Station_ID":"PDGM4","Station_Nam":"PAULDING","Latitude":"46.39760","Longitude":"-89.17940","Snowdepth":"28.000","Units":"in","Rept_Date":"2020-01-21 14"},"coordinates":[1891,6716]},{"type":"Point","properties":{"Station_ID":"MI-MQ-19","Station_Nam":"ISHPEMING 7.2 SW, MI","Latitude":"46.40550","Longitude":"-87.75670","Snowdepth":"28.000","Units":"in","Rept_Date":"2020-01-21 11"},"coordinates":[2225,6721]},{"type":"Point","properties":{"Station_ID":"LNOW3","Station_Nam":"LAND O LAKES","Latitude":"46.19000","Longitude":"-89.45700","Snowdepth":"28.000","Units":"in","Rept_Date":"2020-01-21 13"},"coordinates":[1826,6589]},{"type":"Point","properties":{"Station_ID":"HURW3","Station_Nam":"HURLEY","Latitude":"46.46250","Longitude":"-90.19550","Snowdepth":"28.000","Units":"in","Rept_Date":"2020-01-21 14"},"coordinates":[1653,6756]},{"type":"Point","properties":{"Station_ID":"DLH","Station_Nam":"DULUTH, MN","Latitude":"46.83690","Longitude":"-92.21030","Snowdepth":"28.000","Units":"in","Rept_Date":"2020-01-22 00"},"coordinates":[1180,6987]},{"type":"Point","properties":{"Station_ID":"QGD","Station_Nam":"QGD","Latitude":"51.11140","Longitude":"-67.13940","Snowdepth":"27.992","Units":"in","Rept_Date":"2020-01-21 12"},"coordinates":[7064,9620]},{"type":"Point","properties":{"Station_ID":"WI-IR-3","Station_Nam":"PENCE 0.1 E, WI","Latitude":"46.41555","Longitude":"-90.27013","Snowdepth":"27.000","Units":"in","Rept_Date":"2020-01-21 13"},"coordinates":[1635,6728]},{"type":"Point","properties":{"Station_ID":"SUAW3","Station_Nam":"SUAMICO","Latitude":"44.60190","Longitude":"-88.09780","Snowdepth":"27.000","Units":"in","Rept_Date":"2020-01-21 12"},"coordinates":[2145,5610]},{"type":"Point","properties":{"Station_ID":"STEM4","Station_Nam":"STEUBEN","Latitude":"46.18530","Longitude":"-86.46410","Snowdepth":"27.000","Units":"in","Rept_Date":"2020-01-21 14"},"coordinates":[2529,6586]},{"type":"Point","properties":{"Station_ID":"MN-BM-14","Station_Nam":"SOLWAY 2.1 S, MN","Latitude":"47.49069","Longitude":"-95.12177","Snowdepth":"27.000","Units":"in","Rept_Date":"2020-01-21 14"},"coordinates":[497,7390]},{"type":"Point","properties":{"Station_ID":"ME-AR-18","Station_Nam":"NEW SWEDEN 4.9 NNW, ME","Latitude":"47.01080","Longitude":"-68.14390","Snowdepth":"27.000","Units":"in","Rept_Date":"2020-01-21 11"},"coordinates":[6828,7094]},{"type":"Point","properties":{"Station_ID":"IRMM4","Station_Nam":"WWTP","Latitude":"46.46670","Longitude":"-90.18330","Snowdepth":"27.000","Units":"in","Rept_Date":"2020-01-21 13"},"coordinates":[1656,6759]},{"type":"Point","properties":{"Station_ID":"ELYM5","Station_Nam":"ELY","Latitude":"47.90560","Longitude":"-91.82830","Snowdepth":"27.000","Units":"in","Rept_Date":"2020-01-21 14"},"coordinates":[1270,7645]},{"type":"Point","properties":{"Station_ID":"DLHM5","Station_Nam":"DULUTH NWS","Latitude":"46.83680","Longitude":"-92.21080","Snowdepth":"27.000","Units":"in","Rept_Date":"2020-01-22 06"},"coordinates":[1180,6987]},{"type":"Point","properties":{"Station_ID":"BNDM5","Station_Nam":"ELY 25E","Latitude":"47.97190","Longitude":"-91.44860","Snowdepth":"27.000","Units":"in","Rept_Date":"2020-01-21 13"},"coordinates":[1359,7686]},{"type":"Point","properties":{"Station_ID":"MI-HG-1","Station_Nam":"HOUGHTON 1.6 ESE, MI","Latitude":"47.10774","Longitude":"-88.52940","Snowdepth":"26.500","Units":"in","Rept_Date":"2020-01-21 13"},"coordinates":[2044,7154]},{"type":"Point","properties":{"Station_ID":"PTLQ6","Station_Nam":"PORTAGE LAKE","Latitude":"49.06950","Longitude":"-86.65940","Snowdepth":"26.300","Units":"in","Rept_Date":"2020-01-22 06"},"coordinates":[2483,8362]},{"type":"Point","properties":{"Station_ID":"WI-WB-2","Station_Nam":"STONE LAKE 2.0 NW, WI","Latitude":"45.85960","Longitude":"-91.57710","Snowdepth":"26.000","Units":"in","Rept_Date":"2020-01-21 13"},"coordinates":[1329,6385]},{"type":"Point","properties":{"Station_ID":"MN-CK-18","Station_Nam":"GRAND MARAIS 4.4 WSW, MN","Latitude":"47.74462","Longitude":"-90.43796","Snowdepth":"26.000","Units":"in","Rept_Date":"2020-01-21 13"},"coordinates":[1596,7546]},{"type":"Point","properties":{"Station_ID":"MN-BK-6","Station_Nam":"LAKE PARK 6.0 S, MN","Latitude":"46.79850","Longitude":"-96.12180","Snowdepth":"26.000","Units":"in","Rept_Date":"2020-01-21 13"},"coordinates":[262,6963]},{"type":"Point","properties":{"Station_ID":"HRVM4","Station_Nam":"HARVEY","Latitude":"46.49080","Longitude":"-87.35470","Snowdepth":"26.000","Units":"in","Rept_Date":"2020-01-21 12"},"coordinates":[2320,6774]},{"type":"Point","properties":{"Station_ID":"EVRW3","Station_Nam":"EAGLE RIVER-4 E","Latitude":"45.91890","Longitude":"-89.15280","Snowdepth":"26.000","Units":"in","Rept_Date":"2020-01-21 13"},"coordinates":[1898,6422]},{"type":"Point","properties":{"Station_ID":"CSLM5","Station_Nam":"CASS LAKE,MN","Latitude":"47.38470","Longitude":"-94.61470","Snowdepth":"26.000","Units":"in","Rept_Date":"2020-01-21 14"},"coordinates":[616,7324]},{"type":"Point","properties":{"Station_ID":"MN-IT-1","Station_Nam":"GRAND RAPIDS 2.0 E, MN","Latitude":"47.22266","Longitude":"-93.49600","Snowdepth":"25.500","Units":"in","Rept_Date":"2020-01-21 12"},"coordinates":[878,7225]},{"type":"Point","properties":{"Station_ID":"QLB","Station_Nam":"QLB","Latitude":"50.72360","Longitude":"-75.10000","Snowdepth":"25.433","Units":"in","Rept_Date":"2020-01-21 12"},"coordinates":[5196,9381]},{"type":"Point","properties":{"Station_ID":"SVBQ6","Station_Nam":"SAVANT BASE","Latitude":"50.28730","Longitude":"-90.65670","Snowdepth":"25.000","Units":"in","Rept_Date":"2020-01-22 06"},"coordinates":[1545,9112]},{"type":"Point","properties":{"Station_ID":"NYMM5","Station_Nam":"NEW YORK MILLS","Latitude":"46.50920","Longitude":"-95.37990","Snowdepth":"25.000","Units":"in","Rept_Date":"2020-01-21 13"},"coordinates":[436,6785]},{"type":"Point","properties":{"Station_ID":"LEIM5","Station_Nam":"ORR 3E","Latitude":"48.05810","Longitude":"-92.75220","Snowdepth":"25.000","Units":"in","Rept_Date":"2020-01-21 12"},"coordinates":[1053,7739]},{"type":"Point","properties":{"Station_ID":"KABQ6","Station_Nam":"CAB LAKE","Latitude":"49.59950","Longitude":"-89.17990","Snowdepth":"25.000","Units":"in","Rept_Date":"2020-01-22 06"},"coordinates":[1891,8689]},{"type":"Point","properties":{"Station_ID":"INL","Station_Nam":"FALLS INTERNATIONAL ARPT","Latitude":"48.56640","Longitude":"-93.40310","Snowdepth":"25.000","Units":"in","Rept_Date":"2020-01-22 00"},"coordinates":[900,8052]},{"type":"Point","properties":{"Station_ID":"IFSM5","Station_Nam":"INTERNATIONAL FALLS SNOW","Latitude":"48.57780","Longitude":"-93.39640","Snowdepth":"25.000","Units":"in","Rept_Date":"2020-01-21 12"},"coordinates":[902,8059]},{"type":"Point","properties":{"Station_ID":"GLDM4","Station_Nam":"GLADSTONE NO. 2","Latitude":"45.84330","Longitude":"-87.03910","Snowdepth":"25.000","Units":"in","Rept_Date":"2020-01-21 12"},"coordinates":[2394,6375]},{"type":"Point","properties":{"Station_ID":"EMBM5","Station_Nam":"EMBARASS,MN","Latitude":"47.65810","Longitude":"-92.19580","Snowdepth":"25.000","Units":"in","Rept_Date":"2020-01-21 12"},"coordinates":[1184,7493]},{"type":"Point","properties":{"Station_ID":"WNTM1","Station_Nam":"WINTERVILLE SNOW COURSE","Latitude":"46.93170","Longitude":"-68.52720","Snowdepth":"24.300","Units":"in","Rept_Date":"2020-01-21 14"},"coordinates":[6738,7045]},{"type":"Point","properties":{"Station_ID":"DVLQ6","Station_Nam":"DEVIOUS LAKE","Latitude":"49.19890","Longitude":"-87.76440","Snowdepth":"24.060","Units":"in","Rept_Date":"2020-01-22 06"},"coordinates":[2224,8442]},{"type":"Point","properties":{"Station_ID":"WI-VL-14","Station_Nam":"BOULDER JUNCTION 1.4 NE, WI","Latitude":"46.12840","Longitude":"-89.62470","Snowdepth":"24.000","Units":"in","Rept_Date":"2020-01-21 13"},"coordinates":[1787,6551]},{"type":"Point","properties":{"Station_ID":"WI-BY-2","Station_Nam":"MELLEN 18.6 SW, WI","Latitude":"46.16937","Longitude":"-90.98090","Snowdepth":"24.000","Units":"in","Rept_Date":"2020-01-21 13"},"coordinates":[1469,6576]},{"type":"Point","properties":{"Station_ID":"PRDM4","Station_Nam":"PARADISE","Latitude":"46.60380","Longitude":"-85.03960","Snowdepth":"24.000","Units":"in","Rept_Date":"2020-01-21 11"},"coordinates":[2863,6843]},{"type":"Point","properties":{"Station_ID":"ND-CS-25","Station_Nam":"FARGO 2.1 N, ND","Latitude":"46.90816","Longitude":"-96.77937","Snowdepth":"24.000","Units":"in","Rept_Date":"2020-01-21 14"},"coordinates":[108,7031]},{"type":"Point","properties":{"Station_ID":"MN-IT-7","Station_Nam":"GRAND RAPIDS 6.2 SSW, MN","Latitude":"47.13687","Longitude":"-93.56660","Snowdepth":"24.000","Units":"in","Rept_Date":"2020-01-21 12"},"coordinates":[862,7172]},{"type":"Point","properties":{"Station_ID":"MCLN8","Station_Nam":"MC LEOD,ND","Latitude":"46.40250","Longitude":"-97.23810","Snowdepth":"24.000","Units":"in","Rept_Date":"2020-01-21 15"},"coordinates":[0,6719]},{"type":"Point","properties":{"Station_ID":"CRLM5","Station_Nam":"CROSS LAKE DAM","Latitude":"46.66930","Longitude":"-94.11060","Snowdepth":"24.000","Units":"in","Rept_Date":"2020-01-21 14"},"coordinates":[734,6884]},{"type":"Point","properties":{"Station_ID":"CMKW3","Station_Nam":"CLAM LAKE 4W","Latitude":"46.16940","Longitude":"-90.98080","Snowdepth":"24.000","Units":"in","Rept_Date":"2020-01-21 13"},"coordinates":[1469,6576]},{"type":"Point","properties":{"Station_ID":"CAN-NS-39","Station_Nam":"ST. ANNS 2.8 NW, CA","Latitude":"46.25082","Longitude":"-60.64340","Snowdepth":"24.000","Units":"in","Rept_Date":"2020-01-21 11"},"coordinates":[8589,6626]},{"type":"Point","properties":{"Station_ID":"CAN-NB-105","Station_Nam":"SISSON BROOK 3.8 E, CAN","Latitude":"46.98305","Longitude":"-67.32532","Snowdepth":"24.000","Units":"in","Rept_Date":"2020-01-21 12"},"coordinates":[7020,7077]},{"type":"Point","properties":{"Station_ID":"BFHW3","Station_Nam":"BAYFIELD FISH HATCHERY","Latitude":"46.78670","Longitude":"-90.86420","Snowdepth":"24.000","Units":"in","Rept_Date":"2020-01-21 14"},"coordinates":[1496,6956]},{"type":"Point","properties":{"Station_ID":"MN-SL-108","Station_Nam":"IRON JUNCTION 3.4 NNW, MN","Latitude":"47.46150","Longitude":"-92.63130","Snowdepth":"23.500","Units":"in","Rept_Date":"2020-01-21 13"},"coordinates":[1081,7372]},{"type":"Point","properties":{"Station_ID":"QTV","Station_Nam":"QTV","Latitude":"49.66000","Longitude":"-69.35690","Snowdepth":"23.425","Units":"in","Rept_Date":"2020-01-21 12"},"coordinates":[6544,8726]},{"type":"Point","properties":{"Station_ID":"QYR","Station_Nam":"QYR","Latitude":"48.87220","Longitude":"-75.61470","Snowdepth":"23.228","Units":"in","Rept_Date":"2020-01-21 12"},"coordinates":[5075,8241]},{"type":"Point","properties":{"Station_ID":"QCX","Station_Nam":"QCX","Latitude":"51.32830","Longitude":"-70.08060","Snowdepth":"23.150","Units":"in","Rept_Date":"2020-01-21 12"},"coordinates":[6374,9753]},{"type":"Point","properties":{"Station_ID":"AUDQ6","Station_Nam":"AUDEN","Latitude":"48.52600","Longitude":"-82.57570","Snowdepth":"23.070","Units":"in","Rept_Date":"2020-01-22 06"},"coordinates":[3441,8027]},{"type":"Point","properties":{"Station_ID":"MN-BM-15","Station_Nam":"BEMIDJI 7.8 ENE, MN","Latitude":"47.52043","Longitude":"-94.72121","Snowdepth":"23.000","Units":"in","Rept_Date":"2020-01-21 13"},"coordinates":[591,7408]},{"type":"Point","properties":{"Station_ID":"FEDM5","Station_Nam":"LEECH LAKE DAM","Latitude":"47.24670","Longitude":"-94.22280","Snowdepth":"23.000","Units":"in","Rept_Date":"2020-01-21 14"},"coordinates":[708,7239]},{"type":"Point","properties":{"Station_ID":"EGRW3","Station_Nam":"EAGLE RIVER-SOUTH","Latitude":"45.91360","Longitude":"-89.24360","Snowdepth":"23.000","Units":"in","Rept_Date":"2020-01-21 13"},"coordinates":[1876,6418]},{"type":"Point","properties":{"Station_ID":"CRVW3","Station_Nam":"CRIVITZ HIGH FALLS","Latitude":"45.35750","Longitude":"-88.19190","Snowdepth":"23.000","Units":"in","Rept_Date":"2020-01-21 13"},"coordinates":[2123,6076]},{"type":"Point","properties":{"Station_ID":"COKM5","Station_Nam":"COOK","Latitude":"47.85060","Longitude":"-92.69250","Snowdepth":"23.000","Units":"in","Rept_Date":"2020-01-21 12"},"coordinates":[1067,7611]},{"type":"Point","properties":{"Station_ID":"CLGM5","Station_Nam":"COLLEGEVILLE ST JOHN","Latitude":"45.57940","Longitude":"-94.39200","Snowdepth":"23.000","Units":"in","Rept_Date":"2020-01-22 00"},"coordinates":[668,6213]},{"type":"Point","properties":{"Station_ID":"AROM4","Station_Nam":"ARNOLD,MI","Latitude":"46.06670","Longitude":"-87.48330","Snowdepth":"23.000","Units":"in","Rept_Date":"2020-01-21 13"},"coordinates":[2290,6513]},{"type":"Point","properties":{"Station_ID":"WI-ON-8","Station_Nam":"HAZELHURST 2.1 SSE, WI","Latitude":"45.78186","Longitude":"-89.70330","Snowdepth":"22.500","Units":"in","Rept_Date":"2020-01-21 13"},"coordinates":[1768,6337]},{"type":"Point","properties":{"Station_ID":"WI-BY-1","Station_Nam":"BAYFIELD 8.8 N, WI","Latitude":"46.93855","Longitude":"-90.83490","Snowdepth":"22.500","Units":"in","Rept_Date":"2020-01-21 13"},"coordinates":[1503,7050]},{"type":"Point","properties":{"Station_ID":"TRIQ6","Station_Nam":"TRIO LAKE","Latitude":"49.22880","Longitude":"-87.22920","Snowdepth":"22.090","Units":"in","Rept_Date":"2020-01-22 06"},"coordinates":[2349,8460]},{"type":"Point","properties":{"Station_ID":"QFT","Station_Nam":"QFT","Latitude":"50.83280","Longitude":"-74.40390","Snowdepth":"22.008","Units":"in","Rept_Date":"2020-01-21 12"},"coordinates":[5359,9448]},{"type":"Point","properties":{"Station_ID":"SBNM5","Station_Nam":"SABIN","Latitude":"46.77690","Longitude":"-96.65610","Snowdepth":"22.000","Units":"in","Rept_Date":"2020-01-21 15"},"coordinates":[137,6950]},{"type":"Point","properties":{"Station_ID":"ND-CS-1","Station_Nam":"WEST FARGO 3.8 SSE, ND","Latitude":"46.82750","Longitude":"-96.85280","Snowdepth":"22.000","Units":"in","Rept_Date":"2020-01-21 13"},"coordinates":[91,6981]},{"type":"Point","properties":{"Station_ID":"LNCM1","Station_Nam":"LINCOLN WATER DISTRICT","Latitude":"45.32410","Longitude":"-68.58300","Snowdepth":"22.000","Units":"in","Rept_Date":"2020-01-21 12"},"coordinates":[6725,6055]},{"type":"Point","properties":{"Station_ID":"GGRM4","Station_Nam":"GREEN GARDEN NO.2","Latitude":"46.45330","Longitude":"-87.30380","Snowdepth":"22.000","Units":"in","Rept_Date":"2020-01-21 11"},"coordinates":[2332,6751]},{"type":"Point","properties":{"Station_ID":"FLDM5","Station_Nam":"FLOODWOOD,MN","Latitude":"47.00000","Longitude":"-92.91670","Snowdepth":"22.000","Units":"in","Rept_Date":"2020-01-21 14"},"coordinates":[1014,7088]},{"type":"Point","properties":{"Station_ID":"CLKM4","Station_Nam":"CLARKSBURG","Latitude":"46.49910","Longitude":"-87.84500","Snowdepth":"22.000","Units":"in","Rept_Date":"2020-01-21 12"},"coordinates":[2205,6779]},{"type":"Point","properties":{"Station_ID":"CAN-NB-18","Station_Nam":"MCLEOD HILL 1.1 ENE, CA","Latitude":"46.02725","Longitude":"-66.67460","Snowdepth":"22.000","Units":"in","Rept_Date":"2020-01-21 12"},"coordinates":[7173,6488]},{"type":"Point","properties":{"Station_ID":"AURW3","Station_Nam":"AURORA","Latitude":"45.77000","Longitude":"-88.11810","Snowdepth":"22.000","Units":"in","Rept_Date":"2020-01-21 13"},"coordinates":[2141,6330]},{"type":"Point","properties":{"Station_ID":"ANTW3","Station_Nam":"ANTIGO,WI","Latitude":"45.13330","Longitude":"-89.15000","Snowdepth":"22.000","Units":"in","Rept_Date":"2020-01-21 14"},"coordinates":[1898,5938]},{"type":"Point","properties":{"Station_ID":"AMAM4","Station_Nam":"AMASA 1W","Latitude":"46.23470","Longitude":"-88.45440","Snowdepth":"22.000","Units":"in","Rept_Date":"2020-01-21 14"},"coordinates":[2062,6616]},{"type":"Point","properties":{"Station_ID":"QMD","Station_Nam":"QMD","Latitude":"49.29060","Longitude":"-75.84500","Snowdepth":"21.850","Units":"in","Rept_Date":"2020-01-21 12"},"coordinates":[5021,8498]},{"type":"Point","properties":{"Station_ID":"CAN-NB-11","Station_Nam":"MIRAMICHI 3.3 S, CAN","Latitude":"46.99343","Longitude":"-65.50690","Snowdepth":"21.500","Units":"in","Rept_Date":"2020-01-21 13"},"coordinates":[7447,7083]},{"type":"Point","properties":{"Station_ID":"CA2M1","Station_Nam":"CARIBOU (CARY MED.) SNOW COURSE","Latitude":"46.87920","Longitude":"-68.00030","Snowdepth":"21.300","Units":"in","Rept_Date":"2020-01-21 20"},"coordinates":[6862,7013]},{"type":"Point","properties":{"Station_ID":"PNKM1","Station_Nam":"PINKHAM MILL SNOW CORE","Latitude":"46.71270","Longitude":"-68.45840","Snowdepth":"21.200","Units":"in","Rept_Date":"2020-01-21 16"},"coordinates":[6755,6911]},{"type":"Point","properties":{"Station_ID":"MTCM1","Station_Nam":"MONTICELLO SNOW COURSE","Latitude":"46.33280","Longitude":"-67.84190","Snowdepth":"21.200","Units":"in","Rept_Date":"2020-01-21 20"},"coordinates":[6899,6677]},{"type":"Point","properties":{"Station_ID":"QGA","Station_Nam":"QGA","Latitude":"47.25640","Longitude":"-73.73810","Snowdepth":"21.142","Units":"in","Rept_Date":"2020-01-21 12"},"coordinates":[5515,7245]},{"type":"Point","properties":{"Station_ID":"SOCQ6","Station_Nam":"SOCKET LAKE","Latitude":"50.77870","Longitude":"-91.79300","Snowdepth":"21.060","Units":"in","Rept_Date":"2020-01-22 06"},"coordinates":[1278,9415]},{"type":"Point","properties":{"Station_ID":"MN-CW-22","Station_Nam":"FORT RIPLEY 0.8 N, MN","Latitude":"46.18089","Longitude":"-94.36510","Snowdepth":"21.000","Units":"in","Rept_Date":"2020-01-21 13"},"coordinates":[674,6583]},{"type":"Point","properties":{"Station_ID":"MI-MQ-2","Station_Nam":"MARQUETTE 6.5 SSE, MI","Latitude":"46.46461","Longitude":"-87.34064","Snowdepth":"21.000","Units":"in","Rept_Date":"2020-01-21 13"},"coordinates":[2323,6758]},{"type":"Point","properties":{"Station_ID":"INDM5","Station_Nam":"INDUS,MN","Latitude":"48.61670","Longitude":"-93.90000","Snowdepth":"21.000","Units":"in","Rept_Date":"2020-01-21 14"},"coordinates":[784,8083]},{"type":"Point","properties":{"Station_ID":"COTM5","Station_Nam":"COTTON","Latitude":"47.16870","Longitude":"-92.46290","Snowdepth":"21.000","Units":"in","Rept_Date":"2020-01-21 13"},"coordinates":[1121,7191]},{"type":"Point","properties":{"Station_ID":"BRVM5","Station_Nam":"BROWNS VALLEY,MN","Latitude":"45.61670","Longitude":"-96.83330","Snowdepth":"21.000","Units":"in","Rept_Date":"2020-01-21 11"},"coordinates":[95,6235]},{"type":"Point","properties":{"Station_ID":"BRDM1","Station_Nam":"BRIDGEWATER","Latitude":"46.42870","Longitude":"-67.84370","Snowdepth":"21.000","Units":"in","Rept_Date":"2020-01-21 23"},"coordinates":[6899,6736]},{"type":"Point","properties":{"Station_ID":"BRAM5","Station_Nam":"BRAINERD","Latitude":"46.34320","Longitude":"-94.20900","Snowdepth":"21.000","Units":"in","Rept_Date":"2020-01-21 13"},"coordinates":[711,6683]},{"type":"Point","properties":{"Station_ID":"QMA","Station_Nam":"QMA","Latitude":"50.10330","Longitude":"-70.47190","Snowdepth":"20.748","Units":"in","Rept_Date":"2020-01-21 12"},"coordinates":[6282,8999]},{"type":"Point","properties":{"Station_ID":"CATQ6","Station_Nam":"CAT LAKE","Latitude":"51.72690","Longitude":"-91.82210","Snowdepth":"20.670","Units":"in","Rept_Date":"2020-01-22 06"},"coordinates":[1271,9999]},{"type":"Point","properties":{"Station_ID":"HWRM1","Station_Nam":"HATHAWAY ROAD SNOW CORE","Latitude":"46.80830","Longitude":"-68.49580","Snowdepth":"20.600","Units":"in","Rept_Date":"2020-01-21 15"},"coordinates":[6746,6969]},{"type":"Point","properties":{"Station_ID":"GURM1","Station_Nam":"GUERETTE SNOW COURSE","Latitude":"47.08360","Longitude":"-68.23140","Snowdepth":"20.600","Units":"in","Rept_Date":"2020-01-21 12"},"coordinates":[6808,7139]},{"type":"Point","properties":{"Station_ID":"ALSM1","Station_Nam":"ALLAGASH SNOW COURSE","Latitude":"47.07110","Longitude":"-69.07720","Snowdepth":"20.600","Units":"in","Rept_Date":"2020-01-21 14"},"coordinates":[6609,7131]},{"type":"Point","properties":{"Station_ID":"SQPM1","Station_Nam":"SQUA PAN DAM","Latitude":"46.55610","Longitude":"-68.32550","Snowdepth":"20.400","Units":"in","Rept_Date":"2020-01-21 16"},"coordinates":[6786,6814]},{"type":"Point","properties":{"Station_ID":"SDYM5","Station_Nam":"DAM","Latitude":"46.81670","Longitude":"-93.36670","Snowdepth":"20.000","Units":"in","Rept_Date":"2020-01-21 14"},"coordinates":[909,6975]},{"type":"Point","properties":{"Station_ID":"RLKW3","Station_Nam":"REST LAKE","Latitude":"46.12220","Longitude":"-89.87720","Snowdepth":"20.000","Units":"in","Rept_Date":"2020-01-21 14"},"coordinates":[1728,6547]},{"type":"Point","properties":{"Station_ID":"OTTM5","Station_Nam":"OTTERTAIL,MN","Latitude":"46.41670","Longitude":"-95.56670","Snowdepth":"20.000","Units":"in","Rept_Date":"2020-01-21 13"},"coordinates":[392,6728]},{"type":"Point","properties":{"Station_ID":"MN7M8EBJ","Station_Nam":"LUTSEN 15.7 NNW","Latitude":"47.85324","Longitude":"-89.92908","Snowdepth":"20.000","Units":"in","Rept_Date":"2020-01-21 14"},"coordinates":[1715,7613]},{"type":"Point","properties":{"Station_ID":"MIEM4","Station_Nam":"MICHIGAMME 3WNW","Latitude":"46.54530","Longitude":"-88.18000","Snowdepth":"20.000","Units":"in","Rept_Date":"2020-01-21 13"},"coordinates":[2126,6807]},{"type":"Point","properties":{"Station_ID":"MI-OT-17","Station_Nam":"GAYLORD 4.1 S, MI","Latitude":"44.96388","Longitude":"-84.68467","Snowdepth":"20.000","Units":"in","Rept_Date":"2020-01-21 12"},"coordinates":[2946,5833]},{"type":"Point","properties":{"Station_ID":"GLLM5","Station_Nam":"GULL LAKE DAM","Latitude":"46.41190","Longitude":"-94.35000","Snowdepth":"20.000","Units":"in","Rept_Date":"2020-01-21 14"},"coordinates":[678,6725]},{"type":"Point","properties":{"Station_ID":"GFK","Station_Nam":"GRAND FORKS INTERNATIONAL AIRPORT","Latitude":"47.94920","Longitude":"-97.17610","Snowdepth":"20.000","Units":"in","Rept_Date":"2020-01-22 00"},"coordinates":[15,7672]},{"type":"Point","properties":{"Station_ID":"CEFM4","Station_Nam":"EXPERIMENT FARM #2","Latitude":"46.33330","Longitude":"-86.91670","Snowdepth":"20.000","Units":"in","Rept_Date":"2020-01-21 13"},"coordinates":[2422,6677]},{"type":"Point","properties":{"Station_ID":"CBVM1","Station_Nam":"CARRABASSETT VALLEY","Latitude":"45.08040","Longitude":"-70.30310","Snowdepth":"20.000","Units":"in","Rept_Date":"2020-01-21 12"},"coordinates":[6322,5905]},{"type":"Point","properties":{"Station_ID":"CARM1","Station_Nam":"CARIBOU WFO","Latitude":"46.86810","Longitude":"-68.01250","Snowdepth":"20.000","Units":"in","Rept_Date":"2020-01-22 05"},"coordinates":[6859,7006]},{"type":"Point","properties":{"Station_ID":"OXBM1","Station_Nam":"OXBOW - MCOOP","Latitude":"46.42700","Longitude":"-68.55300","Snowdepth":"19.800","Units":"in","Rept_Date":"2020-01-21 17"},"coordinates":[6732,6735]},{"type":"Point","properties":{"Station_ID":"CAN-QC-47","Station_Nam":"SAINTE-FOY 1.8 ENE, CAN","Latitude":"46.76934","Longitude":"-71.27124","Snowdepth":"19.700","Units":"in","Rept_Date":"2020-01-21 12"},"coordinates":[6094,6945]},{"type":"Point","properties":{"Station_ID":"QLP","Station_Nam":"QLP","Latitude":"48.13920","Longitude":"-72.63830","Snowdepth":"19.646","Units":"in","Rept_Date":"2020-01-21 12"},"coordinates":[5774,7789]},{"type":"Point","properties":{"Station_ID":"VT-OL-1","Station_Nam":"WESTFIELD 0.7 WNW, VT","Latitude":"44.89160","Longitude":"-72.44350","Snowdepth":"19.500","Units":"in","Rept_Date":"2020-01-21 12"},"coordinates":[5819,5789]},{"type":"Point","properties":{"Station_ID":"MI-AT-6","Station_Nam":"MANCELONA 0.5 ESE, MI","Latitude":"44.89981","Longitude":"-85.05100","Snowdepth":"19.500","Units":"in","Rept_Date":"2020-01-21 13"},"coordinates":[2860,5794]},{"type":"Point","properties":{"Station_ID":"QLM","Station_Nam":"QLM","Latitude":"48.92030","Longitude":"-70.25280","Snowdepth":"19.449","Units":"in","Rept_Date":"2020-01-21 12"},"coordinates":[6333,8270]},{"type":"Point","properties":{"Station_ID":"FISM1","Station_Nam":"FORT KENT COOP","Latitude":"47.23850","Longitude":"-68.61240","Snowdepth":"19.400","Units":"in","Rept_Date":"2020-01-21 13"},"coordinates":[6718,7234]},{"type":"Point","properties":{"Station_ID":"QIQ","Station_Nam":"QIQ","Latitude":"49.82390","Longitude":"-68.54310","Snowdepth":"19.134","Units":"in","Rept_Date":"2020-01-21 12"},"coordinates":[6735,8827]},{"type":"Point","properties":{"Station_ID":"WI-OC-1","Station_Nam":"MOUNTAIN 1.1 SW, WI","Latitude":"45.17239","Longitude":"-88.48990","Snowdepth":"19.000","Units":"in","Rept_Date":"2020-01-21 13"},"coordinates":[2053,5962]},{"type":"Point","properties":{"Station_ID":"VANM1","Station_Nam":"VAN BUREN","Latitude":"47.16600","Longitude":"-67.93900","Snowdepth":"19.000","Units":"in","Rept_Date":"2020-01-21 12"},"coordinates":[6876,7190]},{"type":"Point","properties":{"Station_ID":"SUTV1","Station_Nam":"SUTTON","Latitude":"44.61220","Longitude":"-72.04810","Snowdepth":"19.000","Units":"in","Rept_Date":"2020-01-21 13"},"coordinates":[5912,5617]},{"type":"Point","properties":{"Station_ID":"STMM4","Station_Nam":"STAMBAUGH 2SSE","Latitude":"46.05550","Longitude":"-88.62780","Snowdepth":"19.000","Units":"in","Rept_Date":"2020-01-21 13"},"coordinates":[2021,6506]},{"type":"Point","properties":{"Station_ID":"RPDM4","Station_Nam":"RAPID RIVER 4SSE","Latitude":"45.87270","Longitude":"-86.94960","Snowdepth":"19.000","Units":"in","Rept_Date":"2020-01-21 14"},"coordinates":[2415,6393]},{"type":"Point","properties":{"Station_ID":"NH-CS-10","Station_Nam":"RANDOLPH 1.4 NE, NH","Latitude":"44.38824","Longitude":"-71.26950","Snowdepth":"19.000","Units":"in","Rept_Date":"2020-01-21 12"},"coordinates":[6095,5479]},{"type":"Point","properties":{"Station_ID":"MTQM4","Station_Nam":"MANISTIQUE WWTP","Latitude":"45.95120","Longitude":"-86.25130","Snowdepth":"19.000","Units":"in","Rept_Date":"2020-01-21 12"},"coordinates":[2579,6442]},{"type":"Point","properties":{"Station_ID":"MN6JKRHL","Station_Nam":"TOFTE 0.6 SSW","Latitude":"47.56557","Longitude":"-90.84117","Snowdepth":"19.000","Units":"in","Rept_Date":"2020-01-21 13"},"coordinates":[1501,7436]},{"type":"Point","properties":{"Station_ID":"MN-CY-1","Station_Nam":"MOORHEAD 2.0 N, MN","Latitude":"46.88766","Longitude":"-96.74800","Snowdepth":"19.000","Units":"in","Rept_Date":"2020-01-21 13"},"coordinates":[115,7018]},{"type":"Point","properties":{"Station_ID":"LUCW3","Station_Nam":"LUCK","Latitude":"45.57330","Longitude":"-92.48520","Snowdepth":"19.000","Units":"in","Rept_Date":"2020-01-21 22"},"coordinates":[1116,6209]},{"type":"Point","properties":{"Station_ID":"LTMW3","Station_Nam":"LAKE TOMAHAWK 2 SE","Latitude":"45.80750","Longitude":"-89.55830","Snowdepth":"19.000","Units":"in","Rept_Date":"2020-01-21 12"},"coordinates":[1803,6353]},{"type":"Point","properties":{"Station_ID":"KGFK","Station_Nam":"GRAND FORKS INTERNATIONAL","Latitude":"47.95000","Longitude":"-97.18333","Snowdepth":"19.000","Units":"in","Rept_Date":"2020-01-22 06"},"coordinates":[13,7673]},{"type":"Point","properties":{"Station_ID":"JCBM4","Station_Nam":"JACOBSVILLE","Latitude":"47.00830","Longitude":"-88.43180","Snowdepth":"19.000","Units":"in","Rept_Date":"2020-01-21 12"},"coordinates":[2067,7093]},{"type":"Point","properties":{"Station_ID":"FDRN8","Station_Nam":"FARGO 3S","Latitude":"46.82930","Longitude":"-96.79620","Snowdepth":"19.000","Units":"in","Rept_Date":"2020-01-22 01"},"coordinates":[104,6982]},{"type":"Point","properties":{"Station_ID":"FAR","Station_Nam":"HECTOR INTERNATIONAL ARPT","Latitude":"46.91560","Longitude":"-96.81440","Snowdepth":"19.000","Units":"in","Rept_Date":"2020-01-22 00"},"coordinates":[100,7036]},{"type":"Point","properties":{"Station_ID":"KNCM1","Station_Nam":"KNOWLES CORNER - MCOOP","Latitude":"46.20780","Longitude":"-68.31420","Snowdepth":"18.900","Units":"in","Rept_Date":"2020-01-21 18"},"coordinates":[6788,6600]},{"type":"Point","properties":{"Station_ID":"QTM","Station_Nam":"QTM","Latitude":"51.05780","Longitude":"-72.57190","Snowdepth":"18.583","Units":"in","Rept_Date":"2020-01-21 12"},"coordinates":[5789,9587]},{"type":"Point","properties":{"Station_ID":"WI-AS-4","Station_Nam":"ASHLAND 0.5 WNW, WI","Latitude":"46.58240","Longitude":"-90.88390","Snowdepth":"18.500","Units":"in","Rept_Date":"2020-01-21 13"},"coordinates":[1491,6830]},{"type":"Point","properties":{"Station_ID":"VT-CL-40","Station_Nam":"LYNDONVILLE 4.2 NNW, VT","Latitude":"44.59440","Longitude":"-72.02389","Snowdepth":"18.500","Units":"in","Rept_Date":"2020-01-21 12"},"coordinates":[5918,5606]},{"type":"Point","properties":{"Station_ID":"MN-CW-29","Station_Nam":"BRAINERD 7.7 SSE, MN","Latitude":"46.24996","Longitude":"-94.14576","Snowdepth":"18.500","Units":"in","Rept_Date":"2020-01-21 13"},"coordinates":[726,6626]},{"type":"Point","properties":{"Station_ID":"MN-AT-5","Station_Nam":"TAMARACK 1.4 SW, MN","Latitude":"46.63760","Longitude":"-93.14554","Snowdepth":"18.500","Units":"in","Rept_Date":"2020-01-21 13"},"coordinates":[961,6864]},{"type":"Point","properties":{"Station_ID":"ME-PN-45","Station_Nam":"MILLINOCKET 2.7 ESE, ME","Latitude":"45.65002","Longitude":"-68.64472","Snowdepth":"18.500","Units":"in","Rept_Date":"2020-01-21 12"},"coordinates":[6711,6256]},{"type":"Point","properties":{"Station_ID":"QCO","Station_Nam":"QCO","Latitude":"51.45280","Longitude":"-72.20110","Snowdepth":"18.307","Units":"in","Rept_Date":"2020-01-21 12"},"coordinates":[5876,9830]},{"type":"Point","properties":{"Station_ID":"WTNM4","Station_Nam":"WATTON 2WSW","Latitude":"46.52660","Longitude":"-88.64240","Snowdepth":"18.000","Units":"in","Rept_Date":"2020-01-21 13"},"coordinates":[2017,6796]},{"type":"Point","properties":{"Station_ID":"WI-PR-8","Station_Nam":"PHILLIPS 0.4 SSW, WI","Latitude":"45.69086","Longitude":"-90.40200","Snowdepth":"18.000","Units":"in","Rept_Date":"2020-01-21 13"},"coordinates":[1605,6281]},{"type":"Point","properties":{"Station_ID":"WI-ON-6","Station_Nam":"RHINELANDER 5.2 N, WI","Latitude":"45.71388","Longitude":"-89.42150","Snowdepth":"18.000","Units":"in","Rept_Date":"2020-01-21 14"},"coordinates":[1835,6295]},{"type":"Point","properties":{"Station_ID":"MN-PK-15","Station_Nam":"MENTOR 2.5 SSW, MN","Latitude":"47.66625","Longitude":"-96.17328","Snowdepth":"18.000","Units":"in","Rept_Date":"2020-01-21 13"},"coordinates":[250,7498]},{"type":"Point","properties":{"Station_ID":"MI-DL-1","Station_Nam":"GARDEN CORNERS 0.8 NW, MI","Latitude":"45.89815","Longitude":"-86.54850","Snowdepth":"18.000","Units":"in","Rept_Date":"2020-01-21 13"},"coordinates":[2509,6409]},{"type":"Point","properties":{"Station_ID":"GRFN8","Station_Nam":"UNIVERSITY","Latitude":"47.93330","Longitude":"-97.08330","Snowdepth":"18.000","Units":"in","Rept_Date":"2020-01-22 06"},"coordinates":[36,7662]},{"type":"Point","properties":{"Station_ID":"GDCM4","Station_Nam":"GARDEN CORNERS","Latitude":"45.89830","Longitude":"-86.54850","Snowdepth":"18.000","Units":"in","Rept_Date":"2020-01-21 13"},"coordinates":[2509,6409]},{"type":"Point","properties":{"Station_ID":"EAHV1","Station_Nam":"EAST HAVEN","Latitude":"44.64250","Longitude":"-71.89120","Snowdepth":"18.000","Units":"in","Rept_Date":"2020-01-21 12"},"coordinates":[5949,5635]},{"type":"Point","properties":{"Station_ID":"CORV1","Station_Nam":"CORINTH","Latitude":"44.00690","Longitude":"-72.31940","Snowdepth":"18.000","Units":"in","Rept_Date":"2020-01-21 12"},"coordinates":[5848,5244]},{"type":"Point","properties":{"Station_ID":"AWXW3","Station_Nam":"ASHLAND","Latitude":"46.58240","Longitude":"-90.88390","Snowdepth":"18.000","Units":"in","Rept_Date":"2020-01-21 13"},"coordinates":[1491,6830]},{"type":"Point","properties":{"Station_ID":"ASTW3","Station_Nam":"ATHELSTANE","Latitude":"45.42500","Longitude":"-88.05750","Snowdepth":"18.000","Units":"in","Rept_Date":"2020-01-21 12"},"coordinates":[2155,6117]},{"type":"Point","properties":{"Station_ID":"AGNW3","Station_Nam":"ARGONNE-1.5 NW","Latitude":"45.67360","Longitude":"-88.90380","Snowdepth":"18.000","Units":"in","Rept_Date":"2020-01-21 13"},"coordinates":[1956,6271]},{"type":"Point","properties":{"Station_ID":"CAN-NS-163","Station_Nam":"SYDNEY MINES 2.2 WNW, CAN","Latitude":"46.24851","Longitude":"-60.25161","Snowdepth":"17.700","Units":"in","Rept_Date":"2020-01-21 12"},"coordinates":[8681,6625]},{"type":"Point","properties":{"Station_ID":"CAN-NB-89","Station_Nam":"MEMRAMCOOK 4.0 W, CAN","Latitude":"46.01133","Longitude":"-64.60244","Snowdepth":"17.700","Units":"in","Rept_Date":"2020-01-21 12"},"coordinates":[7659,6479]},{"type":"Point","properties":{"Station_ID":"QLI","Station_Nam":"QLI","Latitude":"50.27080","Longitude":"-73.92280","Snowdepth":"17.677","Units":"in","Rept_Date":"2020-01-21 12"},"coordinates":[5472,9102]},{"type":"Point","properties":{"Station_ID":"MN-BK-10","Station_Nam":"DETROIT LAKES 5.7 N, MN","Latitude":"46.88666","Longitude":"-95.84444","Snowdepth":"17.500","Units":"in","Rept_Date":"2020-01-21 14"},"coordinates":[327,7018]},{"type":"Point","properties":{"Station_ID":"MFU","Station_Nam":"MFU","Latitude":"51.52170","Longitude":"-66.91110","Snowdepth":"17.323","Units":"in","Rept_Date":"2020-01-21 12"},"coordinates":[7118,9873]},{"type":"Point","properties":{"Station_ID":"DYRM1","Station_Nam":"DYER BROOK SNOWCOR","Latitude":"46.04820","Longitude":"-68.22600","Snowdepth":"17.200","Units":"in","Rept_Date":"2020-01-21 19"},"coordinates":[6809,6501]},{"type":"Point","properties":{"Station_ID":"WI-SR-5","Station_Nam":"HAYWARD 9.7 NE, WI","Latitude":"46.12030","Longitude":"-91.35370","Snowdepth":"17.000","Units":"in","Rept_Date":"2020-01-21 14"},"coordinates":[1381,6546]},{"type":"Point","properties":{"Station_ID":"WI-PR-6","Station_Nam":"PHILLIPS 1.3 S, WI","Latitude":"45.67677","Longitude":"-90.39543","Snowdepth":"17.000","Units":"in","Rept_Date":"2020-01-21 12"},"coordinates":[1606,6272]},{"type":"Point","properties":{"Station_ID":"WI-PR-2","Station_Nam":"BUTTERNUT 5.9 SW, WI","Latitude":"45.96501","Longitude":"-90.59750","Snowdepth":"17.000","Units":"in","Rept_Date":"2020-01-21 12"},"coordinates":[1559,6450]},{"type":"Point","properties":{"Station_ID":"WAAM5","Station_Nam":"WARREN WSD","Latitude":"48.19530","Longitude":"-96.77590","Snowdepth":"17.000","Units":"in","Rept_Date":"2020-01-21 14"},"coordinates":[109,7824]},{"type":"Point","properties":{"Station_ID":"SULW3","Station_Nam":"SUMMIT LAKE","Latitude":"45.37880","Longitude":"-89.19410","Snowdepth":"17.000","Units":"in","Rept_Date":"2020-01-21 17"},"coordinates":[1888,6089]},{"type":"Point","properties":{"Station_ID":"SPOW3","Station_Nam":"SPOONER,WI","Latitude":"45.82360","Longitude":"-91.70000","Snowdepth":"17.000","Units":"in","Rept_Date":"2020-01-21 14"},"coordinates":[1300,6363]},{"type":"Point","properties":{"Station_ID":"RHLW3","Station_Nam":"RHINELANDER 4NE","Latitude":"45.65270","Longitude":"-89.30740","Snowdepth":"17.000","Units":"in","Rept_Date":"2020-01-21 12"},"coordinates":[1861,6258]},{"type":"Point","properties":{"Station_ID":"RARM4","Station_Nam":"RAPID RIVER 1 SW","Latitude":"45.91500","Longitude":"-86.98800","Snowdepth":"17.000","Units":"in","Rept_Date":"2020-01-21 12"},"coordinates":[2406,6419]},{"type":"Point","properties":{"Station_ID":"PKFW3","Station_Nam":"PARK FALLS,WI","Latitude":"45.93360","Longitude":"-90.45060","Snowdepth":"17.000","Units":"in","Rept_Date":"2020-01-21 14"},"coordinates":[1593,6431]},{"type":"Point","properties":{"Station_ID":"NUMN3","Station_Nam":"NORTHUMBERLAND","Latitude":"44.52830","Longitude":"-71.50440","Snowdepth":"17.000","Units":"in","Rept_Date":"2020-01-21 13"},"coordinates":[6040,5565]},{"type":"Point","properties":{"Station_ID":"ME-CM-125","Station_Nam":"CUMBERLAND CENTER 4.4 NW, ME","Latitude":"43.84640","Longitude":"-70.31340","Snowdepth":"17.000","Units":"in","Rept_Date":"2020-01-21 12"},"coordinates":[6319,5145]},{"type":"Point","properties":{"Station_ID":"KINM1","Station_Nam":"KINGFIELD","Latitude":"44.95950","Longitude":"-70.17530","Snowdepth":"17.000","Units":"in","Rept_Date":"2020-01-21 12"},"coordinates":[6352,5831]},{"type":"Point","properties":{"Station_ID":"JMPW3","Station_Nam":"JUMP RIVER 1 NW","Latitude":"45.35610","Longitude":"-90.80250","Snowdepth":"17.000","Units":"in","Rept_Date":"2020-01-21 13"},"coordinates":[1511,6075]},{"type":"Point","properties":{"Station_ID":"HOLW3","Station_Nam":"HOLCOMBE","Latitude":"45.22370","Longitude":"-91.12700","Snowdepth":"17.000","Units":"in","Rept_Date":"2020-01-21 13"},"coordinates":[1434,5993]},{"type":"Point","properties":{"Station_ID":"FLAM4","Station_Nam":"FIFE LAKE 2WNW","Latitude":"44.58480","Longitude":"-85.36530","Snowdepth":"17.000","Units":"in","Rept_Date":"2020-01-21 12"},"coordinates":[2787,5600]},{"type":"Point","properties":{"Station_ID":"DFXM1","Station_Nam":"DOVER-FOXCROFT","Latitude":"45.18720","Longitude":"-69.18350","Snowdepth":"17.000","Units":"in","Rept_Date":"2020-01-21 12"},"coordinates":[6584,5971]},{"type":"Point","properties":{"Station_ID":"CAN-NB-2","Station_Nam":"GRAFTON 2.7 NNE, CA","Latitude":"46.17062","Longitude":"-67.55330","Snowdepth":"17.000","Units":"in","Rept_Date":"2020-01-21 10"},"coordinates":[6967,6577]},{"type":"Point","properties":{"Station_ID":"ALXM5","Station_Nam":"ALEXANDRIA","Latitude":"45.87820","Longitude":"-95.38270","Snowdepth":"17.000","Units":"in","Rept_Date":"2020-01-21 12"},"coordinates":[436,6397]},{"type":"Point","properties":{"Station_ID":"CAN-PE-19","Station_Nam":"CHARLOTTETOWN 6.5 NNW, CAN","Latitude":"46.29235","Longitude":"-63.17271","Snowdepth":"16.900","Units":"in","Rept_Date":"2020-01-21 12"},"coordinates":[7995,6652]},{"type":"Point","properties":{"Station_ID":"MI-CX-7","Station_Nam":"EAST JORDAN 2.1 NNW, MI","Latitude":"45.18639","Longitude":"-85.14750","Snowdepth":"16.500","Units":"in","Rept_Date":"2020-01-21 13"},"coordinates":[2838,5970]},{"type":"Point","properties":{"Station_ID":"MRL","Station_Nam":"MRL","Latitude":"51.28330","Longitude":"-68.84060","Snowdepth":"16.142","Units":"in","Rept_Date":"2020-01-21 12"},"coordinates":[6665,9726]},{"type":"Point","properties":{"Station_ID":"ZNOM4","Station_Nam":"NORWAY","Latitude":"45.77810","Longitude":"-87.89560","Snowdepth":"16.000","Units":"in","Rept_Date":"2020-01-22 01"},"coordinates":[2193,6335]},{"type":"Point","properties":{"Station_ID":"WRTS2","Station_Nam":"WATERTOWN,SD","Latitude":"44.90280","Longitude":"-97.11360","Snowdepth":"16.000","Units":"in","Rept_Date":"2020-01-21 15"},"coordinates":[29,5796]},{"type":"Point","properties":{"Station_ID":"WI-DN-1","Station_Nam":"BOYCEVILLE 3.3 N, WI","Latitude":"45.08913","Longitude":"-92.02760","Snowdepth":"16.000","Units":"in","Rept_Date":"2020-01-21 13"},"coordinates":[1223,5911]},{"type":"Point","properties":{"Station_ID":"TETM5","Station_Nam":"TETTEGOUCHE STATE PARK","Latitude":"47.33900","Longitude":"-91.19590","Snowdepth":"16.000","Units":"in","Rept_Date":"2020-01-21 14"},"coordinates":[1418,7296]},{"type":"Point","properties":{"Station_ID":"SIBI4","Station_Nam":"SIBLEY","Latitude":"43.40470","Longitude":"-95.74830","Snowdepth":"16.000","Units":"in","Rept_Date":"2020-01-21 13"},"coordinates":[350,4873]},{"type":"Point","properties":{"Station_ID":"SD-RB-4","Station_Nam":"SISSETON 10.4 ENE, SD","Latitude":"45.69480","Longitude":"-96.83480","Snowdepth":"16.000","Units":"in","Rept_Date":"2020-01-21 13"},"coordinates":[95,6284]},{"type":"Point","properties":{"Station_ID":"RRVM4","Station_Nam":"RAPID RIVER 9S","Latitude":"45.78750","Longitude":"-86.93920","Snowdepth":"16.000","Units":"in","Rept_Date":"2020-01-21 13"},"coordinates":[2417,6341]},{"type":"Point","properties":{"Station_ID":"RHI","Station_Nam":"RHINELANDER-ONEIDA COUNTY AIRPORT","Latitude":"45.63080","Longitude":"-89.46530","Snowdepth":"16.000","Units":"in","Rept_Date":"2020-01-21 12"},"coordinates":[1824,6244]},{"type":"Point","properties":{"Station_ID":"RCEM5","Station_Nam":"RICE","Latitude":"45.75760","Longitude":"-94.20720","Snowdepth":"16.000","Units":"in","Rept_Date":"2020-01-21 13"},"coordinates":[711,6322]},{"type":"Point","properties":{"Station_ID":"PRNW3","Station_Nam":"PRENTICE,WI","Latitude":"45.54780","Longitude":"-90.30000","Snowdepth":"16.000","Units":"in","Rept_Date":"2020-01-21 14"},"coordinates":[1628,6193]},{"type":"Point","properties":{"Station_ID":"ONMM5","Station_Nam":"ONAMIA RANGER STATION","Latitude":"46.06770","Longitude":"-93.66660","Snowdepth":"16.000","Units":"in","Rept_Date":"2020-01-21 14"},"coordinates":[838,6513]},{"type":"Point","properties":{"Station_ID":"MQRW3","Station_Nam":"MINOCQUA","Latitude":"45.88630","Longitude":"-89.73220","Snowdepth":"16.000","Units":"in","Rept_Date":"2020-01-21 12"},"coordinates":[1762,6402]},{"type":"Point","properties":{"Station_ID":"MN-MR-4","Station_Nam":"LITTLE FALLS 1.2 SW, MN","Latitude":"45.96886","Longitude":"-94.37720","Snowdepth":"16.000","Units":"in","Rept_Date":"2020-01-21 13"},"coordinates":[672,6452]},{"type":"Point","properties":{"Station_ID":"MLLW3","Station_Nam":"MERRILL 8W","Latitude":"45.17810","Longitude":"-89.84810","Snowdepth":"16.000","Units":"in","Rept_Date":"2020-01-21 12"},"coordinates":[1735,5965]},{"type":"Point","properties":{"Station_ID":"MLCM5","Station_Nam":"MILACA","Latitude":"45.75320","Longitude":"-93.66170","Snowdepth":"16.000","Units":"in","Rept_Date":"2020-01-21 13"},"coordinates":[839,6320]},{"type":"Point","properties":{"Station_ID":"MLBS2","Station_Nam":"MILBANK","Latitude":"45.22040","Longitude":"-96.62530","Snowdepth":"16.000","Units":"in","Rept_Date":"2020-01-21 13"},"coordinates":[144,5991]},{"type":"Point","properties":{"Station_ID":"ME-CM-98","Station_Nam":"SEBAGO 2.4 ESE, ME","Latitude":"43.88000","Longitude":"-70.63000","Snowdepth":"16.000","Units":"in","Rept_Date":"2020-01-21 14"},"coordinates":[6245,5166]},{"type":"Point","properties":{"Station_ID":"ME-CM-86","Station_Nam":"POWNAL 4.1 S, ME","Latitude":"43.85370","Longitude":"-70.17210","Snowdepth":"16.000","Units":"in","Rept_Date":"2020-01-21 12"},"coordinates":[6352,5150]},{"type":"Point","properties":{"Station_ID":"LNGM5","Station_Nam":"LONG PRAIRIE","Latitude":"45.96460","Longitude":"-94.88920","Snowdepth":"16.000","Units":"in","Rept_Date":"2020-01-21 12"},"coordinates":[551,6450]},{"type":"Point","properties":{"Station_ID":"LILM1","Station_Nam":"LILLE","Latitude":"47.27770","Longitude":"-68.10520","Snowdepth":"16.000","Units":"in","Rept_Date":"2020-01-21 12"},"coordinates":[6837,7259]},{"type":"Point","properties":{"Station_ID":"LGRN8","Station_Nam":"LIDGERWOOD,ND","Latitude":"46.06670","Longitude":"-97.16670","Snowdepth":"16.000","Units":"in","Rept_Date":"2020-01-21 13"},"coordinates":[17,6513]},{"type":"Point","properties":{"Station_ID":"KSEM4","Station_Nam":"KALKASKA 11SE","Latitude":"44.58970","Longitude":"-85.04860","Snowdepth":"16.000","Units":"in","Rept_Date":"2020-01-21 13"},"coordinates":[2861,5603]},{"type":"Point","properties":{"Station_ID":"ISEM5","Station_Nam":"ISLE 12N","Latitude":"46.31970","Longitude":"-93.50140","Snowdepth":"16.000","Units":"in","Rept_Date":"2020-01-21 14"},"coordinates":[877,6668]},{"type":"Point","properties":{"Station_ID":"HUBN3","Station_Nam":"HUBBARD BROOK","Latitude":"43.93330","Longitude":"-71.71670","Snowdepth":"16.000","Units":"in","Rept_Date":"2020-01-21 16"},"coordinates":[5990,5199]},{"type":"Point","properties":{"Station_ID":"HOLM1","Station_Nam":"HOLLIS","Latitude":"43.64750","Longitude":"-70.67490","Snowdepth":"16.000","Units":"in","Rept_Date":"2020-01-21 12"},"coordinates":[6234,5023]},{"type":"Point","properties":{"Station_ID":"GLWM5","Station_Nam":"GLENWOOD 1N","Latitude":"45.66580","Longitude":"-95.38690","Snowdepth":"16.000","Units":"in","Rept_Date":"2020-01-21 13"},"coordinates":[435,6266]},{"type":"Point","properties":{"Station_ID":"ESAM4","Station_Nam":"ESCANABA","Latitude":"45.74380","Longitude":"-87.04060","Snowdepth":"16.000","Units":"in","Rept_Date":"2020-01-21 12"},"coordinates":[2393,6314]},{"type":"Point","properties":{"Station_ID":"EJNM4","Station_Nam":"EAST JORDAN 2NW","Latitude":"45.18630","Longitude":"-85.14770","Snowdepth":"16.000","Units":"in","Rept_Date":"2020-01-21 13"},"coordinates":[2838,5970]},{"type":"Point","properties":{"Station_ID":"CAN-NB-13","Station_Nam":"BATHURST 3.8 NW, CAN","Latitude":"47.64212","Longitude":"-65.68756","Snowdepth":"16.000","Units":"in","Rept_Date":"2020-01-21 11"},"coordinates":[7405,7483]},{"type":"Point","properties":{"Station_ID":"BROS2","Station_Nam":"BROOKINGS,SD","Latitude":"44.31670","Longitude":"-96.76670","Snowdepth":"16.000","Units":"in","Rept_Date":"2020-01-21 14"},"coordinates":[111,5435]},{"type":"Point","properties":{"Station_ID":"AVLV1","Station_Nam":"AVERILL","Latitude":"45.00570","Longitude":"-71.69030","Snowdepth":"16.000","Units":"in","Rept_Date":"2020-01-21 13"},"coordinates":[5996,5859]},{"type":"Point","properties":{"Station_ID":"ABGW3","Station_Nam":"AMBERG 9 E","Latitude":"45.48250","Longitude":"-87.81190","Snowdepth":"16.000","Units":"in","Rept_Date":"2020-01-21 12"},"coordinates":[2212,6153]},{"type":"Point","properties":{"Station_ID":"WI-LN-2","Station_Nam":"MERRILL 7.0 W, WI","Latitude":"45.17746","Longitude":"-89.84820","Snowdepth":"15.500","Units":"in","Rept_Date":"2020-01-21 12"},"coordinates":[1734,5965]},{"type":"Point","properties":{"Station_ID":"VT-OL-9","Station_Nam":"GREENSBORO 2.1 NNW, VT","Latitude":"44.60528","Longitude":"-72.30940","Snowdepth":"15.500","Units":"in","Rept_Date":"2020-01-21 12"},"coordinates":[5851,5612]},{"type":"Point","properties":{"Station_ID":"CAN-NB-64","Station_Nam":"KESWICK RIDGE 4.0 SE, CAN","Latitude":"45.97014","Longitude":"-66.85538","Snowdepth":"15.400","Units":"in","Rept_Date":"2020-01-21 12"},"coordinates":[7131,6453]},{"type":"Point","properties":{"Station_ID":"QWG","Station_Nam":"QWG","Latitude":"48.48890","Longitude":"-73.45940","Snowdepth":"15.394","Units":"in","Rept_Date":"2020-01-21 12"},"coordinates":[5581,8005]},{"type":"Point","properties":{"Station_ID":"WLKW3","Station_Nam":"WHITE LAKE 1 SE","Latitude":"45.14520","Longitude":"-88.74160","Snowdepth":"15.000","Units":"in","Rept_Date":"2020-01-21 14"},"coordinates":[1994,5945]},{"type":"Point","properties":{"Station_ID":"WI-CH-3","Station_Nam":"CORNELL 4.1 W, WI","Latitude":"45.17024","Longitude":"-91.23610","Snowdepth":"15.000","Units":"in","Rept_Date":"2020-01-21 14"},"coordinates":[1409,5960]},{"type":"Point","properties":{"Station_ID":"VT-WS-7","Station_Nam":"MIDDLESEX 3.1 ENE, VT","Latitude":"44.31799","Longitude":"-72.62650","Snowdepth":"15.000","Units":"in","Rept_Date":"2020-01-21 13"},"coordinates":[5776,5436]},{"type":"Point","properties":{"Station_ID":"VT-OG-11","Station_Nam":"VERSHIRE 1.5 ESE, VT","Latitude":"43.96138","Longitude":"-72.29777","Snowdepth":"15.000","Units":"in","Rept_Date":"2020-01-21 13"},"coordinates":[5853,5216]},{"type":"Point","properties":{"Station_ID":"VT-CL-18","Station_Nam":"WHEELOCK 1.6 S, VT","Latitude":"44.56491","Longitude":"-72.08830","Snowdepth":"15.000","Units":"in","Rept_Date":"2020-01-21 12"},"coordinates":[5903,5588]},{"type":"Point","properties":{"Station_ID":"SSMM4","Station_Nam":"SAULT STE MARIE","Latitude":"46.48660","Longitude":"-84.40250","Snowdepth":"15.000","Units":"in","Rept_Date":"2020-01-21 13"},"coordinates":[3013,6771]},{"type":"Point","properties":{"Station_ID":"SIWS2","Station_Nam":"SISSETON 3W","Latitude":"45.65870","Longitude":"-97.12450","Snowdepth":"15.000","Units":"in","Rept_Date":"2020-01-21 13"},"coordinates":[27,6261]},{"type":"Point","properties":{"Station_ID":"SD-RB-1","Station_Nam":"SISSETON 3.8 W, SD","Latitude":"45.65865","Longitude":"-97.12370","Snowdepth":"15.000","Units":"in","Rept_Date":"2020-01-21 13"},"coordinates":[27,6261]},{"type":"Point","properties":{"Station_ID":"SAUW3","Station_Nam":"WAUSAU WSAW TV","Latitude":"44.94630","Longitude":"-89.62220","Snowdepth":"15.000","Units":"in","Rept_Date":"2020-01-22 03"},"coordinates":[1788,5823]},{"type":"Point","properties":{"Station_ID":"RHRW3","Station_Nam":"RHINELANDER WJFW TV-12","Latitude":"45.62220","Longitude":"-89.41000","Snowdepth":"15.000","Units":"in","Rept_Date":"2020-01-22 04"},"coordinates":[1837,6239]},{"type":"Point","properties":{"Station_ID":"MRAM4","Station_Nam":"MORAN","Latitude":"45.99030","Longitude":"-84.83610","Snowdepth":"15.000","Units":"in","Rept_Date":"2020-01-21 13"},"coordinates":[2911,6466]},{"type":"Point","properties":{"Station_ID":"MN76ACVS","Station_Nam":"GRAND MARAIS 3.0 WNW","Latitude":"47.76602","Longitude":"-90.26427","Snowdepth":"15.000","Units":"in","Rept_Date":"2020-01-21 13"},"coordinates":[1637,7559]},{"type":"Point","properties":{"Station_ID":"MN-MR-13","Station_Nam":"LITTLE FALLS 8.0 NE, MN","Latitude":"46.06785","Longitude":"-94.24789","Snowdepth":"15.000","Units":"in","Rept_Date":"2020-01-21 13"},"coordinates":[702,6513]},{"type":"Point","properties":{"Station_ID":"MI-OT-4","Station_Nam":"GAYLORD 1.7 WNW, MI","Latitude":"45.03280","Longitude":"-84.71090","Snowdepth":"15.000","Units":"in","Rept_Date":"2020-01-21 13"},"coordinates":[2940,5876]},{"type":"Point","properties":{"Station_ID":"ME-FR-4","Station_Nam":"NEW SHARON 2.0 NW, ME","Latitude":"44.66582","Longitude":"-70.02720","Snowdepth":"15.000","Units":"in","Rept_Date":"2020-01-21 12"},"coordinates":[6386,5650]},{"type":"Point","properties":{"Station_ID":"ME-CM-18","Station_Nam":"PORTLAND 5.5 WNW, ME","Latitude":"43.70288","Longitude":"-70.30550","Snowdepth":"15.000","Units":"in","Rept_Date":"2020-01-21 12"},"coordinates":[6321,5057]},{"type":"Point","properties":{"Station_ID":"LBRM5","Station_Nam":"LAKE BRONSON DAM","Latitude":"48.72410","Longitude":"-96.62180","Snowdepth":"15.000","Units":"in","Rept_Date":"2020-01-21 14"},"coordinates":[145,8149]},{"type":"Point","properties":{"Station_ID":"GYX","Station_Nam":"PORTLAND, ME","Latitude":"43.89250","Longitude":"-70.25500","Snowdepth":"15.000","Units":"in","Rept_Date":"2020-01-21 12"},"coordinates":[6333,5173]},{"type":"Point","properties":{"Station_ID":"GAYM4","Station_Nam":"GAYLORD","Latitude":"45.03320","Longitude":"-84.71130","Snowdepth":"15.000","Units":"in","Rept_Date":"2020-01-21 13"},"coordinates":[2940,5876]},{"type":"Point","properties":{"Station_ID":"FARM1","Station_Nam":"FARMINGTON","Latitude":"44.68930","Longitude":"-70.15640","Snowdepth":"15.000","Units":"in","Rept_Date":"2020-01-21 12"},"coordinates":[6356,5664]},{"type":"Point","properties":{"Station_ID":"ESGM1","Station_Nam":"EAST SANGERVILLE","Latitude":"45.13690","Longitude":"-69.28060","Snowdepth":"15.000","Units":"in","Rept_Date":"2020-01-21 12"},"coordinates":[6562,5940]},{"type":"Point","properties":{"Station_ID":"CANM5","Station_Nam":"CANBY","Latitude":"44.71840","Longitude":"-96.26960","Snowdepth":"15.000","Units":"in","Rept_Date":"2020-01-21 14"},"coordinates":[227,5682]},{"type":"Point","properties":{"Station_ID":"CAN-PE-20","Station_Nam":"BONSHAW 6.6 NNE, CAN","Latitude":"46.25082","Longitude":"-63.33409","Snowdepth":"15.000","Units":"in","Rept_Date":"2020-01-21 12"},"coordinates":[7957,6626]},{"type":"Point","properties":{"Station_ID":"CAN-MB-32","Station_Nam":"PINAWA 1.0 SW, CA","Latitude":"50.14747","Longitude":"-95.89020","Snowdepth":"15.000","Units":"in","Rept_Date":"2020-01-21 13"},"coordinates":[316,9026]},{"type":"Point","properties":{"Station_ID":"BWNM5","Station_Nam":"BROWNTON WWTP","Latitude":"44.73350","Longitude":"-94.34180","Snowdepth":"15.000","Units":"in","Rept_Date":"2020-01-21 14"},"coordinates":[680,5691]},{"type":"Point","properties":{"Station_ID":"BSNM5","Station_Nam":"BENSON","Latitude":"45.31670","Longitude":"-95.61660","Snowdepth":"15.000","Units":"in","Rept_Date":"2020-01-21 14"},"coordinates":[381,6051]},{"type":"Point","properties":{"Station_ID":"AUW","Station_Nam":"WAUSAU MUNICIPAL AIRPORT","Latitude":"44.92580","Longitude":"-89.62560","Snowdepth":"15.000","Units":"in","Rept_Date":"2020-01-21 12"},"coordinates":[1787,5810]},{"type":"Point","properties":{"Station_ID":"ARTM5","Station_Nam":"ARTICHOKE LAKE 1 E","Latitude":"45.38560","Longitude":"-96.12570","Snowdepth":"15.000","Units":"in","Rept_Date":"2020-01-22 00"},"coordinates":[261,6093]},{"type":"Point","properties":{"Station_ID":"ANJM4","Station_Nam":"SNOW PAID OBSERVER FOR KANJ","Latitude":"46.48670","Longitude":"-84.40260","Snowdepth":"15.000","Units":"in","Rept_Date":"2020-01-21 18"},"coordinates":[3013,6771]},{"type":"Point","properties":{"Station_ID":"ANJ","Station_Nam":"SAULT STE MARIE","Latitude":"46.46670","Longitude":"-84.36670","Snowdepth":"15.000","Units":"in","Rept_Date":"2020-01-22 00"},"coordinates":[3021,6759]},{"type":"Point","properties":{"Station_ID":"CAN-PE-7","Station_Nam":"MORELL 1.4 NNW, CA","Latitude":"46.42741","Longitude":"-62.70870","Snowdepth":"14.600","Units":"in","Rept_Date":"2020-01-21 12"},"coordinates":[8104,6735]},{"type":"Point","properties":{"Station_ID":"CAN-NB-97","Station_Nam":"NEW MARYLAND 0.6 NW, CAN","Latitude":"45.90112","Longitude":"-66.68739","Snowdepth":"14.600","Units":"in","Rept_Date":"2020-01-21 11"},"coordinates":[7170,6411]},{"type":"Point","properties":{"Station_ID":"MI-CP-14","Station_Nam":"SAULT STE. MARIE 2.2 E, MI","Latitude":"46.48933","Longitude":"-84.31971","Snowdepth":"14.500","Units":"in","Rept_Date":"2020-01-21 13"},"coordinates":[3032,6773]},{"type":"Point","properties":{"Station_ID":"FTHQ6","Station_Nam":"FORT HOPE","Latitude":"51.55820","Longitude":"-87.90510","Snowdepth":"14.450","Units":"in","Rept_Date":"2020-01-22 06"},"coordinates":[2191,9895]},{"type":"Point","properties":{"Station_ID":"CAN-NS-60","Station_Nam":"SYDNEY FORKS, CAN","Latitude":"46.05645","Longitude":"-60.31510","Snowdepth":"14.300","Units":"in","Rept_Date":"2020-01-21 11"},"coordinates":[8666,6506]},{"type":"Point","properties":{"Station_ID":"CAN-ON-757","Station_Nam":"SAULT STE. MARIE 2.8 ESE - GLFC, CAN","Latitude":"46.50300","Longitude":"-84.30300","Snowdepth":"14.100","Units":"in","Rept_Date":"2020-01-21 13"},"coordinates":[3036,6781]},{"type":"Point","properties":{"Station_ID":"WILW3","Station_Nam":"RESERVOIR","Latitude":"45.70000","Longitude":"-89.83330","Snowdepth":"14.000","Units":"in","Rept_Date":"2020-01-21 12"},"coordinates":[1738,6287]},{"type":"Point","properties":{"Station_ID":"VT-CL-14","Station_Nam":"LYNDONVILLE 1.1 W, VT","Latitude":"44.53582","Longitude":"-72.02867","Snowdepth":"14.000","Units":"in","Rept_Date":"2020-01-21 12"},"coordinates":[5917,5570]},{"type":"Point","properties":{"Station_ID":"VANM4","Station_Nam":"VANDERBILT 11ENE","Latitude":"45.17020","Longitude":"-84.43970","Snowdepth":"14.000","Units":"in","Rept_Date":"2020-01-21 13"},"coordinates":[3004,5960]},{"type":"Point","properties":{"Station_ID":"TAKW3","Station_Nam":"RICE RESERVOIR NO. 2","Latitude":"45.53770","Longitude":"-89.73220","Snowdepth":"14.000","Units":"in","Rept_Date":"2020-01-21 13"},"coordinates":[1762,6187]},{"type":"Point","properties":{"Station_ID":"SD-CD-30","Station_Nam":"WATERTOWN 2.3 E, SD","Latitude":"44.91604","Longitude":"-97.11925","Snowdepth":"14.000","Units":"in","Rept_Date":"2020-01-21 13"},"coordinates":[28,5804]},{"type":"Point","properties":{"Station_ID":"SD-BK-9","Station_Nam":"BRUCE 4.1 NE, SD","Latitude":"44.48479","Longitude":"-96.83750","Snowdepth":"14.000","Units":"in","Rept_Date":"2020-01-21 13"},"coordinates":[94,5538]},{"type":"Point","properties":{"Station_ID":"RSMM5","Station_Nam":"ROSEMOUNT RESEARCH AND OUTREACH CENTER","Latitude":"44.71660","Longitude":"-93.09800","Snowdepth":"14.000","Units":"in","Rept_Date":"2020-01-21 14"},"coordinates":[972,5681]},{"type":"Point","properties":{"Station_ID":"RGNM1","Station_Nam":"RANGELEY 2NW","Latitude":"44.98940","Longitude":"-70.67220","Snowdepth":"14.000","Units":"in","Rept_Date":"2020-01-21 11"},"coordinates":[6235,5849]},{"type":"Point","properties":{"Station_ID":"RANM1","Station_Nam":"RANGELEY","Latitude":"44.98910","Longitude":"-70.67190","Snowdepth":"14.000","Units":"in","Rept_Date":"2020-01-21 11"},"coordinates":[6235,5849]},{"type":"Point","properties":{"Station_ID":"NH-CR-26","Station_Nam":"CENTER SANDWICH 4.9 E, NH","Latitude":"43.80976","Longitude":"-71.34150","Snowdepth":"14.000","Units":"in","Rept_Date":"2020-01-21 12"},"coordinates":[6078,5123]},{"type":"Point","properties":{"Station_ID":"NH-CR-15","Station_Nam":"JACKSON 3.7 NW, NH","Latitude":"44.19069","Longitude":"-71.22598","Snowdepth":"14.000","Units":"in","Rept_Date":"2020-01-21 12"},"coordinates":[6105,5357]},{"type":"Point","properties":{"Station_ID":"NH-CR-11","Station_Nam":"NORTH CONWAY 1.4 SSW, NH","Latitude":"44.03556","Longitude":"-71.14010","Snowdepth":"14.000","Units":"in","Rept_Date":"2020-01-21 12"},"coordinates":[6125,5262]},{"type":"Point","properties":{"Station_ID":"MN228YHJ","Station_Nam":"RICE 2.8 ESE","Latitude":"45.73609","Longitude":"-94.17230","Snowdepth":"14.000","Units":"in","Rept_Date":"2020-01-21 13"},"coordinates":[720,6309]},{"type":"Point","properties":{"Station_ID":"MN-SH-10","Station_Nam":"BIG LAKE 5.6 NNE, MN","Latitude":"45.41409","Longitude":"-93.69190","Snowdepth":"14.000","Units":"in","Rept_Date":"2020-01-21 13"},"coordinates":[832,6111]},{"type":"Point","properties":{"Station_ID":"MIAM5","Station_Nam":"MILAN 1NW","Latitude":"45.12190","Longitude":"-95.92690","Snowdepth":"14.000","Units":"in","Rept_Date":"2020-01-22 00"},"coordinates":[308,5931]},{"type":"Point","properties":{"Station_ID":"MI-DL-4","Station_Nam":"GLADSTONE 2.1 SW, MI","Latitude":"45.83218","Longitude":"-87.05727","Snowdepth":"14.000","Units":"in","Rept_Date":"2020-01-21 12"},"coordinates":[2389,6368]},{"type":"Point","properties":{"Station_ID":"ME-CM-3","Station_Nam":"NEW GLOUCESTER 3.0 SE, ME","Latitude":"43.92372","Longitude":"-70.25790","Snowdepth":"14.000","Units":"in","Rept_Date":"2020-01-21 12"},"coordinates":[6332,5193]},{"type":"Point","properties":{"Station_ID":"LNKM1","Station_Nam":"LINCOLN SANITARY DISTRICT/WTP","Latitude":"45.37520","Longitude":"-68.50820","Snowdepth":"14.000","Units":"in","Rept_Date":"2020-01-21 12"},"coordinates":[6743,6087]},{"type":"Point","properties":{"Station_ID":"KLKM4","Station_Nam":"KALKASKA","Latitude":"44.72800","Longitude":"-85.17270","Snowdepth":"14.000","Units":"in","Rept_Date":"2020-01-21 13"},"coordinates":[2832,5688]},{"type":"Point","properties":{"Station_ID":"GRBM5","Station_Nam":"GRAND RAPIDS 12N","Latitude":"47.39800","Longitude":"-93.51330","Snowdepth":"14.000","Units":"in","Rept_Date":"2020-01-21 13"},"coordinates":[874,7333]},{"type":"Point","properties":{"Station_ID":"ESDN3","Station_Nam":"EAST SANDWICH","Latitude":"43.80990","Longitude":"-71.34250","Snowdepth":"14.000","Units":"in","Rept_Date":"2020-01-21 11"},"coordinates":[6078,5123]},{"type":"Point","properties":{"Station_ID":"EPTW3","Station_Nam":"EAU PLEINE TENDER","Latitude":"44.77220","Longitude":"-89.76720","Snowdepth":"14.000","Units":"in","Rept_Date":"2020-01-21 13"},"coordinates":[1753,5715]},{"type":"Point","properties":{"Station_ID":"DURM1","Station_Nam":"DURHAM","Latitude":"43.99960","Longitude":"-70.09630","Snowdepth":"14.000","Units":"in","Rept_Date":"2020-01-21 12"},"coordinates":[6370,5239]},{"type":"Point","properties":{"Station_ID":"CHRM4","Station_Nam":"CHARLEVOIX","Latitude":"45.31720","Longitude":"-85.26720","Snowdepth":"14.000","Units":"in","Rept_Date":"2020-01-21 13"},"coordinates":[2810,6051]},{"type":"Point","properties":{"Station_ID":"CBLW3","Station_Nam":"CUMBERLAND","Latitude":"45.53310","Longitude":"-92.02260","Snowdepth":"14.000","Units":"in","Rept_Date":"2020-01-21 13"},"coordinates":[1224,6184]},{"type":"Point","properties":{"Station_ID":"CAN-PE-3","Station_Nam":"WELLINGTON 1.6 NE, CA","Latitude":"46.46672","Longitude":"-63.98920","Snowdepth":"14.000","Units":"in","Rept_Date":"2020-01-21 11"},"coordinates":[7803,6759]},{"type":"Point","properties":{"Station_ID":"BKEM5","Station_Nam":"BRECKENRIDGE 4NE","Latitude":"46.30470","Longitude":"-96.52170","Snowdepth":"14.000","Units":"in","Rept_Date":"2020-01-21 13"},"coordinates":[168,6659]},{"type":"Point","properties":{"Station_ID":"ASXW3","Station_Nam":"ASHLAND,WI","Latitude":"46.55220","Longitude":"-90.91610","Snowdepth":"14.000","Units":"in","Rept_Date":"2020-01-21 14"},"coordinates":[1484,6812]},{"type":"Point","properties":{"Station_ID":"APXM4","Station_Nam":"GAYLORD 9SSW","Latitude":"44.90720","Longitude":"-84.71880","Snowdepth":"14.000","Units":"in","Rept_Date":"2020-01-22 06"},"coordinates":[2938,5798]},{"type":"Point","properties":{"Station_ID":"ME-AN-32","Station_Nam":"WINTHROP 9.4 W, ME","Latitude":"44.30476","Longitude":"-70.15835","Snowdepth":"13.800","Units":"in","Rept_Date":"2020-01-21 12"},"coordinates":[6356,5427]},{"type":"Point","properties":{"Station_ID":"CAN-NS-159","Station_Nam":"NORTHPORT 0.1 NE, CAN","Latitude":"45.93299","Longitude":"-63.86711","Snowdepth":"13.800","Units":"in","Rept_Date":"2020-01-21 11"},"coordinates":[7832,6430]},{"type":"Point","properties":{"Station_ID":"NH-GR-49","Station_Nam":"PLYMOUTH 3.7 N, NH","Latitude":"43.79048","Longitude":"-71.68413","Snowdepth":"13.500","Units":"in","Rept_Date":"2020-01-21 12"},"coordinates":[5997,5111]},{"type":"Point","properties":{"Station_ID":"CAN-ON-245","Station_Nam":"PHELPSTON 3.1 ESE, CAN","Latitude":"44.50564","Longitude":"-79.81035","Snowdepth":"13.500","Units":"in","Rept_Date":"2020-01-21 13"},"coordinates":[4090,5551]},{"type":"Point","properties":{"Station_ID":"CAN-NS-103","Station_Nam":"TRAFALGAR 4.9 WSW, CAN","Latitude":"45.26217","Longitude":"-62.72285","Snowdepth":"13.500","Units":"in","Rept_Date":"2020-01-21 11"},"coordinates":[8101,6017]},{"type":"Point","properties":{"Station_ID":"WUNW3","Station_Nam":"WAUSAU-NORTHEAST","Latitude":"44.97310","Longitude":"-89.61690","Snowdepth":"13.000","Units":"in","Rept_Date":"2020-01-21 12"},"coordinates":[1789,5839]},{"type":"Point","properties":{"Station_ID":"WI-CH-7","Station_Nam":"CHIPPEWA FALLS 1.2 E, WI","Latitude":"44.92920","Longitude":"-91.36730","Snowdepth":"13.000","Units":"in","Rept_Date":"2020-01-21 13"},"coordinates":[1378,5812]},{"type":"Point","properties":{"Station_ID":"VT-WS-15","Station_Nam":"EAST CALAIS 1.5 SW, VT","Latitude":"44.35523","Longitude":"-72.45540","Snowdepth":"13.000","Units":"in","Rept_Date":"2020-01-21 12"},"coordinates":[5816,5458]},{"type":"Point","properties":{"Station_ID":"TOPM1","Station_Nam":"TOPSFIELD","Latitude":"45.43470","Longitude":"-67.72020","Snowdepth":"13.000","Units":"in","Rept_Date":"2020-01-21 12"},"coordinates":[6928,6123]},{"type":"Point","properties":{"Station_ID":"TCEM4","Station_Nam":"TRAVERSE CITY 5ESE","Latitude":"44.73370","Longitude":"-85.51180","Snowdepth":"13.000","Units":"in","Rept_Date":"2020-01-21 12"},"coordinates":[2752,5692]},{"type":"Point","properties":{"Station_ID":"STRW3","Station_Nam":"STRATFORD 1NW","Latitude":"44.81750","Longitude":"-90.08990","Snowdepth":"13.000","Units":"in","Rept_Date":"2020-01-21 13"},"coordinates":[1678,5743]},{"type":"Point","properties":{"Station_ID":"SNBI4","Station_Nam":"SANBORN,IA","Latitude":"43.18170","Longitude":"-95.66030","Snowdepth":"13.000","Units":"in","Rept_Date":"2020-01-21 14"},"coordinates":[370,4736]},{"type":"Point","properties":{"Station_ID":"SD-BK-7","Station_Nam":"BROOKINGS 0.2 SSW, SD","Latitude":"44.30389","Longitude":"-96.78780","Snowdepth":"13.000","Units":"in","Rept_Date":"2020-01-21 13"},"coordinates":[106,5427]},{"type":"Point","properties":{"Station_ID":"RSTW3","Station_Nam":"ROSHOLT","Latitude":"44.62710","Longitude":"-89.30600","Snowdepth":"13.000","Units":"in","Rept_Date":"2020-01-21 15"},"coordinates":[1862,5626]},{"type":"Point","properties":{"Station_ID":"RDFN6","Station_Nam":"REDFIELD 8N","Latitude":"43.64130","Longitude":"-75.88400","Snowdepth":"13.000","Units":"in","Rept_Date":"2020-01-21 12"},"coordinates":[5012,5019]},{"type":"Point","properties":{"Station_ID":"POLM1","Station_Nam":"POLAND","Latitude":"44.00700","Longitude":"-70.36140","Snowdepth":"13.000","Units":"in","Rept_Date":"2020-01-21 12"},"coordinates":[6308,5244]},{"type":"Point","properties":{"Station_ID":"PBAN8","Station_Nam":"SITE 1-3MI.N","Latitude":"48.97420","Longitude":"-97.23860","Snowdepth":"13.000","Units":"in","Rept_Date":"2020-01-21 13"},"coordinates":[0,8304]},{"type":"Point","properties":{"Station_ID":"NCON3","Station_Nam":"NORTH CONWAY","Latitude":"44.05620","Longitude":"-71.12970","Snowdepth":"13.000","Units":"in","Rept_Date":"2020-01-21 12"},"coordinates":[6128,5274]},{"type":"Point","properties":{"Station_ID":"MRQM4","Station_Nam":"MARQUETTE WFP","Latitude":"46.54580","Longitude":"-87.37950","Snowdepth":"13.000","Units":"in","Rept_Date":"2020-01-21 13"},"coordinates":[2314,6808]},{"type":"Point","properties":{"Station_ID":"MN-SR-29","Station_Nam":"ALBANY 3.8 S, MN","Latitude":"45.57441","Longitude":"-94.55543","Snowdepth":"13.000","Units":"in","Rept_Date":"2020-01-21 13"},"coordinates":[630,6209]},{"type":"Point","properties":{"Station_ID":"MN-SH-985","Station_Nam":"PRINCETON 3.3 WSW, MN","Latitude":"45.55211","Longitude":"-93.64481","Snowdepth":"13.000","Units":"in","Rept_Date":"2020-01-21 10"},"coordinates":[843,6196]},{"type":"Point","properties":{"Station_ID":"MI-GT-25","Station_Nam":"TRAVERSE CITY 4.7 ESE, MI","Latitude":"44.73370","Longitude":"-85.51189","Snowdepth":"13.000","Units":"in","Rept_Date":"2020-01-21 12"},"coordinates":[2752,5692]},{"type":"Point","properties":{"Station_ID":"MEDW3","Station_Nam":"MEDFORD","Latitude":"45.13080","Longitude":"-90.34390","Snowdepth":"13.000","Units":"in","Rept_Date":"2020-01-21 14"},"coordinates":[1618,5936]},{"type":"Point","properties":{"Station_ID":"MALN6","Station_Nam":"MALONE","Latitude":"44.84180","Longitude":"-74.30600","Snowdepth":"13.000","Units":"in","Rept_Date":"2020-01-21 12"},"coordinates":[5382,5758]},{"type":"Point","properties":{"Station_ID":"JEFN3","Station_Nam":"JEFFERSON","Latitude":"44.41690","Longitude":"-71.50080","Snowdepth":"13.000","Units":"in","Rept_Date":"2020-01-21 12"},"coordinates":[6040,5496]},{"type":"Point","properties":{"Station_ID":"ISLV1","Station_Nam":"ISLAND POND","Latitude":"44.81280","Longitude":"-71.89020","Snowdepth":"13.000","Units":"in","Rept_Date":"2020-01-21 12"},"coordinates":[5949,5740]},{"type":"Point","properties":{"Station_ID":"HRTM1","Station_Nam":"HARTFORD","Latitude":"44.37440","Longitude":"-70.31620","Snowdepth":"13.000","Units":"in","Rept_Date":"2020-01-21 12"},"coordinates":[6318,5470]},{"type":"Point","properties":{"Station_ID":"GHMN3","Station_Nam":"PINKHAM NOTCH","Latitude":"44.25800","Longitude":"-71.25250","Snowdepth":"13.000","Units":"in","Rept_Date":"2020-01-21 10"},"coordinates":[6099,5399]},{"type":"Point","properties":{"Station_ID":"FFLN3","Station_Nam":"FRANKLIN FALLS DAM","Latitude":"43.47030","Longitude":"-71.65370","Snowdepth":"13.000","Units":"in","Rept_Date":"2020-01-21 12"},"coordinates":[6005,4913]},{"type":"Point","properties":{"Station_ID":"ENFV1","Station_Nam":"ENOSBURG FALLS 2","Latitude":"44.90960","Longitude":"-72.81370","Snowdepth":"13.000","Units":"in","Rept_Date":"2020-01-21 09"},"coordinates":[5732,5800]},{"type":"Point","properties":{"Station_ID":"ELRW3","Station_Nam":"EAU CLAIRE 3SW","Latitude":"44.78780","Longitude":"-91.51650","Snowdepth":"13.000","Units":"in","Rept_Date":"2020-01-22 06"},"coordinates":[1343,5725]},{"type":"Point","properties":{"Station_ID":"CAN-NB-1","Station_Nam":"FREDERICTON 4.0 SSE, CA","Latitude":"45.92897","Longitude":"-66.62830","Snowdepth":"13.000","Units":"in","Rept_Date":"2020-01-21 11"},"coordinates":[7184,6428]},{"type":"Point","properties":{"Station_ID":"BREW3","Station_Nam":"SURING","Latitude":"44.99580","Longitude":"-88.37860","Snowdepth":"13.000","Units":"in","Rept_Date":"2020-01-21 13"},"coordinates":[2079,5853]},{"type":"Point","properties":{"Station_ID":"BOWW3","Station_Nam":"STOCKBRIDGE-MUNSEE RESERVATION","Latitude":"44.87000","Longitude":"-88.90440","Snowdepth":"13.000","Units":"in","Rept_Date":"2020-01-21 14"},"coordinates":[1956,5776]},{"type":"Point","properties":{"Station_ID":"BALW3","Station_Nam":"BALDWIN","Latitude":"44.96330","Longitude":"-92.39050","Snowdepth":"13.000","Units":"in","Rept_Date":"2020-01-21 13"},"coordinates":[1138,5833]},{"type":"Point","properties":{"Station_ID":"WI-EC-23","Station_Nam":"EAU CLAIRE 3.7 S, WI","Latitude":"44.76858","Longitude":"-91.49898","Snowdepth":"12.500","Units":"in","Rept_Date":"2020-01-21 14"},"coordinates":[1347,5713]},{"type":"Point","properties":{"Station_ID":"ME-CM-54","Station_Nam":"WINDHAM 3.9 NW, ME","Latitude":"43.85787","Longitude":"-70.46200","Snowdepth":"12.300","Units":"in","Rept_Date":"2020-01-21 12"},"coordinates":[6284,5152]},{"type":"Point","properties":{"Station_ID":"CAN-ON-491","Station_Nam":"MILVERTON 1.1 ESE- CANWARN, CAN","Latitude":"43.56074","Longitude":"-80.90887","Snowdepth":"12.300","Units":"in","Rept_Date":"2020-01-21 12"},"coordinates":[3832,4969]},{"type":"Point","properties":{"Station_ID":"WSKW3","Station_Nam":"WAUSAUKEE","Latitude":"45.38020","Longitude":"-87.95660","Snowdepth":"12.000","Units":"in","Rept_Date":"2020-01-21 14"},"coordinates":[2178,6090]},{"type":"Point","properties":{"Station_ID":"WRSN6","Station_Nam":"WARSAW 6SW","Latitude":"42.68550","Longitude":"-78.22020","Snowdepth":"12.000","Units":"in","Rept_Date":"2020-01-21 12"},"coordinates":[4463,4430]},{"type":"Point","properties":{"Station_ID":"WNDM1","Station_Nam":"WINDHAM 2NW","Latitude":"43.85670","Longitude":"-70.46630","Snowdepth":"12.000","Units":"in","Rept_Date":"2020-01-21 12"},"coordinates":[6283,5151]},{"type":"Point","properties":{"Station_ID":"WMRM5","Station_Nam":"WILLMAR 5N","Latitude":"45.19010","Longitude":"-95.05860","Snowdepth":"12.000","Units":"in","Rept_Date":"2020-01-21 12"},"coordinates":[512,5973]},{"type":"Point","properties":{"Station_ID":"WLKM5","Station_Nam":"AH-GWAH-CHING","Latitude":"47.15000","Longitude":"-94.65000","Snowdepth":"12.000","Units":"in","Rept_Date":"2020-01-21 11"},"coordinates":[608,7180]},{"type":"Point","properties":{"Station_ID":"WI-PC-25","Station_Nam":"ELLSWORTH 2.6 SW, WI","Latitude":"44.71119","Longitude":"-92.51849","Snowdepth":"12.000","Units":"in","Rept_Date":"2020-01-21 13"},"coordinates":[1108,5678]},{"type":"Point","properties":{"Station_ID":"WI-BR-2","Station_Nam":"CHETEK 2.0 SE, WI","Latitude":"45.29427","Longitude":"-91.62470","Snowdepth":"12.000","Units":"in","Rept_Date":"2020-01-21 13"},"coordinates":[1318,6037]},{"type":"Point","properties":{"Station_ID":"WDOM5","Station_Nam":"WINDOM","Latitude":"43.87700","Longitude":"-95.11590","Snowdepth":"12.000","Units":"in","Rept_Date":"2020-01-21 14"},"coordinates":[498,5164]},{"type":"Point","properties":{"Station_ID":"WASW3","Station_Nam":"WASHINGTON IS","Latitude":"45.35800","Longitude":"-86.89110","Snowdepth":"12.000","Units":"in","Rept_Date":"2020-01-21 13"},"coordinates":[2428,6076]},{"type":"Point","properties":{"Station_ID":"VT-OL-2","Station_Nam":"BARTON 3.0 ENE, VT","Latitude":"44.75863","Longitude":"-72.11680","Snowdepth":"12.000","Units":"in","Rept_Date":"2020-01-21 12"},"coordinates":[5896,5707]},{"type":"Point","properties":{"Station_ID":"TUPN6","Station_Nam":"TUPPER LAKE SNOW COURSE","Latitude":"44.10560","Longitude":"-74.53440","Snowdepth":"12.000","Units":"in","Rept_Date":"2020-01-21 17"},"coordinates":[5329,5305]},{"type":"Point","properties":{"Station_ID":"SPCW3","Station_Nam":"SPENCER-WWTP","Latitude":"44.75390","Longitude":"-90.28920","Snowdepth":"12.000","Units":"in","Rept_Date":"2020-01-21 13"},"coordinates":[1631,5704]},{"type":"Point","properties":{"Station_ID":"RRLW3","Station_Nam":"MERRILL,WI","Latitude":"45.17860","Longitude":"-89.66170","Snowdepth":"12.000","Units":"in","Rept_Date":"2020-01-21 14"},"coordinates":[1778,5966]},{"type":"Point","properties":{"Station_ID":"PTBN3","Station_Nam":"PITTSBURG RESERVOIR","Latitude":"45.04690","Longitude":"-71.38300","Snowdepth":"12.000","Units":"in","Rept_Date":"2020-01-21 12"},"coordinates":[6068,5885]},{"type":"Point","properties":{"Station_ID":"NY-SL-6","Station_Nam":"HANNAWA FALLS 0.1 SW, NY","Latitude":"44.61154","Longitude":"-74.97190","Snowdepth":"12.000","Units":"in","Rept_Date":"2020-01-21 12"},"coordinates":[5226,5616]},{"type":"Point","properties":{"Station_ID":"NY-FK-7","Station_Nam":"SARANAC LAKE 6.2 N, NY","Latitude":"44.41359","Longitude":"-74.15211","Snowdepth":"12.000","Units":"in","Rept_Date":"2020-01-21 12"},"coordinates":[5418,5494]},{"type":"Point","properties":{"Station_ID":"NY-ER-65","Station_Nam":"BOSTON 1.5 NE, NY","Latitude":"42.65470","Longitude":"-78.72010","Snowdepth":"12.000","Units":"in","Rept_Date":"2020-01-21 12"},"coordinates":[4346,4411]},{"type":"Point","properties":{"Station_ID":"NPTV1","Station_Nam":"NEWPORT","Latitude":"44.94900","Longitude":"-72.19120","Snowdepth":"12.000","Units":"in","Rept_Date":"2020-01-21 12"},"coordinates":[5878,5824]},{"type":"Point","properties":{"Station_ID":"NELW3","Station_Nam":"NEILLSVILLE 3ESE","Latitude":"44.53780","Longitude":"-90.53500","Snowdepth":"12.000","Units":"in","Rept_Date":"2020-01-21 13"},"coordinates":[1573,5571]},{"type":"Point","properties":{"Station_ID":"MYOM4","Station_Nam":"MIO WWTP","Latitude":"44.64660","Longitude":"-84.11580","Snowdepth":"12.000","Units":"in","Rept_Date":"2020-01-21 13"},"coordinates":[3080,5638]},{"type":"Point","properties":{"Station_ID":"MONS2","Station_Nam":"SIOUX FALLS-26MI.WNW","Latitude":"43.70190","Longitude":"-97.18330","Snowdepth":"12.000","Units":"in","Rept_Date":"2020-01-21 14"},"coordinates":[13,5056]},{"type":"Point","properties":{"Station_ID":"MN-CG-16","Station_Nam":"NORTH BRANCH 1.3 NNW, MN","Latitude":"45.53121","Longitude":"-92.97110","Snowdepth":"12.000","Units":"in","Rept_Date":"2020-01-21 12"},"coordinates":[1002,6183]},{"type":"Point","properties":{"Station_ID":"LPLN6","Station_Nam":"LAKE PLACID 2 S","Latitude":"44.30420","Longitude":"-73.98390","Snowdepth":"12.000","Units":"in","Rept_Date":"2020-01-21 13"},"coordinates":[5458,5427]},{"type":"Point","properties":{"Station_ID":"JIMW3","Station_Nam":"JIM FALLS 3NW","Latitude":"45.08270","Longitude":"-91.33130","Snowdepth":"12.000","Units":"in","Rept_Date":"2020-01-21 12"},"coordinates":[1386,5907]},{"type":"Point","properties":{"Station_ID":"HTLM4","Station_Nam":"SNOW PAID OBSERVER FOR KHTL","Latitude":"44.34470","Longitude":"-84.67730","Snowdepth":"12.000","Units":"in","Rept_Date":"2020-01-21 18"},"coordinates":[2948,5452]},{"type":"Point","properties":{"Station_ID":"HTL","Station_Nam":"ROSCOMMON COUNTY AIRPORT","Latitude":"44.35000","Longitude":"-84.66670","Snowdepth":"12.000","Units":"in","Rept_Date":"2020-01-22 00"},"coordinates":[2951,5455]},{"type":"Point","properties":{"Station_ID":"HRSN6","Station_Nam":"HORSESHOE LAKE SNOW COURSE","Latitude":"44.13920","Longitude":"-74.57000","Snowdepth":"12.000","Units":"in","Rept_Date":"2020-01-21 17"},"coordinates":[5320,5325]},{"type":"Point","properties":{"Station_ID":"FORM5","Station_Nam":"FOREST LAKE 5NE","Latitude":"45.33170","Longitude":"-92.89820","Snowdepth":"12.000","Units":"in","Rept_Date":"2020-01-21 13"},"coordinates":[1019,6060]},{"type":"Point","properties":{"Station_ID":"ERG36","Station_Nam":"NMPS TUPPER LAKE","Latitude":"44.12000","Longitude":"-74.55000","Snowdepth":"12.000","Units":"in","Rept_Date":"2020-01-21 17"},"coordinates":[5325,5314]},{"type":"Point","properties":{"Station_ID":"ERG18","Station_Nam":"NMPS HORSESHOE LAKE","Latitude":"44.15000","Longitude":"-74.60000","Snowdepth":"12.000","Units":"in","Rept_Date":"2020-01-21 17"},"coordinates":[5313,5332]},{"type":"Point","properties":{"Station_ID":"ENGM4","Station_Nam":"ENGADINE MDOT","Latitude":"46.12800","Longitude":"-85.56960","Snowdepth":"12.000","Units":"in","Rept_Date":"2020-01-21 12"},"coordinates":[2739,6550]},{"type":"Point","properties":{"Station_ID":"DWSM5","Station_Nam":"DAWSON","Latitude":"44.93180","Longitude":"-96.04500","Snowdepth":"12.000","Units":"in","Rept_Date":"2020-01-21 13"},"coordinates":[280,5814]},{"type":"Point","properties":{"Station_ID":"DTVM4","Station_Nam":"DETOUR VILLAGE","Latitude":"45.99830","Longitude":"-83.90130","Snowdepth":"12.000","Units":"in","Rept_Date":"2020-01-21 13"},"coordinates":[3130,6471]},{"type":"Point","properties":{"Station_ID":"CHES2","Station_Nam":"CHESTER 2N","Latitude":"43.92830","Longitude":"-96.93160","Snowdepth":"12.000","Units":"in","Rept_Date":"2020-01-21 13"},"coordinates":[72,5196]},{"type":"Point","properties":{"Station_ID":"CAN-PE-10","Station_Nam":"NEW LONDON 1.6 ENE, CA","Latitude":"46.46985","Longitude":"-63.49200","Snowdepth":"12.000","Units":"in","Rept_Date":"2020-01-21 12"},"coordinates":[7920,6761]},{"type":"Point","properties":{"Station_ID":"CAN-ON-208","Station_Nam":"PAKENHAM 7.8 NNW, CAN","Latitude":"45.39166","Longitude":"-76.34111","Snowdepth":"12.000","Units":"in","Rept_Date":"2020-01-21 12"},"coordinates":[4904,6097]},{"type":"Point","properties":{"Station_ID":"BTLN3","Station_Nam":"BARTLETT","Latitude":"44.08380","Longitude":"-71.29340","Snowdepth":"12.000","Units":"in","Rept_Date":"2020-01-21 12"},"coordinates":[6089,5291]},{"type":"Point","properties":{"Station_ID":"BENN6","Station_Nam":"BENNETTS BRIDGE","Latitude":"43.53180","Longitude":"-75.95260","Snowdepth":"12.000","Units":"in","Rept_Date":"2020-01-21 12"},"coordinates":[4996,4951]},{"type":"Point","properties":{"Station_ID":"ATAN6","Station_Nam":"ATTICA 7 SW","Latitude":"42.81070","Longitude":"-78.39790","Snowdepth":"12.000","Units":"in","Rept_Date":"2020-01-21 11"},"coordinates":[4422,4507]},{"type":"Point","properties":{"Station_ID":"VT-WS-30","Station_Nam":"WOODBURY 3.4 NNW, VT","Latitude":"44.48825","Longitude":"-72.43258","Snowdepth":"11.500","Units":"in","Rept_Date":"2020-01-21 12"},"coordinates":[5822,5540]},{"type":"Point","properties":{"Station_ID":"VT-WS-10","Station_Nam":"NORTHFIELD 1.5 N, VT","Latitude":"44.16986","Longitude":"-72.65200","Snowdepth":"11.500","Units":"in","Rept_Date":"2020-01-21 12"},"coordinates":[5770,5344]},{"type":"Point","properties":{"Station_ID":"NY-FK-9","Station_Nam":"GABRIELS 1.3 SE, NY","Latitude":"44.41934","Longitude":"-74.16194","Snowdepth":"11.500","Units":"in","Rept_Date":"2020-01-21 12"},"coordinates":[5416,5498]},{"type":"Point","properties":{"Station_ID":"NY-ER-77","Station_Nam":"COLDEN 2.4 ENE, NY","Latitude":"42.65088","Longitude":"-78.61060","Snowdepth":"11.500","Units":"in","Rept_Date":"2020-01-21 13"},"coordinates":[4372,4409]},{"type":"Point","properties":{"Station_ID":"NY-ER-166","Station_Nam":"BOSTON 2.5 NE, NY","Latitude":"42.65480","Longitude":"-78.70300","Snowdepth":"11.500","Units":"in","Rept_Date":"2020-01-21 12"},"coordinates":[4350,4411]},{"type":"Point","properties":{"Station_ID":"NY-ER-158","Station_Nam":"EAST AURORA 2.7 SSE, NY","Latitude":"42.72936","Longitude":"-78.60561","Snowdepth":"11.500","Units":"in","Rept_Date":"2020-01-21 14"},"coordinates":[4373,4457]},{"type":"Point","properties":{"Station_ID":"NH-GR-1","Station_Nam":"BRISTOL 0.4 SSE, NH","Latitude":"43.59490","Longitude":"-71.74140","Snowdepth":"11.500","Units":"in","Rept_Date":"2020-01-21 12"},"coordinates":[5984,4990]},{"type":"Point","properties":{"Station_ID":"MN-MC-16","Station_Nam":"HUTCHINSON 0.1 ENE, MN","Latitude":"44.88633","Longitude":"-94.37503","Snowdepth":"11.500","Units":"in","Rept_Date":"2020-01-21 13"},"coordinates":[672,5786]},{"type":"Point","properties":{"Station_ID":"MI-BZ-1","Station_Nam":"BENZONIA 5.3 S, MI","Latitude":"44.53976","Longitude":"-86.10650","Snowdepth":"11.500","Units":"in","Rept_Date":"2020-01-21 14"},"coordinates":[2613,5572]},{"type":"Point","properties":{"Station_ID":"CAN-QC-51","Station_Nam":"BELOEIL 0.7 NW, CAN","Latitude":"45.58049","Longitude":"-73.21218","Snowdepth":"11.200","Units":"in","Rept_Date":"2020-01-21 12"},"coordinates":[5639,6213]},{"type":"Point","properties":{"Station_ID":"WYON6","Station_Nam":"WYOMING 3W","Latitude":"42.82060","Longitude":"-78.14810","Snowdepth":"11.000","Units":"in","Rept_Date":"2020-01-21 12"},"coordinates":[4480,4513]},{"type":"Point","properties":{"Station_ID":"WRNM5","Station_Nam":"WORTHINGTON,MN","Latitude":"43.65440","Longitude":"-95.57920","Snowdepth":"11.000","Units":"in","Rept_Date":"2020-01-21 13"},"coordinates":[389,5027]},{"type":"Point","properties":{"Station_ID":"WOLN3","Station_Nam":"WOLFEBORO","Latitude":"43.59020","Longitude":"-71.20190","Snowdepth":"11.000","Units":"in","Rept_Date":"2020-01-21 12"},"coordinates":[6111,4987]},{"type":"Point","properties":{"Station_ID":"WNNM5","Station_Nam":"WINNEBAGO","Latitude":"43.76920","Longitude":"-94.18730","Snowdepth":"11.000","Units":"in","Rept_Date":"2020-01-21 14"},"coordinates":[716,5098]},{"type":"Point","properties":{"Station_ID":"WHTM5","Station_Nam":"WHEATON,MN","Latitude":"45.80000","Longitude":"-96.48330","Snowdepth":"11.000","Units":"in","Rept_Date":"2020-01-21 14"},"coordinates":[177,6348]},{"type":"Point","properties":{"Station_ID":"WENN3","Station_Nam":"P.O. BOX 197 WENTWORTH, NH","Latitude":"43.95190","Longitude":"-71.91560","Snowdepth":"11.000","Units":"in","Rept_Date":"2020-01-21 12"},"coordinates":[5943,5210]},{"type":"Point","properties":{"Station_ID":"VT-WR-2","Station_Nam":"POMFRET 2.6 N, VT","Latitude":"43.74230","Longitude":"-72.52550","Snowdepth":"11.000","Units":"in","Rept_Date":"2020-01-21 12"},"coordinates":[5800,5081]},{"type":"Point","properties":{"Station_ID":"TURM1","Station_Nam":"TURNER","Latitude":"44.28220","Longitude":"-70.25610","Snowdepth":"11.000","Units":"in","Rept_Date":"2020-01-21 12"},"coordinates":[6333,5414]},{"type":"Point","properties":{"Station_ID":"TCYM5","Station_Nam":"TRACY,MN","Latitude":"44.23330","Longitude":"-95.61670","Snowdepth":"11.000","Units":"in","Rept_Date":"2020-01-21 14"},"coordinates":[381,5383]},{"type":"Point","properties":{"Station_ID":"STIM4","Station_Nam":"ST IGNACE","Latitude":"45.86080","Longitude":"-84.71960","Snowdepth":"11.000","Units":"in","Rept_Date":"2020-01-21 12"},"coordinates":[2938,6386]},{"type":"Point","properties":{"Station_ID":"RQLN6","Station_Nam":"RAQUETTE LAKE","Latitude":"43.80000","Longitude":"-74.66670","Snowdepth":"11.000","Units":"in","Rept_Date":"2020-01-21 17"},"coordinates":[5297,5116]},{"type":"Point","properties":{"Station_ID":"NY-WY-10","Station_Nam":"WYOMING COOP, NY","Latitude":"42.82060","Longitude":"-78.14810","Snowdepth":"11.000","Units":"in","Rept_Date":"2020-01-21 12"},"coordinates":[4480,4513]},{"type":"Point","properties":{"Station_ID":"NY-OS-20","Station_Nam":"FULTON 0.2 W, NY","Latitude":"43.31650","Longitude":"-76.41850","Snowdepth":"11.000","Units":"in","Rept_Date":"2020-01-21 14"},"coordinates":[4886,4819]},{"type":"Point","properties":{"Station_ID":"NY-ES-6","Station_Nam":"OLMSTEDVILLE 4.6 NNE, NY","Latitude":"43.83350","Longitude":"-73.89780","Snowdepth":"11.000","Units":"in","Rept_Date":"2020-01-21 13"},"coordinates":[5478,5137]},{"type":"Point","properties":{"Station_ID":"MNG0GYSN","Station_Nam":"LONSDALE 1.1 SSW","Latitude":"44.46445","Longitude":"-93.43293","Snowdepth":"11.000","Units":"in","Rept_Date":"2020-01-21 12"},"coordinates":[893,5526]},{"type":"Point","properties":{"Station_ID":"MN-SL-139","Station_Nam":"DULUTH 1.2 SE, MN","Latitude":"46.77000","Longitude":"-92.08826","Snowdepth":"11.000","Units":"in","Rept_Date":"2020-01-21 12"},"coordinates":[1209,6946]},{"type":"Point","properties":{"Station_ID":"MN-HN-181","Station_Nam":"MINNEAPOLIS 0.4 NE, MN","Latitude":"44.96708","Longitude":"-93.26222","Snowdepth":"11.000","Units":"in","Rept_Date":"2020-01-21 13"},"coordinates":[933,5835]},{"type":"Point","properties":{"Station_ID":"MI-MC-4","Station_Nam":"ST. IGNACE 0.5SE, MI","Latitude":"45.86057","Longitude":"-84.71980","Snowdepth":"11.000","Units":"in","Rept_Date":"2020-01-21 12"},"coordinates":[2938,6386]},{"type":"Point","properties":{"Station_ID":"MI-CF-9","Station_Nam":"GRAYLING 15.8 NE, MI","Latitude":"44.80464","Longitude":"-84.46313","Snowdepth":"11.000","Units":"in","Rept_Date":"2020-01-21 12"},"coordinates":[2998,5735]},{"type":"Point","properties":{"Station_ID":"ME-AN-41","Station_Nam":"AUBURN 2.1 NNW, ME","Latitude":"44.11275","Longitude":"-70.26452","Snowdepth":"11.000","Units":"in","Rept_Date":"2020-01-21 12"},"coordinates":[6331,5309]},{"type":"Point","properties":{"Station_ID":"MAPM4","Station_Nam":"MAPLE CITY 1E","Latitude":"44.85500","Longitude":"-85.83520","Snowdepth":"11.000","Units":"in","Rept_Date":"2020-01-21 23"},"coordinates":[2676,5766]},{"type":"Point","properties":{"Station_ID":"LBKV1","Station_Nam":"LYE BROOK","Latitude":"43.05000","Longitude":"-73.03330","Snowdepth":"11.000","Units":"in","Rept_Date":"2020-01-22 06"},"coordinates":[5681,4655]},{"type":"Point","properties":{"Station_ID":"LACN3","Station_Nam":"LACONIA","Latitude":"43.53010","Longitude":"-71.46260","Snowdepth":"11.000","Units":"in","Rept_Date":"2020-01-21 12"},"coordinates":[6049,4950]},{"type":"Point","properties":{"Station_ID":"JOHV1","Station_Nam":"JOHNSON 2 N","Latitude":"44.65790","Longitude":"-72.67850","Snowdepth":"11.000","Units":"in","Rept_Date":"2020-01-21 12"},"coordinates":[5764,5645]},{"type":"Point","properties":{"Station_ID":"HYTS2","Station_Nam":"HAYTI 1W","Latitude":"44.66330","Longitude":"-97.22670","Snowdepth":"11.000","Units":"in","Rept_Date":"2020-01-21 14"},"coordinates":[3,5648]},{"type":"Point","properties":{"Station_ID":"HMYM1","Station_Nam":"HARMONY","Latitude":"44.94660","Longitude":"-69.54560","Snowdepth":"11.000","Units":"in","Rept_Date":"2020-01-21 12"},"coordinates":[6499,5823]},{"type":"Point","properties":{"Station_ID":"ERG29","Station_Nam":"NMPS RAQUETTE LAKE","Latitude":"44.23000","Longitude":"-74.75000","Snowdepth":"11.000","Units":"in","Rept_Date":"2020-01-21 17"},"coordinates":[5278,5381]},{"type":"Point","properties":{"Station_ID":"EAU","Station_Nam":"CHIPPEWA VALLEY REGIONAL AIRPORT","Latitude":"44.86650","Longitude":"-91.48790","Snowdepth":"11.000","Units":"in","Rept_Date":"2020-01-22 00"},"coordinates":[1350,5773]},{"type":"Point","properties":{"Station_ID":"CAN-PE-50","Station_Nam":"BEDFORD CORNER 3.9 WNW, CAN","Latitude":"46.34628","Longitude":"-63.06157","Snowdepth":"11.000","Units":"in","Rept_Date":"2020-01-21 11"},"coordinates":[8021,6685]},{"type":"Point","properties":{"Station_ID":"CAN-NS-82","Station_Nam":"YARMOUTH 7.4 S, CA","Latitude":"43.77063","Longitude":"-66.11200","Snowdepth":"11.000","Units":"in","Rept_Date":"2020-01-21 12"},"coordinates":[7305,5098]},{"type":"Point","properties":{"Station_ID":"BMRW3","Station_Nam":"BLOOMER","Latitude":"45.09070","Longitude":"-91.48640","Snowdepth":"11.000","Units":"in","Rept_Date":"2020-01-21 14"},"coordinates":[1350,5911]},{"type":"Point","properties":{"Station_ID":"BETM1","Station_Nam":"BETHEL 6 SSE","Latitude":"44.32000","Longitude":"-70.75680","Snowdepth":"11.000","Units":"in","Rept_Date":"2020-01-21 13"},"coordinates":[6215,5437]},{"type":"Point","properties":{"Station_ID":"ME-YK-28","Station_Nam":"BIDDEFORD 1.5 NNE, ME","Latitude":"43.48679","Longitude":"-70.43470","Snowdepth":"10.900","Units":"in","Rept_Date":"2020-01-21 12"},"coordinates":[6291,4924]},{"type":"Point","properties":{"Station_ID":"CAN-ON-452","Station_Nam":"CHATSWORTH 1.8 ENE - GSCA, CAN","Latitude":"44.46118","Longitude":"-80.87506","Snowdepth":"10.700","Units":"in","Rept_Date":"2020-01-21 12"},"coordinates":[3840,5524]},{"type":"Point","properties":{"Station_ID":"WI-WS-5","Station_Nam":"JACKSON 0.2 WSW, WI","Latitude":"43.32007","Longitude":"-88.16820","Snowdepth":"10.500","Units":"in","Rept_Date":"2020-01-21 12"},"coordinates":[2129,4821]},{"type":"Point","properties":{"Station_ID":"VT-ES-3","Station_Nam":"LUNENBURG 2.3 NNW, VT","Latitude":"44.49324","Longitude":"-71.70446","Snowdepth":"10.500","Units":"in","Rept_Date":"2020-01-21 10"},"coordinates":[5993,5543]},{"type":"Point","properties":{"Station_ID":"NY-ER-63","Station_Nam":"GLENWOOD 1.5 SE, NY","Latitude":"42.60195","Longitude":"-78.63910","Snowdepth":"10.500","Units":"in","Rept_Date":"2020-01-21 13"},"coordinates":[4365,4379]},{"type":"Point","properties":{"Station_ID":"NH-CR-27","Station_Nam":"TAMWORTH 0.4 NNW, NH","Latitude":"43.86449","Longitude":"-71.26610","Snowdepth":"10.500","Units":"in","Rept_Date":"2020-01-21 12"},"coordinates":[6096,5156]},{"type":"Point","properties":{"Station_ID":"ME-LN-21","Station_Nam":"WESTPORT ISLAND 2.2 SSW, ME","Latitude":"43.88806","Longitude":"-69.70890","Snowdepth":"10.500","Units":"in","Rept_Date":"2020-01-21 13"},"coordinates":[6461,5171]},{"type":"Point","properties":{"Station_ID":"MA-HS-7","Station_Nam":"PLAINFIELD 2.2 SW, MA","Latitude":"42.49272","Longitude":"-72.94540","Snowdepth":"10.500","Units":"in","Rept_Date":"2020-01-21 13"},"coordinates":[5701,4311]},{"type":"Point","properties":{"Station_ID":"CAN-NB-16","Station_Nam":"DORCHESTER 1.0 SSE, CAN","Latitude":"45.89160","Longitude":"-64.51269","Snowdepth":"10.400","Units":"in","Rept_Date":"2020-01-21 12"},"coordinates":[7681,6405]},{"type":"Point","properties":{"Station_ID":"CAN-NS-105","Station_Nam":"SLUICE POINT 0.4 SSE, CAN","Latitude":"43.78767","Longitude":"-65.96486","Snowdepth":"10.100","Units":"in","Rept_Date":"2020-01-21 12"},"coordinates":[7340,5109]},{"type":"Point","properties":{"Station_ID":"WPHN6","Station_Nam":"GEORGETOWN SNOW","Latitude":"42.76670","Longitude":"-75.70000","Snowdepth":"10.000","Units":"in","Rept_Date":"2020-01-21 14"},"coordinates":[5055,4480]},{"type":"Point","properties":{"Station_ID":"WPGN6","Station_Nam":"GEORGETOWN 2SE SNOW","Latitude":"42.75000","Longitude":"-75.70000","Snowdepth":"10.000","Units":"in","Rept_Date":"2020-01-21 14"},"coordinates":[5055,4470]},{"type":"Point","properties":{"Station_ID":"WLSN6","Station_Nam":"WALES","Latitude":"42.73920","Longitude":"-78.58780","Snowdepth":"10.000","Units":"in","Rept_Date":"2020-01-21 12"},"coordinates":[4377,4463]},{"type":"Point","properties":{"Station_ID":"WI-PT-8","Station_Nam":"RUDOLPH 2.1 NNE, WI","Latitude":"44.52553","Longitude":"-89.78677","Snowdepth":"10.000","Units":"in","Rept_Date":"2020-01-21 11"},"coordinates":[1749,5563]},{"type":"Point","properties":{"Station_ID":"WI-PC-5","Station_Nam":"RIVER FALLS 1.2 SSW, WI","Latitude":"44.84032","Longitude":"-92.63500","Snowdepth":"10.000","Units":"in","Rept_Date":"2020-01-21 13"},"coordinates":[1080,5757]},{"type":"Point","properties":{"Station_ID":"WI-DR-5","Station_Nam":"ELLISON BAY 2.2 E, WI","Latitude":"45.25750","Longitude":"-87.02670","Snowdepth":"10.000","Units":"in","Rept_Date":"2020-01-21 13"},"coordinates":[2397,6014]},{"type":"Point","properties":{"Station_ID":"WELM4","Station_Nam":"WELLSTON TIPPY DAM","Latitude":"44.25860","Longitude":"-85.93940","Snowdepth":"10.000","Units":"in","Rept_Date":"2020-01-21 13"},"coordinates":[2652,5399]},