{"type":"Topology","objects":{"snowdepth_geo":{"type":"GeometryCollection","name":"snowdepth","crs":{"type":"name","properties":{"name":"urn:ogc:def:crs:OGC:1.3:CRS84"}},"geometries":[{"type":"Point","properties":{"Station_ID":"PRKM4","Station_Nam":"MUNISING EAST","Latitude":"46.42580","Longitude":"-86.62000","Snowdepth":"76.500","Units":"in","Rept_Date":"2021-02-13 06"},"coordinates":[2429,7371]},{"type":"Point","properties":{"Station_ID":"BENN6","Station_Nam":"BENNETTS BRIDGE","Latitude":"43.53180","Longitude":"-75.95260","Snowdepth":"51.000","Units":"in","Rept_Date":"2021-02-12 12"},"coordinates":[4868,5937]},{"type":"Point","properties":{"Station_ID":"MMNV1","Station_Nam":"MT. MANSFIELD","Latitude":"44.52480","Longitude":"-72.81540","Snowdepth":"48.000","Units":"in","Rept_Date":"2021-02-12 21"},"coordinates":[5586,6429]},{"type":"Point","properties":{"Station_ID":"PDLM4","Station_Nam":"PAINESDALE","Latitude":"47.04160","Longitude":"-88.67170","Snowdepth":"47.000","Units":"in","Rept_Date":"2021-02-12 13"},"coordinates":[1959,7676]},{"type":"Point","properties":{"Station_ID":"HTLN3","Station_Nam":"HERMIT LAKE SNOWPLOT","Latitude":"44.26130","Longitude":"-71.28330","Snowdepth":"45.000","Units":"in","Rept_Date":"2021-02-12 10"},"coordinates":[5936,6298]},{"type":"Point","properties":{"Station_ID":"KSGM4","Station_Nam":"KEARSARGE","Latitude":"47.27520","Longitude":"-88.41700","Snowdepth":"44.000","Units":"in","Rept_Date":"2021-02-12 13"},"coordinates":[2018,7792]},{"type":"Point","properties":{"Station_ID":"HLSN3","Station_Nam":"HERMIT LAKE SNOTEL","Latitude":"44.26130","Longitude":"-71.28320","Snowdepth":"39.760","Units":"in","Rept_Date":"2021-02-13 06"},"coordinates":[5936,6298]},{"type":"Point","properties":{"Station_ID":"QNCM4","Station_Nam":"QUINCY HILL","Latitude":"47.13640","Longitude":"-88.57950","Snowdepth":"38.000","Units":"in","Rept_Date":"2021-02-12 12"},"coordinates":[1980,7723]},{"type":"Point","properties":{"Station_ID":"MI-HG-20","Station_Nam":"CALUMET 1.1 SSW, MI","Latitude":"47.23165","Longitude":"-88.45823","Snowdepth":"37.000","Units":"in","Rept_Date":"2021-02-12 11"},"coordinates":[2008,7771]},{"type":"Point","properties":{"Station_ID":"HVCN3","Station_Nam":"HARVARD CABIN SNOWPLOT","Latitude":"44.26630","Longitude":"-71.27790","Snowdepth":"36.000","Units":"in","Rept_Date":"2021-02-12 10"},"coordinates":[5937,6301]},{"type":"Point","properties":{"Station_ID":"HGHN6","Station_Nam":"HIGHMARKET","Latitude":"43.60510","Longitude":"-75.55430","Snowdepth":"36.000","Units":"in","Rept_Date":"2021-02-12 11"},"coordinates":[4959,5973]},{"type":"Point","properties":{"Station_ID":"PTLQ6","Station_Nam":"PORTAGE LAKE","Latitude":"49.06950","Longitude":"-86.65940","Snowdepth":"32.870","Units":"in","Rept_Date":"2021-02-13 06"},"coordinates":[2420,8682]},{"type":"Point","properties":{"Station_ID":"NH-CS-10","Station_Nam":"RANDOLPH 1.4 NE, NH","Latitude":"44.38824","Longitude":"-71.26950","Snowdepth":"31.000","Units":"in","Rept_Date":"2021-02-12 12"},"coordinates":[5939,6361]},{"type":"Point","properties":{"Station_ID":"VT-BN-12","Station_Nam":"STAMFORD 5.0 NNE, VT","Latitude":"42.82000","Longitude":"-73.02000","Snowdepth":"29.000","Units":"in","Rept_Date":"2021-02-12 21"},"coordinates":[5539,5584]},{"type":"Point","properties":{"Station_ID":"PERV1","Station_Nam":"PERU","Latitude":"43.26670","Longitude":"-72.90000","Snowdepth":"29.000","Units":"in","Rept_Date":"2021-02-12 12"},"coordinates":[5566,5805]},{"type":"Point","properties":{"Station_ID":"BOON6","Station_Nam":"BOONVILLE 4 SSW","Latitude":"43.43610","Longitude":"-75.36970","Snowdepth":"29.000","Units":"in","Rept_Date":"2021-02-12 12"},"coordinates":[5002,5889]},{"type":"Point","properties":{"Station_ID":"MI-KW-2","Station_Nam":"DELAWARE 5.2 SW, MI","Latitude":"47.36928","Longitude":"-88.17919","Snowdepth":"28.000","Units":"in","Rept_Date":"2021-02-12 09"},"coordinates":[2072,7839]},{"type":"Point","properties":{"Station_ID":"EHYM3","Station_Nam":"EAST HAWLEY","Latitude":"42.57410","Longitude":"-72.86790","Snowdepth":"28.000","Units":"in","Rept_Date":"2021-02-12 13"},"coordinates":[5574,5462]},{"type":"Point","properties":{"Station_ID":"WV-PR-19","Station_Nam":"TERRA ALTA 3.3 ENE, WV","Latitude":"39.45929","Longitude":"-79.48470","Snowdepth":"27.800","Units":"in","Rept_Date":"2021-02-12 12"},"coordinates":[4061,3918]},{"type":"Point","properties":{"Station_ID":"DVLQ6","Station_Nam":"DEVIOUS LAKE","Latitude":"49.19890","Longitude":"-87.76440","Snowdepth":"27.760","Units":"in","Rept_Date":"2021-02-13 06"},"coordinates":[2167,8746]},{"type":"Point","properties":{"Station_ID":"TRIQ6","Station_Nam":"TRIO LAKE","Latitude":"49.22880","Longitude":"-87.22920","Snowdepth":"27.480","Units":"in","Rept_Date":"2021-02-13 06"},"coordinates":[2289,8761]},{"type":"Point","properties":{"Station_ID":"LBKV1","Station_Nam":"LYE BROOK","Latitude":"43.05000","Longitude":"-73.03330","Snowdepth":"27.000","Units":"in","Rept_Date":"2021-02-13 05"},"coordinates":[5536,5698]},{"type":"Point","properties":{"Station_ID":"NY-HR-18","Station_Nam":"SALISBURY CENTER 1.8 NW, NY","Latitude":"43.16260","Longitude":"-74.80880","Snowdepth":"26.500","Units":"in","Rept_Date":"2021-02-12 11"},"coordinates":[5130,5754]},{"type":"Point","properties":{"Station_ID":"WNDP1","Station_Nam":"WINDBER COUNTY CLUB","Latitude":"40.28780","Longitude":"-78.77530","Snowdepth":"26.000","Units":"in","Rept_Date":"2021-02-12 12"},"coordinates":[4223,4328]},{"type":"Point","properties":{"Station_ID":"VT-BN-3","Station_Nam":"LANDGROVE 1.1 NNE, VT","Latitude":"43.29092","Longitude":"-72.83260","Snowdepth":"26.000","Units":"in","Rept_Date":"2021-02-12 12"},"coordinates":[5582,5817]},{"type":"Point","properties":{"Station_ID":"MI-HG-1","Station_Nam":"HOUGHTON 1.6 ESE, MI","Latitude":"47.10774","Longitude":"-88.52940","Snowdepth":"26.000","Units":"in","Rept_Date":"2021-02-12 13"},"coordinates":[1992,7709]},{"type":"Point","properties":{"Station_ID":"AUDQ6","Station_Nam":"AUDEN","Latitude":"48.52600","Longitude":"-82.57570","Snowdepth":"25.080","Units":"in","Rept_Date":"2021-02-13 06"},"coordinates":[3354,8412]},{"type":"Point","properties":{"Station_ID":"ROWM3","Station_Nam":"ROWE 3NE","Latitude":"42.73500","Longitude":"-72.86920","Snowdepth":"25.000","Units":"in","Rept_Date":"2021-02-12 12"},"coordinates":[5574,5542]},{"type":"Point","properties":{"Station_ID":"NY-CL-12","Station_Nam":"SARANAC 0.8 SSE, NY","Latitude":"44.63980","Longitude":"-73.73848","Snowdepth":"25.000","Units":"in","Rept_Date":"2021-02-12 12"},"coordinates":[5375,6486]},{"type":"Point","properties":{"Station_ID":"MI-EM-8","Station_Nam":"PETOSKEY 1.7 SSW, MI","Latitude":"45.34209","Longitude":"-84.96530","Snowdepth":"25.000","Units":"in","Rept_Date":"2021-02-12 11"},"coordinates":[2807,6834]},{"type":"Point","properties":{"Station_ID":"JEFV1","Station_Nam":"JEFFERSONVILLE","Latitude":"44.58430","Longitude":"-72.78700","Snowdepth":"25.000","Units":"in","Rept_Date":"2021-02-12 12"},"coordinates":[5592,6458]},{"type":"Point","properties":{"Station_ID":"WHFN6","Station_Nam":"WILMINGTON 2W","Latitude":"44.39310","Longitude":"-73.85890","Snowdepth":"24.000","Units":"in","Rept_Date":"2021-02-12 13"},"coordinates":[5347,6364]},{"type":"Point","properties":{"Station_ID":"VT-WH-19","Station_Nam":"EAST DOVER 1.8 N, VT","Latitude":"42.97658","Longitude":"-72.77637","Snowdepth":"24.000","Units":"in","Rept_Date":"2021-02-12 11"},"coordinates":[5595,5661]},{"type":"Point","properties":{"Station_ID":"PROP1","Station_Nam":"PROMPTON DAM","Latitude":"41.58900","Longitude":"-75.33030","Snowdepth":"24.000","Units":"in","Rept_Date":"2021-02-12 12"},"coordinates":[5011,4973]},{"type":"Point","properties":{"Station_ID":"OCON6","Station_Nam":"OSCEOLA","Latitude":"43.50370","Longitude":"-75.72170","Snowdepth":"24.000","Units":"in","Rept_Date":"2021-02-12 13"},"coordinates":[4921,5923]},{"type":"Point","properties":{"Station_ID":"NY-LW-12","Station_Nam":"CHASES LAKE COOP, NY","Latitude":"43.75924","Longitude":"-75.29982","Snowdepth":"24.000","Units":"in","Rept_Date":"2021-02-12 11"},"coordinates":[5018,6049]},{"type":"Point","properties":{"Station_ID":"ME-FR-2","Station_Nam":"TEMPLE 1.8 W, ME","Latitude":"44.68329","Longitude":"-70.26420","Snowdepth":"24.000","Units":"in","Rept_Date":"2021-02-12 12"},"coordinates":[6169,6507]},{"type":"Point","properties":{"Station_ID":"HERM4","Station_Nam":"HERMAN,MI","Latitude":"46.65000","Longitude":"-88.33330","Snowdepth":"24.000","Units":"in","Rept_Date":"2021-02-12 13"},"coordinates":[2037,7482]},{"type":"Point","properties":{"Station_ID":"GHMN3","Station_Nam":"PINKHAM NOTCH","Latitude":"44.25800","Longitude":"-71.25250","Snowdepth":"24.000","Units":"in","Rept_Date":"2021-02-12 10"},"coordinates":[5943,6297]},{"type":"Point","properties":{"Station_ID":"GFDN6","Station_Nam":"CHASES LAKE","Latitude":"43.75920","Longitude":"-75.29980","Snowdepth":"24.000","Units":"in","Rept_Date":"2021-02-12 11"},"coordinates":[5018,6049]},{"type":"Point","properties":{"Station_ID":"VT-WR-17","Station_Nam":"ROCHESTER 2.3 NE, VT","Latitude":"43.89418","Longitude":"-72.76992","Snowdepth":"23.500","Units":"in","Rept_Date":"2021-02-12 12"},"coordinates":[5596,6116]},{"type":"Point","properties":{"Station_ID":"RFDM1","Station_Nam":"RUMFORD 7SW","Latitude":"44.49470","Longitude":"-70.65640","Snowdepth":"23.000","Units":"in","Rept_Date":"2021-02-12 14"},"coordinates":[6080,6414]},{"type":"Point","properties":{"Station_ID":"PTBN3","Station_Nam":"PITTSBURG RESERVOIR","Latitude":"45.04690","Longitude":"-71.38300","Snowdepth":"23.000","Units":"in","Rept_Date":"2021-02-12 12"},"coordinates":[5913,6688]},{"type":"Point","properties":{"Station_ID":"NY-HM-10","Station_Nam":"LAKE PLEASANT 2.3 WSW, NY","Latitude":"43.45490","Longitude":"-74.45287","Snowdepth":"23.000","Units":"in","Rept_Date":"2021-02-12 12"},"coordinates":[5211,5898]},{"type":"Point","properties":{"Station_ID":"NY-FK-9","Station_Nam":"GABRIELS 1.3 SE, NY","Latitude":"44.41934","Longitude":"-74.16194","Snowdepth":"23.000","Units":"in","Rept_Date":"2021-02-12 12"},"coordinates":[5278,6377]},{"type":"Point","properties":{"Station_ID":"LVDW3","Station_Nam":"LAC VIEUX DESERT","Latitude":"46.12110","Longitude":"-89.07580","Snowdepth":"23.000","Units":"in","Rept_Date":"2021-02-12 15"},"coordinates":[1867,7220]},{"type":"Point","properties":{"Station_ID":"LPLN6","Station_Nam":"LAKE PLACID 2 S","Latitude":"44.30420","Longitude":"-73.98390","Snowdepth":"23.000","Units":"in","Rept_Date":"2021-02-12 13"},"coordinates":[5319,6319]},{"type":"Point","properties":{"Station_ID":"NY-HM-1","Station_Nam":"SPECULATOR 10.0 SSW, NY","Latitude":"43.45133","Longitude":"-74.47120","Snowdepth":"22.500","Units":"in","Rept_Date":"2021-02-12 12"},"coordinates":[5207,5897]},{"type":"Point","properties":{"Station_ID":"NJ-SS-54","Station_Nam":"SPARTA TWP 3.6 SSW, NJ","Latitude":"41.00503","Longitude":"-74.66358","Snowdepth":"22.500","Units":"in","Rept_Date":"2021-02-12 12"},"coordinates":[5163,4684]},{"type":"Point","properties":{"Station_ID":"VT-WS-33","Station_Nam":"WAITSFIELD 3.5 WNW, VT","Latitude":"44.20052","Longitude":"-72.89421","Snowdepth":"22.000","Units":"in","Rept_Date":"2021-02-12 13"},"coordinates":[5568,6268]},{"type":"Point","properties":{"Station_ID":"NY-FK-7","Station_Nam":"SARANAC LAKE 6.2 N, NY","Latitude":"44.41359","Longitude":"-74.15211","Snowdepth":"22.000","Units":"in","Rept_Date":"2021-02-12 12"},"coordinates":[5280,6374]},{"type":"Point","properties":{"Station_ID":"NY-ES-11","Station_Nam":"VERMONTVILLE 2.8 S, NY","Latitude":"44.41205","Longitude":"-74.06760","Snowdepth":"22.000","Units":"in","Rept_Date":"2021-02-12 12"},"coordinates":[5299,6373]},{"type":"Point","properties":{"Station_ID":"NH-MR-41","Station_Nam":"NEWBURY 1.6 NW, NH","Latitude":"43.33667","Longitude":"-72.06060","Snowdepth":"22.000","Units":"in","Rept_Date":"2021-02-12 12"},"coordinates":[5758,5840]},{"type":"Point","properties":{"Station_ID":"NGLW3","Station_Nam":"NEW GLARUS","Latitude":"42.83500","Longitude":"-89.62080","Snowdepth":"22.000","Units":"in","Rept_Date":"2021-02-12 13"},"coordinates":[1742,5591]},{"type":"Point","properties":{"Station_ID":"MA-HS-7","Station_Nam":"PLAINFIELD 2.2 SW, MA","Latitude":"42.49272","Longitude":"-72.94540","Snowdepth":"22.000","Units":"in","Rept_Date":"2021-02-12 13"},"coordinates":[5556,5421]},{"type":"Point","properties":{"Station_ID":"HRTM1","Station_Nam":"HARTFORD","Latitude":"44.37440","Longitude":"-70.31620","Snowdepth":"22.000","Units":"in","Rept_Date":"2021-02-12 12"},"coordinates":[6157,6354]},{"type":"Point","properties":{"Station_ID":"FISM1","Station_Nam":"FORT KENT COOP","Latitude":"47.23850","Longitude":"-68.61240","Snowdepth":"22.000","Units":"in","Rept_Date":"2021-02-12 12"},"coordinates":[6547,7774]},{"type":"Point","properties":{"Station_ID":"VT-WR-2","Station_Nam":"POMFRET 2.6 N, VT","Latitude":"43.74230","Longitude":"-72.52550","Snowdepth":"21.500","Units":"in","Rept_Date":"2021-02-12 12"},"coordinates":[5652,6041]},{"type":"Point","properties":{"Station_ID":"ME-SM-45","Station_Nam":"BRIGHTON PLANTATION 2.1 N, ME","Latitude":"45.07098","Longitude":"-69.69860","Snowdepth":"21.500","Units":"in","Rept_Date":"2021-02-12 12"},"coordinates":[6299,6700]},{"type":"Point","properties":{"Station_ID":"MA-WR-56","Station_Nam":"STERLING 4.3 NW, MA","Latitude":"42.47540","Longitude":"-71.81140","Snowdepth":"21.500","Units":"in","Rept_Date":"2021-02-12 12"},"coordinates":[5815,5413]},{"type":"Point","properties":{"Station_ID":"CAN-NL-82","Station_Nam":"GANDER 2.7 NW, CAN","Latitude":"48.97737","Longitude":"-54.63396","Snowdepth":"21.300","Units":"in","Rept_Date":"2021-02-12 10"},"coordinates":[9744,8636]},{"type":"Point","properties":{"Station_ID":"WLFM5","Station_Nam":"WOLF RIDGE ENVIRON LEARNING CENTER","Latitude":"47.38240","Longitude":"-91.19730","Snowdepth":"21.000","Units":"in","Rept_Date":"2021-02-12 13"},"coordinates":[1382,7845]},{"type":"Point","properties":{"Station_ID":"WAIV1","Station_Nam":"WAITSFIELD","Latitude":"44.17560","Longitude":"-72.79610","Snowdepth":"21.000","Units":"in","Rept_Date":"2021-02-12 12"},"coordinates":[5590,6256]},{"type":"Point","properties":{"Station_ID":"VT-WS-19","Station_Nam":"WATERBURY 3.0 NW, VT","Latitude":"44.36060","Longitude":"-72.80770","Snowdepth":"21.000","Units":"in","Rept_Date":"2021-02-12 11"},"coordinates":[5588,6347]},{"type":"Point","properties":{"Station_ID":"VT-WS-11","Station_Nam":"WAITSFIELD 1.8 SE, VT","Latitude":"44.17551","Longitude":"-72.79540","Snowdepth":"21.000","Units":"in","Rept_Date":"2021-02-12 12"},"coordinates":[5590,6256]},{"type":"Point","properties":{"Station_ID":"VT-WH-30","Station_Nam":"MARLBORO 2.0 NNE, VT","Latitude":"42.88484","Longitude":"-72.70935","Snowdepth":"21.000","Units":"in","Rept_Date":"2021-02-12 13"},"coordinates":[5610,5616]},{"type":"Point","properties":{"Station_ID":"VT-OL-1","Station_Nam":"WESTFIELD 0.7 WNW, VT","Latitude":"44.89160","Longitude":"-72.44350","Snowdepth":"21.000","Units":"in","Rept_Date":"2021-02-12 12"},"coordinates":[5671,6611]},{"type":"Point","properties":{"Station_ID":"RKHN6","Station_Nam":"ROCK HILL 3 SW","Latitude":"41.59170","Longitude":"-74.61410","Snowdepth":"21.000","Units":"in","Rept_Date":"2021-02-12 13"},"coordinates":[5174,4975]},{"type":"Point","properties":{"Station_ID":"NY-OD-2","Station_Nam":"POINT ROCK 0.6 SE, NY","Latitude":"43.37335","Longitude":"-75.53840","Snowdepth":"21.000","Units":"in","Rept_Date":"2021-02-12 13"},"coordinates":[4963,5858]},{"type":"Point","properties":{"Station_ID":"NH-CR-26","Station_Nam":"CENTER SANDWICH 4.9 E, NH","Latitude":"43.80976","Longitude":"-71.34150","Snowdepth":"21.000","Units":"in","Rept_Date":"2021-02-12 12"},"coordinates":[5923,6074]},{"type":"Point","properties":{"Station_ID":"NE-SN-3","Station_Nam":"WESTON 0.2 ENE, NE","Latitude":"41.19322","Longitude":"-96.73740","Snowdepth":"21.000","Units":"in","Rept_Date":"2021-02-12 13"},"coordinates":[115,4777]},{"type":"Point","properties":{"Station_ID":"MRLV1","Station_Nam":"MARLBORO","Latitude":"42.86000","Longitude":"-72.72000","Snowdepth":"21.000","Units":"in","Rept_Date":"2021-02-12 13"},"coordinates":[5608,5604]},{"type":"Point","properties":{"Station_ID":"MONW3","Station_Nam":"MONROE,WI","Latitude":"42.60000","Longitude":"-89.66670","Snowdepth":"21.000","Units":"in","Rept_Date":"2021-02-12 13"},"coordinates":[1732,5475]},{"type":"Point","properties":{"Station_ID":"MALN6","Station_Nam":"MALONE","Latitude":"44.84180","Longitude":"-74.30600","Snowdepth":"21.000","Units":"in","Rept_Date":"2021-02-12 12"},"coordinates":[5245,6586]},{"type":"Point","properties":{"Station_ID":"LAUP1","Station_Nam":"1.5MI S OF RT 30 ON SMIT (LAUREL RIDGE)","Latitude":"40.05000","Longitude":"-79.22060","Snowdepth":"21.000","Units":"in","Rept_Date":"2021-02-12 12"},"coordinates":[4121,4211]},{"type":"Point","properties":{"Station_ID":"IL-SP-27","Station_Nam":"DAVIS 2.7 N, IL","Latitude":"42.46110","Longitude":"-89.40890","Snowdepth":"21.000","Units":"in","Rept_Date":"2021-02-12 13"},"coordinates":[1791,5406]},{"type":"Point","properties":{"Station_ID":"ESDN3","Station_Nam":"EAST SANDWICH","Latitude":"43.80990","Longitude":"-71.34250","Snowdepth":"21.000","Units":"in","Rept_Date":"2021-02-12 11"},"coordinates":[5923,6074]},{"type":"Point","properties":{"Station_ID":"CHRM4","Station_Nam":"CHARLEVOIX","Latitude":"45.31720","Longitude":"-85.26720","Snowdepth":"21.000","Units":"in","Rept_Date":"2021-02-12 13"},"coordinates":[2738,6822]},{"type":"Point","properties":{"Station_ID":"VT-WS-30","Station_Nam":"WOODBURY 3.4 NNW, VT","Latitude":"44.48825","Longitude":"-72.43258","Snowdepth":"20.500","Units":"in","Rept_Date":"2021-02-12 12"},"coordinates":[5673,6411]},{"type":"Point","properties":{"Station_ID":"PA-MN-16","Station_Nam":"MOUNT POCONO 0.7 N, PA","Latitude":"41.13190","Longitude":"-75.35804","Snowdepth":"20.500","Units":"in","Rept_Date":"2021-02-12 12"},"coordinates":[5004,4747]},{"type":"Point","properties":{"Station_ID":"MI-BG-3","Station_Nam":"THREE LAKES, MI","Latitude":"46.55730","Longitude":"-88.20770","Snowdepth":"20.400","Units":"in","Rept_Date":"2021-02-12 13"},"coordinates":[2065,7436]},{"type":"Point","properties":{"Station_ID":"IL-CK-193","Station_Nam":"WINNETKA 0.8 ESE, IL","Latitude":"42.10164","Longitude":"-87.72900","Snowdepth":"20.400","Units":"in","Rept_Date":"2021-02-12 14"},"coordinates":[2175,5228]},{"type":"Point","properties":{"Station_ID":"VT-BN-7","Station_Nam":"MANCHESTER 2.8 ENE, VT","Latitude":"43.17274","Longitude":"-73.01811","Snowdepth":"20.000","Units":"in","Rept_Date":"2021-02-12 12"},"coordinates":[5539,5759]},{"type":"Point","properties":{"Station_ID":"VT-AD-20","Station_Nam":"HANCOCK 0.3 S, VT","Latitude":"43.92166","Longitude":"-72.84042","Snowdepth":"20.000","Units":"in","Rept_Date":"2021-02-12 12"},"coordinates":[5580,6130]},{"type":"Point","properties":{"Station_ID":"SPRP1","Station_Nam":"SPRINGTOWN 1 NNE","Latitude":"40.57110","Longitude":"-75.27810","Snowdepth":"20.000","Units":"in","Rept_Date":"2021-02-12 12"},"coordinates":[5023,4469]},{"type":"Point","properties":{"Station_ID":"PHON6","Station_Nam":"PHOENICIA 2SW","Latitude":"42.06420","Longitude":"-74.34080","Snowdepth":"20.000","Units":"in","Rept_Date":"2021-02-12 12"},"coordinates":[5237,5209]},{"type":"Point","properties":{"Station_ID":"PEKN6","Station_Nam":"PECK LAKE","Latitude":"43.11500","Longitude":"-74.42360","Snowdepth":"20.000","Units":"in","Rept_Date":"2021-02-12 12"},"coordinates":[5218,5730]},{"type":"Point","properties":{"Station_ID":"OKLM2","Station_Nam":"SINES DEEP CREEK LAKE","Latitude":"39.52270","Longitude":"-79.41310","Snowdepth":"20.000","Units":"in","Rept_Date":"2021-02-12 11"},"coordinates":[4077,3949]},{"type":"Point","properties":{"Station_ID":"NY-ES-6","Station_Nam":"OLMSTEDVILLE 4.6 NNE, NY","Latitude":"43.83350","Longitude":"-73.89780","Snowdepth":"20.000","Units":"in","Rept_Date":"2021-02-12 13"},"coordinates":[5338,6086]},{"type":"Point","properties":{"Station_ID":"NY-BM-21","Station_Nam":"WINDSOR 8.0 SE, NY","Latitude":"42.00992","Longitude":"-75.51420","Snowdepth":"20.000","Units":"in","Rept_Date":"2021-02-12 12"},"coordinates":[4969,5182]},{"type":"Point","properties":{"Station_ID":"NUNV1","Station_Nam":"NORTH UNDERHILL","Latitude":"44.58760","Longitude":"-72.92150","Snowdepth":"20.000","Units":"in","Rept_Date":"2021-02-12 12"},"coordinates":[5562,6460]},{"type":"Point","properties":{"Station_ID":"NCBN6","Station_Nam":"NEWCOMB","Latitude":"43.97070","Longitude":"-74.22200","Snowdepth":"20.000","Units":"in","Rept_Date":"2021-02-12 12"},"coordinates":[5264,6154]},{"type":"Point","properties":{"Station_ID":"MNSM4","Station_Nam":"MUNISING","Latitude":"46.41210","Longitude":"-86.66250","Snowdepth":"20.000","Units":"in","Rept_Date":"2021-02-12 11"},"coordinates":[2419,7364]},{"type":"Point","properties":{"Station_ID":"LOWN6","Station_Nam":"LOWVILLE","Latitude":"43.79280","Longitude":"-75.48290","Snowdepth":"20.000","Units":"in","Rept_Date":"2021-02-12 12"},"coordinates":[4976,6066]},{"type":"Point","properties":{"Station_ID":"IWOM4","Station_Nam":"IRONWOOD#2","Latitude":"46.46520","Longitude":"-90.13820","Snowdepth":"20.000","Units":"in","Rept_Date":"2021-02-12 13"},"coordinates":[1624,7391]},{"type":"Point","properties":{"Station_ID":"IL-DP-155","Station_Nam":"MEDINAH 1.0 SSW, IL","Latitude":"41.96360","Longitude":"-88.06590","Snowdepth":"20.000","Units":"in","Rept_Date":"2021-02-12 14"},"coordinates":[2098,5159]},{"type":"Point","properties":{"Station_ID":"HURW3","Station_Nam":"HURLEY","Latitude":"46.46250","Longitude":"-90.19550","Snowdepth":"20.000","Units":"in","Rept_Date":"2021-02-12 14"},"coordinates":[1611,7389]},{"type":"Point","properties":{"Station_ID":"FARM1","Station_Nam":"FARMINGTON","Latitude":"44.68930","Longitude":"-70.15640","Snowdepth":"20.000","Units":"in","Rept_Date":"2021-02-12 12"},"coordinates":[6194,6510]},{"type":"Point","properties":{"Station_ID":"CAN-NB-11","Station_Nam":"MIRAMICHI 3.3 S, CAN","Latitude":"46.99343","Longitude":"-65.50690","Snowdepth":"20.000","Units":"in","Rept_Date":"2021-02-12 10"},"coordinates":[7257,7653]},{"type":"Point","properties":{"Station_ID":"BKBW2","Station_Nam":"DAVIS.","Latitude":"39.09830","Longitude":"-79.43190","Snowdepth":"20.000","Units":"in","Rept_Date":"2021-02-12 12"},"coordinates":[4073,3739]},{"type":"Point","properties":{"Station_ID":"VT-CH-4","Station_Nam":"UNDERHILL 4.4 NNE, VT","Latitude":"44.58774","Longitude":"-72.92250","Snowdepth":"19.500","Units":"in","Rept_Date":"2021-02-12 12"},"coordinates":[5561,6460]},{"type":"Point","properties":{"Station_ID":"WI-VL-9","Station_Nam":"LAND O' LAKES 11.7 W, WI","Latitude":"46.19023","Longitude":"-89.45790","Snowdepth":"19.000","Units":"in","Rept_Date":"2021-02-12 13"},"coordinates":[1780,7254]},{"type":"Point","properties":{"Station_ID":"WI-MW-46","Station_Nam":"WAUWATOSA 1.9 E, WI","Latitude":"43.05863","Longitude":"-87.99600","Snowdepth":"19.000","Units":"in","Rept_Date":"2021-02-12 13"},"coordinates":[2114,5702]},{"type":"Point","properties":{"Station_ID":"WELM4","Station_Nam":"WELLSTON TIPPY DAM","Latitude":"44.25860","Longitude":"-85.93940","Snowdepth":"19.000","Units":"in","Rept_Date":"2021-02-12 13"},"coordinates":[2584,6297]},{"type":"Point","properties":{"Station_ID":"STOI2","Station_Nam":"STOCKTON 3 NNE","Latitude":"42.40050","Longitude":"-89.99580","Snowdepth":"19.000","Units":"in","Rept_Date":"2021-02-13 03"},"coordinates":[1657,5376]},{"type":"Point","properties":{"Station_ID":"SNYI4","Station_Nam":"STANLEY","Latitude":"42.63330","Longitude":"-91.86320","Snowdepth":"19.000","Units":"in","Rept_Date":"2021-02-12 13"},"coordinates":[1229,5491]},{"type":"Point","properties":{"Station_ID":"PRDM4","Station_Nam":"PARADISE","Latitude":"46.60380","Longitude":"-85.03960","Snowdepth":"19.000","Units":"in","Rept_Date":"2021-02-12 11"},"coordinates":[2790,7459]},{"type":"Point","properties":{"Station_ID":"PLEP1","Station_Nam":"PLEASANT MOUNT 1 W","Latitude":"41.73940","Longitude":"-75.44650","Snowdepth":"19.000","Units":"in","Rept_Date":"2021-02-12 14"},"coordinates":[4984,5048]},{"type":"Point","properties":{"Station_ID":"PA-PK-22","Station_Nam":"MILFORD 8.7 NW, PA","Latitude":"41.42018","Longitude":"-74.90953","Snowdepth":"19.000","Units":"in","Rept_Date":"2021-02-12 12"},"coordinates":[5107,4890]},{"type":"Point","properties":{"Station_ID":"NJ-WR-1","Station_Nam":"GREENWICH TWP 1.6 S, NJ","Latitude":"40.65545","Longitude":"-75.11670","Snowdepth":"19.000","Units":"in","Rept_Date":"2021-02-12 12"},"coordinates":[5060,4511]},{"type":"Point","properties":{"Station_ID":"NH-CS-4","Station_Nam":"PITTSBURG 6.1 NE, NH","Latitude":"45.11060","Longitude":"-71.29760","Snowdepth":"19.000","Units":"in","Rept_Date":"2021-02-12 12"},"coordinates":[5933,6719]},{"type":"Point","properties":{"Station_ID":"NH-CS-19","Station_Nam":"CARROLL 4.6 NE, NH","Latitude":"44.33765","Longitude":"-71.46461","Snowdepth":"19.000","Units":"in","Rept_Date":"2021-02-12 12"},"coordinates":[5895,6336]},{"type":"Point","properties":{"Station_ID":"MHRI4","Station_Nam":"MANCHESTER #2","Latitude":"42.47320","Longitude":"-91.45160","Snowdepth":"19.000","Units":"in","Rept_Date":"2021-02-12 13"},"coordinates":[1324,5412]},{"type":"Point","properties":{"Station_ID":"LVRM1","Station_Nam":"LIVERMORE FALLS 1 E","Latitude":"44.47160","Longitude":"-70.15940","Snowdepth":"19.000","Units":"in","Rept_Date":"2021-02-12 12"},"coordinates":[6193,6402]},{"type":"Point","properties":{"Station_ID":"LNOW3","Station_Nam":"LAND O LAKES","Latitude":"46.19000","Longitude":"-89.45700","Snowdepth":"19.000","Units":"in","Rept_Date":"2021-02-12 13"},"coordinates":[1780,7254]},{"type":"Point","properties":{"Station_ID":"JOHV1","Station_Nam":"JOHNSON 2 N","Latitude":"44.65790","Longitude":"-72.67850","Snowdepth":"19.000","Units":"in","Rept_Date":"2021-02-12 12"},"coordinates":[5617,6495]},{"type":"Point","properties":{"Station_ID":"JCBM4","Station_Nam":"JACOBSVILLE","Latitude":"47.00830","Longitude":"-88.43180","Snowdepth":"19.000","Units":"in","Rept_Date":"2021-02-12 12"},"coordinates":[2014,7660]},{"type":"Point","properties":{"Station_ID":"IL-JD-8","Station_Nam":"STOCKTON 3.4 NNE, IL","Latitude":"42.39960","Longitude":"-89.99020","Snowdepth":"19.000","Units":"in","Rept_Date":"2021-02-12 13"},"coordinates":[1658,5375]},{"type":"Point","properties":{"Station_ID":"GERW3","Station_Nam":"GERMANTOWN,WI","Latitude":"43.21670","Longitude":"-88.11670","Snowdepth":"19.000","Units":"in","Rept_Date":"2021-02-12 13"},"coordinates":[2086,5780]},{"type":"Point","properties":{"Station_ID":"FVLN6","Station_Nam":"FREEVILLE,NY","Latitude":"42.51670","Longitude":"-76.33330","Snowdepth":"19.000","Units":"in","Rept_Date":"2021-02-12 13"},"coordinates":[4781,5433]},{"type":"Point","properties":{"Station_ID":"EJNM4","Station_Nam":"EAST JORDAN 2NW","Latitude":"45.18630","Longitude":"-85.14770","Snowdepth":"19.000","Units":"in","Rept_Date":"2021-02-12 13"},"coordinates":[2765,6757]},{"type":"Point","properties":{"Station_ID":"CAN-ON-757","Station_Nam":"SAULT STE. MARIE 2.8 ESE - GLFC, CAN","Latitude":"46.50300","Longitude":"-84.30300","Snowdepth":"19.000","Units":"in","Rept_Date":"2021-02-12 13"},"coordinates":[2959,7409]},{"type":"Point","properties":{"Station_ID":"BAYW2","Station_Nam":"BAYARD COOP","Latitude":"39.27280","Longitude":"-79.36830","Snowdepth":"19.000","Units":"in","Rept_Date":"2021-02-12 12"},"coordinates":[4087,3825]},{"type":"Point","properties":{"Station_ID":"OGIQ6","Station_Nam":"OGOKI CAMP","Latitude":"50.76680","Longitude":"-87.85820","Snowdepth":"18.820","Units":"in","Rept_Date":"2021-02-13 06"},"coordinates":[2145,9523]},{"type":"Point","properties":{"Station_ID":"WI-BY-29","Station_Nam":"BAYFIELD 5.1 NNW, WI","Latitude":"46.88063","Longitude":"-90.85854","Snowdepth":"18.500","Units":"in","Rept_Date":"2021-02-12 14"},"coordinates":[1459,7597]},{"type":"Point","properties":{"Station_ID":"NY-TM-45","Station_Nam":"NEWFIELD HAMLET 4.3 S, NY","Latitude":"42.29650","Longitude":"-76.60676","Snowdepth":"18.500","Units":"in","Rept_Date":"2021-02-12 14"},"coordinates":[4719,5324]},{"type":"Point","properties":{"Station_ID":"NY-OS-15","Station_Nam":"MINETTO 0.1 SE, NY","Latitude":"43.39771","Longitude":"-76.47960","Snowdepth":"18.500","Units":"in","Rept_Date":"2021-02-12 13"},"coordinates":[4748,5870]},{"type":"Point","properties":{"Station_ID":"NJ-SS-1","Station_Nam":"ANDOVER TWP 1.7 W, NJ","Latitude":"41.01974","Longitude":"-74.76110","Snowdepth":"18.500","Units":"in","Rept_Date":"2021-02-12 12"},"coordinates":[5141,4691]},{"type":"Point","properties":{"Station_ID":"NJ-MS-94","Station_Nam":"JEFFERSON TWP 4.4 SW, NJ","Latitude":"40.96404","Longitude":"-74.62162","Snowdepth":"18.500","Units":"in","Rept_Date":"2021-02-12 12"},"coordinates":[5173,4664]},{"type":"Point","properties":{"Station_ID":"MI-CX-7","Station_Nam":"EAST JORDAN 2.1 NNW, MI","Latitude":"45.18639","Longitude":"-85.14750","Snowdepth":"18.500","Units":"in","Rept_Date":"2021-02-12 13"},"coordinates":[2765,6757]},{"type":"Point","properties":{"Station_ID":"MA-ES-48","Station_Nam":"ANDOVER 0.6 E, MA","Latitude":"42.65659","Longitude":"-71.13048","Snowdepth":"18.500","Units":"in","Rept_Date":"2021-02-12 10"},"coordinates":[5971,5503]},{"type":"Point","properties":{"Station_ID":"IL-LE-22","Station_Nam":"AMBOY 0.5 SSW, IL","Latitude":"41.71016","Longitude":"-89.33695","Snowdepth":"18.500","Units":"in","Rept_Date":"2021-02-12 12"},"coordinates":[1807,5034]},{"type":"Point","properties":{"Station_ID":"CAN-ON-245","Station_Nam":"PHELPSTON 3.1 ESE, CAN","Latitude":"44.50564","Longitude":"-79.81035","Snowdepth":"18.500","Units":"in","Rept_Date":"2021-02-12 12"},"coordinates":[3986,6419]},{"type":"Point","properties":{"Station_ID":"IA-BC-9","Station_Nam":"WINTHROP 5.6 NNE, IA","Latitude":"42.55206","Longitude":"-91.70663","Snowdepth":"18.400","Units":"in","Rept_Date":"2021-02-12 15"},"coordinates":[1265,5451]},{"type":"Point","properties":{"Station_ID":"SOCQ6","Station_Nam":"SOCKET LAKE","Latitude":"50.77870","Longitude":"-91.79300","Snowdepth":"18.230","Units":"in","Rept_Date":"2021-02-13 06"},"coordinates":[1245,9529]},{"type":"Point","properties":{"Station_ID":"KABQ6","Station_Nam":"CAB LAKE","Latitude":"49.59950","Longitude":"-89.17990","Snowdepth":"18.070","Units":"in","Rept_Date":"2021-02-13 06"},"coordinates":[1843,8944]},{"type":"Point","properties":{"Station_ID":"WTRM4","Station_Nam":"WATERSMEET 12WSW","Latitude":"46.22310","Longitude":"-89.40850","Snowdepth":"18.000","Units":"in","Rept_Date":"2021-02-12 13"},"coordinates":[1791,7271]},{"type":"Point","properties":{"Station_ID":"WTNM4","Station_Nam":"WATTON 2WSW","Latitude":"46.52660","Longitude":"-88.64240","Snowdepth":"18.000","Units":"in","Rept_Date":"2021-02-12 13"},"coordinates":[1966,7421]},{"type":"Point","properties":{"Station_ID":"WI-RC-3","Station_Nam":"RACINE 2.3 WSW, WI","Latitude":"42.71124","Longitude":"-87.84570","Snowdepth":"18.000","Units":"in","Rept_Date":"2021-02-12 13"},"coordinates":[2148,5530]},{"type":"Point","properties":{"Station_ID":"WI-PC-25","Station_Nam":"ELLSWORTH 2.6 SW, WI","Latitude":"44.71119","Longitude":"-92.51849","Snowdepth":"18.000","Units":"in","Rept_Date":"2021-02-12 13"},"coordinates":[1080,6521]},{"type":"Point","properties":{"Station_ID":"VT-WS-10","Station_Nam":"NORTHFIELD 1.5 N, VT","Latitude":"44.16986","Longitude":"-72.65200","Snowdepth":"18.000","Units":"in","Rept_Date":"2021-02-12 12"},"coordinates":[5623,6253]},{"type":"Point","properties":{"Station_ID":"VT-WR-10","Station_Nam":"WEST WINDSOR 1.7 S, VT","Latitude":"43.46164","Longitude":"-72.49197","Snowdepth":"18.000","Units":"in","Rept_Date":"2021-02-12 12"},"coordinates":[5660,5902]},{"type":"Point","properties":{"Station_ID":"SUAW3","Station_Nam":"SUAMICO","Latitude":"44.60190","Longitude":"-88.09780","Snowdepth":"18.000","Units":"in","Rept_Date":"2021-02-12 12"},"coordinates":[2091,6467]},{"type":"Point","properties":{"Station_ID":"SSMM4","Station_Nam":"SAULT STE MARIE","Latitude":"46.48660","Longitude":"-84.40250","Snowdepth":"18.000","Units":"in","Rept_Date":"2021-02-12 13"},"coordinates":[2936,7401]},{"type":"Point","properties":{"Station_ID":"SNOW2","Station_Nam":"SNOWSHOE","Latitude":"38.39900","Longitude":"-79.99490","Snowdepth":"18.000","Units":"in","Rept_Date":"2021-02-12 11"},"coordinates":[3944,3392]},{"type":"Point","properties":{"Station_ID":"RANM1","Station_Nam":"RANGELEY","Latitude":"44.98910","Longitude":"-70.67190","Snowdepth":"18.000","Units":"in","Rept_Date":"2021-02-12 11"},"coordinates":[6076,6659]},{"type":"Point","properties":{"Station_ID":"PA-CB-33","Station_Nam":"LAKE HARMONY 2.4 WNW, PA","Latitude":"41.07333","Longitude":"-75.63317","Snowdepth":"18.000","Units":"in","Rept_Date":"2021-02-12 12"},"coordinates":[4941,4718]},{"type":"Point","properties":{"Station_ID":"NY-WC-37","Station_Nam":"YORKTOWN HEIGHTS 1.6 E, NY","Latitude":"41.26961","Longitude":"-73.75164","Snowdepth":"18.000","Units":"in","Rept_Date":"2021-02-12 13"},"coordinates":[5372,4815]},{"type":"Point","properties":{"Station_ID":"NY-SR-22","Station_Nam":"GREENFIELD CENTER 1.6 W, NY","Latitude":"43.12684","Longitude":"-73.87860","Snowdepth":"18.000","Units":"in","Rept_Date":"2021-02-12 12"},"coordinates":[5343,5736]},{"type":"Point","properties":{"Station_ID":"NY-MD-10","Station_Nam":"CAZENOVIA 2.9 SE, NY","Latitude":"42.90003","Longitude":"-75.81140","Snowdepth":"18.000","Units":"in","Rept_Date":"2021-02-12 12"},"coordinates":[4901,5623]},{"type":"Point","properties":{"Station_ID":"NY-ER-56","Station_Nam":"COLDEN 1.4 NNW, NY","Latitude":"42.64740","Longitude":"-78.71120","Snowdepth":"18.000","Units":"in","Rept_Date":"2021-02-12 12"},"coordinates":[4237,5498]},{"type":"Point","properties":{"Station_ID":"NVLV1","Station_Nam":"NASHVILLE","Latitude":"44.44970","Longitude":"-72.92640","Snowdepth":"18.000","Units":"in","Rept_Date":"2021-02-12 12"},"coordinates":[5560,6392]},{"type":"Point","properties":{"Station_ID":"NJ-SS-7","Station_Nam":"HARDYSTON TWP 3.2 SE, NJ","Latitude":"41.08903","Longitude":"-74.53990","Snowdepth":"18.000","Units":"in","Rept_Date":"2021-02-12 12"},"coordinates":[5191,4726]},{"type":"Point","properties":{"Station_ID":"NJ-SS-60","Station_Nam":"VERNON TWP 2.7 SSE, NJ","Latitude":"41.16332","Longitude":"-74.45938","Snowdepth":"18.000","Units":"in","Rept_Date":"2021-02-12 10"},"coordinates":[5210,4762]},{"type":"Point","properties":{"Station_ID":"NFKC3","Station_Nam":"NORFOLK","Latitude":"41.97250","Longitude":"-73.22080","Snowdepth":"18.000","Units":"in","Rept_Date":"2021-02-12 13"},"coordinates":[5493,5164]},{"type":"Point","properties":{"Station_ID":"MQT","Station_Nam":"MARQUETTE, MI","Latitude":"46.53140","Longitude":"-87.54920","Snowdepth":"18.000","Units":"in","Rept_Date":"2021-02-13 06"},"coordinates":[2216,7424]},{"type":"Point","properties":{"Station_ID":"MN-IS-18","Station_Nam":"BRAHAM 0.7 SW, MN","Latitude":"45.71379","Longitude":"-93.18095","Snowdepth":"18.000","Units":"in","Rept_Date":"2021-02-12 14"},"coordinates":[928,7018]},{"type":"Point","properties":{"Station_ID":"MIEM4","Station_Nam":"MICHIGAMME 3WNW","Latitude":"46.54530","Longitude":"-88.18000","Snowdepth":"18.000","Units":"in","Rept_Date":"2021-02-12 13"},"coordinates":[2072,7430]},{"type":"Point","properties":{"Station_ID":"LNCM1","Station_Nam":"LINCOLN WATER DISTRICT","Latitude":"45.32410","Longitude":"-68.58300","Snowdepth":"18.000","Units":"in","Rept_Date":"2021-02-12 12"},"coordinates":[6554,6825]},{"type":"Point","properties":{"Station_ID":"INDN6","Station_Nam":"INDIAN LAKE","Latitude":"43.75500","Longitude":"-74.27560","Snowdepth":"18.000","Units":"in","Rept_Date":"2021-02-12 13"},"coordinates":[5252,6047]},{"type":"Point","properties":{"Station_ID":"IL-LK-69","Station_Nam":"HIGHWOOD 0.9 S, IL","Latitude":"42.19841","Longitude":"-87.81400","Snowdepth":"18.000","Units":"in","Rept_Date":"2021-02-12 13"},"coordinates":[2156,5276]},{"type":"Point","properties":{"Station_ID":"HVJP1","Station_Nam":"HIDDEN VALLEY COOP","Latitude":"40.04200","Longitude":"-79.25660","Snowdepth":"18.000","Units":"in","Rept_Date":"2021-02-12 13"},"coordinates":[4113,4207]},{"type":"Point","properties":{"Station_ID":"HGHN4","Station_Nam":"HIGHLAND LAKES 1SW","Latitude":"41.16330","Longitude":"-74.45930","Snowdepth":"18.000","Units":"in","Rept_Date":"2021-02-12 11"},"coordinates":[5210,4762]},{"type":"Point","properties":{"Station_ID":"CODN6","Station_Nam":"COLDEN","Latitude":"42.64720","Longitude":"-78.71110","Snowdepth":"18.000","Units":"in","Rept_Date":"2021-02-12 12"},"coordinates":[4237,5498]},{"type":"Point","properties":{"Station_ID":"CLUI4","Station_Nam":"CLUTIER,IA","Latitude":"42.08330","Longitude":"-92.40000","Snowdepth":"18.000","Units":"in","Rept_Date":"2021-02-12 13"},"coordinates":[1107,5219]},{"type":"Point","properties":{"Station_ID":"CLQM5","Station_Nam":"CLOQUET","Latitude":"46.70470","Longitude":"-92.52530","Snowdepth":"18.000","Units":"in","Rept_Date":"2021-02-12 14"},"coordinates":[1078,7509]},{"type":"Point","properties":{"Station_ID":"CAN-NS-39","Station_Nam":"ST. ANNS 2.8 NW, CA","Latitude":"46.25082","Longitude":"-60.64340","Snowdepth":"18.000","Units":"in","Rept_Date":"2021-02-12 13"},"coordinates":[8370,7284]},{"type":"Point","properties":{"Station_ID":"AVLV1","Station_Nam":"AVERILL","Latitude":"45.00570","Longitude":"-71.69030","Snowdepth":"18.000","Units":"in","Rept_Date":"2021-02-12 13"},"coordinates":[5843,6667]},{"type":"Point","properties":{"Station_ID":"ANJM4","Station_Nam":"SNOW PAID OBSERVER FOR KANJ","Latitude":"46.48670","Longitude":"-84.40260","Snowdepth":"18.000","Units":"in","Rept_Date":"2021-02-12 18"},"coordinates":[2936,7401]},{"type":"Point","properties":{"Station_ID":"ANJ","Station_Nam":"SAULT STE MARIE","Latitude":"46.46670","Longitude":"-84.36670","Snowdepth":"18.000","Units":"in","Rept_Date":"2021-02-12 12"},"coordinates":[2944,7391]},{"type":"Point","properties":{"Station_ID":"WI-BY-14","Station_Nam":"ASHLAND 9.8 W, WI","Latitude":"46.59742","Longitude":"-91.07856","Snowdepth":"17.500","Units":"in","Rept_Date":"2021-02-12 12"},"coordinates":[1409,7456]},{"type":"Point","properties":{"Station_ID":"NJ-MS-98","Station_Nam":"HARDING TWP 2.4 W, NJ","Latitude":"40.74165","Longitude":"-74.54592","Snowdepth":"17.500","Units":"in","Rept_Date":"2021-02-12 12"},"coordinates":[5190,4553]},{"type":"Point","properties":{"Station_ID":"NJ-MS-87","Station_Nam":"MOUNT ARLINGTON 0.8 S, NJ","Latitude":"40.90789","Longitude":"-74.64077","Snowdepth":"17.500","Units":"in","Rept_Date":"2021-02-12 13"},"coordinates":[5168,4636]},{"type":"Point","properties":{"Station_ID":"MI-OW-2","Station_Nam":"HOLLAND 3.9 NNE, MI","Latitude":"42.82296","Longitude":"-86.06780","Snowdepth":"17.500","Units":"in","Rept_Date":"2021-02-12 11"},"coordinates":[2555,5585]},{"type":"Point","properties":{"Station_ID":"ME-FR-22","Station_Nam":"FARMINGTON 4.8 NNW, ME","Latitude":"44.73396","Longitude":"-70.18007","Snowdepth":"17.500","Units":"in","Rept_Date":"2021-02-12 14"},"coordinates":[6189,6532]},{"type":"Point","properties":{"Station_ID":"MA-BE-24","Station_Nam":"HANCOCK 3.6 NNE, MA","Latitude":"42.59130","Longitude":"-73.29530","Snowdepth":"17.500","Units":"in","Rept_Date":"2021-02-12 17"},"coordinates":[5476,5470]},{"type":"Point","properties":{"Station_ID":"CAN-NB-13","Station_Nam":"BATHURST 3.8 NW, CAN","Latitude":"47.64212","Longitude":"-65.68756","Snowdepth":"17.500","Units":"in","Rept_Date":"2021-02-12 11"},"coordinates":[7216,7974]},{"type":"Point","properties":{"Station_ID":"SVBQ6","Station_Nam":"SAVANT BASE","Latitude":"50.28730","Longitude":"-90.65670","Snowdepth":"17.170","Units":"in","Rept_Date":"2021-02-13 06"},"coordinates":[1505,9285]},{"type":"Point","properties":{"Station_ID":"CAN-QC-51","Station_Nam":"BELOEIL 0.7 NW, CAN","Latitude":"45.58049","Longitude":"-73.21218","Snowdepth":"17.100","Units":"in","Rept_Date":"2021-02-12 12"},"coordinates":[5495,6952]},{"type":"Point","properties":{"Station_ID":"WSFW3","Station_Nam":"TOWN OF WESTFORD","Latitude":"43.47190","Longitude":"-88.88250","Snowdepth":"17.000","Units":"in","Rept_Date":"2021-02-12 13"},"coordinates":[1911,5907]},{"type":"Point","properties":{"Station_ID":"WORV1","Station_Nam":"WORCESTER 2 W","Latitude":"44.37470","Longitude":"-72.58220","Snowdepth":"17.000","Units":"in","Rept_Date":"2021-02-12 12"},"coordinates":[5639,6354]},{"type":"Point","properties":{"Station_ID":"WI-WK-34","Station_Nam":"MUKWONAGO 5.3 W, WI","Latitude":"42.85380","Longitude":"-88.43550","Snowdepth":"17.000","Units":"in","Rept_Date":"2021-02-12 13"},"coordinates":[2013,5600]},{"type":"Point","properties":{"Station_ID":"WI-RK-12","Station_Nam":"JANESVILLE 3.1 W, WI","Latitude":"42.67576","Longitude":"-89.07614","Snowdepth":"17.000","Units":"in","Rept_Date":"2021-02-12 13"},"coordinates":[1867,5512]},{"type":"Point","properties":{"Station_ID":"WI-DD-16","Station_Nam":"BEAVER DAM 2.4 WNW, WI","Latitude":"43.47210","Longitude":"-88.88280","Snowdepth":"17.000","Units":"in","Rept_Date":"2021-02-12 13"},"coordinates":[1911,5907]},{"type":"Point","properties":{"Station_ID":"VT-OL-9","Station_Nam":"GREENSBORO 2.1 NNW, VT","Latitude":"44.60528","Longitude":"-72.30940","Snowdepth":"17.000","Units":"in","Rept_Date":"2021-02-12 12"},"coordinates":[5702,6469]},{"type":"Point","properties":{"Station_ID":"VT-ES-3","Station_Nam":"LUNENBURG 2.3 NNW, VT","Latitude":"44.49324","Longitude":"-71.70446","Snowdepth":"17.000","Units":"in","Rept_Date":"2021-02-12 13"},"coordinates":[5840,6413]},{"type":"Point","properties":{"Station_ID":"VT-CH-7","Station_Nam":"HUNTINGTON 1.1 E, VT","Latitude":"44.32488","Longitude":"-72.96570","Snowdepth":"17.000","Units":"in","Rept_Date":"2021-02-12 12"},"coordinates":[5551,6330]},{"type":"Point","properties":{"Station_ID":"VNTI4","Station_Nam":"VINTON","Latitude":"42.17020","Longitude":"-92.00770","Snowdepth":"17.000","Units":"in","Rept_Date":"2021-02-12 13"},"coordinates":[1196,5262]},{"type":"Point","properties":{"Station_ID":"SLNV1","Station_Nam":"SOUTH LINCOLN","Latitude":"44.07460","Longitude":"-72.97180","Snowdepth":"17.000","Units":"in","Rept_Date":"2021-02-12 12"},"coordinates":[5550,6206]},{"type":"Point","properties":{"Station_ID":"PDGM4","Station_Nam":"PAULDING","Latitude":"46.39760","Longitude":"-89.17940","Snowdepth":"17.000","Units":"in","Rept_Date":"2021-02-12 13"},"coordinates":[1843,7357]},{"type":"Point","properties":{"Station_ID":"PA-MN-7","Station_Nam":"STROUDSBURG 5.1 W, PA","Latitude":"40.98869","Longitude":"-75.29590","Snowdepth":"17.000","Units":"in","Rept_Date":"2021-02-12 13"},"coordinates":[5019,4676]},{"type":"Point","properties":{"Station_ID":"PA-BR-21","Station_Nam":"ALBURTIS 4.7 SW, PA","Latitude":"40.46515","Longitude":"-75.66820","Snowdepth":"17.000","Units":"in","Rept_Date":"2021-02-12 12"},"coordinates":[4933,4416]},{"type":"Point","properties":{"Station_ID":"NY-PT-2","Station_Nam":"BEACON 4.2 ESE, NY","Latitude":"41.48070","Longitude":"-73.89110","Snowdepth":"17.000","Units":"in","Rept_Date":"2021-02-12 12"},"coordinates":[5340,4920]},{"type":"Point","properties":{"Station_ID":"NY-OT-31","Station_Nam":"MARYLAND 1.8 W, NY","Latitude":"42.53310","Longitude":"-74.92090","Snowdepth":"17.000","Units":"in","Rept_Date":"2021-02-12 13"},"coordinates":[5104,5441]},{"type":"Point","properties":{"Station_ID":"NY-OS-38","Station_Nam":"MEXICO COOP, NY","Latitude":"43.43830","Longitude":"-76.26570","Snowdepth":"17.000","Units":"in","Rept_Date":"2021-02-12 12"},"coordinates":[4797,5890]},{"type":"Point","properties":{"Station_ID":"NY-ES-7","Station_Nam":"KEESEVILLE 0.8 SE, NY","Latitude":"44.49504","Longitude":"-73.47109","Snowdepth":"17.000","Units":"in","Rept_Date":"2021-02-12 12"},"coordinates":[5436,6414]},{"type":"Point","properties":{"Station_ID":"NY-ER-65","Station_Nam":"BOSTON 1.5 NE, NY","Latitude":"42.65470","Longitude":"-78.72010","Snowdepth":"17.000","Units":"in","Rept_Date":"2021-02-12 11"},"coordinates":[4235,5502]},{"type":"Point","properties":{"Station_ID":"NY-ER-63","Station_Nam":"GLENWOOD 1.5 SE, NY","Latitude":"42.60195","Longitude":"-78.63910","Snowdepth":"17.000","Units":"in","Rept_Date":"2021-02-12 13"},"coordinates":[4254,5476]},{"type":"Point","properties":{"Station_ID":"NY-ER-166","Station_Nam":"BOSTON 2.5 NE, NY","Latitude":"42.65480","Longitude":"-78.70300","Snowdepth":"17.000","Units":"in","Rept_Date":"2021-02-12 12"},"coordinates":[4239,5502]},{"type":"Point","properties":{"Station_ID":"NJ-MS-71","Station_Nam":"DENVILLE TWP 1.5 ESE, NJ","Latitude":"40.88053","Longitude":"-74.46310","Snowdepth":"17.000","Units":"in","Rept_Date":"2021-02-12 12"},"coordinates":[5209,4622]},{"type":"Point","properties":{"Station_ID":"MXON6","Station_Nam":"MEXICO","Latitude":"43.43830","Longitude":"-76.26560","Snowdepth":"17.000","Units":"in","Rept_Date":"2021-02-12 12"},"coordinates":[4797,5890]},{"type":"Point","properties":{"Station_ID":"MWOW3","Station_Nam":"MUKWONAGO","Latitude":"42.85380","Longitude":"-88.43550","Snowdepth":"17.000","Units":"in","Rept_Date":"2021-02-12 13"},"coordinates":[2013,5600]},{"type":"Point","properties":{"Station_ID":"MN-CW-29","Station_Nam":"BRAINERD 7.7 SSE, MN","Latitude":"46.24996","Longitude":"-94.14576","Snowdepth":"17.000","Units":"in","Rept_Date":"2021-02-12 13"},"coordinates":[707,7284]},{"type":"Point","properties":{"Station_ID":"MI-GG-4","Station_Nam":"WATERSMEET 5.0 SE, MI","Latitude":"46.20333","Longitude":"-89.13170","Snowdepth":"17.000","Units":"in","Rept_Date":"2021-02-12 14"},"coordinates":[1854,7261]},{"type":"Point","properties":{"Station_ID":"ME-AR-18","Station_Nam":"NEW SWEDEN 4.9 NNW, ME","Latitude":"47.01080","Longitude":"-68.14390","Snowdepth":"17.000","Units":"in","Rept_Date":"2021-02-12 12"},"coordinates":[6654,7661]},{"type":"Point","properties":{"Station_ID":"MD-GR-9","Station_Nam":"MOUNTAIN LAKE PARK 0.4 E, MD","Latitude":"39.40407","Longitude":"-79.37220","Snowdepth":"17.000","Units":"in","Rept_Date":"2021-02-12 11"},"coordinates":[4086,3890]},{"type":"Point","properties":{"Station_ID":"MAPM4","Station_Nam":"MAPLE CITY 1E","Latitude":"44.85500","Longitude":"-85.83520","Snowdepth":"17.000","Units":"in","Rept_Date":"2021-02-13 00"},"coordinates":[2608,6592]},{"type":"Point","properties":{"Station_ID":"LODW3","Station_Nam":"LODI","Latitude":"43.32170","Longitude":"-89.53110","Snowdepth":"17.000","Units":"in","Rept_Date":"2021-02-12 13"},"coordinates":[1763,5832]},{"type":"Point","properties":{"Station_ID":"KGTB","Station_Nam":"FORT DRUM / WHEELER-SACK U. S. ARMY AIRFIELD","Latitude":"44.05000","Longitude":"-75.73333","Snowdepth":"17.000","Units":"in","Rept_Date":"2021-02-12 18"},"coordinates":[4918,6193]},{"type":"Point","properties":{"Station_ID":"KABM5","Station_Nam":"KABETOGAMA LAKE VISITOR CTR","Latitude":"48.40880","Longitude":"-93.04840","Snowdepth":"17.000","Units":"in","Rept_Date":"2021-02-12 13"},"coordinates":[958,8354]},{"type":"Point","properties":{"Station_ID":"IL-BN-19","Station_Nam":"BELVIDERE 5.0 NNW, IL","Latitude":"42.32071","Longitude":"-88.88282","Snowdepth":"17.000","Units":"in","Rept_Date":"2021-02-12 13"},"coordinates":[1911,5336]},{"type":"Point","properties":{"Station_ID":"HUBN3","Station_Nam":"HUBBARD BROOK","Latitude":"43.93330","Longitude":"-71.71670","Snowdepth":"17.000","Units":"in","Rept_Date":"2021-02-13 06"},"coordinates":[5837,6136]},{"type":"Point","properties":{"Station_ID":"GTTI4","Station_Nam":"LOCK & DAM 10","Latitude":"42.78580","Longitude":"-91.09970","Snowdepth":"17.000","Units":"in","Rept_Date":"2021-02-12 14"},"coordinates":[1404,5567]},{"type":"Point","properties":{"Station_ID":"EVRW3","Station_Nam":"EAGLE RIVER-4 E","Latitude":"45.91890","Longitude":"-89.15280","Snowdepth":"17.000","Units":"in","Rept_Date":"2021-02-12 12"},"coordinates":[1849,7120]},{"type":"Point","properties":{"Station_ID":"EAHV1","Station_Nam":"EAST HAVEN","Latitude":"44.64250","Longitude":"-71.89120","Snowdepth":"17.000","Units":"in","Rept_Date":"2021-02-12 12"},"coordinates":[5797,6487]},{"type":"Point","properties":{"Station_ID":"DUBI4","Station_Nam":"DUBUQUE #3","Latitude":"42.40870","Longitude":"-90.73250","Snowdepth":"17.000","Units":"in","Rept_Date":"2021-02-12 13"},"coordinates":[1488,5380]},{"type":"Point","properties":{"Station_ID":"DBQ","Station_Nam":"DUBUQUE REGIONAL AIRPORT","Latitude":"42.40310","Longitude":"-90.70920","Snowdepth":"17.000","Units":"in","Rept_Date":"2021-02-13 00"},"coordinates":[1493,5377]},{"type":"Point","properties":{"Station_ID":"CNDP1","Station_Nam":"CANADENSIS","Latitude":"41.18980","Longitude":"-75.23830","Snowdepth":"17.000","Units":"in","Rept_Date":"2021-02-12 12"},"coordinates":[5032,4776]},{"type":"Point","properties":{"Station_ID":"CLKM4","Station_Nam":"CLARKSBURG","Latitude":"46.49910","Longitude":"-87.84500","Snowdepth":"17.000","Units":"in","Rept_Date":"2021-02-12 12"},"coordinates":[2148,7407]},{"type":"Point","properties":{"Station_ID":"CAN-ON-5","Station_Nam":"OWEN SOUND 1.5 NW - GSCA, CAN","Latitude":"44.57837","Longitude":"-80.95461","Snowdepth":"17.000","Units":"in","Rept_Date":"2021-02-12 13"},"coordinates":[3724,6455]},{"type":"Point","properties":{"Station_ID":"CAN-ON-451","Station_Nam":"OWEN SOUND 1.2 N - GSCA, CAN","Latitude":"44.58092","Longitude":"-80.93025","Snowdepth":"17.000","Units":"in","Rept_Date":"2021-02-12 13"},"coordinates":[3730,6457]},{"type":"Point","properties":{"Station_ID":"BEAW3","Station_Nam":"BEAVER DAM,WI","Latitude":"43.45000","Longitude":"-88.85000","Snowdepth":"17.000","Units":"in","Rept_Date":"2021-02-12 13"},"coordinates":[1919,5896]},{"type":"Point","properties":{"Station_ID":"BDMW3","Station_Nam":"BEAVER DAM 1 N","Latitude":"43.46860","Longitude":"-88.83970","Snowdepth":"17.000","Units":"in","Rept_Date":"2021-02-12 13"},"coordinates":[1921,5905]},{"type":"Point","properties":{"Station_ID":"AMAM4","Station_Nam":"AMASA 1W","Latitude":"46.23470","Longitude":"-88.45440","Snowdepth":"17.000","Units":"in","Rept_Date":"2021-02-12 14"},"coordinates":[2009,7276]},{"type":"Point","properties":{"Station_ID":"WI-RK-6","Station_Nam":"EVANSVILLE 0.4 E, WI","Latitude":"42.77913","Longitude":"-89.29020","Snowdepth":"16.500","Units":"in","Rept_Date":"2021-02-12 12"},"coordinates":[1818,5563]},{"type":"Point","properties":{"Station_ID":"WI-IR-2","Station_Nam":"MERCER 2.0 SE, WI","Latitude":"46.14749","Longitude":"-90.03097","Snowdepth":"16.500","Units":"in","Rept_Date":"2021-02-12 13"},"coordinates":[1648,7233]},{"type":"Point","properties":{"Station_ID":"WI-CB-5","Station_Nam":"PORTAGE 7.2 SW, WI","Latitude":"43.47933","Longitude":"-89.57370","Snowdepth":"16.500","Units":"in","Rept_Date":"2021-02-12 13"},"coordinates":[1753,5911]},{"type":"Point","properties":{"Station_ID":"NY-CR-1","Station_Nam":"FREETOWN 1.0 NE, NY","Latitude":"42.53299","Longitude":"-76.02111","Snowdepth":"16.500","Units":"in","Rept_Date":"2021-02-12 12"},"coordinates":[4853,5441]},{"type":"Point","properties":{"Station_ID":"NJ-SS-3","Station_Nam":"VERNON TWP 1.7 N, NJ","Latitude":"41.22151","Longitude":"-74.48800","Snowdepth":"16.500","Units":"in","Rept_Date":"2021-02-12 12"},"coordinates":[5203,4791]},{"type":"Point","properties":{"Station_ID":"IL-WN-32","Station_Nam":"ROCKFORD 5.5 S, IL","Latitude":"42.19058","Longitude":"-89.06040","Snowdepth":"16.500","Units":"in","Rept_Date":"2021-02-12 14"},"coordinates":[1870,5272]},{"type":"Point","properties":{"Station_ID":"CAN-QC-47","Station_Nam":"SAINTE-FOY 1.8 ENE, CAN","Latitude":"46.76934","Longitude":"-71.27124","Snowdepth":"16.400","Units":"in","Rept_Date":"2021-02-12 12"},"coordinates":[5939,7541]},{"type":"Point","properties":{"Station_ID":"IL-MCH-80","Station_Nam":"HUNTLEY 0.1 SSE, IL","Latitude":"42.16628","Longitude":"-88.42308","Snowdepth":"16.200","Units":"in","Rept_Date":"2021-02-12 13"},"coordinates":[2016,5260]},{"type":"Point","properties":{"Station_ID":"WI-WK-74","Station_Nam":"BROOKFIELD 2.8 SSW, WI","Latitude":"43.02390","Longitude":"-88.13760","Snowdepth":"16.100","Units":"in","Rept_Date":"2021-02-12 14"},"coordinates":[2081,5685]},{"type":"Point","properties":{"Station_ID":"NJ-WR-42","Station_Nam":"KNOWLTON TWP 1.7 S, NJ","Latitude":"40.90560","Longitude":"-75.05880","Snowdepth":"16.100","Units":"in","Rept_Date":"2021-02-12 12"},"coordinates":[5073,4635]},{"type":"Point","properties":{"Station_ID":"WRSN6","Station_Nam":"WARSAW 6SW","Latitude":"42.68550","Longitude":"-78.22020","Snowdepth":"16.000","Units":"in","Rept_Date":"2021-02-12 12"},"coordinates":[4350,5517]},{"type":"Point","properties":{"Station_ID":"WI-WB-2","Station_Nam":"STONE LAKE 2.0 NW, WI","Latitude":"45.85960","Longitude":"-91.57710","Snowdepth":"16.000","Units":"in","Rept_Date":"2021-02-12 13"},"coordinates":[1295,7090]},{"type":"Point","properties":{"Station_ID":"WI-PR-2","Station_Nam":"BUTTERNUT 5.9 SW, WI","Latitude":"45.96501","Longitude":"-90.59750","Snowdepth":"16.000","Units":"in","Rept_Date":"2021-02-12 12"},"coordinates":[1519,7143]},{"type":"Point","properties":{"Station_ID":"WI-OZ-12","Station_Nam":"PORT WASHINGTON 0.5 S, WI","Latitude":"43.38610","Longitude":"-87.87900","Snowdepth":"16.000","Units":"in","Rept_Date":"2021-02-12 13"},"coordinates":[2141,5864]},{"type":"Point","properties":{"Station_ID":"WI-IW-3","Station_Nam":"MINERAL POINT 7.3 ENE, WI","Latitude":"42.91400","Longitude":"-90.05700","Snowdepth":"16.000","Units":"in","Rept_Date":"2021-02-12 13"},"coordinates":[1643,5630]},{"type":"Point","properties":{"Station_ID":"WI-IR-3","Station_Nam":"PENCE 0.1 E, WI","Latitude":"46.41555","Longitude":"-90.27013","Snowdepth":"16.000","Units":"in","Rept_Date":"2021-02-12 13"},"coordinates":[1594,7366]},{"type":"Point","properties":{"Station_ID":"WI-GT-9","Station_Nam":"CASSVILLE 7.8 ENE, WI","Latitude":"42.74949","Longitude":"-90.84390","Snowdepth":"16.000","Units":"in","Rept_Date":"2021-02-12 14"},"coordinates":[1463,5549]},{"type":"Point","properties":{"Station_ID":"WDSV1","Station_Nam":"WOODSTOCK","Latitude":"43.63030","Longitude":"-72.50720","Snowdepth":"16.000","Units":"in","Rept_Date":"2021-02-12 13"},"coordinates":[5656,5985]},{"type":"Point","properties":{"Station_ID":"VT-CL-18","Station_Nam":"WHEELOCK 1.6 S, VT","Latitude":"44.56491","Longitude":"-72.08830","Snowdepth":"16.000","Units":"in","Rept_Date":"2021-02-12 12"},"coordinates":[5752,6449]},{"type":"Point","properties":{"Station_ID":"VT-CH-11","Station_Nam":"UNDERHILL 5.1 NNE, VT","Latitude":"44.59811","Longitude":"-72.91880","Snowdepth":"16.000","Units":"in","Rept_Date":"2021-02-12 14"},"coordinates":[5562,6465]},{"type":"Point","properties":{"Station_ID":"SUTV1","Station_Nam":"SUTTON","Latitude":"44.61220","Longitude":"-72.04810","Snowdepth":"16.000","Units":"in","Rept_Date":"2021-02-12 13"},"coordinates":[5761,6472]},{"type":"Point","properties":{"Station_ID":"STOW3","Station_Nam":"STOUGHTON,WI","Latitude":"42.91670","Longitude":"-89.21670","Snowdepth":"16.000","Units":"in","Rept_Date":"2021-02-12 13"},"coordinates":[1835,5632]},{"type":"Point","properties":{"Station_ID":"STMM4","Station_Nam":"STAMBAUGH 2SSE","Latitude":"46.05550","Longitude":"-88.62780","Snowdepth":"16.000","Units":"in","Rept_Date":"2021-02-12 13"},"coordinates":[1969,7188]},{"type":"Point","properties":{"Station_ID":"SPTI4","Station_Nam":"STRAWBERRY POINT","Latitude":"42.68530","Longitude":"-91.53300","Snowdepth":"16.000","Units":"in","Rept_Date":"2021-02-12 13"},"coordinates":[1305,5517]},{"type":"Point","properties":{"Station_ID":"RGNM1","Station_Nam":"RANGELEY 2NW","Latitude":"44.98940","Longitude":"-70.67220","Snowdepth":"16.000","Units":"in","Rept_Date":"2021-02-12 11"},"coordinates":[6076,6659]},{"type":"Point","properties":{"Station_ID":"RCHW3","Station_Nam":"RICHRIELD,WI","Latitude":"43.21080","Longitude":"-88.20940","Snowdepth":"16.000","Units":"in","Rept_Date":"2021-02-12 12"},"coordinates":[2065,5777]},{"type":"Point","properties":{"Station_ID":"NY-TM-42","Station_Nam":"ITHACA 6.4 E, NY","Latitude":"42.43350","Longitude":"-76.37860","Snowdepth":"16.000","Units":"in","Rept_Date":"2021-02-12 12"},"coordinates":[4771,5392]},{"type":"Point","properties":{"Station_ID":"NY-DL-28","Station_Nam":"FLEISCHMANNS 5.7 N, NY","Latitude":"42.23779","Longitude":"-74.52335","Snowdepth":"16.000","Units":"in","Rept_Date":"2021-02-12 12"},"coordinates":[5195,5295]},{"type":"Point","properties":{"Station_ID":"NY-DL-23","Station_Nam":"LONG EDDY 6.5 NNE, NY","Latitude":"41.93510","Longitude":"-75.07840","Snowdepth":"16.000","Units":"in","Rept_Date":"2021-02-12 13"},"coordinates":[5068,5145]},{"type":"Point","properties":{"Station_ID":"NY-CR-5","Station_Nam":"MARATHON 1.0 NW, NY","Latitude":"42.45161","Longitude":"-76.04370","Snowdepth":"16.000","Units":"in","Rept_Date":"2021-02-12 12"},"coordinates":[4847,5401]},{"type":"Point","properties":{"Station_ID":"NJ-UN-10","Station_Nam":"NEW PROVIDENCE 0.8 ESE, NJ","Latitude":"40.69450","Longitude":"-74.38980","Snowdepth":"16.000","Units":"in","Rept_Date":"2021-02-12 12"},"coordinates":[5226,4530]},{"type":"Point","properties":{"Station_ID":"NH-MR-60","Station_Nam":"SOUTH SUTTON 1.3 SE, NH","Latitude":"43.29531","Longitude":"-71.90238","Snowdepth":"16.000","Units":"in","Rept_Date":"2021-02-12 13"},"coordinates":[5795,5819]},{"type":"Point","properties":{"Station_ID":"NH-GR-46","Station_Nam":"ASHLAND 2.4 NNW, NH","Latitude":"43.72963","Longitude":"-71.64213","Snowdepth":"16.000","Units":"in","Rept_Date":"2021-02-12 12"},"coordinates":[5854,6035]},{"type":"Point","properties":{"Station_ID":"MTCI2","Station_Nam":"MOUNT CARROLL","Latitude":"42.09800","Longitude":"-89.98410","Snowdepth":"16.000","Units":"in","Rept_Date":"2021-02-12 13"},"coordinates":[1659,5226]},{"type":"Point","properties":{"Station_ID":"MN-SL-105","Station_Nam":"DULUTH 11.8 NNE, MN","Latitude":"46.94680","Longitude":"-92.03925","Snowdepth":"16.000","Units":"in","Rept_Date":"2021-02-12 14"},"coordinates":[1189,7629]},{"type":"Point","properties":{"Station_ID":"MI-OW-51","Station_Nam":"ALLENDALE 1.7 SE, MI","Latitude":"42.97100","Longitude":"-85.92540","Snowdepth":"16.000","Units":"in","Rept_Date":"2021-02-12 12"},"coordinates":[2587,5659]},{"type":"Point","properties":{"Station_ID":"MI-OG-6","Station_Nam":"WEST BRANCH 2.1 SSW, MI","Latitude":"44.24814","Longitude":"-84.25089","Snowdepth":"16.000","Units":"in","Rept_Date":"2021-02-12 12"},"coordinates":[2970,6292]},{"type":"Point","properties":{"Station_ID":"MI-CP-14","Station_Nam":"SAULT STE. MARIE 2.2 E, MI","Latitude":"46.48933","Longitude":"-84.31971","Snowdepth":"16.000","Units":"in","Rept_Date":"2021-02-12 13"},"coordinates":[2955,7403]},{"type":"Point","properties":{"Station_ID":"MECN6","Station_Nam":"MECKLENBURG 4 SW","Latitude":"42.44220","Longitude":"-76.75740","Snowdepth":"16.000","Units":"in","Rept_Date":"2021-02-12 12"},"coordinates":[4684,5396]},{"type":"Point","properties":{"Station_ID":"ME-SM-4","Station_Nam":"SOLON 3.9 ESE, ME","Latitude":"44.94705","Longitude":"-69.77790","Snowdepth":"16.000","Units":"in","Rept_Date":"2021-02-12 12"},"coordinates":[6281,6638]},{"type":"Point","properties":{"Station_ID":"ME-FR-4","Station_Nam":"NEW SHARON 2.0 NW, ME","Latitude":"44.66582","Longitude":"-70.02720","Snowdepth":"16.000","Units":"in","Rept_Date":"2021-02-12 12"},"coordinates":[6224,6499]},{"type":"Point","properties":{"Station_ID":"ME-AR-15","Station_Nam":"PRESQUE ISLE 1.3 WSW, ME","Latitude":"46.67960","Longitude":"-68.01270","Snowdepth":"16.000","Units":"in","Rept_Date":"2021-02-12 12"},"coordinates":[6684,7497]},{"type":"Point","properties":{"Station_ID":"MD-GR-4","Station_Nam":"MC HENRY 4.8 SSE, MD","Latitude":"39.48539","Longitude":"-79.31830","Snowdepth":"16.000","Units":"in","Rept_Date":"2021-02-12 13"},"coordinates":[4099,3931]},{"type":"Point","properties":{"Station_ID":"MAYP1","Station_Nam":"MAHANOY CITY,PA","Latitude":"40.83330","Longitude":"-76.13330","Snowdepth":"16.000","Units":"in","Rept_Date":"2021-02-12 12"},"coordinates":[4827,4599]},{"type":"Point","properties":{"Station_ID":"MA-WR-88","Station_Nam":"LEICESTER 2.5 WSW, MA","Latitude":"42.23742","Longitude":"-71.94612","Snowdepth":"16.000","Units":"in","Rept_Date":"2021-02-12 12"},"coordinates":[5785,5295]},{"type":"Point","properties":{"Station_ID":"MA-MD-125","Station_Nam":"TEWKSBURY 3.6 SSE, MA","Latitude":"42.57083","Longitude":"-71.19813","Snowdepth":"16.000","Units":"in","Rept_Date":"2021-02-12 12"},"coordinates":[5956,5460]},{"type":"Point","properties":{"Station_ID":"MA-FR-17","Station_Nam":"BUCKLAND 1.8 ESE, MA","Latitude":"42.58900","Longitude":"-72.75110","Snowdepth":"16.000","Units":"in","Rept_Date":"2021-02-12 13"},"coordinates":[5601,5469]},{"type":"Point","properties":{"Station_ID":"ISLV1","Station_Nam":"ISLAND POND","Latitude":"44.81280","Longitude":"-71.89020","Snowdepth":"16.000","Units":"in","Rept_Date":"2021-02-12 14"},"coordinates":[5797,6572]},{"type":"Point","properties":{"Station_ID":"IRMM4","Station_Nam":"WWTP","Latitude":"46.46670","Longitude":"-90.18330","Snowdepth":"16.000","Units":"in","Rept_Date":"2021-02-12 13"},"coordinates":[1614,7391]},{"type":"Point","properties":{"Station_ID":"IL-SP-6","Station_Nam":"FREEPORT 2.0 NW, IL","Latitude":"42.30955","Longitude":"-89.66370","Snowdepth":"16.000","Units":"in","Rept_Date":"2021-02-12 14"},"coordinates":[1732,5331]},{"type":"Point","properties":{"Station_ID":"IL-SP-25","Station_Nam":"FREEPORT 1.7 NW, IL","Latitude":"42.30427","Longitude":"-89.66285","Snowdepth":"16.000","Units":"in","Rept_Date":"2021-02-12 13"},"coordinates":[1733,5328]},{"type":"Point","properties":{"Station_ID":"IL-MCH-95","Station_Nam":"CARY 0.5 SSW, IL","Latitude":"42.20235","Longitude":"-88.25224","Snowdepth":"16.000","Units":"in","Rept_Date":"2021-02-12 13"},"coordinates":[2055,5278]},{"type":"Point","properties":{"Station_ID":"IL-CK-180","Station_Nam":"PARK RIDGE 0.5 SSW, IL","Latitude":"42.00443","Longitude":"-87.84600","Snowdepth":"16.000","Units":"in","Rept_Date":"2021-02-12 13"},"coordinates":[2148,5179]},{"type":"Point","properties":{"Station_ID":"IA-ST-1","Station_Nam":"LE CLAIRE 1.8 NNE, IA","Latitude":"41.62355","Longitude":"-90.35140","Snowdepth":"16.000","Units":"in","Rept_Date":"2021-02-12 14"},"coordinates":[1575,4991]},{"type":"Point","properties":{"Station_ID":"IA-BT-16","Station_Nam":"SHELLSBURG 2.9 S, IA","Latitude":"42.05091","Longitude":"-91.87008","Snowdepth":"16.000","Units":"in","Rept_Date":"2021-02-12 13"},"coordinates":[1228,5202]},{"type":"Point","properties":{"Station_ID":"EGRW3","Station_Nam":"EAGLE RIVER-SOUTH","Latitude":"45.91360","Longitude":"-89.24360","Snowdepth":"16.000","Units":"in","Rept_Date":"2021-02-12 13"},"coordinates":[1829,7117]},{"type":"Point","properties":{"Station_ID":"DEKI2","Station_Nam":"SOUTH BRANCH KISHWAUKEE RIVER AT DEKALB","Latitude":"41.93110","Longitude":"-88.75970","Snowdepth":"16.000","Units":"in","Rept_Date":"2021-02-12 13"},"coordinates":[1939,5143]},{"type":"Point","properties":{"Station_ID":"CRPI4","Station_Nam":"CEDAR RAPIDS NO 1","Latitude":"42.05000","Longitude":"-91.58810","Snowdepth":"16.000","Units":"in","Rept_Date":"2021-02-12 23"},"coordinates":[1292,5202]},{"type":"Point","properties":{"Station_ID":"CAN-NL-65","Station_Nam":"KIPPENS 0.7 NE, CA","Latitude":"48.55436","Longitude":"-58.61850","Snowdepth":"16.000","Units":"in","Rept_Date":"2021-02-12 12"},"coordinates":[8833,8426]},{"type":"Point","properties":{"Station_ID":"BROW3","Station_Nam":"BRODHEAD,WI","Latitude":"42.61720","Longitude":"-89.38970","Snowdepth":"16.000","Units":"in","Rept_Date":"2021-02-12 13"},"coordinates":[1795,5483]},{"type":"Point","properties":{"Station_ID":"BRLN3","Station_Nam":"BERLIN","Latitude":"44.45350","Longitude":"-71.18540","Snowdepth":"16.000","Units":"in","Rept_Date":"2021-02-12 12"},"coordinates":[5959,6393]},{"type":"Point","properties":{"Station_ID":"BLTW3","Station_Nam":"BELOIT,WI","Latitude":"42.50000","Longitude":"-89.03330","Snowdepth":"16.000","Units":"in","Rept_Date":"2021-02-12 12"},"coordinates":[1877,5425]},{"type":"Point","properties":{"Station_ID":"BETM1","Station_Nam":"BETHEL 6 SSE","Latitude":"44.32000","Longitude":"-70.75680","Snowdepth":"16.000","Units":"in","Rept_Date":"2021-02-12 12"},"coordinates":[6057,6327]},{"type":"Point","properties":{"Station_ID":"BBEM4","Station_Nam":"BIG BAY 9SW","Latitude":"46.74620","Longitude":"-87.88160","Snowdepth":"16.000","Units":"in","Rept_Date":"2021-02-12 13"},"coordinates":[2140,7530]},{"type":"Point","properties":{"Station_ID":"AGNW3","Station_Nam":"ARGONNE-1.5 NW","Latitude":"45.67360","Longitude":"-88.90380","Snowdepth":"16.000","Units":"in","Rept_Date":"2021-02-12 14"},"coordinates":[1906,6998]},{"type":"Point","properties":{"Station_ID":"MI-AN-20","Station_Nam":"HOLLAND 5.3 WSW, MI","Latitude":"42.74900","Longitude":"-86.20200","Snowdepth":"15.900","Units":"in","Rept_Date":"2021-02-12 13"},"coordinates":[2524,5549]},{"type":"Point","properties":{"Station_ID":"CAN-NB-105","Station_Nam":"SISSON BROOK 3.8 E, CAN","Latitude":"46.98305","Longitude":"-67.32532","Snowdepth":"15.700","Units":"in","Rept_Date":"2021-02-12 12"},"coordinates":[6841,7647]},{"type":"Point","properties":{"Station_ID":"CAN-MB-368","Station_Nam":"WHITESHELL 1.3 NE, CAN","Latitude":"49.74405","Longitude":"-95.19123","Snowdepth":"15.700","Units":"in","Rept_Date":"2021-02-12 14"},"coordinates":[468,9016]},{"type":"Point","properties":{"Station_ID":"WI-WW-2","Station_Nam":"LAKE GENEVA 0.6 ENE, WI","Latitude":"42.59169","Longitude":"-88.41770","Snowdepth":"15.600","Units":"in","Rept_Date":"2021-02-12 13"},"coordinates":[2017,5471]},{"type":"Point","properties":{"Station_ID":"WI-SR-1","Station_Nam":"HAYWARD 9.2 NNE, WI","Latitude":"46.13255","Longitude":"-91.40500","Snowdepth":"15.500","Units":"in","Rept_Date":"2021-02-12 12"},"coordinates":[1334,7226]},{"type":"Point","properties":{"Station_ID":"WI-PR-6","Station_Nam":"PHILLIPS 1.3 S, WI","Latitude":"45.67677","Longitude":"-90.39543","Snowdepth":"15.500","Units":"in","Rept_Date":"2021-02-12 12"},"coordinates":[1565,7000]},{"type":"Point","properties":{"Station_ID":"WI-PK-33","Station_Nam":"FREDERIC 4.8 NE, WI","Latitude":"45.70970","Longitude":"-92.39950","Snowdepth":"15.500","Units":"in","Rept_Date":"2021-02-12 13"},"coordinates":[1107,7016]},{"type":"Point","properties":{"Station_ID":"WI-MW-18","Station_Nam":"WEST ALLIS 0.7 SSE, WI","Latitude":"42.99802","Longitude":"-88.02380","Snowdepth":"15.500","Units":"in","Rept_Date":"2021-02-12 14"},"coordinates":[2108,5672]},{"type":"Point","properties":{"Station_ID":"WI-DA-99","Station_Nam":"FITCHBURG 1.1 NW, WI","Latitude":"42.99740","Longitude":"-89.44046","Snowdepth":"15.500","Units":"in","Rept_Date":"2021-02-12 13"},"coordinates":[1784,5672]},{"type":"Point","properties":{"Station_ID":"WI-CB-4","Station_Nam":"PORTAGE 5.7 WSW, WI","Latitude":"43.51411","Longitude":"-89.56910","Snowdepth":"15.500","Units":"in","Rept_Date":"2021-02-12 13"},"coordinates":[1754,5928]},{"type":"Point","properties":{"Station_ID":"WI-BY-22","Station_Nam":"MASON 11.5 WNW, WI","Latitude":"46.50198","Longitude":"-91.28339","Snowdepth":"15.500","Units":"in","Rept_Date":"2021-02-12 14"},"coordinates":[1362,7409]},{"type":"Point","properties":{"Station_ID":"VT-LM-1","Station_Nam":"STOWE 0.2 SW, VT","Latitude":"44.46399","Longitude":"-72.69070","Snowdepth":"15.500","Units":"in","Rept_Date":"2021-02-12 12"},"coordinates":[5614,6399]},{"type":"Point","properties":{"Station_ID":"PA-NH-8","Station_Nam":"MARTINS CREEK 0.2 E, PA","Latitude":"40.78285","Longitude":"-75.18270","Snowdepth":"15.500","Units":"in","Rept_Date":"2021-02-12 12"},"coordinates":[5044,4574]},{"type":"Point","properties":{"Station_ID":"NY-OR-19","Station_Nam":"GREENWOOD LAKE 3.0 SW, NY","Latitude":"41.18900","Longitude":"-74.32650","Snowdepth":"15.500","Units":"in","Rept_Date":"2021-02-12 13"},"coordinates":[5240,4775]},{"type":"Point","properties":{"Station_ID":"NJ-SM-56","Station_Nam":"FRANKLIN TWP 5.9 SW, NJ","Latitude":"40.40787","Longitude":"-74.61990","Snowdepth":"15.500","Units":"in","Rept_Date":"2021-02-12 13"},"coordinates":[5173,4388]},{"type":"Point","properties":{"Station_ID":"NJ-MS-42","Station_Nam":"RANDOLPH TWP 2.0 E, NJ","Latitude":"40.83980","Longitude":"-74.54320","Snowdepth":"15.500","Units":"in","Rept_Date":"2021-02-12 13"},"coordinates":[5191,4602]},{"type":"Point","properties":{"Station_ID":"IL-SP-14","Station_Nam":"FREEPORT 1.7 ESE, IL","Latitude":"42.28257","Longitude":"-89.60360","Snowdepth":"15.500","Units":"in","Rept_Date":"2021-02-12 13"},"coordinates":[1746,5317]},{"type":"Point","properties":{"Station_ID":"IL-CR-12","Station_Nam":"MOUNT CARROLL 6.8 NNW, IL","Latitude":"42.18735","Longitude":"-90.02185","Snowdepth":"15.500","Units":"in","Rept_Date":"2021-02-12 13"},"coordinates":[1651,5270]},{"type":"Point","properties":{"Station_ID":"CT-NH-72","Station_Nam":"NORTHFORD 0.8 SW, CT","Latitude":"41.38554","Longitude":"-72.80240","Snowdepth":"15.500","Units":"in","Rept_Date":"2021-02-12 12"},"coordinates":[5589,4873]},{"type":"Point","properties":{"Station_ID":"CAN-ON-42","Station_Nam":"VANKLEEK HILL 3.4 S, CA","Latitude":"45.48987","Longitude":"-74.64570","Snowdepth":"15.500","Units":"in","Rept_Date":"2021-02-12 12"},"coordinates":[5167,6907]},{"type":"Point","properties":{"Station_ID":"CAN-NB-64","Station_Nam":"KESWICK RIDGE 4.0 SE, CAN","Latitude":"45.97014","Longitude":"-66.85538","Snowdepth":"15.500","Units":"in","Rept_Date":"2021-02-12 13"},"coordinates":[6949,7145]},{"type":"Point","properties":{"Station_ID":"WI-BY-2","Station_Nam":"MELLEN 18.6 SW, WI","Latitude":"46.16937","Longitude":"-90.98090","Snowdepth":"15.400","Units":"in","Rept_Date":"2021-02-12 13"},"coordinates":[1431,7244]},{"type":"Point","properties":{"Station_ID":"WODI2","Station_Nam":"WOODSTOCK","Latitude":"42.36280","Longitude":"-88.53140","Snowdepth":"15.000","Units":"in","Rept_Date":"2021-02-12 13"},"coordinates":[1991,5357]},{"type":"Point","properties":{"Station_ID":"WI-VL-14","Station_Nam":"BOULDER JUNCTION 1.4 NE, WI","Latitude":"46.12840","Longitude":"-89.62470","Snowdepth":"15.000","Units":"in","Rept_Date":"2021-02-12 13"},"coordinates":[1741,7224]},{"type":"Point","properties":{"Station_ID":"VT-WS-15","Station_Nam":"EAST CALAIS 1.5 SW, VT","Latitude":"44.35523","Longitude":"-72.45540","Snowdepth":"15.000","Units":"in","Rept_Date":"2021-02-12 12"},"coordinates":[5668,6345]},{"type":"Point","properties":{"Station_ID":"VT-OL-2","Station_Nam":"BARTON 3.0 ENE, VT","Latitude":"44.75863","Longitude":"-72.11680","Snowdepth":"15.000","Units":"in","Rept_Date":"2021-02-12 12"},"coordinates":[5746,6545]},{"type":"Point","properties":{"Station_ID":"VQAW3","Station_Nam":"VIROQUA","Latitude":"43.55970","Longitude":"-90.87560","Snowdepth":"15.000","Units":"in","Rept_Date":"2021-02-12 13"},"coordinates":[1455,5950]},{"type":"Point","properties":{"Station_ID":"TOPM1","Station_Nam":"TOPSFIELD","Latitude":"45.43470","Longitude":"-67.72020","Snowdepth":"15.000","Units":"in","Rept_Date":"2021-02-12 12"},"coordinates":[6751,6880]},{"type":"Point","properties":{"Station_ID":"TMWN3","Station_Nam":"TAMWORTH 4","Latitude":"43.86390","Longitude":"-71.26610","Snowdepth":"15.000","Units":"in","Rept_Date":"2021-02-12 12"},"coordinates":[5940,6101]},{"type":"Point","properties":{"Station_ID":"TLDI4","Station_Nam":"TOLEDO,IA","Latitude":"41.98330","Longitude":"-92.58330","Snowdepth":"15.000","Units":"in","Rept_Date":"2021-02-12 13"},"coordinates":[1065,5169]},{"type":"Point","properties":{"Station_ID":"TAKW3","Station_Nam":"RICE RESERVOIR NO. 2","Latitude":"45.53770","Longitude":"-89.73220","Snowdepth":"15.000","Units":"in","Rept_Date":"2021-02-12 13"},"coordinates":[1717,6931]},{"type":"Point","properties":{"Station_ID":"STGW3","Station_Nam":"ST GERMAIN","Latitude":"45.91550","Longitude":"-89.48940","Snowdepth":"15.000","Units":"in","Rept_Date":"2021-02-12 12"},"coordinates":[1772,7118]},{"type":"Point","properties":{"Station_ID":"RLKW3","Station_Nam":"REST LAKE","Latitude":"46.12220","Longitude":"-89.87720","Snowdepth":"15.000","Units":"in","Rept_Date":"2021-02-12 14"},"coordinates":[1684,7221]},{"type":"Point","properties":{"Station_ID":"RHRW3","Station_Nam":"RHINELANDER WJFW TV-12","Latitude":"45.62220","Longitude":"-89.41000","Snowdepth":"15.000","Units":"in","Rept_Date":"2021-02-13 04"},"coordinates":[1790,6973]},{"type":"Point","properties":{"Station_ID":"RHI","Station_Nam":"RHINELANDER-ONEIDA COUNTY AIRPORT","Latitude":"45.63080","Longitude":"-89.46530","Snowdepth":"15.000","Units":"in","Rept_Date":"2021-02-13 00"},"coordinates":[1778,6977]},{"type":"Point","properties":{"Station_ID":"PRNW3","Station_Nam":"PRENTICE,WI","Latitude":"45.54780","Longitude":"-90.30000","Snowdepth":"15.000","Units":"in","Rept_Date":"2021-02-12 14"},"coordinates":[1587,6936]},{"type":"Point","properties":{"Station_ID":"PKBI4","Station_Nam":"PARKERSBURG,IA","Latitude":"42.59250","Longitude":"-92.77860","Snowdepth":"15.000","Units":"in","Rept_Date":"2021-02-12 13"},"coordinates":[1020,5471]},{"type":"Point","properties":{"Station_ID":"PJRN6","Station_Nam":"PORT JERVIS","Latitude":"41.38910","Longitude":"-74.69050","Snowdepth":"15.000","Units":"in","Rept_Date":"2021-02-12 12"},"coordinates":[5157,4874]},{"type":"Point","properties":{"Station_ID":"PA-NH-15","Station_Nam":"PORTLAND 2.7 WNW, PA","Latitude":"40.93750","Longitude":"-75.14450","Snowdepth":"15.000","Units":"in","Rept_Date":"2021-02-12 12"},"coordinates":[5053,4651]},{"type":"Point","properties":{"Station_ID":"OSWN6","Station_Nam":"OSWEGO","Latitude":"43.44990","Longitude":"-76.53680","Snowdepth":"15.000","Units":"in","Rept_Date":"2021-02-12 22"},"coordinates":[4735,5896]},{"type":"Point","properties":{"Station_ID":"NY-UL-29","Station_Nam":"HIGHLAND 0.2 SW, NY","Latitude":"41.71486","Longitude":"-73.96839","Snowdepth":"15.000","Units":"in","Rept_Date":"2021-02-12 12"},"coordinates":[5322,5036]},{"type":"Point","properties":{"Station_ID":"NY-TG-15","Station_Nam":"BERKSHIRE 1.9 ENE, NY","Latitude":"42.31910","Longitude":"-76.21940","Snowdepth":"15.000","Units":"in","Rept_Date":"2021-02-12 13"},"coordinates":[4807,5335]},{"type":"Point","properties":{"Station_ID":"NY-OT-11","Station_Nam":"HARTWICK, NY","Latitude":"42.65990","Longitude":"-75.05000","Snowdepth":"15.000","Units":"in","Rept_Date":"2021-02-12 13"},"coordinates":[5075,5504]},{"type":"Point","properties":{"Station_ID":"NY-DT-34","Station_Nam":"HOPEWELL JUNCTION 2.8 NE, NY","Latitude":"41.61016","Longitude":"-73.75855","Snowdepth":"15.000","Units":"in","Rept_Date":"2021-02-12 11"},"coordinates":[5370,4984]},{"type":"Point","properties":{"Station_ID":"NY-DL-25","Station_Nam":"HOBART 4.8 ESE, NY","Latitude":"42.35230","Longitude":"-74.57830","Snowdepth":"15.000","Units":"in","Rept_Date":"2021-02-12 12"},"coordinates":[5183,5352]},{"type":"Point","properties":{"Station_ID":"NWSM1","Station_Nam":"NEW SHARON","Latitude":"44.63520","Longitude":"-70.00020","Snowdepth":"15.000","Units":"in","Rept_Date":"2021-02-12 12"},"coordinates":[6230,6484]},{"type":"Point","properties":{"Station_ID":"NOHV1","Station_Nam":"NORTH HARTLAND LAKE","Latitude":"43.60270","Longitude":"-72.36210","Snowdepth":"15.000","Units":"in","Rept_Date":"2021-02-12 12"},"coordinates":[5690,5972]},{"type":"Point","properties":{"Station_ID":"NJ-WR-5","Station_Nam":"HACKETTSTOWN 0.8 W, NJ","Latitude":"40.85155","Longitude":"-74.84030","Snowdepth":"15.000","Units":"in","Rept_Date":"2021-02-12 12"},"coordinates":[5123,4608]},{"type":"Point","properties":{"Station_ID":"NJ-SM-67","Station_Nam":"FRANKLIN TWP 2.4 ENE, NJ","Latitude":"40.49170","Longitude":"-74.51077","Snowdepth":"15.000","Units":"in","Rept_Date":"2021-02-12 12"},"coordinates":[5198,4430]},{"type":"Point","properties":{"Station_ID":"NJ-PS-14","Station_Nam":"HAWTHORNE 1.0 SSE, NJ","Latitude":"40.94364","Longitude":"-74.15230","Snowdepth":"15.000","Units":"in","Rept_Date":"2021-02-12 12"},"coordinates":[5280,4654]},{"type":"Point","properties":{"Station_ID":"NJ-HN-9","Station_Nam":"FRANKLIN TWP 0.4 W, NJ","Latitude":"40.56633","Longitude":"-74.94430","Snowdepth":"15.000","Units":"in","Rept_Date":"2021-02-12 12"},"coordinates":[5099,4467]},{"type":"Point","properties":{"Station_ID":"NJ-HN-31","Station_Nam":"FRENCHTOWN 0.5 N, NJ","Latitude":"40.53420","Longitude":"-75.05590","Snowdepth":"15.000","Units":"in","Rept_Date":"2021-02-12 12"},"coordinates":[5073,4451]},{"type":"Point","properties":{"Station_ID":"NJ-BG-23","Station_Nam":"OAKLAND 0.9 SSE, NJ","Latitude":"41.01905","Longitude":"-74.23340","Snowdepth":"15.000","Units":"in","Rept_Date":"2021-02-12 13"},"coordinates":[5262,4691]},{"type":"Point","properties":{"Station_ID":"NH-CR-27","Station_Nam":"TAMWORTH 0.4 NNW, NH","Latitude":"43.86449","Longitude":"-71.26610","Snowdepth":"15.000","Units":"in","Rept_Date":"2021-02-12 12"},"coordinates":[5940,6101]},{"type":"Point","properties":{"Station_ID":"NCON3","Station_Nam":"NORTH CONWAY","Latitude":"44.05620","Longitude":"-71.12970","Snowdepth":"15.000","Units":"in","Rept_Date":"2021-02-12 13"},"coordinates":[5971,6197]},{"type":"Point","properties":{"Station_ID":"MSRN3","Station_Nam":"MASCOMA RIVER","Latitude":"43.78330","Longitude":"-72.03330","Snowdepth":"15.000","Units":"in","Rept_Date":"2021-02-13 06"},"coordinates":[5765,6061]},{"type":"Point","properties":{"Station_ID":"MKE","Station_Nam":"GEN MITCHELL INTL AIRPORT","Latitude":"42.94720","Longitude":"-87.89670","Snowdepth":"15.000","Units":"in","Rept_Date":"2021-02-13 00"},"coordinates":[2137,5647]},{"type":"Point","properties":{"Station_ID":"MI-MQ-28","Station_Nam":"CARLSHEND, MI","Latitude":"46.31638","Longitude":"-87.19944","Snowdepth":"15.000","Units":"in","Rept_Date":"2021-02-12 13"},"coordinates":[2296,7317]},{"type":"Point","properties":{"Station_ID":"MI-MQ-19","Station_Nam":"ISHPEMING 7.2 SW, MI","Latitude":"46.40550","Longitude":"-87.75670","Snowdepth":"15.000","Units":"in","Rept_Date":"2021-02-12 11"},"coordinates":[2169,7361]},{"type":"Point","properties":{"Station_ID":"ME-WS-31","Station_Nam":"EASTPORT 1.4 ESE, ME","Latitude":"44.91044","Longitude":"-66.98572","Snowdepth":"15.000","Units":"in","Rept_Date":"2021-02-12 12"},"coordinates":[6919,6620]},{"type":"Point","properties":{"Station_ID":"MA-MD-51","Station_Nam":"MAYNARD 0.7 ESE, MA","Latitude":"42.42027","Longitude":"-71.44484","Snowdepth":"15.000","Units":"in","Rept_Date":"2021-02-12 12"},"coordinates":[5899,5386]},{"type":"Point","properties":{"Station_ID":"MA-MD-156","Station_Nam":"MARLBOROUGH 2.8 ENE, MA","Latitude":"42.37021","Longitude":"-71.50011","Snowdepth":"15.000","Units":"in","Rept_Date":"2021-02-12 11"},"coordinates":[5887,5361]},{"type":"Point","properties":{"Station_ID":"MA-FR-13","Station_Nam":"CONWAY 2.9 NW, MA","Latitude":"42.54419","Longitude":"-72.72743","Snowdepth":"15.000","Units":"in","Rept_Date":"2021-02-12 12"},"coordinates":[5606,5447]},{"type":"Point","properties":{"Station_ID":"LGHP1","Station_Nam":"LEHIGHTON 1SSW","Latitude":"40.82230","Longitude":"-75.69620","Snowdepth":"15.000","Units":"in","Rept_Date":"2021-02-12 13"},"coordinates":[4927,4593]},{"type":"Point","properties":{"Station_ID":"KUMW2","Station_Nam":"PARK OFFICE WITHIN KAMBRABOW ST FOREST","Latitude":"38.63440","Longitude":"-80.08420","Snowdepth":"15.000","Units":"in","Rept_Date":"2021-02-12 13"},"coordinates":[3923,3509]},{"type":"Point","properties":{"Station_ID":"KMKE","Station_Nam":"GEN MITCHELL INTERNATIONAL  AIRPORT","Latitude":"42.95000","Longitude":"-87.90000","Snowdepth":"15.000","Units":"in","Rept_Date":"2021-02-13 06"},"coordinates":[2136,5648]},{"type":"Point","properties":{"Station_ID":"IL-CK-50","Station_Nam":"PALOS PARK 1.3 SW, IL","Latitude":"41.65281","Longitude":"-87.86310","Snowdepth":"15.000","Units":"in","Rept_Date":"2021-02-12 13"},"coordinates":[2144,5005]},{"type":"Point","properties":{"Station_ID":"IA-ST-3","Station_Nam":"PARK VIEW 0.2 WSW, IA","Latitude":"41.68855","Longitude":"-90.54380","Snowdepth":"15.000","Units":"in","Rept_Date":"2021-02-12 13"},"coordinates":[1531,5023]},{"type":"Point","properties":{"Station_ID":"IA-LN-7","Station_Nam":"CENTRAL CITY 6.7 W, IA","Latitude":"42.19830","Longitude":"-91.65430","Snowdepth":"15.000","Units":"in","Rept_Date":"2021-02-12 13"},"coordinates":[1277,5276]},{"type":"Point","properties":{"Station_ID":"GNDI4","Station_Nam":"GRUNDY CENTER,IA","Latitude":"42.35530","Longitude":"-92.77390","Snowdepth":"15.000","Units":"in","Rept_Date":"2021-02-12 13"},"coordinates":[1021,5353]},{"type":"Point","properties":{"Station_ID":"GLEI2","Station_Nam":"GLEN ELLYN 4S","Latitude":"41.82670","Longitude":"-88.05810","Snowdepth":"15.000","Units":"in","Rept_Date":"2021-02-12 13"},"coordinates":[2100,5091]},{"type":"Point","properties":{"Station_ID":"FLNW3","Station_Nam":"FLORENCE","Latitude":"45.93360","Longitude":"-88.25830","Snowdepth":"15.000","Units":"in","Rept_Date":"2021-02-12 13"},"coordinates":[2054,7127]},{"type":"Point","properties":{"Station_ID":"ENFV1","Station_Nam":"ENOSBURG FALLS 2","Latitude":"44.90960","Longitude":"-72.81370","Snowdepth":"15.000","Units":"in","Rept_Date":"2021-02-12 10"},"coordinates":[5586,6620]},{"type":"Point","properties":{"Station_ID":"DLNW3","Station_Nam":"WALWORTH COUNTYMETROPOLITAN SEWERAGE DISTRICT (DELEVAN)","Latitude":"42.63440","Longitude":"-88.66280","Snowdepth":"15.000","Units":"in","Rept_Date":"2021-02-12 13"},"coordinates":[1961,5492]},{"type":"Point","properties":{"Station_ID":"COVP1","Station_Nam":"COVINGTON 2WSW","Latitude":"41.73330","Longitude":"-77.11670","Snowdepth":"15.000","Units":"in","Rept_Date":"2021-02-12 12"},"coordinates":[4602,5045]},{"type":"Point","properties":{"Station_ID":"CNRM1","Station_Nam":"CONNOR TWP","Latitude":"46.95830","Longitude":"-68.03330","Snowdepth":"15.000","Units":"in","Rept_Date":"2021-02-12 12"},"coordinates":[6680,7635]},{"type":"Point","properties":{"Station_ID":"CMKW3","Station_Nam":"CLAM LAKE 4W","Latitude":"46.16940","Longitude":"-90.98080","Snowdepth":"15.000","Units":"in","Rept_Date":"2021-02-12 13"},"coordinates":[1431,7244]},{"type":"Point","properties":{"Station_ID":"CAN-NB-98","Station_Nam":"HOYT 4.2 S, CAN","Latitude":"45.54763","Longitude":"-66.55440","Snowdepth":"15.000","Units":"in","Rept_Date":"2021-02-12 11"},"coordinates":[7018,6936]},{"type":"Point","properties":{"Station_ID":"CAAW2","Station_Nam":"CANAAN VALLEY","Latitude":"39.05890","Longitude":"-79.44030","Snowdepth":"15.000","Units":"in","Rept_Date":"2021-02-12 14"},"coordinates":[4071,3719]},{"type":"Point","properties":{"Station_ID":"BLHM3","Station_Nam":"BLUE HILL COOP","Latitude":"42.21230","Longitude":"-71.11370","Snowdepth":"15.000","Units":"in","Rept_Date":"2021-02-12 12"},"coordinates":[5975,5282]},{"type":"Point","properties":{"Station_ID":"BAGM4","Station_Nam":"BARAGA 7NW","Latitude":"46.82100","Longitude":"-88.60590","Snowdepth":"15.000","Units":"in","Rept_Date":"2021-02-12 13"},"coordinates":[1974,7567]},{"type":"Point","properties":{"Station_ID":"MA-MD-89","Station_Nam":"SUDBURY 3.6 W, MA","Latitude":"42.36394","Longitude":"-71.47012","Snowdepth":"14.800","Units":"in","Rept_Date":"2021-02-12 12"},"coordinates":[5894,5358]},{"type":"Point","properties":{"Station_ID":"CAN-PE-47","Station_Nam":"LONG CREEK 0.3 NNW, CAN","Latitude":"46.17420","Longitude":"-63.27320","Snowdepth":"14.800","Units":"in","Rept_Date":"2021-02-12 12"},"coordinates":[7768,7246]},{"type":"Point","properties":{"Station_ID":"NJ-UN-36","Station_Nam":"CLARK TWP 1.3 ENE, NJ","Latitude":"40.62605","Longitude":"-74.28967","Snowdepth":"14.700","Units":"in","Rept_Date":"2021-02-12 14"},"coordinates":[5249,4496]},{"type":"Point","properties":{"Station_ID":"CAN-ON-452","Station_Nam":"CHATSWORTH 1.8 ENE - GSCA, CAN","Latitude":"44.46118","Longitude":"-80.87506","Snowdepth":"14.600","Units":"in","Rept_Date":"2021-02-12 12"},"coordinates":[3743,6397]},{"type":"Point","properties":{"Station_ID":"WI-JF-17","Station_Nam":"JOHNSON CREEK 2.7 SSW, WI","Latitude":"43.04559","Longitude":"-88.79925","Snowdepth":"14.500","Units":"in","Rept_Date":"2021-02-12 13"},"coordinates":[1930,5696]},{"type":"Point","properties":{"Station_ID":"WI-DA-39","Station_Nam":"MADISON 4.0 W, WI","Latitude":"43.07741","Longitude":"-89.46757","Snowdepth":"14.500","Units":"in","Rept_Date":"2021-02-12 13"},"coordinates":[1777,5711]},{"type":"Point","properties":{"Station_ID":"NJ-WR-34","Station_Nam":"BLAIRSTOWN TWP 2.4 E, NJ","Latitude":"40.98140","Longitude":"-74.95230","Snowdepth":"14.500","Units":"in","Rept_Date":"2021-02-12 12"},"coordinates":[5097,4672]},{"type":"Point","properties":{"Station_ID":"NJ-SM-4","Station_Nam":"BERNARDS TWP 0.6 NNW, NJ","Latitude":"40.68340","Longitude":"-74.57310","Snowdepth":"14.500","Units":"in","Rept_Date":"2021-02-12 12"},"coordinates":[5184,4525]},{"type":"Point","properties":{"Station_ID":"NJ-BG-56","Station_Nam":"FAIR LAWN 1.2 SE, NJ","Latitude":"40.92170","Longitude":"-74.10440","Snowdepth":"14.500","Units":"in","Rept_Date":"2021-02-12 12"},"coordinates":[5291,4643]},{"type":"Point","properties":{"Station_ID":"IL-MCH-43","Station_Nam":"ALGONQUIN 0.7 N, IL","Latitude":"42.17392","Longitude":"-88.29930","Snowdepth":"14.500","Units":"in","Rept_Date":"2021-02-12 12"},"coordinates":[2045,5263]},{"type":"Point","properties":{"Station_ID":"IL-CK-285","Station_Nam":"HARWOOD HEIGHTS 0.4 NNE, IL","Latitude":"41.97154","Longitude":"-87.80325","Snowdepth":"14.500","Units":"in","Rept_Date":"2021-02-12 13"},"coordinates":[2158,5163]},{"type":"Point","properties":{"Station_ID":"IA-BT-12","Station_Nam":"FAIRFAX 4.0 NW, IA","Latitude":"41.96223","Longitude":"-91.83675","Snowdepth":"14.500","Units":"in","Rept_Date":"2021-02-12 13"},"coordinates":[1235,5158]},{"type":"Point","properties":{"Station_ID":"CT-NH-75","Station_Nam":"MERIDEN 2.8 WSW, CT","Latitude":"41.52584","Longitude":"-72.84698","Snowdepth":"14.500","Units":"in","Rept_Date":"2021-02-12 12"},"coordinates":[5579,4942]},{"type":"Point","properties":{"Station_ID":"IA-BH-6","Station_Nam":"WATERLOO 1.9 SSE, IA","Latitude":"42.46500","Longitude":"-92.34100","Snowdepth":"14.400","Units":"in","Rept_Date":"2021-02-12 14"},"coordinates":[1120,5408]},{"type":"Point","properties":{"Station_ID":"NE-SY-25","Station_Nam":"GRETNA 2.9 NNE, NE","Latitude":"41.17831","Longitude":"-96.21984","Snowdepth":"14.300","Units":"in","Rept_Date":"2021-02-12 14"},"coordinates":[233,4770]},{"type":"Point","properties":{"Station_ID":"WTBW3","Station_Nam":"WEST BEND PUBLIC WORKS","Latitude":"43.41110","Longitude":"-88.19380","Snowdepth":"14.000","Units":"in","Rept_Date":"2021-02-12 15"},"coordinates":[2069,5877]},{"type":"Point","properties":{"Station_ID":"WRTN4","Station_Nam":"WETSVILLE 4 NE","Latitude":"40.45200","Longitude":"-74.77910","Snowdepth":"14.000","Units":"in","Rept_Date":"2021-02-12 12"},"coordinates":[5137,4410]},{"type":"Point","properties":{"Station_ID":"WRSM5","Station_Nam":"WRENSHALL","Latitude":"46.61550","Longitude":"-92.38380","Snowdepth":"14.000","Units":"in","Rept_Date":"2021-02-12 14"},"coordinates":[1110,7465]},{"type":"Point","properties":{"Station_ID":"WMTI4","Station_Nam":"FORT DODGE,IA","Latitude":"42.50610","Longitude":"-94.20110","Snowdepth":"14.000","Units":"in","Rept_Date":"2021-02-12 12"},"coordinates":[695,5428]},{"type":"Point","properties":{"Station_ID":"WI-WS-15","Station_Nam":"WEST BEND 5.4 SE, WI","Latitude":"43.37259","Longitude":"-88.10086","Snowdepth":"14.000","Units":"in","Rept_Date":"2021-02-12 14"},"coordinates":[2090,5858]},{"type":"Point","properties":{"Station_ID":"WI-WK-29","Station_Nam":"OCONOMOWOC 4.6 NE, WI","Latitude":"43.14621","Longitude":"-88.42860","Snowdepth":"14.000","Units":"in","Rept_Date":"2021-02-12 15"},"coordinates":[2015,5745]},{"type":"Point","properties":{"Station_ID":"WI-WK-20","Station_Nam":"MUKWONAGO 0.5 N, WI","Latitude":"42.87385","Longitude":"-88.33180","Snowdepth":"14.000","Units":"in","Rept_Date":"2021-02-12 13"},"coordinates":[2037,5610]},{"type":"Point","properties":{"Station_ID":"WI-SB-10","Station_Nam":"RANDOM LAKE 0.5 SSE, WI","Latitude":"43.54812","Longitude":"-87.95050","Snowdepth":"14.000","Units":"in","Rept_Date":"2021-02-12 13"},"coordinates":[2124,5945]},{"type":"Point","properties":{"Station_ID":"WI-ON-6","Station_Nam":"RHINELANDER 5.2 N, WI","Latitude":"45.71388","Longitude":"-89.42150","Snowdepth":"14.000","Units":"in","Rept_Date":"2021-02-12 14"},"coordinates":[1788,7018]},{"type":"Point","properties":{"Station_ID":"WI-GL-4","Station_Nam":"GREEN LAKE 0.8 E, WI","Latitude":"43.84369","Longitude":"-88.94066","Snowdepth":"14.000","Units":"in","Rept_Date":"2021-02-12 13"},"coordinates":[1898,6091]},{"type":"Point","properties":{"Station_ID":"WI-DG-20","Station_Nam":"SOLON SPRINGS 1.2 W, WI","Latitude":"46.35217","Longitude":"-91.84405","Snowdepth":"14.000","Units":"in","Rept_Date":"2021-02-12 13"},"coordinates":[1234,7335]},{"type":"Point","properties":{"Station_ID":"WI-DD-4","Station_Nam":"BEAVER DAM 1.4 SSW, WI","Latitude":"43.44719","Longitude":"-88.85260","Snowdepth":"14.000","Units":"in","Rept_Date":"2021-02-12 14"},"coordinates":[1918,5895]},{"type":"Point","properties":{"Station_ID":"WERW3","Station_Nam":"CHIPPEWA R BISHOP'S BRIDGE","Latitude":"45.84920","Longitude":"-91.07890","Snowdepth":"14.000","Units":"in","Rept_Date":"2021-02-12 12"},"coordinates":[1409,7085]},{"type":"Point","properties":{"Station_ID":"VT-CL-14","Station_Nam":"LYNDONVILLE 1.1 W, VT","Latitude":"44.53582","Longitude":"-72.02867","Snowdepth":"14.000","Units":"in","Rept_Date":"2021-02-12 12"},"coordinates":[5766,6434]},{"type":"Point","properties":{"Station_ID":"USBP1","Station_Nam":"USBP1","Latitude":"40.06110","Longitude":"-77.73330","Snowdepth":"14.000","Units":"in","Rept_Date":"2021-02-12 12"},"coordinates":[4461,4216]},{"type":"Point","properties":{"Station_ID":"UGRW3","Station_Nam":"UNION GROVE,WI","Latitude":"42.70000","Longitude":"-88.03220","Snowdepth":"14.000","Units":"in","Rept_Date":"2021-02-12 13"},"coordinates":[2106,5524]},{"type":"Point","properties":{"Station_ID":"TURM1","Station_Nam":"TURNER","Latitude":"44.28220","Longitude":"-70.25610","Snowdepth":"14.000","Units":"in","Rept_Date":"2021-02-12 12"},"coordinates":[6171,6309]},{"type":"Point","properties":{"Station_ID":"SHIW3","Station_Nam":"SHIOCTON","Latitude":"44.43890","Longitude":"-88.58390","Snowdepth":"14.000","Units":"in","Rept_Date":"2021-02-12 13"},"coordinates":[1979,6386]},{"type":"Point","properties":{"Station_ID":"SAVW3","Station_Nam":"SAUKVILLE WWTP","Latitude":"43.37470","Longitude":"-87.93940","Snowdepth":"14.000","Units":"in","Rept_Date":"2021-02-12 12"},"coordinates":[2127,5859]},{"type":"Point","properties":{"Station_ID":"RI-PR-50","Station_Nam":"HARRISVILLE 1.2 SSE, RI","Latitude":"41.95128","Longitude":"-71.67171","Snowdepth":"14.000","Units":"in","Rept_Date":"2021-02-12 12"},"coordinates":[5847,5153]},{"type":"Point","properties":{"Station_ID":"RHIW3","Station_Nam":"RHINELANDER","Latitude":"45.59860","Longitude":"-89.45080","Snowdepth":"14.000","Units":"in","Rept_Date":"2021-02-12 13"},"coordinates":[1781,6961]},{"type":"Point","properties":{"Station_ID":"PLLW3","Station_Nam":"PELL LAKE","Latitude":"42.53220","Longitude":"-88.33280","Snowdepth":"14.000","Units":"in","Rept_Date":"2021-02-12 15"},"coordinates":[2037,5441]},{"type":"Point","properties":{"Station_ID":"PLFV1","Station_Nam":"PLAINFIELD","Latitude":"44.27610","Longitude":"-72.41500","Snowdepth":"14.000","Units":"in","Rept_Date":"2021-02-12 12"},"coordinates":[5677,6306]},{"type":"Point","properties":{"Station_ID":"PA-LH-17","Station_Nam":"SCHNECKSVILLE 1.7 ENE, PA","Latitude":"40.68480","Longitude":"-75.58870","Snowdepth":"14.000","Units":"in","Rept_Date":"2021-02-12 13"},"coordinates":[4952,4525]},{"type":"Point","properties":{"Station_ID":"PA-CB-4","Station_Nam":"PALMERTON 5.8 ENE, PA","Latitude":"40.83902","Longitude":"-75.51850","Snowdepth":"14.000","Units":"in","Rept_Date":"2021-02-12 13"},"coordinates":[4968,4602]},{"type":"Point","properties":{"Station_ID":"NY-TM-38","Station_Nam":"TRUMANSBURG 0.4 WNW, NY","Latitude":"42.54205","Longitude":"-76.66870","Snowdepth":"14.000","Units":"in","Rept_Date":"2021-02-12 12"},"coordinates":[4705,5446]},{"type":"Point","properties":{"Station_ID":"NY-OR-18","Station_Nam":"WALDEN 1.3 S, NY","Latitude":"41.54102","Longitude":"-74.18790","Snowdepth":"14.000","Units":"in","Rept_Date":"2021-02-12 12"},"coordinates":[5272,4950]},{"type":"Point","properties":{"Station_ID":"NY-DL-32","Station_Nam":"DELHI 6.6 WNW, NY","Latitude":"42.32118","Longitude":"-75.02991","Snowdepth":"14.000","Units":"in","Rept_Date":"2021-02-12 12"},"coordinates":[5079,5336]},{"type":"Point","properties":{"Station_ID":"NVLN6","Station_Nam":"NORTHVILLE","Latitude":"43.23330","Longitude":"-74.16670","Snowdepth":"14.000","Units":"in","Rept_Date":"2021-02-12 13"},"coordinates":[5277,5789]},{"type":"Point","properties":{"Station_ID":"NUMN3","Station_Nam":"NORTHUMBERLAND","Latitude":"44.52830","Longitude":"-71.50440","Snowdepth":"14.000","Units":"in","Rept_Date":"2021-02-12 13"},"coordinates":[5886,6431]},{"type":"Point","properties":{"Station_ID":"NPTV1","Station_Nam":"NEWPORT","Latitude":"44.94900","Longitude":"-72.19120","Snowdepth":"14.000","Units":"in","Rept_Date":"2021-02-12 12"},"coordinates":[5729,6639]},{"type":"Point","properties":{"Station_ID":"NOHM5","Station_Nam":"NORTHOME","Latitude":"47.83590","Longitude":"-94.25550","Snowdepth":"14.000","Units":"in","Rept_Date":"2021-02-12 13"},"coordinates":[682,8070]},{"type":"Point","properties":{"Station_ID":"NJ-SS-39","Station_Nam":"WANTAGE TWP 1.6 SE, NJ","Latitude":"41.22830","Longitude":"-74.60330","Snowdepth":"14.000","Units":"in","Rept_Date":"2021-02-12 12"},"coordinates":[5177,4795]},{"type":"Point","properties":{"Station_ID":"NJ-SM-5","Station_Nam":"BRIDGEWATER TWP 3.3 NW, NJ","Latitude":"40.62625","Longitude":"-74.65350","Snowdepth":"14.000","Units":"in","Rept_Date":"2021-02-12 12"},"coordinates":[5165,4496]},{"type":"Point","properties":{"Station_ID":"NJ-SM-11","Station_Nam":"BEDMINSTER TWP 2.9 ESE, NJ","Latitude":"40.65634","Longitude":"-74.63050","Snowdepth":"14.000","Units":"in","Rept_Date":"2021-02-12 11"},"coordinates":[5171,4511]},{"type":"Point","properties":{"Station_ID":"NJ-PS-12","Station_Nam":"LITTLE FALLS TWP 0.5 WNW, NJ","Latitude":"40.87963","Longitude":"-74.22700","Snowdepth":"14.000","Units":"in","Rept_Date":"2021-02-12 12"},"coordinates":[5263,4622]},{"type":"Point","properties":{"Station_ID":"NJ-MS-105","Station_Nam":"MORRISTOWN 0.7 WNW, NJ","Latitude":"40.80150","Longitude":"-74.48795","Snowdepth":"14.000","Units":"in","Rept_Date":"2021-02-12 12"},"coordinates":[5203,4583]},{"type":"Point","properties":{"Station_ID":"NJ-HN-12","Station_Nam":"HOLLAND TWP 2.6 NNE, NJ","Latitude":"40.63168","Longitude":"-75.10450","Snowdepth":"14.000","Units":"in","Rept_Date":"2021-02-12 11"},"coordinates":[5062,4499]},{"type":"Point","properties":{"Station_ID":"NH-GR-47","Station_Nam":"LITTLETON 7.3 W, NH","Latitude":"44.31847","Longitude":"-71.91086","Snowdepth":"14.000","Units":"in","Rept_Date":"2021-02-12 13"},"coordinates":[5793,6327]},{"type":"Point","properties":{"Station_ID":"NH-CS-7","Station_Nam":"LANCASTER 0.5 N, NH","Latitude":"44.49611","Longitude":"-71.57640","Snowdepth":"14.000","Units":"in","Rept_Date":"2021-02-12 12"},"coordinates":[5869,6415]},{"type":"Point","properties":{"Station_ID":"NCKN6","Station_Nam":"NORTH CREEK 5 SE","Latitude":"43.66110","Longitude":"-73.89690","Snowdepth":"14.000","Units":"in","Rept_Date":"2021-02-12 12"},"coordinates":[5338,6001]},{"type":"Point","properties":{"Station_ID":"NBRN4","Station_Nam":"NEW BRUNSWICK 3 SE","Latitude":"40.47280","Longitude":"-74.42260","Snowdepth":"14.000","Units":"in","Rept_Date":"2021-02-12 13"},"coordinates":[5218,4420]},{"type":"Point","properties":{"Station_ID":"MQRW3","Station_Nam":"MINOCQUA","Latitude":"45.88630","Longitude":"-89.73220","Snowdepth":"14.000","Units":"in","Rept_Date":"2021-02-12 12"},"coordinates":[1717,7104]},{"type":"Point","properties":{"Station_ID":"MI-OT-17","Station_Nam":"GAYLORD 4.1 S, MI","Latitude":"44.96388","Longitude":"-84.68467","Snowdepth":"14.000","Units":"in","Rept_Date":"2021-02-12 12"},"coordinates":[2871,6646]},{"type":"Point","properties":{"Station_ID":"MI-IC-6","Station_Nam":"NATIONAL CITY 4.5 NNE, MI","Latitude":"44.29330","Longitude":"-83.68410","Snowdepth":"14.000","Units":"in","Rept_Date":"2021-02-12 14"},"coordinates":[3100,6314]},{"type":"Point","properties":{"Station_ID":"MI-BZ-1","Station_Nam":"BENZONIA 5.3 S, MI","Latitude":"44.53976","Longitude":"-86.10650","Snowdepth":"14.000","Units":"in","Rept_Date":"2021-02-12 14"},"coordinates":[2546,6436]},{"type":"Point","properties":{"Station_ID":"MI-AT-6","Station_Nam":"MANCELONA 0.5 ESE, MI","Latitude":"44.89981","Longitude":"-85.05100","Snowdepth":"14.000","Units":"in","Rept_Date":"2021-02-12 13"},"coordinates":[2787,6615]},{"type":"Point","properties":{"Station_ID":"ME-OX-26","Station_Nam":"OXFORD 5.3 SW, ME","Latitude":"44.09787","Longitude":"-70.59612","Snowdepth":"14.000","Units":"in","Rept_Date":"2021-02-12 12"},"coordinates":[6093,6217]},{"type":"Point","properties":{"Station_ID":"MDDW3","Station_Nam":"MIDDLETON,WI","Latitude":"43.09060","Longitude":"-89.51470","Snowdepth":"14.000","Units":"in","Rept_Date":"2021-02-12 13"},"coordinates":[1767,5718]},{"type":"Point","properties":{"Station_ID":"MA-WR-22","Station_Nam":"FITCHBURG 2.0 NNE, MA","Latitude":"42.61671","Longitude":"-71.80100","Snowdepth":"14.000","Units":"in","Rept_Date":"2021-02-12 13"},"coordinates":[5818,5483]},{"type":"Point","properties":{"Station_ID":"MA-MD-12","Station_Nam":"ACTON 1.3 SW, MA","Latitude":"42.46746","Longitude":"-71.48200","Snowdepth":"14.000","Units":"in","Rept_Date":"2021-02-12 12"},"coordinates":[5891,5409]},{"type":"Point","properties":{"Station_ID":"MA-MD-107","Station_Nam":"FRAMINGHAM 1.7 E, MA","Latitude":"42.30516","Longitude":"-71.40471","Snowdepth":"14.000","Units":"in","Rept_Date":"2021-02-12 12"},"coordinates":[5908,5328]},{"type":"Point","properties":{"Station_ID":"MA-BE-21","Station_Nam":"CHESHIRE 0.5 NNW, MA","Latitude":"42.56315","Longitude":"-73.15701","Snowdepth":"14.000","Units":"in","Rept_Date":"2021-02-12 12"},"coordinates":[5508,5456]},{"type":"Point","properties":{"Station_ID":"LYNW3","Station_Nam":"LYNXVILLE DAM 9","Latitude":"43.21180","Longitude":"-91.09850","Snowdepth":"14.000","Units":"in","Rept_Date":"2021-02-12 14"},"coordinates":[1404,5778]},{"type":"Point","properties":{"Station_ID":"LKZI2","Station_Nam":"LAKE ZURICH","Latitude":"42.19250","Longitude":"-88.06530","Snowdepth":"14.000","Units":"in","Rept_Date":"2021-02-12 13"},"coordinates":[2098,5273]},{"type":"Point","properties":{"Station_ID":"LEIM5","Station_Nam":"ORR 3E","Latitude":"48.05810","Longitude":"-92.75220","Snowdepth":"14.000","Units":"in","Rept_Date":"2021-02-12 12"},"coordinates":[1026,8180]},{"type":"Point","properties":{"Station_ID":"LAPP1","Station_Nam":"LAPORTE,PA","Latitude":"41.42470","Longitude":"-76.49250","Snowdepth":"14.000","Units":"in","Rept_Date":"2021-02-12 12"},"coordinates":[4745,4892]},{"type":"Point","properties":{"Station_ID":"LAFW3","Station_Nam":"LA FARGE","Latitude":"43.57340","Longitude":"-90.63200","Snowdepth":"14.000","Units":"in","Rept_Date":"2021-02-12 13"},"coordinates":[1511,5957]},{"type":"Point","properties":{"Station_ID":"KISM4","Station_Nam":"K.I. SAWYER WWTP","Latitude":"46.33410","Longitude":"-87.37790","Snowdepth":"14.000","Units":"in","Rept_Date":"2021-02-12 13"},"coordinates":[2255,7326]},{"type":"Point","properties":{"Station_ID":"JEFN3","Station_Nam":"JEFFERSON","Latitude":"44.41690","Longitude":"-71.50080","Snowdepth":"14.000","Units":"in","Rept_Date":"2021-02-12 12"},"coordinates":[5886,6375]},{"type":"Point","properties":{"Station_ID":"IL-MCH-13","Station_Nam":"BULL VALLEY 2.5 WNW, IL","Latitude":"42.32455","Longitude":"-88.39460","Snowdepth":"14.000","Units":"in","Rept_Date":"2021-02-12 14"},"coordinates":[2023,5338]},{"type":"Point","properties":{"Station_ID":"IL-LK-98","Station_Nam":"LINDENHURST 0.7 NNW, IL","Latitude":"42.42730","Longitude":"-88.03289","Snowdepth":"14.000","Units":"in","Rept_Date":"2021-02-12 13"},"coordinates":[2105,5389]},