{"type":"Topology","objects":{"snowdepth_geo":{"type":"GeometryCollection","name":"snowdepth","crs":{"type":"name","properties":{"name":"urn:ogc:def:crs:OGC:1.3:CRS84"}},"geometries":[{"type":"Point","properties":{"Station_ID":"PRKM4","Station_Nam":"MUNISING EAST","Latitude":"46.42580","Longitude":"-86.62000","Snowdepth":"76.500","Units":"in","Rept_Date":"2020-03-19 06"},"coordinates":[2492,4502]},{"type":"Point","properties":{"Station_ID":"HUBN3","Station_Nam":"HUBBARD BROOK","Latitude":"43.93330","Longitude":"-71.71670","Snowdepth":"70.000","Units":"in","Rept_Date":"2020-03-18 12"},"coordinates":[5990,1917]},{"type":"Point","properties":{"Station_ID":"MMNV1","Station_Nam":"MT. MANSFIELD","Latitude":"44.52480","Longitude":"-72.81540","Snowdepth":"62.000","Units":"in","Rept_Date":"2020-03-18 20"},"coordinates":[5732,2531]},{"type":"Point","properties":{"Station_ID":"OGIQ6","Station_Nam":"OGOKI CAMP","Latitude":"50.76680","Longitude":"-87.85820","Snowdepth":"61.100","Units":"in","Rept_Date":"2020-03-19 06"},"coordinates":[2202,9003]},{"type":"Point","properties":{"Station_ID":"PDLM4","Station_Nam":"PAINESDALE","Latitude":"47.04160","Longitude":"-88.67170","Snowdepth":"48.000","Units":"in","Rept_Date":"2020-03-18 12"},"coordinates":[2011,5141]},{"type":"Point","properties":{"Station_ID":"DVLQ6","Station_Nam":"DEVIOUS LAKE","Latitude":"49.19890","Longitude":"-87.76440","Snowdepth":"43.460","Units":"in","Rept_Date":"2020-03-19 06"},"coordinates":[2224,7378]},{"type":"Point","properties":{"Station_ID":"CAN-NL-82","Station_Nam":"GANDER 2.7 NW, CAN","Latitude":"48.97737","Longitude":"-54.63396","Snowdepth":"38.600","Units":"in","Rept_Date":"2020-03-18 10"},"coordinates":[9999,7148]},{"type":"Point","properties":{"Station_ID":"CAN-QC-47","Station_Nam":"SAINTE-FOY 1.8 ENE, CAN","Latitude":"46.76934","Longitude":"-71.27124","Snowdepth":"36.000","Units":"in","Rept_Date":"2020-03-18 12"},"coordinates":[6094,4858]},{"type":"Point","properties":{"Station_ID":"MNSM4","Station_Nam":"MUNISING","Latitude":"46.41210","Longitude":"-86.66250","Snowdepth":"35.000","Units":"in","Rept_Date":"2020-03-18 10"},"coordinates":[2482,4488]},{"type":"Point","properties":{"Station_ID":"CAN-NB-105","Station_Nam":"SISSON BROOK 3.8 E, CAN","Latitude":"46.98305","Longitude":"-67.32532","Snowdepth":"34.100","Units":"in","Rept_Date":"2020-03-18 12"},"coordinates":[7020,5080]},{"type":"Point","properties":{"Station_ID":"VANM1","Station_Nam":"VAN BUREN","Latitude":"47.16600","Longitude":"-67.93900","Snowdepth":"34.000","Units":"in","Rept_Date":"2020-03-18 11"},"coordinates":[6876,5270]},{"type":"Point","properties":{"Station_ID":"QNCM4","Station_Nam":"QUINCY HILL","Latitude":"47.13640","Longitude":"-88.57950","Snowdepth":"34.000","Units":"in","Rept_Date":"2020-03-18 11"},"coordinates":[2032,5239]},{"type":"Point","properties":{"Station_ID":"FISM1","Station_Nam":"FORT KENT COOP","Latitude":"47.23850","Longitude":"-68.61240","Snowdepth":"32.000","Units":"in","Rept_Date":"2020-03-18 11"},"coordinates":[6718,5345]},{"type":"Point","properties":{"Station_ID":"CAN-NB-13","Station_Nam":"BATHURST 3.8 NW, CAN","Latitude":"47.64212","Longitude":"-65.68756","Snowdepth":"32.000","Units":"in","Rept_Date":"2020-03-18 09"},"coordinates":[7405,5763]},{"type":"Point","properties":{"Station_ID":"PTLQ6","Station_Nam":"PORTAGE LAKE","Latitude":"49.06950","Longitude":"-86.65940","Snowdepth":"31.460","Units":"in","Rept_Date":"2020-03-19 06"},"coordinates":[2483,7243]},{"type":"Point","properties":{"Station_ID":"STEM4","Station_Nam":"STEUBEN","Latitude":"46.18530","Longitude":"-86.46410","Snowdepth":"31.000","Units":"in","Rept_Date":"2020-03-18 13"},"coordinates":[2529,4253]},{"type":"Point","properties":{"Station_ID":"MQT","Station_Nam":"MARQUETTE, MI","Latitude":"46.53140","Longitude":"-87.54920","Snowdepth":"31.000","Units":"in","Rept_Date":"2020-03-19 06"},"coordinates":[2274,4612]},{"type":"Point","properties":{"Station_ID":"GLRM5","Station_Nam":"GLACIAL RIDGE","Latitude":"47.71670","Longitude":"-96.26670","Snowdepth":"31.000","Units":"in","Rept_Date":"2020-03-19 05"},"coordinates":[228,5841]},{"type":"Point","properties":{"Station_ID":"CARM1","Station_Nam":"CARIBOU WFO","Latitude":"46.86810","Longitude":"-68.01250","Snowdepth":"31.000","Units":"in","Rept_Date":"2020-03-18 12"},"coordinates":[6859,4961]},{"type":"Point","properties":{"Station_ID":"CAR","Station_Nam":"CARIBOU, ME","Latitude":"46.86830","Longitude":"-68.01360","Snowdepth":"31.000","Units":"in","Rept_Date":"2020-03-18 12"},"coordinates":[6859,4961]},{"type":"Point","properties":{"Station_ID":"CAN-NB-11","Station_Nam":"MIRAMICHI 3.3 S, CAN","Latitude":"46.99343","Longitude":"-65.50690","Snowdepth":"29.500","Units":"in","Rept_Date":"2020-03-18 12"},"coordinates":[7447,5091]},{"type":"Point","properties":{"Station_ID":"MI-BG-3","Station_Nam":"L'ANSE 17.8 SE, MI","Latitude":"46.55730","Longitude":"-88.20770","Snowdepth":"29.000","Units":"in","Rept_Date":"2020-03-18 13"},"coordinates":[2119,4638]},{"type":"Point","properties":{"Station_ID":"HERM4","Station_Nam":"HERMAN,MI","Latitude":"46.65000","Longitude":"-88.33330","Snowdepth":"29.000","Units":"in","Rept_Date":"2020-03-18 12"},"coordinates":[2090,4735]},{"type":"Point","properties":{"Station_ID":"AUDQ6","Station_Nam":"AUDEN","Latitude":"48.52600","Longitude":"-82.57570","Snowdepth":"27.870","Units":"in","Rept_Date":"2020-03-19 06"},"coordinates":[3441,6680]},{"type":"Point","properties":{"Station_ID":"SVBQ6","Station_Nam":"SAVANT BASE","Latitude":"50.28730","Longitude":"-90.65670","Snowdepth":"27.600","Units":"in","Rept_Date":"2020-03-19 06"},"coordinates":[1545,8506]},{"type":"Point","properties":{"Station_ID":"IBLM5","Station_Nam":"ISABELLA 14W","Latitude":"47.59360","Longitude":"-91.65140","Snowdepth":"27.000","Units":"in","Rept_Date":"2020-03-18 14"},"coordinates":[1311,5713]},{"type":"Point","properties":{"Station_ID":"TRIQ6","Station_Nam":"TRIO LAKE","Latitude":"49.22880","Longitude":"-87.22920","Snowdepth":"26.380","Units":"in","Rept_Date":"2020-03-19 06"},"coordinates":[2349,7409]},{"type":"Point","properties":{"Station_ID":"GNLM4","Station_Nam":"GREENLAND 6N","Latitude":"46.87360","Longitude":"-89.10060","Snowdepth":"24.000","Units":"in","Rept_Date":"2020-03-18 12"},"coordinates":[1910,4966]},{"type":"Point","properties":{"Station_ID":"CAN-NB-89","Station_Nam":"MEMRAMCOOK 4.0 W, CAN","Latitude":"46.01133","Longitude":"-64.60244","Snowdepth":"24.000","Units":"in","Rept_Date":"2020-03-18 13"},"coordinates":[7659,4072]},{"type":"Point","properties":{"Station_ID":"SOCQ6","Station_Nam":"SOCKET LAKE","Latitude":"50.77870","Longitude":"-91.79300","Snowdepth":"23.740","Units":"in","Rept_Date":"2020-03-19 06"},"coordinates":[1278,9016]},{"type":"Point","properties":{"Station_ID":"CAN-NB-96","Station_Nam":"SAINT-IGNACE 2.6 NE, CAN","Latitude":"46.71424","Longitude":"-65.05609","Snowdepth":"23.600","Units":"in","Rept_Date":"2020-03-18 11"},"coordinates":[7553,4801]},{"type":"Point","properties":{"Station_ID":"MI-HG-1","Station_Nam":"HOUGHTON 1.6 ESE, MI","Latitude":"47.10774","Longitude":"-88.52940","Snowdepth":"23.500","Units":"in","Rept_Date":"2020-03-18 13"},"coordinates":[2044,5209]},{"type":"Point","properties":{"Station_ID":"KABQ6","Station_Nam":"CAB LAKE","Latitude":"49.59950","Longitude":"-89.17990","Snowdepth":"23.390","Units":"in","Rept_Date":"2020-03-19 06"},"coordinates":[1891,7793]},{"type":"Point","properties":{"Station_ID":"ME-AR-15","Station_Nam":"PRESQUE ISLE 1.3 WSW, ME","Latitude":"46.67960","Longitude":"-68.01270","Snowdepth":"23.000","Units":"in","Rept_Date":"2020-03-18 12"},"coordinates":[6859,4765]},{"type":"Point","properties":{"Station_ID":"RGNM1","Station_Nam":"RANGELEY 2NW","Latitude":"44.98940","Longitude":"-70.67220","Snowdepth":"22.000","Units":"in","Rept_Date":"2020-03-18 10"},"coordinates":[6235,3013]},{"type":"Point","properties":{"Station_ID":"LILM1","Station_Nam":"LILLE","Latitude":"47.27770","Longitude":"-68.10520","Snowdepth":"22.000","Units":"in","Rept_Date":"2020-03-18 11"},"coordinates":[6837,5385]},{"type":"Point","properties":{"Station_ID":"CRVW3","Station_Nam":"CRIVITZ HIGH FALLS","Latitude":"45.35750","Longitude":"-88.19190","Snowdepth":"22.000","Units":"in","Rept_Date":"2020-03-18 12"},"coordinates":[2123,3394]},{"type":"Point","properties":{"Station_ID":"WI-VL-9","Station_Nam":"LAND O' LAKES 11.7 W, WI","Latitude":"46.19023","Longitude":"-89.45790","Snowdepth":"21.000","Units":"in","Rept_Date":"2020-03-18 13"},"coordinates":[1826,4258]},{"type":"Point","properties":{"Station_ID":"VT-OL-12","Station_Nam":"GREENSBORO 3.9 NNE, VT","Latitude":"44.63100","Longitude":"-72.28000","Snowdepth":"21.000","Units":"in","Rept_Date":"2020-03-18 12"},"coordinates":[5858,2641]},{"type":"Point","properties":{"Station_ID":"MN-IT-10","Station_Nam":"DEER RIVER 3.7 W, MN","Latitude":"47.33564","Longitude":"-93.87514","Snowdepth":"21.000","Units":"in","Rept_Date":"2020-03-18 14"},"coordinates":[789,5445]},{"type":"Point","properties":{"Station_ID":"LNOW3","Station_Nam":"LAND O LAKES","Latitude":"46.19000","Longitude":"-89.45700","Snowdepth":"21.000","Units":"in","Rept_Date":"2020-03-18 12"},"coordinates":[1826,4258]},{"type":"Point","properties":{"Station_ID":"BRDM1","Station_Nam":"BRIDGEWATER","Latitude":"46.42870","Longitude":"-67.84370","Snowdepth":"21.000","Units":"in","Rept_Date":"2020-03-18 22"},"coordinates":[6899,4505]},{"type":"Point","properties":{"Station_ID":"BRAM1","Station_Nam":"BRASSUA DAM","Latitude":"45.66020","Longitude":"-69.81190","Snowdepth":"21.000","Units":"in","Rept_Date":"2020-03-18 11"},"coordinates":[6437,3708]},{"type":"Point","properties":{"Station_ID":"CATQ6","Station_Nam":"CAT LAKE","Latitude":"51.72690","Longitude":"-91.82210","Snowdepth":"20.550","Units":"in","Rept_Date":"2020-03-19 06"},"coordinates":[1271,9999]},{"type":"Point","properties":{"Station_ID":"CAN-PE-19","Station_Nam":"CHARLOTTETOWN 6.5 NNW, CAN","Latitude":"46.29235","Longitude":"-63.17271","Snowdepth":"20.100","Units":"in","Rept_Date":"2020-03-18 12"},"coordinates":[7995,4364]},{"type":"Point","properties":{"Station_ID":"SUAW3","Station_Nam":"SUAMICO","Latitude":"44.60190","Longitude":"-88.09780","Snowdepth":"20.000","Units":"in","Rept_Date":"2020-03-18 11"},"coordinates":[2145,2611]},{"type":"Point","properties":{"Station_ID":"SSMM4","Station_Nam":"SAULT STE MARIE","Latitude":"46.48660","Longitude":"-84.40250","Snowdepth":"20.000","Units":"in","Rept_Date":"2020-03-18 12"},"coordinates":[3013,4565]},{"type":"Point","properties":{"Station_ID":"RKWM1","Station_Nam":"MOOSEHEAD LAKE","Latitude":"45.58330","Longitude":"-69.71670","Snowdepth":"20.000","Units":"in","Rept_Date":"2020-03-18 11"},"coordinates":[6459,3628]},{"type":"Point","properties":{"Station_ID":"PDGM4","Station_Nam":"PAULDING","Latitude":"46.39760","Longitude":"-89.17940","Snowdepth":"20.000","Units":"in","Rept_Date":"2020-03-18 20"},"coordinates":[1891,4473]},{"type":"Point","properties":{"Station_ID":"MN-IT-23","Station_Nam":"BOVEY 13.4 N, MN","Latitude":"47.48855","Longitude":"-93.43497","Snowdepth":"20.000","Units":"in","Rept_Date":"2020-03-18 13"},"coordinates":[893,5604]},{"type":"Point","properties":{"Station_ID":"IFSM5","Station_Nam":"INTERNATIONAL FALLS SNOW","Latitude":"48.57780","Longitude":"-93.39640","Snowdepth":"20.000","Units":"in","Rept_Date":"2020-03-19 06"},"coordinates":[902,6734]},{"type":"Point","properties":{"Station_ID":"GLDM4","Station_Nam":"GLADSTONE NO. 2","Latitude":"45.84330","Longitude":"-87.03910","Snowdepth":"20.000","Units":"in","Rept_Date":"2020-03-18 11"},"coordinates":[2394,3898]},{"type":"Point","properties":{"Station_ID":"CAN-NB-18","Station_Nam":"MCLEOD HILL 1.1 ENE, CA","Latitude":"46.02725","Longitude":"-66.67460","Snowdepth":"20.000","Units":"in","Rept_Date":"2020-03-18 12"},"coordinates":[7173,4089]},{"type":"Point","properties":{"Station_ID":"ANJM4","Station_Nam":"SNOW PAID OBSERVER FOR KANJ","Latitude":"46.48670","Longitude":"-84.40260","Snowdepth":"20.000","Units":"in","Rept_Date":"2020-03-18 18"},"coordinates":[3013,4565]},{"type":"Point","properties":{"Station_ID":"ANJ","Station_Nam":"SAULT STE MARIE","Latitude":"46.46670","Longitude":"-84.36670","Snowdepth":"20.000","Units":"in","Rept_Date":"2020-03-19 00"},"coordinates":[3021,4544]},{"type":"Point","properties":{"Station_ID":"MN-IT-17","Station_Nam":"GRAND RAPIDS 6.1 N, MN","Latitude":"47.31165","Longitude":"-93.55036","Snowdepth":"19.000","Units":"in","Rept_Date":"2020-03-18 13"},"coordinates":[866,5421]},{"type":"Point","properties":{"Station_ID":"IWOM4","Station_Nam":"IRONWOOD#2","Latitude":"46.46520","Longitude":"-90.13820","Snowdepth":"19.000","Units":"in","Rept_Date":"2020-03-18 12"},"coordinates":[1666,4543]},{"type":"Point","properties":{"Station_ID":"INL","Station_Nam":"FALLS INTERNATIONAL ARPT","Latitude":"48.56640","Longitude":"-93.40310","Snowdepth":"19.000","Units":"in","Rept_Date":"2020-03-19 00"},"coordinates":[900,6722]},{"type":"Point","properties":{"Station_ID":"EVRW3","Station_Nam":"EAGLE RIVER-4 E","Latitude":"45.91890","Longitude":"-89.15280","Snowdepth":"19.000","Units":"in","Rept_Date":"2020-03-18 12"},"coordinates":[1898,3976]},{"type":"Point","properties":{"Station_ID":"DFXM1","Station_Nam":"DOVER-FOXCROFT","Latitude":"45.18720","Longitude":"-69.18350","Snowdepth":"19.000","Units":"in","Rept_Date":"2020-03-18 11"},"coordinates":[6584,3218]},{"type":"Point","properties":{"Station_ID":"CLQM5","Station_Nam":"CLOQUET","Latitude":"46.70470","Longitude":"-92.52530","Snowdepth":"19.000","Units":"in","Rept_Date":"2020-03-18 13"},"coordinates":[1106,4791]},{"type":"Point","properties":{"Station_ID":"CEFM4","Station_Nam":"EXPERIMENT FARM #2","Latitude":"46.33330","Longitude":"-86.91670","Snowdepth":"19.000","Units":"in","Rept_Date":"2020-03-18 12"},"coordinates":[2422,4406]},{"type":"Point","properties":{"Station_ID":"WNBM5","Station_Nam":"DAM","Latitude":"47.43060","Longitude":"-94.05000","Snowdepth":"18.000","Units":"in","Rept_Date":"2020-03-18 13"},"coordinates":[748,5544]},{"type":"Point","properties":{"Station_ID":"NOHM5","Station_Nam":"NORTHOME","Latitude":"47.83590","Longitude":"-94.25550","Snowdepth":"18.000","Units":"in","Rept_Date":"2020-03-18 12"},"coordinates":[700,5964]},{"type":"Point","properties":{"Station_ID":"MI-MQ-19","Station_Nam":"ISHPEMING 7.2 SW, MI","Latitude":"46.40550","Longitude":"-87.75670","Snowdepth":"18.000","Units":"in","Rept_Date":"2020-03-18 11"},"coordinates":[2225,4481]},{"type":"Point","properties":{"Station_ID":"MI-CP-14","Station_Nam":"SAULT STE. MARIE 2.2 E, MI","Latitude":"46.48933","Longitude":"-84.31971","Snowdepth":"18.000","Units":"in","Rept_Date":"2020-03-18 14"},"coordinates":[3032,4568]},{"type":"Point","properties":{"Station_ID":"LVDW3","Station_Nam":"LAC VIEUX DESERT","Latitude":"46.12110","Longitude":"-89.07580","Snowdepth":"18.000","Units":"in","Rept_Date":"2020-03-18 13"},"coordinates":[1916,4186]},{"type":"Point","properties":{"Station_ID":"KABM5","Station_Nam":"KABETOGAMA LAKE VISITOR CTR","Latitude":"48.40880","Longitude":"-93.04840","Snowdepth":"18.000","Units":"in","Rept_Date":"2020-03-18 12"},"coordinates":[983,6558]},{"type":"Point","properties":{"Station_ID":"JKMM1","Station_Nam":"JACKMAN","Latitude":"45.62600","Longitude":"-70.24600","Snowdepth":"18.000","Units":"in","Rept_Date":"2020-03-18 11"},"coordinates":[6335,3673]},{"type":"Point","properties":{"Station_ID":"WI-VL-14","Station_Nam":"BOULDER JUNCTION 1.4 NE, WI","Latitude":"46.12840","Longitude":"-89.62470","Snowdepth":"17.500","Units":"in","Rept_Date":"2020-03-18 13"},"coordinates":[1787,4194]},{"type":"Point","properties":{"Station_ID":"VT-CL-3","Station_Nam":"GROTON 4.4 WSW, VT","Latitude":"44.19440","Longitude":"-72.28240","Snowdepth":"17.500","Units":"in","Rept_Date":"2020-03-18 11"},"coordinates":[5857,2188]},{"type":"Point","properties":{"Station_ID":"STGW3","Station_Nam":"ST GERMAIN","Latitude":"45.91550","Longitude":"-89.48940","Snowdepth":"17.000","Units":"in","Rept_Date":"2020-03-18 11"},"coordinates":[1819,3973]},{"type":"Point","properties":{"Station_ID":"RPDM4","Station_Nam":"RAPID RIVER 4SSE","Latitude":"45.87270","Longitude":"-86.94960","Snowdepth":"17.000","Units":"in","Rept_Date":"2020-03-18 13"},"coordinates":[2415,3928]},{"type":"Point","properties":{"Station_ID":"PRDM4","Station_Nam":"PARADISE","Latitude":"46.60380","Longitude":"-85.03960","Snowdepth":"17.000","Units":"in","Rept_Date":"2020-03-18 10"},"coordinates":[2863,4687]},{"type":"Point","properties":{"Station_ID":"PHEW3","Station_Nam":"PHELPS","Latitude":"46.06630","Longitude":"-89.07520","Snowdepth":"17.000","Units":"in","Rept_Date":"2020-03-18 12"},"coordinates":[1916,4129]},{"type":"Point","properties":{"Station_ID":"HURW3","Station_Nam":"HURLEY","Latitude":"46.46250","Longitude":"-90.19550","Snowdepth":"17.000","Units":"in","Rept_Date":"2020-03-18 13"},"coordinates":[1653,4540]},{"type":"Point","properties":{"Station_ID":"ELYM5","Station_Nam":"ELY","Latitude":"47.90560","Longitude":"-91.82830","Snowdepth":"17.000","Units":"in","Rept_Date":"2020-03-18 15"},"coordinates":[1270,6036]},{"type":"Point","properties":{"Station_ID":"DLHM5","Station_Nam":"DULUTH NWS","Latitude":"46.83680","Longitude":"-92.21080","Snowdepth":"17.000","Units":"in","Rept_Date":"2020-03-19 06"},"coordinates":[1180,4928]},{"type":"Point","properties":{"Station_ID":"DLH","Station_Nam":"DULUTH, MN","Latitude":"46.83690","Longitude":"-92.21030","Snowdepth":"17.000","Units":"in","Rept_Date":"2020-03-19 00"},"coordinates":[1180,4928]},{"type":"Point","properties":{"Station_ID":"CSLM5","Station_Nam":"CASS LAKE,MN","Latitude":"47.38470","Longitude":"-94.61470","Snowdepth":"17.000","Units":"in","Rept_Date":"2020-03-18 13"},"coordinates":[616,5496]},{"type":"Point","properties":{"Station_ID":"CAN-NS-60","Station_Nam":"SYDNEY FORKS, CAN","Latitude":"46.05645","Longitude":"-60.31510","Snowdepth":"17.000","Units":"in","Rept_Date":"2020-03-18 14"},"coordinates":[8666,4119]},{"type":"Point","properties":{"Station_ID":"CAN-NB-2","Station_Nam":"GRAFTON 2.7 NNE, CA","Latitude":"46.17062","Longitude":"-67.55330","Snowdepth":"17.000","Units":"in","Rept_Date":"2020-03-18 10"},"coordinates":[6967,4237]},{"type":"Point","properties":{"Station_ID":"BABM5","Station_Nam":"BABBITT","Latitude":"47.71210","Longitude":"-91.95330","Snowdepth":"17.000","Units":"in","Rept_Date":"2020-03-18 12"},"coordinates":[1240,5836]},{"type":"Point","properties":{"Station_ID":"LFRN3","Station_Nam":"LAKE FRANCIS STATE PARK","Latitude":"45.05970","Longitude":"-71.30130","Snowdepth":"16.600","Units":"in","Rept_Date":"2020-03-18 12"},"coordinates":[6087,3085]},{"type":"Point","properties":{"Station_ID":"NH-CS-10","Station_Nam":"RANDOLPH 1.4 NE, NH","Latitude":"44.38824","Longitude":"-71.26950","Snowdepth":"16.500","Units":"in","Rept_Date":"2020-03-18 12"},"coordinates":[6095,2389]},{"type":"Point","properties":{"Station_ID":"CAN-NS-103","Station_Nam":"TRAFALGAR 4.9 WSW, CAN","Latitude":"45.26217","Longitude":"-62.72285","Snowdepth":"16.500","Units":"in","Rept_Date":"2020-03-18 12"},"coordinates":[8101,3295]},{"type":"Point","properties":{"Station_ID":"CAN-MB-298","Station_Nam":"GARDENTON 4.2 W - SRRCD, CAN","Latitude":"49.09480","Longitude":"-96.75446","Snowdepth":"16.100","Units":"in","Rept_Date":"2020-03-18 14"},"coordinates":[114,7270]},{"type":"Point","properties":{"Station_ID":"WI-ON-8","Station_Nam":"HAZELHURST 2.1 SSE, WI","Latitude":"45.78186","Longitude":"-89.70330","Snowdepth":"16.000","Units":"in","Rept_Date":"2020-03-18 13"},"coordinates":[1768,3834]},{"type":"Point","properties":{"Station_ID":"WI-BY-2","Station_Nam":"MELLEN 18.6 SW, WI","Latitude":"46.16937","Longitude":"-90.98090","Snowdepth":"16.000","Units":"in","Rept_Date":"2020-03-18 13"},"coordinates":[1469,4236]},{"type":"Point","properties":{"Station_ID":"MN-SL-18","Station_Nam":"DULUTH 1.4 NNW, MN","Latitude":"46.80321","Longitude":"-92.11240","Snowdepth":"16.000","Units":"in","Rept_Date":"2020-03-18 13"},"coordinates":[1203,4893]},{"type":"Point","properties":{"Station_ID":"MIEM4","Station_Nam":"MICHIGAMME 3WNW","Latitude":"46.54530","Longitude":"-88.18000","Snowdepth":"16.000","Units":"in","Rept_Date":"2020-03-18 12"},"coordinates":[2126,4626]},{"type":"Point","properties":{"Station_ID":"MI-GG-4","Station_Nam":"WATERSMEET 5.0 SE, MI","Latitude":"46.20333","Longitude":"-89.13170","Snowdepth":"16.000","Units":"in","Rept_Date":"2020-03-18 14"},"coordinates":[1903,4271]},{"type":"Point","properties":{"Station_ID":"LEIM5","Station_Nam":"ORR 3E","Latitude":"48.05810","Longitude":"-92.75220","Snowdepth":"16.000","Units":"in","Rept_Date":"2020-03-18 11"},"coordinates":[1053,6195]},{"type":"Point","properties":{"Station_ID":"KINM1","Station_Nam":"KINGFIELD","Latitude":"44.95950","Longitude":"-70.17530","Snowdepth":"16.000","Units":"in","Rept_Date":"2020-03-18 11"},"coordinates":[6352,2982]},{"type":"Point","properties":{"Station_ID":"GHMN3","Station_Nam":"PINKHAM NOTCH","Latitude":"44.25800","Longitude":"-71.25250","Snowdepth":"16.000","Units":"in","Rept_Date":"2020-03-18 10"},"coordinates":[6099,2254]},{"type":"Point","properties":{"Station_ID":"GGRM4","Station_Nam":"GREEN GARDEN NO.2","Latitude":"46.45330","Longitude":"-87.30380","Snowdepth":"16.000","Units":"in","Rept_Date":"2020-03-18 13"},"coordinates":[2332,4531]},{"type":"Point","properties":{"Station_ID":"EMBM5","Station_Nam":"EMBARASS,MN","Latitude":"47.65810","Longitude":"-92.19580","Snowdepth":"16.000","Units":"in","Rept_Date":"2020-03-18 11"},"coordinates":[1184,5780]},{"type":"Point","properties":{"Station_ID":"CRLM5","Station_Nam":"CROSS LAKE DAM","Latitude":"46.66930","Longitude":"-94.11060","Snowdepth":"16.000","Units":"in","Rept_Date":"2020-03-18 13"},"coordinates":[734,4755]},{"type":"Point","properties":{"Station_ID":"CMKW3","Station_Nam":"CLAM LAKE 4W","Latitude":"46.16940","Longitude":"-90.98080","Snowdepth":"16.000","Units":"in","Rept_Date":"2020-03-18 12"},"coordinates":[1469,4236]},{"type":"Point","properties":{"Station_ID":"MN-SL-15","Station_Nam":"CHISHOLM 0.4 WSW, MN","Latitude":"47.48557","Longitude":"-92.88690","Snowdepth":"15.500","Units":"in","Rept_Date":"2020-03-18 13"},"coordinates":[1021,5601]},{"type":"Point","properties":{"Station_ID":"MN-IT-7","Station_Nam":"GRAND RAPIDS 6.2 SSW, MN","Latitude":"47.13687","Longitude":"-93.56660","Snowdepth":"15.500","Units":"in","Rept_Date":"2020-03-18 12"},"coordinates":[862,5239]},{"type":"Point","properties":{"Station_ID":"WTNM4","Station_Nam":"WATTON 2WSW","Latitude":"46.52660","Longitude":"-88.64240","Snowdepth":"15.000","Units":"in","Rept_Date":"2020-03-18 12"},"coordinates":[2017,4607]},{"type":"Point","properties":{"Station_ID":"WI-DG-20","Station_Nam":"SOLON SPRINGS 1.2 W, WI","Latitude":"46.35217","Longitude":"-91.84405","Snowdepth":"15.000","Units":"in","Rept_Date":"2020-03-18 13"},"coordinates":[1266,4426]},{"type":"Point","properties":{"Station_ID":"WI-BY-22","Station_Nam":"MASON 11.5 WNW, WI","Latitude":"46.50198","Longitude":"-91.28339","Snowdepth":"15.000","Units":"in","Rept_Date":"2020-03-18 14"},"coordinates":[1398,4581]},{"type":"Point","properties":{"Station_ID":"TOGM5","Station_Nam":"CELINA 2E","Latitude":"47.86630","Longitude":"-93.02660","Snowdepth":"15.000","Units":"in","Rept_Date":"2020-03-18 14"},"coordinates":[989,5996]},{"type":"Point","properties":{"Station_ID":"SUTV1","Station_Nam":"SUTTON","Latitude":"44.61220","Longitude":"-72.04810","Snowdepth":"15.000","Units":"in","Rept_Date":"2020-03-18 12"},"coordinates":[5912,2621]},{"type":"Point","properties":{"Station_ID":"RANM1","Station_Nam":"RANGELEY","Latitude":"44.98910","Longitude":"-70.67190","Snowdepth":"15.000","Units":"in","Rept_Date":"2020-03-18 10"},"coordinates":[6235,3012]},{"type":"Point","properties":{"Station_ID":"MI-DL-1","Station_Nam":"GARDEN CORNERS 0.8 NW, MI","Latitude":"45.89815","Longitude":"-86.54850","Snowdepth":"15.000","Units":"in","Rept_Date":"2020-03-18 13"},"coordinates":[2509,3955]},{"type":"Point","properties":{"Station_ID":"JCBM4","Station_Nam":"JACOBSVILLE","Latitude":"47.00830","Longitude":"-88.43180","Snowdepth":"15.000","Units":"in","Rept_Date":"2020-03-18 11"},"coordinates":[2067,5106]},{"type":"Point","properties":{"Station_ID":"GDCM4","Station_Nam":"GARDEN CORNERS","Latitude":"45.89830","Longitude":"-86.54850","Snowdepth":"15.000","Units":"in","Rept_Date":"2020-03-18 12"},"coordinates":[2509,3955]},{"type":"Point","properties":{"Station_ID":"FTHQ6","Station_Nam":"FORT HOPE","Latitude":"51.55820","Longitude":"-87.90510","Snowdepth":"15.000","Units":"in","Rept_Date":"2020-03-19 06"},"coordinates":[2191,9824]},{"type":"Point","properties":{"Station_ID":"COKM5","Station_Nam":"COOK","Latitude":"47.85060","Longitude":"-92.69250","Snowdepth":"15.000","Units":"in","Rept_Date":"2020-03-18 11"},"coordinates":[1067,5979]},{"type":"Point","properties":{"Station_ID":"CAN-NB-64","Station_Nam":"KESWICK RIDGE 4.0 SE, CAN","Latitude":"45.97014","Longitude":"-66.85538","Snowdepth":"15.000","Units":"in","Rept_Date":"2020-03-18 13"},"coordinates":[7131,4030]},{"type":"Point","properties":{"Station_ID":"BNDM5","Station_Nam":"ELY 25E","Latitude":"47.97190","Longitude":"-91.44860","Snowdepth":"15.000","Units":"in","Rept_Date":"2020-03-18 12"},"coordinates":[1359,6105]},{"type":"Point","properties":{"Station_ID":"AMAM4","Station_Nam":"AMASA 1W","Latitude":"46.23470","Longitude":"-88.45440","Snowdepth":"15.000","Units":"in","Rept_Date":"2020-03-18 13"},"coordinates":[2062,4304]},{"type":"Point","properties":{"Station_ID":"CAN-ON-757","Station_Nam":"SAULT STE. MARIE 2.8 ESE - GLFC, CAN","Latitude":"46.50300","Longitude":"-84.30300","Snowdepth":"14.600","Units":"in","Rept_Date":"2020-03-18 13"},"coordinates":[3036,4582]},{"type":"Point","properties":{"Station_ID":"WI-BY-14","Station_Nam":"ASHLAND 9.8 W, WI","Latitude":"46.59742","Longitude":"-91.07856","Snowdepth":"14.500","Units":"in","Rept_Date":"2020-03-18 12"},"coordinates":[1446,4680]},{"type":"Point","properties":{"Station_ID":"WRSM5","Station_Nam":"WRENSHALL","Latitude":"46.61550","Longitude":"-92.38380","Snowdepth":"14.000","Units":"in","Rept_Date":"2020-03-18 13"},"coordinates":[1139,4699]},{"type":"Point","properties":{"Station_ID":"PTBN3","Station_Nam":"PITTSBURG RESERVOIR","Latitude":"45.04690","Longitude":"-71.38300","Snowdepth":"14.000","Units":"in","Rept_Date":"2020-03-18 12"},"coordinates":[6068,3072]},{"type":"Point","properties":{"Station_ID":"MWN","Station_Nam":"MOUNT WASHINGTON","Latitude":"44.26670","Longitude":"-71.30000","Snowdepth":"14.000","Units":"in","Rept_Date":"2020-03-19 04"},"coordinates":[6088,2263]},{"type":"Point","properties":{"Station_ID":"MN-SL-108","Station_Nam":"IRON JUNCTION 3.4 NNW, MN","Latitude":"47.46150","Longitude":"-92.63130","Snowdepth":"14.000","Units":"in","Rept_Date":"2020-03-18 13"},"coordinates":[1081,5576]},{"type":"Point","properties":{"Station_ID":"MN-BK-6","Station_Nam":"LAKE PARK 6.0 S, MN","Latitude":"46.79850","Longitude":"-96.12180","Snowdepth":"14.000","Units":"in","Rept_Date":"2020-03-18 13"},"coordinates":[262,4888]},{"type":"Point","properties":{"Station_ID":"MI-DL-4","Station_Nam":"GLADSTONE 2.1 SW, MI","Latitude":"45.83218","Longitude":"-87.05727","Snowdepth":"14.000","Units":"in","Rept_Date":"2020-03-18 12"},"coordinates":[2389,3886]},{"type":"Point","properties":{"Station_ID":"MAIW3","Station_Nam":"MADELINE ISLAND","Latitude":"46.78330","Longitude":"-90.76670","Snowdepth":"14.000","Units":"in","Rept_Date":"2020-03-18 14"},"coordinates":[1519,4873]},{"type":"Point","properties":{"Station_ID":"LPLN6","Station_Nam":"LAKE PLACID 2 S","Latitude":"44.30420","Longitude":"-73.98390","Snowdepth":"14.000","Units":"in","Rept_Date":"2020-03-18 12"},"coordinates":[5458,2302]},{"type":"Point","properties":{"Station_ID":"KMWN","Station_Nam":"MOUNT WASHINGTON","Latitude":"44.26666","Longitude":"-71.30000","Snowdepth":"14.000","Units":"in","Rept_Date":"2020-03-19 06"},"coordinates":[6088,2263]},{"type":"Point","properties":{"Station_ID":"IRMM4","Station_Nam":"WWTP","Latitude":"46.46670","Longitude":"-90.18330","Snowdepth":"14.000","Units":"in","Rept_Date":"2020-03-18 12"},"coordinates":[1656,4544]},{"type":"Point","properties":{"Station_ID":"INDM5","Station_Nam":"INDUS,MN","Latitude":"48.61670","Longitude":"-93.90000","Snowdepth":"14.000","Units":"in","Rept_Date":"2020-03-18 13"},"coordinates":[784,6774]},{"type":"Point","properties":{"Station_ID":"FEDM5","Station_Nam":"LEECH LAKE DAM","Latitude":"47.24670","Longitude":"-94.22280","Snowdepth":"14.000","Units":"in","Rept_Date":"2020-03-18 13"},"coordinates":[708,5353]},{"type":"Point","properties":{"Station_ID":"BRSW3","Station_Nam":"BRULE,WI","Latitude":"46.53780","Longitude":"-91.59190","Snowdepth":"14.000","Units":"in","Rept_Date":"2020-03-18 15"},"coordinates":[1325,4618]},{"type":"Point","properties":{"Station_ID":"AVTW3","Station_Nam":"ARBOR VITAE-JOHNSON LAKE","Latitude":"45.89940","Longitude":"-89.72670","Snowdepth":"14.000","Units":"in","Rept_Date":"2020-03-18 11"},"coordinates":[1763,3956]},{"type":"Point","properties":{"Station_ID":"AVLV1","Station_Nam":"AVERILL","Latitude":"45.00570","Longitude":"-71.69030","Snowdepth":"14.000","Units":"in","Rept_Date":"2020-03-18 12"},"coordinates":[5996,3029]},{"type":"Point","properties":{"Station_ID":"CAN-NB-97","Station_Nam":"NEW MARYLAND 0.6 NW, CAN","Latitude":"45.90112","Longitude":"-66.68739","Snowdepth":"13.800","Units":"in","Rept_Date":"2020-03-18 11"},"coordinates":[7170,3958]},{"type":"Point","properties":{"Station_ID":"CAN-NB-57","Station_Nam":"JOLICURE 2.8 NE, CAN","Latitude":"45.96081","Longitude":"-64.18848","Snowdepth":"13.800","Units":"in","Rept_Date":"2020-03-18 12"},"coordinates":[7757,4020]},{"type":"Point","properties":{"Station_ID":"CAN-NB-16","Station_Nam":"DORCHESTER 1.0 SSE, CAN","Latitude":"45.89160","Longitude":"-64.51269","Snowdepth":"13.700","Units":"in","Rept_Date":"2020-03-18 11"},"coordinates":[7681,3948]},{"type":"Point","properties":{"Station_ID":"TAKW3","Station_Nam":"RICE RESERVOIR NO. 2","Latitude":"45.53770","Longitude":"-89.73220","Snowdepth":"13.000","Units":"in","Rept_Date":"2020-03-18 12"},"coordinates":[1762,3581]},{"type":"Point","properties":{"Station_ID":"MN-IT-1","Station_Nam":"GRAND RAPIDS 2.0 E, MN","Latitude":"47.22266","Longitude":"-93.49600","Snowdepth":"13.000","Units":"in","Rept_Date":"2020-03-18 12"},"coordinates":[878,5328]},{"type":"Point","properties":{"Station_ID":"MN-CK-6","Station_Nam":"GRAND MARAIS 4.4 W, MN","Latitude":"47.74865","Longitude":"-90.43760","Snowdepth":"13.000","Units":"in","Rept_Date":"2020-03-18 13"},"coordinates":[1596,5874]},{"type":"Point","properties":{"Station_ID":"ME-FR-4","Station_Nam":"NEW SHARON 2.0 NW, ME","Latitude":"44.66582","Longitude":"-70.02720","Snowdepth":"13.000","Units":"in","Rept_Date":"2020-03-18 12"},"coordinates":[6386,2677]},{"type":"Point","properties":{"Station_ID":"IMNM4","Station_Nam":"IRON MOUTAIN 5N","Latitude":"45.87580","Longitude":"-88.04030","Snowdepth":"13.000","Units":"in","Rept_Date":"2020-03-18 12"},"coordinates":[2159,3932]},{"type":"Point","properties":{"Station_ID":"GRFN8","Station_Nam":"UNIVERSITY","Latitude":"47.93330","Longitude":"-97.08330","Snowdepth":"13.000","Units":"in","Rept_Date":"2020-03-19 05"},"coordinates":[36,6065]},{"type":"Point","properties":{"Station_ID":"CLKM4","Station_Nam":"CLARKSBURG","Latitude":"46.49910","Longitude":"-87.84500","Snowdepth":"13.000","Units":"in","Rept_Date":"2020-03-18 11"},"coordinates":[2205,4578]},{"type":"Point","properties":{"Station_ID":"CAN-MB-32","Station_Nam":"PINAWA 1.0 SW, CA","Latitude":"50.14747","Longitude":"-95.89020","Snowdepth":"13.000","Units":"in","Rept_Date":"2020-03-18 13"},"coordinates":[316,8361]},{"type":"Point","properties":{"Station_ID":"AURW3","Station_Nam":"AURORA","Latitude":"45.77000","Longitude":"-88.11810","Snowdepth":"13.000","Units":"in","Rept_Date":"2020-03-18 12"},"coordinates":[2141,3822]},{"type":"Point","properties":{"Station_ID":"AGNW3","Station_Nam":"ARGONNE-1.5 NW","Latitude":"45.67360","Longitude":"-88.90380","Snowdepth":"13.000","Units":"in","Rept_Date":"2020-03-18 12"},"coordinates":[1956,3722]},{"type":"Point","properties":{"Station_ID":"WI-BY-1","Station_Nam":"BAYFIELD 8.8 N, WI","Latitude":"46.93855","Longitude":"-90.83490","Snowdepth":"12.500","Units":"in","Rept_Date":"2020-03-18 13"},"coordinates":[1503,5034]},{"type":"Point","properties":{"Station_ID":"VT-BN-12","Station_Nam":"STAMFORD 5.0 NNE, VT","Latitude":"42.82000","Longitude":"-73.02000","Snowdepth":"12.500","Units":"in","Rept_Date":"2020-03-18 21"},"coordinates":[5684,763]},{"type":"Point","properties":{"Station_ID":"ZNOM4","Station_Nam":"NORWAY","Latitude":"45.77810","Longitude":"-87.89560","Snowdepth":"12.000","Units":"in","Rept_Date":"2020-03-18 12"},"coordinates":[2193,3830]},{"type":"Point","properties":{"Station_ID":"WRUM5","Station_Nam":"WARROAD 4W","Latitude":"48.89600","Longitude":"-95.40700","Snowdepth":"12.000","Units":"in","Rept_Date":"2020-03-19 03"},"coordinates":[430,7063]},{"type":"Point","properties":{"Station_ID":"VT-ES-1","Station_Nam":"GRANBY 1.4 NW, VT","Latitude":"44.58330","Longitude":"-71.77870","Snowdepth":"12.000","Units":"in","Rept_Date":"2020-03-18 12"},"coordinates":[5975,2591]},{"type":"Point","properties":{"Station_ID":"PRNW3","Station_Nam":"PRENTICE,WI","Latitude":"45.54780","Longitude":"-90.30000","Snowdepth":"12.000","Units":"in","Rept_Date":"2020-03-18 13"},"coordinates":[1628,3592]},{"type":"Point","properties":{"Station_ID":"PKGM5","Station_Nam":"POKEGANA LK DAM","Latitude":"47.25080","Longitude":"-93.58610","Snowdepth":"12.000","Units":"in","Rept_Date":"2020-03-18 13"},"coordinates":[857,5358]},{"type":"Point","properties":{"Station_ID":"MWTM1","Station_Nam":"MILLINOCKET WWTP","Latitude":"45.64030","Longitude":"-68.67480","Snowdepth":"12.000","Units":"in","Rept_Date":"2020-03-18 11"},"coordinates":[6704,3687]},{"type":"Point","properties":{"Station_ID":"MRAM4","Station_Nam":"MORAN","Latitude":"45.99030","Longitude":"-84.83610","Snowdepth":"12.000","Units":"in","Rept_Date":"2020-03-18 12"},"coordinates":[2911,4050]},{"type":"Point","properties":{"Station_ID":"GLLM5","Station_Nam":"GULL LAKE DAM","Latitude":"46.41190","Longitude":"-94.35000","Snowdepth":"12.000","Units":"in","Rept_Date":"2020-03-18 13"},"coordinates":[678,4488]},{"type":"Point","properties":{"Station_ID":"FLNW3","Station_Nam":"FLORENCE","Latitude":"45.93360","Longitude":"-88.25830","Snowdepth":"12.000","Units":"in","Rept_Date":"2020-03-18 12"},"coordinates":[2108,3992]},{"type":"Point","properties":{"Station_ID":"EAHV1","Station_Nam":"EAST HAVEN","Latitude":"44.64250","Longitude":"-71.89120","Snowdepth":"12.000","Units":"in","Rept_Date":"2020-03-18 11"},"coordinates":[5949,2653]},{"type":"Point","properties":{"Station_ID":"CAN-PE-7","Station_Nam":"MORELL 1.4 NNW, CA","Latitude":"46.42741","Longitude":"-62.70870","Snowdepth":"12.000","Units":"in","Rept_Date":"2020-03-18 12"},"coordinates":[8104,4504]},{"type":"Point","properties":{"Station_ID":"CAN-PE-3","Station_Nam":"WELLINGTON 1.6 NE, CA","Latitude":"46.46672","Longitude":"-63.98920","Snowdepth":"12.000","Units":"in","Rept_Date":"2020-03-18 11"},"coordinates":[7803,4544]},{"type":"Point","properties":{"Station_ID":"CAN-NS-94","Station_Nam":"MARGAREE FORKS 2.6 SSE CBN, CAN","Latitude":"46.30937","Longitude":"-61.07603","Snowdepth":"12.000","Units":"in","Rept_Date":"2020-03-18 13"},"coordinates":[8487,4381]},{"type":"Point","properties":{"Station_ID":"BTLN3","Station_Nam":"BARTLETT","Latitude":"44.08380","Longitude":"-71.29340","Snowdepth":"12.000","Units":"in","Rept_Date":"2020-03-18 11"},"coordinates":[6089,2073]},{"type":"Point","properties":{"Station_ID":"CAN-NB-1","Station_Nam":"FREDERICTON 4.0 SSE, CA","Latitude":"45.92897","Longitude":"-66.62830","Snowdepth":"11.800","Units":"in","Rept_Date":"2020-03-18 12"},"coordinates":[7184,3987]},{"type":"Point","properties":{"Station_ID":"VT-WS-7","Station_Nam":"MIDDLESEX 3.1 ENE, VT","Latitude":"44.31799","Longitude":"-72.62650","Snowdepth":"11.500","Units":"in","Rept_Date":"2020-03-18 13"},"coordinates":[5776,2316]},{"type":"Point","properties":{"Station_ID":"WTRM4","Station_Nam":"WATERSMEET 12WSW","Latitude":"46.22310","Longitude":"-89.40850","Snowdepth":"11.000","Units":"in","Rept_Date":"2020-03-18 11"},"coordinates":[1838,4292]},{"type":"Point","properties":{"Station_ID":"WI-SR-1","Station_Nam":"HAYWARD 9.2 NNE, WI","Latitude":"46.13255","Longitude":"-91.40500","Snowdepth":"11.000","Units":"in","Rept_Date":"2020-03-18 12"},"coordinates":[1369,4198]},{"type":"Point","properties":{"Station_ID":"VT-OL-1","Station_Nam":"WESTFIELD 0.7 WNW, VT","Latitude":"44.89160","Longitude":"-72.44350","Snowdepth":"11.000","Units":"in","Rept_Date":"2020-03-18 12"},"coordinates":[5819,2911]},{"type":"Point","properties":{"Station_ID":"SEBM5","Station_Nam":"SEBEKA","Latitude":"46.62540","Longitude":"-95.09670","Snowdepth":"11.000","Units":"in","Rept_Date":"2020-03-18 12"},"coordinates":[503,4709]},{"type":"Point","properties":{"Station_ID":"MN-CW-22","Station_Nam":"FORT RIPLEY 0.8 N, MN","Latitude":"46.18089","Longitude":"-94.36510","Snowdepth":"11.000","Units":"in","Rept_Date":"2020-03-18 13"},"coordinates":[674,4248]},{"type":"Point","properties":{"Station_ID":"MI-OT-17","Station_Nam":"GAYLORD 4.1 S, MI","Latitude":"44.96388","Longitude":"-84.68467","Snowdepth":"11.000","Units":"in","Rept_Date":"2020-03-18 12"},"coordinates":[2946,2986]},{"type":"Point","properties":{"Station_ID":"MI-AT-6","Station_Nam":"MANCELONA 0.5 ESE, MI","Latitude":"44.89981","Longitude":"-85.05100","Snowdepth":"11.000","Units":"in","Rept_Date":"2020-03-18 13"},"coordinates":[2860,2920]},{"type":"Point","properties":{"Station_ID":"LBRM5","Station_Nam":"LAKE BRONSON DAM","Latitude":"48.72410","Longitude":"-96.62180","Snowdepth":"11.000","Units":"in","Rept_Date":"2020-03-18 13"},"coordinates":[145,6885]},{"type":"Point","properties":{"Station_ID":"LBKV1","Station_Nam":"LYE BROOK","Latitude":"43.05000","Longitude":"-73.03330","Snowdepth":"11.000","Units":"in","Rept_Date":"2020-03-19 05"},"coordinates":[5681,1001]},{"type":"Point","properties":{"Station_ID":"INDN6","Station_Nam":"INDIAN LAKE","Latitude":"43.75500","Longitude":"-74.27560","Snowdepth":"11.000","Units":"in","Rept_Date":"2020-03-18 13"},"coordinates":[5389,1733]},{"type":"Point","properties":{"Station_ID":"ESGM1","Station_Nam":"EAST SANGERVILLE","Latitude":"45.13690","Longitude":"-69.28060","Snowdepth":"11.000","Units":"in","Rept_Date":"2020-03-18 11"},"coordinates":[6562,3165]},{"type":"Point","properties":{"Station_ID":"COTM5","Station_Nam":"COTTON","Latitude":"47.16870","Longitude":"-92.46290","Snowdepth":"11.000","Units":"in","Rept_Date":"2020-03-18 11"},"coordinates":[1121,5272]},{"type":"Point","properties":{"Station_ID":"ASTW3","Station_Nam":"ATHELSTANE","Latitude":"45.42500","Longitude":"-88.05750","Snowdepth":"11.000","Units":"in","Rept_Date":"2020-03-18 11"},"coordinates":[2155,3464]},{"type":"Point","properties":{"Station_ID":"CAN-NS-166","Station_Nam":"PORT MORIEN 5.7 SSE, CAN","Latitude":"46.08367","Longitude":"-59.85858","Snowdepth":"10.600","Units":"in","Rept_Date":"2020-03-18 10"},"coordinates":[8773,4147]},{"type":"Point","properties":{"Station_ID":"WI-ON-6","Station_Nam":"RHINELANDER 5.2 N, WI","Latitude":"45.71388","Longitude":"-89.42150","Snowdepth":"10.500","Units":"in","Rept_Date":"2020-03-18 13"},"coordinates":[1835,3764]},{"type":"Point","properties":{"Station_ID":"WI-PR-2","Station_Nam":"BUTTERNUT 5.9 SW, WI","Latitude":"45.96501","Longitude":"-90.59750","Snowdepth":"10.000","Units":"in","Rept_Date":"2020-03-18 12"},"coordinates":[1559,4024]},{"type":"Point","properties":{"Station_ID":"VT-CL-18","Station_Nam":"WHEELOCK 1.6 S, VT","Latitude":"44.56491","Longitude":"-72.08830","Snowdepth":"10.000","Units":"in","Rept_Date":"2020-03-18 12"},"coordinates":[5903,2572]},{"type":"Point","properties":{"Station_ID":"RHIW3","Station_Nam":"RHINELANDER","Latitude":"45.59860","Longitude":"-89.45080","Snowdepth":"10.000","Units":"in","Rept_Date":"2020-03-18 12"},"coordinates":[1828,3644]},{"type":"Point","properties":{"Station_ID":"NY-FK-7","Station_Nam":"SARANAC LAKE 6.2 N, NY","Latitude":"44.41359","Longitude":"-74.15211","Snowdepth":"10.000","Units":"in","Rept_Date":"2020-03-18 13"},"coordinates":[5418,2415]},{"type":"Point","properties":{"Station_ID":"NH-CR-26","Station_Nam":"CENTER SANDWICH 4.9 E, NH","Latitude":"43.80976","Longitude":"-71.34150","Snowdepth":"10.000","Units":"in","Rept_Date":"2020-03-18 11"},"coordinates":[6078,1789]},{"type":"Point","properties":{"Station_ID":"MN7M8EBJ","Station_Nam":"LUTSEN 15.7 NNW","Latitude":"47.85324","Longitude":"-89.92908","Snowdepth":"10.000","Units":"in","Rept_Date":"2020-03-18 13"},"coordinates":[1715,5982]},{"type":"Point","properties":{"Station_ID":"MN-PK-15","Station_Nam":"MENTOR 2.5 SSW, MN","Latitude":"47.66625","Longitude":"-96.17328","Snowdepth":"10.000","Units":"in","Rept_Date":"2020-03-18 14"},"coordinates":[250,5788]},{"type":"Point","properties":{"Station_ID":"MN-BK-10","Station_Nam":"DETROIT LAKES 5.7 N, MN","Latitude":"46.88666","Longitude":"-95.84444","Snowdepth":"10.000","Units":"in","Rept_Date":"2020-03-18 10"},"coordinates":[327,4980]},{"type":"Point","properties":{"Station_ID":"ESDN3","Station_Nam":"EAST SANDWICH","Latitude":"43.80990","Longitude":"-71.34250","Snowdepth":"10.000","Units":"in","Rept_Date":"2020-03-18 10"},"coordinates":[6078,1789]},{"type":"Point","properties":{"Station_ID":"CORV1","Station_Nam":"CORINTH","Latitude":"44.00690","Longitude":"-72.31940","Snowdepth":"10.000","Units":"in","Rept_Date":"2020-03-18 11"},"coordinates":[5848,1994]},{"type":"Point","properties":{"Station_ID":"BRAM5","Station_Nam":"BRAINERD","Latitude":"46.34320","Longitude":"-94.20900","Snowdepth":"10.000","Units":"in","Rept_Date":"2020-03-18 12"},"coordinates":[711,4416]},{"type":"Point","properties":{"Station_ID":"WI-BN-6","Station_Nam":"SUAMICO 4.4 WNW, WI","Latitude":"44.66111","Longitude":"-88.11780","Snowdepth":"9.700","Units":"in","Rept_Date":"2020-03-18 14"},"coordinates":[2141,2672]},{"type":"Point","properties":{"Station_ID":"CAN-ON-92","Station_Nam":"DUNROBIN 1.9 W - MVCA, CAN","Latitude":"45.42318","Longitude":"-76.04525","Snowdepth":"9.200","Units":"in","Rept_Date":"2020-03-18 12"},"coordinates":[4974,3462]},{"type":"Point","properties":{"Station_ID":"VT-OL-9","Station_Nam":"GREENSBORO 2.1 NNW, VT","Latitude":"44.60528","Longitude":"-72.30940","Snowdepth":"9.000","Units":"in","Rept_Date":"2020-03-18 12"},"coordinates":[5851,2614]},{"type":"Point","properties":{"Station_ID":"VANM4","Station_Nam":"VANDERBILT 11ENE","Latitude":"45.17020","Longitude":"-84.43970","Snowdepth":"9.000","Units":"in","Rept_Date":"2020-03-18 12"},"coordinates":[3004,3200]},{"type":"Point","properties":{"Station_ID":"TOPM1","Station_Nam":"TOPSFIELD","Latitude":"45.43470","Longitude":"-67.72020","Snowdepth":"9.000","Units":"in","Rept_Date":"2020-03-18 11"},"coordinates":[6928,3474]},{"type":"Point","properties":{"Station_ID":"PBAN8","Station_Nam":"SITE 1-3MI.N","Latitude":"48.97420","Longitude":"-97.23860","Snowdepth":"9.000","Units":"in","Rept_Date":"2020-03-18 12"},"coordinates":[0,7145]},{"type":"Point","properties":{"Station_ID":"NUMN3","Station_Nam":"NORTHUMBERLAND","Latitude":"44.52830","Longitude":"-71.50440","Snowdepth":"9.000","Units":"in","Rept_Date":"2020-03-18 11"},"coordinates":[6040,2534]},{"type":"Point","properties":{"Station_ID":"NH-GR-49","Station_Nam":"PLYMOUTH 3.7 N, NH","Latitude":"43.79048","Longitude":"-71.68413","Snowdepth":"9.000","Units":"in","Rept_Date":"2020-03-18 12"},"coordinates":[5997,1769]},{"type":"Point","properties":{"Station_ID":"ME-FR-22","Station_Nam":"FARMINGTON 4.8 NNW, ME","Latitude":"44.73396","Longitude":"-70.18007","Snowdepth":"9.000","Units":"in","Rept_Date":"2020-03-18 14"},"coordinates":[6350,2748]},{"type":"Point","properties":{"Station_ID":"EGRW3","Station_Nam":"EAGLE RIVER-SOUTH","Latitude":"45.91360","Longitude":"-89.24360","Snowdepth":"9.000","Units":"in","Rept_Date":"2020-03-18 12"},"coordinates":[1876,3971]},{"type":"Point","properties":{"Station_ID":"CAN-ON-245","Station_Nam":"PHELPSTON 3.1 ESE, CAN","Latitude":"44.50564","Longitude":"-79.81035","Snowdepth":"9.000","Units":"in","Rept_Date":"2020-03-18 15"},"coordinates":[4090,2511]},{"type":"Point","properties":{"Station_ID":"CAN-NS-163","Station_Nam":"SYDNEY MINES 2.2 WNW, CAN","Latitude":"46.24851","Longitude":"-60.25161","Snowdepth":"8.700","Units":"in","Rept_Date":"2020-03-18 12"},"coordinates":[8681,4318]},{"type":"Point","properties":{"Station_ID":"MI-OT-16","Station_Nam":"GAYLORD 2.2 SSE, MI","Latitude":"44.99441","Longitude":"-84.65820","Snowdepth":"8.500","Units":"in","Rept_Date":"2020-03-18 11"},"coordinates":[2953,3018]},{"type":"Point","properties":{"Station_ID":"WLKW3","Station_Nam":"WHITE LAKE 1 SE","Latitude":"45.14520","Longitude":"-88.74160","Snowdepth":"8.000","Units":"in","Rept_Date":"2020-03-18 13"},"coordinates":[1994,3174]},{"type":"Point","properties":{"Station_ID":"WLKM5","Station_Nam":"AH-GWAH-CHING","Latitude":"47.15000","Longitude":"-94.65000","Snowdepth":"8.000","Units":"in","Rept_Date":"2020-03-18 14"},"coordinates":[608,5253]},{"type":"Point","properties":{"Station_ID":"VT-ES-3","Station_Nam":"LUNENBURG 2.3 NNW, VT","Latitude":"44.49324","Longitude":"-71.70446","Snowdepth":"8.000","Units":"in","Rept_Date":"2020-03-18 11"},"coordinates":[5993,2498]},{"type":"Point","properties":{"Station_ID":"STMM4","Station_Nam":"STAMBAUGH 2SSE","Latitude":"46.05550","Longitude":"-88.62780","Snowdepth":"8.000","Units":"in","Rept_Date":"2020-03-18 12"},"coordinates":[2021,4118]},{"type":"Point","properties":{"Station_ID":"PELW3","Station_Nam":"PELLA 3SE","Latitude":"44.73580","Longitude":"-88.73780","Snowdepth":"8.000","Units":"in","Rept_Date":"2020-03-18 10"},"coordinates":[1995,2750]},{"type":"Point","properties":{"Station_ID":"KGFK","Station_Nam":"GRAND FORKS INTERNATIONAL","Latitude":"47.95000","Longitude":"-97.18333","Snowdepth":"8.000","Units":"in","Rept_Date":"2020-03-19 00"},"coordinates":[13,6083]},{"type":"Point","properties":{"Station_ID":"GFK","Station_Nam":"GRAND FORKS INTERNATIONAL AIRPORT","Latitude":"47.94920","Longitude":"-97.17610","Snowdepth":"8.000","Units":"in","Rept_Date":"2020-03-19 00"},"coordinates":[15,6082]},{"type":"Point","properties":{"Station_ID":"COUW3","Station_Nam":"COUDERAY,WI","Latitude":"45.86670","Longitude":"-91.45000","Snowdepth":"8.000","Units":"in","Rept_Date":"2020-03-18 21"},"coordinates":[1359,3922]},{"type":"Point","properties":{"Station_ID":"BOWW3","Station_Nam":"STOCKBRIDGE-MUNSEE RESERVATION","Latitude":"44.87000","Longitude":"-88.90440","Snowdepth":"8.000","Units":"in","Rept_Date":"2020-03-18 13"},"coordinates":[1956,2889]},{"type":"Point","properties":{"Station_ID":"CAN-NB-98","Station_Nam":"HOYT 4.2 S, CAN","Latitude":"45.54763","Longitude":"-66.55440","Snowdepth":"7.900","Units":"in","Rept_Date":"2020-03-18 11"},"coordinates":[7201,3591]},{"type":"Point","properties":{"Station_ID":"MN-AT-5","Station_Nam":"TAMARACK 1.4 SW, MN","Latitude":"46.63760","Longitude":"-93.14554","Snowdepth":"7.500","Units":"in","Rept_Date":"2020-03-18 11"},"coordinates":[961,4722]},{"type":"Point","properties":{"Station_ID":"MI-CX-7","Station_Nam":"EAST JORDAN 2.1 NNW, MI","Latitude":"45.18639","Longitude":"-85.14750","Snowdepth":"7.500","Units":"in","Rept_Date":"2020-03-18 13"},"coordinates":[2838,3217]},{"type":"Point","properties":{"Station_ID":"CAN-PE-10","Station_Nam":"NEW LONDON 1.6 ENE, CA","Latitude":"46.46985","Longitude":"-63.49200","Snowdepth":"7.500","Units":"in","Rept_Date":"2020-03-18 12"},"coordinates":[7920,4548]},{"type":"Point","properties":{"Station_ID":"CAN-ON-120","Station_Nam":"DUNROBIN 5.8 NE MIVCA, CA","Latitude":"45.46243","Longitude":"-75.97120","Snowdepth":"7.100","Units":"in","Rept_Date":"2020-03-18 12"},"coordinates":[4991,3503]},{"type":"Point","properties":{"Station_ID":"WI-WB-2","Station_Nam":"STONE LAKE 2.0 NW, WI","Latitude":"45.85960","Longitude":"-91.57710","Snowdepth":"7.000","Units":"in","Rept_Date":"2020-03-18 13"},"coordinates":[1329,3915]},{"type":"Point","properties":{"Station_ID":"RRVM4","Station_Nam":"RAPID RIVER 9S","Latitude":"45.78750","Longitude":"-86.93920","Snowdepth":"7.000","Units":"in","Rept_Date":"2020-03-18 14"},"coordinates":[2417,3840]},{"type":"Point","properties":{"Station_ID":"OTTM5","Station_Nam":"OTTERTAIL,MN","Latitude":"46.41670","Longitude":"-95.56670","Snowdepth":"7.000","Units":"in","Rept_Date":"2020-03-18 13"},"coordinates":[392,4493]},{"type":"Point","properties":{"Station_ID":"ISLV1","Station_Nam":"ISLAND POND","Latitude":"44.81280","Longitude":"-71.89020","Snowdepth":"7.000","Units":"in","Rept_Date":"2020-03-18 13"},"coordinates":[5949,2829]},{"type":"Point","properties":{"Station_ID":"HOLW3","Station_Nam":"HOLCOMBE","Latitude":"45.22370","Longitude":"-91.12700","Snowdepth":"7.000","Units":"in","Rept_Date":"2020-03-18 12"},"coordinates":[1434,3255]},{"type":"Point","properties":{"Station_ID":"GAYM4","Station_Nam":"GAYLORD","Latitude":"45.03320","Longitude":"-84.71130","Snowdepth":"7.000","Units":"in","Rept_Date":"2020-03-18 12"},"coordinates":[2940,3058]},{"type":"Point","properties":{"Station_ID":"ENGM4","Station_Nam":"ENGADINE MDOT","Latitude":"46.12800","Longitude":"-85.56960","Snowdepth":"7.000","Units":"in","Rept_Date":"2020-03-18 11"},"coordinates":[2739,4193]},{"type":"Point","properties":{"Station_ID":"EJNM4","Station_Nam":"EAST JORDAN 2NW","Latitude":"45.18630","Longitude":"-85.14770","Snowdepth":"7.000","Units":"in","Rept_Date":"2020-03-18 12"},"coordinates":[2838,3217]},{"type":"Point","properties":{"Station_ID":"BFHW3","Station_Nam":"BAYFIELD FISH HATCHERY","Latitude":"46.78670","Longitude":"-90.86420","Snowdepth":"7.000","Units":"in","Rept_Date":"2020-03-18 13"},"coordinates":[1496,4876]},{"type":"Point","properties":{"Station_ID":"AROM4","Station_Nam":"ARNOLD,MI","Latitude":"46.06670","Longitude":"-87.48330","Snowdepth":"7.000","Units":"in","Rept_Date":"2020-03-18 12"},"coordinates":[2290,4130]},{"type":"Point","properties":{"Station_ID":"HEMN3","Station_Nam":"HEMENWAY","Latitude":"43.89610","Longitude":"-71.31000","Snowdepth":"6.700","Units":"in","Rept_Date":"2020-03-18 12"},"coordinates":[6085,1879]},{"type":"Point","properties":{"Station_ID":"NY-HR-18","Station_Nam":"SALISBURY CENTER 1.8 NW, NY","Latitude":"43.16260","Longitude":"-74.80880","Snowdepth":"6.500","Units":"in","Rept_Date":"2020-03-18 11"},"coordinates":[5264,1118]},{"type":"Point","properties":{"Station_ID":"WILW3","Station_Nam":"RESERVOIR","Latitude":"45.70000","Longitude":"-89.83330","Snowdepth":"6.000","Units":"in","Rept_Date":"2020-03-18 11"},"coordinates":[1738,3749]},{"type":"Point","properties":{"Station_ID":"WI-RS-1","Station_Nam":"LADYSMITH 2.8 WNW, WI","Latitude":"45.48180","Longitude":"-91.14680","Snowdepth":"6.000","Units":"in","Rept_Date":"2020-03-18 13"},"coordinates":[1430,3523]},{"type":"Point","properties":{"Station_ID":"WI-PR-6","Station_Nam":"PHILLIPS 1.3 S, WI","Latitude":"45.67677","Longitude":"-90.39543","Snowdepth":"6.000","Units":"in","Rept_Date":"2020-03-18 12"},"coordinates":[1606,3725]},{"type":"Point","properties":{"Station_ID":"WI-MT-14","Station_Nam":"MOSINEE 2.7 WSW, WI","Latitude":"44.77240","Longitude":"-89.73441","Snowdepth":"6.000","Units":"in","Rept_Date":"2020-03-18 13"},"coordinates":[1761,2788]},{"type":"Point","properties":{"Station_ID":"WI-AS-4","Station_Nam":"ASHLAND 0.5 WNW, WI","Latitude":"46.58240","Longitude":"-90.88390","Snowdepth":"6.000","Units":"in","Rept_Date":"2020-03-18 13"},"coordinates":[1491,4664]},{"type":"Point","properties":{"Station_ID":"VT-WS-30","Station_Nam":"WOODBURY 3.4 NNW, VT","Latitude":"44.48825","Longitude":"-72.43258","Snowdepth":"6.000","Units":"in","Rept_Date":"2020-03-18 12"},"coordinates":[5822,2493]},{"type":"Point","properties":{"Station_ID":"VT-BN-3","Station_Nam":"LANDGROVE 1.1 NNE, VT","Latitude":"43.29092","Longitude":"-72.83260","Snowdepth":"6.000","Units":"in","Rept_Date":"2020-03-18 12"},"coordinates":[5728,1251]},{"type":"Point","properties":{"Station_ID":"TMWN3","Station_Nam":"TAMWORTH 4","Latitude":"43.86390","Longitude":"-71.26610","Snowdepth":"6.000","Units":"in","Rept_Date":"2020-03-18 11"},"coordinates":[6096,1845]},{"type":"Point","properties":{"Station_ID":"RHRW3","Station_Nam":"RHINELANDER WJFW TV-12","Latitude":"45.62220","Longitude":"-89.41000","Snowdepth":"6.000","Units":"in","Rept_Date":"2020-03-19 03"},"coordinates":[1837,3669]},{"type":"Point","properties":{"Station_ID":"RHLW3","Station_Nam":"RHINELANDER 4NE","Latitude":"45.65270","Longitude":"-89.30740","Snowdepth":"6.000","Units":"in","Rept_Date":"2020-03-18 11"},"coordinates":[1861,3700]},{"type":"Point","properties":{"Station_ID":"RHI","Station_Nam":"RHINELANDER-ONEIDA COUNTY AIRPORT","Latitude":"45.63080","Longitude":"-89.46530","Snowdepth":"6.000","Units":"in","Rept_Date":"2020-03-18 12"},"coordinates":[1824,3678]},{"type":"Point","properties":{"Station_ID":"NY-ES-11","Station_Nam":"VERMONTVILLE 2.8 S, NY","Latitude":"44.41205","Longitude":"-74.06760","Snowdepth":"6.000","Units":"in","Rept_Date":"2020-03-18 12"},"coordinates":[5438,2414]},{"type":"Point","properties":{"Station_ID":"ND-CS-25","Station_Nam":"FARGO 2.1 N, ND","Latitude":"46.90816","Longitude":"-96.77937","Snowdepth":"6.000","Units":"in","Rept_Date":"2020-03-18 14"},"coordinates":[108,5002]},{"type":"Point","properties":{"Station_ID":"MQRW3","Station_Nam":"MINOCQUA","Latitude":"45.88630","Longitude":"-89.73220","Snowdepth":"6.000","Units":"in","Rept_Date":"2020-03-18 11"},"coordinates":[1762,3943]},{"type":"Point","properties":{"Station_ID":"LNGM5","Station_Nam":"LONG PRAIRIE","Latitude":"45.96460","Longitude":"-94.88920","Snowdepth":"6.000","Units":"in","Rept_Date":"2020-03-18 11"},"coordinates":[551,4024]},{"type":"Point","properties":{"Station_ID":"HMYM1","Station_Nam":"HARMONY","Latitude":"44.94660","Longitude":"-69.54560","Snowdepth":"6.000","Units":"in","Rept_Date":"2020-03-18 11"},"coordinates":[6499,2968]},{"type":"Point","properties":{"Station_ID":"AWXW3","Station_Nam":"ASHLAND","Latitude":"46.58240","Longitude":"-90.88390","Snowdepth":"6.000","Units":"in","Rept_Date":"2020-03-18 12"},"coordinates":[1491,4664]},{"type":"Point","properties":{"Station_ID":"VT-WR-2","Station_Nam":"POMFRET 2.6 N, VT","Latitude":"43.74230","Longitude":"-72.52550","Snowdepth":"5.500","Units":"in","Rept_Date":"2020-03-18 12"},"coordinates":[5800,1719]},{"type":"Point","properties":{"Station_ID":"NH-CR-27","Station_Nam":"TAMWORTH 0.4 NNW, NH","Latitude":"43.86449","Longitude":"-71.26610","Snowdepth":"5.500","Units":"in","Rept_Date":"2020-03-18 12"},"coordinates":[6096,1846]},{"type":"Point","properties":{"Station_ID":"ND-CS-1","Station_Nam":"WEST FARGO 3.8 SSE, ND","Latitude":"46.82750","Longitude":"-96.85280","Snowdepth":"5.500","Units":"in","Rept_Date":"2020-03-18 13"},"coordinates":[91,4919]},{"type":"Point","properties":{"Station_ID":"WI-PR-8","Station_Nam":"PHILLIPS 0.4 SSW, WI","Latitude":"45.69086","Longitude":"-90.40200","Snowdepth":"5.000","Units":"in","Rept_Date":"2020-03-18 13"},"coordinates":[1605,3740]},{"type":"Point","properties":{"Station_ID":"VT-OL-2","Station_Nam":"BARTON 3.0 ENE, VT","Latitude":"44.75863","Longitude":"-72.11680","Snowdepth":"5.000","Units":"in","Rept_Date":"2020-03-18 12"},"coordinates":[5896,2773]},{"type":"Point","properties":{"Station_ID":"VT-OG-11","Station_Nam":"VERSHIRE 1.5 ESE, VT","Latitude":"43.96138","Longitude":"-72.29777","Snowdepth":"5.000","Units":"in","Rept_Date":"2020-03-18 13"},"coordinates":[5853,1947]},{"type":"Point","properties":{"Station_ID":"SULW3","Station_Nam":"SUMMIT LAKE","Latitude":"45.37880","Longitude":"-89.19410","Snowdepth":"5.000","Units":"in","Rept_Date":"2020-03-18 10"},"coordinates":[1888,3416]},{"type":"Point","properties":{"Station_ID":"SBNM5","Station_Nam":"SABIN","Latitude":"46.77690","Longitude":"-96.65610","Snowdepth":"5.000","Units":"in","Rept_Date":"2020-03-18 13"},"coordinates":[137,4866]},{"type":"Point","properties":{"Station_ID":"NYMM5","Station_Nam":"NEW YORK MILLS","Latitude":"46.50920","Longitude":"-95.37990","Snowdepth":"5.000","Units":"in","Rept_Date":"2020-03-18 12"},"coordinates":[436,4588]},{"type":"Point","properties":{"Station_ID":"MTQM4","Station_Nam":"MANISTIQUE WWTP","Latitude":"45.95120","Longitude":"-86.25130","Snowdepth":"5.000","Units":"in","Rept_Date":"2020-03-18 11"},"coordinates":[2579,4010]},{"type":"Point","properties":{"Station_ID":"MN-CY-1","Station_Nam":"MOORHEAD 2.0 N, MN","Latitude":"46.88766","Longitude":"-96.74800","Snowdepth":"5.000","Units":"in","Rept_Date":"2020-03-18 14"},"coordinates":[115,4981]},{"type":"Point","properties":{"Station_ID":"KSEM4","Station_Nam":"KALKASKA 11SE","Latitude":"44.58970","Longitude":"-85.04860","Snowdepth":"5.000","Units":"in","Rept_Date":"2020-03-18 12"},"coordinates":[2861,2598]},{"type":"Point","properties":{"Station_ID":"FLDM5","Station_Nam":"FLOODWOOD,MN","Latitude":"47.00000","Longitude":"-92.91670","Snowdepth":"5.000","Units":"in","Rept_Date":"2020-03-18 13"},"coordinates":[1014,5097]},{"type":"Point","properties":{"Station_ID":"FDRN8","Station_Nam":"FARGO 3S","Latitude":"46.82930","Longitude":"-96.79620","Snowdepth":"5.000","Units":"in","Rept_Date":"2020-03-19 05"},"coordinates":[104,4920]},{"type":"Point","properties":{"Station_ID":"FARM1","Station_Nam":"FARMINGTON","Latitude":"44.68930","Longitude":"-70.15640","Snowdepth":"5.000","Units":"in","Rept_Date":"2020-03-18 12"},"coordinates":[6356,2701]},{"type":"Point","properties":{"Station_ID":"FAR","Station_Nam":"HECTOR INTERNATIONAL ARPT","Latitude":"46.91560","Longitude":"-96.81440","Snowdepth":"5.000","Units":"in","Rept_Date":"2020-03-19 00"},"coordinates":[100,5010]},{"type":"Point","properties":{"Station_ID":"BRLN3","Station_Nam":"BERLIN","Latitude":"44.45350","Longitude":"-71.18540","Snowdepth":"5.000","Units":"in","Rept_Date":"2020-03-18 11"},"coordinates":[6115,2457]},{"type":"Point","properties":{"Station_ID":"BETM1","Station_Nam":"BETHEL 6 SSE","Latitude":"44.32000","Longitude":"-70.75680","Snowdepth":"5.000","Units":"in","Rept_Date":"2020-03-18 11"},"coordinates":[6215,2318]},{"type":"Point","properties":{"Station_ID":"ALXM5","Station_Nam":"ALEXANDRIA","Latitude":"45.87820","Longitude":"-95.38270","Snowdepth":"5.000","Units":"in","Rept_Date":"2020-03-18 11"},"coordinates":[436,3934]},{"type":"Point","properties":{"Station_ID":"CAN-ON-42","Station_Nam":"VANKLEEK HILL 3.4 S, CA","Latitude":"45.48987","Longitude":"-74.64570","Snowdepth":"4.500","Units":"in","Rept_Date":"2020-03-18 12"},"coordinates":[5302,3532]},{"type":"Point","properties":{"Station_ID":"WSKW3","Station_Nam":"WAUSAUKEE","Latitude":"45.38020","Longitude":"-87.95660","Snowdepth":"4.000","Units":"in","Rept_Date":"2020-03-18 13"},"coordinates":[2178,3418]},{"type":"Point","properties":{"Station_ID":"WI-BT-14","Station_Nam":"OAKLAND 9.0 ENE, WI","Latitude":"45.95184","Longitude":"-92.21653","Snowdepth":"4.000","Units":"in","Rept_Date":"2020-03-18 13"},"coordinates":[1179,4011]},{"type":"Point","properties":{"Station_ID":"VT-CL-14","Station_Nam":"LYNDONVILLE 1.1 W, VT","Latitude":"44.53582","Longitude":"-72.02867","Snowdepth":"4.000","Units":"in","Rept_Date":"2020-03-18 12"},"coordinates":[5917,2542]},{"type":"Point","properties":{"Station_ID":"PERV1","Station_Nam":"PERU","Latitude":"43.26670","Longitude":"-72.90000","Snowdepth":"4.000","Units":"in","Rept_Date":"2020-03-18 11"},"coordinates":[5712,1226]},{"type":"Point","properties":{"Station_ID":"PEKN6","Station_Nam":"PECK LAKE","Latitude":"43.11500","Longitude":"-74.42360","Snowdepth":"4.000","Units":"in","Rept_Date":"2020-03-18 11"},"coordinates":[5355,1069]},{"type":"Point","properties":{"Station_ID":"PARM4","Station_Nam":"PARENT BAY","Latitude":"45.79610","Longitude":"-86.40110","Snowdepth":"4.000","Units":"in","Rept_Date":"2020-03-18 17"},"coordinates":[2543,3849]},{"type":"Point","properties":{"Station_ID":"NCKN6","Station_Nam":"NORTH CREEK 5 SE","Latitude":"43.66110","Longitude":"-73.89690","Snowdepth":"4.000","Units":"in","Rept_Date":"2020-03-18 11"},"coordinates":[5478,1635]},{"type":"Point","properties":{"Station_ID":"MN76ACVS","Station_Nam":"GRAND MARAIS 3.0 WNW","Latitude":"47.76602","Longitude":"-90.26427","Snowdepth":"4.000","Units":"in","Rept_Date":"2020-03-18 12"},"coordinates":[1637,5892]},{"type":"Point","properties":{"Station_ID":"MN1867TA","Station_Nam":"LAKE FREMONT 0.9 NW","Latitude":"45.45049","Longitude":"-93.60337","Snowdepth":"4.000","Units":"in","Rept_Date":"2020-03-18 12"},"coordinates":[853,3491]},{"type":"Point","properties":{"Station_ID":"MN-MR-4","Station_Nam":"LITTLE FALLS 1.2 SW, MN","Latitude":"45.96886","Longitude":"-94.37720","Snowdepth":"4.000","Units":"in","Rept_Date":"2020-03-18 13"},"coordinates":[672,4028]},{"type":"Point","properties":{"Station_ID":"MCLN8","Station_Nam":"MC LEOD,ND","Latitude":"46.40250","Longitude":"-97.23810","Snowdepth":"4.000","Units":"in","Rept_Date":"2020-03-18 13"},"coordinates":[0,4478]},{"type":"Point","properties":{"Station_ID":"LNCM5","Station_Nam":"LANCASTER","Latitude":"48.85630","Longitude":"-96.81790","Snowdepth":"4.000","Units":"in","Rept_Date":"2020-03-18 12"},"coordinates":[99,7022]},{"type":"Point","properties":{"Station_ID":"JEFV1","Station_Nam":"JEFFERSONVILLE","Latitude":"44.58430","Longitude":"-72.78700","Snowdepth":"4.000","Units":"in","Rept_Date":"2020-03-18 11"},"coordinates":[5739,2592]},{"type":"Point","properties":{"Station_ID":"DTVM4","Station_Nam":"DETOUR VILLAGE","Latitude":"45.99830","Longitude":"-83.90130","Snowdepth":"4.000","Units":"in","Rept_Date":"2020-03-18 12"},"coordinates":[3130,4059]},{"type":"Point","properties":{"Station_ID":"CLGM5","Station_Nam":"COLLEGEVILLE ST JOHN","Latitude":"45.57940","Longitude":"-94.39200","Snowdepth":"4.000","Units":"in","Rept_Date":"2020-03-18 23"},"coordinates":[668,3624]},{"type":"Point","properties":{"Station_ID":"CAN-ON-208","Station_Nam":"PAKENHAM 7.8 NNW, CAN","Latitude":"45.39166","Longitude":"-76.34111","Snowdepth":"4.000","Units":"in","Rept_Date":"2020-03-18 12"},"coordinates":[4904,3430]},{"type":"Point","properties":{"Station_ID":"APXM4","Station_Nam":"GAYLORD 9SSW","Latitude":"44.90720","Longitude":"-84.71880","Snowdepth":"4.000","Units":"in","Rept_Date":"2020-03-19 06"},"coordinates":[2938,2927]},{"type":"Point","properties":{"Station_ID":"AMDW3","Station_Nam":"ALMOND-5 NE","Latitude":"44.30830","Longitude":"-89.34640","Snowdepth":"4.000","Units":"in","Rept_Date":"2020-03-18 13"},"coordinates":[1852,2306]},{"type":"Point","properties":{"Station_ID":"GOON3","Station_Nam":"GOOSE POND","Latitude":"43.71720","Longitude":"-72.09640","Snowdepth":"3.300","Units":"in","Rept_Date":"2020-03-18 12"},"coordinates":[5901,1693]},{"type":"Point","properties":{"Station_ID":"WUNW3","Station_Nam":"WAUSAU-NORTHEAST","Latitude":"44.97310","Longitude":"-89.61690","Snowdepth":"3.000","Units":"in","Rept_Date":"2020-03-18 11"},"coordinates":[1789,2996]},{"type":"Point","properties":{"Station_ID":"TOHM5","Station_Nam":"TWO HARBORS WWTP","Latitude":"47.01760","Longitude":"-91.66480","Snowdepth":"3.000","Units":"in","Rept_Date":"2020-03-18 12"},"coordinates":[1308,5116]},{"type":"Point","properties":{"Station_ID":"RFDM1","Station_Nam":"RUMFORD 7SW","Latitude":"44.49470","Longitude":"-70.65640","Snowdepth":"3.000","Units":"in","Rept_Date":"2020-03-18 11"},"coordinates":[6239,2500]},{"type":"Point","properties":{"Station_ID":"NWSM1","Station_Nam":"NEW SHARON","Latitude":"44.63520","Longitude":"-70.00020","Snowdepth":"3.000","Units":"in","Rept_Date":"2020-03-18 11"},"coordinates":[6393,2645]},{"type":"Point","properties":{"Station_ID":"NHNW3","Station_Nam":"NEW HOLSTEIN-EAST-WWTP","Latitude":"43.95310","Longitude":"-88.07720","Snowdepth":"3.000","Units":"in","Rept_Date":"2020-03-18 13"},"coordinates":[2150,1938]},{"type":"Point","properties":{"Station_ID":"NAZW3","Station_Nam":"ST. NAZIANZ-2 W","Latitude":"44.00420","Longitude":"-87.96360","Snowdepth":"3.000","Units":"in","Rept_Date":"2020-03-18 12"},"coordinates":[2177,1991]},{"type":"Point","properties":{"Station_ID":"MN-MR-13","Station_Nam":"LITTLE FALLS 8.0 NE, MN","Latitude":"46.06785","Longitude":"-94.24789","Snowdepth":"3.000","Units":"in","Rept_Date":"2020-03-18 13"},"coordinates":[702,4131]},{"type":"Point","properties":{"Station_ID":"LNCM1","Station_Nam":"LINCOLN WATER DISTRICT","Latitude":"45.32410","Longitude":"-68.58300","Snowdepth":"3.000","Units":"in","Rept_Date":"2020-03-18 11"},"coordinates":[6725,3360]},{"type":"Point","properties":{"Station_ID":"ISEM5","Station_Nam":"ISLE 12N","Latitude":"46.31970","Longitude":"-93.50140","Snowdepth":"3.000","Units":"in","Rept_Date":"2020-03-18 13"},"coordinates":[877,4392]},{"type":"Point","properties":{"Station_ID":"HRTM1","Station_Nam":"HARTFORD","Latitude":"44.37440","Longitude":"-70.31620","Snowdepth":"3.000","Units":"in","Rept_Date":"2020-03-18 11"},"coordinates":[6318,2375]},{"type":"Point","properties":{"Station_ID":"EPTW3","Station_Nam":"EAU PLEINE TENDER","Latitude":"44.77220","Longitude":"-89.76720","Snowdepth":"3.000","Units":"in","Rept_Date":"2020-03-18 12"},"coordinates":[1753,2787]},{"type":"Point","properties":{"Station_ID":"CVZW3","Station_Nam":"WISCONSIN PUBLIC SERVICE","Latitude":"45.23530","Longitude":"-88.01360","Snowdepth":"3.000","Units":"in","Rept_Date":"2020-03-18 13"},"coordinates":[2165,3268]},{"type":"Point","properties":{"Station_ID":"CORM1","Station_Nam":"CORINNA","Latitude":"44.91980","Longitude":"-69.24180","Snowdepth":"3.000","Units":"in","Rept_Date":"2020-03-18 14"},"coordinates":[6571,2940]},{"type":"Point","properties":{"Station_ID":"CHIW3","Station_Nam":"CHILTON,WI","Latitude":"44.03330","Longitude":"-88.15000","Snowdepth":"3.000","Units":"in","Rept_Date":"2020-03-18 12"},"coordinates":[2133,2021]},{"type":"Point","properties":{"Station_ID":"AUW","Station_Nam":"WAUSAU MUNICIPAL AIRPORT","Latitude":"44.92580","Longitude":"-89.62560","Snowdepth":"3.000","Units":"in","Rept_Date":"2020-03-18 12"},"coordinates":[1787,2947]},{"type":"Point","properties":{"Station_ID":"ABGW3","Station_Nam":"AMBERG 9 E","Latitude":"45.48250","Longitude":"-87.81190","Snowdepth":"3.000","Units":"in","Rept_Date":"2020-03-18 11"},"coordinates":[2212,3524]},{"type":"Point","properties":{"Station_ID":"OWLN3","Station_Nam":"OWL BROOK","Latitude":"43.76361","Longitude":"-71.59527","Snowdepth":"2.800","Units":"in","Rept_Date":"2020-03-18 12"},"coordinates":[6018,1741]},{"type":"Point","properties":{"Station_ID":"CAN-NB-29","Station_Nam":"SUSSEX 1.0 WNW - KWRC, CAN","Latitude":"45.72670","Longitude":"-65.52858","Snowdepth":"2.800","Units":"in","Rept_Date":"2020-03-18 12"},"coordinates":[7442,3777]},{"type":"Point","properties":{"Station_ID":"WI-DA-62","Station_Nam":"WAUNAKEE 4.9 W, WI","Latitude":"43.19755","Longitude":"-89.54904","Snowdepth":"2.500","Units":"in","Rept_Date":"2020-03-18 14"},"coordinates":[1805,1154]},{"type":"Point","properties":{"Station_ID":"WI-DA-60","Station_Nam":"MIDDLETON 0.8 SSW, WI","Latitude":"43.09292","Longitude":"-89.51258","Snowdepth":"2.500","Units":"in","Rept_Date":"2020-03-18 14"},"coordinates":[1813,1046]},{"type":"Point","properties":{"Station_ID":"NH-MR-60","Station_Nam":"SOUTH SUTTON 1.3 SE, NH","Latitude":"43.29531","Longitude":"-71.90238","Snowdepth":"2.500","Units":"in","Rept_Date":"2020-03-18 13"},"coordinates":[5946,1256]},{"type":"Point","properties":{"Station_ID":"CAN-NB-84","Station_Nam":"NORTON 7.1 WNW - KWRC, CAN","Latitude":"45.66195","Longitude":"-65.78279","Snowdepth":"2.400","Units":"in","Rept_Date":"2020-03-18 12"},"coordinates":[7382,3710]},{"type":"Point","properties":{"Station_ID":"VT-OL-5","Station_Nam":"DERBY CENTER 1.8 NW, VT","Latitude":"44.97200","Longitude":"-72.14780","Snowdepth":"2.200","Units":"in","Rept_Date":"2020-03-18 12"},"coordinates":[5889,2994]},{"type":"Point","properties":{"Station_ID":"WI-WN-9","Station_Nam":"NEENAH 1.1 ENE, WI","Latitude":"44.17370","Longitude":"-88.45130","Snowdepth":"2.000","Units":"in","Rept_Date":"2020-03-18 13"},"coordinates":[2062,2167]},{"type":"Point","properties":{"Station_ID":"WI-WN-5","Station_Nam":"OSHKOSH 5.2 N, WI","Latitude":"44.09351","Longitude":"-88.55310","Snowdepth":"2.000","Units":"in","Rept_Date":"2020-03-18 13"},"coordinates":[2038,2084]},{"type":"Point","properties":{"Station_ID":"WI-WN-15","Station_Nam":"OSHKOSH 2.0 W, WI","Latitude":"44.01962","Longitude":"-88.59359","Snowdepth":"2.000","Units":"in","Rept_Date":"2020-03-18 13"},"coordinates":[2029,2007]},{"type":"Point","properties":{"Station_ID":"WI-GL-4","Station_Nam":"GREEN LAKE 0.8 E, WI","Latitude":"43.84369","Longitude":"-88.94066","Snowdepth":"2.000","Units":"in","Rept_Date":"2020-03-18 13"},"coordinates":[1947,1824]},{"type":"Point","properties":{"Station_ID":"WI-DD-14","Station_Nam":"THERESA 0.1 ESE, WI","Latitude":"43.51691","Longitude":"-88.45026","Snowdepth":"2.000","Units":"in","Rept_Date":"2020-03-18 13"},"coordinates":[2063,1486]},{"type":"Point","properties":{"Station_ID":"VT-LM-7","Station_Nam":"HYDE PARK 2.9 NE, VT","Latitude":"44.62080","Longitude":"-72.57250","Snowdepth":"2.000","Units":"in","Rept_Date":"2020-03-18 11"},"coordinates":[5789,2630]},{"type":"Point","properties":{"Station_ID":"STRW3","Station_Nam":"STRATFORD 1NW","Latitude":"44.81750","Longitude":"-90.08990","Snowdepth":"2.000","Units":"in","Rept_Date":"2020-03-18 12"},"coordinates":[1678,2834]},{"type":"Point","properties":{"Station_ID":"SAUW3","Station_Nam":"WAUSAU WSAW TV","Latitude":"44.94630","Longitude":"-89.62220","Snowdepth":"2.000","Units":"in","Rept_Date":"2020-03-19 02"},"coordinates":[1788,2968]},{"type":"Point","properties":{"Station_ID":"ROBM1","Station_Nam":"ROBBINSTON","Latitude":"45.08520","Longitude":"-67.12050","Snowdepth":"2.000","Units":"in","Rept_Date":"2020-03-19 04"},"coordinates":[7069,3112]},{"type":"Point","properties":{"Station_ID":"RCEM5","Station_Nam":"RICE","Latitude":"45.75760","Longitude":"-94.20720","Snowdepth":"2.000","Units":"in","Rept_Date":"2020-03-18 12"},"coordinates":[711,3809]},{"type":"Point","properties":{"Station_ID":"OOHW3","Station_Nam":"OSHKOSH 5 N","Latitude":"44.09360","Longitude":"-88.55310","Snowdepth":"2.000","Units":"in","Rept_Date":"2020-03-18 12"},"coordinates":[2038,2084]},{"type":"Point","properties":{"Station_ID":"OKHW3","Station_Nam":"OSHKOSH,WI","Latitude":"44.03330","Longitude":"-88.55560","Snowdepth":"2.000","Units":"in","Rept_Date":"2020-03-18 12"},"coordinates":[2038,2021]},{"type":"Point","properties":{"Station_ID":"MYOM4","Station_Nam":"MIO WWTP","Latitude":"44.64660","Longitude":"-84.11580","Snowdepth":"2.000","Units":"in","Rept_Date":"2020-03-18 12"},"coordinates":[3080,2657]},{"type":"Point","properties":{"Station_ID":"MRBW3","Station_Nam":"MT HOREB","Latitude":"42.98030","Longitude":"-89.73940","Snowdepth":"2.000","Units":"in","Rept_Date":"2020-03-18 12"},"coordinates":[1760,929]},{"type":"Point","properties":{"Station_ID":"MRAM5","Station_Nam":"MORA","Latitude":"45.87760","Longitude":"-93.31470","Snowdepth":"2.000","Units":"in","Rept_Date":"2020-03-18 12"},"coordinates":[921,3934]},{"type":"Point","properties":{"Station_ID":"MN-SH-10","Station_Nam":"BIG LAKE 5.6 NNE, MN","Latitude":"45.41409","Longitude":"-93.69190","Snowdepth":"2.000","Units":"in","Rept_Date":"2020-03-18 13"},"coordinates":[832,3453]},{"type":"Point","properties":{"Station_ID":"MLLW3","Station_Nam":"MERRILL 8W","Latitude":"45.17810","Longitude":"-89.84810","Snowdepth":"2.000","Units":"in","Rept_Date":"2020-03-18 11"},"coordinates":[1735,3208]},{"type":"Point","properties":{"Station_ID":"JEFN3","Station_Nam":"JEFFERSON","Latitude":"44.41690","Longitude":"-71.50080","Snowdepth":"2.000","Units":"in","Rept_Date":"2020-03-18 11"},"coordinates":[6040,2419]},{"type":"Point","properties":{"Station_ID":"GFDN6","Station_Nam":"CHASES LAKE","Latitude":"43.75920","Longitude":"-75.29980","Snowdepth":"2.000","Units":"in","Rept_Date":"2020-03-18 10"},"coordinates":[5149,1737]},{"type":"Point","properties":{"Station_ID":"DGVW3","Station_Nam":"DODGEVILLE","Latitude":"42.96670","Longitude":"-90.11670","Snowdepth":"2.000","Units":"in","Rept_Date":"2020-03-18 12"},"coordinates":[1671,915]},{"type":"Point","properties":{"Station_ID":"BFSW3","Station_Nam":"BIG FALLS-5 NW","Latitude":"44.63980","Longitude":"-89.11330","Snowdepth":"2.000","Units":"in","Rept_Date":"2020-03-18 12"},"coordinates":[1907,2650]},{"type":"Point","properties":{"Station_ID":"BEAW3","Station_Nam":"BEAVER DAM,WI","Latitude":"43.45000","Longitude":"-88.85000","Snowdepth":"2.000","Units":"in","Rept_Date":"2020-03-18 12"},"coordinates":[1969,1416]},{"type":"Point","properties":{"Station_ID":"BDMW3","Station_Nam":"BEAVER DAM 1 N","Latitude":"43.46860","Longitude":"-88.83970","Snowdepth":"2.000","Units":"in","Rept_Date":"2020-03-18 16"},"coordinates":[1971,1436]},{"type":"Point","properties":{"Station_ID":"ARLW3","Station_Nam":"UNIV FARM","Latitude":"43.30000","Longitude":"-89.35000","Snowdepth":"2.000","Units":"in","Rept_Date":"2020-03-18 13"},"coordinates":[1851,1261]},{"type":"Point","properties":{"Station_ID":"CAN-NB-5","Station_Nam":"OAK POINT 0.9 SSW, CA","Latitude":"45.50752","Longitude":"-66.09860","Snowdepth":"1.600","Units":"in","Rept_Date":"2020-03-18 12"},"coordinates":[7308,3550]},{"type":"Point","properties":{"Station_ID":"CAN-NB-104","Station_Nam":"PENNFIELD RIDGE 2.7 SSW, CAN","Latitude":"45.09355","Longitude":"-66.71389","Snowdepth":"1.600","Units":"in","Rept_Date":"2020-03-18 11"},"coordinates":[7164,3121]},{"type":"Point","properties":{"Station_ID":"WI-LN-2","Station_Nam":"MERRILL 7.0 W, WI","Latitude":"45.17746","Longitude":"-89.84820","Snowdepth":"1.500","Units":"in","Rept_Date":"2020-03-18 12"},"coordinates":[1734,3208]},{"type":"Point","properties":{"Station_ID":"WI-DD-4","Station_Nam":"BEAVER DAM 1.4 SSW, WI","Latitude":"43.44719","Longitude":"-88.85260","Snowdepth":"1.500","Units":"in","Rept_Date":"2020-03-18 14"},"coordinates":[1968,1413]},{"type":"Point","properties":{"Station_ID":"WI-AD-10","Station_Nam":"OXFORD 4.0 W, WI","Latitude":"43.78638","Longitude":"-89.64166","Snowdepth":"1.500","Units":"in","Rept_Date":"2020-03-18 13"},"coordinates":[1783,1765]},{"type":"Point","properties":{"Station_ID":"VT-WS-19","Station_Nam":"WATERBURY 3.0 NW, VT","Latitude":"44.36060","Longitude":"-72.80770","Snowdepth":"1.500","Units":"in","Rept_Date":"2020-03-18 11"},"coordinates":[5734,2361]},{"type":"Point","properties":{"Station_ID":"NH-MR-41","Station_Nam":"NEWBURY 1.6 NW, NH","Latitude":"43.33667","Longitude":"-72.06060","Snowdepth":"1.500","Units":"in","Rept_Date":"2020-03-18 12"},"coordinates":[5909,1299]},{"type":"Point","properties":{"Station_ID":"WI-SK-2","Station_Nam":"ROCK SPRINGS 2.8 WSW, WI","Latitude":"43.45901","Longitude":"-89.96540","Snowdepth":"1.200","Units":"in","Rept_Date":"2020-03-18 13"},"coordinates":[1707,1426]},{"type":"Point","properties":{"Station_ID":"WI-DA-35","Station_Nam":"MADISON 5.5 N, WI","Latitude":"43.15858","Longitude":"-89.37280","Snowdepth":"1.100","Units":"in","Rept_Date":"2020-03-18 14"},"coordinates":[1846,1114]},{"type":"Point","properties":{"Station_ID":"WTBW3","Station_Nam":"WEST BEND PUBLIC WORKS","Latitude":"43.41110","Longitude":"-88.19380","Snowdepth":"1.000","Units":"in","Rept_Date":"2020-03-18 15"},"coordinates":[2123,1376]},{"type":"Point","properties":{"Station_ID":"WSFW3","Station_Nam":"TOWN OF WESTFORD","Latitude":"43.47190","Longitude":"-88.88250","Snowdepth":"1.000","Units":"in","Rept_Date":"2020-03-18 12"},"coordinates":[1961,1439]},{"type":"Point","properties":{"Station_ID":"WRTS2","Station_Nam":"WATERTOWN,SD","Latitude":"44.90280","Longitude":"-97.11360","Snowdepth":"1.000","Units":"in","Rept_Date":"2020-03-18 14"},"coordinates":[29,2923]},{"type":"Point","properties":{"Station_ID":"WORV1","Station_Nam":"WORCESTER 2 W","Latitude":"44.37470","Longitude":"-72.58220","Snowdepth":"1.000","Units":"in","Rept_Date":"2020-03-18 11"},"coordinates":[5787,2375]},{"type":"Point","properties":{"Station_ID":"WLDM5","Station_Nam":"WILD RIVER STATE PARK","Latitude":"45.52310","Longitude":"-92.74890","Snowdepth":"1.000","Units":"in","Rept_Date":"2020-03-18 13"},"coordinates":[1054,3566]},{"type":"Point","properties":{"Station_ID":"WI-WN-7","Station_Nam":"OMRO 2.3 WSW, WI","Latitude":"44.02074","Longitude":"-88.77970","Snowdepth":"1.000","Units":"in","Rept_Date":"2020-03-18 13"},"coordinates":[1985,2008]},{"type":"Point","properties":{"Station_ID":"WI-DR-5","Station_Nam":"ELLISON BAY 2.2 E, WI","Latitude":"45.25750","Longitude":"-87.02670","Snowdepth":"1.000","Units":"in","Rept_Date":"2020-03-18 13"},"coordinates":[2397,3291]},{"type":"Point","properties":{"Station_ID":"WI-DD-16","Station_Nam":"BEAVER DAM 2.4 WNW, WI","Latitude":"43.47210","Longitude":"-88.88280","Snowdepth":"1.000","Units":"in","Rept_Date":"2020-03-18 13"},"coordinates":[1961,1439]},{"type":"Point","properties":{"Station_ID":"WI-DD-15","Station_Nam":"COLUMBUS 4.8 ENE, WI","Latitude":"43.35742","Longitude":"-88.93819","Snowdepth":"1.000","Units":"in","Rept_Date":"2020-03-18 15"},"coordinates":[1948,1320]},{"type":"Point","properties":{"Station_ID":"WI-CT-4","Station_Nam":"MENASHA 5.4 ESE, WI","Latitude":"44.19640","Longitude":"-88.33070","Snowdepth":"1.000","Units":"in","Rept_Date":"2020-03-18 13"},"coordinates":[2091,2190]},{"type":"Point","properties":{"Station_ID":"WHTM5","Station_Nam":"WHEATON,MN","Latitude":"45.80000","Longitude":"-96.48330","Snowdepth":"1.000","Units":"in","Rept_Date":"2020-03-18 13"},"coordinates":[177,3853]},{"type":"Point","properties":{"Station_ID":"VT-WR-17","Station_Nam":"ROCHESTER 2.3 NE, VT","Latitude":"43.89418","Longitude":"-72.76992","Snowdepth":"1.000","Units":"in","Rept_Date":"2020-03-18 12"},"coordinates":[5743,1877]},{"type":"Point","properties":{"Station_ID":"VT-LM-1","Station_Nam":"STOWE 0.2 SW, VT","Latitude":"44.46399","Longitude":"-72.69070","Snowdepth":"1.000","Units":"in","Rept_Date":"2020-03-18 12"},"coordinates":[5761,2468]},{"type":"Point","properties":{"Station_ID":"VQAW3","Station_Nam":"VIROQUA","Latitude":"43.55970","Longitude":"-90.87560","Snowdepth":"1.000","Units":"in","Rept_Date":"2020-03-18 12"},"coordinates":[1493,1530]},{"type":"Point","properties":{"Station_ID":"TWOW3","Station_Nam":"TWO RIVERS","Latitude":"44.14300","Longitude":"-87.56770","Snowdepth":"1.000","Units":"in","Rept_Date":"2020-03-18 12"},"coordinates":[2270,2135]},{"type":"Point","properties":{"Station_ID":"TOPN6","Station_Nam":"TUPPER LAKE SUNMOUNT","Latitude":"44.23070","Longitude":"-74.43820","Snowdepth":"1.000","Units":"in","Rept_Date":"2020-03-18 11"},"coordinates":[5351,2226]},{"type":"Point","properties":{"Station_ID":"TAHW3","Station_Nam":"TAYCHEEDAH","Latitude":"43.83390","Longitude":"-88.34690","Snowdepth":"1.000","Units":"in","Rept_Date":"2020-03-18 12"},"coordinates":[2087,1814]},{"type":"Point","properties":{"Station_ID":"RWGM5","Station_Nam":"RED WING","Latitude":"44.57120","Longitude":"-92.52830","Snowdepth":"1.000","Units":"in","Rept_Date":"2020-03-18 13"},"coordinates":[1105,2579]},{"type":"Point","properties":{"Station_ID":"ROWM3","Station_Nam":"ROWE 3NE","Latitude":"42.73500","Longitude":"-72.86920","Snowdepth":"1.000","Units":"in","Rept_Date":"2020-03-18 11"},"coordinates":[5719,675]},{"type":"Point","properties":{"Station_ID":"RKNW3","Station_Nam":"MARKESAN","Latitude":"43.70280","Longitude":"-88.99890","Snowdepth":"1.000","Units":"in","Rept_Date":"2020-03-18 12"},"coordinates":[1934,1678]},{"type":"Point","properties":{"Station_ID":"PSHW3","Station_Nam":"PESHTIGO","Latitude":"45.02810","Longitude":"-87.73560","Snowdepth":"1.000","Units":"in","Rept_Date":"2020-03-18 12"},"coordinates":[2230,3053]},{"type":"Point","properties":{"Station_ID":"PORW3","Station_Nam":"PORTAGE,WI","Latitude":"43.53190","Longitude":"-89.43780","Snowdepth":"1.000","Units":"in","Rept_Date":"2020-03-18 13"},"coordinates":[1831,1501]},{"type":"Point","properties":{"Station_ID":"OMWW3","Station_Nam":"OMRO - 2 SW","Latitude":"44.02080","Longitude":"-88.77970","Snowdepth":"1.000","Units":"in","Rept_Date":"2020-03-18 12"},"coordinates":[1985,2008]},{"type":"Point","properties":{"Station_ID":"NWBN3","Station_Nam":"NORTH WOLFEBORO","Latitude":"43.65610","Longitude":"-71.14280","Snowdepth":"1.000","Units":"in","Rept_Date":"2020-03-18 12"},"coordinates":[6124,1630]},{"type":"Point","properties":{"Station_ID":"NH-MR-6","Station_Nam":"DANBURY 2.2 ESE, NH","Latitude":"43.52000","Longitude":"-71.81900","Snowdepth":"1.000","Units":"in","Rept_Date":"2020-03-18 13"},"coordinates":[5966,1489]},{"type":"Point","properties":{"Station_ID":"NH-MR-45","Station_Nam":"NORTHFIELD 2.8 E, NH","Latitude":"43.43945","Longitude":"-71.53730","Snowdepth":"1.000","Units":"in","Rept_Date":"2020-03-18 11"},"coordinates":[6032,1405]},{"type":"Point","properties":{"Station_ID":"MTLW3","Station_Nam":"MONTELLO,WI","Latitude":"43.78000","Longitude":"-89.30000","Snowdepth":"1.000","Units":"in","Rept_Date":"2020-03-18 12"},"coordinates":[1863,1758]},{"type":"Point","properties":{"Station_ID":"MDDW3","Station_Nam":"MIDDLETON,WI","Latitude":"43.09060","Longitude":"-89.51470","Snowdepth":"1.000","Units":"in","Rept_Date":"2020-03-18 12"},"coordinates":[1813,1044]},{"type":"Point","properties":{"Station_ID":"MAUW3","Station_Nam":"MAUSTON 1SE","Latitude":"43.78990","Longitude":"-90.05970","Snowdepth":"1.000","Units":"in","Rept_Date":"2020-03-18 13"},"coordinates":[1685,1769]},{"type":"Point","properties":{"Station_ID":"MA-WR-6","Station_Nam":"SOUTHBRIDGE 0.6 E, MA","Latitude":"42.08422","Longitude":"-72.02250","Snowdepth":"1.000","Units":"in","Rept_Date":"2020-03-18 12"},"coordinates":[5918,0]},{"type":"Point","properties":{"Station_ID":"LOOW3","Station_Nam":"WATERLOO","Latitude":"43.18830","Longitude":"-88.98440","Snowdepth":"1.000","Units":"in","Rept_Date":"2020-03-18 13"},"coordinates":[1937,1145]},{"type":"Point","properties":{"Station_ID":"HORW3","Station_Nam":"HORICON WWTP","Latitude":"43.45000","Longitude":"-88.63330","Snowdepth":"1.000","Units":"in","Rept_Date":"2020-03-18 12"},"coordinates":[2020,1416]},{"type":"Point","properties":{"Station_ID":"FORM5","Station_Nam":"FOREST LAKE 5NE","Latitude":"45.33170","Longitude":"-92.89820","Snowdepth":"1.000","Units":"in","Rept_Date":"2020-03-18 12"},"coordinates":[1019,3367]},{"type":"Point","properties":{"Station_ID":"FCDW3","Station_Nam":"FOND DU LAC-AM","Latitude":"43.76670","Longitude":"-88.46670","Snowdepth":"1.000","Units":"in","Rept_Date":"2020-03-18 12"},"coordinates":[2059,1745]},{"type":"Point","properties":{"Station_ID":"DENW3","Station_Nam":"DENMARK WWTP","Latitude":"44.35130","Longitude":"-87.81190","Snowdepth":"1.000","Units":"in","Rept_Date":"2020-03-18 13"},"coordinates":[2212,2351]},{"type":"Point","properties":{"Station_ID":"CHMW3","Station_Nam":"MADISON,WI","Latitude":"43.06030","Longitude":"-89.47810","Snowdepth":"1.000","Units":"in","Rept_Date":"2020-03-18 12"},"coordinates":[1821,1012]},{"type":"Point","properties":{"Station_ID":"CAN-ON-109","Station_Nam":"MILDMAY 5.9 SSE, CA","Latitude":"43.98733","Longitude":"-81.10330","Snowdepth":"1.000","Units":"in","Rept_Date":"2020-03-18 13"},"coordinates":[3787,1973]},{"type":"Point","properties":{"Station_ID":"CAN-NS-81","Station_Nam":"SCOTS BAY 3.1 WNW, CA","Latitude":"45.31472","Longitude":"-64.42890","Snowdepth":"1.000","Units":"in","Rept_Date":"2020-03-18 11"},"coordinates":[7700,3350]},{"type":"Point","properties":{"Station_ID":"CAN-NS-56","Station_Nam":"HAMMOND PLAINS 2.9 WSW, CA","Latitude":"44.72456","Longitude":"-63.81920","Snowdepth":"1.000","Units":"in","Rept_Date":"2020-03-18 12"},"coordinates":[7843,2738]},{"type":"Point","properties":{"Station_ID":"CAN-NS-18","Station_Nam":"HAMMONDS PLAINS 2.1 NNW, CA","Latitude":"44.75181","Longitude":"-63.79100","Snowdepth":"1.000","Units":"in","Rept_Date":"2020-03-18 11"},"coordinates":[7850,2766]},{"type":"Point","properties":{"Station_ID":"BRLW3","Station_Nam":"BRILLION,WI","Latitude":"44.18330","Longitude":"-88.06670","Snowdepth":"1.000","Units":"in","Rept_Date":"2020-03-18 12"},"coordinates":[2153,2177]},{"type":"Point","properties":{"Station_ID":"BLNW3","Station_Nam":"BERLIN WWTP","Latitude":"43.99000","Longitude":"-88.94170","Snowdepth":"1.000","Units":"in","Rept_Date":"2020-03-18 12"},"coordinates":[1947,1976]},{"type":"Point","properties":{"Station_ID":"BKEM5","Station_Nam":"BRECKENRIDGE 4NE","Latitude":"46.30470","Longitude":"-96.52170","Snowdepth":"1.000","Units":"in","Rept_Date":"2020-03-18 12"},"coordinates":[168,4376]},{"type":"Point","properties":{"Station_ID":"BABW3","Station_Nam":"BARABOO WWTP","Latitude":"43.48330","Longitude":"-89.63330","Snowdepth":"1.000","Units":"in","Rept_Date":"2020-03-18 12"},"coordinates":[1785,1451]},{"type":"Point","properties":{"Station_ID":"ATY","Station_Nam":"WATERTOWN MUNICIPAL AIRPORT","Latitude":"44.91420","Longitude":"-97.15440","Snowdepth":"1.000","Units":"in","Rept_Date":"2020-03-18 12"},"coordinates":[20,2935]}]}},"arcs":[],"transform":{"scale":[0.004260890089008902,0.0009643644364436441],"translate":[-97.2386,42.08422]}}