{"type":"Topology","objects":{"snowdepth_geo":{"type":"GeometryCollection","name":"snowdepth","crs":{"type":"name","properties":{"name":"urn:ogc:def:crs:OGC:1.3:CRS84"}},"geometries":[{"type":"Point","properties":{"Station_ID":"PRKM4","Station_Nam":"MUNISING EAST","Latitude":"46.42580","Longitude":"-86.62000","Snowdepth":"76.500","Units":"in","Rept_Date":"2021-01-04 06"},"coordinates":[2391,6398]},{"type":"Point","properties":{"Station_ID":"TRIQ6","Station_Nam":"TRIO LAKE","Latitude":"49.22880","Longitude":"-87.22920","Snowdepth":"21.730","Units":"in","Rept_Date":"2021-01-04 06"},"coordinates":[2254,8302]},{"type":"Point","properties":{"Station_ID":"PTLQ6","Station_Nam":"PORTAGE LAKE","Latitude":"49.06950","Longitude":"-86.65940","Snowdepth":"21.060","Units":"in","Rept_Date":"2021-01-04 06"},"coordinates":[2382,8194]},{"type":"Point","properties":{"Station_ID":"AUDQ6","Station_Nam":"AUDEN","Latitude":"48.52600","Longitude":"-82.57570","Snowdepth":"19.920","Units":"in","Rept_Date":"2021-01-04 06"},"coordinates":[3301,7824]},{"type":"Point","properties":{"Station_ID":"DVLQ6","Station_Nam":"DEVIOUS LAKE","Latitude":"49.19890","Longitude":"-87.76440","Snowdepth":"19.170","Units":"in","Rept_Date":"2021-01-04 06"},"coordinates":[2133,8282]},{"type":"Point","properties":{"Station_ID":"PDLM4","Station_Nam":"PAINESDALE","Latitude":"47.04160","Longitude":"-88.67170","Snowdepth":"19.000","Units":"in","Rept_Date":"2021-01-03 13"},"coordinates":[1929,6816]},{"type":"Point","properties":{"Station_ID":"HURW3","Station_Nam":"HURLEY","Latitude":"46.46250","Longitude":"-90.19550","Snowdepth":"18.000","Units":"in","Rept_Date":"2021-01-03 14"},"coordinates":[1586,6422]},{"type":"Point","properties":{"Station_ID":"MMNV1","Station_Nam":"MT. MANSFIELD","Latitude":"44.52480","Longitude":"-72.81540","Snowdepth":"16.000","Units":"in","Rept_Date":"2021-01-03 21"},"coordinates":[5499,5106]},{"type":"Point","properties":{"Station_ID":"IWOM4","Station_Nam":"IRONWOOD#2","Latitude":"46.46520","Longitude":"-90.13820","Snowdepth":"16.000","Units":"in","Rept_Date":"2021-01-03 13"},"coordinates":[1599,6424]},{"type":"Point","properties":{"Station_ID":"HERM4","Station_Nam":"HERMAN,MI","Latitude":"46.65000","Longitude":"-88.33330","Snowdepth":"16.000","Units":"in","Rept_Date":"2021-01-03 13"},"coordinates":[2005,6550]},{"type":"Point","properties":{"Station_ID":"QNCM4","Station_Nam":"QUINCY HILL","Latitude":"47.13640","Longitude":"-88.57950","Snowdepth":"15.000","Units":"in","Rept_Date":"2021-01-03 12"},"coordinates":[1950,6880]},{"type":"Point","properties":{"Station_ID":"WLFM5","Station_Nam":"WOLF RIDGE ENVIRON LEARNING CENTER","Latitude":"47.38240","Longitude":"-91.19730","Snowdepth":"14.000","Units":"in","Rept_Date":"2021-01-03 13"},"coordinates":[1360,7047]},{"type":"Point","properties":{"Station_ID":"TOPM1","Station_Nam":"TOPSFIELD","Latitude":"45.43470","Longitude":"-67.72020","Snowdepth":"14.000","Units":"in","Rept_Date":"2021-01-03 12"},"coordinates":[6646,5724]},{"type":"Point","properties":{"Station_ID":"SWTW3","Station_Nam":"SUPERIOR WWTP","Latitude":"46.72700","Longitude":"-92.07200","Snowdepth":"14.000","Units":"in","Rept_Date":"2021-01-04 06"},"coordinates":[1163,6602]},{"type":"Point","properties":{"Station_ID":"KSGM4","Station_Nam":"KEARSARGE","Latitude":"47.27520","Longitude":"-88.41700","Snowdepth":"14.000","Units":"in","Rept_Date":"2021-01-03 13"},"coordinates":[1986,6975]},{"type":"Point","properties":{"Station_ID":"HTLN3","Station_Nam":"HERMIT LAKE SNOWPLOT","Latitude":"44.26130","Longitude":"-71.28330","Snowdepth":"14.000","Units":"in","Rept_Date":"2021-01-03 10"},"coordinates":[5844,4927]},{"type":"Point","properties":{"Station_ID":"OGIQ6","Station_Nam":"OGOKI CAMP","Latitude":"50.76680","Longitude":"-87.85820","Snowdepth":"13.460","Units":"in","Rept_Date":"2021-01-04 06"},"coordinates":[2112,9347]},{"type":"Point","properties":{"Station_ID":"HLSN3","Station_Nam":"HERMIT LAKE SNOTEL","Latitude":"44.26130","Longitude":"-71.28320","Snowdepth":"13.270","Units":"in","Rept_Date":"2021-01-04 06"},"coordinates":[5844,4927]},{"type":"Point","properties":{"Station_ID":"MI-OG-6","Station_Nam":"WEST BRANCH 2.1 SSW, MI","Latitude":"44.24814","Longitude":"-84.25089","Snowdepth":"13.000","Units":"in","Rept_Date":"2021-01-03 13"},"coordinates":[2924,4918]},{"type":"Point","properties":{"Station_ID":"LNCM1","Station_Nam":"LINCOLN WATER DISTRICT","Latitude":"45.32410","Longitude":"-68.58300","Snowdepth":"13.000","Units":"in","Rept_Date":"2021-01-03 13"},"coordinates":[6452,5649]},{"type":"Point","properties":{"Station_ID":"MN-SL-15","Station_Nam":"CHISHOLM 0.4 WSW, MN","Latitude":"47.48557","Longitude":"-92.88690","Snowdepth":"12.500","Units":"in","Rept_Date":"2021-01-03 13"},"coordinates":[980,7118]},{"type":"Point","properties":{"Station_ID":"MN-IS-18","Station_Nam":"BRAHAM 0.7 SW, MN","Latitude":"45.71379","Longitude":"-93.18095","Snowdepth":"12.500","Units":"in","Rept_Date":"2021-01-03 14"},"coordinates":[914,5914]},{"type":"Point","properties":{"Station_ID":"MI-HG-20","Station_Nam":"CALUMET 1.1 SSW, MI","Latitude":"47.23165","Longitude":"-88.45823","Snowdepth":"12.500","Units":"in","Rept_Date":"2021-01-03 11"},"coordinates":[1977,6945]},{"type":"Point","properties":{"Station_ID":"CAN-PE-65","Station_Nam":"FORTUNE BRIDGE 0.9 SSE, CAN","Latitude":"46.34282","Longitude":"-62.37337","Snowdepth":"12.500","Units":"in","Rept_Date":"2021-01-03 13"},"coordinates":[7850,6341]},{"type":"Point","properties":{"Station_ID":"CAN-ON-5","Station_Nam":"OWEN SOUND 1.5 NW - GSCA, CAN","Latitude":"44.57837","Longitude":"-80.95461","Snowdepth":"12.500","Units":"in","Rept_Date":"2021-01-03 13"},"coordinates":[3666,5142]},{"type":"Point","properties":{"Station_ID":"CAN-NB-18","Station_Nam":"MCLEOD HILL 1.1 ENE, CA","Latitude":"46.02725","Longitude":"-66.67460","Snowdepth":"12.500","Units":"in","Rept_Date":"2021-01-03 12"},"coordinates":[6882,6127]},{"type":"Point","properties":{"Station_ID":"CAN-NS-151","Station_Nam":"SYDNEY 2.7 NE, CAN","Latitude":"46.14648","Longitude":"-60.15658","Snowdepth":"12.400","Units":"in","Rept_Date":"2021-01-03 11"},"coordinates":[8349,6208]},{"type":"Point","properties":{"Station_ID":"MN-SL-108","Station_Nam":"IRON JUNCTION 3.4 NNW, MN","Latitude":"47.46150","Longitude":"-92.63130","Snowdepth":"12.000","Units":"in","Rept_Date":"2021-01-03 13"},"coordinates":[1037,7101]},{"type":"Point","properties":{"Station_ID":"MI-BG-3","Station_Nam":"THREE LAKES, MI","Latitude":"46.55730","Longitude":"-88.20770","Snowdepth":"12.000","Units":"in","Rept_Date":"2021-01-03 13"},"coordinates":[2033,6487]},{"type":"Point","properties":{"Station_ID":"KABM5","Station_Nam":"KABETOGAMA LAKE VISITOR CTR","Latitude":"48.40880","Longitude":"-93.04840","Snowdepth":"12.000","Units":"in","Rept_Date":"2021-01-03 13"},"coordinates":[943,7745]},{"type":"Point","properties":{"Station_ID":"CAN-NS-39","Station_Nam":"ST. ANNS 2.8 NW, CA","Latitude":"46.25082","Longitude":"-60.64340","Snowdepth":"12.000","Units":"in","Rept_Date":"2021-01-03 12"},"coordinates":[8239,6279]},{"type":"Point","properties":{"Station_ID":"CAN-NB-27","Station_Nam":"IRISHTOWN 3.4 NNW, CA","Latitude":"46.21749","Longitude":"-64.80750","Snowdepth":"12.000","Units":"in","Rept_Date":"2021-01-03 12"},"coordinates":[7302,6256]},{"type":"Point","properties":{"Station_ID":"BNDM5","Station_Nam":"ELY 25E","Latitude":"47.97190","Longitude":"-91.44860","Snowdepth":"12.000","Units":"in","Rept_Date":"2021-01-03 13"},"coordinates":[1304,7448]},{"type":"Point","properties":{"Station_ID":"KABQ6","Station_Nam":"CAB LAKE","Latitude":"49.59950","Longitude":"-89.17990","Snowdepth":"11.970","Units":"in","Rept_Date":"2021-01-04 06"},"coordinates":[1814,8554]},{"type":"Point","properties":{"Station_ID":"CAN-PE-19","Station_Nam":"CHARLOTTETOWN 6.5 NNW, CAN","Latitude":"46.29235","Longitude":"-63.17271","Snowdepth":"11.800","Units":"in","Rept_Date":"2021-01-03 12"},"coordinates":[7670,6307]},{"type":"Point","properties":{"Station_ID":"CAN-ON-451","Station_Nam":"OWEN SOUND 1.2 N - GSCA, CAN","Latitude":"44.58092","Longitude":"-80.93025","Snowdepth":"11.800","Units":"in","Rept_Date":"2021-01-03 13"},"coordinates":[3672,5144]},{"type":"Point","properties":{"Station_ID":"SOCQ6","Station_Nam":"SOCKET LAKE","Latitude":"50.77870","Longitude":"-91.79300","Snowdepth":"11.770","Units":"in","Rept_Date":"2021-01-04 06"},"coordinates":[1226,9355]},{"type":"Point","properties":{"Station_ID":"CAN-NS-103","Station_Nam":"TRAFALGAR 4.9 WSW, CAN","Latitude":"45.26217","Longitude":"-62.72285","Snowdepth":"11.500","Units":"in","Rept_Date":"2021-01-03 12"},"coordinates":[7771,5607]},{"type":"Point","properties":{"Station_ID":"SVBQ6","Station_Nam":"SAVANT BASE","Latitude":"50.28730","Longitude":"-90.65670","Snowdepth":"11.260","Units":"in","Rept_Date":"2021-01-04 06"},"coordinates":[1482,9021]},{"type":"Point","properties":{"Station_ID":"WRSM5","Station_Nam":"WRENSHALL","Latitude":"46.61550","Longitude":"-92.38380","Snowdepth":"11.000","Units":"in","Rept_Date":"2021-01-03 14"},"coordinates":[1093,6526]},{"type":"Point","properties":{"Station_ID":"WI-DG-20","Station_Nam":"SOLON SPRINGS 1.2 W, WI","Latitude":"46.35217","Longitude":"-91.84405","Snowdepth":"11.000","Units":"in","Rept_Date":"2021-01-03 13"},"coordinates":[1215,6348]},{"type":"Point","properties":{"Station_ID":"WI-BY-29","Station_Nam":"BAYFIELD 5.1 NNW, WI","Latitude":"46.88063","Longitude":"-90.85854","Snowdepth":"11.000","Units":"in","Rept_Date":"2021-01-03 13"},"coordinates":[1436,6707]},{"type":"Point","properties":{"Station_ID":"TOHM5","Station_Nam":"TWO HARBORS WWTP","Latitude":"47.01760","Longitude":"-91.66480","Snowdepth":"11.000","Units":"in","Rept_Date":"2021-01-03 13"},"coordinates":[1255,6800]},{"type":"Point","properties":{"Station_ID":"STOI2","Station_Nam":"STOCKTON 3 NNE","Latitude":"42.40050","Longitude":"-89.99580","Snowdepth":"11.000","Units":"in","Rept_Date":"2021-01-04 03"},"coordinates":[1631,3663]},{"type":"Point","properties":{"Station_ID":"PRDM4","Station_Nam":"PARADISE","Latitude":"46.60380","Longitude":"-85.03960","Snowdepth":"11.000","Units":"in","Rept_Date":"2021-01-03 12"},"coordinates":[2747,6518]},{"type":"Point","properties":{"Station_ID":"MONW3","Station_Nam":"MONROE,WI","Latitude":"42.60000","Longitude":"-89.66670","Snowdepth":"11.000","Units":"in","Rept_Date":"2021-01-03 13"},"coordinates":[1705,3798]},{"type":"Point","properties":{"Station_ID":"MN-SL-18","Station_Nam":"DULUTH 1.4 NNW, MN","Latitude":"46.80321","Longitude":"-92.11240","Snowdepth":"11.000","Units":"in","Rept_Date":"2021-01-03 14"},"coordinates":[1154,6654]},{"type":"Point","properties":{"Station_ID":"MN-CK-6","Station_Nam":"GRAND MARAIS 4.4 W, MN","Latitude":"47.74865","Longitude":"-90.43760","Snowdepth":"11.000","Units":"in","Rept_Date":"2021-01-03 13"},"coordinates":[1531,7296]},{"type":"Point","properties":{"Station_ID":"LUCW3","Station_Nam":"LUCK","Latitude":"45.57330","Longitude":"-92.48520","Snowdepth":"11.000","Units":"in","Rept_Date":"2021-01-03 15"},"coordinates":[1070,5818]},{"type":"Point","properties":{"Station_ID":"IRMM4","Station_Nam":"WWTP","Latitude":"46.46670","Longitude":"-90.18330","Snowdepth":"11.000","Units":"in","Rept_Date":"2021-01-03 13"},"coordinates":[1589,6425]},{"type":"Point","properties":{"Station_ID":"IL-JD-8","Station_Nam":"STOCKTON 3.4 NNE, IL","Latitude":"42.39960","Longitude":"-89.99020","Snowdepth":"11.000","Units":"in","Rept_Date":"2021-01-03 13"},"coordinates":[1632,3662]},{"type":"Point","properties":{"Station_ID":"HGHN6","Station_Nam":"HIGHMARKET","Latitude":"43.60510","Longitude":"-75.55430","Snowdepth":"11.000","Units":"in","Rept_Date":"2021-01-03 11"},"coordinates":[4882,4481]},{"type":"Point","properties":{"Station_ID":"CLKM4","Station_Nam":"CLARKSBURG","Latitude":"46.49910","Longitude":"-87.84500","Snowdepth":"11.000","Units":"in","Rept_Date":"2021-01-03 12"},"coordinates":[2115,6447]},{"type":"Point","properties":{"Station_ID":"CAN-PE-25","Station_Nam":"CALEDONIA 1.8 SW, CAN","Latitude":"46.04593","Longitude":"-62.72266","Snowdepth":"11.000","Units":"in","Rept_Date":"2021-01-03 12"},"coordinates":[7771,6139]},{"type":"Point","properties":{"Station_ID":"CAN-NS-60","Station_Nam":"SYDNEY FORKS, CAN","Latitude":"46.05645","Longitude":"-60.31510","Snowdepth":"11.000","Units":"in","Rept_Date":"2021-01-03 15"},"coordinates":[8313,6147]},{"type":"Point","properties":{"Station_ID":"BBEM4","Station_Nam":"BIG BAY 9SW","Latitude":"46.74620","Longitude":"-87.88160","Snowdepth":"11.000","Units":"in","Rept_Date":"2021-01-03 13"},"coordinates":[2107,6615]},{"type":"Point","properties":{"Station_ID":"CAN-PE-43","Station_Nam":"GLENCOE 0.3 W, CAN","Latitude":"46.20115","Longitude":"-62.81740","Snowdepth":"10.800","Units":"in","Rept_Date":"2021-01-03 12"},"coordinates":[7750,6245]},{"type":"Point","properties":{"Station_ID":"CAN-ON-452","Station_Nam":"CHATSWORTH 1.8 ENE - GSCA, CAN","Latitude":"44.46118","Longitude":"-80.87506","Snowdepth":"10.800","Units":"in","Rept_Date":"2021-01-03 12"},"coordinates":[3684,5063]},{"type":"Point","properties":{"Station_ID":"CAN-QC-47","Station_Nam":"SAINTE-FOY 1.8 ENE, CAN","Latitude":"46.76934","Longitude":"-71.27124","Snowdepth":"10.600","Units":"in","Rept_Date":"2021-01-03 12"},"coordinates":[5847,6631]},{"type":"Point","properties":{"Station_ID":"MN-CK-18","Station_Nam":"GRAND MARAIS 4.4 WSW, MN","Latitude":"47.74462","Longitude":"-90.43796","Snowdepth":"10.500","Units":"in","Rept_Date":"2021-01-03 13"},"coordinates":[1531,7294]},{"type":"Point","properties":{"Station_ID":"MI-HG-1","Station_Nam":"HOUGHTON 1.6 ESE, MI","Latitude":"47.10774","Longitude":"-88.52940","Snowdepth":"10.500","Units":"in","Rept_Date":"2021-01-03 13"},"coordinates":[1961,6861]},{"type":"Point","properties":{"Station_ID":"CAN-ON-804","Station_Nam":"KEMBLE 1.6 S - GSCA, CAN","Latitude":"44.71013","Longitude":"-80.92735","Snowdepth":"10.200","Units":"in","Rept_Date":"2021-01-03 13"},"coordinates":[3672,5232]},{"type":"Point","properties":{"Station_ID":"WI-WS-15","Station_Nam":"WEST BEND 5.4 SE, WI","Latitude":"43.37259","Longitude":"-88.10086","Snowdepth":"10.000","Units":"in","Rept_Date":"2021-01-03 14"},"coordinates":[2057,4323]},{"type":"Point","properties":{"Station_ID":"WI-WB-2","Station_Nam":"STONE LAKE 2.0 NW, WI","Latitude":"45.85960","Longitude":"-91.57710","Snowdepth":"10.000","Units":"in","Rept_Date":"2021-01-03 13"},"coordinates":[1275,6013]},{"type":"Point","properties":{"Station_ID":"VANM1","Station_Nam":"VAN BUREN","Latitude":"47.16600","Longitude":"-67.93900","Snowdepth":"10.000","Units":"in","Rept_Date":"2021-01-03 12"},"coordinates":[6597,6900]},{"type":"Point","properties":{"Station_ID":"TOGM5","Station_Nam":"CELINA 2E","Latitude":"47.86630","Longitude":"-93.02660","Snowdepth":"10.000","Units":"in","Rept_Date":"2021-01-03 16"},"coordinates":[948,7376]},{"type":"Point","properties":{"Station_ID":"NYMM5","Station_Nam":"NEW YORK MILLS","Latitude":"46.50920","Longitude":"-95.37990","Snowdepth":"10.000","Units":"in","Rept_Date":"2021-01-03 14"},"coordinates":[418,6454]},{"type":"Point","properties":{"Station_ID":"MNSM4","Station_Nam":"MUNISING","Latitude":"46.41210","Longitude":"-86.66250","Snowdepth":"10.000","Units":"in","Rept_Date":"2021-01-03 11"},"coordinates":[2381,6388]},{"type":"Point","properties":{"Station_ID":"MN-CN-36","Station_Nam":"CLOQUET 3.4 ENE, MN","Latitude":"46.74146","Longitude":"-92.42698","Snowdepth":"10.000","Units":"in","Rept_Date":"2021-01-03 13"},"coordinates":[1083,6612]},{"type":"Point","properties":{"Station_ID":"MIEM4","Station_Nam":"MICHIGAMME 3WNW","Latitude":"46.54530","Longitude":"-88.18000","Snowdepth":"10.000","Units":"in","Rept_Date":"2021-01-03 13"},"coordinates":[2040,6479]},{"type":"Point","properties":{"Station_ID":"LEIM5","Station_Nam":"ORR 3E","Latitude":"48.05810","Longitude":"-92.75220","Snowdepth":"10.000","Units":"in","Rept_Date":"2021-01-03 12"},"coordinates":[1010,7506]},{"type":"Point","properties":{"Station_ID":"KINM1","Station_Nam":"KINGFIELD","Latitude":"44.95950","Longitude":"-70.17530","Snowdepth":"10.000","Units":"in","Rept_Date":"2021-01-03 13"},"coordinates":[6093,5401]},{"type":"Point","properties":{"Station_ID":"IL-SP-27","Station_Nam":"DAVIS 2.7 N, IL","Latitude":"42.46110","Longitude":"-89.40890","Snowdepth":"10.000","Units":"in","Rept_Date":"2021-01-03 13"},"coordinates":[1763,3704]},{"type":"Point","properties":{"Station_ID":"HTLM4","Station_Nam":"SNOW PAID OBSERVER FOR KHTL","Latitude":"44.34470","Longitude":"-84.67730","Snowdepth":"10.000","Units":"in","Rept_Date":"2021-01-03 18"},"coordinates":[2828,4984]},{"type":"Point","properties":{"Station_ID":"HTL","Station_Nam":"ROSCOMMON COUNTY AIRPORT","Latitude":"44.35000","Longitude":"-84.66670","Snowdepth":"10.000","Units":"in","Rept_Date":"2021-01-03 12"},"coordinates":[2831,4987]},{"type":"Point","properties":{"Station_ID":"HMYM1","Station_Nam":"HARMONY","Latitude":"44.94660","Longitude":"-69.54560","Snowdepth":"10.000","Units":"in","Rept_Date":"2021-01-03 12"},"coordinates":[6235,5393]},{"type":"Point","properties":{"Station_ID":"ELYM5","Station_Nam":"ELY","Latitude":"47.90560","Longitude":"-91.82830","Snowdepth":"10.000","Units":"in","Rept_Date":"2021-01-03 14"},"coordinates":[1218,7403]},{"type":"Point","properties":{"Station_ID":"CORM1","Station_Nam":"CORINNA","Latitude":"44.91980","Longitude":"-69.24180","Snowdepth":"10.000","Units":"in","Rept_Date":"2021-01-03 17"},"coordinates":[6304,5374]},{"type":"Point","properties":{"Station_ID":"COKM5","Station_Nam":"COOK","Latitude":"47.85060","Longitude":"-92.69250","Snowdepth":"10.000","Units":"in","Rept_Date":"2021-01-03 12"},"coordinates":[1024,7366]},{"type":"Point","properties":{"Station_ID":"CAN-MB-56","Station_Nam":"WINNIPEG 7.6 ENE, CAN","Latitude":"49.93264","Longitude":"-97.04752","Snowdepth":"10.000","Units":"in","Rept_Date":"2021-01-03 14"},"coordinates":[43,8780]},{"type":"Point","properties":{"Station_ID":"CAN-PE-50","Station_Nam":"BEDFORD CORNER 3.9 WNW, CAN","Latitude":"46.34628","Longitude":"-63.06157","Snowdepth":"9.800","Units":"in","Rept_Date":"2021-01-03 11"},"coordinates":[7695,6344]},{"type":"Point","properties":{"Station_ID":"CAN-NB-64","Station_Nam":"KESWICK RIDGE 4.0 SE, CAN","Latitude":"45.97014","Longitude":"-66.85538","Snowdepth":"9.800","Units":"in","Rept_Date":"2021-01-03 12"},"coordinates":[6841,6088]},{"type":"Point","properties":{"Station_ID":"CAN-NB-55","Station_Nam":"FREDERICTON 4.5 N, CAN","Latitude":"45.99547","Longitude":"-66.64252","Snowdepth":"9.700","Units":"in","Rept_Date":"2021-01-03 12"},"coordinates":[6889,6105]},{"type":"Point","properties":{"Station_ID":"CAN-PE-47","Station_Nam":"LONG CREEK 0.3 NNW, CAN","Latitude":"46.17420","Longitude":"-63.27320","Snowdepth":"9.600","Units":"in","Rept_Date":"2021-01-03 12"},"coordinates":[7647,6227]},{"type":"Point","properties":{"Station_ID":"CAN-NS-86","Station_Nam":"NAPPAN 1.7 E, CA","Latitude":"45.76986","Longitude":"-64.21800","Snowdepth":"9.600","Units":"in","Rept_Date":"2021-01-03 13"},"coordinates":[7435,5952]},{"type":"Point","properties":{"Station_ID":"CAN-NB-16","Station_Nam":"DORCHESTER 1.0 SSE, CAN","Latitude":"45.89160","Longitude":"-64.51269","Snowdepth":"9.600","Units":"in","Rept_Date":"2021-01-03 11"},"coordinates":[7368,6035]},{"type":"Point","properties":{"Station_ID":"WI-SR-1","Station_Nam":"HAYWARD 9.2 NNE, WI","Latitude":"46.13255","Longitude":"-91.40500","Snowdepth":"9.500","Units":"in","Rept_Date":"2021-01-03 12"},"coordinates":[1313,6198]},{"type":"Point","properties":{"Station_ID":"WI-RK-12","Station_Nam":"JANESVILLE 3.1 W, WI","Latitude":"42.67576","Longitude":"-89.07614","Snowdepth":"9.500","Units":"in","Rept_Date":"2021-01-03 13"},"coordinates":[1838,3850]},{"type":"Point","properties":{"Station_ID":"WI-BY-22","Station_Nam":"MASON 11.5 WNW, WI","Latitude":"46.50198","Longitude":"-91.28339","Snowdepth":"9.500","Units":"in","Rept_Date":"2021-01-03 14"},"coordinates":[1341,6449]},{"type":"Point","properties":{"Station_ID":"WI-BY-1","Station_Nam":"BAYFIELD 8.8 N, WI","Latitude":"46.93855","Longitude":"-90.83490","Snowdepth":"9.500","Units":"in","Rept_Date":"2021-01-03 13"},"coordinates":[1442,6746]},{"type":"Point","properties":{"Station_ID":"MN-CW-54","Station_Nam":"AITKIN 9.6 W, MN","Latitude":"46.53711","Longitude":"-93.90688","Snowdepth":"9.500","Units":"in","Rept_Date":"2021-01-03 14"},"coordinates":[750,6473]},{"type":"Point","properties":{"Station_ID":"MN-CG-16","Station_Nam":"NORTH BRANCH 1.3 NNW, MN","Latitude":"45.53121","Longitude":"-92.97110","Snowdepth":"9.500","Units":"in","Rept_Date":"2021-01-03 12"},"coordinates":[961,5790]},{"type":"Point","properties":{"Station_ID":"IL-SP-6","Station_Nam":"FREEPORT 2.0 NW, IL","Latitude":"42.30955","Longitude":"-89.66370","Snowdepth":"9.500","Units":"in","Rept_Date":"2021-01-03 13"},"coordinates":[1706,3601]},{"type":"Point","properties":{"Station_ID":"CAN-MB-32","Station_Nam":"PINAWA 1.0 SW, CA","Latitude":"50.14747","Longitude":"-95.89020","Snowdepth":"9.500","Units":"in","Rept_Date":"2021-01-03 13"},"coordinates":[304,8926]},{"type":"Point","properties":{"Station_ID":"CAN-PE-20","Station_Nam":"BONSHAW 6.6 NNE, CAN","Latitude":"46.25082","Longitude":"-63.33409","Snowdepth":"9.400","Units":"in","Rept_Date":"2021-01-03 12"},"coordinates":[7634,6279]},{"type":"Point","properties":{"Station_ID":"CAN-NS-163","Station_Nam":"SYDNEY MINES 2.2 WNW, CAN","Latitude":"46.24851","Longitude":"-60.25161","Snowdepth":"9.400","Units":"in","Rept_Date":"2021-01-03 12"},"coordinates":[8328,6277]},{"type":"Point","properties":{"Station_ID":"CAN-NB-98","Station_Nam":"HOYT 4.2 S, CAN","Latitude":"45.54763","Longitude":"-66.55440","Snowdepth":"9.400","Units":"in","Rept_Date":"2021-01-03 11"},"coordinates":[6909,5801]},{"type":"Point","properties":{"Station_ID":"CAN-NB-108","Station_Nam":"LINCOLN 2.7 SSE, CAN","Latitude":"45.88222","Longitude":"-66.57032","Snowdepth":"9.400","Units":"in","Rept_Date":"2021-01-03 12"},"coordinates":[6905,6028]},{"type":"Point","properties":{"Station_ID":"ME-PN-58","Station_Nam":"HUDSON 2.4 ESE, ME","Latitude":"44.98470","Longitude":"-68.83750","Snowdepth":"9.300","Units":"in","Rept_Date":"2021-01-03 12"},"coordinates":[6395,5418]},{"type":"Point","properties":{"Station_ID":"CAN-NB-97","Station_Nam":"NEW MARYLAND 0.6 NW, CAN","Latitude":"45.90112","Longitude":"-66.68739","Snowdepth":"9.100","Units":"in","Rept_Date":"2021-01-03 12"},"coordinates":[6879,6041]},{"type":"Point","properties":{"Station_ID":"CAN-NB-84","Station_Nam":"NORTON 7.1 WNW - KWRC, CAN","Latitude":"45.66195","Longitude":"-65.78279","Snowdepth":"9.100","Units":"in","Rept_Date":"2021-01-03 12"},"coordinates":[7082,5879]},{"type":"Point","properties":{"Station_ID":"CAN-NB-8","Station_Nam":"KESWICK RIDGE 2.3 SSE, CAN","Latitude":"45.97703","Longitude":"-66.86815","Snowdepth":"9.100","Units":"in","Rept_Date":"2021-01-03 15"},"coordinates":[6838,6093]},{"type":"Point","properties":{"Station_ID":"CAN-NB-5","Station_Nam":"OAK POINT 0.9 SSW, CA","Latitude":"45.50752","Longitude":"-66.09860","Snowdepth":"9.100","Units":"in","Rept_Date":"2021-01-03 12"},"coordinates":[7011,5774]},{"type":"Point","properties":{"Station_ID":"WTNM4","Station_Nam":"WATTON 2WSW","Latitude":"46.52660","Longitude":"-88.64240","Snowdepth":"9.000","Units":"in","Rept_Date":"2021-01-03 13"},"coordinates":[1935,6466]},{"type":"Point","properties":{"Station_ID":"WRIM5","Station_Nam":"WRIGHT 3E","Latitude":"46.68040","Longitude":"-92.95420","Snowdepth":"9.000","Units":"in","Rept_Date":"2021-01-03 12"},"coordinates":[965,6571]},{"type":"Point","properties":{"Station_ID":"WI-WK-68","Station_Nam":"OCONOMOWOC 1.0 S, WI","Latitude":"43.09530","Longitude":"-88.48590","Snowdepth":"9.000","Units":"in","Rept_Date":"2021-01-03 14"},"coordinates":[1971,4135]},{"type":"Point","properties":{"Station_ID":"WI-WK-65","Station_Nam":"EAGLE 3.4 SW, WI","Latitude":"42.85067","Longitude":"-88.52596","Snowdepth":"9.000","Units":"in","Rept_Date":"2021-01-03 14"},"coordinates":[1962,3969]},{"type":"Point","properties":{"Station_ID":"WI-WK-29","Station_Nam":"OCONOMOWOC 4.6 NE, WI","Latitude":"43.14621","Longitude":"-88.42860","Snowdepth":"9.000","Units":"in","Rept_Date":"2021-01-03 15"},"coordinates":[1984,4169]},{"type":"Point","properties":{"Station_ID":"WI-OZ-22","Station_Nam":"SAUKVILLE 0.9 SSW, WI","Latitude":"43.37254","Longitude":"-87.95009","Snowdepth":"9.000","Units":"in","Rept_Date":"2021-01-03 13"},"coordinates":[2091,4323]},{"type":"Point","properties":{"Station_ID":"WI-IR-2","Station_Nam":"MERCER 2.0 SE, WI","Latitude":"46.14749","Longitude":"-90.03097","Snowdepth":"9.000","Units":"in","Rept_Date":"2021-01-03 13"},"coordinates":[1623,6208]},{"type":"Point","properties":{"Station_ID":"WI-BY-14","Station_Nam":"ASHLAND 9.8 W, WI","Latitude":"46.59742","Longitude":"-91.07856","Snowdepth":"9.000","Units":"in","Rept_Date":"2021-01-03 13"},"coordinates":[1387,6514]},{"type":"Point","properties":{"Station_ID":"WHTW3","Station_Nam":"WHITEWATER,WI","Latitude":"42.85670","Longitude":"-88.72940","Snowdepth":"9.000","Units":"in","Rept_Date":"2021-01-03 12"},"coordinates":[1916,3973]},{"type":"Point","properties":{"Station_ID":"VT-WS-30","Station_Nam":"WOODBURY 3.4 NNW, VT","Latitude":"44.48825","Longitude":"-72.43258","Snowdepth":"9.000","Units":"in","Rept_Date":"2021-01-03 12"},"coordinates":[5585,5081]},{"type":"Point","properties":{"Station_ID":"VT-OL-1","Station_Nam":"WESTFIELD 0.7 WNW, VT","Latitude":"44.89160","Longitude":"-72.44350","Snowdepth":"9.000","Units":"in","Rept_Date":"2021-01-03 12"},"coordinates":[5583,5355]},{"type":"Point","properties":{"Station_ID":"UGRW3","Station_Nam":"UNION GROVE,WI","Latitude":"42.70000","Longitude":"-88.03220","Snowdepth":"9.000","Units":"in","Rept_Date":"2021-01-03 13"},"coordinates":[2073,3866]},{"type":"Point","properties":{"Station_ID":"SWHI4","Station_Nam":"SWISHER #2","Latitude":"41.84970","Longitude":"-91.67650","Snowdepth":"9.000","Units":"in","Rept_Date":"2021-01-03 15"},"coordinates":[1252,3289]},{"type":"Point","properties":{"Station_ID":"PTBN3","Station_Nam":"PITTSBURG RESERVOIR","Latitude":"45.04690","Longitude":"-71.38300","Snowdepth":"9.000","Units":"in","Rept_Date":"2021-01-03 12"},"coordinates":[5821,5461]},{"type":"Point","properties":{"Station_ID":"ONCW3","Station_Nam":"SOUTH","Latitude":"43.11170","Longitude":"-88.49970","Snowdepth":"9.000","Units":"in","Rept_Date":"2021-01-03 14"},"coordinates":[1968,4146]},{"type":"Point","properties":{"Station_ID":"OCOW3","Station_Nam":"OCONOMOWOC,WI","Latitude":"43.10190","Longitude":"-88.50330","Snowdepth":"9.000","Units":"in","Rept_Date":"2021-01-03 13"},"coordinates":[1967,4139]},{"type":"Point","properties":{"Station_ID":"NY-FK-9","Station_Nam":"GABRIELS 1.3 SE, NY","Latitude":"44.41934","Longitude":"-74.16194","Snowdepth":"9.000","Units":"in","Rept_Date":"2021-01-03 12"},"coordinates":[5196,5034]},{"type":"Point","properties":{"Station_ID":"NY-ES-11","Station_Nam":"VERMONTVILLE 2.8 S, NY","Latitude":"44.41205","Longitude":"-74.06760","Snowdepth":"9.000","Units":"in","Rept_Date":"2021-01-03 11"},"coordinates":[5217,5029]},{"type":"Point","properties":{"Station_ID":"MQT","Station_Nam":"MARQUETTE, MI","Latitude":"46.53140","Longitude":"-87.54920","Snowdepth":"9.000","Units":"in","Rept_Date":"2021-01-04 06"},"coordinates":[2182,6469]},{"type":"Point","properties":{"Station_ID":"MN-CW-44","Station_Nam":"CROSBY 1.1 SW, MN","Latitude":"46.47772","Longitude":"-93.97293","Snowdepth":"9.000","Units":"in","Rept_Date":"2021-01-03 13"},"coordinates":[735,6433]},{"type":"Point","properties":{"Station_ID":"MN-CW-22","Station_Nam":"FORT RIPLEY 0.8 N, MN","Latitude":"46.18089","Longitude":"-94.36510","Snowdepth":"9.000","Units":"in","Rept_Date":"2021-01-03 13"},"coordinates":[647,6231]},{"type":"Point","properties":{"Station_ID":"MKX","Station_Nam":"MILWAUKEE, WI","Latitude":"42.96810","Longitude":"-88.54920","Snowdepth":"9.000","Units":"in","Rept_Date":"2021-01-04 06"},"coordinates":[1956,4048]},{"type":"Point","properties":{"Station_ID":"MKTI4","Station_Nam":"MAQUOKETA","Latitude":"42.07710","Longitude":"-90.66470","Snowdepth":"9.000","Units":"in","Rept_Date":"2021-01-03 12"},"coordinates":[1480,3443]},{"type":"Point","properties":{"Station_ID":"ME-PN-55","Station_Nam":"ORONO 1.1 SSW, ME","Latitude":"44.87005","Longitude":"-68.69446","Snowdepth":"9.000","Units":"in","Rept_Date":"2021-01-03 12"},"coordinates":[6427,5341]},{"type":"Point","properties":{"Station_ID":"JCBM4","Station_Nam":"JACOBSVILLE","Latitude":"47.00830","Longitude":"-88.43180","Snowdepth":"9.000","Units":"in","Rept_Date":"2021-01-03 12"},"coordinates":[1983,6793]},{"type":"Point","properties":{"Station_ID":"INL","Station_Nam":"FALLS INTERNATIONAL ARPT","Latitude":"48.56640","Longitude":"-93.40310","Snowdepth":"9.000","Units":"in","Rept_Date":"2021-01-04 00"},"coordinates":[864,7852]},{"type":"Point","properties":{"Station_ID":"IFSM5","Station_Nam":"INTERNATIONAL FALLS SNOW","Latitude":"48.57780","Longitude":"-93.39640","Snowdepth":"9.000","Units":"in","Rept_Date":"2021-01-03 12"},"coordinates":[865,7860]},{"type":"Point","properties":{"Station_ID":"IA-JH-20","Station_Nam":"CORALVILLE 1.4 S, IA","Latitude":"41.67016","Longitude":"-91.60296","Snowdepth":"9.000","Units":"in","Rept_Date":"2021-01-03 14"},"coordinates":[1269,3167]},{"type":"Point","properties":{"Station_ID":"HUBN3","Station_Nam":"HUBBARD BROOK","Latitude":"43.93330","Longitude":"-71.71670","Snowdepth":"9.000","Units":"in","Rept_Date":"2021-01-04 06"},"coordinates":[5746,4704]},{"type":"Point","properties":{"Station_ID":"ESGM1","Station_Nam":"EAST SANGERVILLE","Latitude":"45.13690","Longitude":"-69.28060","Snowdepth":"9.000","Units":"in","Rept_Date":"2021-01-03 12"},"coordinates":[6295,5522]},{"type":"Point","properties":{"Station_ID":"CARM1","Station_Nam":"CARIBOU WFO","Latitude":"46.86810","Longitude":"-68.01250","Snowdepth":"9.000","Units":"in","Rept_Date":"2021-01-04 05"},"coordinates":[6580,6698]},{"type":"Point","properties":{"Station_ID":"CAR","Station_Nam":"CARIBOU, ME","Latitude":"46.86830","Longitude":"-68.01360","Snowdepth":"9.000","Units":"in","Rept_Date":"2021-01-03 12"},"coordinates":[6580,6698]},{"type":"Point","properties":{"Station_ID":"CAN-PE-10","Station_Nam":"NEW LONDON 1.6 ENE, CA","Latitude":"46.46985","Longitude":"-63.49200","Snowdepth":"9.000","Units":"in","Rept_Date":"2021-01-03 12"},"coordinates":[7598,6427]},{"type":"Point","properties":{"Station_ID":"BFDW3","Station_Nam":"BROOKFIELD","Latitude":"43.05390","Longitude":"-88.17640","Snowdepth":"9.000","Units":"in","Rept_Date":"2021-01-03 14"},"coordinates":[2040,4107]},{"type":"Point","properties":{"Station_ID":"CATQ6","Station_Nam":"CAT LAKE","Latitude":"51.72690","Longitude":"-91.82210","Snowdepth":"8.900","Units":"in","Rept_Date":"2021-01-04 06"},"coordinates":[1220,9999]},{"type":"Point","properties":{"Station_ID":"CAN-NB-105","Station_Nam":"SISSON BROOK 3.8 E, CAN","Latitude":"46.98305","Longitude":"-67.32532","Snowdepth":"8.900","Units":"in","Rept_Date":"2021-01-03 12"},"coordinates":[6735,6776]},{"type":"Point","properties":{"Station_ID":"CAN-MB-368","Station_Nam":"WHITESHELL 1.3 NE, CAN","Latitude":"49.74405","Longitude":"-95.19123","Snowdepth":"8.900","Units":"in","Rept_Date":"2021-01-03 14"},"coordinates":[461,8652]},{"type":"Point","properties":{"Station_ID":"CAN-NS-159","Station_Nam":"NORTHPORT 0.1 NE, CAN","Latitude":"45.93299","Longitude":"-63.86711","Snowdepth":"8.700","Units":"in","Rept_Date":"2021-01-03 11"},"coordinates":[7514,6063]},{"type":"Point","properties":{"Station_ID":"CAN-NB-76","Station_Nam":"GRANDE-DIGUE 5.1 N, CAN","Latitude":"46.34183","Longitude":"-64.57198","Snowdepth":"8.700","Units":"in","Rept_Date":"2021-01-03 11"},"coordinates":[7355,6340]},{"type":"Point","properties":{"Station_ID":"CAN-PE-7","Station_Nam":"MORELL 1.4 NNW, CA","Latitude":"46.42741","Longitude":"-62.70870","Snowdepth":"8.600","Units":"in","Rept_Date":"2021-01-03 12"},"coordinates":[7774,6399]},{"type":"Point","properties":{"Station_ID":"WI-WK-84","Station_Nam":"WAUKESHA 2.5 NW, WI","Latitude":"43.03422","Longitude":"-88.27814","Snowdepth":"8.500","Units":"in","Rept_Date":"2021-01-03 13"},"coordinates":[2017,4093]},{"type":"Point","properties":{"Station_ID":"WI-OZ-17","Station_Nam":"WEST BEND 7.3 E, WI","Latitude":"43.42860","Longitude":"-88.03870","Snowdepth":"8.500","Units":"in","Rept_Date":"2021-01-03 13"},"coordinates":[2071,4361]},{"type":"Point","properties":{"Station_ID":"WI-MW-18","Station_Nam":"WEST ALLIS 0.7 SSE, WI","Latitude":"42.99802","Longitude":"-88.02380","Snowdepth":"8.500","Units":"in","Rept_Date":"2021-01-03 14"},"coordinates":[2075,4069]},{"type":"Point","properties":{"Station_ID":"VT-OL-12","Station_Nam":"GREENSBORO 3.9 NNE, VT","Latitude":"44.63100","Longitude":"-72.28000","Snowdepth":"8.500","Units":"in","Rept_Date":"2021-01-03 12"},"coordinates":[5619,5178]},{"type":"Point","properties":{"Station_ID":"MN-IT-1","Station_Nam":"GRAND RAPIDS 2.0 E, MN","Latitude":"47.22266","Longitude":"-93.49600","Snowdepth":"8.500","Units":"in","Rept_Date":"2021-01-03 14"},"coordinates":[843,6939]},{"type":"Point","properties":{"Station_ID":"MN-BK-6","Station_Nam":"LAKE PARK 6.0 S, MN","Latitude":"46.79850","Longitude":"-96.12180","Snowdepth":"8.500","Units":"in","Rept_Date":"2021-01-03 13"},"coordinates":[251,6651]},{"type":"Point","properties":{"Station_ID":"MN-AA-76","Station_Nam":"NOWTHEN 2.9 SSE, MN","Latitude":"45.30360","Longitude":"-93.42620","Snowdepth":"8.500","Units":"in","Rept_Date":"2021-01-03 13"},"coordinates":[858,5635]},{"type":"Point","properties":{"Station_ID":"MI-OT-17","Station_Nam":"GAYLORD 4.1 S, MI","Latitude":"44.96388","Longitude":"-84.68467","Snowdepth":"8.500","Units":"in","Rept_Date":"2021-01-03 12"},"coordinates":[2827,5404]},{"type":"Point","properties":{"Station_ID":"ME-SM-45","Station_Nam":"BRIGHTON PLANTATION 2.1 N, ME","Latitude":"45.07098","Longitude":"-69.69860","Snowdepth":"8.500","Units":"in","Rept_Date":"2021-01-03 12"},"coordinates":[6201,5477]},{"type":"Point","properties":{"Station_ID":"IL-SP-25","Station_Nam":"FREEPORT 1.7 NW, IL","Latitude":"42.30427","Longitude":"-89.66285","Snowdepth":"8.500","Units":"in","Rept_Date":"2021-01-03 13"},"coordinates":[1706,3597]},{"type":"Point","properties":{"Station_ID":"IA-JH-14","Station_Nam":"SWISHER 0.4 NNE, IA","Latitude":"41.84830","Longitude":"-91.69210","Snowdepth":"8.500","Units":"in","Rept_Date":"2021-01-03 15"},"coordinates":[1249,3288]},{"type":"Point","properties":{"Station_ID":"CAN-NB-6","Station_Nam":"FREDERICTON 5.1 SSE, CAN","Latitude":"45.91895","Longitude":"-66.62685","Snowdepth":"8.500","Units":"in","Rept_Date":"2021-01-03 11"},"coordinates":[6892,6053]},{"type":"Point","properties":{"Station_ID":"CAN-NB-11","Station_Nam":"MIRAMICHI 3.3 S, CAN","Latitude":"46.99343","Longitude":"-65.50690","Snowdepth":"8.500","Units":"in","Rept_Date":"2021-01-03 11"},"coordinates":[7144,6783]},{"type":"Point","properties":{"Station_ID":"CAN-PE-36","Station_Nam":"SPRING VALLEY 1.5 SE - MCPEI, CAN","Latitude":"46.48997","Longitude":"-63.61226","Snowdepth":"8.300","Units":"in","Rept_Date":"2021-01-03 11"},"coordinates":[7571,6441]},{"type":"Point","properties":{"Station_ID":"CAN-NB-28","Station_Nam":"SUSSEX CORNER 1.4 NE - KWRC, CAN","Latitude":"45.71691","Longitude":"-65.46217","Snowdepth":"8.300","Units":"in","Rept_Date":"2021-01-03 10"},"coordinates":[7154,5916]},{"type":"Point","properties":{"Station_ID":"MN-IT-7","Station_Nam":"GRAND RAPIDS 6.2 SSW, MN","Latitude":"47.13687","Longitude":"-93.56660","Snowdepth":"8.200","Units":"in","Rept_Date":"2021-01-03 12"},"coordinates":[827,6881]},{"type":"Point","properties":{"Station_ID":"WSTW3","Station_Nam":"WEST BEND -FIRE","Latitude":"43.43138","Longitude":"-88.16111","Snowdepth":"8.000","Units":"in","Rept_Date":"2021-01-03 13"},"coordinates":[2044,4363]},{"type":"Point","properties":{"Station_ID":"WI-WK-60","Station_Nam":"OCONOMOWOC 2.3 WSW, WI","Latitude":"43.08753","Longitude":"-88.53749","Snowdepth":"8.000","Units":"in","Rept_Date":"2021-01-03 23"},"coordinates":[1959,4130]},{"type":"Point","properties":{"Station_ID":"WI-WK-34","Station_Nam":"MUKWONAGO 5.3 W, WI","Latitude":"42.85380","Longitude":"-88.43550","Snowdepth":"8.000","Units":"in","Rept_Date":"2021-01-03 13"},"coordinates":[1982,3971]},{"type":"Point","properties":{"Station_ID":"WI-WK-20","Station_Nam":"MUKWONAGO 0.5 N, WI","Latitude":"42.87385","Longitude":"-88.33180","Snowdepth":"8.000","Units":"in","Rept_Date":"2021-01-03 13"},"coordinates":[2005,3984]},{"type":"Point","properties":{"Station_ID":"WI-VL-9","Station_Nam":"LAND O' LAKES 11.7 W, WI","Latitude":"46.19023","Longitude":"-89.45790","Snowdepth":"8.000","Units":"in","Rept_Date":"2021-01-03 13"},"coordinates":[1752,6237]},{"type":"Point","properties":{"Station_ID":"WI-PR-6","Station_Nam":"PHILLIPS 1.3 S, WI","Latitude":"45.67677","Longitude":"-90.39543","Snowdepth":"8.000","Units":"in","Rept_Date":"2021-01-03 12"},"coordinates":[1541,5889]},{"type":"Point","properties":{"Station_ID":"WI-PC-5","Station_Nam":"RIVER FALLS 1.2 SSW, WI","Latitude":"44.84032","Longitude":"-92.63500","Snowdepth":"8.000","Units":"in","Rept_Date":"2021-01-03 13"},"coordinates":[1037,5320]},{"type":"Point","properties":{"Station_ID":"WI-PC-25","Station_Nam":"ELLSWORTH 2.6 SW, WI","Latitude":"44.71119","Longitude":"-92.51849","Snowdepth":"8.000","Units":"in","Rept_Date":"2021-01-03 13"},"coordinates":[1063,5233]},{"type":"Point","properties":{"Station_ID":"WI-MW-14","Station_Nam":"MILWAUKEE 3.6 NNW, WI","Latitude":"43.11300","Longitude":"-87.98730","Snowdepth":"8.000","Units":"in","Rept_Date":"2021-01-03 11"},"coordinates":[2083,4147]},{"type":"Point","properties":{"Station_ID":"WI-KN-18","Station_Nam":"TWIN LAKES 1.5 NE, WI","Latitude":"42.53541","Longitude":"-88.23863","Snowdepth":"8.000","Units":"in","Rept_Date":"2021-01-03 13"},"coordinates":[2026,3754]},{"type":"Point","properties":{"Station_ID":"WI-BY-2","Station_Nam":"MELLEN 18.6 SW, WI","Latitude":"46.16937","Longitude":"-90.98090","Snowdepth":"8.000","Units":"in","Rept_Date":"2021-01-03 13"},"coordinates":[1409,6223]},{"type":"Point","properties":{"Station_ID":"WI-BT-14","Station_Nam":"OAKLAND 9.0 ENE, WI","Latitude":"45.95184","Longitude":"-92.21653","Snowdepth":"8.000","Units":"in","Rept_Date":"2021-01-03 13"},"coordinates":[1131,6076]},{"type":"Point","properties":{"Station_ID":"WBRM4","Station_Nam":"WEST BRANCH 3SE","Latitude":"44.25410","Longitude":"-84.20110","Snowdepth":"8.000","Units":"in","Rept_Date":"2021-01-03 13"},"coordinates":[2935,4922]},{"type":"Point","properties":{"Station_ID":"VT-WS-7","Station_Nam":"MIDDLESEX 3.1 ENE, VT","Latitude":"44.31799","Longitude":"-72.62650","Snowdepth":"8.000","Units":"in","Rept_Date":"2021-01-03 14"},"coordinates":[5541,4966]},{"type":"Point","properties":{"Station_ID":"VT-OL-2","Station_Nam":"BARTON 3.0 ENE, VT","Latitude":"44.75863","Longitude":"-72.11680","Snowdepth":"8.000","Units":"in","Rept_Date":"2021-01-03 12"},"coordinates":[5656,5265]},{"type":"Point","properties":{"Station_ID":"VT-CL-14","Station_Nam":"LYNDONVILLE 1.1 W, VT","Latitude":"44.53582","Longitude":"-72.02867","Snowdepth":"8.000","Units":"in","Rept_Date":"2021-01-03 12"},"coordinates":[5676,5114]},{"type":"Point","properties":{"Station_ID":"SUTV1","Station_Nam":"SUTTON","Latitude":"44.61220","Longitude":"-72.04810","Snowdepth":"8.000","Units":"in","Rept_Date":"2021-01-03 13"},"coordinates":[5672,5165]},{"type":"Point","properties":{"Station_ID":"SUAW3","Station_Nam":"SUAMICO","Latitude":"44.60190","Longitude":"-88.09780","Snowdepth":"8.000","Units":"in","Rept_Date":"2021-01-03 12"},"coordinates":[2058,5158]},{"type":"Point","properties":{"Station_ID":"SSMM4","Station_Nam":"SAULT STE MARIE","Latitude":"46.48660","Longitude":"-84.40250","Snowdepth":"8.000","Units":"in","Rept_Date":"2021-01-03 13"},"coordinates":[2890,6439]},{"type":"Point","properties":{"Station_ID":"SLRW3","Station_Nam":"SLINGER","Latitude":"43.33390","Longitude":"-88.29780","Snowdepth":"8.000","Units":"in","Rept_Date":"2021-01-03 13"},"coordinates":[2013,4297]},{"type":"Point","properties":{"Station_ID":"RLKW3","Station_Nam":"REST LAKE","Latitude":"46.12220","Longitude":"-89.87720","Snowdepth":"8.000","Units":"in","Rept_Date":"2021-01-03 14"},"coordinates":[1657,6191]},{"type":"Point","properties":{"Station_ID":"RKWM1","Station_Nam":"MOOSEHEAD LAKE","Latitude":"45.58330","Longitude":"-69.71670","Snowdepth":"8.000","Units":"in","Rept_Date":"2021-01-03 12"},"coordinates":[6197,5825]},{"type":"Point","properties":{"Station_ID":"RGNM1","Station_Nam":"RANGELEY 2NW","Latitude":"44.98940","Longitude":"-70.67220","Snowdepth":"8.000","Units":"in","Rept_Date":"2021-01-03 14"},"coordinates":[5981,5422]},{"type":"Point","properties":{"Station_ID":"RCHW3","Station_Nam":"RICHRIELD,WI","Latitude":"43.21080","Longitude":"-88.20940","Snowdepth":"8.000","Units":"in","Rept_Date":"2021-01-03 12"},"coordinates":[2033,4213]},{"type":"Point","properties":{"Station_ID":"PDGM4","Station_Nam":"PAULDING","Latitude":"46.39760","Longitude":"-89.17940","Snowdepth":"8.000","Units":"in","Rept_Date":"2021-01-03 15"},"coordinates":[1815,6378]},{"type":"Point","properties":{"Station_ID":"NY-FK-7","Station_Nam":"SARANAC LAKE 6.2 N, NY","Latitude":"44.41359","Longitude":"-74.15211","Snowdepth":"8.000","Units":"in","Rept_Date":"2021-01-03 11"},"coordinates":[5198,5030]},{"type":"Point","properties":{"Station_ID":"MYOM4","Station_Nam":"MIO WWTP","Latitude":"44.64660","Longitude":"-84.11580","Snowdepth":"8.000","Units":"in","Rept_Date":"2021-01-03 13"},"coordinates":[2955,5189]},{"type":"Point","properties":{"Station_ID":"MWTM1","Station_Nam":"MILLINOCKET WWTP","Latitude":"45.64030","Longitude":"-68.67480","Snowdepth":"8.000","Units":"in","Rept_Date":"2021-01-03 12"},"coordinates":[6431,5864]},{"type":"Point","properties":{"Station_ID":"MWOW3","Station_Nam":"MUKWONAGO","Latitude":"42.85380","Longitude":"-88.43550","Snowdepth":"8.000","Units":"in","Rept_Date":"2021-01-03 13"},"coordinates":[1982,3971]},{"type":"Point","properties":{"Station_ID":"MWN","Station_Nam":"MOUNT WASHINGTON","Latitude":"44.26670","Longitude":"-71.30000","Snowdepth":"8.000","Units":"in","Rept_Date":"2021-01-03 12"},"coordinates":[5840,4931]},{"type":"Point","properties":{"Station_ID":"MN-MR-13","Station_Nam":"LITTLE FALLS 8.0 NE, MN","Latitude":"46.06785","Longitude":"-94.24789","Snowdepth":"8.000","Units":"in","Rept_Date":"2021-01-03 13"},"coordinates":[673,6154]},{"type":"Point","properties":{"Station_ID":"MN-IS-21","Station_Nam":"ISANTI 5.0 SW, MN","Latitude":"45.43360","Longitude":"-93.30200","Snowdepth":"8.000","Units":"in","Rept_Date":"2021-01-03 14"},"coordinates":[886,5723]},{"type":"Point","properties":{"Station_ID":"MN-HN-298","Station_Nam":"EXCELSIOR 1.8 W, MN","Latitude":"44.89722","Longitude":"-93.60286","Snowdepth":"8.000","Units":"in","Rept_Date":"2021-01-03 13"},"coordinates":[819,5359]},{"type":"Point","properties":{"Station_ID":"ME-AR-18","Station_Nam":"NEW SWEDEN 4.9 NNW, ME","Latitude":"47.01080","Longitude":"-68.14390","Snowdepth":"8.000","Units":"in","Rept_Date":"2021-01-03 12"},"coordinates":[6551,6795]},{"type":"Point","properties":{"Station_ID":"ME-AR-15","Station_Nam":"PRESQUE ISLE 1.3 WSW, ME","Latitude":"46.67960","Longitude":"-68.01270","Snowdepth":"8.000","Units":"in","Rept_Date":"2021-01-03 12"},"coordinates":[6580,6570]},{"type":"Point","properties":{"Station_ID":"LPLN6","Station_Nam":"LAKE PLACID 2 S","Latitude":"44.30420","Longitude":"-73.98390","Snowdepth":"8.000","Units":"in","Rept_Date":"2021-01-03 13"},"coordinates":[5236,4956]},{"type":"Point","properties":{"Station_ID":"LNOW3","Station_Nam":"LAND O LAKES","Latitude":"46.19000","Longitude":"-89.45700","Snowdepth":"8.000","Units":"in","Rept_Date":"2021-01-03 13"},"coordinates":[1752,6237]},{"type":"Point","properties":{"Station_ID":"LEWM4","Station_Nam":"LEWISTON 3W","Latitude":"44.88210","Longitude":"-84.36540","Snowdepth":"8.000","Units":"in","Rept_Date":"2021-01-03 13"},"coordinates":[2898,5349]},{"type":"Point","properties":{"Station_ID":"KNXI4","Station_Nam":"KNOXVILLE,IA","Latitude":"41.31670","Longitude":"-93.13330","Snowdepth":"8.000","Units":"in","Rept_Date":"2021-01-03 14"},"coordinates":[924,2927]},{"type":"Point","properties":{"Station_ID":"KMWN","Station_Nam":"MOUNT WASHINGTON","Latitude":"44.26666","Longitude":"-71.30000","Snowdepth":"8.000","Units":"in","Rept_Date":"2021-01-04 00"},"coordinates":[5840,4931]},{"type":"Point","properties":{"Station_ID":"JOHV1","Station_Nam":"JOHNSON 2 N","Latitude":"44.65790","Longitude":"-72.67850","Snowdepth":"8.000","Units":"in","Rept_Date":"2021-01-03 12"},"coordinates":[5530,5196]},{"type":"Point","properties":{"Station_ID":"JACW3","Station_Nam":"JACKSON","Latitude":"43.31940","Longitude":"-88.16810","Snowdepth":"8.000","Units":"in","Rept_Date":"2021-01-03 12"},"coordinates":[2042,4287]},{"type":"Point","properties":{"Station_ID":"ISEM5","Station_Nam":"ISLE 12N","Latitude":"46.31970","Longitude":"-93.50140","Snowdepth":"8.000","Units":"in","Rept_Date":"2021-01-03 14"},"coordinates":[841,6325]},{"type":"Point","properties":{"Station_ID":"IL-HY-5","Station_Nam":"COAL VALLEY 1.9 SE, IL","Latitude":"41.43339","Longitude":"-90.41750","Snowdepth":"8.000","Units":"in","Rept_Date":"2021-01-03 13"},"coordinates":[1536,3006]},{"type":"Point","properties":{"Station_ID":"ICYI4","Station_Nam":"IOWA CITY","Latitude":"41.60930","Longitude":"-91.50510","Snowdepth":"8.000","Units":"in","Rept_Date":"2021-01-03 13"},"coordinates":[1291,3125]},{"type":"Point","properties":{"Station_ID":"IA-ST-1","Station_Nam":"LE CLAIRE 1.8 NNE, IA","Latitude":"41.62355","Longitude":"-90.35140","Snowdepth":"8.000","Units":"in","Rept_Date":"2021-01-03 15"},"coordinates":[1551,3135]},{"type":"Point","properties":{"Station_ID":"GIBW3","Station_Nam":"GIBBSVILLE,WI","Latitude":"43.65670","Longitude":"-87.81170","Snowdepth":"8.000","Units":"in","Rept_Date":"2021-01-03 13"},"coordinates":[2122,4516]},{"type":"Point","properties":{"Station_ID":"GHMN3","Station_Nam":"PINKHAM NOTCH","Latitude":"44.25800","Longitude":"-71.25250","Snowdepth":"8.000","Units":"in","Rept_Date":"2021-01-03 11"},"coordinates":[5851,4925]},{"type":"Point","properties":{"Station_ID":"FORM5","Station_Nam":"FOREST LAKE 5NE","Latitude":"45.33170","Longitude":"-92.89820","Snowdepth":"8.000","Units":"in","Rept_Date":"2021-01-03 13"},"coordinates":[977,5654]},{"type":"Point","properties":{"Station_ID":"FISM1","Station_Nam":"FORT KENT COOP","Latitude":"47.23850","Longitude":"-68.61240","Snowdepth":"8.000","Units":"in","Rept_Date":"2021-01-03 10"},"coordinates":[6445,6950]},{"type":"Point","properties":{"Station_ID":"EZBI2","Station_Nam":"ELIZABETH","Latitude":"42.31620","Longitude":"-90.22690","Snowdepth":"8.000","Units":"in","Rept_Date":"2021-01-03 12"},"coordinates":[1579,3606]},{"type":"Point","properties":{"Station_ID":"EAU","Station_Nam":"CHIPPEWA VALLEY REGIONAL AIRPORT","Latitude":"44.86650","Longitude":"-91.48790","Snowdepth":"8.000","Units":"in","Rept_Date":"2021-01-04 00"},"coordinates":[1295,5338]},{"type":"Point","properties":{"Station_ID":"DLHM5","Station_Nam":"DULUTH NWS","Latitude":"46.83680","Longitude":"-92.21080","Snowdepth":"8.000","Units":"in","Rept_Date":"2021-01-04 06"},"coordinates":[1132,6677]},{"type":"Point","properties":{"Station_ID":"DLH","Station_Nam":"DULUTH, MN","Latitude":"46.83690","Longitude":"-92.21030","Snowdepth":"8.000","Units":"in","Rept_Date":"2021-01-04 00"},"coordinates":[1132,6677]},{"type":"Point","properties":{"Station_ID":"DARW3","Station_Nam":"DARLINGTON","Latitude":"42.67780","Longitude":"-90.11860","Snowdepth":"8.000","Units":"in","Rept_Date":"2021-01-03 15"},"coordinates":[1603,3851]},{"type":"Point","properties":{"Station_ID":"CSLM5","Station_Nam":"CASS LAKE,MN","Latitude":"47.38470","Longitude":"-94.61470","Snowdepth":"8.000","Units":"in","Rept_Date":"2021-01-03 14"},"coordinates":[591,7049]},{"type":"Point","properties":{"Station_ID":"COUW3","Station_Nam":"COUDERAY,WI","Latitude":"45.86670","Longitude":"-91.45000","Snowdepth":"8.000","Units":"in","Rept_Date":"2021-01-03 22"},"coordinates":[1303,6018]},{"type":"Point","properties":{"Station_ID":"CMKW3","Station_Nam":"CLAM LAKE 4W","Latitude":"46.16940","Longitude":"-90.98080","Snowdepth":"8.000","Units":"in","Rept_Date":"2021-01-03 13"},"coordinates":[1409,6223]},{"type":"Point","properties":{"Station_ID":"CLIW3","Station_Nam":"CLINTON,WI","Latitude":"42.60000","Longitude":"-88.88330","Snowdepth":"8.000","Units":"in","Rept_Date":"2021-01-03 18"},"coordinates":[1881,3798]},{"type":"Point","properties":{"Station_ID":"CAN-NS-174","Station_Nam":"PICTOU 7.1 WSW, CAN","Latitude":"45.66679","Longitude":"-62.79507","Snowdepth":"8.000","Units":"in","Rept_Date":"2021-01-03 11"},"coordinates":[7755,5882]},{"type":"Point","properties":{"Station_ID":"BROW3","Station_Nam":"BRODHEAD,WI","Latitude":"42.61720","Longitude":"-89.38970","Snowdepth":"8.000","Units":"in","Rept_Date":"2021-01-03 13"},"coordinates":[1767,3810]},{"type":"Point","properties":{"Station_ID":"BRAM1","Station_Nam":"BRASSUA DAM","Latitude":"45.66020","Longitude":"-69.81190","Snowdepth":"8.000","Units":"in","Rept_Date":"2021-01-03 12"},"coordinates":[6175,5877]},{"type":"Point","properties":{"Station_ID":"BLTW3","Station_Nam":"BELOIT,WI","Latitude":"42.50000","Longitude":"-89.03330","Snowdepth":"8.000","Units":"in","Rept_Date":"2021-01-03 12"},"coordinates":[1847,3730]},{"type":"Point","properties":{"Station_ID":"ANJM4","Station_Nam":"SNOW PAID OBSERVER FOR KANJ","Latitude":"46.48670","Longitude":"-84.40260","Snowdepth":"8.000","Units":"in","Rept_Date":"2021-01-03 18"},"coordinates":[2890,6439]},{"type":"Point","properties":{"Station_ID":"ANJ","Station_Nam":"SAULT STE MARIE","Latitude":"46.46670","Longitude":"-84.36670","Snowdepth":"8.000","Units":"in","Rept_Date":"2021-01-03 12"},"coordinates":[2898,6425]},{"type":"Point","properties":{"Station_ID":"AFTW3","Station_Nam":"ROCK RIVER","Latitude":"42.61670","Longitude":"-89.06670","Snowdepth":"8.000","Units":"in","Rept_Date":"2021-01-03 13"},"coordinates":[1840,3810]},{"type":"Point","properties":{"Station_ID":"CAN-QC-56","Station_Nam":"SUTTON 2.6 N, CAN","Latitude":"45.13119","Longitude":"-72.61218","Snowdepth":"7.900","Units":"in","Rept_Date":"2021-01-03 12"},"coordinates":[5545,5518]},{"type":"Point","properties":{"Station_ID":"CAN-PE-1","Station_Nam":"STRATFORD 2.3 NNE, CAN","Latitude":"46.23576","Longitude":"-63.08208","Snowdepth":"7.900","Units":"in","Rept_Date":"2021-01-03 11"},"coordinates":[7690,6268]},{"type":"Point","properties":{"Station_ID":"CAN-NB-1","Station_Nam":"FREDERICTON 4.0 SSE, CA","Latitude":"45.92897","Longitude":"-66.62830","Snowdepth":"7.900","Units":"in","Rept_Date":"2021-01-03 12"},"coordinates":[6892,6060]},{"type":"Point","properties":{"Station_ID":"CAN-NB-83","Station_Nam":"ST. STEPHEN 1.5 SW, CAN","Latitude":"45.18806","Longitude":"-67.29431","Snowdepth":"7.700","Units":"in","Rept_Date":"2021-01-03 12"},"coordinates":[6742,5557]},{"type":"Point","properties":{"Station_ID":"WI-WS-5","Station_Nam":"JACKSON 0.2 WSW, WI","Latitude":"43.32007","Longitude":"-88.16820","Snowdepth":"7.500","Units":"in","Rept_Date":"2021-01-03 12"},"coordinates":[2042,4288]},{"type":"Point","properties":{"Station_ID":"WI-WK-61","Station_Nam":"HARTLAND 5.0 NNE, WI","Latitude":"43.16351","Longitude":"-88.30400","Snowdepth":"7.500","Units":"in","Rept_Date":"2021-01-03 13"},"coordinates":[2012,4181]},{"type":"Point","properties":{"Station_ID":"WI-JF-10","Station_Nam":"PALMYRA 1.5 N, WI","Latitude":"42.90084","Longitude":"-88.58620","Snowdepth":"7.500","Units":"in","Rept_Date":"2021-01-03 13"},"coordinates":[1948,4003]},{"type":"Point","properties":{"Station_ID":"WI-DA-87","Station_Nam":"DUNKIRK 0.1 NW, WI","Latitude":"42.88356","Longitude":"-89.21056","Snowdepth":"7.500","Units":"in","Rept_Date":"2021-01-03 12"},"coordinates":[1808,3991]},{"type":"Point","properties":{"Station_ID":"VT-OL-9","Station_Nam":"GREENSBORO 2.1 NNW, VT","Latitude":"44.60528","Longitude":"-72.30940","Snowdepth":"7.500","Units":"in","Rept_Date":"2021-01-03 12"},"coordinates":[5613,5161]},{"type":"Point","properties":{"Station_ID":"NH-MR-60","Station_Nam":"SOUTH SUTTON 1.3 SE, NH","Latitude":"43.29531","Longitude":"-71.90238","Snowdepth":"7.500","Units":"in","Rept_Date":"2021-01-03 13"},"coordinates":[5704,4271]},{"type":"Point","properties":{"Station_ID":"NE-SY-11","Station_Nam":"LA VISTA 2.0 WSW, NE","Latitude":"41.17702","Longitude":"-96.07571","Snowdepth":"7.500","Units":"in","Rept_Date":"2021-01-03 13"},"coordinates":[262,2832]},{"type":"Point","properties":{"Station_ID":"MN-IT-23","Station_Nam":"BOVEY 13.4 N, MN","Latitude":"47.48855","Longitude":"-93.43497","Snowdepth":"7.500","Units":"in","Rept_Date":"2021-01-03 13"},"coordinates":[856,7120]},{"type":"Point","properties":{"Station_ID":"MN-IT-17","Station_Nam":"GRAND RAPIDS 6.1 N, MN","Latitude":"47.31165","Longitude":"-93.55036","Snowdepth":"7.500","Units":"in","Rept_Date":"2021-01-03 13"},"coordinates":[830,6999]},{"type":"Point","properties":{"Station_ID":"MN-HN-31","Station_Nam":"MAPLE GROVE 1.0 NNE, MN","Latitude":"45.12261","Longitude":"-93.45790","Snowdepth":"7.500","Units":"in","Rept_Date":"2021-01-03 16"},"coordinates":[851,5512]},{"type":"Point","properties":{"Station_ID":"MN-BM-15","Station_Nam":"BEMIDJI 7.8 ENE, MN","Latitude":"47.52043","Longitude":"-94.72121","Snowdepth":"7.500","Units":"in","Rept_Date":"2021-01-03 13"},"coordinates":[567,7141]},{"type":"Point","properties":{"Station_ID":"MI-GL-4","Station_Nam":"GLADWIN 10.4 NNW, MI","Latitude":"44.11865","Longitude":"-84.58470","Snowdepth":"7.500","Units":"in","Rept_Date":"2021-01-03 14"},"coordinates":[2849,4830]},{"type":"Point","properties":{"Station_ID":"ME-PN-43","Station_Nam":"ORONO 0.9 NE, ME","Latitude":"44.89261","Longitude":"-68.66903","Snowdepth":"7.500","Units":"in","Rept_Date":"2021-01-03 11"},"coordinates":[6432,5356]},{"type":"Point","properties":{"Station_ID":"IA-JH-1","Station_Nam":"SOLON 0.3 ESE, IA","Latitude":"41.80398","Longitude":"-91.48910","Snowdepth":"7.500","Units":"in","Rept_Date":"2021-01-03 13"},"coordinates":[1295,3258]},{"type":"Point","properties":{"Station_ID":"IA-AP-8","Station_Nam":"CENTERVILLE 5.6 NE, IA","Latitude":"40.79636","Longitude":"-92.81251","Snowdepth":"7.500","Units":"in","Rept_Date":"2021-01-03 13"},"coordinates":[997,2573]},{"type":"Point","properties":{"Station_ID":"FTHQ6","Station_Nam":"FORT HOPE","Latitude":"51.55820","Longitude":"-87.90510","Snowdepth":"7.400","Units":"in","Rept_Date":"2021-01-04 06"},"coordinates":[2101,9884]},{"type":"Point","properties":{"Station_ID":"CAN-NS-4","Station_Nam":"JIMTOWN 0.2 WNW, CAN","Latitude":"45.70861","Longitude":"-61.90238","Snowdepth":"7.100","Units":"in","Rept_Date":"2021-01-03 12"},"coordinates":[7956,5910]},{"type":"Point","properties":{"Station_ID":"WORV1","Station_Nam":"WORCESTER 2 W","Latitude":"44.37470","Longitude":"-72.58220","Snowdepth":"7.000","Units":"in","Rept_Date":"2021-01-03 12"},"coordinates":[5551,5004]},{"type":"Point","properties":{"Station_ID":"WI-WW-14","Station_Nam":"DARIEN 1.6 NNE, WI","Latitude":"42.62361","Longitude":"-88.70083","Snowdepth":"7.000","Units":"in","Rept_Date":"2021-01-03 13"},"coordinates":[1922,3814]},{"type":"Point","properties":{"Station_ID":"WI-WB-16","Station_Nam":"SARONA 4.5 NNE, WI","Latitude":"45.77030","Longitude":"-91.76890","Snowdepth":"7.000","Units":"in","Rept_Date":"2021-01-03 13"},"coordinates":[1232,5952]},{"type":"Point","properties":{"Station_ID":"WI-PK-4","Station_Nam":"DRESSER 6.1 ESE, WI","Latitude":"45.32436","Longitude":"-92.52080","Snowdepth":"7.000","Units":"in","Rept_Date":"2021-01-03 14"},"coordinates":[1062,5649]},{"type":"Point","properties":{"Station_ID":"WI-PK-33","Station_Nam":"FREDERIC 4.8 NE, WI","Latitude":"45.70970","Longitude":"-92.39950","Snowdepth":"7.000","Units":"in","Rept_Date":"2021-01-03 13"},"coordinates":[1090,5911]},{"type":"Point","properties":{"Station_ID":"WI-MW-23","Station_Nam":"GREENDALE 1.0 ENE, WI","Latitude":"42.94094","Longitude":"-87.98230","Snowdepth":"7.000","Units":"in","Rept_Date":"2021-01-03 13"},"coordinates":[2084,4030]},{"type":"Point","properties":{"Station_ID":"WI-DA-99","Station_Nam":"FITCHBURG 1.1 NW, WI","Latitude":"42.99740","Longitude":"-89.44046","Snowdepth":"7.000","Units":"in","Rept_Date":"2021-01-03 13"},"coordinates":[1756,4068]},{"type":"Point","properties":{"Station_ID":"WHTM5","Station_Nam":"WHEATON,MN","Latitude":"45.80000","Longitude":"-96.48330","Snowdepth":"7.000","Units":"in","Rept_Date":"2021-01-03 14"},"coordinates":[170,5972]},{"type":"Point","properties":{"Station_ID":"VT-WS-15","Station_Nam":"EAST CALAIS 1.5 SW, VT","Latitude":"44.35523","Longitude":"-72.45540","Snowdepth":"7.000","Units":"in","Rept_Date":"2021-01-03 12"},"coordinates":[5580,4991]},{"type":"Point","properties":{"Station_ID":"VT-WS-10","Station_Nam":"NORTHFIELD 1.5 N, VT","Latitude":"44.16986","Longitude":"-72.65200","Snowdepth":"7.000","Units":"in","Rept_Date":"2021-01-03 12"},"coordinates":[5536,4865]},{"type":"Point","properties":{"Station_ID":"VT-GI-3","Station_Nam":"ALBURGH 4.6 SSE, VT","Latitude":"44.91280","Longitude":"-73.26890","Snowdepth":"7.000","Units":"in","Rept_Date":"2021-01-03 15"},"coordinates":[5397,5370]},{"type":"Point","properties":{"Station_ID":"VT-ES-3","Station_Nam":"LUNENBURG 2.3 NNW, VT","Latitude":"44.49324","Longitude":"-71.70446","Snowdepth":"7.000","Units":"in","Rept_Date":"2021-01-03 12"},"coordinates":[5749,5085]},{"type":"Point","properties":{"Station_ID":"VNTI4","Station_Nam":"VINTON","Latitude":"42.17020","Longitude":"-92.00770","Snowdepth":"7.000","Units":"in","Rept_Date":"2021-01-03 13"},"coordinates":[1178,3506]},{"type":"Point","properties":{"Station_ID":"STMM4","Station_Nam":"STAMBAUGH 2SSE","Latitude":"46.05550","Longitude":"-88.62780","Snowdepth":"7.000","Units":"in","Rept_Date":"2021-01-03 13"},"coordinates":[1939,6146]},{"type":"Point","properties":{"Station_ID":"STGW3","Station_Nam":"ST GERMAIN","Latitude":"45.91550","Longitude":"-89.48940","Snowdepth":"7.000","Units":"in","Rept_Date":"2021-01-03 12"},"coordinates":[1745,6051]},{"type":"Point","properties":{"Station_ID":"SGYI4","Station_Nam":"SIGOURNEY","Latitude":"41.33280","Longitude":"-92.19750","Snowdepth":"7.000","Units":"in","Rept_Date":"2021-01-03 14"},"coordinates":[1135,2937]},{"type":"Point","properties":{"Station_ID":"SEEW3","Station_Nam":"SOUTH MILWAUKEE WWTP","Latitude":"42.90110","Longitude":"-87.84940","Snowdepth":"7.000","Units":"in","Rept_Date":"2021-01-03 13"},"coordinates":[2114,4003]},{"type":"Point","properties":{"Station_ID":"SEBM5","Station_Nam":"SEBEKA","Latitude":"46.62540","Longitude":"-95.09670","Snowdepth":"7.000","Units":"in","Rept_Date":"2021-01-03 13"},"coordinates":[482,6533]},{"type":"Point","properties":{"Station_ID":"SAVW3","Station_Nam":"SAUKVILLE WWTP","Latitude":"43.37470","Longitude":"-87.93940","Snowdepth":"7.000","Units":"in","Rept_Date":"2021-01-03 12"},"coordinates":[2094,4325]},{"type":"Point","properties":{"Station_ID":"ROKI4","Station_Nam":"RED OAK,IA","Latitude":"41.00000","Longitude":"-95.23330","Snowdepth":"7.000","Units":"in","Rept_Date":"2021-01-03 13"},"coordinates":[452,2711]},{"type":"Point","properties":{"Station_ID":"RANM1","Station_Nam":"RANGELEY","Latitude":"44.98910","Longitude":"-70.67190","Snowdepth":"7.000","Units":"in","Rept_Date":"2021-01-03 13"},"coordinates":[5982,5421]},{"type":"Point","properties":{"Station_ID":"RANI4","Station_Nam":"RANDOLPH,IA","Latitude":"40.86670","Longitude":"-95.56670","Snowdepth":"7.000","Units":"in","Rept_Date":"2021-01-03 14"},"coordinates":[376,2621]},{"type":"Point","properties":{"Station_ID":"QCAI2","Station_Nam":"MOLINE SNOW","Latitude":"41.39990","Longitude":"-90.54800","Snowdepth":"7.000","Units":"in","Rept_Date":"2021-01-04 00"},"coordinates":[1506,2983]},{"type":"Point","properties":{"Station_ID":"PBAN8","Station_Nam":"SITE 1-3MI.N","Latitude":"48.97420","Longitude":"-97.23860","Snowdepth":"7.000","Units":"in","Rept_Date":"2021-01-03 13"},"coordinates":[0,8129]},{"type":"Point","properties":{"Station_ID":"OTTM5","Station_Nam":"OTTERTAIL,MN","Latitude":"46.41670","Longitude":"-95.56670","Snowdepth":"7.000","Units":"in","Rept_Date":"2021-01-03 14"},"coordinates":[376,6391]},{"type":"Point","properties":{"Station_ID":"OLNI4","Station_Nam":"OELWEIN 1E","Latitude":"42.68010","Longitude":"-91.87510","Snowdepth":"7.000","Units":"in","Rept_Date":"2021-01-03 12"},"coordinates":[1208,3853]},{"type":"Point","properties":{"Station_ID":"NY-SR-22","Station_Nam":"GREENFIELD CENTER 1.6 W, NY","Latitude":"43.12684","Longitude":"-73.87860","Snowdepth":"7.000","Units":"in","Rept_Date":"2021-01-03 13"},"coordinates":[5260,4156]},{"type":"Point","properties":{"Station_ID":"NY-HR-18","Station_Nam":"SALISBURY CENTER 1.8 NW, NY","Latitude":"43.16260","Longitude":"-74.80880","Snowdepth":"7.000","Units":"in","Rept_Date":"2021-01-03 11"},"coordinates":[5050,4181]},{"type":"Point","properties":{"Station_ID":"NY-CL-12","Station_Nam":"SARANAC 0.8 SSE, NY","Latitude":"44.63980","Longitude":"-73.73848","Snowdepth":"7.000","Units":"in","Rept_Date":"2021-01-03 12"},"coordinates":[5291,5184]},{"type":"Point","properties":{"Station_ID":"NUMN3","Station_Nam":"NORTHUMBERLAND","Latitude":"44.52830","Longitude":"-71.50440","Snowdepth":"7.000","Units":"in","Rept_Date":"2021-01-03 13"},"coordinates":[5794,5108]},{"type":"Point","properties":{"Station_ID":"NUMM5","Station_Nam":"NEW ULM 3SE","Latitude":"44.29450","Longitude":"-94.40840","Snowdepth":"7.000","Units":"in","Rept_Date":"2021-01-03 13"},"coordinates":[637,4950]},{"type":"Point","properties":{"Station_ID":"MSN","Station_Nam":"MADISON DANE COUNTY RGNL","Latitude":"43.13970","Longitude":"-89.33750","Snowdepth":"7.000","Units":"in","Rept_Date":"2021-01-04 00"},"coordinates":[1779,4165]},{"type":"Point","properties":{"Station_ID":"MRAM5","Station_Nam":"MORA","Latitude":"45.87760","Longitude":"-93.31470","Snowdepth":"7.000","Units":"in","Rept_Date":"2021-01-03 13"},"coordinates":[883,6025]},{"type":"Point","properties":{"Station_ID":"MPXM5","Station_Nam":"CHANHASSEN WSFO","Latitude":"44.84960","Longitude":"-93.56440","Snowdepth":"7.000","Units":"in","Rept_Date":"2021-01-04 06"},"coordinates":[827,5327]},{"type":"Point","properties":{"Station_ID":"MN-TD-12","Station_Nam":"LONG PRAIRIE 2.1 NNE, MN","Latitude":"46.00588","Longitude":"-94.84649","Snowdepth":"7.000","Units":"in","Rept_Date":"2021-01-03 13"},"coordinates":[539,6112]},{"type":"Point","properties":{"Station_ID":"MN-SH-39","Station_Nam":"ZIMMERMAN 3.7 N, MN","Latitude":"45.49450","Longitude":"-93.60430","Snowdepth":"7.000","Units":"in","Rept_Date":"2021-01-03 14"},"coordinates":[818,5765]},{"type":"Point","properties":{"Station_ID":"MN-SH-10","Station_Nam":"BIG LAKE 5.6 NNE, MN","Latitude":"45.41409","Longitude":"-93.69190","Snowdepth":"7.000","Units":"in","Rept_Date":"2021-01-03 13"},"coordinates":[799,5710]},{"type":"Point","properties":{"Station_ID":"MN-RM-15","Station_Nam":"ROSEVILLE 2.1 NW, MN","Latitude":"45.03502","Longitude":"-93.18620","Snowdepth":"7.000","Units":"in","Rept_Date":"2021-01-03 12"},"coordinates":[912,5453]},{"type":"Point","properties":{"Station_ID":"MN-OT-36","Station_Nam":"BATTLE LAKE 3.3 SSE, MN","Latitude":"46.23918","Longitude":"-95.69718","Snowdepth":"7.000","Units":"in","Rept_Date":"2021-01-03 13"},"coordinates":[347,6271]},{"type":"Point","properties":{"Station_ID":"MN-MR-4","Station_Nam":"LITTLE FALLS 1.2 SW, MN","Latitude":"45.96886","Longitude":"-94.37720","Snowdepth":"7.000","Units":"in","Rept_Date":"2021-01-03 13"},"coordinates":[644,6087]},{"type":"Point","properties":{"Station_ID":"MN-KB-17","Station_Nam":"MORA 2.5 S, MN","Latitude":"45.84100","Longitude":"-93.29700","Snowdepth":"7.000","Units":"in","Rept_Date":"2021-01-03 13"},"coordinates":[887,6000]},{"type":"Point","properties":{"Station_ID":"MN-HN-6","Station_Nam":"LONG LAKE 0.2 WSW, MN","Latitude":"44.98290","Longitude":"-93.57360","Snowdepth":"7.000","Units":"in","Rept_Date":"2021-01-03 13"},"coordinates":[825,5417]},{"type":"Point","properties":{"Station_ID":"MN-GH-28","Station_Nam":"CANNON FALLS 0.5 SE, MN","Latitude":"44.50866","Longitude":"-92.89526","Snowdepth":"7.000","Units":"in","Rept_Date":"2021-01-03 14"},"coordinates":[978,5095]},{"type":"Point","properties":{"Station_ID":"MLI","Station_Nam":"QUAD CITY INTL","Latitude":"41.44860","Longitude":"-90.50750","Snowdepth":"7.000","Units":"in","Rept_Date":"2021-01-04 00"},"coordinates":[1516,3016]},{"type":"Point","properties":{"Station_ID":"MLCM5","Station_Nam":"MILACA","Latitude":"45.75320","Longitude":"-93.66170","Snowdepth":"7.000","Units":"in","Rept_Date":"2021-01-03 13"},"coordinates":[805,5941]},{"type":"Point","properties":{"Station_ID":"MI-MT-8","Station_Nam":"EDMORE 3.8 ESE, MI","Latitude":"43.37974","Longitude":"-84.97319","Snowdepth":"7.000","Units":"in","Rept_Date":"2021-01-03 15"},"coordinates":[2762,4328]},{"type":"Point","properties":{"Station_ID":"MI-MQ-19","Station_Nam":"ISHPEMING 7.2 SW, MI","Latitude":"46.40550","Longitude":"-87.75670","Snowdepth":"7.000","Units":"in","Rept_Date":"2021-01-03 11"},"coordinates":[2135,6384]},{"type":"Point","properties":{"Station_ID":"MI-GG-4","Station_Nam":"WATERSMEET 5.0 SE, MI","Latitude":"46.20333","Longitude":"-89.13170","Snowdepth":"7.000","Units":"in","Rept_Date":"2021-01-03 14"},"coordinates":[1825,6246]},{"type":"Point","properties":{"Station_ID":"ME-SM-10","Station_Nam":"NORTH NEW PORTLAND 0.3 WSW, ME","Latitude":"44.92353","Longitude":"-70.02788","Snowdepth":"7.000","Units":"in","Rept_Date":"2021-01-03 12"},"coordinates":[6127,5377]},{"type":"Point","properties":{"Station_ID":"ME-PN-47","Station_Nam":"MILFORD 0.8 SSW, ME","Latitude":"44.94108","Longitude":"-68.64154","Snowdepth":"7.000","Units":"in","Rept_Date":"2021-01-03 12"},"coordinates":[6439,5389]},{"type":"Point","properties":{"Station_ID":"ME-FR-22","Station_Nam":"FARMINGTON 4.8 NNW, ME","Latitude":"44.73396","Longitude":"-70.18007","Snowdepth":"7.000","Units":"in","Rept_Date":"2021-01-03 15"},"coordinates":[6092,5248]},{"type":"Point","properties":{"Station_ID":"ME-FR-2","Station_Nam":"TEMPLE 1.8 W, ME","Latitude":"44.68329","Longitude":"-70.26420","Snowdepth":"7.000","Units":"in","Rept_Date":"2021-01-03 12"},"coordinates":[6073,5214]},{"type":"Point","properties":{"Station_ID":"LVRM1","Station_Nam":"LIVERMORE FALLS 1 E","Latitude":"44.47160","Longitude":"-70.15940","Snowdepth":"7.000","Units":"in","Rept_Date":"2021-01-03 12"},"coordinates":[6097,5070]},{"type":"Point","properties":{"Station_ID":"LVDW3","Station_Nam":"LAC VIEUX DESERT","Latitude":"46.12110","Longitude":"-89.07580","Snowdepth":"7.000","Units":"in","Rept_Date":"2021-01-03 15"},"coordinates":[1838,6191]},{"type":"Point","properties":{"Station_ID":"LNGM5","Station_Nam":"LONG PRAIRIE","Latitude":"45.96460","Longitude":"-94.88920","Snowdepth":"7.000","Units":"in","Rept_Date":"2021-01-03 12"},"coordinates":[529,6084]},{"type":"Point","properties":{"Station_ID":"LILM1","Station_Nam":"LILLE","Latitude":"47.27770","Longitude":"-68.10520","Snowdepth":"7.000","Units":"in","Rept_Date":"2021-01-03 12"},"coordinates":[6559,6976]},{"type":"Point","properties":{"Station_ID":"KSEM4","Station_Nam":"KALKASKA 11SE","Latitude":"44.58970","Longitude":"-85.04860","Snowdepth":"7.000","Units":"in","Rept_Date":"2021-01-03 13"},"coordinates":[2745,5150]},{"type":"Point","properties":{"Station_ID":"KDSM","Station_Nam":"DES MOINES INTERNATIONAL","Latitude":"41.53333","Longitude":"-93.66666","Snowdepth":"7.000","Units":"in","Rept_Date":"2021-01-04 06"},"coordinates":[804,3074]},{"type":"Point","properties":{"Station_ID":"KBGR","Station_Nam":"BANGOR INTL AIRPORT","Latitude":"44.80000","Longitude":"-68.81666","Snowdepth":"7.000","Units":"in","Rept_Date":"2021-01-04 06"},"coordinates":[6399,5293]},{"type":"Point","properties":{"Station_ID":"JFNW3","Station_Nam":"JEFFERSON - WWTP","Latitude":"42.99470","Longitude":"-88.80390","Snowdepth":"7.000","Units":"in","Rept_Date":"2021-01-03 13"},"coordinates":[1899,4067]},{"type":"Point","properties":{"Station_ID":"ISLV1","Station_Nam":"ISLAND POND","Latitude":"44.81280","Longitude":"-71.89020","Snowdepth":"7.000","Units":"in","Rept_Date":"2021-01-03 14"},"coordinates":[5707,5302]},{"type":"Point","properties":{"Station_ID":"IL-WN-26","Station_Nam":"ROCKFORD 1.5 ENE, IL","Latitude":"42.27775","Longitude":"-89.03590","Snowdepth":"7.000","Units":"in","Rept_Date":"2021-01-03 15"},"coordinates":[1847,3579]},{"type":"Point","properties":{"Station_ID":"IL-SP-26","Station_Nam":"FREEPORT 2.9 WSW, IL","Latitude":"42.26779","Longitude":"-89.68323","Snowdepth":"7.000","Units":"in","Rept_Date":"2021-01-03 14"},"coordinates":[1701,3573]},{"type":"Point","properties":{"Station_ID":"IA-ST-3","Station_Nam":"PARK VIEW 0.2 WSW, IA","Latitude":"41.68855","Longitude":"-90.54380","Snowdepth":"7.000","Units":"in","Rept_Date":"2021-01-03 13"},"coordinates":[1507,3179]},{"type":"Point","properties":{"Station_ID":"HPN11_MADIS","Station_Nam":"SAINT BONIFACIUS","Latitude":"44.89792","Longitude":"-93.73460","Snowdepth":"7.000","Units":"in","Rept_Date":"2021-01-04 06"},"coordinates":[789,5360]},{"type":"Point","properties":{"Station_ID":"HPN02_MADIS","Station_Nam":"MAPLE GROVE","Latitude":"45.11820","Longitude":"-93.42830","Snowdepth":"7.000","Units":"in","Rept_Date":"2021-01-04 06"},"coordinates":[858,5509]},{"type":"Point","properties":{"Station_ID":"HALM4","Station_Nam":"LOUD DAM","Latitude":"44.46250","Longitude":"-83.72190","Snowdepth":"7.000","Units":"in","Rept_Date":"2021-01-03 14"},"coordinates":[3043,5064]},{"type":"Point","properties":{"Station_ID":"FEEI2","Station_Nam":"PECATONICA RIVER","Latitude":"42.30000","Longitude":"-89.61670","Snowdepth":"7.000","Units":"in","Rept_Date":"2021-01-03 13"},"coordinates":[1716,3595]},{"type":"Point","properties":{"Station_ID":"DUBI4","Station_Nam":"DUBUQUE #3","Latitude":"42.40870","Longitude":"-90.73250","Snowdepth":"7.000","Units":"in","Rept_Date":"2021-01-03 18"},"coordinates":[1465,3668]},{"type":"Point","properties":{"Station_ID":"DSXI4","Station_Nam":"DES MOINES SNOW","Latitude":"41.54130","Longitude":"-93.65570","Snowdepth":"7.000","Units":"in","Rept_Date":"2021-01-04 06"},"coordinates":[807,3079]},{"type":"Point","properties":{"Station_ID":"DSM","Station_Nam":"DES MOINES INTERNATIONAL","Latitude":"41.53340","Longitude":"-93.66300","Snowdepth":"7.000","Units":"in","Rept_Date":"2021-01-04 00"},"coordinates":[805,3074]},{"type":"Point","properties":{"Station_ID":"DBQ","Station_Nam":"DUBUQUE REGIONAL AIRPORT","Latitude":"42.40310","Longitude":"-90.70920","Snowdepth":"7.000","Units":"in","Rept_Date":"2021-01-04 00"},"coordinates":[1470,3665]},{"type":"Point","properties":{"Station_ID":"CLUI4","Station_Nam":"CLUTIER,IA","Latitude":"42.08330","Longitude":"-92.40000","Snowdepth":"7.000","Units":"in","Rept_Date":"2021-01-03 13"},"coordinates":[1089,3447]},{"type":"Point","properties":{"Station_ID":"CAN-QC-16","Station_Nam":"SAINT-ARMAND 3.6 W, CAN","Latitude":"45.02631","Longitude":"-73.08795","Snowdepth":"7.000","Units":"in","Rept_Date":"2021-01-03 12"},"coordinates":[5438,5447]},{"type":"Point","properties":{"Station_ID":"BRAM5","Station_Nam":"BRAINERD","Latitude":"46.34320","Longitude":"-94.20900","Snowdepth":"7.000","Units":"in","Rept_Date":"2021-01-03 13"},"coordinates":[682,6341]},{"type":"Point","properties":{"Station_ID":"BKEM5","Station_Nam":"BRECKENRIDGE 4NE","Latitude":"46.30470","Longitude":"-96.52170","Snowdepth":"7.000","Units":"in","Rept_Date":"2021-01-03 11"},"coordinates":[161,6315]},{"type":"Point","properties":{"Station_ID":"BGRM1","Station_Nam":"BANGOR FSS","Latitude":"44.80440","Longitude":"-68.81330","Snowdepth":"7.000","Units":"in","Rept_Date":"2021-01-04 06"},"coordinates":[6400,5296]},{"type":"Point","properties":{"Station_ID":"BGR","Station_Nam":"BANGOR INTERNATIONAL AIRPORT","Latitude":"44.79780","Longitude":"-68.81840","Snowdepth":"7.000","Units":"in","Rept_Date":"2021-01-03 12"},"coordinates":[6399,5292]},{"type":"Point","properties":{"Station_ID":"AWXW3","Station_Nam":"ASHLAND","Latitude":"46.58240","Longitude":"-90.88390","Snowdepth":"7.000","Units":"in","Rept_Date":"2021-01-03 13"},"coordinates":[1431,6504]},{"type":"Point","properties":{"Station_ID":"AMOI4","Station_Nam":"ANAMOSA 3 SSW","Latitude":"42.07630","Longitude":"-91.30190","Snowdepth":"7.000","Units":"in","Rept_Date":"2021-01-03 13"},"coordinates":[1337,3443]},{"type":"Point","properties":{"Station_ID":"ME-AN-32","Station_Nam":"WINTHROP 9.4 W, ME","Latitude":"44.30476","Longitude":"-70.15835","Snowdepth":"6.800","Units":"in","Rept_Date":"2021-01-03 12"},"coordinates":[6097,4957]},{"type":"Point","properties":{"Station_ID":"CAN-QC-51","Station_Nam":"BELOEIL 0.7 NW, CAN","Latitude":"45.58049","Longitude":"-73.21218","Snowdepth":"6.700","Units":"in","Rept_Date":"2021-01-03 12"},"coordinates":[5410,5823]},{"type":"Point","properties":{"Station_ID":"CAN-PE-54","Station_Nam":"FOXLEY RIVER 0.6 W - MCPEI, CAN","Latitude":"46.69300","Longitude":"-64.01880","Snowdepth":"6.700","Units":"in","Rept_Date":"2021-01-03 12"},"coordinates":[7479,6579]},{"type":"Point","properties":{"Station_ID":"CAN-NS-13","Station_Nam":"TRURO 5.0 ENE, CA","Latitude":"45.38252","Longitude":"-63.22810","Snowdepth":"6.700","Units":"in","Rept_Date":"2021-01-03 11"},"coordinates":[7657,5689]},{"type":"Point","properties":{"Station_ID":"WI-IW-3","Station_Nam":"MINERAL POINT 7.3 ENE, WI","Latitude":"42.91400","Longitude":"-90.05700","Snowdepth":"6.500","Units":"in","Rept_Date":"2021-01-03 13"},"coordinates":[1617,4012]},{"type":"Point","properties":{"Station_ID":"WI-AS-4","Station_Nam":"ASHLAND 0.5 WNW, WI","Latitude":"46.58240","Longitude":"-90.88390","Snowdepth":"6.500","Units":"in","Rept_Date":"2021-01-03 13"},"coordinates":[1431,6504]},{"type":"Point","properties":{"Station_ID":"VT-WS-23","Station_Nam":"CABOT 2.3 E, VT","Latitude":"44.39807","Longitude":"-72.26570","Snowdepth":"6.500","Units":"in","Rept_Date":"2021-01-03 14"},"coordinates":[5623,5020]},{"type":"Point","properties":{"Station_ID":"VT-WS-19","Station_Nam":"WATERBURY 3.0 NW, VT","Latitude":"44.36060","Longitude":"-72.80770","Snowdepth":"6.500","Units":"in","Rept_Date":"2021-01-03 11"},"coordinates":[5501,4994]},{"type":"Point","properties":{"Station_ID":"VT-WS-11","Station_Nam":"WAITSFIELD 1.8 SE, VT","Latitude":"44.17551","Longitude":"-72.79540","Snowdepth":"6.500","Units":"in","Rept_Date":"2021-01-03 12"},"coordinates":[5503,4869]},{"type":"Point","properties":{"Station_ID":"VT-OL-24","Station_Nam":"DERBY LINE 1.9 W, VT","Latitude":"45.00454","Longitude":"-72.14170","Snowdepth":"6.500","Units":"in","Rept_Date":"2021-01-03 12"},"coordinates":[5651,5432]},{"type":"Point","properties":{"Station_ID":"ND-CS-25","Station_Nam":"FARGO 2.1 N, ND","Latitude":"46.90816","Longitude":"-96.77937","Snowdepth":"6.500","Units":"in","Rept_Date":"2021-01-03 14"},"coordinates":[103,6725]},{"type":"Point","properties":{"Station_ID":"MN-RM-120","Station_Nam":"MAPLEWOOD 5.6 SSE, MN","Latitude":"44.90588","Longitude":"-92.99712","Snowdepth":"6.500","Units":"in","Rept_Date":"2021-01-03 15"},"coordinates":[955,5365]},{"type":"Point","properties":{"Station_ID":"MN-HN-267","Station_Nam":"MINNEAPOLIS 2.5 SE, MN","Latitude":"44.93331","Longitude":"-93.23680","Snowdepth":"6.500","Units":"in","Rept_Date":"2021-01-03 13"},"coordinates":[901,5384]},{"type":"Point","properties":{"Station_ID":"MN-DK-73","Station_Nam":"LAKEVILLE 2.6 NNE, MN","Latitude":"44.71250","Longitude":"-93.23043","Snowdepth":"6.500","Units":"in","Rept_Date":"2021-01-03 13"},"coordinates":[902,5234]},{"type":"Point","properties":{"Station_ID":"MN-BK-10","Station_Nam":"DETROIT LAKES 5.7 N, MN","Latitude":"46.88666","Longitude":"-95.84444","Snowdepth":"6.500","Units":"in","Rept_Date":"2021-01-03 14"},"coordinates":[314,6711]},{"type":"Point","properties":{"Station_ID":"MI-MD-10","Station_Nam":"MIDLAND 1.5 NNE, MI","Latitude":"43.64412","Longitude":"-84.21729","Snowdepth":"6.500","Units":"in","Rept_Date":"2021-01-03 11"},"coordinates":[2932,4508]},{"type":"Point","properties":{"Station_ID":"ME-OX-34","Station_Nam":"ANDOVER 3.8 W, ME","Latitude":"44.64156","Longitude":"-70.82782","Snowdepth":"6.500","Units":"in","Rept_Date":"2021-01-03 12"},"coordinates":[5946,5185]},{"type":"Point","properties":{"Station_ID":"ME-OX-2","Station_Nam":"HARTFORD 1.4 N, ME","Latitude":"44.39318","Longitude":"-70.34760","Snowdepth":"6.500","Units":"in","Rept_Date":"2021-01-03 12"},"coordinates":[6055,5017]},{"type":"Point","properties":{"Station_ID":"IL-LG-9","Station_Nam":"BEASON 4.0 SW, IL","Latitude":"40.09703","Longitude":"-89.23890","Snowdepth":"6.500","Units":"in","Rept_Date":"2021-01-03 12"},"coordinates":[1801,2098]},{"type":"Point","properties":{"Station_ID":"IA-PK-73","Station_Nam":"DES MOINES 4.1 N, IA","Latitude":"41.63605","Longitude":"-93.60630","Snowdepth":"6.500","Units":"in","Rept_Date":"2021-01-03 13"},"coordinates":[818,3143]},{"type":"Point","properties":{"Station_ID":"IA-MC-13","Station_Nam":"MUSCATINE 2.1 N, IA","Latitude":"41.44808","Longitude":"-91.07428","Snowdepth":"6.500","Units":"in","Rept_Date":"2021-01-03 13"},"coordinates":[1388,3016]},{"type":"Point","properties":{"Station_ID":"IA-DV-2","Station_Nam":"MOULTON 3.6 ENE, IA","Latitude":"40.70487","Longitude":"-92.61551","Snowdepth":"6.500","Units":"in","Rept_Date":"2021-01-03 13"},"coordinates":[1041,2511]},{"type":"Point","properties":{"Station_ID":"CAN-ON-771","Station_Nam":"KENORA 8.7 NNE - CANWARN, CAN","Latitude":"49.84171","Longitude":"-94.44386","Snowdepth":"6.500","Units":"in","Rept_Date":"2021-01-03 14"},"coordinates":[629,8718]},{"type":"Point","properties":{"Station_ID":"CAN-NS-3","Station_Nam":"WOLFVILLE 7.1 ESE, CAN","Latitude":"45.07921","Longitude":"-64.27107","Snowdepth":"6.500","Units":"in","Rept_Date":"2021-01-03 11"},"coordinates":[7423,5483]},{"type":"Point","properties":{"Station_ID":"WI-WW-2","Station_Nam":"LAKE GENEVA 0.6 ENE, WI","Latitude":"42.59169","Longitude":"-88.41770","Snowdepth":"6.300","Units":"in","Rept_Date":"2021-01-03 13"},"coordinates":[1986,3793]},{"type":"Point","properties":{"Station_ID":"CAN-ON-757","Station_Nam":"SAULT STE. MARIE 2.8 ESE - GLFC, CAN","Latitude":"46.50300","Longitude":"-84.30300","Snowdepth":"6.300","Units":"in","Rept_Date":"2021-01-03 13"},"coordinates":[2912,6450]},{"type":"Point","properties":{"Station_ID":"CAN-NB-7","Station_Nam":"CHAMCOOK 6.1 NNW, CAN","Latitude":"45.17149","Longitude":"-67.08163","Snowdepth":"6.300","Units":"in","Rept_Date":"2021-01-03 11"},"coordinates":[6790,5545]},{"type":"Point","properties":{"Station_ID":"MO-DV-2","Station_Nam":"JAMESPORT 1.3 ESE, MO","Latitude":"39.96450","Longitude":"-93.78090","Snowdepth":"6.200","Units":"in","Rept_Date":"2021-01-03 13"},"coordinates":[779,2008]},{"type":"Point","properties":{"Station_ID":"IL-CK-288","Station_Nam":"ROSELLE 0.8 N, IL","Latitude":"41.99255","Longitude":"-88.08422","Snowdepth":"6.200","Units":"in","Rept_Date":"2021-01-03 17"},"coordinates":[2061,3386]},{"type":"Point","properties":{"Station_ID":"MN-RM-121","Station_Nam":"ROSEVILLE 0.4 ENE, MN","Latitude":"45.01701","Longitude":"-93.14711","Snowdepth":"6.100","Units":"in","Rept_Date":"2021-01-03 14"},"coordinates":[921,5440]},{"type":"Point","properties":{"Station_ID":"WVLM1","Station_Nam":"WATERVILLE TREATMENT PLT","Latitude":"44.52720","Longitude":"-69.65440","Snowdepth":"6.000","Units":"in","Rept_Date":"2021-01-03 12"},"coordinates":[6211,5108]},{"type":"Point","properties":{"Station_ID":"WTRM4","Station_Nam":"WATERSMEET 12WSW","Latitude":"46.22310","Longitude":"-89.40850","Snowdepth":"6.000","Units":"in","Rept_Date":"2021-01-03 12"},"coordinates":[1763,6260]},{"type":"Point","properties":{"Station_ID":"WSHI4","Station_Nam":"WASHINGTON","Latitude":"41.28240","Longitude":"-91.70780","Snowdepth":"6.000","Units":"in","Rept_Date":"2021-01-03 13"},"coordinates":[1245,2903]},{"type":"Point","properties":{"Station_ID":"WSFW3","Station_Nam":"TOWN OF WESTFORD","Latitude":"43.47190","Longitude":"-88.88250","Snowdepth":"6.000","Units":"in","Rept_Date":"2021-01-03 11"},"coordinates":[1881,4391]},{"type":"Point","properties":{"Station_ID":"WRUM5","Station_Nam":"WARROAD 4W","Latitude":"48.89600","Longitude":"-95.40700","Snowdepth":"6.000","Units":"in","Rept_Date":"2021-01-04 04"},"coordinates":[412,8076]},{"type":"Point","properties":{"Station_ID":"WRNM5","Station_Nam":"WORTHINGTON,MN","Latitude":"43.65440","Longitude":"-95.57920","Snowdepth":"6.000","Units":"in","Rept_Date":"2021-01-03 13"},"coordinates":[374,4515]},{"type":"Point","properties":{"Station_ID":"WODI2","Station_Nam":"WOODSTOCK","Latitude":"42.36280","Longitude":"-88.53140","Snowdepth":"6.000","Units":"in","Rept_Date":"2021-01-03 13"},"coordinates":[1960,3637]},{"type":"Point","properties":{"Station_ID":"WNDP1","Station_Nam":"WINDBER COUNTY CLUB","Latitude":"40.28780","Longitude":"-78.77530","Snowdepth":"6.000","Units":"in","Rept_Date":"2021-01-03 12"},"coordinates":[4157,2227]},{"type":"Point","properties":{"Station_ID":"WLNM4","Station_Nam":"WELLSTON 1N","Latitude":"44.22940","Longitude":"-85.95690","Snowdepth":"6.000","Units":"in","Rept_Date":"2021-01-03 12"},"coordinates":[2540,4905]},{"type":"Point","properties":{"Station_ID":"WI-WW-13","Station_Nam":"MUKWONAGO 3.4 SW, WI","Latitude":"42.83734","Longitude":"-88.38534","Snowdepth":"6.000","Units":"in","Rept_Date":"2021-01-03 12"},"coordinates":[1993,3960]},{"type":"Point","properties":{"Station_ID":"WI-VL-14","Station_Nam":"BOULDER JUNCTION 1.4 NE, WI","Latitude":"46.12840","Longitude":"-89.62470","Snowdepth":"6.000","Units":"in","Rept_Date":"2021-01-03 13"},"coordinates":[1714,6195]},{"type":"Point","properties":{"Station_ID":"WI-RS-1","Station_Nam":"LADYSMITH 2.8 WNW, WI","Latitude":"45.48180","Longitude":"-91.14680","Snowdepth":"6.000","Units":"in","Rept_Date":"2021-01-03 13"},"coordinates":[1372,5756]},{"type":"Point","properties":{"Station_ID":"WI-RC-3","Station_Nam":"RACINE 2.3 WSW, WI","Latitude":"42.71124","Longitude":"-87.84570","Snowdepth":"6.000","Units":"in","Rept_Date":"2021-01-03 13"},"coordinates":[2115,3874]},{"type":"Point","properties":{"Station_ID":"WI-PC-10","Station_Nam":"RIVER FALLS 1.4 S, WI","Latitude":"44.83580","Longitude":"-92.62100","Snowdepth":"6.000","Units":"in","Rept_Date":"2021-01-03 13"},"coordinates":[1040,5317]},{"type":"Point","properties":{"Station_ID":"WI-JF-2","Station_Nam":"WATERTOWN 1.6 ESE, WI","Latitude":"43.17916","Longitude":"-88.69720","Snowdepth":"6.000","Units":"in","Rept_Date":"2021-01-03 14"},"coordinates":[1923,4192]},{"type":"Point","properties":{"Station_ID":"WI-DD-16","Station_Nam":"BEAVER DAM 2.4 WNW, WI","Latitude":"43.47210","Longitude":"-88.88280","Snowdepth":"6.000","Units":"in","Rept_Date":"2021-01-03 11"},"coordinates":[1881,4391]},{"type":"Point","properties":{"Station_ID":"WI-BR-2","Station_Nam":"CHETEK 2.0 SE, WI","Latitude":"45.29427","Longitude":"-91.62470","Snowdepth":"6.000","Units":"in","Rept_Date":"2021-01-03 13"},"coordinates":[1264,5629]},{"type":"Point","properties":{"Station_ID":"WDOM5","Station_Nam":"WINDOM","Latitude":"43.87700","Longitude":"-95.11590","Snowdepth":"6.000","Units":"in","Rept_Date":"2021-01-03 14"},"coordinates":[478,4666]},{"type":"Point","properties":{"Station_ID":"WAIV1","Station_Nam":"WAITSFIELD","Latitude":"44.17560","Longitude":"-72.79610","Snowdepth":"6.000","Units":"in","Rept_Date":"2021-01-03 12"},"coordinates":[5503,4869]},{"type":"Point","properties":{"Station_ID":"VT-WR-17","Station_Nam":"ROCHESTER 2.3 NE, VT","Latitude":"43.89418","Longitude":"-72.76992","Snowdepth":"6.000","Units":"in","Rept_Date":"2021-01-03 12"},"coordinates":[5509,4678]},{"type":"Point","properties":{"Station_ID":"VT-OL-25","Station_Nam":"NEWPORT 1.5 WSW, VT","Latitude":"44.93059","Longitude":"-72.23731","Snowdepth":"6.000","Units":"in","Rept_Date":"2021-01-03 12"},"coordinates":[5629,5382]},{"type":"Point","properties":{"Station_ID":"TURM1","Station_Nam":"TURNER","Latitude":"44.28220","Longitude":"-70.25610","Snowdepth":"6.000","Units":"in","Rept_Date":"2021-01-03 12"},"coordinates":[6075,4941]},{"type":"Point","properties":{"Station_ID":"TOPN6","Station_Nam":"TUPPER LAKE SUNMOUNT","Latitude":"44.23070","Longitude":"-74.43820","Snowdepth":"6.000","Units":"in","Rept_Date":"2021-01-03 12"},"coordinates":[5134,4906]},{"type":"Point","properties":{"Station_ID":"TLDI4","Station_Nam":"TOLEDO,IA","Latitude":"41.98330","Longitude":"-92.58330","Snowdepth":"6.000","Units":"in","Rept_Date":"2021-01-03 13"},"coordinates":[1048,3379]},{"type":"Point","properties":{"Station_ID":"SWEI4","Station_Nam":"SWEA CITY,IA","Latitude":"43.38530","Longitude":"-94.25000","Snowdepth":"6.000","Units":"in","Rept_Date":"2021-01-03 12"},"coordinates":[673,4332]},{"type":"Point","properties":{"Station_ID":"STAM4","Station_Nam":"STANDISH 4NE","Latitude":"44.01260","Longitude":"-83.89770","Snowdepth":"6.000","Units":"in","Rept_Date":"2021-01-03 13"},"coordinates":[3004,4758]},{"type":"Point","properties":{"Station_ID":"SPNN1","Station_Nam":"MAHA SCOUT CAMP","Latitude":"41.06390","Longitude":"-96.00690","Snowdepth":"6.000","Units":"in","Rept_Date":"2021-01-03 14"},"coordinates":[277,2755]},{"type":"Point","properties":{"Station_ID":"SNYI4","Station_Nam":"STANLEY","Latitude":"42.63330","Longitude":"-91.86320","Snowdepth":"6.000","Units":"in","Rept_Date":"2021-01-03 13"},"coordinates":[1210,3821]},{"type":"Point","properties":{"Station_ID":"SJBV1","Station_Nam":"SAINT JOHNSBURY","Latitude":"44.42000","Longitude":"-72.01940","Snowdepth":"6.000","Units":"in","Rept_Date":"2021-01-03 21"},"coordinates":[5678,5035]},{"type":"Point","properties":{"Station_ID":"SHHW3","Station_Nam":"SHAWANO 2SSW","Latitude":"44.76310","Longitude":"-88.61830","Snowdepth":"6.000","Units":"in","Rept_Date":"2021-01-03 14"},"coordinates":[1941,5268]},{"type":"Point","properties":{"Station_ID":"SCOM4","Station_Nam":"SCOTTVILLE 2 SE","Latitude":"43.93310","Longitude":"-86.24530","Snowdepth":"6.000","Units":"in","Rept_Date":"2021-01-03 12"},"coordinates":[2475,4704]},{"type":"Point","properties":{"Station_ID":"ROCW3","Station_Nam":"ROCHESTER WWTP","Latitude":"42.72690","Longitude":"-88.22580","Snowdepth":"6.000","Units":"in","Rept_Date":"2021-01-03 14"},"coordinates":[2029,3885]},{"type":"Point","properties":{"Station_ID":"ROBW3","Station_Nam":"ROBERTS WWTP","Latitude":"44.97070","Longitude":"-92.56200","Snowdepth":"6.000","Units":"in","Rept_Date":"2021-01-03 13"},"coordinates":[1053,5409]},{"type":"Point","properties":{"Station_ID":"ROBM1","Station_Nam":"ROBBINSTON","Latitude":"45.08520","Longitude":"-67.12050","Snowdepth":"6.000","Units":"in","Rept_Date":"2021-01-04 05"},"coordinates":[6781,5487]},{"type":"Point","properties":{"Station_ID":"RKWI4","Station_Nam":"ROCKWELL CITY,IA","Latitude":"42.40000","Longitude":"-94.61670","Snowdepth":"6.000","Units":"in","Rept_Date":"2021-01-03 13"},"coordinates":[590,3662]},{"type":"Point","properties":{"Station_ID":"RFDM4","Station_Nam":"ROCKFORD","Latitude":"43.11580","Longitude":"-85.56410","Snowdepth":"6.000","Units":"in","Rept_Date":"2021-01-03 12"},"coordinates":[2629,4149]},{"type":"Point","properties":{"Station_ID":"RDFN6","Station_Nam":"REDFIELD 8N","Latitude":"43.64130","Longitude":"-75.88400","Snowdepth":"6.000","Units":"in","Rept_Date":"2021-01-03 12"},"coordinates":[4808,4506]},{"type":"Point","properties":{"Station_ID":"PORW3","Station_Nam":"PORTAGE,WI","Latitude":"43.53190","Longitude":"-89.43780","Snowdepth":"6.000","Units":"in","Rept_Date":"2021-01-03 14"},"coordinates":[1756,4431]},{"type":"Point","properties":{"Station_ID":"PEAI4","Station_Nam":"PELLA,IA","Latitude":"41.46670","Longitude":"-92.91670","Snowdepth":"6.000","Units":"in","Rept_Date":"2021-01-03 13"},"coordinates":[973,3028]},{"type":"Point","properties":{"Station_ID":"OILM4","Station_Nam":"OIL CITY 3E","Latitude":"43.61140","Longitude":"-84.52810","Snowdepth":"6.000","Units":"in","Rept_Date":"2021-01-03 12"},"coordinates":[2862,4485]},{"type":"Point","properties":{"Station_ID":"NY-HM-9","Station_Nam":"HOFFMEISTER 2.0 E, NY","Latitude":"43.38695","Longitude":"-74.67723","Snowdepth":"6.000","Units":"in","Rept_Date":"2021-01-03 13"},"coordinates":[5080,4333]},{"type":"Point","properties":{"Station_ID":"NY-CR-5","Station_Nam":"MARATHON 1.0 NW, NY","Latitude":"42.45161","Longitude":"-76.04370","Snowdepth":"6.000","Units":"in","Rept_Date":"2021-01-03 12"},"coordinates":[4772,3698]},{"type":"Point","properties":{"Station_ID":"NY-CL-7","Station_Nam":"PERU 4.1 ESE, NY","Latitude":"44.56461","Longitude":"-73.45390","Snowdepth":"6.000","Units":"in","Rept_Date":"2021-01-03 11"},"coordinates":[5355,5133]},{"type":"Point","properties":{"Station_ID":"NWSM1","Station_Nam":"NEW SHARON","Latitude":"44.63520","Longitude":"-70.00020","Snowdepth":"6.000","Units":"in","Rept_Date":"2021-01-03 12"},"coordinates":[6133,5181]},{"type":"Point","properties":{"Station_ID":"NH-MR-4","Station_Nam":"BOW 1.6 NW, NH","Latitude":"43.14994","Longitude":"-71.55650","Snowdepth":"6.000","Units":"in","Rept_Date":"2021-01-03 12"},"coordinates":[5782,4172]},{"type":"Point","properties":{"Station_ID":"NH-GR-47","Station_Nam":"LITTLETON 7.3 W, NH","Latitude":"44.31847","Longitude":"-71.91086","Snowdepth":"6.000","Units":"in","Rept_Date":"2021-01-03 13"},"coordinates":[5703,4966]},{"type":"Point","properties":{"Station_ID":"NH-CS-7","Station_Nam":"LANCASTER 0.5 N, NH","Latitude":"44.49611","Longitude":"-71.57640","Snowdepth":"6.000","Units":"in","Rept_Date":"2021-01-03 12"},"coordinates":[5778,5087]},{"type":"Point","properties":{"Station_ID":"NH-CR-15","Station_Nam":"JACKSON 3.7 NW, NH","Latitude":"44.19069","Longitude":"-71.22598","Snowdepth":"6.000","Units":"in","Rept_Date":"2021-01-03 12"},"coordinates":[5857,4879]},{"type":"Point","properties":{"Station_ID":"ND-CS-45","Station_Nam":"FARGO 3.6 NNE, ND","Latitude":"46.92599","Longitude":"-96.79321","Snowdepth":"6.000","Units":"in","Rept_Date":"2021-01-03 13"},"coordinates":[100,6737]},{"type":"Point","properties":{"Station_ID":"NCON3","Station_Nam":"NORTH CONWAY","Latitude":"44.05620","Longitude":"-71.12970","Snowdepth":"6.000","Units":"in","Rept_Date":"2021-01-03 13"},"coordinates":[5878,4788]},{"type":"Point","properties":{"Station_ID":"MSTI4","Station_Nam":"MUSCATINE 2N","Latitude":"41.47130","Longitude":"-91.04630","Snowdepth":"6.000","Units":"in","Rept_Date":"2021-01-03 13"},"coordinates":[1394,3032]},{"type":"Point","properties":{"Station_ID":"MN-SV-4","Station_Nam":"DONNELLY 2.9 NW, MN","Latitude":"45.71649","Longitude":"-96.06043","Snowdepth":"6.000","Units":"in","Rept_Date":"2021-01-03 14"},"coordinates":[265,5916]},{"type":"Point","properties":{"Station_ID":"MN-SR-48","Station_Nam":"SAINT AUGUSTA 2.1 S, MN","Latitude":"45.41950","Longitude":"-94.19737","Snowdepth":"6.000","Units":"in","Rept_Date":"2021-01-03 13"},"coordinates":[685,5714]},{"type":"Point","properties":{"Station_ID":"MN-SE-2","Station_Nam":"OWATONNA 0.8 E, MN","Latitude":"44.09170","Longitude":"-93.21380","Snowdepth":"6.000","Units":"in","Rept_Date":"2021-01-03 13"},"coordinates":[906,4812]},{"type":"Point","properties":{"Station_ID":"MN-RM-2","Station_Nam":"NORTH SAINT PAUL 1.0 NNW, MN","Latitude":"45.02629","Longitude":"-93.00790","Snowdepth":"6.000","Units":"in","Rept_Date":"2021-01-03 12"},"coordinates":[953,5447]},{"type":"Point","properties":{"Station_ID":"MN-MK-11","Station_Nam":"DASSEL 0.4 S, MN","Latitude":"45.07765","Longitude":"-94.31567","Snowdepth":"6.000","Units":"in","Rept_Date":"2021-01-03 13"},"coordinates":[658,5482]},{"type":"Point","properties":{"Station_ID":"MN-HN-272","Station_Nam":"RICHFIELD 1.1 WSW, MN","Latitude":"44.87052","Longitude":"-93.30394","Snowdepth":"6.000","Units":"in","Rept_Date":"2021-01-03 13"},"coordinates":[886,5341]},{"type":"Point","properties":{"Station_ID":"MN-HN-178","Station_Nam":"MINNEAPOLIS 4.5 SSE, MN","Latitude":"44.90650","Longitude":"-93.21993","Snowdepth":"6.000","Units":"in","Rept_Date":"2021-01-03 13"},"coordinates":[905,5365]},{"type":"Point","properties":{"Station_ID":"MN-DK-53","Station_Nam":"LAKEVILLE 3.8 ENE, MN","Latitude":"44.70423","Longitude":"-93.18460","Snowdepth":"6.000","Units":"in","Rept_Date":"2021-01-03 13"},"coordinates":[913,5228]},{"type":"Point","properties":{"Station_ID":"MMPM7","Station_Nam":"MEMPHIS","Latitude":"40.45750","Longitude":"-92.18220","Snowdepth":"6.000","Units":"in","Rept_Date":"2021-01-03 12"},"coordinates":[1138,2343]},{"type":"Point","properties":{"Station_ID":"MI-OT-4","Station_Nam":"GAYLORD 1.7 WNW, MI","Latitude":"45.03280","Longitude":"-84.71090","Snowdepth":"6.000","Units":"in","Rept_Date":"2021-01-03 13"},"coordinates":[2821,5451]},{"type":"Point","properties":{"Station_ID":"MI-OT-16","Station_Nam":"GAYLORD 2.2 SSE, MI","Latitude":"44.99441","Longitude":"-84.65820","Snowdepth":"6.000","Units":"in","Rept_Date":"2021-01-03 12"},"coordinates":[2832,5425]},{"type":"Point","properties":{"Station_ID":"MI-MQ-28","Station_Nam":"CARLSHEND, MI","Latitude":"46.31638","Longitude":"-87.19944","Snowdepth":"6.000","Units":"in","Rept_Date":"2021-01-03 13"},"coordinates":[2260,6323]},{"type":"Point","properties":{"Station_ID":"MI-CP-14","Station_Nam":"SAULT STE. MARIE 2.2 E, MI","Latitude":"46.48933","Longitude":"-84.31971","Snowdepth":"6.000","Units":"in","Rept_Date":"2021-01-03 12"},"coordinates":[2909,6441]},{"type":"Point","properties":{"Station_ID":"MHRI4","Station_Nam":"MANCHESTER #2","Latitude":"42.47320","Longitude":"-91.45160","Snowdepth":"6.000","Units":"in","Rept_Date":"2021-01-03 13"},"coordinates":[1303,3712]},{"type":"Point","properties":{"Station_ID":"ME-WL-8","Station_Nam":"WINTERPORT 2.9 N, ME","Latitude":"44.69369","Longitude":"-68.84800","Snowdepth":"6.000","Units":"in","Rept_Date":"2021-01-03 12"},"coordinates":[6392,5221]},{"type":"Point","properties":{"Station_ID":"ME-KB-53","Station_Nam":"READFIELD 2.0 NNE, ME","Latitude":"44.41620","Longitude":"-69.95190","Snowdepth":"6.000","Units":"in","Rept_Date":"2021-01-03 12"},"coordinates":[6144,5032]},{"type":"Point","properties":{"Station_ID":"ME-KB-25","Station_Nam":"SIDNEY 2.6 NNW, ME","Latitude":"44.44985","Longitude":"-69.73840","Snowdepth":"6.000","Units":"in","Rept_Date":"2021-01-03 12"},"coordinates":[6192,5055]},{"type":"Point","properties":{"Station_ID":"ME-FR-4","Station_Nam":"NEW SHARON 2.0 NW, ME","Latitude":"44.66582","Longitude":"-70.02720","Snowdepth":"6.000","Units":"in","Rept_Date":"2021-01-03 12"},"coordinates":[6127,5202]},{"type":"Point","properties":{"Station_ID":"ME-FR-23","Station_Nam":"FARMINGTON 4.2 NW, ME","Latitude":"44.71690","Longitude":"-70.19670","Snowdepth":"6.000","Units":"in","Rept_Date":"2021-01-03 12"},"coordinates":[6089,5237]},{"type":"Point","properties":{"Station_ID":"LODW3","Station_Nam":"LODI","Latitude":"43.32170","Longitude":"-89.53110","Snowdepth":"6.000","Units":"in","Rept_Date":"2021-01-03 13"},"coordinates":[1735,4289]},{"type":"Point","properties":{"Station_ID":"LGEW3","Station_Nam":"LAKE GENEVA, WI","Latitude":"42.60000","Longitude":"-88.43440","Snowdepth":"6.000","Units":"in","Rept_Date":"2021-01-03 13"},"coordinates":[1982,3798]},{"type":"Point","properties":{"Station_ID":"LBRM5","Station_Nam":"LAKE BRONSON DAM","Latitude":"48.72410","Longitude":"-96.62180","Snowdepth":"6.000","Units":"in","Rept_Date":"2021-01-03 14"},"coordinates":[139,7959]},{"type":"Point","properties":{"Station_ID":"KRFD","Station_Nam":"GREATER ROCKFORD AIRPORT","Latitude":"42.20000","Longitude":"-89.10000","Snowdepth":"6.000","Units":"in","Rept_Date":"2021-01-04 06"},"coordinates":[1832,3527]},{"type":"Point","properties":{"Station_ID":"KMSN","Station_Nam":"MADISON DANE COUNTY RGNL","Latitude":"43.13333","Longitude":"-89.35000","Snowdepth":"6.000","Units":"in","Rept_Date":"2021-01-04 06"},"coordinates":[1776,4161]},{"type":"Point","properties":{"Station_ID":"KISM4","Station_Nam":"K.I. SAWYER WWTP","Latitude":"46.33410","Longitude":"-87.37790","Snowdepth":"6.000","Units":"in","Rept_Date":"2021-01-03 13"},"coordinates":[2220,6335]},{"type":"Point","properties":{"Station_ID":"KGTB","Station_Nam":"FORT DRUM / WHEELER-SACK U. S. ARMY AIRFIELD","Latitude":"44.05000","Longitude":"-75.73333","Snowdepth":"6.000","Units":"in","Rept_Date":"2021-01-04 06"},"coordinates":[4842,4783]},{"type":"Point","properties":{"Station_ID":"JEFV1","Station_Nam":"JEFFERSONVILLE","Latitude":"44.58430","Longitude":"-72.78700","Snowdepth":"6.000","Units":"in","Rept_Date":"2021-01-03 12"},"coordinates":[5505,5146]},{"type":"Point","properties":{"Station_ID":"IL-PT-18","Station_Nam":"MONTICELLO 2.8 NNE, IL","Latitude":"40.06316","Longitude":"-88.55799","Snowdepth":"6.000","Units":"in","Rept_Date":"2021-01-03 14"},"coordinates":[1954,2075]},{"type":"Point","properties":{"Station_ID":"IL-MCH-13","Station_Nam":"BULL VALLEY 2.5 WNW, IL","Latitude":"42.32455","Longitude":"-88.39460","Snowdepth":"6.000","Units":"in","Rept_Date":"2021-01-03 14"},"coordinates":[1991,3611]},{"type":"Point","properties":{"Station_ID":"IL-LG-15","Station_Nam":"CHESTNUT 1.9 W, IL","Latitude":"40.04964","Longitude":"-89.22060","Snowdepth":"6.000","Units":"in","Rept_Date":"2021-01-03 13"},"coordinates":[1805,2066]},{"type":"Point","properties":{"Station_ID":"IL-DW-7","Station_Nam":"CLINTON 0.4 WSW, IL","Latitude":"40.14727","Longitude":"-88.96782","Snowdepth":"6.000","Units":"in","Rept_Date":"2021-01-03 13"},"coordinates":[1862,2132]},{"type":"Point","properties":{"Station_ID":"IA-WR-5","Station_Nam":"HARTFORD 1.0 E, IA","Latitude":"41.46014","Longitude":"-93.38550","Snowdepth":"6.000","Units":"in","Rept_Date":"2021-01-03 14"},"coordinates":[868,3024]},{"type":"Point","properties":{"Station_ID":"IA-ST-48","Station_Nam":"BETTENDORF 1.6 W, IA","Latitude":"41.56502","Longitude":"-90.50767","Snowdepth":"6.000","Units":"in","Rept_Date":"2021-01-03 13"},"coordinates":[1515,3095]},{"type":"Point","properties":{"Station_ID":"IA-LN-7","Station_Nam":"CENTRAL CITY 6.7 W, IA","Latitude":"42.19830","Longitude":"-91.65430","Snowdepth":"6.000","Units":"in","Rept_Date":"2021-01-03 13"},"coordinates":[1257,3525]},{"type":"Point","properties":{"Station_ID":"HRTM1","Station_Nam":"HARTFORD","Latitude":"44.37440","Longitude":"-70.31620","Snowdepth":"6.000","Units":"in","Rept_Date":"2021-01-03 12"},"coordinates":[6062,5004]},{"type":"Point","properties":{"Station_ID":"GTTI4","Station_Nam":"LOCK & DAM 10","Latitude":"42.78580","Longitude":"-91.09970","Snowdepth":"6.000","Units":"in","Rept_Date":"2021-01-03 14"},"coordinates":[1382,3925]},{"type":"Point","properties":{"Station_ID":"GLAM4","Station_Nam":"GLADWIN","Latitude":"43.97580","Longitude":"-84.49080","Snowdepth":"6.000","Units":"in","Rept_Date":"2021-01-03 12"},"coordinates":[2870,4733]},{"type":"Point","properties":{"Station_ID":"GAYM4","Station_Nam":"GAYLORD","Latitude":"45.03320","Longitude":"-84.71130","Snowdepth":"6.000","Units":"in","Rept_Date":"2021-01-03 13"},"coordinates":[2821,5451]},{"type":"Point","properties":{"Station_ID":"FREM4","Station_Nam":"FREMONT,MI","Latitude":"43.45000","Longitude":"-86.03330","Snowdepth":"6.000","Units":"in","Rept_Date":"2021-01-03 12"},"coordinates":[2523,4376]},{"type":"Point","properties":{"Station_ID":"FLAM4","Station_Nam":"FIFE LAKE 2WNW","Latitude":"44.58480","Longitude":"-85.36530","Snowdepth":"6.000","Units":"in","Rept_Date":"2021-01-03 12"},"coordinates":[2673,5147]},{"type":"Point","properties":{"Station_ID":"FCLN1","Station_Nam":"FT CALHOUN 4W","Latitude":"41.44670","Longitude":"-96.09190","Snowdepth":"6.000","Units":"in","Rept_Date":"2021-01-03 13"},"coordinates":[258,3015]},{"type":"Point","properties":{"Station_ID":"FARM1","Station_Nam":"FARMINGTON","Latitude":"44.68930","Longitude":"-70.15640","Snowdepth":"6.000","Units":"in","Rept_Date":"2021-01-03 12"},"coordinates":[6098,5218]},{"type":"Point","properties":{"Station_ID":"EVYI4","Station_Nam":"EVERLY,IA","Latitude":"43.18330","Longitude":"-95.36670","Snowdepth":"6.000","Units":"in","Rept_Date":"2021-01-03 13"},"coordinates":[421,4195]},