{"type":"Topology","objects":{"snowdepth_geo":{"type":"GeometryCollection","name":"snowdepth","crs":{"type":"name","properties":{"name":"urn:ogc:def:crs:OGC:1.3:CRS84"}},"geometries":[{"type":"Point","properties":{"Station_ID":"PRKM4","Station_Nam":"MUNISING EAST","Latitude":"46.42580","Longitude":"-86.62000","Snowdepth":"76.500","Units":"in","Rept_Date":"2020-02-21 06"},"coordinates":[2493,6766]},{"type":"Point","properties":{"Station_ID":"HTLN3","Station_Nam":"HERMIT LAKE SNOWPLOT","Latitude":"44.26130","Longitude":"-71.28330","Snowdepth":"63.000","Units":"in","Rept_Date":"2020-02-20 10"},"coordinates":[6092,5445]},{"type":"Point","properties":{"Station_ID":"PDLM4","Station_Nam":"PAINESDALE","Latitude":"47.04160","Longitude":"-88.67170","Snowdepth":"55.000","Units":"in","Rept_Date":"2020-02-20 13"},"coordinates":[2012,7141]},{"type":"Point","properties":{"Station_ID":"HVCN3","Station_Nam":"HARVARD CABIN SNOWPLOT","Latitude":"44.26630","Longitude":"-71.27790","Snowdepth":"50.000","Units":"in","Rept_Date":"2020-02-20 10"},"coordinates":[6093,5449]},{"type":"Point","properties":{"Station_ID":"GMSM4","Station_Nam":"GRAND MARAIS 10S","Latitude":"46.50940","Longitude":"-85.96310","Snowdepth":"50.000","Units":"in","Rept_Date":"2020-02-20 12"},"coordinates":[2647,6817]},{"type":"Point","properties":{"Station_ID":"CLUM4","Station_Nam":"CALUMET-TAMARACK","Latitude":"47.24550","Longitude":"-88.46790","Snowdepth":"50.000","Units":"in","Rept_Date":"2020-02-20 14"},"coordinates":[2060,7266]},{"type":"Point","properties":{"Station_ID":"CAN-NL-81","Station_Nam":"GRAND FALLS-WINDSOR 1.2 S, CAN","Latitude":"48.93123","Longitude":"-55.65333","Snowdepth":"46.100","Units":"in","Rept_Date":"2020-02-20 11"},"coordinates":[9760,8294]},{"type":"Point","properties":{"Station_ID":"DVLQ6","Station_Nam":"DEVIOUS LAKE","Latitude":"49.19890","Longitude":"-87.76440","Snowdepth":"43.460","Units":"in","Rept_Date":"2020-02-21 06"},"coordinates":[2225,8457]},{"type":"Point","properties":{"Station_ID":"WLFM5","Station_Nam":"WOLF RIDGE ENVIRON LEARNING CENTER","Latitude":"47.38240","Longitude":"-91.19730","Snowdepth":"40.000","Units":"in","Rept_Date":"2020-02-20 13"},"coordinates":[1419,7349]},{"type":"Point","properties":{"Station_ID":"KSGM4","Station_Nam":"KEARSARGE","Latitude":"47.27520","Longitude":"-88.41700","Snowdepth":"40.000","Units":"in","Rept_Date":"2020-02-20 13"},"coordinates":[2072,7284]},{"type":"Point","properties":{"Station_ID":"NWCM4","Station_Nam":"NEWBERRY CITY","Latitude":"46.35720","Longitude":"-85.51780","Snowdepth":"39.000","Units":"in","Rept_Date":"2020-02-20 12"},"coordinates":[2752,6724]},{"type":"Point","properties":{"Station_ID":"IBLM5","Station_Nam":"ISABELLA 14W","Latitude":"47.59360","Longitude":"-91.65140","Snowdepth":"39.000","Units":"in","Rept_Date":"2020-02-20 15"},"coordinates":[1313,7478]},{"type":"Point","properties":{"Station_ID":"MNSM4","Station_Nam":"MUNISING","Latitude":"46.41210","Longitude":"-86.66250","Snowdepth":"37.000","Units":"in","Rept_Date":"2020-02-20 11"},"coordinates":[2483,6757]},{"type":"Point","properties":{"Station_ID":"QGO","Station_Nam":"QGO","Latitude":"48.85500","Longitude":"-74.20640","Snowdepth":"36.772","Units":"in","Rept_Date":"2020-02-20 12"},"coordinates":[5406,8247]},{"type":"Point","properties":{"Station_ID":"QCU","Station_Nam":"QCU","Latitude":"47.82750","Longitude":"-76.59830","Snowdepth":"36.378","Units":"in","Rept_Date":"2020-02-20 12"},"coordinates":[4845,7621]},{"type":"Point","properties":{"Station_ID":"CAN-NL-65","Station_Nam":"KIPPENS 0.7 NE, CA","Latitude":"48.55436","Longitude":"-58.61850","Snowdepth":"35.500","Units":"in","Rept_Date":"2020-02-20 12"},"coordinates":[9064,8064]},{"type":"Point","properties":{"Station_ID":"CAN-NL-82","Station_Nam":"GANDER 2.7 NW, CAN","Latitude":"48.97737","Longitude":"-54.63396","Snowdepth":"35.400","Units":"in","Rept_Date":"2020-02-20 10"},"coordinates":[9999,8322]},{"type":"Point","properties":{"Station_ID":"MQT","Station_Nam":"MARQUETTE, MI","Latitude":"46.53140","Longitude":"-87.54920","Snowdepth":"35.000","Units":"in","Rept_Date":"2020-02-21 06"},"coordinates":[2275,6830]},{"type":"Point","properties":{"Station_ID":"QWE","Station_Nam":"QWE","Latitude":"47.84610","Longitude":"-73.80670","Snowdepth":"34.724","Units":"in","Rept_Date":"2020-02-20 12"},"coordinates":[5500,7632]},{"type":"Point","properties":{"Station_ID":"QNCM4","Station_Nam":"QUINCY HILL","Latitude":"47.13640","Longitude":"-88.57950","Snowdepth":"34.000","Units":"in","Rept_Date":"2020-02-20 12"},"coordinates":[2033,7199]},{"type":"Point","properties":{"Station_ID":"PHEW3","Station_Nam":"PHELPS","Latitude":"46.06630","Longitude":"-89.07520","Snowdepth":"34.000","Units":"in","Rept_Date":"2020-02-20 13"},"coordinates":[1917,6546]},{"type":"Point","properties":{"Station_ID":"MI-BG-3","Station_Nam":"L'ANSE 17.8 SE, MI","Latitude":"46.55730","Longitude":"-88.20770","Snowdepth":"34.000","Units":"in","Rept_Date":"2020-02-20 13"},"coordinates":[2121,6846]},{"type":"Point","properties":{"Station_ID":"CAN-NB-11","Station_Nam":"MIRAMICHI 3.3 S, CAN","Latitude":"46.99343","Longitude":"-65.50690","Snowdepth":"34.000","Units":"in","Rept_Date":"2020-02-20 11"},"coordinates":[7448,7112]},{"type":"Point","properties":{"Station_ID":"STEM4","Station_Nam":"STEUBEN","Latitude":"46.18530","Longitude":"-86.46410","Snowdepth":"33.000","Units":"in","Rept_Date":"2020-02-20 14"},"coordinates":[2530,6619]},{"type":"Point","properties":{"Station_ID":"LVDW3","Station_Nam":"LAC VIEUX DESERT","Latitude":"46.12110","Longitude":"-89.07580","Snowdepth":"33.000","Units":"in","Rept_Date":"2020-02-20 15"},"coordinates":[1917,6580]},{"type":"Point","properties":{"Station_ID":"CAN-QC-47","Station_Nam":"SAINTE-FOY 1.8 ENE, CAN","Latitude":"46.76934","Longitude":"-71.27124","Snowdepth":"32.100","Units":"in","Rept_Date":"2020-02-20 12"},"coordinates":[6095,6975]},{"type":"Point","properties":{"Station_ID":"QLB","Station_Nam":"QLB","Latitude":"50.72360","Longitude":"-75.10000","Snowdepth":"31.575","Units":"in","Rept_Date":"2020-02-20 12"},"coordinates":[5197,9387]},{"type":"Point","properties":{"Station_ID":"QOU","Station_Nam":"QOU","Latitude":"50.79250","Longitude":"-69.67470","Snowdepth":"31.457","Units":"in","Rept_Date":"2020-02-20 12"},"coordinates":[6470,9429]},{"type":"Point","properties":{"Station_ID":"MLZ","Station_Nam":"MLZ","Latitude":"50.66170","Longitude":"-68.82360","Snowdepth":"31.102","Units":"in","Rept_Date":"2020-02-20 12"},"coordinates":[6669,9349]},{"type":"Point","properties":{"Station_ID":"HERM4","Station_Nam":"HERMAN,MI","Latitude":"46.65000","Longitude":"-88.33330","Snowdepth":"31.000","Units":"in","Rept_Date":"2020-02-20 13"},"coordinates":[2091,6902]},{"type":"Point","properties":{"Station_ID":"ANTW3","Station_Nam":"ANTIGO,WI","Latitude":"45.13330","Longitude":"-89.15000","Snowdepth":"31.000","Units":"in","Rept_Date":"2020-02-20 14"},"coordinates":[1900,5977]},{"type":"Point","properties":{"Station_ID":"ME-AR-18","Station_Nam":"NEW SWEDEN 4.9 NNW, ME","Latitude":"47.01080","Longitude":"-68.14390","Snowdepth":"30.500","Units":"in","Rept_Date":"2020-02-20 12"},"coordinates":[6829,7122]},{"type":"Point","properties":{"Station_ID":"QGD","Station_Nam":"QGD","Latitude":"51.11140","Longitude":"-67.13940","Snowdepth":"30.433","Units":"in","Rept_Date":"2020-02-20 12"},"coordinates":[7065,9624]},{"type":"Point","properties":{"Station_ID":"QFT","Station_Nam":"QFT","Latitude":"50.83280","Longitude":"-74.40390","Snowdepth":"30.157","Units":"in","Rept_Date":"2020-02-20 12"},"coordinates":[5360,9454]},{"type":"Point","properties":{"Station_ID":"SUTV1","Station_Nam":"SUTTON","Latitude":"44.61220","Longitude":"-72.04810","Snowdepth":"30.000","Units":"in","Rept_Date":"2020-02-20 12"},"coordinates":[5913,5660]},{"type":"Point","properties":{"Station_ID":"NH-CS-10","Station_Nam":"RANDOLPH 1.4 NE, NH","Latitude":"44.38824","Longitude":"-71.26950","Snowdepth":"30.000","Units":"in","Rept_Date":"2020-02-20 12"},"coordinates":[6095,5523]},{"type":"Point","properties":{"Station_ID":"MI-HG-6","Station_Nam":"CALUMET 5.8 ENE, MI","Latitude":"47.27200","Longitude":"-88.33400","Snowdepth":"30.000","Units":"in","Rept_Date":"2020-02-20 11"},"coordinates":[2091,7282]},{"type":"Point","properties":{"Station_ID":"IWOM4","Station_Nam":"IRONWOOD#2","Latitude":"46.46520","Longitude":"-90.13820","Snowdepth":"30.000","Units":"in","Rept_Date":"2020-02-20 13"},"coordinates":[1668,6790]},{"type":"Point","properties":{"Station_ID":"GLDM4","Station_Nam":"GLADSTONE NO. 2","Latitude":"45.84330","Longitude":"-87.03910","Snowdepth":"30.000","Units":"in","Rept_Date":"2020-02-20 11"},"coordinates":[2395,6410]},{"type":"Point","properties":{"Station_ID":"CRVW3","Station_Nam":"CRIVITZ HIGH FALLS","Latitude":"45.35750","Longitude":"-88.19190","Snowdepth":"30.000","Units":"in","Rept_Date":"2020-02-20 13"},"coordinates":[2124,6114]},{"type":"Point","properties":{"Station_ID":"BABM5","Station_Nam":"BABBITT","Latitude":"47.71210","Longitude":"-91.95330","Snowdepth":"30.000","Units":"in","Rept_Date":"2020-02-20 13"},"coordinates":[1242,7550]},{"type":"Point","properties":{"Station_ID":"PTLQ6","Station_Nam":"PORTAGE LAKE","Latitude":"49.06950","Longitude":"-86.65940","Snowdepth":"29.450","Units":"in","Rept_Date":"2020-02-21 06"},"coordinates":[2484,8378]},{"type":"Point","properties":{"Station_ID":"HURW3","Station_Nam":"HURLEY","Latitude":"46.46250","Longitude":"-90.19550","Snowdepth":"29.000","Units":"in","Rept_Date":"2020-02-20 14"},"coordinates":[1654,6788]},{"type":"Point","properties":{"Station_ID":"VT-OL-12","Station_Nam":"GREENSBORO 3.9 NNE, VT","Latitude":"44.63100","Longitude":"-72.28000","Snowdepth":"28.000","Units":"in","Rept_Date":"2020-02-20 12"},"coordinates":[5858,5671]},{"type":"Point","properties":{"Station_ID":"LNOW3","Station_Nam":"LAND O LAKES","Latitude":"46.19000","Longitude":"-89.45700","Snowdepth":"28.000","Units":"in","Rept_Date":"2020-02-20 13"},"coordinates":[1828,6622]},{"type":"Point","properties":{"Station_ID":"ISLV1","Station_Nam":"ISLAND POND","Latitude":"44.81280","Longitude":"-71.89020","Snowdepth":"28.000","Units":"in","Rept_Date":"2020-02-20 16"},"coordinates":[5950,5782]},{"type":"Point","properties":{"Station_ID":"EVRW3","Station_Nam":"EAGLE RIVER-4 E","Latitude":"45.91890","Longitude":"-89.15280","Snowdepth":"28.000","Units":"in","Rept_Date":"2020-02-20 13"},"coordinates":[1899,6457]},{"type":"Point","properties":{"Station_ID":"EAHV1","Station_Nam":"EAST HAVEN","Latitude":"44.64250","Longitude":"-71.89120","Snowdepth":"28.000","Units":"in","Rept_Date":"2020-02-20 12"},"coordinates":[5949,5678]},{"type":"Point","properties":{"Station_ID":"WI-VL-9","Station_Nam":"LAND O' LAKES 11.7 W, WI","Latitude":"46.19023","Longitude":"-89.45790","Snowdepth":"27.500","Units":"in","Rept_Date":"2020-02-20 13"},"coordinates":[1827,6622]},{"type":"Point","properties":{"Station_ID":"VT-OL-1","Station_Nam":"WESTFIELD 0.7 WNW, VT","Latitude":"44.89160","Longitude":"-72.44350","Snowdepth":"27.500","Units":"in","Rept_Date":"2020-02-20 12"},"coordinates":[5820,5830]},{"type":"Point","properties":{"Station_ID":"STGW3","Station_Nam":"ST GERMAIN","Latitude":"45.91550","Longitude":"-89.48940","Snowdepth":"27.000","Units":"in","Rept_Date":"2020-02-20 12"},"coordinates":[1820,6454]},{"type":"Point","properties":{"Station_ID":"PDGM4","Station_Nam":"PAULDING","Latitude":"46.39760","Longitude":"-89.17940","Snowdepth":"27.000","Units":"in","Rept_Date":"2020-02-20 16"},"coordinates":[1893,6748]},{"type":"Point","properties":{"Station_ID":"ME-FR-2","Station_Nam":"TEMPLE 1.8 W, ME","Latitude":"44.68329","Longitude":"-70.26420","Snowdepth":"27.000","Units":"in","Rept_Date":"2020-02-20 11"},"coordinates":[6331,5703]},{"type":"Point","properties":{"Station_ID":"BBEM4","Station_Nam":"BIG BAY 9SW","Latitude":"46.74620","Longitude":"-87.88160","Snowdepth":"27.000","Units":"in","Rept_Date":"2020-02-20 13"},"coordinates":[2197,6961]},{"type":"Point","properties":{"Station_ID":"QGA","Station_Nam":"QGA","Latitude":"47.25640","Longitude":"-73.73810","Snowdepth":"26.811","Units":"in","Rept_Date":"2020-02-20 12"},"coordinates":[5516,7272]},{"type":"Point","properties":{"Station_ID":"WI-OC-1","Station_Nam":"MOUNTAIN 1.1 SW, WI","Latitude":"45.17239","Longitude":"-88.48990","Snowdepth":"26.500","Units":"in","Rept_Date":"2020-02-20 13"},"coordinates":[2054,6001]},{"type":"Point","properties":{"Station_ID":"VT-CL-18","Station_Nam":"WHEELOCK 1.6 S, VT","Latitude":"44.56491","Longitude":"-72.08830","Snowdepth":"26.500","Units":"in","Rept_Date":"2020-02-20 12"},"coordinates":[5903,5631]},{"type":"Point","properties":{"Station_ID":"WI-WB-2","Station_Nam":"STONE LAKE 2.0 NW, WI","Latitude":"45.85960","Longitude":"-91.57710","Snowdepth":"26.000","Units":"in","Rept_Date":"2020-02-20 13"},"coordinates":[1330,6420]},{"type":"Point","properties":{"Station_ID":"SUAW3","Station_Nam":"SUAMICO","Latitude":"44.60190","Longitude":"-88.09780","Snowdepth":"26.000","Units":"in","Rept_Date":"2020-02-20 12"},"coordinates":[2147,5653]},{"type":"Point","properties":{"Station_ID":"MOUW3","Station_Nam":"MOUNTAIN 1 SW","Latitude":"45.17220","Longitude":"-88.49390","Snowdepth":"26.000","Units":"in","Rept_Date":"2020-02-20 13"},"coordinates":[2054,6001]},{"type":"Point","properties":{"Station_ID":"MI-HG-1","Station_Nam":"HOUGHTON 1.6 ESE, MI","Latitude":"47.10774","Longitude":"-88.52940","Snowdepth":"26.000","Units":"in","Rept_Date":"2020-02-20 13"},"coordinates":[2045,7182]},{"type":"Point","properties":{"Station_ID":"MAIW3","Station_Nam":"MADELINE ISLAND","Latitude":"46.78330","Longitude":"-90.76670","Snowdepth":"26.000","Units":"in","Rept_Date":"2020-02-20 14"},"coordinates":[1520,6984]},{"type":"Point","properties":{"Station_ID":"GHMN3","Station_Nam":"PINKHAM NOTCH","Latitude":"44.25800","Longitude":"-71.25250","Snowdepth":"26.000","Units":"in","Rept_Date":"2020-02-20 11"},"coordinates":[6099,5443]},{"type":"Point","properties":{"Station_ID":"FLNW3","Station_Nam":"FLORENCE","Latitude":"45.93360","Longitude":"-88.25830","Snowdepth":"26.000","Units":"in","Rept_Date":"2020-02-20 13"},"coordinates":[2109,6465]},{"type":"Point","properties":{"Station_ID":"COKM5","Station_Nam":"COOK","Latitude":"47.85060","Longitude":"-92.69250","Snowdepth":"26.000","Units":"in","Rept_Date":"2020-02-20 12"},"coordinates":[1068,7635]},{"type":"Point","properties":{"Station_ID":"CNRM1","Station_Nam":"CONNOR TWP","Latitude":"46.95830","Longitude":"-68.03330","Snowdepth":"26.000","Units":"in","Rept_Date":"2020-02-20 12"},"coordinates":[6855,7090]},{"type":"Point","properties":{"Station_ID":"CARM1","Station_Nam":"CARIBOU WFO","Latitude":"46.86810","Longitude":"-68.01250","Snowdepth":"26.000","Units":"in","Rept_Date":"2020-02-21 05"},"coordinates":[6860,7035]},{"type":"Point","properties":{"Station_ID":"CAR","Station_Nam":"CARIBOU, ME","Latitude":"46.86830","Longitude":"-68.01360","Snowdepth":"26.000","Units":"in","Rept_Date":"2020-02-20 12"},"coordinates":[6859,7036]},{"type":"Point","properties":{"Station_ID":"BNDM5","Station_Nam":"ELY 25E","Latitude":"47.97190","Longitude":"-91.44860","Snowdepth":"26.000","Units":"in","Rept_Date":"2020-02-20 13"},"coordinates":[1360,7709]},{"type":"Point","properties":{"Station_ID":"AVLV1","Station_Nam":"AVERILL","Latitude":"45.00570","Longitude":"-71.69030","Snowdepth":"26.000","Units":"in","Rept_Date":"2020-02-20 13"},"coordinates":[5997,5900]},{"type":"Point","properties":{"Station_ID":"TRIQ6","Station_Nam":"TRIO LAKE","Latitude":"49.22880","Longitude":"-87.22920","Snowdepth":"25.510","Units":"in","Rept_Date":"2020-02-21 06"},"coordinates":[2350,8475]},{"type":"Point","properties":{"Station_ID":"VT-ES-1","Station_Nam":"GRANBY 1.4 NW, VT","Latitude":"44.58330","Longitude":"-71.77870","Snowdepth":"25.500","Units":"in","Rept_Date":"2020-02-20 14"},"coordinates":[5976,5642]},{"type":"Point","properties":{"Station_ID":"VT-BN-12","Station_Nam":"STAMFORD 5.0 NNE, VT","Latitude":"42.82000","Longitude":"-73.02000","Snowdepth":"25.500","Units":"in","Rept_Date":"2020-02-20 21"},"coordinates":[5685,4566]},{"type":"Point","properties":{"Station_ID":"PIXN6","Station_Nam":"PIXLEY FALLS","Latitude":"43.40330","Longitude":"-75.34310","Snowdepth":"25.330","Units":"in","Rept_Date":"2020-02-20 17"},"coordinates":[5139,4922]},{"type":"Point","properties":{"Station_ID":"SVBQ6","Station_Nam":"SAVANT BASE","Latitude":"50.28730","Longitude":"-90.65670","Snowdepth":"25.200","Units":"in","Rept_Date":"2020-02-21 06"},"coordinates":[1546,9121]},{"type":"Point","properties":{"Station_ID":"AUDQ6","Station_Nam":"AUDEN","Latitude":"48.52600","Longitude":"-82.57570","Snowdepth":"25.080","Units":"in","Rept_Date":"2020-02-21 06"},"coordinates":[3442,8047]},{"type":"Point","properties":{"Station_ID":"WRSM5","Station_Nam":"WRENSHALL","Latitude":"46.61550","Longitude":"-92.38380","Snowdepth":"25.000","Units":"in","Rept_Date":"2020-02-20 14"},"coordinates":[1141,6881]},{"type":"Point","properties":{"Station_ID":"VANM1","Station_Nam":"VAN BUREN","Latitude":"47.16600","Longitude":"-67.93900","Snowdepth":"25.000","Units":"in","Rept_Date":"2020-02-20 12"},"coordinates":[6877,7217]},{"type":"Point","properties":{"Station_ID":"TOGM5","Station_Nam":"CELINA 2E","Latitude":"47.86630","Longitude":"-93.02660","Snowdepth":"25.000","Units":"in","Rept_Date":"2020-02-20 16"},"coordinates":[990,7644]},{"type":"Point","properties":{"Station_ID":"MN-IT-23","Station_Nam":"BOVEY 13.4 N, MN","Latitude":"47.48855","Longitude":"-93.43497","Snowdepth":"25.000","Units":"in","Rept_Date":"2020-02-20 13"},"coordinates":[894,7414]},{"type":"Point","properties":{"Station_ID":"ME-PN-45","Station_Nam":"MILLINOCKET 2.7 ESE, ME","Latitude":"45.65002","Longitude":"-68.64472","Snowdepth":"25.000","Units":"in","Rept_Date":"2020-02-20 12"},"coordinates":[6711,6293]},{"type":"Point","properties":{"Station_ID":"LBKV1","Station_Nam":"LYE BROOK","Latitude":"43.05000","Longitude":"-73.03330","Snowdepth":"25.000","Units":"in","Rept_Date":"2020-02-21 06"},"coordinates":[5681,4707]},{"type":"Point","properties":{"Station_ID":"HUBN3","Station_Nam":"HUBBARD BROOK","Latitude":"43.93330","Longitude":"-71.71670","Snowdepth":"25.000","Units":"in","Rept_Date":"2020-02-20 07"},"coordinates":[5990,5245]},{"type":"Point","properties":{"Station_ID":"HRVM4","Station_Nam":"HARVEY","Latitude":"46.49080","Longitude":"-87.35470","Snowdepth":"25.000","Units":"in","Rept_Date":"2020-02-20 12"},"coordinates":[2321,6805]},{"type":"Point","properties":{"Station_ID":"CAN-NS-60","Station_Nam":"SYDNEY FORKS, CAN","Latitude":"46.05645","Longitude":"-60.31510","Snowdepth":"25.000","Units":"in","Rept_Date":"2020-02-20 13"},"coordinates":[8666,6540]},{"type":"Point","properties":{"Station_ID":"WI-IR-3","Station_Nam":"PENCE 0.1 E, WI","Latitude":"46.41555","Longitude":"-90.27013","Snowdepth":"24.500","Units":"in","Rept_Date":"2020-02-20 13"},"coordinates":[1637,6759]},{"type":"Point","properties":{"Station_ID":"MN-SL-15","Station_Nam":"CHISHOLM 0.4 WSW, MN","Latitude":"47.48557","Longitude":"-92.88690","Snowdepth":"24.500","Units":"in","Rept_Date":"2020-02-20 13"},"coordinates":[1023,7412]},{"type":"Point","properties":{"Station_ID":"MN-SL-108","Station_Nam":"IRON JUNCTION 3.4 NNW, MN","Latitude":"47.46150","Longitude":"-92.63130","Snowdepth":"24.500","Units":"in","Rept_Date":"2020-02-20 13"},"coordinates":[1083,7397]},{"type":"Point","properties":{"Station_ID":"MN-IT-17","Station_Nam":"GRAND RAPIDS 6.1 N, MN","Latitude":"47.31165","Longitude":"-93.55036","Snowdepth":"24.500","Units":"in","Rept_Date":"2020-02-20 13"},"coordinates":[867,7306]},{"type":"Point","properties":{"Station_ID":"MI-OT-17","Station_Nam":"GAYLORD 4.1 S, MI","Latitude":"44.96388","Longitude":"-84.68467","Snowdepth":"24.500","Units":"in","Rept_Date":"2020-02-20 12"},"coordinates":[2947,5874]},{"type":"Point","properties":{"Station_ID":"WI-BY-2","Station_Nam":"MELLEN 18.6 SW, WI","Latitude":"46.16937","Longitude":"-90.98090","Snowdepth":"24.000","Units":"in","Rept_Date":"2020-02-20 13"},"coordinates":[1470,6609]},{"type":"Point","properties":{"Station_ID":"RANM1","Station_Nam":"RANGELEY","Latitude":"44.98910","Longitude":"-70.67190","Snowdepth":"24.000","Units":"in","Rept_Date":"2020-02-20 11"},"coordinates":[6236,5889]},{"type":"Point","properties":{"Station_ID":"PTBN3","Station_Nam":"PITTSBURG RESERVOIR","Latitude":"45.04690","Longitude":"-71.38300","Snowdepth":"24.000","Units":"in","Rept_Date":"2020-02-20 12"},"coordinates":[6069,5925]},{"type":"Point","properties":{"Station_ID":"NY-HR-18","Station_Nam":"SALISBURY CENTER 1.8 NW, NY","Latitude":"43.16260","Longitude":"-74.80880","Snowdepth":"24.000","Units":"in","Rept_Date":"2020-02-20 11"},"coordinates":[5265,4775]},{"type":"Point","properties":{"Station_ID":"NH-CR-26","Station_Nam":"CENTER SANDWICH 4.9 E, NH","Latitude":"43.80976","Longitude":"-71.34150","Snowdepth":"24.000","Units":"in","Rept_Date":"2020-02-20 11"},"coordinates":[6078,5170]},{"type":"Point","properties":{"Station_ID":"MN-CK-6","Station_Nam":"GRAND MARAIS 4.4 W, MN","Latitude":"47.74865","Longitude":"-90.43760","Snowdepth":"24.000","Units":"in","Rept_Date":"2020-02-20 13"},"coordinates":[1597,7573]},{"type":"Point","properties":{"Station_ID":"LPLN6","Station_Nam":"LAKE PLACID 2 S","Latitude":"44.30420","Longitude":"-73.98390","Snowdepth":"24.000","Units":"in","Rept_Date":"2020-02-20 13"},"coordinates":[5458,5472]},{"type":"Point","properties":{"Station_ID":"IRMM4","Station_Nam":"WWTP","Latitude":"46.46670","Longitude":"-90.18330","Snowdepth":"24.000","Units":"in","Rept_Date":"2020-02-20 13"},"coordinates":[1657,6791]},{"type":"Point","properties":{"Station_ID":"GGRM4","Station_Nam":"GREEN GARDEN NO.2","Latitude":"46.45330","Longitude":"-87.30380","Snowdepth":"24.000","Units":"in","Rept_Date":"2020-02-20 11"},"coordinates":[2333,6782]},{"type":"Point","properties":{"Station_ID":"ESDN3","Station_Nam":"EAST SANDWICH","Latitude":"43.80990","Longitude":"-71.34250","Snowdepth":"24.000","Units":"in","Rept_Date":"2020-02-20 11"},"coordinates":[6078,5170]},{"type":"Point","properties":{"Station_ID":"EGRW3","Station_Nam":"EAGLE RIVER-SOUTH","Latitude":"45.91360","Longitude":"-89.24360","Snowdepth":"24.000","Units":"in","Rept_Date":"2020-02-20 13"},"coordinates":[1878,6453]},{"type":"Point","properties":{"Station_ID":"DLHM5","Station_Nam":"DULUTH NWS","Latitude":"46.83680","Longitude":"-92.21080","Snowdepth":"24.000","Units":"in","Rept_Date":"2020-02-21 06"},"coordinates":[1181,7016]},{"type":"Point","properties":{"Station_ID":"DLH","Station_Nam":"DULUTH, MN","Latitude":"46.83690","Longitude":"-92.21030","Snowdepth":"24.000","Units":"in","Rept_Date":"2020-02-21 00"},"coordinates":[1181,7016]},{"type":"Point","properties":{"Station_ID":"DFXM1","Station_Nam":"DOVER-FOXCROFT","Latitude":"45.18720","Longitude":"-69.18350","Snowdepth":"24.000","Units":"in","Rept_Date":"2020-02-20 12"},"coordinates":[6585,6010]},{"type":"Point","properties":{"Station_ID":"CORV1","Station_Nam":"CORINTH","Latitude":"44.00690","Longitude":"-72.31940","Snowdepth":"24.000","Units":"in","Rept_Date":"2020-02-20 12"},"coordinates":[5849,5290]},{"type":"Point","properties":{"Station_ID":"CMKW3","Station_Nam":"CLAM LAKE 4W","Latitude":"46.16940","Longitude":"-90.98080","Snowdepth":"24.000","Units":"in","Rept_Date":"2020-02-20 13"},"coordinates":[1470,6609]},{"type":"Point","properties":{"Station_ID":"CAN-PE-19","Station_Nam":"CHARLOTTETOWN 6.5 NNW, CAN","Latitude":"46.29235","Longitude":"-63.17271","Snowdepth":"24.000","Units":"in","Rept_Date":"2020-02-20 12"},"coordinates":[7995,6684]},{"type":"Point","properties":{"Station_ID":"CAN-NB-18","Station_Nam":"MCLEOD HILL 1.1 ENE, CA","Latitude":"46.02725","Longitude":"-66.67460","Snowdepth":"24.000","Units":"in","Rept_Date":"2020-02-20 12"},"coordinates":[7174,6523]},{"type":"Point","properties":{"Station_ID":"BRDM1","Station_Nam":"BRIDGEWATER","Latitude":"46.42870","Longitude":"-67.84370","Snowdepth":"24.000","Units":"in","Rept_Date":"2020-02-20 23"},"coordinates":[6899,6767]},{"type":"Point","properties":{"Station_ID":"ASTW3","Station_Nam":"ATHELSTANE","Latitude":"45.42500","Longitude":"-88.05750","Snowdepth":"24.000","Units":"in","Rept_Date":"2020-02-20 12"},"coordinates":[2156,6155]},{"type":"Point","properties":{"Station_ID":"KABQ6","Station_Nam":"CAB LAKE","Latitude":"49.59950","Longitude":"-89.17990","Snowdepth":"23.540","Units":"in","Rept_Date":"2020-02-21 06"},"coordinates":[1893,8701]},{"type":"Point","properties":{"Station_ID":"WTRW3","Station_Nam":"WINTER","Latitude":"45.79920","Longitude":"-90.99470","Snowdepth":"23.000","Units":"in","Rept_Date":"2020-02-20 15"},"coordinates":[1467,6383]},{"type":"Point","properties":{"Station_ID":"WTRM4","Station_Nam":"WATERSMEET 12WSW","Latitude":"46.22310","Longitude":"-89.40850","Snowdepth":"23.000","Units":"in","Rept_Date":"2020-02-20 12"},"coordinates":[1839,6642]},{"type":"Point","properties":{"Station_ID":"VT-BN-3","Station_Nam":"LANDGROVE 1.1 NNE, VT","Latitude":"43.29092","Longitude":"-72.83260","Snowdepth":"23.000","Units":"in","Rept_Date":"2020-02-20 12"},"coordinates":[5729,4854]},{"type":"Point","properties":{"Station_ID":"TOHM5","Station_Nam":"TWO HARBORS WWTP","Latitude":"47.01760","Longitude":"-91.66480","Snowdepth":"23.000","Units":"in","Rept_Date":"2020-02-20 13"},"coordinates":[1309,7127]},{"type":"Point","properties":{"Station_ID":"RSTW3","Station_Nam":"ROSHOLT","Latitude":"44.62710","Longitude":"-89.30600","Snowdepth":"23.000","Units":"in","Rept_Date":"2020-02-20 11"},"coordinates":[1863,5669]},{"type":"Point","properties":{"Station_ID":"RHIW3","Station_Nam":"RHINELANDER","Latitude":"45.59860","Longitude":"-89.45080","Snowdepth":"23.000","Units":"in","Rept_Date":"2020-02-20 13"},"coordinates":[1829,6261]},{"type":"Point","properties":{"Station_ID":"NH-CR-15","Station_Nam":"JACKSON 3.7 NW, NH","Latitude":"44.19069","Longitude":"-71.22598","Snowdepth":"23.000","Units":"in","Rept_Date":"2020-02-20 12"},"coordinates":[6106,5402]},{"type":"Point","properties":{"Station_ID":"LNCM1","Station_Nam":"LINCOLN WATER DISTRICT","Latitude":"45.32410","Longitude":"-68.58300","Snowdepth":"23.000","Units":"in","Rept_Date":"2020-02-20 12"},"coordinates":[6726,6094]},{"type":"Point","properties":{"Station_ID":"INDN6","Station_Nam":"INDIAN LAKE","Latitude":"43.75500","Longitude":"-74.27560","Snowdepth":"23.000","Units":"in","Rept_Date":"2020-02-20 13"},"coordinates":[5390,5137]},{"type":"Point","properties":{"Station_ID":"FISM1","Station_Nam":"FORT KENT COOP","Latitude":"47.23850","Longitude":"-68.61240","Snowdepth":"23.000","Units":"in","Rept_Date":"2020-02-20 12"},"coordinates":[6719,7261]},{"type":"Point","properties":{"Station_ID":"BTLN3","Station_Nam":"BARTLETT","Latitude":"44.08380","Longitude":"-71.29340","Snowdepth":"23.000","Units":"in","Rept_Date":"2020-02-20 12"},"coordinates":[6090,5337]},{"type":"Point","properties":{"Station_ID":"AMAM4","Station_Nam":"AMASA 1W","Latitude":"46.23470","Longitude":"-88.45440","Snowdepth":"23.000","Units":"in","Rept_Date":"2020-02-20 14"},"coordinates":[2063,6649]},{"type":"Point","properties":{"Station_ID":"WI-DG-20","Station_Nam":"SOLON SPRINGS 1.2 W, WI","Latitude":"46.35217","Longitude":"-91.84405","Snowdepth":"22.500","Units":"in","Rept_Date":"2020-02-20 13"},"coordinates":[1267,6721]},{"type":"Point","properties":{"Station_ID":"NY-OD-2","Station_Nam":"POINT ROCK 0.6 SE, NY","Latitude":"43.37335","Longitude":"-75.53840","Snowdepth":"22.500","Units":"in","Rept_Date":"2020-02-20 13"},"coordinates":[5094,4904]},{"type":"Point","properties":{"Station_ID":"CAN-NB-2","Station_Nam":"GRAFTON 2.7 NNE, CA","Latitude":"46.17062","Longitude":"-67.55330","Snowdepth":"22.500","Units":"in","Rept_Date":"2020-02-20 11"},"coordinates":[6967,6610]},{"type":"Point","properties":{"Station_ID":"QTV","Station_Nam":"QTV","Latitude":"49.66000","Longitude":"-69.35690","Snowdepth":"22.244","Units":"in","Rept_Date":"2020-02-20 12"},"coordinates":[6544,8738]},{"type":"Point","properties":{"Station_ID":"NLKN6","Station_Nam":"NORTH LAKE","Latitude":"43.51670","Longitude":"-74.95000","Snowdepth":"22.170","Units":"in","Rept_Date":"2020-02-20 19"},"coordinates":[5232,4991]},{"type":"Point","properties":{"Station_ID":"ERF21","Station_Nam":"DOTU NORTH LAKE","Latitude":"43.52000","Longitude":"-74.95000","Snowdepth":"22.170","Units":"in","Rept_Date":"2020-02-20 17"},"coordinates":[5232,4993]},{"type":"Point","properties":{"Station_ID":"VT-OL-9","Station_Nam":"GREENSBORO 2.1 NNW, VT","Latitude":"44.60528","Longitude":"-72.30940","Snowdepth":"22.000","Units":"in","Rept_Date":"2020-02-20 12"},"coordinates":[5851,5655]},{"type":"Point","properties":{"Station_ID":"VT-OL-2","Station_Nam":"BARTON 3.0 ENE, VT","Latitude":"44.75863","Longitude":"-72.11680","Snowdepth":"22.000","Units":"in","Rept_Date":"2020-02-20 12"},"coordinates":[5897,5749]},{"type":"Point","properties":{"Station_ID":"VT-CL-14","Station_Nam":"LYNDONVILLE 1.1 W, VT","Latitude":"44.53582","Longitude":"-72.02867","Snowdepth":"22.000","Units":"in","Rept_Date":"2020-02-20 12"},"coordinates":[5917,5613]},{"type":"Point","properties":{"Station_ID":"SULW3","Station_Nam":"SUMMIT LAKE","Latitude":"45.37880","Longitude":"-89.19410","Snowdepth":"22.000","Units":"in","Rept_Date":"2020-02-20 11"},"coordinates":[1889,6127]},{"type":"Point","properties":{"Station_ID":"SSMM4","Station_Nam":"SAULT STE MARIE","Latitude":"46.48660","Longitude":"-84.40250","Snowdepth":"22.000","Units":"in","Rept_Date":"2020-02-20 13"},"coordinates":[3014,6803]},{"type":"Point","properties":{"Station_ID":"RRVM4","Station_Nam":"RAPID RIVER 9S","Latitude":"45.78750","Longitude":"-86.93920","Snowdepth":"22.000","Units":"in","Rept_Date":"2020-02-20 16"},"coordinates":[2418,6376]},{"type":"Point","properties":{"Station_ID":"RGNM1","Station_Nam":"RANGELEY 2NW","Latitude":"44.98940","Longitude":"-70.67220","Snowdepth":"22.000","Units":"in","Rept_Date":"2020-02-20 11"},"coordinates":[6236,5890]},{"type":"Point","properties":{"Station_ID":"PKGM5","Station_Nam":"POKEGANA LK DAM","Latitude":"47.25080","Longitude":"-93.58610","Snowdepth":"22.000","Units":"in","Rept_Date":"2020-02-20 14"},"coordinates":[859,7269]},{"type":"Point","properties":{"Station_ID":"MN9UO3KA","Station_Nam":"GAPPAS LANDING CG 3.8 N","Latitude":"48.49307","Longitude":"-93.03634","Snowdepth":"22.000","Units":"in","Rept_Date":"2020-02-20 13"},"coordinates":[988,8027]},{"type":"Point","properties":{"Station_ID":"MI-OT-16","Station_Nam":"GAYLORD 2.2 SSE, MI","Latitude":"44.99441","Longitude":"-84.65820","Snowdepth":"22.000","Units":"in","Rept_Date":"2020-02-20 12"},"coordinates":[2954,5893]},{"type":"Point","properties":{"Station_ID":"KABM5","Station_Nam":"KABETOGAMA LAKE VISITOR CTR","Latitude":"48.40880","Longitude":"-93.04840","Snowdepth":"22.000","Units":"in","Rept_Date":"2020-02-20 13"},"coordinates":[985,7975]},{"type":"Point","properties":{"Station_ID":"GMRM5","Station_Nam":"GRAND MARIAS WATER TREATMENT PLANT","Latitude":"47.75180","Longitude":"-90.32820","Snowdepth":"22.000","Units":"in","Rept_Date":"2020-02-20 14"},"coordinates":[1623,7574]},{"type":"Point","properties":{"Station_ID":"ESGM1","Station_Nam":"EAST SANGERVILLE","Latitude":"45.13690","Longitude":"-69.28060","Snowdepth":"22.000","Units":"in","Rept_Date":"2020-02-20 12"},"coordinates":[6562,5980]},{"type":"Point","properties":{"Station_ID":"ELYM5","Station_Nam":"ELY","Latitude":"47.90560","Longitude":"-91.82830","Snowdepth":"22.000","Units":"in","Rept_Date":"2020-02-20 14"},"coordinates":[1271,7668]},{"type":"Point","properties":{"Station_ID":"CSLM5","Station_Nam":"CASS LAKE,MN","Latitude":"47.38470","Longitude":"-94.61470","Snowdepth":"22.000","Units":"in","Rept_Date":"2020-02-20 14"},"coordinates":[617,7351]},{"type":"Point","properties":{"Station_ID":"CEFM4","Station_Nam":"EXPERIMENT FARM #2","Latitude":"46.33330","Longitude":"-86.91670","Snowdepth":"22.000","Units":"in","Rept_Date":"2020-02-20 13"},"coordinates":[2424,6709]},{"type":"Point","properties":{"Station_ID":"CAN-NS-94","Station_Nam":"MARGAREE FORKS 2.6 SSE CBN, CAN","Latitude":"46.30937","Longitude":"-61.07603","Snowdepth":"22.000","Units":"in","Rept_Date":"2020-02-20 13"},"coordinates":[8487,6695]},{"type":"Point","properties":{"Station_ID":"AROM4","Station_Nam":"ARNOLD,MI","Latitude":"46.06670","Longitude":"-87.48330","Snowdepth":"22.000","Units":"in","Rept_Date":"2020-02-20 13"},"coordinates":[2291,6547]},{"type":"Point","properties":{"Station_ID":"ANJM4","Station_Nam":"SNOW PAID OBSERVER FOR KANJ","Latitude":"46.48670","Longitude":"-84.40260","Snowdepth":"22.000","Units":"in","Rept_Date":"2020-02-20 18"},"coordinates":[3014,6803]},{"type":"Point","properties":{"Station_ID":"ANJ","Station_Nam":"SAULT STE MARIE","Latitude":"46.46670","Longitude":"-84.36670","Snowdepth":"22.000","Units":"in","Rept_Date":"2020-02-21 00"},"coordinates":[3022,6791]},{"type":"Point","properties":{"Station_ID":"AGNW3","Station_Nam":"ARGONNE-1.5 NW","Latitude":"45.67360","Longitude":"-88.90380","Snowdepth":"22.000","Units":"in","Rept_Date":"2020-02-20 13"},"coordinates":[1957,6307]},{"type":"Point","properties":{"Station_ID":"QCX","Station_Nam":"QCX","Latitude":"51.32830","Longitude":"-70.08060","Snowdepth":"21.968","Units":"in","Rept_Date":"2020-02-20 12"},"coordinates":[6374,9756]},{"type":"Point","properties":{"Station_ID":"QMD","Station_Nam":"QMD","Latitude":"49.29060","Longitude":"-75.84500","Snowdepth":"21.772","Units":"in","Rept_Date":"2020-02-20 12"},"coordinates":[5022,8513]},{"type":"Point","properties":{"Station_ID":"WI-BY-22","Station_Nam":"MASON 11.5 WNW, WI","Latitude":"46.50198","Longitude":"-91.28339","Snowdepth":"21.500","Units":"in","Rept_Date":"2020-02-20 14"},"coordinates":[1399,6812]},{"type":"Point","properties":{"Station_ID":"MN-IT-1","Station_Nam":"GRAND RAPIDS 2.0 E, MN","Latitude":"47.22266","Longitude":"-93.49600","Snowdepth":"21.500","Units":"in","Rept_Date":"2020-02-20 12"},"coordinates":[880,7252]},{"type":"Point","properties":{"Station_ID":"QMA","Station_Nam":"QMA","Latitude":"50.10330","Longitude":"-70.47190","Snowdepth":"21.339","Units":"in","Rept_Date":"2020-02-20 12"},"coordinates":[6283,9009]},{"type":"Point","properties":{"Station_ID":"SOCQ6","Station_Nam":"SOCKET LAKE","Latitude":"50.77870","Longitude":"-91.79300","Snowdepth":"21.140","Units":"in","Rept_Date":"2020-02-21 06"},"coordinates":[1279,9421]},{"type":"Point","properties":{"Station_ID":"WNBM5","Station_Nam":"DAM","Latitude":"47.43060","Longitude":"-94.05000","Snowdepth":"21.000","Units":"in","Rept_Date":"2020-02-20 14"},"coordinates":[750,7379]},{"type":"Point","properties":{"Station_ID":"WLKW3","Station_Nam":"WHITE LAKE 1 SE","Latitude":"45.14520","Longitude":"-88.74160","Snowdepth":"21.000","Units":"in","Rept_Date":"2020-02-20 14"},"coordinates":[1995,5985]},{"type":"Point","properties":{"Station_ID":"WI-AS-4","Station_Nam":"ASHLAND 0.5 WNW, WI","Latitude":"46.58240","Longitude":"-90.88390","Snowdepth":"21.000","Units":"in","Rept_Date":"2020-02-20 13"},"coordinates":[1493,6861]},{"type":"Point","properties":{"Station_ID":"VT-WS-30","Station_Nam":"WOODBURY 3.4 NNW, VT","Latitude":"44.48825","Longitude":"-72.43258","Snowdepth":"21.000","Units":"in","Rept_Date":"2020-02-20 12"},"coordinates":[5822,5584]},{"type":"Point","properties":{"Station_ID":"SAUW3","Station_Nam":"WAUSAU WSAW TV","Latitude":"44.94630","Longitude":"-89.62220","Snowdepth":"21.000","Units":"in","Rept_Date":"2020-02-21 04"},"coordinates":[1789,5863]},{"type":"Point","properties":{"Station_ID":"RHLW3","Station_Nam":"RHINELANDER 4NE","Latitude":"45.65270","Longitude":"-89.30740","Snowdepth":"21.000","Units":"in","Rept_Date":"2020-02-20 12"},"coordinates":[1863,6294]},{"type":"Point","properties":{"Station_ID":"PELW3","Station_Nam":"PELLA 3SE","Latitude":"44.73580","Longitude":"-88.73780","Snowdepth":"21.000","Units":"in","Rept_Date":"2020-02-20 11"},"coordinates":[1996,5735]},{"type":"Point","properties":{"Station_ID":"PEKN6","Station_Nam":"PECK LAKE","Latitude":"43.11500","Longitude":"-74.42360","Snowdepth":"21.000","Units":"in","Rept_Date":"2020-02-20 13"},"coordinates":[5355,4746]},{"type":"Point","properties":{"Station_ID":"NY-FK-9","Station_Nam":"GABRIELS 1.3 SE, NY","Latitude":"44.41934","Longitude":"-74.16194","Snowdepth":"21.000","Units":"in","Rept_Date":"2020-02-20 12"},"coordinates":[5417,5542]},{"type":"Point","properties":{"Station_ID":"NCON3","Station_Nam":"NORTH CONWAY","Latitude":"44.05620","Longitude":"-71.12970","Snowdepth":"21.000","Units":"in","Rept_Date":"2020-02-20 12"},"coordinates":[6128,5320]},{"type":"Point","properties":{"Station_ID":"NCBN6","Station_Nam":"NEWCOMB","Latitude":"43.97070","Longitude":"-74.22200","Snowdepth":"21.000","Units":"in","Rept_Date":"2020-02-20 13"},"coordinates":[5403,5268]},{"type":"Point","properties":{"Station_ID":"MTQM4","Station_Nam":"MANISTIQUE WWTP","Latitude":"45.95120","Longitude":"-86.25130","Snowdepth":"21.000","Units":"in","Rept_Date":"2020-02-20 12"},"coordinates":[2580,6476]},{"type":"Point","properties":{"Station_ID":"MRAM4","Station_Nam":"MORAN","Latitude":"45.99030","Longitude":"-84.83610","Snowdepth":"21.000","Units":"in","Rept_Date":"2020-02-20 13"},"coordinates":[2912,6500]},{"type":"Point","properties":{"Station_ID":"ME-FR-4","Station_Nam":"NEW SHARON 2.0 NW, ME","Latitude":"44.66582","Longitude":"-70.02720","Snowdepth":"21.000","Units":"in","Rept_Date":"2020-02-20 12"},"coordinates":[6387,5692]},{"type":"Point","properties":{"Station_ID":"ME-CM-98","Station_Nam":"SEBAGO 2.4 ESE, ME","Latitude":"43.88000","Longitude":"-70.63000","Snowdepth":"21.000","Units":"in","Rept_Date":"2020-02-20 14"},"coordinates":[6245,5213]},{"type":"Point","properties":{"Station_ID":"LILM1","Station_Nam":"LILLE","Latitude":"47.27770","Longitude":"-68.10520","Snowdepth":"21.000","Units":"in","Rept_Date":"2020-02-20 12"},"coordinates":[6838,7285]},{"type":"Point","properties":{"Station_ID":"LEIM5","Station_Nam":"ORR 3E","Latitude":"48.05810","Longitude":"-92.75220","Snowdepth":"21.000","Units":"in","Rept_Date":"2020-02-20 12"},"coordinates":[1054,7761]},{"type":"Point","properties":{"Station_ID":"FARM1","Station_Nam":"FARMINGTON","Latitude":"44.68930","Longitude":"-70.15640","Snowdepth":"21.000","Units":"in","Rept_Date":"2020-02-20 12"},"coordinates":[6357,5707]},{"type":"Point","properties":{"Station_ID":"EMBM5","Station_Nam":"EMBARASS,MN","Latitude":"47.65810","Longitude":"-92.19580","Snowdepth":"21.000","Units":"in","Rept_Date":"2020-02-20 12"},"coordinates":[1185,7517]},{"type":"Point","properties":{"Station_ID":"COUW3","Station_Nam":"COUDERAY,WI","Latitude":"45.86670","Longitude":"-91.45000","Snowdepth":"21.000","Units":"in","Rept_Date":"2020-02-20 22"},"coordinates":[1360,6425]},{"type":"Point","properties":{"Station_ID":"CLKM4","Station_Nam":"CLARKSBURG","Latitude":"46.49910","Longitude":"-87.84500","Snowdepth":"21.000","Units":"in","Rept_Date":"2020-02-20 12"},"coordinates":[2206,6810]},{"type":"Point","properties":{"Station_ID":"BOON6","Station_Nam":"BOONVILLE 4 SSW","Latitude":"43.43610","Longitude":"-75.36970","Snowdepth":"21.000","Units":"in","Rept_Date":"2020-02-20 12"},"coordinates":[5133,4942]},{"type":"Point","properties":{"Station_ID":"AWXW3","Station_Nam":"ASHLAND","Latitude":"46.58240","Longitude":"-90.88390","Snowdepth":"21.000","Units":"in","Rept_Date":"2020-02-20 13"},"coordinates":[1493,6861]},{"type":"Point","properties":{"Station_ID":"AVTW3","Station_Nam":"ARBOR VITAE-JOHNSON LAKE","Latitude":"45.89940","Longitude":"-89.72670","Snowdepth":"21.000","Units":"in","Rept_Date":"2020-02-20 12"},"coordinates":[1764,6445]},{"type":"Point","properties":{"Station_ID":"APXM4","Station_Nam":"GAYLORD 9SSW","Latitude":"44.90720","Longitude":"-84.71880","Snowdepth":"21.000","Units":"in","Rept_Date":"2020-02-21 06"},"coordinates":[2939,5839]},{"type":"Point","properties":{"Station_ID":"QYR","Station_Nam":"QYR","Latitude":"48.87220","Longitude":"-75.61470","Snowdepth":"20.748","Units":"in","Rept_Date":"2020-02-20 12"},"coordinates":[5076,8258]},{"type":"Point","properties":{"Station_ID":"NH-GR-49","Station_Nam":"PLYMOUTH 3.7 N, NH","Latitude":"43.79048","Longitude":"-71.68413","Snowdepth":"20.500","Units":"in","Rept_Date":"2020-02-20 12"},"coordinates":[5998,5158]},{"type":"Point","properties":{"Station_ID":"MN-BK-6","Station_Nam":"LAKE PARK 6.0 S, MN","Latitude":"46.79850","Longitude":"-96.12180","Snowdepth":"20.500","Units":"in","Rept_Date":"2020-02-20 13"},"coordinates":[264,6993]},{"type":"Point","properties":{"Station_ID":"MI-CX-7","Station_Nam":"EAST JORDAN 2.1 NNW, MI","Latitude":"45.18639","Longitude":"-85.14750","Snowdepth":"20.500","Units":"in","Rept_Date":"2020-02-20 13"},"coordinates":[2839,6010]},{"type":"Point","properties":{"Station_ID":"QLP","Station_Nam":"QLP","Latitude":"48.13920","Longitude":"-72.63830","Snowdepth":"20.354","Units":"in","Rept_Date":"2020-02-20 12"},"coordinates":[5774,7811]},{"type":"Point","properties":{"Station_ID":"ZNOM4","Station_Nam":"NORWAY","Latitude":"45.77810","Longitude":"-87.89560","Snowdepth":"20.000","Units":"in","Rept_Date":"2020-02-21 01"},"coordinates":[2194,6371]},{"type":"Point","properties":{"Station_ID":"WTNM4","Station_Nam":"WATTON 2WSW","Latitude":"46.52660","Longitude":"-88.64240","Snowdepth":"20.000","Units":"in","Rept_Date":"2020-02-20 13"},"coordinates":[2019,6827]},{"type":"Point","properties":{"Station_ID":"WI-LN-2","Station_Nam":"MERRILL 7.0 W, WI","Latitude":"45.17746","Longitude":"-89.84820","Snowdepth":"20.000","Units":"in","Rept_Date":"2020-02-20 12"},"coordinates":[1736,6004]},{"type":"Point","properties":{"Station_ID":"WI-BY-1","Station_Nam":"BAYFIELD 8.8 N, WI","Latitude":"46.93855","Longitude":"-90.83490","Snowdepth":"20.000","Units":"in","Rept_Date":"2020-02-20 13"},"coordinates":[1504,7078]},{"type":"Point","properties":{"Station_ID":"WHFN6","Station_Nam":"WILMINGTON 2W","Latitude":"44.39310","Longitude":"-73.85890","Snowdepth":"20.000","Units":"in","Rept_Date":"2020-02-20 13"},"coordinates":[5488,5526]},{"type":"Point","properties":{"Station_ID":"VT-ES-3","Station_Nam":"LUNENBURG 2.3 NNW, VT","Latitude":"44.49324","Longitude":"-71.70446","Snowdepth":"20.000","Units":"in","Rept_Date":"2020-02-20 11"},"coordinates":[5993,5587]},{"type":"Point","properties":{"Station_ID":"TAKW3","Station_Nam":"RICE RESERVOIR NO. 2","Latitude":"45.53770","Longitude":"-89.73220","Snowdepth":"20.000","Units":"in","Rept_Date":"2020-02-20 13"},"coordinates":[1763,6224]},{"type":"Point","properties":{"Station_ID":"SHIW3","Station_Nam":"SHIOCTON","Latitude":"44.43890","Longitude":"-88.58390","Snowdepth":"20.000","Units":"in","Rept_Date":"2020-02-20 15"},"coordinates":[2032,5554]},{"type":"Point","properties":{"Station_ID":"RARM4","Station_Nam":"RAPID RIVER 1 SW","Latitude":"45.91500","Longitude":"-86.98800","Snowdepth":"20.000","Units":"in","Rept_Date":"2020-02-20 12"},"coordinates":[2407,6454]},{"type":"Point","properties":{"Station_ID":"NUMN3","Station_Nam":"NORTHUMBERLAND","Latitude":"44.52830","Longitude":"-71.50440","Snowdepth":"20.000","Units":"in","Rept_Date":"2020-02-20 13"},"coordinates":[6040,5608]},{"type":"Point","properties":{"Station_ID":"MLLW3","Station_Nam":"MERRILL 8W","Latitude":"45.17810","Longitude":"-89.84810","Snowdepth":"20.000","Units":"in","Rept_Date":"2020-02-20 12"},"coordinates":[1736,6005]},{"type":"Point","properties":{"Station_ID":"MI-DL-1","Station_Nam":"GARDEN CORNERS 0.8 NW, MI","Latitude":"45.89815","Longitude":"-86.54850","Snowdepth":"20.000","Units":"in","Rept_Date":"2020-02-20 13"},"coordinates":[2510,6444]},{"type":"Point","properties":{"Station_ID":"LNKM1","Station_Nam":"LINCOLN SANITARY DISTRICT/WTP","Latitude":"45.37520","Longitude":"-68.50820","Snowdepth":"20.000","Units":"in","Rept_Date":"2020-02-20 12"},"coordinates":[6743,6125]},{"type":"Point","properties":{"Station_ID":"INL","Station_Nam":"FALLS INTERNATIONAL ARPT","Latitude":"48.56640","Longitude":"-93.40310","Snowdepth":"20.000","Units":"in","Rept_Date":"2020-02-21 00"},"coordinates":[902,8071]},{"type":"Point","properties":{"Station_ID":"IFSM5","Station_Nam":"INTERNATIONAL FALLS SNOW","Latitude":"48.57780","Longitude":"-93.39640","Snowdepth":"20.000","Units":"in","Rept_Date":"2020-02-20 12"},"coordinates":[903,8078]},{"type":"Point","properties":{"Station_ID":"GDCM4","Station_Nam":"GARDEN CORNERS","Latitude":"45.89830","Longitude":"-86.54850","Snowdepth":"20.000","Units":"in","Rept_Date":"2020-02-20 13"},"coordinates":[2510,6444]},{"type":"Point","properties":{"Station_ID":"EJNM4","Station_Nam":"EAST JORDAN 2NW","Latitude":"45.18630","Longitude":"-85.14770","Snowdepth":"20.000","Units":"in","Rept_Date":"2020-02-20 13"},"coordinates":[2839,6010]},{"type":"Point","properties":{"Station_ID":"CAN-NS-103","Station_Nam":"TRAFALGAR 4.9 WSW, CAN","Latitude":"45.26217","Longitude":"-62.72285","Snowdepth":"20.000","Units":"in","Rept_Date":"2020-02-20 12"},"coordinates":[8101,6056]},{"type":"Point","properties":{"Station_ID":"CAN-NB-13","Station_Nam":"BATHURST 3.8 NW, CAN","Latitude":"47.64212","Longitude":"-65.68756","Snowdepth":"20.000","Units":"in","Rept_Date":"2020-02-20 09"},"coordinates":[7405,7508]},{"type":"Point","properties":{"Station_ID":"BREW3","Station_Nam":"SURING","Latitude":"44.99580","Longitude":"-88.37860","Snowdepth":"20.000","Units":"in","Rept_Date":"2020-02-20 13"},"coordinates":[2081,5893]},{"type":"Point","properties":{"Station_ID":"BFHW3","Station_Nam":"BAYFIELD FISH HATCHERY","Latitude":"46.78670","Longitude":"-90.86420","Snowdepth":"20.000","Units":"in","Rept_Date":"2020-02-20 14"},"coordinates":[1497,6986]},{"type":"Point","properties":{"Station_ID":"BETM1","Station_Nam":"BETHEL 6 SSE","Latitude":"44.32000","Longitude":"-70.75680","Snowdepth":"20.000","Units":"in","Rept_Date":"2020-02-20 12"},"coordinates":[6216,5481]},{"type":"Point","properties":{"Station_ID":"BAUM5","Station_Nam":"BAUDETTE,MN","Latitude":"48.71670","Longitude":"-94.61670","Snowdepth":"20.000","Units":"in","Rept_Date":"2020-02-20 21"},"coordinates":[617,8163]},{"type":"Point","properties":{"Station_ID":"ERJ23","Station_Nam":"DOTU HILLSIDE","Latitude":"43.37000","Longitude":"-75.38000","Snowdepth":"19.670","Units":"in","Rept_Date":"2020-02-20 17"},"coordinates":[5131,4902]},{"type":"Point","properties":{"Station_ID":"EHLN6","Station_Nam":"HILLSIDE","Latitude":"43.36170","Longitude":"-75.39000","Snowdepth":"19.670","Units":"in","Rept_Date":"2020-02-20 19"},"coordinates":[5128,4897]},{"type":"Point","properties":{"Station_ID":"WI-ON-6","Station_Nam":"RHINELANDER 5.2 N, WI","Latitude":"45.71388","Longitude":"-89.42150","Snowdepth":"19.500","Units":"in","Rept_Date":"2020-02-20 14"},"coordinates":[1836,6331]},{"type":"Point","properties":{"Station_ID":"VT-OL-5","Station_Nam":"DERBY CENTER 1.8 NW, VT","Latitude":"44.97200","Longitude":"-72.14780","Snowdepth":"19.500","Units":"in","Rept_Date":"2020-02-20 12"},"coordinates":[5889,5879]},{"type":"Point","properties":{"Station_ID":"NY-ES-6","Station_Nam":"OLMSTEDVILLE 4.6 NNE, NY","Latitude":"43.83350","Longitude":"-73.89780","Snowdepth":"19.500","Units":"in","Rept_Date":"2020-02-20 13"},"coordinates":[5479,5185]},{"type":"Point","properties":{"Station_ID":"MI-AT-6","Station_Nam":"MANCELONA 0.5 ESE, MI","Latitude":"44.89981","Longitude":"-85.05100","Snowdepth":"19.500","Units":"in","Rept_Date":"2020-02-20 13"},"coordinates":[2861,5835]},{"type":"Point","properties":{"Station_ID":"QTM","Station_Nam":"QTM","Latitude":"51.05780","Longitude":"-72.57190","Snowdepth":"19.331","Units":"in","Rept_Date":"2020-02-20 12"},"coordinates":[5790,9591]},{"type":"Point","properties":{"Station_ID":"QLI","Station_Nam":"QLI","Latitude":"50.27080","Longitude":"-73.92280","Snowdepth":"19.331","Units":"in","Rept_Date":"2020-02-20 12"},"coordinates":[5473,9111]},{"type":"Point","properties":{"Station_ID":"QLM","Station_Nam":"QLM","Latitude":"48.92030","Longitude":"-70.25280","Snowdepth":"19.252","Units":"in","Rept_Date":"2020-02-20 12"},"coordinates":[6334,8287]},{"type":"Point","properties":{"Station_ID":"CAN-ON-757","Station_Nam":"SAULT STE. MARIE 2.8 ESE - GLFC, CAN","Latitude":"46.50300","Longitude":"-84.30300","Snowdepth":"19.200","Units":"in","Rept_Date":"2020-02-20 13"},"coordinates":[3037,6813]},{"type":"Point","properties":{"Station_ID":"WORV1","Station_Nam":"WORCESTER 2 W","Latitude":"44.37470","Longitude":"-72.58220","Snowdepth":"19.000","Units":"in","Rept_Date":"2020-02-20 12"},"coordinates":[5787,5515]},{"type":"Point","properties":{"Station_ID":"WI-RS-1","Station_Nam":"LADYSMITH 2.8 WNW, WI","Latitude":"45.48180","Longitude":"-91.14680","Snowdepth":"19.000","Units":"in","Rept_Date":"2020-02-20 13"},"coordinates":[1431,6190]},{"type":"Point","properties":{"Station_ID":"WI-PR-2","Station_Nam":"BUTTERNUT 5.9 SW, WI","Latitude":"45.96501","Longitude":"-90.59750","Snowdepth":"19.000","Units":"in","Rept_Date":"2020-02-20 12"},"coordinates":[1560,6485]},{"type":"Point","properties":{"Station_ID":"WASW3","Station_Nam":"WASHINGTON IS","Latitude":"45.35800","Longitude":"-86.89110","Snowdepth":"19.000","Units":"in","Rept_Date":"2020-02-20 13"},"coordinates":[2430,6114]},{"type":"Point","properties":{"Station_ID":"VT-OG-11","Station_Nam":"VERSHIRE 1.5 ESE, VT","Latitude":"43.96138","Longitude":"-72.29777","Snowdepth":"19.000","Units":"in","Rept_Date":"2020-02-20 12"},"coordinates":[5854,5263]},{"type":"Point","properties":{"Station_ID":"STMM4","Station_Nam":"STAMBAUGH 2SSE","Latitude":"46.05550","Longitude":"-88.62780","Snowdepth":"19.000","Units":"in","Rept_Date":"2020-02-20 13"},"coordinates":[2022,6540]},{"type":"Point","properties":{"Station_ID":"PERV1","Station_Nam":"PERU","Latitude":"43.26670","Longitude":"-72.90000","Snowdepth":"19.000","Units":"in","Rept_Date":"2020-02-20 12"},"coordinates":[5713,4839]},{"type":"Point","properties":{"Station_ID":"NYMM5","Station_Nam":"NEW YORK MILLS","Latitude":"46.50920","Longitude":"-95.37990","Snowdepth":"19.000","Units":"in","Rept_Date":"2020-02-20 13"},"coordinates":[438,6817]},{"type":"Point","properties":{"Station_ID":"NH-CS-7","Station_Nam":"LANCASTER 0.5 N, NH","Latitude":"44.49611","Longitude":"-71.57640","Snowdepth":"19.000","Units":"in","Rept_Date":"2020-02-20 12"},"coordinates":[6023,5589]},{"type":"Point","properties":{"Station_ID":"MNMZK7NS","Station_Nam":"NEW YORK MILLS 0.2 NNE","Latitude":"46.52057","Longitude":"-95.37394","Snowdepth":"19.000","Units":"in","Rept_Date":"2020-02-20 13"},"coordinates":[439,6823]},{"type":"Point","properties":{"Station_ID":"MIEM4","Station_Nam":"MICHIGAMME 3WNW","Latitude":"46.54530","Longitude":"-88.18000","Snowdepth":"19.000","Units":"in","Rept_Date":"2020-02-20 13"},"coordinates":[2127,6839]},{"type":"Point","properties":{"Station_ID":"MI-CP-14","Station_Nam":"SAULT STE. MARIE 2.2 E, MI","Latitude":"46.48933","Longitude":"-84.31971","Snowdepth":"19.000","Units":"in","Rept_Date":"2020-02-20 12"},"coordinates":[3033,6804]},{"type":"Point","properties":{"Station_ID":"CAN-QC-37","Station_Nam":"LAVAL 3.8 SSW, CAN","Latitude":"45.55358","Longitude":"-73.76976","Snowdepth":"19.000","Units":"in","Rept_Date":"2020-02-20 13"},"coordinates":[5509,6234]},{"type":"Point","properties":{"Station_ID":"ATY","Station_Nam":"WATERTOWN MUNICIPAL AIRPORT","Latitude":"44.91420","Longitude":"-97.15440","Snowdepth":"19.000","Units":"in","Rept_Date":"2020-02-21 00"},"coordinates":[21,5844]},{"type":"Point","properties":{"Station_ID":"QIQ","Station_Nam":"QIQ","Latitude":"49.82390","Longitude":"-68.54310","Snowdepth":"18.937","Units":"in","Rept_Date":"2020-02-20 12"},"coordinates":[6735,8838]},{"type":"Point","properties":{"Station_ID":"CAN-QC-51","Station_Nam":"BELOEIL 0.7 NW, CAN","Latitude":"45.58049","Longitude":"-73.21218","Snowdepth":"18.900","Units":"in","Rept_Date":"2020-02-20 12"},"coordinates":[5640,6250]},{"type":"Point","properties":{"Station_ID":"MN-IT-7","Station_Nam":"GRAND RAPIDS 6.2 SSW, MN","Latitude":"47.13687","Longitude":"-93.56660","Snowdepth":"18.800","Units":"in","Rept_Date":"2020-02-20 12"},"coordinates":[863,7199]},{"type":"Point","properties":{"Station_ID":"OGIQ6","Station_Nam":"OGOKI CAMP","Latitude":"50.76680","Longitude":"-87.85820","Snowdepth":"18.660","Units":"in","Rept_Date":"2020-02-21 06"},"coordinates":[2203,9413]},{"type":"Point","properties":{"Station_ID":"VT-WS-33","Station_Nam":"WAITSFIELD 3.5 WNW, VT","Latitude":"44.20052","Longitude":"-72.89421","Snowdepth":"18.500","Units":"in","Rept_Date":"2020-02-20 12"},"coordinates":[5714,5408]},{"type":"Point","properties":{"Station_ID":"NH-CR-9","Station_Nam":"MADISON 1.7 SE, NH","Latitude":"43.87928","Longitude":"-71.12660","Snowdepth":"18.500","Units":"in","Rept_Date":"2020-02-20 12"},"coordinates":[6129,5212]},{"type":"Point","properties":{"Station_ID":"ME-FR-22","Station_Nam":"FARMINGTON 4.8 NNW, ME","Latitude":"44.73396","Longitude":"-70.18007","Snowdepth":"18.500","Units":"in","Rept_Date":"2020-02-20 14"},"coordinates":[6351,5734]},{"type":"Point","properties":{"Station_ID":"QCO","Station_Nam":"QCO","Latitude":"51.45280","Longitude":"-72.20110","Snowdepth":"18.465","Units":"in","Rept_Date":"2020-02-20 12"},"coordinates":[5877,9832]},{"type":"Point","properties":{"Station_ID":"WWWW3","Station_Nam":"WAUPACA","Latitude":"44.35470","Longitude":"-89.05920","Snowdepth":"18.000","Units":"in","Rept_Date":"2020-02-20 14"},"coordinates":[1921,5502]},{"type":"Point","properties":{"Station_ID":"WUNW3","Station_Nam":"WAUSAU-NORTHEAST","Latitude":"44.97310","Longitude":"-89.61690","Snowdepth":"18.000","Units":"in","Rept_Date":"2020-02-20 12"},"coordinates":[1790,5880]},{"type":"Point","properties":{"Station_ID":"WSFW3","Station_Nam":"TOWN OF WESTFORD","Latitude":"43.47190","Longitude":"-88.88250","Snowdepth":"18.000","Units":"in","Rept_Date":"2020-02-20 13"},"coordinates":[1962,4964]},{"type":"Point","properties":{"Station_ID":"WI-PT-8","Station_Nam":"RUDOLPH 2.1 NNE, WI","Latitude":"44.52553","Longitude":"-89.78677","Snowdepth":"18.000","Units":"in","Rept_Date":"2020-02-20 11"},"coordinates":[1750,5607]},{"type":"Point","properties":{"Station_ID":"WI-DD-16","Station_Nam":"BEAVER DAM 2.4 WNW, WI","Latitude":"43.47210","Longitude":"-88.88280","Snowdepth":"18.000","Units":"in","Rept_Date":"2020-02-20 13"},"coordinates":[1962,4964]},{"type":"Point","properties":{"Station_ID":"VT-WR-2","Station_Nam":"POMFRET 2.6 N, VT","Latitude":"43.74230","Longitude":"-72.52550","Snowdepth":"18.000","Units":"in","Rept_Date":"2020-02-20 12"},"coordinates":[5801,5129]},{"type":"Point","properties":{"Station_ID":"SHHW3","Station_Nam":"SHAWANO 2SSW","Latitude":"44.76310","Longitude":"-88.61830","Snowdepth":"18.000","Units":"in","Rept_Date":"2020-02-20 14"},"coordinates":[2024,5752]},{"type":"Point","properties":{"Station_ID":"SD-BK-9","Station_Nam":"BRUCE 4.1 NE, SD","Latitude":"44.48479","Longitude":"-96.83750","Snowdepth":"18.000","Units":"in","Rept_Date":"2020-02-20 13"},"coordinates":[96,5582]},{"type":"Point","properties":{"Station_ID":"OCON6","Station_Nam":"OSCEOLA","Latitude":"43.49910","Longitude":"-75.71210","Snowdepth":"18.000","Units":"in","Rept_Date":"2020-02-20 12"},"coordinates":[5053,4981]},{"type":"Point","properties":{"Station_ID":"NUMM5","Station_Nam":"NEW ULM 3SE","Latitude":"44.29450","Longitude":"-94.40840","Snowdepth":"18.000","Units":"in","Rept_Date":"2020-02-20 12"},"coordinates":[666,5466]},{"type":"Point","properties":{"Station_ID":"NH-MR-41","Station_Nam":"NEWBURY 1.6 NW, NH","Latitude":"43.33667","Longitude":"-72.06060","Snowdepth":"18.000","Units":"in","Rept_Date":"2020-02-20 12"},"coordinates":[5910,4882]},{"type":"Point","properties":{"Station_ID":"MQRW3","Station_Nam":"MINOCQUA","Latitude":"45.88630","Longitude":"-89.73220","Snowdepth":"18.000","Units":"in","Rept_Date":"2020-02-20 12"},"coordinates":[1763,6437]},{"type":"Point","properties":{"Station_ID":"MNF74YNU","Station_Nam":"NEW ULM 3.3 ESE","Latitude":"44.29029","Longitude":"-94.40196","Snowdepth":"18.000","Units":"in","Rept_Date":"2020-02-20 11"},"coordinates":[667,5463]},{"type":"Point","properties":{"Station_ID":"MN7M8EBJ","Station_Nam":"LUTSEN 15.7 NNW","Latitude":"47.85324","Longitude":"-89.92908","Snowdepth":"18.000","Units":"in","Rept_Date":"2020-02-20 14"},"coordinates":[1717,7636]},{"type":"Point","properties":{"Station_ID":"MN-MW-8","Station_Nam":"AUSTIN 2.4 W, MN","Latitude":"43.67190","Longitude":"-93.02280","Snowdepth":"18.000","Units":"in","Rept_Date":"2020-02-20 13"},"coordinates":[991,5086]},{"type":"Point","properties":{"Station_ID":"MI-OT-4","Station_Nam":"GAYLORD 1.7 WNW, MI","Latitude":"45.03280","Longitude":"-84.71090","Snowdepth":"18.000","Units":"in","Rept_Date":"2020-02-20 13"},"coordinates":[2941,5916]},{"type":"Point","properties":{"Station_ID":"ME-CM-86","Station_Nam":"POWNAL 4.1 S, ME","Latitude":"43.85370","Longitude":"-70.17210","Snowdepth":"18.000","Units":"in","Rept_Date":"2020-02-20 12"},"coordinates":[6353,5197]},{"type":"Point","properties":{"Station_ID":"JCBM4","Station_Nam":"JACOBSVILLE","Latitude":"47.00830","Longitude":"-88.43180","Snowdepth":"18.000","Units":"in","Rept_Date":"2020-02-20 12"},"coordinates":[2068,7121]},{"type":"Point","properties":{"Station_ID":"INDM5","Station_Nam":"INDUS,MN","Latitude":"48.61670","Longitude":"-93.90000","Snowdepth":"18.000","Units":"in","Rept_Date":"2020-02-20 14"},"coordinates":[785,8102]},{"type":"Point","properties":{"Station_ID":"HRTM1","Station_Nam":"HARTFORD","Latitude":"44.37440","Longitude":"-70.31620","Snowdepth":"18.000","Units":"in","Rept_Date":"2020-02-20 12"},"coordinates":[6319,5514]},{"type":"Point","properties":{"Station_ID":"HGHN6","Station_Nam":"HIGHMARKET","Latitude":"43.57520","Longitude":"-75.52070","Snowdepth":"18.000","Units":"in","Rept_Date":"2020-02-20 10"},"coordinates":[5098,5027]},{"type":"Point","properties":{"Station_ID":"GAYM4","Station_Nam":"GAYLORD","Latitude":"45.03320","Longitude":"-84.71130","Snowdepth":"18.000","Units":"in","Rept_Date":"2020-02-20 13"},"coordinates":[2941,5916]},{"type":"Point","properties":{"Station_ID":"COTM5","Station_Nam":"COTTON","Latitude":"47.16870","Longitude":"-92.46290","Snowdepth":"18.000","Units":"in","Rept_Date":"2020-02-20 12"},"coordinates":[1122,7219]},{"type":"Point","properties":{"Station_ID":"CHRM4","Station_Nam":"CHARLEVOIX","Latitude":"45.31720","Longitude":"-85.26720","Snowdepth":"18.000","Units":"in","Rept_Date":"2020-02-20 13"},"coordinates":[2811,6090]},{"type":"Point","properties":{"Station_ID":"BWNM5","Station_Nam":"BROWNTON WWTP","Latitude":"44.73350","Longitude":"-94.34180","Snowdepth":"18.000","Units":"in","Rept_Date":"2020-02-20 14"},"coordinates":[681,5733]},{"type":"Point","properties":{"Station_ID":"ASTM5","Station_Nam":"AUSTIN WASTE WATER TREATMENT FACILITY","Latitude":"43.65420","Longitude":"-92.97390","Snowdepth":"18.000","Units":"in","Rept_Date":"2020-02-20 13"},"coordinates":[1002,5075]},{"type":"Point","properties":{"Station_ID":"ABGW3","Station_Nam":"AMBERG 9 E","Latitude":"45.48250","Longitude":"-87.81190","Snowdepth":"18.000","Units":"in","Rept_Date":"2020-02-20 12"},"coordinates":[2214,6190]},{"type":"Point","properties":{"Station_ID":"CAN-NB-97","Station_Nam":"NEW MARYLAND 0.6 NW, CAN","Latitude":"45.90112","Longitude":"-66.68739","Snowdepth":"17.700","Units":"in","Rept_Date":"2020-02-20 11"},"coordinates":[7171,6446]},{"type":"Point","properties":{"Station_ID":"WI-PR-8","Station_Nam":"PHILLIPS 0.4 SSW, WI","Latitude":"45.69086","Longitude":"-90.40200","Snowdepth":"17.500","Units":"in","Rept_Date":"2020-02-20 13"},"coordinates":[1606,6317]},{"type":"Point","properties":{"Station_ID":"WI-DN-1","Station_Nam":"BOYCEVILLE 3.3 N, WI","Latitude":"45.08913","Longitude":"-92.02760","Snowdepth":"17.500","Units":"in","Rept_Date":"2020-02-20 13"},"coordinates":[1224,5950]},{"type":"Point","properties":{"Station_ID":"MN-CW-22","Station_Nam":"FORT RIPLEY 0.8 N, MN","Latitude":"46.18089","Longitude":"-94.36510","Snowdepth":"17.500","Units":"in","Rept_Date":"2020-02-20 13"},"coordinates":[676,6616]},{"type":"Point","properties":{"Station_ID":"ME-CM-3","Station_Nam":"NEW GLOUCESTER 3.0 SE, ME","Latitude":"43.92372","Longitude":"-70.25790","Snowdepth":"17.500","Units":"in","Rept_Date":"2020-02-20 12"},"coordinates":[6333,5240]},{"type":"Point","properties":{"Station_ID":"CAN-ON-42","Station_Nam":"VANKLEEK HILL 3.4 S, CA","Latitude":"45.48987","Longitude":"-74.64570","Snowdepth":"17.500","Units":"in","Rept_Date":"2020-02-20 12"},"coordinates":[5303,6195]},{"type":"Point","properties":{"Station_ID":"ERJ16","Station_Nam":"DOTU DELTA (WOODS)","Latitude":"43.28000","Longitude":"-75.42000","Snowdepth":"17.170","Units":"in","Rept_Date":"2020-02-20 17"},"coordinates":[5121,4847]},{"type":"Point","properties":{"Station_ID":"EDLN6","Station_Nam":"DELTA (WOODS)","Latitude":"43.27830","Longitude":"-75.42330","Snowdepth":"17.170","Units":"in","Rept_Date":"2020-02-20 19"},"coordinates":[5121,4846]},{"type":"Point","properties":{"Station_ID":"WNDM1","Station_Nam":"WINDHAM 2NW","Latitude":"43.85670","Longitude":"-70.46630","Snowdepth":"17.000","Units":"in","Rept_Date":"2020-02-20 12"},"coordinates":[6284,5199]},{"type":"Point","properties":{"Station_ID":"VT-WR-17","Station_Nam":"ROCHESTER 2.3 NE, VT","Latitude":"43.89418","Longitude":"-72.76992","Snowdepth":"17.000","Units":"in","Rept_Date":"2020-02-20 12"},"coordinates":[5743,5222]},{"type":"Point","properties":{"Station_ID":"VT-CH-4","Station_Nam":"UNDERHILL 4.4 NNE, VT","Latitude":"44.58774","Longitude":"-72.92250","Snowdepth":"17.000","Units":"in","Rept_Date":"2020-02-20 12"},"coordinates":[5707,5645]},{"type":"Point","properties":{"Station_ID":"RHRW3","Station_Nam":"RHINELANDER WJFW TV-12","Latitude":"45.62220","Longitude":"-89.41000","Snowdepth":"17.000","Units":"in","Rept_Date":"2020-02-21 04"},"coordinates":[1839,6276]},{"type":"Point","properties":{"Station_ID":"PULW3","Station_Nam":"PULASKI WWTP","Latitude":"44.67830","Longitude":"-88.22750","Snowdepth":"17.000","Units":"in","Rept_Date":"2020-02-20 12"},"coordinates":[2116,5700]},{"type":"Point","properties":{"Station_ID":"NY-OG-46","Station_Nam":"BALDWINSVILLE 3.5 NE, NY","Latitude":"43.19506","Longitude":"-76.28830","Snowdepth":"17.000","Units":"in","Rept_Date":"2020-02-20 13"},"coordinates":[4918,4795]},{"type":"Point","properties":{"Station_ID":"NUNV1","Station_Nam":"NORTH UNDERHILL","Latitude":"44.58760","Longitude":"-72.92150","Snowdepth":"17.000","Units":"in","Rept_Date":"2020-02-20 12"},"coordinates":[5708,5645]},{"type":"Point","properties":{"Station_ID":"NCKN6","Station_Nam":"NORTH CREEK 5 SE","Latitude":"43.66110","Longitude":"-73.89690","Snowdepth":"17.000","Units":"in","Rept_Date":"2020-02-20 12"},"coordinates":[5479,5079]},{"type":"Point","properties":{"Station_ID":"MI-BZ-1","Station_Nam":"BENZONIA 5.3 S, MI","Latitude":"44.53976","Longitude":"-86.10650","Snowdepth":"17.000","Units":"in","Rept_Date":"2020-02-20 14"},"coordinates":[2614,5615]},{"type":"Point","properties":{"Station_ID":"ME-CM-125","Station_Nam":"CUMBERLAND CENTER 4.4 NW, ME","Latitude":"43.84640","Longitude":"-70.31340","Snowdepth":"17.000","Units":"in","Rept_Date":"2020-02-20 12"},"coordinates":[6320,5192]},{"type":"Point","properties":{"Station_ID":"ME-AN-32","Station_Nam":"WINTHROP 9.4 W, ME","Latitude":"44.30476","Longitude":"-70.15835","Snowdepth":"17.000","Units":"in","Rept_Date":"2020-02-20 12"},"coordinates":[6356,5472]},{"type":"Point","properties":{"Station_ID":"MCLN8","Station_Nam":"MC LEOD,ND","Latitude":"46.40250","Longitude":"-97.23810","Snowdepth":"17.000","Units":"in","Rept_Date":"2020-02-20 15"},"coordinates":[2,6751]},{"type":"Point","properties":{"Station_ID":"MALN6","Station_Nam":"MALONE","Latitude":"44.84180","Longitude":"-74.30600","Snowdepth":"17.000","Units":"in","Rept_Date":"2020-02-20 12"},"coordinates":[5383,5800]},{"type":"Point","properties":{"Station_ID":"JKMM1","Station_Nam":"JACKMAN","Latitude":"45.62600","Longitude":"-70.24600","Snowdepth":"17.000","Units":"in","Rept_Date":"2020-02-20 12"},"coordinates":[6336,6278]},{"type":"Point","properties":{"Station_ID":"JEFN3","Station_Nam":"JEFFERSON","Latitude":"44.41690","Longitude":"-71.50080","Snowdepth":"17.000","Units":"in","Rept_Date":"2020-02-20 12"},"coordinates":[6041,5540]},{"type":"Point","properties":{"Station_ID":"ILEW3","Station_Nam":"STILES 1S","Latitude":"44.84190","Longitude":"-88.05420","Snowdepth":"17.000","Units":"in","Rept_Date":"2020-02-20 13"},"coordinates":[2157,5800]},{"type":"Point","properties":{"Station_ID":"GLRM5","Station_Nam":"GLACIAL RIDGE","Latitude":"47.71670","Longitude":"-96.26670","Snowdepth":"17.000","Units":"in","Rept_Date":"2020-02-21 06"},"coordinates":[230,7553]},{"type":"Point","properties":{"Station_ID":"GLLM5","Station_Nam":"GULL LAKE DAM","Latitude":"46.41190","Longitude":"-94.35000","Snowdepth":"17.000","Units":"in","Rept_Date":"2020-02-20 14"},"coordinates":[679,6757]},{"type":"Point","properties":{"Station_ID":"DURM1","Station_Nam":"DURHAM","Latitude":"43.99960","Longitude":"-70.09630","Snowdepth":"17.000","Units":"in","Rept_Date":"2020-02-20 12"},"coordinates":[6371,5286]},{"type":"Point","properties":{"Station_ID":"CLGM5","Station_Nam":"COLLEGEVILLE ST JOHN","Latitude":"45.57940","Longitude":"-94.39200","Snowdepth":"17.000","Units":"in","Rept_Date":"2020-02-21 00"},"coordinates":[670,6249]},{"type":"Point","properties":{"Station_ID":"CAN-PE-7","Station_Nam":"MORELL 1.4 NNW, CA","Latitude":"46.42741","Longitude":"-62.70870","Snowdepth":"17.000","Units":"in","Rept_Date":"2020-02-20 12"},"coordinates":[8104,6767]},{"type":"Point","properties":{"Station_ID":"BRLN3","Station_Nam":"BERLIN","Latitude":"44.45350","Longitude":"-71.18540","Snowdepth":"17.000","Units":"in","Rept_Date":"2020-02-20 12"},"coordinates":[6115,5563]},{"type":"Point","properties":{"Station_ID":"ME-CM-54","Station_Nam":"WINDHAM 3.9 NW, ME","Latitude":"43.85787","Longitude":"-70.46200","Snowdepth":"16.800","Units":"in","Rept_Date":"2020-02-20 12"},"coordinates":[6285,5199]},{"type":"Point","properties":{"Station_ID":"CAN-NB-16","Station_Nam":"DORCHESTER 1.0 SSE, CAN","Latitude":"45.89160","Longitude":"-64.51269","Snowdepth":"16.700","Units":"in","Rept_Date":"2020-02-20 11"},"coordinates":[7681,6440]},{"type":"Point","properties":{"Station_ID":"CATQ6","Station_Nam":"CAT LAKE","Latitude":"51.72690","Longitude":"-91.82210","Snowdepth":"16.460","Units":"in","Rept_Date":"2020-02-21 06"},"coordinates":[1273,9999]},{"type":"Point","properties":{"Station_ID":"QWG","Station_Nam":"QWG","Latitude":"48.48890","Longitude":"-73.45940","Snowdepth":"16.220","Units":"in","Rept_Date":"2020-02-20 12"},"coordinates":[5581,8024]},{"type":"Point","properties":{"Station_ID":"WNNM5","Station_Nam":"WINNEBAGO","Latitude":"43.76920","Longitude":"-94.18730","Snowdepth":"16.000","Units":"in","Rept_Date":"2020-02-20 14"},"coordinates":[718,5145]},{"type":"Point","properties":{"Station_ID":"WI-SR-5","Station_Nam":"HAYWARD 9.7 NE, WI","Latitude":"46.12030","Longitude":"-91.35370","Snowdepth":"16.000","Units":"in","Rept_Date":"2020-02-20 14"},"coordinates":[1382,6579]},{"type":"Point","properties":{"Station_ID":"TOPN6","Station_Nam":"TUPPER LAKE SUNMOUNT","Latitude":"44.23070","Longitude":"-74.43820","Snowdepth":"16.000","Units":"in","Rept_Date":"2020-02-20 12"},"coordinates":[5352,5427]},{"type":"Point","properties":{"Station_ID":"STPW3","Station_Nam":"STEVENS POINT","Latitude":"44.51130","Longitude":"-89.58550","Snowdepth":"16.000","Units":"in","Rept_Date":"2020-02-20 13"},"coordinates":[1797,5598]},{"type":"Point","properties":{"Station_ID":"SD-CD-30","Station_Nam":"WATERTOWN 2.3 E, SD","Latitude":"44.91604","Longitude":"-97.11925","Snowdepth":"16.000","Units":"in","Rept_Date":"2020-02-20 14"},"coordinates":[30,5845]},{"type":"Point","properties":{"Station_ID":"NY-OG-12","Station_Nam":"CLAY 4.6 NW, NY","Latitude":"43.20000","Longitude":"-76.26000","Snowdepth":"16.000","Units":"in","Rept_Date":"2020-02-20 13"},"coordinates":[4924,4798]},{"type":"Point","properties":{"Station_ID":"NY-MD-10","Station_Nam":"CAZENOVIA 2.9 SE, NY","Latitude":"42.90003","Longitude":"-75.81140","Snowdepth":"16.000","Units":"in","Rept_Date":"2020-02-20 12"},"coordinates":[5030,4615]},{"type":"Point","properties":{"Station_ID":"NONW3","Station_Nam":"NEW LONDON","Latitude":"44.35890","Longitude":"-88.71890","Snowdepth":"16.000","Units":"in","Rept_Date":"2020-02-20 12"},"coordinates":[2001,5505]},{"type":"Point","properties":{"Station_ID":"NH-MR-6","Station_Nam":"DANBURY 2.2 ESE, NH","Latitude":"43.52000","Longitude":"-71.81900","Snowdepth":"16.000","Units":"in","Rept_Date":"2020-02-20 13"},"coordinates":[5966,4993]},{"type":"Point","properties":{"Station_ID":"NH-GR-47","Station_Nam":"LITTLETON 7.3 W, NH","Latitude":"44.31847","Longitude":"-71.91086","Snowdepth":"16.000","Units":"in","Rept_Date":"2020-02-20 13"},"coordinates":[5945,5480]},{"type":"Point","properties":{"Station_ID":"MNEY8CTB","Station_Nam":"MIDLAND JUNCTION 2.2 ENE","Latitude":"44.33041","Longitude":"-91.95891","Snowdepth":"16.000","Units":"in","Rept_Date":"2020-02-20 14"},"coordinates":[1240,5488]},{"type":"Point","properties":{"Station_ID":"MN3LTZND","Station_Nam":"BRAINERD 1.4 S","Latitude":"46.33224","Longitude":"-94.20905","Snowdepth":"16.000","Units":"in","Rept_Date":"2020-02-20 13"},"coordinates":[712,6709]},{"type":"Point","properties":{"Station_ID":"MN-SH-10","Station_Nam":"BIG LAKE 5.6 NNE, MN","Latitude":"45.41409","Longitude":"-93.69190","Snowdepth":"16.000","Units":"in","Rept_Date":"2020-02-20 13"},"coordinates":[834,6149]},{"type":"Point","properties":{"Station_ID":"MN-PK-15","Station_Nam":"MENTOR 2.5 SSW, MN","Latitude":"47.66625","Longitude":"-96.17328","Snowdepth":"16.000","Units":"in","Rept_Date":"2020-02-20 13"},"coordinates":[252,7522]},{"type":"Point","properties":{"Station_ID":"MN-BM-15","Station_Nam":"BEMIDJI 7.8 ENE, MN","Latitude":"47.52043","Longitude":"-94.72121","Snowdepth":"16.000","Units":"in","Rept_Date":"2020-02-20 13"},"coordinates":[592,7433]},{"type":"Point","properties":{"Station_ID":"JEFV1","Station_Nam":"JEFFERSONVILLE","Latitude":"44.58430","Longitude":"-72.78700","Snowdepth":"16.000","Units":"in","Rept_Date":"2020-02-20 12"},"coordinates":[5739,5642]},{"type":"Point","properties":{"Station_ID":"GFDN6","Station_Nam":"CHASES LAKE","Latitude":"43.75920","Longitude":"-75.29980","Snowdepth":"16.000","Units":"in","Rept_Date":"2020-02-20 11"},"coordinates":[5150,5139]},{"type":"Point","properties":{"Station_ID":"FLDM5","Station_Nam":"FLOODWOOD,MN","Latitude":"47.00000","Longitude":"-92.91670","Snowdepth":"16.000","Units":"in","Rept_Date":"2020-02-20 14"},"coordinates":[1016,7116]},{"type":"Point","properties":{"Station_ID":"EPTW3","Station_Nam":"EAU PLEINE TENDER","Latitude":"44.77220","Longitude":"-89.76720","Snowdepth":"16.000","Units":"in","Rept_Date":"2020-02-20 13"},"coordinates":[1755,5757]},{"type":"Point","properties":{"Station_ID":"DTVM4","Station_Nam":"DETOUR VILLAGE","Latitude":"45.99830","Longitude":"-83.90130","Snowdepth":"16.000","Units":"in","Rept_Date":"2020-02-20 13"},"coordinates":[3131,6505]},{"type":"Point","properties":{"Station_ID":"BRAM5","Station_Nam":"BRAINERD","Latitude":"46.34320","Longitude":"-94.20900","Snowdepth":"16.000","Units":"in","Rept_Date":"2020-02-20 13"},"coordinates":[712,6715]},{"type":"Point","properties":{"Station_ID":"BENN6","Station_Nam":"BENNETTS BRIDGE","Latitude":"43.53180","Longitude":"-75.95260","Snowdepth":"16.000","Units":"in","Rept_Date":"2020-02-20 12"},"coordinates":[4996,5001]},{"type":"Point","properties":{"Station_ID":"BDMW3","Station_Nam":"BEAVER DAM 1 N","Latitude":"43.46860","Longitude":"-88.83970","Snowdepth":"16.000","Units":"in","Rept_Date":"2020-02-20 13"},"coordinates":[1972,4962]},{"type":"Point","properties":{"Station_ID":"APPW3","Station_Nam":"APPLETON","Latitude":"44.27690","Longitude":"-88.43770","Snowdepth":"16.000","Units":"in","Rept_Date":"2020-02-20 12"},"coordinates":[2067,5455]},{"type":"Point","properties":{"Station_ID":"ALBM5","Station_Nam":"ALBERT LEA 3 SE","Latitude":"43.60640","Longitude":"-93.30190","Snowdepth":"16.000","Units":"in","Rept_Date":"2020-02-20 14"},"coordinates":[925,5046]},{"type":"Point","properties":{"Station_ID":"CAN-NS-163","Station_Nam":"SYDNEY MINES 2.2 WNW, CAN","Latitude":"46.24851","Longitude":"-60.25161","Snowdepth":"15.700","Units":"in","Rept_Date":"2020-02-20 12"},"coordinates":[8681,6658]},{"type":"Point","properties":{"Station_ID":"CAN-NB-1","Station_Nam":"FREDERICTON 4.0 SSE, CA","Latitude":"45.92897","Longitude":"-66.62830","Snowdepth":"15.600","Units":"in","Rept_Date":"2020-02-20 12"},"coordinates":[7184,6463]},{"type":"Point","properties":{"Station_ID":"VT-WS-19","Station_Nam":"WATERBURY 3.0 NW, VT","Latitude":"44.36060","Longitude":"-72.80770","Snowdepth":"15.500","Units":"in","Rept_Date":"2020-02-20 11"},"coordinates":[5734,5506]},{"type":"Point","properties":{"Station_ID":"VT-CL-23","Station_Nam":"RYEGATE 1.5 N, VT","Latitude":"44.23024","Longitude":"-72.10523","Snowdepth":"15.500","Units":"in","Rept_Date":"2020-02-20 12"},"coordinates":[5899,5427]},{"type":"Point","properties":{"Station_ID":"NH-GR-1","Station_Nam":"BRISTOL 0.4 SSE, NH","Latitude":"43.59490","Longitude":"-71.74140","Snowdepth":"15.500","Units":"in","Rept_Date":"2020-02-20 12"},"coordinates":[5985,5039]},{"type":"Point","properties":{"Station_ID":"MFU","Station_Nam":"MFU","Latitude":"51.52170","Longitude":"-66.91110","Snowdepth":"15.472","Units":"in","Rept_Date":"2020-02-20 12"},"coordinates":[7118,9874]},{"type":"Point","properties":{"Station_ID":"WIRW3","Station_Nam":"WIS RAPIDS GRAND AV B","Latitude":"44.39940","Longitude":"-89.83050","Snowdepth":"15.000","Units":"in","Rept_Date":"2020-02-20 13"},"coordinates":[1740,5530]},{"type":"Point","properties":{"Station_ID":"WIPW3","Station_Nam":"WISCONSIN RAPIDS-SOUTHEAST","Latitude":"44.38190","Longitude":"-89.80470","Snowdepth":"15.000","Units":"in","Rept_Date":"2020-02-20 12"},"coordinates":[1746,5519]},{"type":"Point","properties":{"Station_ID":"WILW3","Station_Nam":"RESERVOIR","Latitude":"45.70000","Longitude":"-89.83330","Snowdepth":"15.000","Units":"in","Rept_Date":"2020-02-20 12"},"coordinates":[1739,6323]},{"type":"Point","properties":{"Station_ID":"WI-WH-7","Station_Nam":"WILD ROSE 0.5 E, WI","Latitude":"44.17764","Longitude":"-89.23812","Snowdepth":"15.000","Units":"in","Rept_Date":"2020-02-20 13"},"coordinates":[1879,5394]},{"type":"Point","properties":{"Station_ID":"WI-TR-8","Station_Nam":"ETTRICK 4.0 WNW, WI","Latitude":"44.19004","Longitude":"-91.34249","Snowdepth":"15.000","Units":"in","Rept_Date":"2020-02-20 13"},"coordinates":[1385,5402]},{"type":"Point","properties":{"Station_ID":"WELM5","Station_Nam":"WELLS","Latitude":"43.74680","Longitude":"-93.73680","Snowdepth":"15.000","Units":"in","Rept_Date":"2020-02-20 14"},"coordinates":[823,5132]},{"type":"Point","properties":{"Station_ID":"STRW3","Station_Nam":"STRATFORD 1NW","Latitude":"44.81750","Longitude":"-90.08990","Snowdepth":"15.000","Units":"in","Rept_Date":"2020-02-20 13"},"coordinates":[1679,5785]},{"type":"Point","properties":{"Station_ID":"RST","Station_Nam":"ROCHESTER INTERNATIONAL ARPT","Latitude":"43.90890","Longitude":"-92.49780","Snowdepth":"15.000","Units":"in","Rept_Date":"2020-02-21 00"},"coordinates":[1114,5231]},{"type":"Point","properties":{"Station_ID":"RSRM5","Station_Nam":"ROCHESTER AP 2NE","Latitude":"43.92810","Longitude":"-92.47580","Snowdepth":"15.000","Units":"in","Rept_Date":"2020-02-20 13"},"coordinates":[1119,5242]},{"type":"Point","properties":{"Station_ID":"PLOW3","Station_Nam":"PLOVER","Latitude":"44.44280","Longitude":"-89.54530","Snowdepth":"15.000","Units":"in","Rept_Date":"2020-02-20 13"},"coordinates":[1807,5556]},{"type":"Point","properties":{"Station_ID":"OSAI4","Station_Nam":"OSAGE","Latitude":"43.27940","Longitude":"-92.81060","Snowdepth":"15.000","Units":"in","Rept_Date":"2020-02-20 13"},"coordinates":[1041,4847]},{"type":"Point","properties":{"Station_ID":"NY-WR-10","Station_Nam":"WARRENSBURG 2.1 WNW, NY","Latitude":"43.51784","Longitude":"-73.81069","Snowdepth":"15.000","Units":"in","Rept_Date":"2020-02-20 13"},"coordinates":[5499,4992]},{"type":"Point","properties":{"Station_ID":"NVLN6","Station_Nam":"NORTHVILLE","Latitude":"43.23330","Longitude":"-74.16670","Snowdepth":"15.000","Units":"in","Rept_Date":"2020-02-20 13"},"coordinates":[5416,4818]},{"type":"Point","properties":{"Station_ID":"NOHV1","Station_Nam":"NORTH HARTLAND LAKE","Latitude":"43.60270","Longitude":"-72.36210","Snowdepth":"15.000","Units":"in","Rept_Date":"2020-02-20 12"},"coordinates":[5839,5044]},{"type":"Point","properties":{"Station_ID":"NHNW3","Station_Nam":"NEW HOLSTEIN-EAST-WWTP","Latitude":"43.95310","Longitude":"-88.07720","Snowdepth":"15.000","Units":"in","Rept_Date":"2020-02-20 14"},"coordinates":[2151,5257]},{"type":"Point","properties":{"Station_ID":"NH-MR-45","Station_Nam":"NORTHFIELD 2.8 E, NH","Latitude":"43.43945","Longitude":"-71.53730","Snowdepth":"15.000","Units":"in","Rept_Date":"2020-02-20 12"},"coordinates":[6033,4944]},{"type":"Point","properties":{"Station_ID":"MWTM1","Station_Nam":"MILLINOCKET WWTP","Latitude":"45.64030","Longitude":"-68.67480","Snowdepth":"15.000","Units":"in","Rept_Date":"2020-02-20 11"},"coordinates":[6704,6287]},{"type":"Point","properties":{"Station_ID":"MNG0GYSN","Station_Nam":"LONSDALE 1.1 SSW","Latitude":"44.46445","Longitude":"-93.43293","Snowdepth":"15.000","Units":"in","Rept_Date":"2020-02-20 12"},"coordinates":[895,5569]},{"type":"Point","properties":{"Station_ID":"MNCHC1R2","Station_Nam":"JUDGE 2.0 N","Latitude":"43.92786","Longitude":"-92.46844","Snowdepth":"15.000","Units":"in","Rept_Date":"2020-02-20 13"},"coordinates":[1121,5242]},{"type":"Point","properties":{"Station_ID":"MNBDUIOM","Station_Nam":"GRAND MEADOW 0.7 ENE","Latitude":"43.70981","Longitude":"-92.55148","Snowdepth":"15.000","Units":"in","Rept_Date":"2020-02-20 12"},"coordinates":[1101,5109]},{"type":"Point","properties":{"Station_ID":"MN-RC-1","Station_Nam":"MONTGOMERY 3.2 ENE, MN","Latitude":"44.46400","Longitude":"-93.51980","Snowdepth":"15.000","Units":"in","Rept_Date":"2020-02-20 11"},"coordinates":[874,5569]},{"type":"Point","properties":{"Station_ID":"MN-BK-10","Station_Nam":"DETROIT LAKES 5.7 N, MN","Latitude":"46.88666","Longitude":"-95.84444","Snowdepth":"15.000","Units":"in","Rept_Date":"2020-02-20 13"},"coordinates":[329,7047]},{"type":"Point","properties":{"Station_ID":"ME-YK-67","Station_Nam":"CORNISH 5.6 ESE, ME","Latitude":"43.78308","Longitude":"-70.69539","Snowdepth":"15.000","Units":"in","Rept_Date":"2020-02-20 12"},"coordinates":[6230,5154]},{"type":"Point","properties":{"Station_ID":"KSEM4","Station_Nam":"KALKASKA 11SE","Latitude":"44.58970","Longitude":"-85.04860","Snowdepth":"15.000","Units":"in","Rept_Date":"2020-02-20 13"},"coordinates":[2862,5646]},{"type":"Point","properties":{"Station_ID":"JOHV1","Station_Nam":"JOHNSON 2 N","Latitude":"44.65790","Longitude":"-72.67850","Snowdepth":"15.000","Units":"in","Rept_Date":"2020-02-20 12"},"coordinates":[5765,5687]},{"type":"Point","properties":{"Station_ID":"HMYM1","Station_Nam":"HARMONY","Latitude":"44.94660","Longitude":"-69.54560","Snowdepth":"15.000","Units":"in","Rept_Date":"2020-02-20 12"},"coordinates":[6500,5863]},{"type":"Point","properties":{"Station_ID":"HEMN3","Station_Nam":"HEMENWAY","Latitude":"43.89610","Longitude":"-71.31000","Snowdepth":"15.000","Units":"in","Rept_Date":"2020-02-20 12"},"coordinates":[6086,5223]},{"type":"Point","properties":{"Station_ID":"GYX","Station_Nam":"PORTLAND, ME","Latitude":"43.89250","Longitude":"-70.25500","Snowdepth":"15.000","Units":"in","Rept_Date":"2020-02-20 12"},"coordinates":[6333,5221]},{"type":"Point","properties":{"Station_ID":"GMDM5","Station_Nam":"GRAND MEADOW","Latitude":"43.70740","Longitude":"-92.56440","Snowdepth":"15.000","Units":"in","Rept_Date":"2020-02-20 12"},"coordinates":[1098,5108]},{"type":"Point","properties":{"Station_ID":"FUTN6","Station_Nam":"FULTON","Latitude":"43.30500","Longitude":"-76.39380","Snowdepth":"15.000","Units":"in","Rept_Date":"2020-02-20 12"},"coordinates":[4893,4862]},{"type":"Point","properties":{"Station_ID":"FORW3","Station_Nam":"FORESTVILLE-4E","Latitude":"44.69780","Longitude":"-87.39690","Snowdepth":"15.000","Units":"in","Rept_Date":"2020-02-20 13"},"coordinates":[2311,5712]},{"type":"Point","properties":{"Station_ID":"FLAM4","Station_Nam":"FIFE LAKE 2WNW","Latitude":"44.58480","Longitude":"-85.36530","Snowdepth":"15.000","Units":"in","Rept_Date":"2020-02-20 12"},"coordinates":[2788,5643]},{"type":"Point","properties":{"Station_ID":"FEDM5","Station_Nam":"LEECH LAKE DAM","Latitude":"47.24670","Longitude":"-94.22280","Snowdepth":"15.000","Units":"in","Rept_Date":"2020-02-20 14"},"coordinates":[709,7266]},{"type":"Point","properties":{"Station_ID":"EPMW3","Station_Nam":"EPHRAIM-1 NE WWTP","Latitude":"45.17080","Longitude":"-87.15360","Snowdepth":"15.000","Units":"in","Rept_Date":"2020-02-20 14"},"coordinates":[2368,6000]},{"type":"Point","properties":{"Station_ID":"ENGM4","Station_Nam":"ENGADINE MDOT","Latitude":"46.12800","Longitude":"-85.56960","Snowdepth":"15.000","Units":"in","Rept_Date":"2020-02-20 12"},"coordinates":[2740,6584]},{"type":"Point","properties":{"Station_ID":"ENFV1","Station_Nam":"ENOSBURG FALLS 2","Latitude":"44.90960","Longitude":"-72.81370","Snowdepth":"15.000","Units":"in","Rept_Date":"2020-02-20 10"},"coordinates":[5733,5841]},{"type":"Point","properties":{"Station_ID":"CAN-PE-3","Station_Nam":"WELLINGTON 1.6 NE, CA","Latitude":"46.46672","Longitude":"-63.98920","Snowdepth":"15.000","Units":"in","Rept_Date":"2020-02-20 11"},"coordinates":[7804,6791]},{"type":"Point","properties":{"Station_ID":"CAN-ON-245","Station_Nam":"PHELPSTON 3.1 ESE, CAN","Latitude":"44.50564","Longitude":"-79.81035","Snowdepth":"15.000","Units":"in","Rept_Date":"2020-02-20 13"},"coordinates":[4091,5595]},{"type":"Point","properties":{"Station_ID":"BEAW3","Station_Nam":"BEAVER DAM,WI","Latitude":"43.45000","Longitude":"-88.85000","Snowdepth":"15.000","Units":"in","Rept_Date":"2020-02-20 13"},"coordinates":[1970,4951]},{"type":"Point","properties":{"Station_ID":"WI-CH-7","Station_Nam":"CHIPPEWA FALLS 1.2 E, WI","Latitude":"44.92920","Longitude":"-91.36730","Snowdepth":"14.500","Units":"in","Rept_Date":"2020-02-20 13"},"coordinates":[1379,5853]},{"type":"Point","properties":{"Station_ID":"MN-AT-5","Station_Nam":"TAMARACK 1.4 SW, MN","Latitude":"46.63760","Longitude":"-93.14554","Snowdepth":"14.500","Units":"in","Rept_Date":"2020-02-20 11"},"coordinates":[962,6895]},{"type":"Point","properties":{"Station_ID":"CAN-MB-32","Station_Nam":"PINAWA 1.0 SW, CA","Latitude":"50.14747","Longitude":"-95.89020","Snowdepth":"14.500","Units":"in","Rept_Date":"2020-02-20 13"},"coordinates":[318,9036]},{"type":"Point","properties":{"Station_ID":"MRDN3","Station_Nam":"MEREDITH","Latitude":"43.63060","Longitude":"-71.52060","Snowdepth":"14.200","Units":"in","Rept_Date":"2020-02-20 12"},"coordinates":[6036,5061]},{"type":"Point","properties":{"Station_ID":"WTBW3","Station_Nam":"WEST BEND PUBLIC WORKS","Latitude":"43.41110","Longitude":"-88.19380","Snowdepth":"14.000","Units":"in","Rept_Date":"2020-02-20 13"},"coordinates":[2124,4927]},{"type":"Point","properties":{"Station_ID":"WLKM5","Station_Nam":"AH-GWAH-CHING","Latitude":"47.15000","Longitude":"-94.65000","Snowdepth":"14.000","Units":"in","Rept_Date":"2020-02-20 11"},"coordinates":[609,7207]},{"type":"Point","properties":{"Station_ID":"WLDM5","Station_Nam":"WILD RIVER STATE PARK","Latitude":"45.52310","Longitude":"-92.74890","Snowdepth":"14.000","Units":"in","Rept_Date":"2020-02-20 14"},"coordinates":[1055,6215]},{"type":"Point","properties":{"Station_ID":"WI-WN-9","Station_Nam":"NEENAH 1.1 ENE, WI","Latitude":"44.17370","Longitude":"-88.45130","Snowdepth":"14.000","Units":"in","Rept_Date":"2020-02-20 13"},"coordinates":[2064,5392]},{"type":"Point","properties":{"Station_ID":"WI-GN-5","Station_Nam":"MONTICELLO 2.2 SE, WI","Latitude":"42.71990","Longitude":"-89.56360","Snowdepth":"14.000","Units":"in","Rept_Date":"2020-02-20 13"},"coordinates":[1803,4505]},{"type":"Point","properties":{"Station_ID":"WI-DR-6","Station_Nam":"SISTER BAY 1.3 NNE, WI","Latitude":"45.20296","Longitude":"-87.11326","Snowdepth":"14.000","Units":"in","Rept_Date":"2020-02-20 13"},"coordinates":[2378,6020]},{"type":"Point","properties":{"Station_ID":"WAOW3","Station_Nam":"WAUTOMA SILVER LAKE SANITARY DISTRICT","Latitude":"44.04110","Longitude":"-89.24330","Snowdepth":"14.000","Units":"in","Rept_Date":"2020-02-20 14"},"coordinates":[1878,5311]},{"type":"Point","properties":{"Station_ID":"WAIV1","Station_Nam":"WAITSFIELD","Latitude":"44.17560","Longitude":"-72.79610","Snowdepth":"14.000","Units":"in","Rept_Date":"2020-02-20 12"},"coordinates":[5737,5393]},{"type":"Point","properties":{"Station_ID":"VT-WS-11","Station_Nam":"WAITSFIELD 1.8 SE, VT","Latitude":"44.17551","Longitude":"-72.79540","Snowdepth":"14.000","Units":"in","Rept_Date":"2020-02-20 12"},"coordinates":[5737,5393]},{"type":"Point","properties":{"Station_ID":"VT-LM-7","Station_Nam":"HYDE PARK 2.9 NE, VT","Latitude":"44.62080","Longitude":"-72.57250","Snowdepth":"14.000","Units":"in","Rept_Date":"2020-02-20 13"},"coordinates":[5790,5665]},{"type":"Point","properties":{"Station_ID":"UVDV1","Station_Nam":"NERON SITE AT UNION VILLAGE DAM","Latitude":"43.79140","Longitude":"-72.25720","Snowdepth":"14.000","Units":"in","Rept_Date":"2020-02-20 13"},"coordinates":[5864,5159]},{"type":"Point","properties":{"Station_ID":"TURM1","Station_Nam":"TURNER","Latitude":"44.28220","Longitude":"-70.25610","Snowdepth":"14.000","Units":"in","Rept_Date":"2020-02-20 12"},"coordinates":[6333,5458]},{"type":"Point","properties":{"Station_ID":"TOPM1","Station_Nam":"TOPSFIELD","Latitude":"45.43470","Longitude":"-67.72020","Snowdepth":"14.000","Units":"in","Rept_Date":"2020-02-20 12"},"coordinates":[6928,6161]},{"type":"Point","properties":{"Station_ID":"TCEM4","Station_Nam":"TRAVERSE CITY 5ESE","Latitude":"44.73370","Longitude":"-85.51180","Snowdepth":"14.000","Units":"in","Rept_Date":"2020-02-20 12"},"coordinates":[2753,5734]},{"type":"Point","properties":{"Station_ID":"SPOW3","Station_Nam":"SPOONER,WI","Latitude":"45.82360","Longitude":"-91.70000","Snowdepth":"14.000","Units":"in","Rept_Date":"2020-02-20 14"},"coordinates":[1301,6398]},{"type":"Point","properties":{"Station_ID":"SJBV1","Station_Nam":"SAINT JOHNSBURY","Latitude":"44.42000","Longitude":"-72.01940","Snowdepth":"14.000","Units":"in","Rept_Date":"2020-02-20 21"},"coordinates":[5919,5542]},{"type":"Point","properties":{"Station_ID":"SBNM5","Station_Nam":"SABIN","Latitude":"46.77690","Longitude":"-96.65610","Snowdepth":"14.000","Units":"in","Rept_Date":"2020-02-20 15"},"coordinates":[138,6980]},{"type":"Point","properties":{"Station_ID":"SANI4","Station_Nam":"ST ANSGAR","Latitude":"43.38170","Longitude":"-92.92320","Snowdepth":"14.000","Units":"in","Rept_Date":"2020-02-20 12"},"coordinates":[1014,4909]},{"type":"Point","properties":{"Station_ID":"ROWM3","Station_Nam":"ROWE 3NE","Latitude":"42.73500","Longitude":"-72.86920","Snowdepth":"14.000","Units":"in","Rept_Date":"2020-02-20 12"},"coordinates":[5720,4515]},{"type":"Point","properties":{"Station_ID":"POLM1","Station_Nam":"POLAND","Latitude":"44.00700","Longitude":"-70.36140","Snowdepth":"14.000","Units":"in","Rept_Date":"2020-02-20 12"},"coordinates":[6308,5290]},{"type":"Point","properties":{"Station_ID":"PLFV1","Station_Nam":"PLAINFIELD","Latitude":"44.27610","Longitude":"-72.41500","Snowdepth":"14.000","Units":"in","Rept_Date":"2020-02-20 12"},"coordinates":[5827,5455]},{"type":"Point","properties":{"Station_ID":"OWLN3","Station_Nam":"OWL BROOK","Latitude":"43.76361","Longitude":"-71.59527","Snowdepth":"14.000","Units":"in","Rept_Date":"2020-02-20 12"},"coordinates":[6019,5142]},{"type":"Point","properties":{"Station_ID":"NY-OG-71","Station_Nam":"LIVERPOOL 6.1 NNW, NY","Latitude":"43.18876","Longitude":"-76.25193","Snowdepth":"14.000","Units":"in","Rept_Date":"2020-02-20 11"},"coordinates":[4926,4791]},{"type":"Point","properties":{"Station_ID":"ND-CS-25","Station_Nam":"FARGO 2.1 N, ND","Latitude":"46.90816","Longitude":"-96.77937","Snowdepth":"14.000","Units":"in","Rept_Date":"2020-02-20 14"},"coordinates":[109,7060]},{"type":"Point","properties":{"Station_ID":"MYOM4","Station_Nam":"MIO WWTP","Latitude":"44.64660","Longitude":"-84.11580","Snowdepth":"14.000","Units":"in","Rept_Date":"2020-02-20 13"},"coordinates":[3081,5680]},{"type":"Point","properties":{"Station_ID":"MXON6","Station_Nam":"MEXICO","Latitude":"43.43830","Longitude":"-76.26560","Snowdepth":"14.000","Units":"in","Rept_Date":"2020-02-20 12"},"coordinates":[4923,4944]},{"type":"Point","properties":{"Station_ID":"MNP0GYWA","Station_Nam":"WALKER 2.0 SSE","Latitude":"47.07505","Longitude":"-94.56757","Snowdepth":"14.000","Units":"in","Rept_Date":"2020-02-20 11"},"coordinates":[628,7162]},{"type":"Point","properties":{"Station_ID":"MNLGGILP","Station_Nam":"LONG PRAIRIE 1.1 WSW","Latitude":"45.96913","Longitude":"-94.88686","Snowdepth":"14.000","Units":"in","Rept_Date":"2020-02-20 12"},"coordinates":[553,6487]},{"type":"Point","properties":{"Station_ID":"MN-SE-2","Station_Nam":"OWATONNA 0.8 E, MN","Latitude":"44.09170","Longitude":"-93.21380","Snowdepth":"14.000","Units":"in","Rept_Date":"2020-02-20 12"},"coordinates":[946,5342]},{"type":"Point","properties":{"Station_ID":"MN-DS-9","Station_Nam":"ALEXANDRIA 0.5 W, MN","Latitude":"45.87828","Longitude":"-95.38273","Snowdepth":"14.000","Units":"in","Rept_Date":"2020-02-20 12"},"coordinates":[437,6432]},{"type":"Point","properties":{"Station_ID":"MI-GT-25","Station_Nam":"TRAVERSE CITY 4.7 ESE, MI","Latitude":"44.73370","Longitude":"-85.51189","Snowdepth":"14.000","Units":"in","Rept_Date":"2020-02-20 12"},"coordinates":[2753,5734]},{"type":"Point","properties":{"Station_ID":"MI-GT-21","Station_Nam":"KINGSLEY 2.7 ENE, MI","Latitude":"44.59871","Longitude":"-85.48426","Snowdepth":"14.000","Units":"in","Rept_Date":"2020-02-20 13"},"coordinates":[2760,5651]},{"type":"Point","properties":{"Station_ID":"MI-EM-5","Station_Nam":"HARBOR SPRINGS 0.7 ENE, MI","Latitude":"45.43450","Longitude":"-84.97540","Snowdepth":"14.000","Units":"in","Rept_Date":"2020-02-20 12"},"coordinates":[2879,6161]},{"type":"Point","properties":{"Station_ID":"MFDW3","Station_Nam":"MARSHFIELD EXP FARM","Latitude":"44.64110","Longitude":"-90.13330","Snowdepth":"14.000","Units":"in","Rept_Date":"2020-02-20 13"},"coordinates":[1669,5677]},{"type":"Point","properties":{"Station_ID":"ME-AN-43","Station_Nam":"LISBON 0.6 S, ME","Latitude":"44.02320","Longitude":"-70.10550","Snowdepth":"14.000","Units":"in","Rept_Date":"2020-02-20 12"},"coordinates":[6369,5300]},{"type":"Point","properties":{"Station_ID":"LODW3","Station_Nam":"LODI","Latitude":"43.32170","Longitude":"-89.53110","Snowdepth":"14.000","Units":"in","Rept_Date":"2020-02-20 13"},"coordinates":[1810,4872]},{"type":"Point","properties":{"Station_ID":"LNGM5","Station_Nam":"LONG PRAIRIE","Latitude":"45.96460","Longitude":"-94.88920","Snowdepth":"14.000","Units":"in","Rept_Date":"2020-02-20 12"},"coordinates":[553,6484]},{"type":"Point","properties":{"Station_ID":"LBRM5","Station_Nam":"LAKE BRONSON DAM","Latitude":"48.72410","Longitude":"-96.62180","Snowdepth":"14.000","Units":"in","Rept_Date":"2020-02-20 14"},"coordinates":[146,8167]},{"type":"Point","properties":{"Station_ID":"LACN3","Station_Nam":"LACONIA","Latitude":"43.53010","Longitude":"-71.46260","Snowdepth":"14.000","Units":"in","Rept_Date":"2020-02-20 12"},"coordinates":[6050,4999]},{"type":"Point","properties":{"Station_ID":"KLKM4","Station_Nam":"KALKASKA","Latitude":"44.72800","Longitude":"-85.17270","Snowdepth":"14.000","Units":"in","Rept_Date":"2020-02-20 13"},"coordinates":[2833,5730]},{"type":"Point","properties":{"Station_ID":"JUDW3","Station_Nam":"FISH CREEK 3S - JUDDVILLE","Latitude":"45.08920","Longitude":"-87.25890","Snowdepth":"14.000","Units":"in","Rept_Date":"2020-02-20 14"},"coordinates":[2343,5950]},{"type":"Point","properties":{"Station_ID":"HYTS2","Station_Nam":"HAYTI 1W","Latitude":"44.66330","Longitude":"-97.22670","Snowdepth":"14.000","Units":"in","Rept_Date":"2020-02-20 14"},"coordinates":[4,5691]},{"type":"Point","properties":{"Station_ID":"HTLM4","Station_Nam":"SNOW PAID OBSERVER FOR KHTL","Latitude":"44.34470","Longitude":"-84.67730","Snowdepth":"14.000","Units":"in","Rept_Date":"2020-02-20 18"},"coordinates":[2949,5496]},{"type":"Point","properties":{"Station_ID":"HTL","Station_Nam":"ROSCOMMON COUNTY AIRPORT","Latitude":"44.35000","Longitude":"-84.66670","Snowdepth":"14.000","Units":"in","Rept_Date":"2020-02-21 00"},"coordinates":[2952,5500]},{"type":"Point","properties":{"Station_ID":"GRFN8","Station_Nam":"UNIVERSITY","Latitude":"47.93330","Longitude":"-97.08330","Snowdepth":"14.000","Units":"in","Rept_Date":"2020-02-21 06"},"coordinates":[38,7685]},{"type":"Point","properties":{"Station_ID":"GRBM5","Station_Nam":"GRAND RAPIDS 12N","Latitude":"47.39800","Longitude":"-93.51330","Snowdepth":"14.000","Units":"in","Rept_Date":"2020-02-20 13"},"coordinates":[876,7359]},{"type":"Point","properties":{"Station_ID":"ESAM4","Station_Nam":"ESCANABA","Latitude":"45.74380","Longitude":"-87.04060","Snowdepth":"14.000","Units":"in","Rept_Date":"2020-02-20 12"},"coordinates":[2395,6350]},{"type":"Point","properties":{"Station_ID":"CTNW3","Station_Nam":"CASHTON 3NNW","Latitude":"43.78600","Longitude":"-90.79520","Snowdepth":"14.000","Units":"in","Rept_Date":"2020-02-20 13"},"coordinates":[1514,5156]},{"type":"Point","properties":{"Station_ID":"CNTW3","Station_Nam":"CLINTONVILLE","Latitude":"44.62270","Longitude":"-88.74830","Snowdepth":"14.000","Units":"in","Rept_Date":"2020-02-20 13"},"coordinates":[1994,5666]},{"type":"Point","properties":{"Station_ID":"CNKN6","Station_Nam":"CONKLINGVILLE DAM","Latitude":"43.32030","Longitude":"-73.92560","Snowdepth":"14.000","Units":"in","Rept_Date":"2020-02-20 13"},"coordinates":[5472,4872]},{"type":"Point","properties":{"Station_ID":"BGGW3","Station_Nam":"GREEN BAY,WI","Latitude":"44.53170","Longitude":"-88.09720","Snowdepth":"14.000","Units":"in","Rept_Date":"2020-02-20 13"},"coordinates":[2147,5610]},{"type":"Point","properties":{"Station_ID":"BALW3","Station_Nam":"BALDWIN","Latitude":"44.96330","Longitude":"-92.39050","Snowdepth":"14.000","Units":"in","Rept_Date":"2020-02-20 13"},"coordinates":[1139,5874]},{"type":"Point","properties":{"Station_ID":"ARTM5","Station_Nam":"ARTICHOKE LAKE 1 E","Latitude":"45.38560","Longitude":"-96.12570","Snowdepth":"14.000","Units":"in","Rept_Date":"2020-02-21 00"},"coordinates":[263,6131]},{"type":"Point","properties":{"Station_ID":"APLW3","Station_Nam":"APPLETON WHBY RADIO","Latitude":"44.25110","Longitude":"-88.36440","Snowdepth":"14.000","Units":"in","Rept_Date":"2020-02-20 14"},"coordinates":[2084,5439]},{"type":"Point","properties":{"Station_ID":"ALXM5","Station_Nam":"ALEXANDRIA","Latitude":"45.87820","Longitude":"-95.38270","Snowdepth":"14.000","Units":"in","Rept_Date":"2020-02-20 12"},"coordinates":[437,6432]},{"type":"Point","properties":{"Station_ID":"CAN-QC-16","Station_Nam":"SAINT-ARMAND 3.6 W, CAN","Latitude":"45.02631","Longitude":"-73.08795","Snowdepth":"13.900","Units":"in","Rept_Date":"2020-02-20 12"},"coordinates":[5669,5912]},{"type":"Point","properties":{"Station_ID":"CAN-NB-98","Station_Nam":"HOYT 4.2 S, CAN","Latitude":"45.54763","Longitude":"-66.55440","Snowdepth":"13.800","Units":"in","Rept_Date":"2020-02-20 11"},"coordinates":[7202,6230]},{"type":"Point","properties":{"Station_ID":"VT-LM-1","Station_Nam":"STOWE 0.2 SW, VT","Latitude":"44.46399","Longitude":"-72.69070","Snowdepth":"13.500","Units":"in","Rept_Date":"2020-02-20 12"},"coordinates":[5762,5569]},{"type":"Point","properties":{"Station_ID":"NY-ER-166","Station_Nam":"BOSTON 2.5 NE, NY","Latitude":"42.65480","Longitude":"-78.70300","Snowdepth":"13.500","Units":"in","Rept_Date":"2020-02-20 12"},"coordinates":[4351,4466]},{"type":"Point","properties":{"Station_ID":"MN-SH-985","Station_Nam":"PRINCETON 3.3 WSW, MN","Latitude":"45.55211","Longitude":"-93.64481","Snowdepth":"13.500","Units":"in","Rept_Date":"2020-02-20 11"},"coordinates":[845,6233]},{"type":"Point","properties":{"Station_ID":"FTHQ6","Station_Nam":"FORT HOPE","Latitude":"51.55820","Longitude":"-87.90510","Snowdepth":"13.430","Units":"in","Rept_Date":"2020-02-21 06"},"coordinates":[2192,9896]},{"type":"Point","properties":{"Station_ID":"CAN-ON-491","Station_Nam":"MILVERTON 1.1 ESE- CANWARN, CAN","Latitude":"43.56074","Longitude":"-80.90887","Snowdepth":"13.100","Units":"in","Rept_Date":"2020-02-20 11"},"coordinates":[3833,5018]},{"type":"Point","properties":{"Station_ID":"WTHM1","Station_Nam":"WINTHROP","Latitude":"44.30650","Longitude":"-69.97010","Snowdepth":"13.000","Units":"in","Rept_Date":"2020-02-20 13"},"coordinates":[6400,5473]},{"type":"Point","properties":{"Station_ID":"WI-GL-4","Station_Nam":"GREEN LAKE 0.8 E, WI","Latitude":"43.84369","Longitude":"-88.94066","Snowdepth":"13.000","Units":"in","Rept_Date":"2020-02-20 13"},"coordinates":[1949,5191]},{"type":"Point","properties":{"Station_ID":"WI-CT-4","Station_Nam":"MENASHA 5.4 ESE, WI","Latitude":"44.19640","Longitude":"-88.33070","Snowdepth":"13.000","Units":"in","Rept_Date":"2020-02-20 13"},"coordinates":[2092,5406]},{"type":"Point","properties":{"Station_ID":"WDOM5","Station_Nam":"WINDOM","Latitude":"43.87700","Longitude":"-95.11590","Snowdepth":"13.000","Units":"in","Rept_Date":"2020-02-20 14"},"coordinates":[500,5211]},{"type":"Point","properties":{"Station_ID":"VT-CH-11","Station_Nam":"UNDERHILL 5.1 NNE, VT","Latitude":"44.59811","Longitude":"-72.91880","Snowdepth":"13.000","Units":"in","Rept_Date":"2020-02-20 13"},"coordinates":[5708,5651]},{"type":"Point","properties":{"Station_ID":"TCMM4","Station_Nam":"TRAVERSE CITY MUNSON","Latitude":"44.76070","Longitude":"-85.64430","Snowdepth":"13.000","Units":"in","Rept_Date":"2020-02-20 11"},"coordinates":[2722,5750]},{"type":"Point","properties":{"Station_ID":"TAHW3","Station_Nam":"TAYCHEEDAH","Latitude":"43.83390","Longitude":"-88.34690","Snowdepth":"13.000","Units":"in","Rept_Date":"2020-02-20 12"},"coordinates":[2088,5185]},{"type":"Point","properties":{"Station_ID":"SLRW3","Station_Nam":"SLINGER","Latitude":"43.33390","Longitude":"-88.29780","Snowdepth":"13.000","Units":"in","Rept_Date":"2020-02-20 13"},"coordinates":[2100,4880]},{"type":"Point","properties":{"Station_ID":"SLNV1","Station_Nam":"SOUTH LINCOLN","Latitude":"44.07460","Longitude":"-72.97180","Snowdepth":"13.000","Units":"in","Rept_Date":"2020-02-20 12"},"coordinates":[5696,5332]},{"type":"Point","properties":{"Station_ID":"SIBI4","Station_Nam":"SIBLEY","Latitude":"43.40470","Longitude":"-95.74830","Snowdepth":"13.000","Units":"in","Rept_Date":"2020-02-20 13"},"coordinates":[351,4923]},{"type":"Point","properties":{"Station_ID":"RRLW3","Station_Nam":"MERRILL,WI","Latitude":"45.17860","Longitude":"-89.66170","Snowdepth":"13.000","Units":"in","Rept_Date":"2020-02-20 14"},"coordinates":[1780,6005]},{"type":"Point","properties":{"Station_ID":"RCEM5","Station_Nam":"RICE","Latitude":"45.75760","Longitude":"-94.20720","Snowdepth":"13.000","Units":"in","Rept_Date":"2020-02-20 13"},"coordinates":[713,6358]},{"type":"Point","properties":{"Station_ID":"PSHW3","Station_Nam":"PESHTIGO","Latitude":"45.02810","Longitude":"-87.73560","Snowdepth":"13.000","Units":"in","Rept_Date":"2020-02-20 13"},"coordinates":[2231,5913]},{"type":"Point","properties":{"Station_ID":"PARM4","Station_Nam":"PARENT BAY","Latitude":"45.79610","Longitude":"-86.40110","Snowdepth":"13.000","Units":"in","Rept_Date":"2020-02-20 18"},"coordinates":[2545,6382]},{"type":"Point","properties":{"Station_ID":"ONAM4","Station_Nam":"ONAWAY 4N","Latitude":"45.41080","Longitude":"-84.22330","Snowdepth":"13.000","Units":"in","Rept_Date":"2020-02-20 23"},"coordinates":[3056,6147]},{"type":"Point","properties":{"Station_ID":"OKHW3","Station_Nam":"OSHKOSH,WI","Latitude":"44.03330","Longitude":"-88.55560","Snowdepth":"13.000","Units":"in","Rept_Date":"2020-02-20 13"},"coordinates":[2039,5306]},{"type":"Point","properties":{"Station_ID":"NY-ES-7","Station_Nam":"KEESEVILLE 0.8 SE, NY","Latitude":"44.49504","Longitude":"-73.47109","Snowdepth":"13.000","Units":"in","Rept_Date":"2020-02-20 12"},