{"type":"Topology","objects":{"snowdepth_geo":{"type":"GeometryCollection","name":"snowdepth","crs":{"type":"name","properties":{"name":"urn:ogc:def:crs:OGC:1.3:CRS84"}},"geometries":[{"type":"Point","properties":{"Station_ID":"PRKM4","Station_Nam":"MUNISING EAST","Latitude":"46.42580","Longitude":"-86.62000","Snowdepth":"76.500","Units":"in","Rept_Date":"2019-11-28 06"},"coordinates":[3346,6728]},{"type":"Point","properties":{"Station_ID":"MMSV1","Station_Nam":"MOUNT MANSFIELD","Latitude":"44.53330","Longitude":"-72.83330","Snowdepth":"76.000","Units":"in","Rept_Date":"2019-11-28 05"},"coordinates":[7690,5560]},{"type":"Point","properties":{"Station_ID":"OGIQ6","Station_Nam":"OGOKI CAMP","Latitude":"50.76680","Longitude":"-87.85820","Snowdepth":"61.100","Units":"in","Rept_Date":"2019-11-28 06"},"coordinates":[2956,9407]},{"type":"Point","properties":{"Station_ID":"CAN-NB-50","Station_Nam":"DOYLEVILLE 2.4 WNW, CAN","Latitude":"47.90803","Longitude":"-66.13279","Snowdepth":"19.300","Units":"in","Rept_Date":"2019-11-27 13"},"coordinates":[9802,7642]},{"type":"Point","properties":{"Station_ID":"IWOM4","Station_Nam":"IRONWOOD#2","Latitude":"46.46520","Longitude":"-90.13820","Snowdepth":"17.000","Units":"in","Rept_Date":"2019-11-27 13"},"coordinates":[2237,6752]},{"type":"Point","properties":{"Station_ID":"MQT","Station_Nam":"MARQUETTE, MI","Latitude":"46.53140","Longitude":"-87.54920","Snowdepth":"16.000","Units":"in","Rept_Date":"2019-11-28 06"},"coordinates":[3053,6793]},{"type":"Point","properties":{"Station_ID":"EVRW3","Station_Nam":"EAGLE RIVER-4 E","Latitude":"45.91890","Longitude":"-89.15280","Snowdepth":"15.000","Units":"in","Rept_Date":"2019-11-27 19"},"coordinates":[2548,6415]},{"type":"Point","properties":{"Station_ID":"MI-HG-18","Station_Nam":"CALUMET 0.7 W (TAMARACK), MI","Latitude":"47.24560","Longitude":"-88.46791","Snowdepth":"14.000","Units":"in","Rept_Date":"2019-11-27 13"},"coordinates":[2764,7234]},{"type":"Point","properties":{"Station_ID":"ME-AR-18","Station_Nam":"NEW SWEDEN 4.9 NNW, ME","Latitude":"47.01080","Longitude":"-68.14390","Snowdepth":"14.000","Units":"in","Rept_Date":"2019-11-27 12"},"coordinates":[9168,7089]},{"type":"Point","properties":{"Station_ID":"LVDW3","Station_Nam":"LAC VIEUX DESERT","Latitude":"46.12110","Longitude":"-89.07580","Snowdepth":"14.000","Units":"in","Rept_Date":"2019-11-27 15"},"coordinates":[2572,6540]},{"type":"Point","properties":{"Station_ID":"WRPW3","Station_Nam":"WATER PURIFICATION PLANT","Latitude":"44.38800","Longitude":"-89.80550","Snowdepth":"13.000","Units":"in","Rept_Date":"2019-11-27 12"},"coordinates":[2342,5470]},{"type":"Point","properties":{"Station_ID":"SUAW3","Station_Nam":"SUAMICO","Latitude":"44.60190","Longitude":"-88.09780","Snowdepth":"13.000","Units":"in","Rept_Date":"2019-11-27 12"},"coordinates":[2880,5602]},{"type":"Point","properties":{"Station_ID":"MI-HG-17","Station_Nam":"CALUMET 0.5 NE (CALUMET LAKE), MI","Latitude":"47.25300","Longitude":"-88.44652","Snowdepth":"13.000","Units":"in","Rept_Date":"2019-11-27 13"},"coordinates":[2770,7238]},{"type":"Point","properties":{"Station_ID":"ME-AR-23","Station_Nam":"MADAWASKA 2.5 E, ME","Latitude":"47.34933","Longitude":"-68.28141","Snowdepth":"13.000","Units":"in","Rept_Date":"2019-11-27 12"},"coordinates":[9125,7298]},{"type":"Point","properties":{"Station_ID":"BERM4","Station_Nam":"BERGLAND DAM","Latitude":"46.58690","Longitude":"-89.54750","Snowdepth":"13.000","Units":"in","Rept_Date":"2019-11-27 13"},"coordinates":[2424,6827]},{"type":"Point","properties":{"Station_ID":"VANM1","Station_Nam":"VAN BUREN","Latitude":"47.16600","Longitude":"-67.93900","Snowdepth":"12.000","Units":"in","Rept_Date":"2019-11-27 12"},"coordinates":[9233,7185]},{"type":"Point","properties":{"Station_ID":"PDGM4","Station_Nam":"PAULDING","Latitude":"46.39760","Longitude":"-89.17940","Snowdepth":"12.000","Units":"in","Rept_Date":"2019-11-27 13"},"coordinates":[2540,6710]},{"type":"Point","properties":{"Station_ID":"IBLM5","Station_Nam":"ISABELLA 14W","Latitude":"47.59360","Longitude":"-91.65140","Snowdepth":"12.000","Units":"in","Rept_Date":"2019-11-27 15"},"coordinates":[1761,7448]},{"type":"Point","properties":{"Station_ID":"CARM1","Station_Nam":"CARIBOU WFO","Latitude":"46.86810","Longitude":"-68.01250","Snowdepth":"12.000","Units":"in","Rept_Date":"2019-11-28 05"},"coordinates":[9209,7001]},{"type":"Point","properties":{"Station_ID":"CAN-NB-13","Station_Nam":"BATHURST 3.8 NW, CAN","Latitude":"47.64212","Longitude":"-65.68756","Snowdepth":"11.500","Units":"in","Rept_Date":"2019-11-27 11"},"coordinates":[9942,7478]},{"type":"Point","properties":{"Station_ID":"DVLQ6","Station_Nam":"DEVIOUS LAKE","Latitude":"49.19890","Longitude":"-87.76440","Snowdepth":"11.380","Units":"in","Rept_Date":"2019-11-28 06"},"coordinates":[2985,8439]},{"type":"Point","properties":{"Station_ID":"WTRM4","Station_Nam":"WATERSMEET 12WSW","Latitude":"46.22310","Longitude":"-89.40850","Snowdepth":"11.000","Units":"in","Rept_Date":"2019-11-27 12"},"coordinates":[2467,6603]},{"type":"Point","properties":{"Station_ID":"WI-PR-2","Station_Nam":"BUTTERNUT 5.9 SW, WI","Latitude":"45.96501","Longitude":"-90.59750","Snowdepth":"11.000","Units":"in","Rept_Date":"2019-11-27 14"},"coordinates":[2093,6443]},{"type":"Point","properties":{"Station_ID":"PDLM4","Station_Nam":"PAINESDALE","Latitude":"47.04160","Longitude":"-88.67170","Snowdepth":"11.000","Units":"in","Rept_Date":"2019-11-27 13"},"coordinates":[2700,7108]},{"type":"Point","properties":{"Station_ID":"ME-AR-15","Station_Nam":"PRESQUE ISLE 1.3 WSW, ME","Latitude":"46.67960","Longitude":"-68.01270","Snowdepth":"11.000","Units":"in","Rept_Date":"2019-11-27 12"},"coordinates":[9209,6884]},{"type":"Point","properties":{"Station_ID":"HURW3","Station_Nam":"HURLEY","Latitude":"46.46250","Longitude":"-90.19550","Snowdepth":"11.000","Units":"in","Rept_Date":"2019-11-27 14"},"coordinates":[2219,6750]},{"type":"Point","properties":{"Station_ID":"PTLQ6","Station_Nam":"PORTAGE LAKE","Latitude":"49.06950","Longitude":"-86.65940","Snowdepth":"10.790","Units":"in","Rept_Date":"2019-11-28 06"},"coordinates":[3334,8359]},{"type":"Point","properties":{"Station_ID":"WLFM5","Station_Nam":"WOLF RIDGE ENVIRON LEARNING CENTER","Latitude":"47.38240","Longitude":"-91.19730","Snowdepth":"10.000","Units":"in","Rept_Date":"2019-11-27 13"},"coordinates":[1904,7318]},{"type":"Point","properties":{"Station_ID":"WI-TY-2","Station_Nam":"SHELDON 8.1 ENE, WI","Latitude":"45.35598","Longitude":"-90.80296","Snowdepth":"10.000","Units":"in","Rept_Date":"2019-11-27 13"},"coordinates":[2028,6068]},{"type":"Point","properties":{"Station_ID":"WI-ON-8","Station_Nam":"HAZELHURST 2.1 SSE, WI","Latitude":"45.78186","Longitude":"-89.70330","Snowdepth":"10.000","Units":"in","Rept_Date":"2019-11-27 13"},"coordinates":[2374,6330]},{"type":"Point","properties":{"Station_ID":"WI-IR-3","Station_Nam":"PENCE 0.1 E, WI","Latitude":"46.41555","Longitude":"-90.27013","Snowdepth":"10.000","Units":"in","Rept_Date":"2019-11-27 13"},"coordinates":[2196,6721]},{"type":"Point","properties":{"Station_ID":"RHLW3","Station_Nam":"RHINELANDER 4NE","Latitude":"45.65270","Longitude":"-89.30740","Snowdepth":"10.000","Units":"in","Rept_Date":"2019-11-27 12"},"coordinates":[2499,6251]},{"type":"Point","properties":{"Station_ID":"RBLW3","Station_Nam":"RIB LAKE","Latitude":"45.31530","Longitude":"-90.20640","Snowdepth":"10.000","Units":"in","Rept_Date":"2019-11-27 14"},"coordinates":[2216,6043]},{"type":"Point","properties":{"Station_ID":"MWN","Station_Nam":"MOUNT WASHINGTON","Latitude":"44.26670","Longitude":"-71.30000","Snowdepth":"10.000","Units":"in","Rept_Date":"2019-11-28 05"},"coordinates":[8174,5395]},{"type":"Point","properties":{"Station_ID":"LILM1","Station_Nam":"LILLE","Latitude":"47.27770","Longitude":"-68.10520","Snowdepth":"10.000","Units":"in","Rept_Date":"2019-11-27 12"},"coordinates":[9180,7253]},{"type":"Point","properties":{"Station_ID":"KMWN","Station_Nam":"MOUNT WASHINGTON","Latitude":"44.26666","Longitude":"-71.30000","Snowdepth":"10.000","Units":"in","Rept_Date":"2019-11-28 06"},"coordinates":[8174,5395]},{"type":"Point","properties":{"Station_ID":"IRMM4","Station_Nam":"WWTP","Latitude":"46.46670","Longitude":"-90.18330","Snowdepth":"10.000","Units":"in","Rept_Date":"2019-11-27 13"},"coordinates":[2223,6753]},{"type":"Point","properties":{"Station_ID":"IA-DK-11","Station_Nam":"SPIRIT LAKE 1.7 SW, IA","Latitude":"43.40694","Longitude":"-95.13694","Snowdepth":"10.000","Units":"in","Rept_Date":"2019-11-27 13"},"coordinates":[662,4865]},{"type":"Point","properties":{"Station_ID":"FISM1","Station_Nam":"FORT KENT COOP","Latitude":"47.23850","Longitude":"-68.61240","Snowdepth":"10.000","Units":"in","Rept_Date":"2019-11-27 12"},"coordinates":[9020,7229]},{"type":"Point","properties":{"Station_ID":"EGRW3","Station_Nam":"EAGLE RIVER-SOUTH","Latitude":"45.91360","Longitude":"-89.24360","Snowdepth":"10.000","Units":"in","Rept_Date":"2019-11-27 13"},"coordinates":[2519,6412]},{"type":"Point","properties":{"Station_ID":"WI-DN-15","Station_Nam":"MENOMONIE 0.9 NW, WI","Latitude":"44.89832","Longitude":"-91.92398","Snowdepth":"9.700","Units":"in","Rept_Date":"2019-11-27 13"},"coordinates":[1675,5785]},{"type":"Point","properties":{"Station_ID":"WI-CH-8","Station_Nam":"CHIPPEWA FALLS 4.4 NE, WI","Latitude":"44.98480","Longitude":"-91.33910","Snowdepth":"9.600","Units":"in","Rept_Date":"2019-11-27 12"},"coordinates":[1859,5839]},{"type":"Point","properties":{"Station_ID":"WI-ON-6","Station_Nam":"RHINELANDER 5.2 N, WI","Latitude":"45.71388","Longitude":"-89.42150","Snowdepth":"9.500","Units":"in","Rept_Date":"2019-11-27 15"},"coordinates":[2463,6288]},{"type":"Point","properties":{"Station_ID":"NH-CS-10","Station_Nam":"RANDOLPH 1.4 NE, NH","Latitude":"44.38824","Longitude":"-71.26950","Snowdepth":"9.500","Units":"in","Rept_Date":"2019-11-27 12"},"coordinates":[8183,5470]},{"type":"Point","properties":{"Station_ID":"MN-AA-73","Station_Nam":"ANOKA 6.5 N, MN","Latitude":"45.30231","Longitude":"-93.41459","Snowdepth":"9.500","Units":"in","Rept_Date":"2019-11-27 13"},"coordinates":[1205,6034]},{"type":"Point","properties":{"Station_ID":"WILW3","Station_Nam":"RESERVOIR","Latitude":"45.70000","Longitude":"-89.83330","Snowdepth":"9.000","Units":"in","Rept_Date":"2019-11-27 12"},"coordinates":[2333,6280]},{"type":"Point","properties":{"Station_ID":"WI-PR-6","Station_Nam":"PHILLIPS 1.3 S, WI","Latitude":"45.67677","Longitude":"-90.39543","Snowdepth":"9.000","Units":"in","Rept_Date":"2019-11-27 12"},"coordinates":[2156,6266]},{"type":"Point","properties":{"Station_ID":"WI-ON-2","Station_Nam":"RHINELANDER 6.3 WNW, WI","Latitude":"45.67583","Longitude":"-89.53240","Snowdepth":"9.000","Units":"in","Rept_Date":"2019-11-27 13"},"coordinates":[2428,6265]},{"type":"Point","properties":{"Station_ID":"WI-LN-2","Station_Nam":"MERRILL 7.0 W, WI","Latitude":"45.17746","Longitude":"-89.84820","Snowdepth":"9.000","Units":"in","Rept_Date":"2019-11-27 12"},"coordinates":[2329,5957]},{"type":"Point","properties":{"Station_ID":"WI-DN-1","Station_Nam":"BOYCEVILLE 3.3 N, WI","Latitude":"45.08913","Longitude":"-92.02760","Snowdepth":"9.000","Units":"in","Rept_Date":"2019-11-27 13"},"coordinates":[1642,5903]},{"type":"Point","properties":{"Station_ID":"VALN7","Station_Nam":"VALE AG 2 SW","Latitude":"35.52330","Longitude":"-81.44410","Snowdepth":"9.000","Units":"in","Rept_Date":"2019-11-27 12"},"coordinates":[4977,0]},{"type":"Point","properties":{"Station_ID":"SNBI4","Station_Nam":"SANBORN,IA","Latitude":"43.18170","Longitude":"-95.66030","Snowdepth":"9.000","Units":"in","Rept_Date":"2019-11-27 14"},"coordinates":[497,4726]},{"type":"Point","properties":{"Station_ID":"RKWM1","Station_Nam":"MOOSEHEAD LAKE","Latitude":"45.58330","Longitude":"-69.71670","Snowdepth":"9.000","Units":"in","Rept_Date":"2019-11-27 12"},"coordinates":[8672,6208]},{"type":"Point","properties":{"Station_ID":"RHRW3","Station_Nam":"RHINELANDER WJFW TV-12","Latitude":"45.62220","Longitude":"-89.41000","Snowdepth":"9.000","Units":"in","Rept_Date":"2019-11-28 04"},"coordinates":[2467,6232]},{"type":"Point","properties":{"Station_ID":"PKFW3","Station_Nam":"PARK FALLS,WI","Latitude":"45.93360","Longitude":"-90.45060","Snowdepth":"9.000","Units":"in","Rept_Date":"2019-11-27 14"},"coordinates":[2139,6424]},{"type":"Point","properties":{"Station_ID":"MQRW3","Station_Nam":"MINOCQUA","Latitude":"45.88630","Longitude":"-89.73220","Snowdepth":"9.000","Units":"in","Rept_Date":"2019-11-27 12"},"coordinates":[2365,6395]},{"type":"Point","properties":{"Station_ID":"MN-WC-5","Station_Nam":"WASECA 0.9 NNE, MN","Latitude":"44.09451","Longitude":"-93.49289","Snowdepth":"9.000","Units":"in","Rept_Date":"2019-11-27 13"},"coordinates":[1180,5289]},{"type":"Point","properties":{"Station_ID":"MN-SC-2","Station_Nam":"PRIOR LAKE 2.0 W, MN","Latitude":"44.71250","Longitude":"-93.46360","Snowdepth":"9.000","Units":"in","Rept_Date":"2019-11-27 13"},"coordinates":[1190,5671]},{"type":"Point","properties":{"Station_ID":"MLLW3","Station_Nam":"MERRILL 8W","Latitude":"45.17810","Longitude":"-89.84810","Snowdepth":"9.000","Units":"in","Rept_Date":"2019-11-27 12"},"coordinates":[2329,5958]},{"type":"Point","properties":{"Station_ID":"MLCM5","Station_Nam":"MILACA","Latitude":"45.75320","Longitude":"-93.66170","Snowdepth":"9.000","Units":"in","Rept_Date":"2019-11-27 13"},"coordinates":[1127,6313]},{"type":"Point","properties":{"Station_ID":"MEMW3","Station_Nam":"MENOMONIE","Latitude":"44.87430","Longitude":"-91.93640","Snowdepth":"9.000","Units":"in","Rept_Date":"2019-11-27 13"},"coordinates":[1671,5770]},{"type":"Point","properties":{"Station_ID":"KIMM5","Station_Nam":"KIMBALL 3N","Latitude":"45.35330","Longitude":"-94.30560","Snowdepth":"9.000","Units":"in","Rept_Date":"2019-11-27 12"},"coordinates":[924,6066]},{"type":"Point","properties":{"Station_ID":"HERM4","Station_Nam":"HERMAN,MI","Latitude":"46.65000","Longitude":"-88.33330","Snowdepth":"9.000","Units":"in","Rept_Date":"2019-11-27 13"},"coordinates":[2806,6866]},{"type":"Point","properties":{"Station_ID":"GNLM4","Station_Nam":"GREENLAND 6N","Latitude":"46.87360","Longitude":"-89.10060","Snowdepth":"9.000","Units":"in","Rept_Date":"2019-11-27 13"},"coordinates":[2564,7004]},{"type":"Point","properties":{"Station_ID":"GMSM4","Station_Nam":"GRAND MARAIS 10S","Latitude":"46.50940","Longitude":"-85.96310","Snowdepth":"9.000","Units":"in","Rept_Date":"2019-11-27 12"},"coordinates":[3553,6779]},{"type":"Point","properties":{"Station_ID":"CLGM5","Station_Nam":"COLLEGEVILLE ST JOHN","Latitude":"45.57940","Longitude":"-94.39200","Snowdepth":"9.000","Units":"in","Rept_Date":"2019-11-28 00"},"coordinates":[897,6205]},{"type":"Point","properties":{"Station_ID":"CBVM1","Station_Nam":"CARRABASSETT VALLEY","Latitude":"45.08040","Longitude":"-70.30310","Snowdepth":"9.000","Units":"in","Rept_Date":"2019-11-27 12"},"coordinates":[8488,5898]},{"type":"Point","properties":{"Station_ID":"BRAM1","Station_Nam":"BRASSUA DAM","Latitude":"45.66020","Longitude":"-69.81190","Snowdepth":"9.000","Units":"in","Rept_Date":"2019-11-27 12"},"coordinates":[8642,6255]},{"type":"Point","properties":{"Station_ID":"WI-PR-8","Station_Nam":"PHILLIPS 0.4 SSW, WI","Latitude":"45.69086","Longitude":"-90.40200","Snowdepth":"8.500","Units":"in","Rept_Date":"2019-11-27 13"},"coordinates":[2154,6274]},{"type":"Point","properties":{"Station_ID":"WI-CH-10","Station_Nam":"CHIPPEWA FALLS 0.6 SSE, WI","Latitude":"44.92452","Longitude":"-91.38623","Snowdepth":"8.500","Units":"in","Rept_Date":"2019-11-27 13"},"coordinates":[1844,5801]},{"type":"Point","properties":{"Station_ID":"MN-RM-98","Station_Nam":"FALCON HEIGHTS 0.9 ESE, MN","Latitude":"44.98323","Longitude":"-93.16157","Snowdepth":"8.500","Units":"in","Rept_Date":"2019-11-27 13"},"coordinates":[1285,5838]},{"type":"Point","properties":{"Station_ID":"MN-HN-181","Station_Nam":"MINNEAPOLIS 0.4 NE, MN","Latitude":"44.96708","Longitude":"-93.26222","Snowdepth":"8.500","Units":"in","Rept_Date":"2019-11-27 13"},"coordinates":[1253,5828]},{"type":"Point","properties":{"Station_ID":"TRIQ6","Station_Nam":"TRIO LAKE","Latitude":"49.22880","Longitude":"-87.22920","Snowdepth":"8.350","Units":"in","Rept_Date":"2019-11-28 06"},"coordinates":[3154,8457]},{"type":"Point","properties":{"Station_ID":"WI-RS-3","Station_Nam":"BRUCE 1.9 E, WI","Latitude":"45.45415","Longitude":"-91.23510","Snowdepth":"8.000","Units":"in","Rept_Date":"2019-11-27 13"},"coordinates":[1892,6128]},{"type":"Point","properties":{"Station_ID":"WI-RS-1","Station_Nam":"LADYSMITH 2.8 WNW, WI","Latitude":"45.48180","Longitude":"-91.14680","Snowdepth":"8.000","Units":"in","Rept_Date":"2019-11-27 13"},"coordinates":[1920,6145]},{"type":"Point","properties":{"Station_ID":"WI-DN-12","Station_Nam":"MENOMONIE 0.9 NW, WI","Latitude":"44.89767","Longitude":"-91.92528","Snowdepth":"8.000","Units":"in","Rept_Date":"2019-11-27 13"},"coordinates":[1674,5785]},{"type":"Point","properties":{"Station_ID":"WELM5","Station_Nam":"WELLS","Latitude":"43.74680","Longitude":"-93.73680","Snowdepth":"8.000","Units":"in","Rept_Date":"2019-11-27 14"},"coordinates":[1103,5075]},{"type":"Point","properties":{"Station_ID":"SULW3","Station_Nam":"SUMMIT LAKE","Latitude":"45.37880","Longitude":"-89.19410","Snowdepth":"8.000","Units":"in","Rept_Date":"2019-11-27 11"},"coordinates":[2535,6082]},{"type":"Point","properties":{"Station_ID":"ROBW3","Station_Nam":"ROBERTS WWTP","Latitude":"44.97070","Longitude":"-92.56200","Snowdepth":"8.000","Units":"in","Rept_Date":"2019-11-27 14"},"coordinates":[1474,5830]},{"type":"Point","properties":{"Station_ID":"RLKW3","Station_Nam":"REST LAKE","Latitude":"46.12220","Longitude":"-89.87720","Snowdepth":"8.000","Units":"in","Rept_Date":"2019-11-27 13"},"coordinates":[2320,6540]},{"type":"Point","properties":{"Station_ID":"RANM1","Station_Nam":"RANGELEY,ME","Latitude":"44.96670","Longitude":"-70.65000","Snowdepth":"8.000","Units":"in","Rept_Date":"2019-11-27 11"},"coordinates":[8378,5827]},{"type":"Point","properties":{"Station_ID":"MNOW3","Station_Nam":"CEDAR FALLS HYDRO PLANT","Latitude":"44.93550","Longitude":"-91.88850","Snowdepth":"8.000","Units":"in","Rept_Date":"2019-11-27 13"},"coordinates":[1686,5808]},{"type":"Point","properties":{"Station_ID":"MN1808WB","Station_Nam":"LAKE FREMONT 0.6 NNE","Latitude":"45.45057","Longitude":"-93.58329","Snowdepth":"8.000","Units":"in","Rept_Date":"2019-11-27 07"},"coordinates":[1152,6126]},{"type":"Point","properties":{"Station_ID":"MN-WR-47","Station_Nam":"MAPLE LAKE 5.2 NNE, MN","Latitude":"45.30661","Longitude":"-93.98057","Snowdepth":"8.000","Units":"in","Rept_Date":"2019-11-27 13"},"coordinates":[1027,6037]},{"type":"Point","properties":{"Station_ID":"MN-RM-54","Station_Nam":"SAINT PAUL 5.1 SW, MN","Latitude":"44.90390","Longitude":"-93.18820","Snowdepth":"8.000","Units":"in","Rept_Date":"2019-11-27 13"},"coordinates":[1276,5789]},{"type":"Point","properties":{"Station_ID":"MN-LS-13","Station_Nam":"NEW PRAGUE 1.0 S, MN","Latitude":"44.53277","Longitude":"-93.57254","Snowdepth":"8.000","Units":"in","Rept_Date":"2019-11-27 13"},"coordinates":[1155,5560]},{"type":"Point","properties":{"Station_ID":"MN-HS-4","Station_Nam":"CALEDONIA 5.4 S, MN","Latitude":"43.55696","Longitude":"-91.51300","Snowdepth":"8.000","Units":"in","Rept_Date":"2019-11-27 14"},"coordinates":[1804,4957]},{"type":"Point","properties":{"Station_ID":"MN-HN-65","Station_Nam":"MINNEAPOLIS 2.4 NE, MN","Latitude":"45.00827","Longitude":"-93.23630","Snowdepth":"8.000","Units":"in","Rept_Date":"2019-11-27 13"},"coordinates":[1261,5853]},{"type":"Point","properties":{"Station_ID":"MN-HN-30","Station_Nam":"PLYMOUTH 2.4 ENE, MN","Latitude":"45.04063","Longitude":"-93.41950","Snowdepth":"8.000","Units":"in","Rept_Date":"2019-11-27 14"},"coordinates":[1203,5873]},{"type":"Point","properties":{"Station_ID":"MN-HN-155","Station_Nam":"MINNEAPOLIS 3.6 SE, MN","Latitude":"44.92033","Longitude":"-93.22469","Snowdepth":"8.000","Units":"in","Rept_Date":"2019-11-27 14"},"coordinates":[1265,5799]},{"type":"Point","properties":{"Station_ID":"MN-HN-110","Station_Nam":"EDINA 1.9 SSE, MN","Latitude":"44.86875","Longitude":"-93.33940","Snowdepth":"8.000","Units":"in","Rept_Date":"2019-11-27 13"},"coordinates":[1229,5767]},{"type":"Point","properties":{"Station_ID":"MN-DK-44","Station_Nam":"ROSEMOUNT 4.5 WSW, MN","Latitude":"44.72079","Longitude":"-93.14970","Snowdepth":"8.000","Units":"in","Rept_Date":"2019-11-27 13"},"coordinates":[1288,5676]},{"type":"Point","properties":{"Station_ID":"MN-CV-22","Station_Nam":"VICTORIA 1.6 WSW, MN","Latitude":"44.85670","Longitude":"-93.68640","Snowdepth":"8.000","Units":"in","Rept_Date":"2019-11-27 13"},"coordinates":[1119,5760]},{"type":"Point","properties":{"Station_ID":"MN-CV-1","Station_Nam":"CARVER 0.7 W, MN","Latitude":"44.75728","Longitude":"-93.64160","Snowdepth":"8.000","Units":"in","Rept_Date":"2019-11-27 13"},"coordinates":[1133,5698]},{"type":"Point","properties":{"Station_ID":"MI-HG-1","Station_Nam":"HOUGHTON 1.6 ESE, MI","Latitude":"47.10774","Longitude":"-88.52940","Snowdepth":"8.000","Units":"in","Rept_Date":"2019-11-27 17"},"coordinates":[2744,7149]},{"type":"Point","properties":{"Station_ID":"MI-BG-3","Station_Nam":"L'ANSE 17.8 SE, MI","Latitude":"46.55730","Longitude":"-88.20770","Snowdepth":"8.000","Units":"in","Rept_Date":"2019-11-27 13"},"coordinates":[2846,6809]},{"type":"Point","properties":{"Station_ID":"LTMW3","Station_Nam":"LAKE TOMAHAWK 2 SE","Latitude":"45.80750","Longitude":"-89.55830","Snowdepth":"8.000","Units":"in","Rept_Date":"2019-11-27 12"},"coordinates":[2420,6346]},{"type":"Point","properties":{"Station_ID":"JORM5","Station_Nam":"JORDAN 1SSW","Latitude":"44.65010","Longitude":"-93.63560","Snowdepth":"8.000","Units":"in","Rept_Date":"2019-11-27 11"},"coordinates":[1135,5632]},{"type":"Point","properties":{"Station_ID":"GHMN3","Station_Nam":"PINKHAM NOTCH","Latitude":"44.25800","Longitude":"-71.25250","Snowdepth":"8.000","Units":"in","Rept_Date":"2019-11-27 11"},"coordinates":[8189,5390]},{"type":"Point","properties":{"Station_ID":"FBTM5","Station_Nam":"FARIBAULT","Latitude":"44.30920","Longitude":"-93.26600","Snowdepth":"8.000","Units":"in","Rept_Date":"2019-11-27 13"},"coordinates":[1252,5422]},{"type":"Point","properties":{"Station_ID":"ELWW3","Station_Nam":"ELLSWORTH 1E","Latitude":"44.73030","Longitude":"-92.45860","Snowdepth":"8.000","Units":"in","Rept_Date":"2019-11-27 13"},"coordinates":[1506,5682]},{"type":"Point","properties":{"Station_ID":"ELKM5","Station_Nam":"ELK RIVER","Latitude":"45.30470","Longitude":"-93.58420","Snowdepth":"8.000","Units":"in","Rept_Date":"2019-11-27 13"},"coordinates":[1152,6036]},{"type":"Point","properties":{"Station_ID":"CMBM5","Station_Nam":"CAMBRIDGE","Latitude":"45.55640","Longitude":"-93.23480","Snowdepth":"8.000","Units":"in","Rept_Date":"2019-11-27 15"},"coordinates":[1262,6191]},{"type":"Point","properties":{"Station_ID":"CAN-NB-11","Station_Nam":"MIRAMICHI 3.3 S, CAN","Latitude":"46.99343","Longitude":"-65.50690","Snowdepth":"8.000","Units":"in","Rept_Date":"2019-11-27 11"},"coordinates":[9999,7078]},{"type":"Point","properties":{"Station_ID":"BFHW3","Station_Nam":"BAYFIELD FISH HATCHERY","Latitude":"46.78670","Longitude":"-90.86420","Snowdepth":"8.000","Units":"in","Rept_Date":"2019-11-27 14"},"coordinates":[2009,6950]},{"type":"Point","properties":{"Station_ID":"ATMM4","Station_Nam":"ATLANTIC MINE 5NW","Latitude":"47.15440","Longitude":"-88.71670","Snowdepth":"8.000","Units":"in","Rept_Date":"2019-11-27 14"},"coordinates":[2685,7177]},{"type":"Point","properties":{"Station_ID":"MN-DK-53","Station_Nam":"LAKEVILLE 3.8 ENE, MN","Latitude":"44.70423","Longitude":"-93.18460","Snowdepth":"7.800","Units":"in","Rept_Date":"2019-11-27 14"},"coordinates":[1277,5665]},{"type":"Point","properties":{"Station_ID":"AUDQ6","Station_Nam":"AUDEN","Latitude":"48.52600","Longitude":"-82.57570","Snowdepth":"7.680","Units":"in","Rept_Date":"2019-11-28 06"},"coordinates":[4620,8024]},{"type":"Point","properties":{"Station_ID":"SVBQ6","Station_Nam":"SAVANT BASE","Latitude":"50.28730","Longitude":"-90.65670","Snowdepth":"7.520","Units":"in","Rept_Date":"2019-11-28 06"},"coordinates":[2074,9111]},{"type":"Point","properties":{"Station_ID":"WI-WB-16","Station_Nam":"SARONA 4.5 NNE, WI","Latitude":"45.77030","Longitude":"-91.76890","Snowdepth":"7.500","Units":"in","Rept_Date":"2019-11-27 13"},"coordinates":[1724,6323]},{"type":"Point","properties":{"Station_ID":"MN-DK-73","Station_Nam":"LAKEVILLE 2.6 NNE, MN","Latitude":"44.71250","Longitude":"-93.23043","Snowdepth":"7.500","Units":"in","Rept_Date":"2019-11-27 13"},"coordinates":[1263,5671]},{"type":"Point","properties":{"Station_ID":"MN-AA-4","Station_Nam":"SAINT FRANCIS 4.0 E, MN","Latitude":"45.40897","Longitude":"-93.30900","Snowdepth":"7.500","Units":"in","Rept_Date":"2019-11-27 14"},"coordinates":[1238,6100]},{"type":"Point","properties":{"Station_ID":"MN-SR-24","Station_Nam":"PAYNESVILLE 1.9 SSW, MN","Latitude":"45.35170","Longitude":"-94.73120","Snowdepth":"7.300","Units":"in","Rept_Date":"2019-11-27 13"},"coordinates":[790,6065]},{"type":"Point","properties":{"Station_ID":"MN-HN-222","Station_Nam":"MAPLE GROVE 1.2 NE, MN","Latitude":"45.11960","Longitude":"-93.44410","Snowdepth":"7.300","Units":"in","Rept_Date":"2019-11-27 13"},"coordinates":[1196,5922]},{"type":"Point","properties":{"Station_ID":"MN-DK-70","Station_Nam":"EAGAN 2.0 NNW, MN","Latitude":"44.84322","Longitude":"-93.17899","Snowdepth":"7.200","Units":"in","Rept_Date":"2019-11-27 16"},"coordinates":[1279,5751]},{"type":"Point","properties":{"Station_ID":"FTHQ6","Station_Nam":"FORT HOPE","Latitude":"51.55820","Longitude":"-87.90510","Snowdepth":"7.170","Units":"in","Rept_Date":"2019-11-28 06"},"coordinates":[2941,9895]},{"type":"Point","properties":{"Station_ID":"MN-CW-29","Station_Nam":"BRAINERD 7.7 SSE, MN","Latitude":"46.24996","Longitude":"-94.14576","Snowdepth":"7.100","Units":"in","Rept_Date":"2019-11-27 13"},"coordinates":[975,6619]},{"type":"Point","properties":{"Station_ID":"WTNM4","Station_Nam":"WATTON 2WSW","Latitude":"46.52660","Longitude":"-88.64240","Snowdepth":"7.000","Units":"in","Rept_Date":"2019-11-27 13"},"coordinates":[2709,6790]},{"type":"Point","properties":{"Station_ID":"WNNM5","Station_Nam":"WINNEBAGO","Latitude":"43.76920","Longitude":"-94.18730","Snowdepth":"7.000","Units":"in","Rept_Date":"2019-11-27 14"},"coordinates":[962,5088]},{"type":"Point","properties":{"Station_ID":"WMRM5","Station_Nam":"WILLMAR 5N","Latitude":"45.19010","Longitude":"-95.05860","Snowdepth":"7.000","Units":"in","Rept_Date":"2019-11-27 12"},"coordinates":[687,5965]},{"type":"Point","properties":{"Station_ID":"WI-CH-3","Station_Nam":"CORNELL 4.1 W, WI","Latitude":"45.17024","Longitude":"-91.23610","Snowdepth":"7.000","Units":"in","Rept_Date":"2019-11-27 14"},"coordinates":[1891,5953]},{"type":"Point","properties":{"Station_ID":"WI-BY-2","Station_Nam":"MELLEN 18.6 SW, WI","Latitude":"46.16937","Longitude":"-90.98090","Snowdepth":"7.000","Units":"in","Rept_Date":"2019-11-27 13"},"coordinates":[1972,6570]},{"type":"Point","properties":{"Station_ID":"WI-BY-14","Station_Nam":"ASHLAND 9.8 W, WI","Latitude":"46.59742","Longitude":"-91.07856","Snowdepth":"7.000","Units":"in","Rept_Date":"2019-11-27 12"},"coordinates":[1941,6834]},{"type":"Point","properties":{"Station_ID":"WDOM5","Station_Nam":"WINDOM","Latitude":"43.87700","Longitude":"-95.11590","Snowdepth":"7.000","Units":"in","Rept_Date":"2019-11-27 14"},"coordinates":[669,5155]},{"type":"Point","properties":{"Station_ID":"UMNM5","Station_Nam":"UNIVERSITY OF MN ST. PAUL","Latitude":"44.99020","Longitude":"-93.17990","Snowdepth":"7.000","Units":"in","Rept_Date":"2019-11-27 14"},"coordinates":[1279,5842]},{"type":"Point","properties":{"Station_ID":"SLBI4","Station_Nam":"STORM LAKE","Latitude":"42.64690","Longitude":"-95.19330","Snowdepth":"7.000","Units":"in","Rept_Date":"2019-11-27 14"},"coordinates":[645,4396]},{"type":"Point","properties":{"Station_ID":"RGNM1","Station_Nam":"RANGELEY 2NW","Latitude":"44.98940","Longitude":"-70.67220","Snowdepth":"7.000","Units":"in","Rept_Date":"2019-11-27 11"},"coordinates":[8371,5841]},{"type":"Point","properties":{"Station_ID":"QNCM4","Station_Nam":"QUINCY HILL","Latitude":"47.13640","Longitude":"-88.57950","Snowdepth":"7.000","Units":"in","Rept_Date":"2019-11-27 12"},"coordinates":[2729,7166]},{"type":"Point","properties":{"Station_ID":"OWAM5","Station_Nam":"OWATONNA","Latitude":"44.09760","Longitude":"-93.23180","Snowdepth":"7.000","Units":"in","Rept_Date":"2019-11-27 14"},"coordinates":[1263,5291]},{"type":"Point","properties":{"Station_ID":"MOOM5","Station_Nam":"MOOSE LAKE,MN","Latitude":"46.45000","Longitude":"-92.75780","Snowdepth":"7.000","Units":"in","Rept_Date":"2019-11-28 06"},"coordinates":[1412,6743]},{"type":"Point","properties":{"Station_ID":"MNG0GYSN","Station_Nam":"LONSDALE 1.1 SSW","Latitude":"44.46445","Longitude":"-93.43293","Snowdepth":"7.000","Units":"in","Rept_Date":"2019-11-27 12"},"coordinates":[1199,5517]},{"type":"Point","properties":{"Station_ID":"MN-SL-18","Station_Nam":"DULUTH 1.4 NNW, MN","Latitude":"46.80321","Longitude":"-92.11240","Snowdepth":"7.000","Units":"in","Rept_Date":"2019-11-27 15"},"coordinates":[1615,6961]},{"type":"Point","properties":{"Station_ID":"MN-SH-10","Station_Nam":"BIG LAKE 5.6 NNE, MN","Latitude":"45.41409","Longitude":"-93.69190","Snowdepth":"7.000","Units":"in","Rept_Date":"2019-11-27 13"},"coordinates":[1118,6103]},{"type":"Point","properties":{"Station_ID":"MN-RM-56","Station_Nam":"ROSEVILLE 1.6 NW, MN","Latitude":"45.03303","Longitude":"-93.17523","Snowdepth":"7.000","Units":"in","Rept_Date":"2019-11-27 13"},"coordinates":[1280,5868]},{"type":"Point","properties":{"Station_ID":"MN-RC-1","Station_Nam":"MONTGOMERY 3.2 ENE, MN","Latitude":"44.46400","Longitude":"-93.51980","Snowdepth":"7.000","Units":"in","Rept_Date":"2019-11-27 12"},"coordinates":[1172,5517]},{"type":"Point","properties":{"Station_ID":"MN-MT-6","Station_Nam":"FAIRMONT 0.7 E, MN","Latitude":"43.64501","Longitude":"-94.44860","Snowdepth":"7.000","Units":"in","Rept_Date":"2019-11-27 13"},"coordinates":[879,5012]},{"type":"Point","properties":{"Station_ID":"MN-HN-72","Station_Nam":"MAPLE GROVE 2.9 NE, MN","Latitude":"45.13953","Longitude":"-93.42070","Snowdepth":"7.000","Units":"in","Rept_Date":"2019-11-27 14"},"coordinates":[1203,5934]},{"type":"Point","properties":{"Station_ID":"MN-HN-5","Station_Nam":"NEW HOPE 1.9 S, MN","Latitude":"45.01000","Longitude":"-93.37920","Snowdepth":"7.000","Units":"in","Rept_Date":"2019-11-27 13"},"coordinates":[1216,5854]},{"type":"Point","properties":{"Station_ID":"MMNV1","Station_Nam":"MT. MANSFIELD","Latitude":"44.52480","Longitude":"-72.81540","Snowdepth":"7.000","Units":"in","Rept_Date":"2019-11-27 21"},"coordinates":[7696,5555]},{"type":"Point","properties":{"Station_ID":"LADW3","Station_Nam":"LADYSMITH WTP","Latitude":"45.44290","Longitude":"-91.08970","Snowdepth":"7.000","Units":"in","Rept_Date":"2019-11-27 13"},"coordinates":[1938,6121]},{"type":"Point","properties":{"Station_ID":"KMSP","Station_Nam":"MINNEAPOLIS-ST PAUL INTERNATIONAL","Latitude":"44.86666","Longitude":"-93.21666","Snowdepth":"7.000","Units":"in","Rept_Date":"2019-11-28 06"},"coordinates":[1267,5766]},{"type":"Point","properties":{"Station_ID":"FORM5","Station_Nam":"FOREST LAKE 5NE","Latitude":"45.33170","Longitude":"-92.89820","Snowdepth":"7.000","Units":"in","Rept_Date":"2019-11-27 13"},"coordinates":[1368,6053]},{"type":"Point","properties":{"Station_ID":"ELYM5","Station_Nam":"ELY","Latitude":"47.90560","Longitude":"-91.82830","Snowdepth":"7.000","Units":"in","Rept_Date":"2019-11-27 16"},"coordinates":[1705,7641]},{"type":"Point","properties":{"Station_ID":"ELRW3","Station_Nam":"EAU CLAIRE 3SW","Latitude":"44.78780","Longitude":"-91.51650","Snowdepth":"7.000","Units":"in","Rept_Date":"2019-11-28 06"},"coordinates":[1803,5717]},{"type":"Point","properties":{"Station_ID":"COVM4","Station_Nam":"COVINGTON","Latitude":"46.55880","Longitude":"-88.54190","Snowdepth":"7.000","Units":"in","Rept_Date":"2019-11-27 13"},"coordinates":[2740,6810]},{"type":"Point","properties":{"Station_ID":"COUW3","Station_Nam":"COUDERAY,WI","Latitude":"45.86670","Longitude":"-91.45000","Snowdepth":"7.000","Units":"in","Rept_Date":"2019-11-27 22"},"coordinates":[1824,6383]},{"type":"Point","properties":{"Station_ID":"CNNW3","Station_Nam":"CRANDON","Latitude":"45.55110","Longitude":"-88.89830","Snowdepth":"7.000","Units":"in","Rept_Date":"2019-11-27 12"},"coordinates":[2628,6188]},{"type":"Point","properties":{"Station_ID":"CMKW3","Station_Nam":"CLAM LAKE 4W","Latitude":"46.16940","Longitude":"-90.98080","Snowdepth":"7.000","Units":"in","Rept_Date":"2019-11-27 13"},"coordinates":[1972,6570]},{"type":"Point","properties":{"Station_ID":"CHPW3","Station_Nam":"CHIPPEWA FALLS","Latitude":"44.92770","Longitude":"-91.40810","Snowdepth":"7.000","Units":"in","Rept_Date":"2019-11-27 14"},"coordinates":[1837,5803]},{"type":"Point","properties":{"Station_ID":"CENS2","Station_Nam":"CENTERVILLE,SD","Latitude":"43.04310","Longitude":"-96.90330","Snowdepth":"7.000","Units":"in","Rept_Date":"2019-11-27 14"},"coordinates":[106,4640]},{"type":"Point","properties":{"Station_ID":"BRUM5","Station_Nam":"BRUNO,MN","Latitude":"46.28330","Longitude":"-92.50000","Snowdepth":"7.000","Units":"in","Rept_Date":"2019-11-27 14"},"coordinates":[1493,6640]},{"type":"Point","properties":{"Station_ID":"BRDM1","Station_Nam":"BRIDGEWATER","Latitude":"46.42870","Longitude":"-67.84370","Snowdepth":"7.000","Units":"in","Rept_Date":"2019-11-27 23"},"coordinates":[9263,6730]},{"type":"Point","properties":{"Station_ID":"BNDM5","Station_Nam":"ELY 25E","Latitude":"47.97190","Longitude":"-91.44860","Snowdepth":"7.000","Units":"in","Rept_Date":"2019-11-27 13"},"coordinates":[1824,7682]},{"type":"Point","properties":{"Station_ID":"BALW3","Station_Nam":"BALDWIN","Latitude":"44.96330","Longitude":"-92.39050","Snowdepth":"7.000","Units":"in","Rept_Date":"2019-11-27 13"},"coordinates":[1528,5825]},{"type":"Point","properties":{"Station_ID":"AMAM4","Station_Nam":"AMASA 1W","Latitude":"46.23470","Longitude":"-88.45440","Snowdepth":"7.000","Units":"in","Rept_Date":"2019-11-27 14"},"coordinates":[2768,6610]},{"type":"Point","properties":{"Station_ID":"AGNW3","Station_Nam":"ARGONNE-1.5 NW","Latitude":"45.67360","Longitude":"-88.90380","Snowdepth":"7.000","Units":"in","Rept_Date":"2019-11-27 13"},"coordinates":[2626,6264]},{"type":"Point","properties":{"Station_ID":"WI-EC-23","Station_Nam":"EAU CLAIRE 3.7 S, WI","Latitude":"44.76858","Longitude":"-91.49898","Snowdepth":"6.800","Units":"in","Rept_Date":"2019-11-27 15"},"coordinates":[1809,5705]},{"type":"Point","properties":{"Station_ID":"MN-IS-8","Station_Nam":"BRAHAM 0.7 ENE, MN","Latitude":"45.72380","Longitude":"-93.15820","Snowdepth":"6.800","Units":"in","Rept_Date":"2019-11-27 15"},"coordinates":[1286,6295]},{"type":"Point","properties":{"Station_ID":"MN-HN-220","Station_Nam":"MINNETRISTA 3.9 SW, MN","Latitude":"44.89290","Longitude":"-93.76130","Snowdepth":"6.800","Units":"in","Rept_Date":"2019-11-27 14"},"coordinates":[1096,5782]},{"type":"Point","properties":{"Station_ID":"MN-HN-239","Station_Nam":"MINNEAPOLIS 4.7 SSW, MN","Latitude":"44.90319","Longitude":"-93.31282","Snowdepth":"6.700","Units":"in","Rept_Date":"2019-11-27 13"},"coordinates":[1237,5788]},{"type":"Point","properties":{"Station_ID":"WI-SC-21","Station_Nam":"CLEAR LAKE 4.0 S, WI","Latitude":"45.19250","Longitude":"-92.27860","Snowdepth":"6.500","Units":"in","Rept_Date":"2019-11-27 14"},"coordinates":[1563,5967]},{"type":"Point","properties":{"Station_ID":"MN-WR-25","Station_Nam":"SAINT MICHAEL 2.0 ENE, MN","Latitude":"45.20820","Longitude":"-93.65280","Snowdepth":"6.500","Units":"in","Rept_Date":"2019-11-27 12"},"coordinates":[1130,5976]},{"type":"Point","properties":{"Station_ID":"MN-WC-8","Station_Nam":"WASECA 2.0 N, MN","Latitude":"44.11194","Longitude":"-93.49972","Snowdepth":"6.500","Units":"in","Rept_Date":"2019-11-27 13"},"coordinates":[1178,5300]},{"type":"Point","properties":{"Station_ID":"MN-MC-7","Station_Nam":"SILVER LAKE 1.7 N, MN","Latitude":"44.92788","Longitude":"-94.20408","Snowdepth":"6.500","Units":"in","Rept_Date":"2019-11-27 13"},"coordinates":[956,5803]},{"type":"Point","properties":{"Station_ID":"MN-FM-10","Station_Nam":"WYKOFF 3.1 NW, MN","Latitude":"43.74340","Longitude":"-92.30650","Snowdepth":"6.500","Units":"in","Rept_Date":"2019-11-27 13"},"coordinates":[1554,5073]},{"type":"Point","properties":{"Station_ID":"MN-AA-76","Station_Nam":"NOWTHEN 2.9 SSE, MN","Latitude":"45.30360","Longitude":"-93.42620","Snowdepth":"6.500","Units":"in","Rept_Date":"2019-11-27 13"},"coordinates":[1201,6035]},{"type":"Point","properties":{"Station_ID":"KABQ6","Station_Nam":"CAB LAKE","Latitude":"49.59950","Longitude":"-89.17990","Snowdepth":"6.420","Units":"in","Rept_Date":"2019-11-28 06"},"coordinates":[2539,8686]},{"type":"Point","properties":{"Station_ID":"MN-HN-240","Station_Nam":"BLOOMINGTON 3.1 E, MN","Latitude":"44.83704","Longitude":"-93.25318","Snowdepth":"6.400","Units":"in","Rept_Date":"2019-11-27 13"},"coordinates":[1256,5747]},{"type":"Point","properties":{"Station_ID":"MN-RM-2","Station_Nam":"NORTH SAINT PAUL 1.0 NNW, MN","Latitude":"45.02629","Longitude":"-93.00790","Snowdepth":"6.300","Units":"in","Rept_Date":"2019-11-27 13"},"coordinates":[1333,5864]},{"type":"Point","properties":{"Station_ID":"MN-AA-56","Station_Nam":"BLAINE 2.2 NNW, MN","Latitude":"45.19838","Longitude":"-93.22812","Snowdepth":"6.200","Units":"in","Rept_Date":"2019-11-27 12"},"coordinates":[1264,5970]},{"type":"Point","properties":{"Station_ID":"WPTN1","Station_Nam":"WEST POINT,NE","Latitude":"41.83330","Longitude":"-96.71670","Snowdepth":"6.000","Units":"in","Rept_Date":"2019-11-27 14"},"coordinates":[164,3894]},{"type":"Point","properties":{"Station_ID":"WLKW3","Station_Nam":"WHITE LAKE 1 SE","Latitude":"45.14520","Longitude":"-88.74160","Snowdepth":"6.000","Units":"in","Rept_Date":"2019-11-27 14"},"coordinates":[2678,5938]},{"type":"Point","properties":{"Station_ID":"WI-SC-24","Station_Nam":"DEER PARK 2.6 SSE, WI","Latitude":"45.15739","Longitude":"-92.35759","Snowdepth":"6.000","Units":"in","Rept_Date":"2019-11-27 14"},"coordinates":[1538,5945]},{"type":"Point","properties":{"Station_ID":"WI-MT-1","Station_Nam":"SCHOFIELD 3.3 E, WI","Latitude":"44.91806","Longitude":"-89.54470","Snowdepth":"6.000","Units":"in","Rept_Date":"2019-11-27 13"},"coordinates":[2424,5797]},{"type":"Point","properties":{"Station_ID":"WI-DN-5","Station_Nam":"ELK MOUND 1.3 NE, WI","Latitude":"44.88627","Longitude":"-91.66680","Snowdepth":"6.000","Units":"in","Rept_Date":"2019-11-27 13"},"coordinates":[1756,5778]},{"type":"Point","properties":{"Station_ID":"WI-DG-20","Station_Nam":"SOLON SPRINGS 1.2 W, WI","Latitude":"46.35217","Longitude":"-91.84405","Snowdepth":"6.000","Units":"in","Rept_Date":"2019-11-27 13"},"coordinates":[1700,6682]},{"type":"Point","properties":{"Station_ID":"WI-BY-1","Station_Nam":"BAYFIELD 8.8 N, WI","Latitude":"46.93855","Longitude":"-90.83490","Snowdepth":"6.000","Units":"in","Rept_Date":"2019-11-27 13"},"coordinates":[2018,7044]},{"type":"Point","properties":{"Station_ID":"WACM5","Station_Nam":"WACONIA","Latitude":"44.85330","Longitude":"-93.80260","Snowdepth":"6.000","Units":"in","Rept_Date":"2019-11-27 12"},"coordinates":[1083,5757]},{"type":"Point","properties":{"Station_ID":"TOGM5","Station_Nam":"CELINA 2E","Latitude":"47.86630","Longitude":"-93.02660","Snowdepth":"6.000","Units":"in","Rept_Date":"2019-11-27 14"},"coordinates":[1327,7617]},{"type":"Point","properties":{"Station_ID":"THLM5","Station_Nam":"THEILMAN 1SSW","Latitude":"44.28130","Longitude":"-92.19430","Snowdepth":"6.000","Units":"in","Rept_Date":"2019-11-27 13"},"coordinates":[1590,5404]},{"type":"Point","properties":{"Station_ID":"SUXI4","Station_Nam":"SNOW PAID FOR KSUX","Latitude":"42.40530","Longitude":"-96.36000","Snowdepth":"6.000","Units":"in","Rept_Date":"2019-11-27 12"},"coordinates":[277,4247]},{"type":"Point","properties":{"Station_ID":"SUX","Station_Nam":"SIOUX GATEWAY AIRPORT","Latitude":"42.40390","Longitude":"-96.38330","Snowdepth":"6.000","Units":"in","Rept_Date":"2019-11-27 13"},"coordinates":[270,4246]},{"type":"Point","properties":{"Station_ID":"STMM4","Station_Nam":"STAMBAUGH 2SSE","Latitude":"46.05550","Longitude":"-88.62780","Snowdepth":"6.000","Units":"in","Rept_Date":"2019-11-27 13"},"coordinates":[2713,6499]},{"type":"Point","properties":{"Station_ID":"SRAW3","Station_Nam":"SARONA","Latitude":"45.80250","Longitude":"-91.86700","Snowdepth":"6.000","Units":"in","Rept_Date":"2019-11-27 14"},"coordinates":[1693,6343]},{"type":"Point","properties":{"Station_ID":"SPRI4","Station_Nam":"SPIRIT LAKE","Latitude":"43.42310","Longitude":"-95.10000","Snowdepth":"6.000","Units":"in","Rept_Date":"2019-11-27 13"},"coordinates":[674,4875]},{"type":"Point","properties":{"Station_ID":"SIBI4","Station_Nam":"SIBLEY","Latitude":"43.40470","Longitude":"-95.74830","Snowdepth":"6.000","Units":"in","Rept_Date":"2019-11-27 13"},"coordinates":[470,4863]},{"type":"Point","properties":{"Station_ID":"SANI4","Station_Nam":"ST ANSGAR","Latitude":"43.38170","Longitude":"-92.92320","Snowdepth":"6.000","Units":"in","Rept_Date":"2019-11-27 12"},"coordinates":[1360,4849]},{"type":"Point","properties":{"Station_ID":"RST","Station_Nam":"ROCHESTER INTERNATIONAL ARPT","Latitude":"43.90890","Longitude":"-92.49780","Snowdepth":"6.000","Units":"in","Rept_Date":"2019-11-28 00"},"coordinates":[1494,5175]},{"type":"Point","properties":{"Station_ID":"RRLW3","Station_Nam":"MERRILL,WI","Latitude":"45.17860","Longitude":"-89.66170","Snowdepth":"6.000","Units":"in","Rept_Date":"2019-11-27 14"},"coordinates":[2388,5958]},{"type":"Point","properties":{"Station_ID":"MSP","Station_Nam":"MINNEAPOLIS-ST PAUL INTL AP","Latitude":"44.88310","Longitude":"-93.22890","Snowdepth":"6.000","Units":"in","Rept_Date":"2019-11-27 12"},"coordinates":[1264,5776]},{"type":"Point","properties":{"Station_ID":"MPXM5","Station_Nam":"CHANHASSEN WSFO","Latitude":"44.84960","Longitude":"-93.56440","Snowdepth":"6.000","Units":"in","Rept_Date":"2019-11-28 06"},"coordinates":[1158,5755]},{"type":"Point","properties":{"Station_ID":"MNE9SLWI","Station_Nam":"LEAVENWORTH 5.4 S","Latitude":"44.14481","Longitude":"-94.78882","Snowdepth":"6.000","Units":"in","Rept_Date":"2019-11-27 13"},"coordinates":[772,5320]},{"type":"Point","properties":{"Station_ID":"MN2EOYHJ","Station_Nam":"OGILVIE 5.6 N","Latitude":"45.91288","Longitude":"-93.42259","Snowdepth":"6.000","Units":"in","Rept_Date":"2019-11-27 14"},"coordinates":[1202,6411]},{"type":"Point","properties":{"Station_ID":"MN0HS1SL","Station_Nam":"NORTH SAINT PAUL 1.6 NW","Latitude":"45.02800","Longitude":"-93.01506","Snowdepth":"6.000","Units":"in","Rept_Date":"2019-11-27 13"},"coordinates":[1331,5865]},{"type":"Point","properties":{"Station_ID":"MN0GWSNW","Station_Nam":"LAKE ELMO 2.9 SE","Latitude":"44.97220","Longitude":"-92.83065","Snowdepth":"6.000","Units":"in","Rept_Date":"2019-11-27 13"},"coordinates":[1389,5831]},{"type":"Point","properties":{"Station_ID":"MN-WG-74","Station_Nam":"OAKDALE 0.4 S, MN","Latitude":"44.98208","Longitude":"-92.96510","Snowdepth":"6.000","Units":"in","Rept_Date":"2019-11-27 13"},"coordinates":[1347,5837]},{"type":"Point","properties":{"Station_ID":"MN-SR-9","Station_Nam":"SARTELL 1.4 SSE, MN","Latitude":"45.60179","Longitude":"-94.19910","Snowdepth":"6.000","Units":"in","Rept_Date":"2019-11-27 13"},"coordinates":[958,6219]},{"type":"Point","properties":{"Station_ID":"MN-SE-2","Station_Nam":"OWATONNA 0.8 E, MN","Latitude":"44.09170","Longitude":"-93.21380","Snowdepth":"6.000","Units":"in","Rept_Date":"2019-11-27 12"},"coordinates":[1268,5287]},{"type":"Point","properties":{"Station_ID":"MN-SC-33","Station_Nam":"SHAKOPEE 2.6 W, MN","Latitude":"44.78173","Longitude":"-93.52868","Snowdepth":"6.000","Units":"in","Rept_Date":"2019-11-27 13"},"coordinates":[1169,5713]},{"type":"Point","properties":{"Station_ID":"MN-RM-63","Station_Nam":"NORTH SAINT PAUL 1.0 NW, MN","Latitude":"45.02410","Longitude":"-93.01400","Snowdepth":"6.000","Units":"in","Rept_Date":"2019-11-27 13"},"coordinates":[1331,5863]},{"type":"Point","properties":{"Station_ID":"MN-RM-15","Station_Nam":"ROSEVILLE 2.1 NW, MN","Latitude":"45.03502","Longitude":"-93.18620","Snowdepth":"6.000","Units":"in","Rept_Date":"2019-11-27 12"},"coordinates":[1277,5870]},{"type":"Point","properties":{"Station_ID":"MN-OL-18","Station_Nam":"ROCHESTER 2.6 NE, MN","Latitude":"44.03975","Longitude":"-92.43750","Snowdepth":"6.000","Units":"in","Rept_Date":"2019-11-27 12"},"coordinates":[1513,5255]},{"type":"Point","properties":{"Station_ID":"MN-HN-88","Station_Nam":"GOLDEN VALLEY 0.8 WSW, MN","Latitude":"44.98461","Longitude":"-93.37440","Snowdepth":"6.000","Units":"in","Rept_Date":"2019-11-27 13"},"coordinates":[1218,5838]},{"type":"Point","properties":{"Station_ID":"MN-HN-78","Station_Nam":"RICHFIELD 1.9 WNW, MN","Latitude":"44.89129","Longitude":"-93.31410","Snowdepth":"6.000","Units":"in","Rept_Date":"2019-11-27 10"},"coordinates":[1237,5781]},{"type":"Point","properties":{"Station_ID":"MN-HN-6","Station_Nam":"LONG LAKE 0.2 WSW, MN","Latitude":"44.98290","Longitude":"-93.57360","Snowdepth":"6.000","Units":"in","Rept_Date":"2019-11-27 13"},"coordinates":[1155,5837]},{"type":"Point","properties":{"Station_ID":"MN-HN-31","Station_Nam":"MAPLE GROVE 1.0 NNE, MN","Latitude":"45.12261","Longitude":"-93.45790","Snowdepth":"6.000","Units":"in","Rept_Date":"2019-11-27 15"},"coordinates":[1191,5924]},{"type":"Point","properties":{"Station_ID":"MN-HN-19","Station_Nam":"EDINA 1.3 SW, MN","Latitude":"44.87830","Longitude":"-93.37890","Snowdepth":"6.000","Units":"in","Rept_Date":"2019-11-27 14"},"coordinates":[1216,5773]},{"type":"Point","properties":{"Station_ID":"MN-GH-4","Station_Nam":"NERSTRAND 4.2 E, MN","Latitude":"44.34247","Longitude":"-92.97920","Snowdepth":"6.000","Units":"in","Rept_Date":"2019-11-27 13"},"coordinates":[1342,5442]},{"type":"Point","properties":{"Station_ID":"MN-GH-28","Station_Nam":"CANNON FALLS 0.5 SE, MN","Latitude":"44.50866","Longitude":"-92.89526","Snowdepth":"6.000","Units":"in","Rept_Date":"2019-11-27 14"},"coordinates":[1369,5545]},{"type":"Point","properties":{"Station_ID":"MN-FT-7","Station_Nam":"WELLS 3.5 SE, MN","Latitude":"43.71420","Longitude":"-93.67130","Snowdepth":"6.000","Units":"in","Rept_Date":"2019-11-27 13"},"coordinates":[1124,5054]},{"type":"Point","properties":{"Station_ID":"MEDW3","Station_Nam":"MEDFORD","Latitude":"45.13080","Longitude":"-90.34390","Snowdepth":"6.000","Units":"in","Rept_Date":"2019-11-27 14"},"coordinates":[2173,5929]},{"type":"Point","properties":{"Station_ID":"LMLI4","Station_Nam":"LAKE MILLS,IA","Latitude":"43.40000","Longitude":"-93.53330","Snowdepth":"6.000","Units":"in","Rept_Date":"2019-11-27 14"},"coordinates":[1168,4861]},{"type":"Point","properties":{"Station_ID":"LKFM5","Station_Nam":"LAKEFIELD,MN","Latitude":"43.68330","Longitude":"-95.18330","Snowdepth":"6.000","Units":"in","Rept_Date":"2019-11-27 13"},"coordinates":[648,5035]},{"type":"Point","properties":{"Station_ID":"LEIM5","Station_Nam":"ORR 3E","Latitude":"48.05810","Longitude":"-92.75220","Snowdepth":"6.000","Units":"in","Rept_Date":"2019-11-27 12"},"coordinates":[1414,7735]},{"type":"Point","properties":{"Station_ID":"JIMW3","Station_Nam":"JIM FALLS 3NW","Latitude":"45.08270","Longitude":"-91.33130","Snowdepth":"6.000","Units":"in","Rept_Date":"2019-11-27 11"},"coordinates":[1861,5899]},{"type":"Point","properties":{"Station_ID":"ISEM5","Station_Nam":"ISLE 12N","Latitude":"46.31970","Longitude":"-93.50140","Snowdepth":"6.000","Units":"in","Rept_Date":"2019-11-27 14"},"coordinates":[1178,6662]},{"type":"Point","properties":{"Station_ID":"F0896_MADIS","Station_Nam":"FW0896 WELLS","Latitude":"43.71417","Longitude":"-93.67130","Snowdepth":"6.000","Units":"in","Rept_Date":"2019-11-27 07"},"coordinates":[1124,5054]},{"type":"Point","properties":{"Station_ID":"EAU","Station_Nam":"CHIPPEWA VALLEY REGIONAL AIRPORT","Latitude":"44.86650","Longitude":"-91.48790","Snowdepth":"6.000","Units":"in","Rept_Date":"2019-11-28 00"},"coordinates":[1812,5766]},{"type":"Point","properties":{"Station_ID":"DRDW3","Station_Nam":"DURAND","Latitude":"44.61970","Longitude":"-91.97950","Snowdepth":"6.000","Units":"in","Rept_Date":"2019-11-27 14"},"coordinates":[1657,5613]},{"type":"Point","properties":{"Station_ID":"DLHM5","Station_Nam":"DULUTH NWS","Latitude":"46.83680","Longitude":"-92.21080","Snowdepth":"6.000","Units":"in","Rept_Date":"2019-11-28 06"},"coordinates":[1584,6981]},{"type":"Point","properties":{"Station_ID":"BRLN3","Station_Nam":"BERLIN","Latitude":"44.45350","Longitude":"-71.18540","Snowdepth":"6.000","Units":"in","Rept_Date":"2019-11-27 10"},"coordinates":[8210,5511]},{"type":"Point","properties":{"Station_ID":"BABM5","Station_Nam":"BABBITT","Latitude":"47.71210","Longitude":"-91.95330","Snowdepth":"6.000","Units":"in","Rept_Date":"2019-11-27 13"},"coordinates":[1665,7522]},{"type":"Point","properties":{"Station_ID":"AVTW3","Station_Nam":"ARBOR VITAE-JOHNSON LAKE","Latitude":"45.89940","Longitude":"-89.72670","Snowdepth":"6.000","Units":"in","Rept_Date":"2019-11-27 12"},"coordinates":[2367,6403]},{"type":"Point","properties":{"Station_ID":"AVLV1","Station_Nam":"AVERILL","Latitude":"45.00570","Longitude":"-71.69030","Snowdepth":"6.000","Units":"in","Rept_Date":"2019-11-27 13"},"coordinates":[8051,5851]},{"type":"Point","properties":{"Station_ID":"ASTM5","Station_Nam":"AUSTIN WASTE WATER TREATMENT FACILITY","Latitude":"43.65420","Longitude":"-92.97390","Snowdepth":"6.000","Units":"in","Rept_Date":"2019-11-27 13"},"coordinates":[1344,5017]},{"type":"Point","properties":{"Station_ID":"ARX","Station_Nam":"LA CROSSE, WI","Latitude":"43.82280","Longitude":"-91.19190","Snowdepth":"6.000","Units":"in","Rept_Date":"2019-11-28 06"},"coordinates":[1905,5122]},{"type":"Point","properties":{"Station_ID":"ANJM4","Station_Nam":"SNOW PAID OBSERVER FOR KANJ","Latitude":"46.48670","Longitude":"-84.40260","Snowdepth":"6.000","Units":"in","Rept_Date":"2019-11-28 00"},"coordinates":[4045,6765]},{"type":"Point","properties":{"Station_ID":"ANJ","Station_Nam":"SAULT STE MARIE","Latitude":"46.46670","Longitude":"-84.36670","Snowdepth":"6.000","Units":"in","Rept_Date":"2019-11-28 00"},"coordinates":[4056,6753]},{"type":"Point","properties":{"Station_ID":"ANDM1","Station_Nam":"ANDOVER 2","Latitude":"44.65300","Longitude":"-70.79410","Snowdepth":"6.000","Units":"in","Rept_Date":"2019-11-27 12"},"coordinates":[8333,5634]},{"type":"Point","properties":{"Station_ID":"ALTM5","Station_Nam":"ALTURA 5W","Latitude":"44.06330","Longitude":"-92.03970","Snowdepth":"6.000","Units":"in","Rept_Date":"2019-11-27 13"},"coordinates":[1638,5270]},{"type":"Point","properties":{"Station_ID":"CATQ6","Station_Nam":"CAT LAKE","Latitude":"51.72690","Longitude":"-91.82210","Snowdepth":"5.980","Units":"in","Rept_Date":"2019-11-28 06"},"coordinates":[1707,9999]},{"type":"Point","properties":{"Station_ID":"SOCQ6","Station_Nam":"SOCKET LAKE","Latitude":"50.77870","Longitude":"-91.79300","Snowdepth":"5.940","Units":"in","Rept_Date":"2019-11-28 06"},"coordinates":[1716,9414]},{"type":"Point","properties":{"Station_ID":"MN-NC-9","Station_Nam":"KASOTA 4.0 SW, MN","Latitude":"44.25630","Longitude":"-94.03390","Snowdepth":"5.900","Units":"in","Rept_Date":"2019-11-27 13"},"coordinates":[1010,5389]},{"type":"Point","properties":{"Station_ID":"MN-WR-48","Station_Nam":"SAINT MICHAEL 2.5 SSW, MN","Latitude":"45.16700","Longitude":"-93.70530","Snowdepth":"5.800","Units":"in","Rept_Date":"2019-11-27 13"},"coordinates":[1113,5951]},{"type":"Point","properties":{"Station_ID":"CAN-NB-97","Station_Nam":"NEW MARYLAND 0.6 NW, CAN","Latitude":"45.90112","Longitude":"-66.68739","Snowdepth":"5.800","Units":"in","Rept_Date":"2019-11-27 11"},"coordinates":[9627,6404]},{"type":"Point","properties":{"Station_ID":"MN-CN-33","Station_Nam":"BARNUM 4.3 W, MN","Latitude":"46.50393","Longitude":"-92.77943","Snowdepth":"5.600","Units":"in","Rept_Date":"2019-11-27 11"},"coordinates":[1405,6776]},{"type":"Point","properties":{"Station_ID":"WI-EC-5","Station_Nam":"ALTOONA 0.4 SW, WI","Latitude":"44.80128","Longitude":"-91.44819","Snowdepth":"5.500","Units":"in","Rept_Date":"2019-11-27 12"},"coordinates":[1825,5725]},{"type":"Point","properties":{"Station_ID":"MN-SL-20","Station_Nam":"DULUTH 3.2 NE, MN","Latitude":"46.81313","Longitude":"-92.05560","Snowdepth":"5.500","Units":"in","Rept_Date":"2019-11-27 13"},"coordinates":[1633,6967]},{"type":"Point","properties":{"Station_ID":"MN-SL-139","Station_Nam":"DULUTH 1.2 SE, MN","Latitude":"46.77000","Longitude":"-92.08826","Snowdepth":"5.500","Units":"in","Rept_Date":"2019-11-27 12"},"coordinates":[1623,6940]},{"type":"Point","properties":{"Station_ID":"MN-MC-16","Station_Nam":"HUTCHINSON 0.1 ENE, MN","Latitude":"44.88633","Longitude":"-94.37503","Snowdepth":"5.500","Units":"in","Rept_Date":"2019-11-27 13"},"coordinates":[902,5778]},{"type":"Point","properties":{"Station_ID":"MN-LK-5","Station_Nam":"TWO HARBORS 9.7 NNE, MN","Latitude":"47.16560","Longitude":"-91.61950","Snowdepth":"5.500","Units":"in","Rept_Date":"2019-11-27 13"},"coordinates":[1771,7184]},{"type":"Point","properties":{"Station_ID":"MN-CN-1","Station_Nam":"CARLTON 5.6 NE, MN","Latitude":"46.70783","Longitude":"-92.32790","Snowdepth":"5.500","Units":"in","Rept_Date":"2019-11-27 15"},"coordinates":[1547,6902]},{"type":"Point","properties":{"Station_ID":"MN-CG-7","Station_Nam":"STACY 1.4 NW, MN","Latitude":"45.39504","Longitude":"-93.01810","Snowdepth":"5.500","Units":"in","Rept_Date":"2019-11-27 13"},"coordinates":[1330,6092]},{"type":"Point","properties":{"Station_ID":"MN-BW-8","Station_Nam":"COMFREY 6.5 ENE, MN","Latitude":"44.15109","Longitude":"-94.78516","Snowdepth":"5.500","Units":"in","Rept_Date":"2019-11-27 13"},"coordinates":[773,5324]},{"type":"Point","properties":{"Station_ID":"MN-BN-7","Station_Nam":"SAINT CLOUD 1.1 NE, MN","Latitude":"45.56440","Longitude":"-94.12310","Snowdepth":"5.500","Units":"in","Rept_Date":"2019-11-27 13"},"coordinates":[982,6196]},{"type":"Point","properties":{"Station_ID":"MN-BN-6","Station_Nam":"RICE 6.5 SSE, MN","Latitude":"45.67037","Longitude":"-94.16679","Snowdepth":"5.500","Units":"in","Rept_Date":"2019-11-27 13"},"coordinates":[968,6262]},{"type":"Point","properties":{"Station_ID":"IA-PL-8","Station_Nam":"KINGSLEY 0.5 S, IA","Latitude":"42.58026","Longitude":"-95.96896","Snowdepth":"5.400","Units":"in","Rept_Date":"2019-11-27 13"},"coordinates":[400,4355]},{"type":"Point","properties":{"Station_ID":"SD-CY-10","Station_Nam":"VERMILLION 1.4 SE, SD","Latitude":"42.76865","Longitude":"-96.90649","Snowdepth":"5.200","Units":"in","Rept_Date":"2019-11-27 12"},"coordinates":[105,4471]},{"type":"Point","properties":{"Station_ID":"MN-HN-175","Station_Nam":"BLOOMINGTON 2.0 SE, MN","Latitude":"44.81138","Longitude":"-93.28594","Snowdepth":"5.100","Units":"in","Rept_Date":"2019-11-27 13"},"coordinates":[1246,5732]},{"type":"Point","properties":{"Station_ID":"WI-CK-3","Station_Nam":"COLBY 5.9 WSW, WI","Latitude":"44.87209","Longitude":"-90.42463","Snowdepth":"5.000","Units":"in","Rept_Date":"2019-11-28 01"},"coordinates":[2147,5769]},{"type":"Point","properties":{"Station_ID":"WI-BY-6","Station_Nam":"BARNES 2.2 S, WI","Latitude":"46.30264","Longitude":"-91.50320","Snowdepth":"5.000","Units":"in","Rept_Date":"2019-11-27 13"},"coordinates":[1807,6652]},{"type":"Point","properties":{"Station_ID":"WI-BT-14","Station_Nam":"OAKLAND 9.0 ENE, WI","Latitude":"45.95184","Longitude":"-92.21653","Snowdepth":"5.000","Units":"in","Rept_Date":"2019-11-27 13"},"coordinates":[1583,6435]},{"type":"Point","properties":{"Station_ID":"WAYN002","Station_Nam":"WAYNE 0.7 ENE, NE","Latitude":"42.23610","Longitude":"-97.00740","Snowdepth":"5.000","Units":"in","Rept_Date":"2019-11-27 13"},"coordinates":[73,4142]},{"type":"Point","properties":{"Station_ID":"WABM5","Station_Nam":"WABASHA","Latitude":"44.38500","Longitude":"-92.04860","Snowdepth":"5.000","Units":"in","Rept_Date":"2019-11-27 13"},"coordinates":[1635,5468]},{"type":"Point","properties":{"Station_ID":"TOWM5","Station_Nam":"TOWER,MN","Latitude":"47.75530","Longitude":"-92.28580","Snowdepth":"5.000","Units":"in","Rept_Date":"2019-11-27 13"},"coordinates":[1561,7548]},{"type":"Point","properties":{"Station_ID":"SXGI4","Station_Nam":"ANG BASE","Latitude":"42.39640","Longitude":"-96.37780","Snowdepth":"5.000","Units":"in","Rept_Date":"2019-11-27 12"},"coordinates":[271,4241]},{"type":"Point","properties":{"Station_ID":"STIM5","Station_Nam":"STILLWATER 2SW","Latitude":"45.04540","Longitude":"-92.85220","Snowdepth":"5.000","Units":"in","Rept_Date":"2019-11-27 14"},"coordinates":[1382,5876]},{"type":"Point","properties":{"Station_ID":"SPGM5","Station_Nam":"SPRING VALLEY","Latitude":"43.69330","Longitude":"-92.39260","Snowdepth":"5.000","Units":"in","Rept_Date":"2019-11-27 13"},"coordinates":[1527,5042]},{"type":"Point","properties":{"Station_ID":"SD-BK-48","Station_Nam":"VOLGA 0.1 S, SD","Latitude":"44.32180","Longitude":"-96.92220","Snowdepth":"5.000","Units":"in","Rept_Date":"2019-11-27 17"},"coordinates":[100,5429]},{"type":"Point","properties":{"Station_ID":"SCSM5","Station_Nam":"ST CLOUD STATE","Latitude":"45.55100","Longitude":"-94.14950","Snowdepth":"5.000","Units":"in","Rept_Date":"2019-11-27 12"},"coordinates":[973,6188]},{"type":"Point","properties":{"Station_ID":"RSRM5","Station_Nam":"ROCHESTER AP 2NE","Latitude":"43.92810","Longitude":"-92.47580","Snowdepth":"5.000","Units":"in","Rept_Date":"2019-11-28 00"},"coordinates":[1501,5186]},{"type":"Point","properties":{"Station_ID":"RMSI4","Station_Nam":"REMSEN NO. 2","Latitude":"42.81050","Longitude":"-95.97530","Snowdepth":"5.000","Units":"in","Rept_Date":"2019-11-27 16"},"coordinates":[398,4497]},{"type":"Point","properties":{"Station_ID":"RLWM5","Station_Nam":"CAMP NORRIS DNR","Latitude":"48.61000","Longitude":"-95.18170","Snowdepth":"5.000","Units":"in","Rept_Date":"2019-11-27 14"},"coordinates":[648,8076]},{"type":"Point","properties":{"Station_ID":"PIPM5","Station_Nam":"PIPESTONE,MN","Latitude":"44.01390","Longitude":"-96.32580","Snowdepth":"5.000","Units":"in","Rept_Date":"2019-11-27 14"},"coordinates":[288,5239]},{"type":"Point","properties":{"Station_ID":"ORCI4","Station_Nam":"ORANGE CITY","Latitude":"43.00080","Longitude":"-96.05390","Snowdepth":"5.000","Units":"in","Rept_Date":"2019-11-27 13"},"coordinates":[373,4614]},{"type":"Point","properties":{"Station_ID":"NUMM5","Station_Nam":"NEW ULM 3SE","Latitude":"44.29450","Longitude":"-94.40840","Snowdepth":"5.000","Units":"in","Rept_Date":"2019-11-27 11"},"coordinates":[892,5413]},{"type":"Point","properties":{"Station_ID":"NCKN1","Station_Nam":"NICKERSON 3NE","Latitude":"41.56500","Longitude":"-96.44250","Snowdepth":"5.000","Units":"in","Rept_Date":"2019-11-27 13"},"coordinates":[251,3728]},{"type":"Point","properties":{"Station_ID":"MNHZK4CP","Station_Nam":"WATERTOWN 0.8 NW","Latitude":"44.97073","Longitude":"-93.85906","Snowdepth":"5.000","Units":"in","Rept_Date":"2019-11-27 13"},"coordinates":[1065,5830]},{"type":"Point","properties":{"Station_ID":"MN228YHJ","Station_Nam":"RICE 2.8 ESE","Latitude":"45.73609","Longitude":"-94.17230","Snowdepth":"5.000","Units":"in","Rept_Date":"2019-11-27 13"},"coordinates":[966,6302]},{"type":"Point","properties":{"Station_ID":"MN-SH-985","Station_Nam":"PRINCETON 3.3 WSW, MN","Latitude":"45.55211","Longitude":"-93.64481","Snowdepth":"5.000","Units":"in","Rept_Date":"2019-11-27 10"},"coordinates":[1132,6189]},{"type":"Point","properties":{"Station_ID":"MN-RC-11","Station_Nam":"NEW PRAGUE 4.8 ESE, MN","Latitude":"44.51999","Longitude":"-93.48470","Snowdepth":"5.000","Units":"in","Rept_Date":"2019-11-27 11"},"coordinates":[1183,5552]},{"type":"Point","properties":{"Station_ID":"MN-MW-8","Station_Nam":"AUSTIN 2.4 W, MN","Latitude":"43.67190","Longitude":"-93.02280","Snowdepth":"5.000","Units":"in","Rept_Date":"2019-11-27 13"},"coordinates":[1328,5028]},{"type":"Point","properties":{"Station_ID":"MN-MR-4","Station_Nam":"LITTLE FALLS 1.2 SW, MN","Latitude":"45.96886","Longitude":"-94.37720","Snowdepth":"5.000","Units":"in","Rept_Date":"2019-11-27 13"},"coordinates":[902,6446]},{"type":"Point","properties":{"Station_ID":"MN-CV-8","Station_Nam":"WATERTOWN 0.5 NNW, MN","Latitude":"44.96631","Longitude":"-93.84890","Snowdepth":"5.000","Units":"in","Rept_Date":"2019-11-27 10"},"coordinates":[1068,5827]},{"type":"Point","properties":{"Station_ID":"MIEM4","Station_Nam":"MICHIGAMME 3WNW","Latitude":"46.54530","Longitude":"-88.18000","Snowdepth":"5.000","Units":"in","Rept_Date":"2019-11-27 13"},"coordinates":[2854,6802]},{"type":"Point","properties":{"Station_ID":"MCWI4","Station_Nam":"WINNEBAGO RIVER","Latitude":"43.15000","Longitude":"-93.19250","Snowdepth":"5.000","Units":"in","Rept_Date":"2019-11-27 13"},"coordinates":[1275,4706]},{"type":"Point","properties":{"Station_ID":"MAIW3","Station_Nam":"MADELINE ISLAND","Latitude":"46.78330","Longitude":"-90.76670","Snowdepth":"5.000","Units":"in","Rept_Date":"2019-11-27 13"},"coordinates":[2039,6948]},{"type":"Point","properties":{"Station_ID":"LUCW3","Station_Nam":"LUCK","Latitude":"45.57330","Longitude":"-92.48520","Snowdepth":"5.000","Units":"in","Rept_Date":"2019-11-27 21"},"coordinates":[1498,6202]},{"type":"Point","properties":{"Station_ID":"LSXI4","Station_Nam":"LITTLE SIOUX,IA","Latitude":"41.81670","Longitude":"-96.01670","Snowdepth":"5.000","Units":"in","Rept_Date":"2019-11-27 13"},"coordinates":[385,3884]},{"type":"Point","properties":{"Station_ID":"LSTM5","Station_Nam":"LESTER PRAIRIE 2S","Latitude":"44.85930","Longitude":"-94.05030","Snowdepth":"5.000","Units":"in","Rept_Date":"2019-11-27 13"},"coordinates":[1005,5761]},{"type":"Point","properties":{"Station_ID":"LAKM5","Station_Nam":"LAKE CITY","Latitude":"44.43630","Longitude":"-92.27930","Snowdepth":"5.000","Units":"in","Rept_Date":"2019-11-27 13"},"coordinates":[1563,5500]},{"type":"Point","properties":{"Station_ID":"JEFN3","Station_Nam":"JEFFERSON","Latitude":"44.41690","Longitude":"-71.50080","Snowdepth":"5.000","Units":"in","Rept_Date":"2019-11-27 12"},"coordinates":[8110,5488]},{"type":"Point","properties":{"Station_ID":"IMNM4","Station_Nam":"IRON MOUTAIN 5N","Latitude":"45.87580","Longitude":"-88.04030","Snowdepth":"5.000","Units":"in","Rept_Date":"2019-11-28 00"},"coordinates":[2898,6388]},{"type":"Point","properties":{"Station_ID":"IA-SX-9","Station_Nam":"ORANGE CITY 0.3 ENE, IA","Latitude":"43.00598","Longitude":"-96.05268","Snowdepth":"5.000","Units":"in","Rept_Date":"2019-11-27 14"},"coordinates":[374,4617]},{"type":"Point","properties":{"Station_ID":"EGNM5","Station_Nam":"ELGIN 2SSW","Latitude":"44.09700","Longitude":"-92.27010","Snowdepth":"5.000","Units":"in","Rept_Date":"2019-11-27 13"},"coordinates":[1566,5291]},{"type":"Point","properties":{"Station_ID":"DLH","Station_Nam":"DULUTH, MN","Latitude":"46.83690","Longitude":"-92.21030","Snowdepth":"5.000","Units":"in","Rept_Date":"2019-11-28 00"},"coordinates":[1584,6981]},{"type":"Point","properties":{"Station_ID":"COKM5","Station_Nam":"COOK","Latitude":"47.85060","Longitude":"-92.69250","Snowdepth":"5.000","Units":"in","Rept_Date":"2019-11-27 12"},"coordinates":[1433,7607]},{"type":"Point","properties":{"Station_ID":"CLDM5","Station_Nam":"CALEDONIA","Latitude":"43.63090","Longitude":"-91.50270","Snowdepth":"5.000","Units":"in","Rept_Date":"2019-11-27 13"},"coordinates":[1807,5003]},{"type":"Point","properties":{"Station_ID":"CLBW3","Station_Nam":"COLBY 6SW","Latitude":"44.87080","Longitude":"-90.42480","Snowdepth":"5.000","Units":"in","Rept_Date":"2019-11-28 03"},"coordinates":[2147,5768]},{"type":"Point","properties":{"Station_ID":"CHES2","Station_Nam":"CHESTER 2N","Latitude":"43.92830","Longitude":"-96.93160","Snowdepth":"5.000","Units":"in","Rept_Date":"2019-11-27 13"},"coordinates":[97,5187]},{"type":"Point","properties":{"Station_ID":"CBLW3","Station_Nam":"CUMBERLAND","Latitude":"45.53310","Longitude":"-92.02260","Snowdepth":"5.000","Units":"in","Rept_Date":"2019-11-27 13"},"coordinates":[1644,6177]},{"type":"Point","properties":{"Station_ID":"BRCM5","Station_Nam":"BRICELYN","Latitude":"43.54400","Longitude":"-93.84230","Snowdepth":"5.000","Units":"in","Rept_Date":"2019-11-27 13"},"coordinates":[1070,4949]},{"type":"Point","properties":{"Station_ID":"BRAM5","Station_Nam":"BRAINERD","Latitude":"46.34320","Longitude":"-94.20900","Snowdepth":"5.000","Units":"in","Rept_Date":"2019-11-27 13"},"coordinates":[955,6677]},{"type":"Point","properties":{"Station_ID":"BMRW3","Station_Nam":"BLOOMER","Latitude":"45.09070","Longitude":"-91.48640","Snowdepth":"5.000","Units":"in","Rept_Date":"2019-11-27 14"},"coordinates":[1813,5904]},{"type":"Point","properties":{"Station_ID":"MN-HS-6","Station_Nam":"HOUSTON 6.9 E, MN","Latitude":"43.75770","Longitude":"-91.43250","Snowdepth":"4.900","Units":"in","Rept_Date":"2019-11-27 15"},"coordinates":[1830,5081]},{"type":"Point","properties":{"Station_ID":"MN-SR-36","Station_Nam":"SAINT JOSEPH 6.4 N, MN","Latitude":"45.65317","Longitude":"-94.28876","Snowdepth":"4.700","Units":"in","Rept_Date":"2019-11-27 15"},"coordinates":[930,6251]},{"type":"Point","properties":{"Station_ID":"WI-WB-2","Station_Nam":"STONE LAKE 2.0 NW, WI","Latitude":"45.85960","Longitude":"-91.57710","Snowdepth":"4.500","Units":"in","Rept_Date":"2019-11-27 13"},"coordinates":[1784,6378]},{"type":"Point","properties":{"Station_ID":"MN-MR-13","Station_Nam":"LITTLE FALLS 8.0 NE, MN","Latitude":"46.06785","Longitude":"-94.24789","Snowdepth":"4.500","Units":"in","Rept_Date":"2019-11-27 13"},"coordinates":[942,6507]},{"type":"Point","properties":{"Station_ID":"MN-CW-22","Station_Nam":"FORT RIPLEY 0.8 N, MN","Latitude":"46.18089","Longitude":"-94.36510","Snowdepth":"4.500","Units":"in","Rept_Date":"2019-11-27 13"},"coordinates":[905,6577]},{"type":"Point","properties":{"Station_ID":"IA-SX-10","Station_Nam":"SIOUX CENTER 0.4 N, IA","Latitude":"43.08191","Longitude":"-96.17177","Snowdepth":"4.500","Units":"in","Rept_Date":"2019-11-27 12"},"coordinates":[336,4664]},{"type":"Point","properties":{"Station_ID":"WI-MN-4","Station_Nam":"WILTON 4.2 E, WI","Latitude":"43.81028","Longitude":"-90.44360","Snowdepth":"4.400","Units":"in","Rept_Date":"2019-11-27 13"},"coordinates":[2141,5114]},{"type":"Point","properties":{"Station_ID":"MN-CW-16","Station_Nam":"TROMMALD 6.1 NW, MN","Latitude":"46.55849","Longitude":"-94.11723","Snowdepth":"4.300","Units":"in","Rept_Date":"2019-11-27 14"},"coordinates":[984,6810]},{"type":"Point","properties":{"Station_ID":"SD-UN-2","Station_Nam":"ELK POINT 5.6 NNE, SD","Latitude":"42.76126","Longitude":"-96.65320","Snowdepth":"4.200","Units":"in","Rept_Date":"2019-11-27 15"},"coordinates":[184,4466]},{"type":"Point","properties":{"Station_ID":"MN-CV-27","Station_Nam":"CHANHASSEN 3.4 NW, MN","Latitude":"44.88979","Longitude":"-93.60991","Snowdepth":"4.200","Units":"in","Rept_Date":"2019-11-27 14"},"coordinates":[1143,5780]},{"type":"Point","properties":{"Station_ID":"WYNN1","Station_Nam":"WAYNE,NE","Latitude":"42.23330","Longitude":"-97.00920","Snowdepth":"4.000","Units":"in","Rept_Date":"2019-11-27 13"},"coordinates":[72,4141]},{"type":"Point","properties":{"Station_ID":"WUNW3","Station_Nam":"WAUSAU-NORTHEAST","Latitude":"44.97310","Longitude":"-89.61690","Snowdepth":"4.000","Units":"in","Rept_Date":"2019-11-27 11"},"coordinates":[2402,5831]},{"type":"Point","properties":{"Station_ID":"WTSM5","Station_Nam":"WATSON 1 NE","Latitude":"45.02270","Longitude":"-95.78960","Snowdepth":"4.000","Units":"in","Rept_Date":"2019-11-27 14"},"coordinates":[457,5862]},{"type":"Point","properties":{"Station_ID":"WIDM5","Station_Nam":"WINONA DAM 5A","Latitude":"44.08750","Longitude":"-91.67030","Snowdepth":"4.000","Units":"in","Rept_Date":"2019-11-27 14"},"coordinates":[1755,5285]},{"type":"Point","properties":{"Station_ID":"WI-PC-5","Station_Nam":"RIVER FALLS 1.2 SSW, WI","Latitude":"44.84032","Longitude":"-92.63500","Snowdepth":"4.000","Units":"in","Rept_Date":"2019-11-27 13"},"coordinates":[1451,5749]},{"type":"Point","properties":{"Station_ID":"WI-PC-10","Station_Nam":"RIVER FALLS 1.4 S, WI","Latitude":"44.83580","Longitude":"-92.62100","Snowdepth":"4.000","Units":"in","Rept_Date":"2019-11-27 13"},"coordinates":[1455,5747]},{"type":"Point","properties":{"Station_ID":"WI-BR-18","Station_Nam":"CHETEK 5.8 SW, WI","Latitude":"45.24953","Longitude":"-91.72425","Snowdepth":"4.000","Units":"in","Rept_Date":"2019-11-27 13"},"coordinates":[1738,6002]},{"type":"Point","properties":{"Station_ID":"VQAW3","Station_Nam":"VIROQUA","Latitude":"43.55970","Longitude":"-90.87560","Snowdepth":"4.000","Units":"in","Rept_Date":"2019-11-27 13"},"coordinates":[2005,4959]},{"type":"Point","properties":{"Station_ID":"TOHM5","Station_Nam":"TWO HARBORS WWTP","Latitude":"47.01760","Longitude":"-91.66480","Snowdepth":"4.000","Units":"in","Rept_Date":"2019-11-27 13"},"coordinates":[1756,7093]},{"type":"Point","properties":{"Station_ID":"TETM5","Station_Nam":"TETTEGOUCHE STATE PARK","Latitude":"47.33900","Longitude":"-91.19590","Snowdepth":"4.000","Units":"in","Rept_Date":"2019-11-27 14"},"coordinates":[1904,7291]},{"type":"Point","properties":{"Station_ID":"SPCW3","Station_Nam":"SPENCER-WWTP","Latitude":"44.75390","Longitude":"-90.28920","Snowdepth":"4.000","Units":"in","Rept_Date":"2019-11-27 13"},"coordinates":[2190,5696]},{"type":"Point","properties":{"Station_ID":"SHDI4","Station_Nam":"SHELDON,IA","Latitude":"43.18080","Longitude":"-95.85280","Snowdepth":"4.000","Units":"in","Rept_Date":"2019-11-27 12"},"coordinates":[437,4725]},{"type":"Point","properties":{"Station_ID":"SDDW3","Station_Nam":"STODDARD 5NE","Latitude":"43.71890","Longitude":"-91.16800","Snowdepth":"4.000","Units":"in","Rept_Date":"2019-11-27 12"},"coordinates":[1913,5057]},{"type":"Point","properties":{"Station_ID":"SD-MH-41","Station_Nam":"SIOUX FALLS 3.9 SW, SD","Latitude":"43.50475","Longitude":"-96.78660","Snowdepth":"4.000","Units":"in","Rept_Date":"2019-11-27 13"},"coordinates":[142,4925]},{"type":"Point","properties":{"Station_ID":"SCRW3","Station_Nam":"ST CROIX FALLS","Latitude":"45.41170","Longitude":"-92.64660","Snowdepth":"4.000","Units":"in","Rept_Date":"2019-11-27 13"},"coordinates":[1447,6102]},{"type":"Point","properties":{"Station_ID":"RKRI4","Station_Nam":"ROCK RAPIDS,IA","Latitude":"43.43330","Longitude":"-96.16670","Snowdepth":"4.000","Units":"in","Rept_Date":"2019-11-27 14"},"coordinates":[338,4881]},{"type":"Point","properties":{"Station_ID":"RFDM5","Station_Nam":"ROCKFORD","Latitude":"45.08960","Longitude":"-93.73990","Snowdepth":"4.000","Units":"in","Rept_Date":"2019-11-27 13"},"coordinates":[1102,5903]},{"type":"Point","properties":{"Station_ID":"REWM5","Station_Nam":"REDWOOD FALLS","Latitude":"44.54850","Longitude":"-95.09980","Snowdepth":"4.000","Units":"in","Rept_Date":"2019-11-27 13"},"coordinates":[674,5569]},{"type":"Point","properties":{"Station_ID":"RCEM5","Station_Nam":"RICE","Latitude":"45.75760","Longitude":"-94.20720","Snowdepth":"4.000","Units":"in","Rept_Date":"2019-11-27 13"},"coordinates":[955,6315]},{"type":"Point","properties":{"Station_ID":"PRDM4","Station_Nam":"PARADISE","Latitude":"46.60380","Longitude":"-85.03960","Snowdepth":"4.000","Units":"in","Rept_Date":"2019-11-27 11"},"coordinates":[3844,6838]},{"type":"Point","properties":{"Station_ID":"OSAI4","Station_Nam":"OSAGE","Latitude":"43.27940","Longitude":"-92.81060","Snowdepth":"4.000","Units":"in","Rept_Date":"2019-11-27 13"},"coordinates":[1395,4786]},{"type":"Point","properties":{"Station_ID":"NUMN3","Station_Nam":"NORTHUMBERLAND","Latitude":"44.52830","Longitude":"-71.50440","Snowdepth":"4.000","Units":"in","Rept_Date":"2019-11-27 13"},"coordinates":[8109,5557]},{"type":"Point","properties":{"Station_ID":"NSFN3","Station_Nam":"NORTH STRATFORD","Latitude":"44.68190","Longitude":"-71.58570","Snowdepth":"4.000","Units":"in","Rept_Date":"2019-11-27 12"},"coordinates":[8084,5652]},{"type":"Point","properties":{"Station_ID":"NE-DD-3","Station_Nam":"FREMONT 0.6 S, NE","Latitude":"41.43141","Longitude":"-96.49210","Snowdepth":"4.000","Units":"in","Rept_Date":"2019-11-27 13"},"coordinates":[235,3646]},{"type":"Point","properties":{"Station_ID":"MRFS2","Station_Nam":"MADISON,SD","Latitude":"44.00000","Longitude":"-97.23330","Snowdepth":"4.000","Units":"in","Rept_Date":"2019-11-27 15"},"coordinates":[2,5231]},{"type":"Point","properties":{"Station_ID":"MPTI4","Station_Nam":"NO.2","Latitude":"42.16670","Longitude":"-95.78330","Snowdepth":"4.000","Units":"in","Rept_Date":"2019-11-27 13"},"coordinates":[459,4100]},{"type":"Point","properties":{"Station_ID":"MNDMBBNN","Station_Nam":"OWATONNA 3.5 W","Latitude":"44.08801","Longitude":"-93.29623","Snowdepth":"4.000","Units":"in","Rept_Date":"2019-11-27 13"},"coordinates":[1242,5285]},{"type":"Point","properties":{"Station_ID":"MN7M8EBJ","Station_Nam":"LUTSEN 15.7 NNW","Latitude":"47.85324","Longitude":"-89.92908","Snowdepth":"4.000","Units":"in","Rept_Date":"2019-11-27 14"},"coordinates":[2303,7609]},{"type":"Point","properties":{"Station_ID":"MN-WR-42","Station_Nam":"HOWARD LAKE 1.2 NW, MN","Latitude":"45.07454","Longitude":"-94.08120","Snowdepth":"4.000","Units":"in","Rept_Date":"2019-11-27 14"},"coordinates":[995,5894]},{"type":"Point","properties":{"Station_ID":"MN-WG-33","Station_Nam":"COTTAGE GROVE 1.6 NNW, MN","Latitude":"44.83821","Longitude":"-92.93590","Snowdepth":"4.000","Units":"in","Rept_Date":"2019-11-27 13"},"coordinates":[1356,5748]},{"type":"Point","properties":{"Station_ID":"MN-WG-16","Station_Nam":"WOODBURY 1.7 N, MN","Latitude":"44.93054","Longitude":"-92.92490","Snowdepth":"4.000","Units":"in","Rept_Date":"2019-11-27 13"},"coordinates":[1359,5805]},{"type":"Point","properties":{"Station_ID":"MN-SL-15","Station_Nam":"CHISHOLM 0.4 WSW, MN","Latitude":"47.48557","Longitude":"-92.88690","Snowdepth":"4.000","Units":"in","Rept_Date":"2019-11-27 13"},"coordinates":[1371,7382]},{"type":"Point","properties":{"Station_ID":"MN-SL-108","Station_Nam":"IRON JUNCTION 3.4 NNW, MN","Latitude":"47.46150","Longitude":"-92.63130","Snowdepth":"4.000","Units":"in","Rept_Date":"2019-11-27 13"},"coordinates":[1452,7367]},{"type":"Point","properties":{"Station_ID":"MN-RV-8","Station_Nam":"BIRD ISLAND 7.2 SSE, MN","Latitude":"44.66542","Longitude":"-94.85440","Snowdepth":"4.000","Units":"in","Rept_Date":"2019-11-27 13"},"coordinates":[751,5641]},{"type":"Point","properties":{"Station_ID":"MN-RM-90","Station_Nam":"ROSEVILLE 0.5 NE, MN","Latitude":"45.02050","Longitude":"-93.14800","Snowdepth":"4.000","Units":"in","Rept_Date":"2019-11-27 07"},"coordinates":[1289,5861]},{"type":"Point","properties":{"Station_ID":"MN-HN-242","Station_Nam":"EDINA 1.4 SE, MN","Latitude":"44.87827","Longitude":"-93.33751","Snowdepth":"4.000","Units":"in","Rept_Date":"2019-11-27 13"},"coordinates":[1229,5773]},{"type":"Point","properties":{"Station_ID":"MN-DK-104","Station_Nam":"HASTINGS 1.6 NW, MN","Latitude":"44.74458","Longitude":"-92.88035","Snowdepth":"4.000","Units":"in","Rept_Date":"2019-11-27 13"},"coordinates":[1373,5690]},{"type":"Point","properties":{"Station_ID":"MN-BW-1","Station_Nam":"SPRINGFIELD 1.7 NNW, MN","Latitude":"44.26120","Longitude":"-94.99220","Snowdepth":"4.000","Units":"in","Rept_Date":"2019-11-27 13"},"coordinates":[708,5392]},{"type":"Point","properties":{"Station_ID":"MMLM5","Station_Nam":"DIVERSION","Latitude":"44.47060","Longitude":"-95.80000","Snowdepth":"4.000","Units":"in","Rept_Date":"2019-11-27 14"},"coordinates":[453,5521]},{"type":"Point","properties":{"Station_ID":"MLRM5","Station_Nam":"MELROSE","Latitude":"45.67710","Longitude":"-94.80200","Snowdepth":"4.000","Units":"in","Rept_Date":"2019-11-27 13"},"coordinates":[768,6266]},{"type":"Point","properties":{"Station_ID":"MFDW3","Station_Nam":"MARSHFIELD EXP FARM","Latitude":"44.64110","Longitude":"-90.13330","Snowdepth":"4.000","Units":"in","Rept_Date":"2019-11-27 13"},"coordinates":[2239,5626]},{"type":"Point","properties":{"Station_ID":"ME-PN-45","Station_Nam":"MILLINOCKET 2.7 ESE, ME","Latitude":"45.65002","Longitude":"-68.64472","Snowdepth":"4.000","Units":"in","Rept_Date":"2019-11-27 12"},"coordinates":[9010,6249]},{"type":"Point","properties":{"Station_ID":"MABM5","Station_Nam":"MABEL","Latitude":"43.52410","Longitude":"-91.76160","Snowdepth":"4.000","Units":"in","Rept_Date":"2019-11-27 13"},"coordinates":[1726,4937]},{"type":"Point","properties":{"Station_ID":"LPLN6","Station_Nam":"LAKE PLACID 2 S","Latitude":"44.30420","Longitude":"-73.98390","Snowdepth":"4.000","Units":"in","Rept_Date":"2019-11-27 12"},"coordinates":[7328,5419]},{"type":"Point","properties":{"Station_ID":"LNGM5","Station_Nam":"LONG PRAIRIE","Latitude":"45.96460","Longitude":"-94.88920","Snowdepth":"4.000","Units":"in","Rept_Date":"2019-11-27 12"},"coordinates":[740,6443]},{"type":"Point","properties":{"Station_ID":"KSGM4","Station_Nam":"KEARSARGE","Latitude":"47.27520","Longitude":"-88.41700","Snowdepth":"4.000","Units":"in","Rept_Date":"2019-11-27 13"},"coordinates":[2780,7252]},{"type":"Point","properties":{"Station_ID":"JKMM1","Station_Nam":"JACKMAN","Latitude":"45.62600","Longitude":"-70.24600","Snowdepth":"4.000","Units":"in","Rept_Date":"2019-11-27 12"},"coordinates":[8506,6234]},{"type":"Point","properties":{"Station_ID":"INL","Station_Nam":"FALLS INTERNATIONAL ARPT","Latitude":"48.56640","Longitude":"-93.40310","Snowdepth":"4.000","Units":"in","Rept_Date":"2019-11-28 00"},"coordinates":[1209,8049]},{"type":"Point","properties":{"Station_ID":"ILIM5","Station_Nam":"ISLAND LAKE","Latitude":"47.02400","Longitude":"-92.07000","Snowdepth":"4.000","Units":"in","Rept_Date":"2019-11-27 15"},"coordinates":[1629,7097]},{"type":"Point","properties":{"Station_ID":"IFSM5","Station_Nam":"INTERNATIONAL FALLS SNOW","Latitude":"48.57780","Longitude":"-93.39640","Snowdepth":"4.000","Units":"in","Rept_Date":"2019-11-27 12"},"coordinates":[1211,8056]},{"type":"Point","properties":{"Station_ID":"IA-KS-4","Station_Nam":"ALGONA 0.7 SE, IA","Latitude":"43.06627","Longitude":"-94.22214","Snowdepth":"4.000","Units":"in","Rept_Date":"2019-11-27 13"},"coordinates":[951,4655]},{"type":"Point","properties":{"Station_ID":"IA-CF-2","Station_Nam":"SCHLESWIG 0.4 NE, IA","Latitude":"42.16548","Longitude":"-95.42870","Snowdepth":"4.000","Units":"in","Rept_Date":"2019-11-27 13"},"coordinates":[570,4099]},{"type":"Point","properties":{"Station_ID":"HSTM5","Station_Nam":"HASTINGS DAM 2","Latitude":"44.75970","Longitude":"-92.86890","Snowdepth":"4.000","Units":"in","Rept_Date":"2019-11-27 13"},"coordinates":[1377,5700]},{"type":"Point","properties":{"Station_ID":"HSTI4","Station_Nam":"HOLSTEIN,IA","Latitude":"42.48920","Longitude":"-95.53330","Snowdepth":"4.000","Units":"in","Rept_Date":"2019-11-27 13"},"coordinates":[537,4299]},{"type":"Point","properties":{"Station_ID":"HMNM5","Station_Nam":"HILLS,MN","Latitude":"43.52920","Longitude":"-96.36110","Snowdepth":"4.000","Units":"in","Rept_Date":"2019-11-27 18"},"coordinates":[277,4940]},{"type":"Point","properties":{"Station_ID":"GILV1","Station_Nam":"GILMAN","Latitude":"44.41120","Longitude":"-71.71860","Snowdepth":"4.000","Units":"in","Rept_Date":"2019-11-27 12"},"coordinates":[8042,5485]},{"type":"Point","properties":{"Station_ID":"FMTN1","Station_Nam":"FREMONT,NE","Latitude":"41.43330","Longitude":"-96.48330","Snowdepth":"4.000","Units":"in","Rept_Date":"2019-11-27 13"},"coordinates":[238,3647]},{"type":"Point","properties":{"Station_ID":"FLDM5","Station_Nam":"FLOODWOOD,MN","Latitude":"47.00000","Longitude":"-92.91670","Snowdepth":"4.000","Units":"in","Rept_Date":"2019-11-27 14"},"coordinates":[1362,7082]},{"type":"Point","properties":{"Station_ID":"ETTW3","Station_Nam":"ETTRICK 4WNW","Latitude":"44.19000","Longitude":"-91.34240","Snowdepth":"4.000","Units":"in","Rept_Date":"2019-11-27 13"},"coordinates":[1858,5348]},{"type":"Point","properties":{"Station_ID":"DEMS2","Station_Nam":"SIOUX FALLS 5SE FSD ARPT","Latitude":"43.52690","Longitude":"-96.66830","Snowdepth":"4.000","Units":"in","Rept_Date":"2019-11-27 13"},"coordinates":[180,4939]},{"type":"Point","properties":{"Station_ID":"CORV1","Station_Nam":"CORINTH","Latitude":"44.00690","Longitude":"-72.31940","Snowdepth":"4.000","Units":"in","Rept_Date":"2019-11-27 12"},"coordinates":[7852,5235]},{"type":"Point","properties":{"Station_ID":"CNNS2","Station_Nam":"CANTON","Latitude":"43.31120","Longitude":"-96.58770","Snowdepth":"4.000","Units":"in","Rept_Date":"2019-11-27 12"},"coordinates":[205,4806]},{"type":"Point","properties":{"Station_ID":"CEFM4","Station_Nam":"EXPERIMENT FARM #2","Latitude":"46.33330","Longitude":"-86.91670","Snowdepth":"4.000","Units":"in","Rept_Date":"2019-11-27 13"},"coordinates":[3253,6671]},{"type":"Point","properties":{"Station_ID":"CAN-NB-2","Station_Nam":"GRAFTON 2.7 NNE, CA","Latitude":"46.17062","Longitude":"-67.55330","Snowdepth":"4.000","Units":"in","Rept_Date":"2019-11-27 10"},"coordinates":[9354,6570]},{"type":"Point","properties":{"Station_ID":"BTTI4","Station_Nam":"BRITT,IA","Latitude":"43.08330","Longitude":"-93.80140","Snowdepth":"4.000","Units":"in","Rept_Date":"2019-11-27 14"},"coordinates":[1083,4665]},{"type":"Point","properties":{"Station_ID":"BTHM5","Station_Nam":"BLUE EARTH 1S","Latitude":"43.62370","Longitude":"-94.09470","Snowdepth":"4.000","Units":"in","Rept_Date":"2019-11-27 14"},"coordinates":[991,4999]},{"type":"Point","properties":{"Station_ID":"BLKW3","Station_Nam":"BLACK RIVER FALLS SEWAGE","Latitude":"44.29040","Longitude":"-90.85360","Snowdepth":"4.000","Units":"in","Rept_Date":"2019-11-27 14"},"coordinates":[2012,5410]},{"type":"Point","properties":{"Station_ID":"BDIM5","Station_Nam":"BIRD ISLAND 7SSE","Latitude":"44.66490","Longitude":"-94.85460","Snowdepth":"4.000","Units":"in","Rept_Date":"2019-11-27 13"},"coordinates":[751,5641]},{"type":"Point","properties":{"Station_ID":"AWXW3","Station_Nam":"ASHLAND","Latitude":"46.58240","Longitude":"-90.88390","Snowdepth":"4.000","Units":"in","Rept_Date":"2019-11-27 13"},"coordinates":[2002,6824]},{"type":"Point","properties":{"Station_ID":"ALGI4","Station_Nam":"ALGONA,IA","Latitude":"43.06670","Longitude":"-94.30610","Snowdepth":"4.000","Units":"in","Rept_Date":"2019-11-27 13"},"coordinates":[924,4655]},{"type":"Point","properties":{"Station_ID":"SD-LK-9","Station_Nam":"MADISON 0.2 NW, SD","Latitude":"44.00975","Longitude":"-97.11018","Snowdepth":"3.800","Units":"in","Rept_Date":"2019-11-27 13"},"coordinates":[40,5237]},{"type":"Point","properties":{"Station_ID":"MN-CS-1","Station_Nam":"PILLAGER 5.1 N, MN","Latitude":"46.40250","Longitude":"-94.46310","Snowdepth":"3.800","Units":"in","Rept_Date":"2019-11-27 13"},"coordinates":[875,6713]},{"type":"Point","properties":{"Station_ID":"CAN-QC-47","Station_Nam":"SAINTE-FOY 1.8 ENE, CAN","Latitude":"46.76934","Longitude":"-71.27124","Snowdepth":"3.700","Units":"in","Rept_Date":"2019-11-27 12"},"coordinates":[8183,6940]},{"type":"Point","properties":{"Station_ID":"WI-SR-1","Station_Nam":"HAYWARD 9.2 NNE, WI","Latitude":"46.13255","Longitude":"-91.40500","Snowdepth":"3.600","Units":"in","Rept_Date":"2019-11-27 12"},"coordinates":[1838,6547]},{"type":"Point","properties":{"Station_ID":"MN-HS-9","Station_Nam":"LA CRESCENT 0.7 N, MN","Latitude":"43.83866","Longitude":"-91.30443","Snowdepth":"3.600","Units":"in","Rept_Date":"2019-11-27 13"},"coordinates":[1870,5131]},{"type":"Point","properties":{"Station_ID":"MN-HN-17","Station_Nam":"EDEN PRAIRIE 3.3 WSW, MN","Latitude":"44.82940","Longitude":"-93.52010","Snowdepth":"3.600","Units":"in","Rept_Date":"2019-11-27 14"},"coordinates":[1172,5743]},{"type":"Point","properties":{"Station_ID":"WI-AS-4","Station_Nam":"ASHLAND 0.5 WNW, WI","Latitude":"46.58240","Longitude":"-90.88390","Snowdepth":"3.500","Units":"in","Rept_Date":"2019-11-27 13"},"coordinates":[2002,6824]},{"type":"Point","properties":{"Station_ID":"VT-WS-7","Station_Nam":"MIDDLESEX 3.1 ENE, VT","Latitude":"44.31799","Longitude":"-72.62650","Snowdepth":"3.500","Units":"in","Rept_Date":"2019-11-27 13"},"coordinates":[7756,5427]},{"type":"Point","properties":{"Station_ID":"SD-MH-8","Station_Nam":"HARTFORD 6.4 S, SD","Latitude":"43.53128","Longitude":"-96.95020","Snowdepth":"3.500","Units":"in","Rept_Date":"2019-11-27 15"},"coordinates":[91,4942]},{"type":"Point","properties":{"Station_ID":"SD-MH-1","Station_Nam":"SIOUX FALLS 5.0 SE ARPT, SD","Latitude":"43.52360","Longitude":"-96.66780","Snowdepth":"3.500","Units":"in","Rept_Date":"2019-11-27 13"},"coordinates":[180,4937]},{"type":"Point","properties":{"Station_ID":"MN-SL-115","Station_Nam":"COTTON 5.7 ESE, MN","Latitude":"47.15142","Longitude":"-92.35772","Snowdepth":"3.500","Units":"in","Rept_Date":"2019-11-27 14"},"coordinates":[1538,7176]},{"type":"Point","properties":{"Station_ID":"MN-PS-6","Station_Nam":"EDGERTON 0.2 WSW, MN","Latitude":"43.87444","Longitude":"-96.13328","Snowdepth":"3.500","Units":"in","Rept_Date":"2019-11-27 12"},"coordinates":[348,5153]},{"type":"Point","properties":{"Station_ID":"MN-LK-19","Station_Nam":"TWO HARBORS 2.1 NW, MN","Latitude":"47.04819","Longitude":"-91.71127","Snowdepth":"3.500","Units":"in","Rept_Date":"2019-11-27 13"},"coordinates":[1742,7112]},{"type":"Point","properties":{"Station_ID":"MN-CK-6","Station_Nam":"GRAND MARAIS 4.4 W, MN","Latitude":"47.74865","Longitude":"-90.43760","Snowdepth":"3.500","Units":"in","Rept_Date":"2019-11-27 13"},"coordinates":[2143,7544]},{"type":"Point","properties":{"Station_ID":"MI-HG-6","Station_Nam":"CALUMET 5.8 ENE, MI","Latitude":"47.27200","Longitude":"-88.33400","Snowdepth":"3.500","Units":"in","Rept_Date":"2019-11-27 11"},"coordinates":[2806,7250]},{"type":"Point","properties":{"Station_ID":"MN-PN-17","Station_Nam":"BROOK PARK 3.9 S, MN","Latitude":"45.89189","Longitude":"-93.06306","Snowdepth":"3.300","Units":"in","Rept_Date":"2019-11-27 12"},"coordinates":[1316,6398]},{"type":"Point","properties":{"Station_ID":"WSLW3","Station_Nam":"WEST SALEM","Latitude":"43.89670","Longitude":"-91.08570","Snowdepth":"3.000","Units":"in","Rept_Date":"2019-11-27 13"},"coordinates":[1939,5167]},{"type":"Point","properties":{"Station_ID":"WRIM5","Station_Nam":"WRIGHT 3E","Latitude":"46.68040","Longitude":"-92.95420","Snowdepth":"3.000","Units":"in","Rept_Date":"2019-11-27 12"},"coordinates":[1350,6885]},{"type":"Point","properties":{"Station_ID":"WMTI4","Station_Nam":"FORT DODGE,IA","Latitude":"42.50610","Longitude":"-94.20110","Snowdepth":"3.000","Units":"in","Rept_Date":"2019-11-27 12"},"coordinates":[957,4309]},{"type":"Point","properties":{"Station_ID":"WLDM5","Station_Nam":"WILD RIVER STATE PARK","Latitude":"45.52310","Longitude":"-92.74890","Snowdepth":"3.000","Units":"in","Rept_Date":"2019-11-27 14"},"coordinates":[1415,6171]},{"type":"Point","properties":{"Station_ID":"WI-VR-6","Station_Nam":"STODDARD 0.1 SW, WI","Latitude":"43.66050","Longitude":"-91.21930","Snowdepth":"3.000","Units":"in","Rept_Date":"2019-11-27 13"},"coordinates":[1897,5021]},{"type":"Point","properties":{"Station_ID":"WI-VR-2","Station_Nam":"VIROQUA 0.8 ESE, WI","Latitude":"43.55304","Longitude":"-90.87100","Snowdepth":"3.000","Units":"in","Rept_Date":"2019-11-27 13"},"coordinates":[2007,4955]},{"type":"Point","properties":{"Station_ID":"WI-PK-4","Station_Nam":"DRESSER 6.1 ESE, WI","Latitude":"45.32436","Longitude":"-92.52080","Snowdepth":"3.000","Units":"in","Rept_Date":"2019-11-27 14"},"coordinates":[1487,6048]},{"type":"Point","properties":{"Station_ID":"WI-OC-1","Station_Nam":"MOUNTAIN 1.1 SW, WI","Latitude":"45.17239","Longitude":"-88.48990","Snowdepth":"3.000","Units":"in","Rept_Date":"2019-11-27 23"},"coordinates":[2757,5954]},{"type":"Point","properties":{"Station_ID":"WI-MT-14","Station_Nam":"MOSINEE 2.7 WSW, WI","Latitude":"44.77240","Longitude":"-89.73441","Snowdepth":"3.000","Units":"in","Rept_Date":"2019-11-27 13"},"coordinates":[2365,5707]},{"type":"Point","properties":{"Station_ID":"WI-LC-1","Station_Nam":"WEST SALEM 0.7 W, WI","Latitude":"43.89817","Longitude":"-91.09548","Snowdepth":"3.000","Units":"in","Rept_Date":"2019-11-27 13"},"coordinates":[1936,5168]},{"type":"Point","properties":{"Station_ID":"WHFN6","Station_Nam":"WILMINGTON 2W","Latitude":"44.39310","Longitude":"-73.85890","Snowdepth":"3.000","Units":"in","Rept_Date":"2019-11-27 13"},"coordinates":[7367,5473]},{"type":"Point","properties":{"Station_ID":"VT-WS-30","Station_Nam":"WOODBURY 3.4 NNW, VT","Latitude":"44.48825","Longitude":"-72.43258","Snowdepth":"3.000","Units":"in","Rept_Date":"2019-11-27 12"},"coordinates":[7817,5532]},{"type":"Point","properties":{"Station_ID":"VT-WS-15","Station_Nam":"EAST CALAIS 1.5 SW, VT","Latitude":"44.35523","Longitude":"-72.45540","Snowdepth":"3.000","Units":"in","Rept_Date":"2019-11-27 12"},"coordinates":[7809,5450]},{"type":"Point","properties":{"Station_ID":"SUTV1","Station_Nam":"SUTTON","Latitude":"44.61220","Longitude":"-72.04810","Snowdepth":"3.000","Units":"in","Rept_Date":"2019-11-27 12"},"coordinates":[7938,5609]},{"type":"Point","properties":{"Station_ID":"STDW3","Station_Nam":"STODDARD","Latitude":"43.66020","Longitude":"-91.21930","Snowdepth":"3.000","Units":"in","Rept_Date":"2019-11-27 13"},"coordinates":[1897,5021]},{"type":"Point","properties":{"Station_ID":"SJBV1","Station_Nam":"SAINT JOHNSBURY","Latitude":"44.42000","Longitude":"-72.01940","Snowdepth":"3.000","Units":"in","Rept_Date":"2019-11-27 21"},"coordinates":[7947,5490]},{"type":"Point","properties":{"Station_ID":"SAUW3","Station_Nam":"WAUSAU WSAW TV","Latitude":"44.94630","Longitude":"-89.62220","Snowdepth":"3.000","Units":"in","Rept_Date":"2019-11-28 01"},"coordinates":[2400,5815]},{"type":"Point","properties":{"Station_ID":"RWGM5","Station_Nam":"RED WING","Latitude":"44.57120","Longitude":"-92.52830","Snowdepth":"3.000","Units":"in","Rept_Date":"2019-11-27 14"},"coordinates":[1484,5583]},{"type":"Point","properties":{"Station_ID":"PTBN3","Station_Nam":"DAM WITHIN","Latitude":"45.05000","Longitude":"-71.38330","Snowdepth":"3.000","Units":"in","Rept_Date":"2019-11-27 12"},"coordinates":[8147,5879]},{"type":"Point","properties":{"Station_ID":"POCI4","Station_Nam":"POCAHONTAS,IA","Latitude":"42.72920","Longitude":"-94.66060","Snowdepth":"3.000","Units":"in","Rept_Date":"2019-11-27 14"},"coordinates":[812,4447]},{"type":"Point","properties":{"Station_ID":"PBAN8","Station_Nam":"SITE 1-3MI.N","Latitude":"48.97420","Longitude":"-97.23860","Snowdepth":"3.000","Units":"in","Rept_Date":"2019-11-27 13"},"coordinates":[0,8300]},{"type":"Point","properties":{"Station_ID":"OTRW3","Station_Nam":"ONTARIO 3E","Latitude":"43.71940","Longitude":"-90.53010","Snowdepth":"3.000","Units":"in","Rept_Date":"2019-11-27 13"},"coordinates":[2114,5058]},{"type":"Point","properties":{"Station_ID":"ONMM5","Station_Nam":"ONAMIA RANGER STATION","Latitude":"46.06770","Longitude":"-93.66660","Snowdepth":"3.000","Units":"in","Rept_Date":"2019-11-27 14"},"coordinates":[1126,6507]},{"type":"Point","properties":{"Station_ID":"NOHM5","Station_Nam":"NORTHOME","Latitude":"47.83590","Longitude":"-94.25550","Snowdepth":"3.000","Units":"in","Rept_Date":"2019-11-27 13"},"coordinates":[940,7598]},{"type":"Point","properties":{"Station_ID":"NH-GR-47","Station_Nam":"LITTLETON 7.3 W, NH","Latitude":"44.31847","Longitude":"-71.91086","Snowdepth":"3.000","Units":"in","Rept_Date":"2019-11-27 13"},"coordinates":[7981,5427]},{"type":"Point","properties":{"Station_ID":"NESN1","Station_Nam":"CONCORD","Latitude":"42.38440","Longitude":"-96.98830","Snowdepth":"3.000","Units":"in","Rept_Date":"2019-11-27 23"},"coordinates":[79,4234]},{"type":"Point","properties":{"Station_ID":"NE-SN-3","Station_Nam":"WESTON 0.2 ENE, NE","Latitude":"41.19322","Longitude":"-96.73740","Snowdepth":"3.000","Units":"in","Rept_Date":"2019-11-27 13"},"coordinates":[158,3499]},{"type":"Point","properties":{"Station_ID":"MWTM1","Station_Nam":"MILLINOCKET WWTP","Latitude":"45.64030","Longitude":"-68.67480","Snowdepth":"3.000","Units":"in","Rept_Date":"2019-11-27 11"},"coordinates":[9001,6243]},{"type":"Point","properties":{"Station_ID":"MSCM5","Station_Nam":"MINNESOTA CITY","Latitude":"44.16000","Longitude":"-91.81220","Snowdepth":"3.000","Units":"in","Rept_Date":"2019-11-27 14"},"coordinates":[1710,5330]},{"type":"Point","properties":{"Station_ID":"MOUW3","Station_Nam":"MOUNTAIN 1 SW","Latitude":"45.17220","Longitude":"-88.49390","Snowdepth":"3.000","Units":"in","Rept_Date":"2019-11-27 23"},"coordinates":[2756,5954]},{"type":"Point","properties":{"Station_ID":"MN-ML-1","Station_Nam":"ONAMIA 4.3 NW, MN","Latitude":"46.10883","Longitude":"-93.73890","Snowdepth":"3.000","Units":"in","Rept_Date":"2019-11-27 14"},"coordinates":[1103,6532]},{"type":"Point","properties":{"Station_ID":"MN-GH-3","Station_Nam":"LAKE CITY 1.2 NNW, MN","Latitude":"44.45597","Longitude":"-92.29070","Snowdepth":"3.000","Units":"in","Rept_Date":"2019-11-27 13"},"coordinates":[1559,5512]},{"type":"Point","properties":{"Station_ID":"MN-CK-3","Station_Nam":"TOFTE 4.9 NE, MN","Latitude":"47.62394","Longitude":"-90.76100","Snowdepth":"3.000","Units":"in","Rept_Date":"2019-11-27 13"},"coordinates":[2041,7467]},{"type":"Point","properties":{"Station_ID":"MN-CK-18","Station_Nam":"GRAND MARAIS 4.4 WSW, MN","Latitude":"47.74462","Longitude":"-90.43796","Snowdepth":"3.000","Units":"in","Rept_Date":"2019-11-27 13"},"coordinates":[2143,7542]},{"type":"Point","properties":{"Station_ID":"MN-CG-16","Station_Nam":"NORTH BRANCH 1.3 NNW, MN","Latitude":"45.53121","Longitude":"-92.97110","Snowdepth":"3.000","Units":"in","Rept_Date":"2019-11-27 12"},"coordinates":[1345,6176]},{"type":"Point","properties":{"Station_ID":"LAMM5","Station_Nam":"LAMBERTON SW RESEARCH AND OUTREACH CENTER","Latitude":"44.23950","Longitude":"-95.31520","Snowdepth":"3.000","Units":"in","Rept_Date":"2019-11-27 14"},"coordinates":[606,5379]},{"type":"Point","properties":{"Station_ID":"KINM1","Station_Nam":"KINGFIELD","Latitude":"44.95950","Longitude":"-70.17530","Snowdepth":"3.000","Units":"in","Rept_Date":"2019-11-27 12"},"coordinates":[8528,5823]},{"type":"Point","properties":{"Station_ID":"ISLV1","Station_Nam":"ISLAND POND","Latitude":"44.81280","Longitude":"-71.89020","Snowdepth":"3.000","Units":"in","Rept_Date":"2019-11-27 14"},"coordinates":[7988,5732]},{"type":"Point","properties":{"Station_ID":"INDM5","Station_Nam":"INDUS,MN","Latitude":"48.61670","Longitude":"-93.90000","Snowdepth":"3.000","Units":"in","Rept_Date":"2019-11-27 14"},"coordinates":[1052,8080]},{"type":"Point","properties":{"Station_ID":"HPTI4","Station_Nam":"HAMPTON,IA","Latitude":"42.75000","Longitude":"-93.20000","Snowdepth":"3.000","Units":"in","Rept_Date":"2019-11-27 13"},"coordinates":[1273,4459]},{"type":"Point","properties":{"Station_ID":"HOKM5","Station_Nam":"HOKAH 4NW","Latitude":"43.79560","Longitude":"-91.42640","Snowdepth":"3.000","Units":"in","Rept_Date":"2019-11-27 13"},"coordinates":[1831,5105]},{"type":"Point","properties":{"Station_ID":"FSD","Station_Nam":"SIOUX FALLS, SD","Latitude":"43.58750","Longitude":"-96.72940","Snowdepth":"3.000","Units":"in","Rept_Date":"2019-11-27 13"},"coordinates":[160,4976]},{"type":"Point","properties":{"Station_ID":"EPTW3","Station_Nam":"EAU PLEINE TENDER","Latitude":"44.77220","Longitude":"-89.76720","Snowdepth":"3.000","Units":"in","Rept_Date":"2019-11-27 13"},"coordinates":[2354,5707]},{"type":"Point","properties":{"Station_ID":"EMBM5","Station_Nam":"EMBARASS,MN","Latitude":"47.65810","Longitude":"-92.19580","Snowdepth":"3.000","Units":"in","Rept_Date":"2019-11-27 12"},"coordinates":[1589,7488]},{"type":"Point","properties":{"Station_ID":"DSLM5","Station_Nam":"DASSEL 3SE","Latitude":"45.04180","Longitude":"-94.27810","Snowdepth":"3.000","Units":"in","Rept_Date":"2019-11-27 13"},"coordinates":[933,5874]},{"type":"Point","properties":{"Station_ID":"CTNW3","Station_Nam":"CASHTON 3NNW","Latitude":"43.78600","Longitude":"-90.79520","Snowdepth":"3.000","Units":"in","Rept_Date":"2019-11-27 14"},"coordinates":[2030,5099]},{"type":"Point","properties":{"Station_ID":"CSLM5","Station_Nam":"CASS LAKE,MN","Latitude":"47.38470","Longitude":"-94.61470","Snowdepth":"3.000","Units":"in","Rept_Date":"2019-11-27 14"},"coordinates":[827,7319]},{"type":"Point","properties":{"Station_ID":"CRVW3","Station_Nam":"CRIVITZ HIGH FALLS","Latitude":"45.35750","Longitude":"-88.19190","Snowdepth":"3.000","Units":"in","Rept_Date":"2019-11-27 13"},"coordinates":[2851,6069]},{"type":"Point","properties":{"Station_ID":"CRLM5","Station_Nam":"CROSS LAKE DAM","Latitude":"46.66930","Longitude":"-94.11060","Snowdepth":"3.000","Units":"in","Rept_Date":"2019-11-27 14"},"coordinates":[986,6878]},{"type":"Point","properties":{"Station_ID":"CRCI4","Station_Nam":"CRESCO 1NE","Latitude":"43.38940","Longitude":"-92.09380","Snowdepth":"3.000","Units":"in","Rept_Date":"2019-11-27 14"},"coordinates":[1621,4854]},{"type":"Point","properties":{"Station_ID":"CANM5","Station_Nam":"CANBY","Latitude":"44.71840","Longitude":"-96.26960","Snowdepth":"3.000","Units":"in","Rept_Date":"2019-11-27 14"},"coordinates":[305,5674]},{"type":"Point","properties":{"Station_ID":"CAN-NB-18","Station_Nam":"MCLEOD HILL 1.1 ENE, CA","Latitude":"46.02725","Longitude":"-66.67460","Snowdepth":"3.000","Units":"in","Rept_Date":"2019-11-27 12"},"coordinates":[9631,6482]},{"type":"Point","properties":{"Station_ID":"BROS2","Station_Nam":"BROOKINGS,SD","Latitude":"44.31670","Longitude":"-96.76670","Snowdepth":"3.000","Units":"in","Rept_Date":"2019-11-27 14"},"coordinates":[149,5426]},{"type":"Point","properties":{"Station_ID":"BETM1","Station_Nam":"BETHEL 6 SSE","Latitude":"44.32000","Longitude":"-70.75680","Snowdepth":"3.000","Units":"in","Rept_Date":"2019-11-27 13"},"coordinates":[8345,5428]},{"type":"Point","properties":{"Station_ID":"BAUM5","Station_Nam":"BAUDETTE,MN","Latitude":"48.71670","Longitude":"-94.61670","Snowdepth":"3.000","Units":"in","Rept_Date":"2019-11-27 21"},"coordinates":[826,8141]},{"type":"Point","properties":{"Station_ID":"ASXW3","Station_Nam":"ASHLAND,WI","Latitude":"46.55220","Longitude":"-90.91610","Snowdepth":"3.000","Units":"in","Rept_Date":"2019-11-27 14"},"coordinates":[1992,6806]},{"type":"Point","properties":{"Station_ID":"ASTW3","Station_Nam":"ATHELSTANE","Latitude":"45.42500","Longitude":"-88.05750","Snowdepth":"3.000","Units":"in","Rept_Date":"2019-11-27 12"},"coordinates":[2893,6110]},{"type":"Point","properties":{"Station_ID":"AKRI4","Station_Nam":"BIG SIOUX RIVER","Latitude":"42.82580","Longitude":"-96.55140","Snowdepth":"3.000","Units":"in","Rept_Date":"2019-11-27 13"},"coordinates":[217,4506]},{"type":"Point","properties":{"Station_ID":"VT-OL-5","Station_Nam":"DERBY CENTER 1.8 NW, VT","Latitude":"44.97200","Longitude":"-72.14780","Snowdepth":"2.500","Units":"in","Rept_Date":"2019-11-27 12"},"coordinates":[7906,5831]},{"type":"Point","properties":{"Station_ID":"VT-ES-3","Station_Nam":"LUNENBURG 2.3 NNW, VT","Latitude":"44.49324","Longitude":"-71.70446","Snowdepth":"2.500","Units":"in","Rept_Date":"2019-11-27 09"},"coordinates":[8046,5535]},{"type":"Point","properties":{"Station_ID":"VT-AD-20","Station_Nam":"HANCOCK 0.3 S, VT","Latitude":"43.92166","Longitude":"-72.84042","Snowdepth":"2.500","Units":"in","Rept_Date":"2019-11-27 12"},"coordinates":[7688,5183]},{"type":"Point","properties":{"Station_ID":"SD-MH-23","Station_Nam":"SIOUX FALLS 3.4 WSW, SD","Latitude":"43.52393","Longitude":"-96.79210","Snowdepth":"2.500","Units":"in","Rept_Date":"2019-11-27 14"},"coordinates":[141,4937]},{"type":"Point","properties":{"Station_ID":"NY-WR-10","Station_Nam":"WARRENSBURG 2.1 WNW, NY","Latitude":"43.51784","Longitude":"-73.81069","Snowdepth":"2.500","Units":"in","Rept_Date":"2019-11-27 13"},"coordinates":[7382,4933]},{"type":"Point","properties":{"Station_ID":"NY-SR-22","Station_Nam":"GREENFIELD CENTER 1.6 W, NY","Latitude":"43.12684","Longitude":"-73.87860","Snowdepth":"2.500","Units":"in","Rept_Date":"2019-11-27 13"},"coordinates":[7361,4692]},