{"type":"Topology","objects":{"snowdepth_geo":{"type":"GeometryCollection","name":"snowdepth","crs":{"type":"name","properties":{"name":"urn:ogc:def:crs:OGC:1.3:CRS84"}},"geometries":[{"type":"Point","properties":{"Station_ID":"MMSV1","Station_Nam":"MOUNT MANSFIELD","Latitude":"44.53330","Longitude":"-72.83330","Snowdepth":"79.000","Units":"in","Rept_Date":"2019-11-11 05"},"coordinates":[6313,2873]},{"type":"Point","properties":{"Station_ID":"PRKM4","Station_Nam":"MUNISING EAST","Latitude":"46.42580","Longitude":"-86.62000","Snowdepth":"76.500","Units":"in","Rept_Date":"2019-11-11 06"},"coordinates":[2739,4748]},{"type":"Point","properties":{"Station_ID":"OGIQ6","Station_Nam":"OGOKI CAMP","Latitude":"50.76680","Longitude":"-87.85820","Snowdepth":"61.100","Units":"in","Rept_Date":"2019-11-11 06"},"coordinates":[2418,9048]},{"type":"Point","properties":{"Station_ID":"AUDQ6","Station_Nam":"AUDEN","Latitude":"48.52600","Longitude":"-82.57570","Snowdepth":"47.640","Units":"in","Rept_Date":"2019-11-11 06"},"coordinates":[3787,6828]},{"type":"Point","properties":{"Station_ID":"DVLQ6","Station_Nam":"DEVIOUS LAKE","Latitude":"49.19890","Longitude":"-87.76440","Snowdepth":"43.460","Units":"in","Rept_Date":"2019-11-11 06"},"coordinates":[2442,7495]},{"type":"Point","properties":{"Station_ID":"QOU","Station_Nam":"QOU","Latitude":"50.79250","Longitude":"-69.67470","Snowdepth":"16.024","Units":"in","Rept_Date":"2019-11-10 12"},"coordinates":[7132,9073]},{"type":"Point","properties":{"Station_ID":"QGD","Station_Nam":"QGD","Latitude":"51.11140","Longitude":"-67.13940","Snowdepth":"13.150","Units":"in","Rept_Date":"2019-11-10 12"},"coordinates":[7790,9389]},{"type":"Point","properties":{"Station_ID":"QGO","Station_Nam":"QGO","Latitude":"48.85500","Longitude":"-74.20640","Snowdepth":"12.638","Units":"in","Rept_Date":"2019-11-10 12"},"coordinates":[5957,7154]},{"type":"Point","properties":{"Station_ID":"MFU","Station_Nam":"MFU","Latitude":"51.52170","Longitude":"-66.91110","Snowdepth":"12.598","Units":"in","Rept_Date":"2019-11-10 12"},"coordinates":[7849,9796]},{"type":"Point","properties":{"Station_ID":"QMA","Station_Nam":"QMA","Latitude":"50.10330","Longitude":"-70.47190","Snowdepth":"12.520","Units":"in","Rept_Date":"2019-11-10 12"},"coordinates":[6926,8391]},{"type":"Point","properties":{"Station_ID":"QMD","Station_Nam":"QMD","Latitude":"49.29060","Longitude":"-75.84500","Snowdepth":"12.402","Units":"in","Rept_Date":"2019-11-10 12"},"coordinates":[5533,7586]},{"type":"Point","properties":{"Station_ID":"PRDM4","Station_Nam":"PARADISE","Latitude":"46.60380","Longitude":"-85.03960","Snowdepth":"12.000","Units":"in","Rept_Date":"2019-11-10 11"},"coordinates":[3149,4924]},{"type":"Point","properties":{"Station_ID":"GMSM4","Station_Nam":"GRAND MARAIS 10S","Latitude":"46.50940","Longitude":"-85.96310","Snowdepth":"12.000","Units":"in","Rept_Date":"2019-11-10 12"},"coordinates":[2909,4830]},{"type":"Point","properties":{"Station_ID":"QCX","Station_Nam":"QCX","Latitude":"51.32830","Longitude":"-70.08060","Snowdepth":"8.898","Units":"in","Rept_Date":"2019-11-10 12"},"coordinates":[7027,9604]},{"type":"Point","properties":{"Station_ID":"QCU","Station_Nam":"QCU","Latitude":"47.82750","Longitude":"-76.59830","Snowdepth":"8.898","Units":"in","Rept_Date":"2019-11-10 12"},"coordinates":[5337,6136]},{"type":"Point","properties":{"Station_ID":"QTM","Station_Nam":"QTM","Latitude":"51.05780","Longitude":"-72.57190","Snowdepth":"8.661","Units":"in","Rept_Date":"2019-11-10 12"},"coordinates":[6381,9336]},{"type":"Point","properties":{"Station_ID":"MI-KW-2","Station_Nam":"DELAWARE 5.2 SW, MI","Latitude":"47.36928","Longitude":"-88.17919","Snowdepth":"8.000","Units":"in","Rept_Date":"2019-11-10 09"},"coordinates":[2335,5682]},{"type":"Point","properties":{"Station_ID":"KSGM4","Station_Nam":"KEARSARGE","Latitude":"47.27520","Longitude":"-88.41700","Snowdepth":"8.000","Units":"in","Rept_Date":"2019-11-10 13"},"coordinates":[2273,5589]},{"type":"Point","properties":{"Station_ID":"CAN-NB-89","Station_Nam":"MEMRAMCOOK 4.0 W, CAN","Latitude":"46.01133","Longitude":"-64.60244","Snowdepth":"7.100","Units":"in","Rept_Date":"2019-11-10 22"},"coordinates":[8448,4337]},{"type":"Point","properties":{"Station_ID":"QFT","Station_Nam":"QFT","Latitude":"50.83280","Longitude":"-74.40390","Snowdepth":"7.087","Units":"in","Rept_Date":"2019-11-10 12"},"coordinates":[5906,9113]},{"type":"Point","properties":{"Station_ID":"UPSW3","Station_Nam":"UPSON,WI","Latitude":"46.36780","Longitude":"-90.41220","Snowdepth":"7.000","Units":"in","Rept_Date":"2019-11-11 00"},"coordinates":[1756,4690]},{"type":"Point","properties":{"Station_ID":"NWCM4","Station_Nam":"NEWBERRY CITY","Latitude":"46.35720","Longitude":"-85.51780","Snowdepth":"7.000","Units":"in","Rept_Date":"2019-11-10 12"},"coordinates":[3025,4680]},{"type":"Point","properties":{"Station_ID":"MI-HG-17","Station_Nam":"CALUMET 0.5 NE (CALUMET LAKE), MI","Latitude":"47.25300","Longitude":"-88.44652","Snowdepth":"7.000","Units":"in","Rept_Date":"2019-11-10 13"},"coordinates":[2265,5567]},{"type":"Point","properties":{"Station_ID":"MI-HG-11","Station_Nam":"HOUGHTON 3.0 SSW, MI","Latitude":"47.07704","Longitude":"-88.59680","Snowdepth":"7.000","Units":"in","Rept_Date":"2019-11-10 13"},"coordinates":[2226,5393]},{"type":"Point","properties":{"Station_ID":"GNLM4","Station_Nam":"GREENLAND 6N","Latitude":"46.87360","Longitude":"-89.10060","Snowdepth":"7.000","Units":"in","Rept_Date":"2019-11-10 13"},"coordinates":[2096,5191]},{"type":"Point","properties":{"Station_ID":"QCO","Station_Nam":"QCO","Latitude":"51.45280","Longitude":"-72.20110","Snowdepth":"6.772","Units":"in","Rept_Date":"2019-11-10 12"},"coordinates":[6477,9727]},{"type":"Point","properties":{"Station_ID":"MI-AT-6","Station_Nam":"MANCELONA 0.5 ESE, MI","Latitude":"44.89981","Longitude":"-85.05100","Snowdepth":"6.500","Units":"in","Rept_Date":"2019-11-10 13"},"coordinates":[3146,3236]},{"type":"Point","properties":{"Station_ID":"SSMM4","Station_Nam":"SAULT STE MARIE","Latitude":"46.48660","Longitude":"-84.40250","Snowdepth":"6.000","Units":"in","Rept_Date":"2019-11-10 13"},"coordinates":[3314,4808]},{"type":"Point","properties":{"Station_ID":"PDLM4","Station_Nam":"PAINESDALE","Latitude":"47.04160","Longitude":"-88.67170","Snowdepth":"6.000","Units":"in","Rept_Date":"2019-11-10 13"},"coordinates":[2207,5358]},{"type":"Point","properties":{"Station_ID":"FLAM4","Station_Nam":"FIFE LAKE 2WNW","Latitude":"44.58480","Longitude":"-85.36530","Snowdepth":"6.000","Units":"in","Rept_Date":"2019-11-10 12"},"coordinates":[3064,2924]},{"type":"Point","properties":{"Station_ID":"CAN-NL-65","Station_Nam":"KIPPENS 0.7 NE, CA","Latitude":"48.55436","Longitude":"-58.61850","Snowdepth":"6.000","Units":"in","Rept_Date":"2019-11-10 12"},"coordinates":[9999,6856]},{"type":"Point","properties":{"Station_ID":"CAN-NB-16","Station_Nam":"DORCHESTER 1.0 SSE, CAN","Latitude":"45.89160","Longitude":"-64.51269","Snowdepth":"6.000","Units":"in","Rept_Date":"2019-11-10 11"},"coordinates":[8471,4218]},{"type":"Point","properties":{"Station_ID":"BGBM4","Station_Nam":"BIG BAY 1NW","Latitude":"46.83250","Longitude":"-87.75040","Snowdepth":"6.000","Units":"in","Rept_Date":"2019-11-10 13"},"coordinates":[2446,5150]},{"type":"Point","properties":{"Station_ID":"AVLV1","Station_Nam":"AVERILL","Latitude":"45.00570","Longitude":"-71.69030","Snowdepth":"6.000","Units":"in","Rept_Date":"2019-11-10 13"},"coordinates":[6610,3341]},{"type":"Point","properties":{"Station_ID":"ANJM4","Station_Nam":"SNOW PAID OBSERVER FOR KANJ","Latitude":"46.48670","Longitude":"-84.40260","Snowdepth":"6.000","Units":"in","Rept_Date":"2019-11-11 06"},"coordinates":[3314,4808]},{"type":"Point","properties":{"Station_ID":"ANJ","Station_Nam":"SAULT STE MARIE","Latitude":"46.46670","Longitude":"-84.36670","Snowdepth":"6.000","Units":"in","Rept_Date":"2019-11-11 00"},"coordinates":[3323,4788]},{"type":"Point","properties":{"Station_ID":"QYR","Station_Nam":"QYR","Latitude":"48.87220","Longitude":"-75.61470","Snowdepth":"5.866","Units":"in","Rept_Date":"2019-11-10 12"},"coordinates":[5592,7171]},{"type":"Point","properties":{"Station_ID":"MLZ","Station_Nam":"MLZ","Latitude":"50.66170","Longitude":"-68.82360","Snowdepth":"5.827","Units":"in","Rept_Date":"2019-11-10 12"},"coordinates":[7353,8944]},{"type":"Point","properties":{"Station_ID":"SVBQ6","Station_Nam":"SAVANT BASE","Latitude":"50.28730","Longitude":"-90.65670","Snowdepth":"5.670","Units":"in","Rept_Date":"2019-11-11 06"},"coordinates":[1692,8573]},{"type":"Point","properties":{"Station_ID":"QWE","Station_Nam":"QWE","Latitude":"47.84610","Longitude":"-73.80670","Snowdepth":"5.551","Units":"in","Rept_Date":"2019-11-10 12"},"coordinates":[6061,6155]},{"type":"Point","properties":{"Station_ID":"QWG","Station_Nam":"QWG","Latitude":"48.48890","Longitude":"-73.45940","Snowdepth":"5.512","Units":"in","Rept_Date":"2019-11-10 12"},"coordinates":[6151,6791]},{"type":"Point","properties":{"Station_ID":"CAN-NB-97","Station_Nam":"NEW MARYLAND 0.6 NW, CAN","Latitude":"45.90112","Longitude":"-66.68739","Snowdepth":"5.100","Units":"in","Rept_Date":"2019-11-10 12"},"coordinates":[7907,4228]},{"type":"Point","properties":{"Station_ID":"SOCQ6","Station_Nam":"SOCKET LAKE","Latitude":"50.77870","Longitude":"-91.79300","Snowdepth":"5.040","Units":"in","Rept_Date":"2019-11-11 06"},"coordinates":[1398,9060]},{"type":"Point","properties":{"Station_ID":"QNCM4","Station_Nam":"QUINCY HILL","Latitude":"47.13640","Longitude":"-88.57950","Snowdepth":"5.000","Units":"in","Rept_Date":"2019-11-10 12"},"coordinates":[2231,5452]},{"type":"Point","properties":{"Station_ID":"MRQM4","Station_Nam":"MARQUETTE WFP","Latitude":"46.54580","Longitude":"-87.37950","Snowdepth":"5.000","Units":"in","Rept_Date":"2019-11-10 13"},"coordinates":[2542,4866]},{"type":"Point","properties":{"Station_ID":"MNSM4","Station_Nam":"MUNISING","Latitude":"46.41210","Longitude":"-86.66250","Snowdepth":"5.000","Units":"in","Rept_Date":"2019-11-10 11"},"coordinates":[2728,4734]},{"type":"Point","properties":{"Station_ID":"MI-CP-14","Station_Nam":"SAULT STE. MARIE 2.2 E, MI","Latitude":"46.48933","Longitude":"-84.31971","Snowdepth":"5.000","Units":"in","Rept_Date":"2019-11-10 12"},"coordinates":[3335,4811]},{"type":"Point","properties":{"Station_ID":"MI-BG-3","Station_Nam":"L'ANSE 17.8 SE, MI","Latitude":"46.55730","Longitude":"-88.20770","Snowdepth":"4.500","Units":"in","Rept_Date":"2019-11-10 13"},"coordinates":[2327,4878]},{"type":"Point","properties":{"Station_ID":"MRL","Station_Nam":"MRL","Latitude":"51.28330","Longitude":"-68.84060","Snowdepth":"4.252","Units":"in","Rept_Date":"2019-11-10 12"},"coordinates":[7349,9560]},{"type":"Point","properties":{"Station_ID":"QLB","Station_Nam":"QLB","Latitude":"50.72360","Longitude":"-75.10000","Snowdepth":"4.134","Units":"in","Rept_Date":"2019-11-10 12"},"coordinates":[5726,9005]},{"type":"Point","properties":{"Station_ID":"QLM","Station_Nam":"QLM","Latitude":"48.92030","Longitude":"-70.25280","Snowdepth":"4.094","Units":"in","Rept_Date":"2019-11-10 12"},"coordinates":[6982,7219]},{"type":"Point","properties":{"Station_ID":"FTHQ6","Station_Nam":"FORT HOPE","Latitude":"51.55820","Longitude":"-87.90510","Snowdepth":"4.090","Units":"in","Rept_Date":"2019-11-11 06"},"coordinates":[2406,9832]},{"type":"Point","properties":{"Station_ID":"RDYM4","Station_Nam":"RUDYARD 4S","Latitude":"46.18170","Longitude":"-84.60140","Snowdepth":"4.000","Units":"in","Rept_Date":"2019-11-10 12"},"coordinates":[3262,4506]},{"type":"Point","properties":{"Station_ID":"MI-HG-14","Station_Nam":"HOUGHTON 0.6 SE, MI","Latitude":"47.10847","Longitude":"-88.55235","Snowdepth":"4.000","Units":"in","Rept_Date":"2019-11-10 13"},"coordinates":[2238,5424]},{"type":"Point","properties":{"Station_ID":"MI-HG-12","Station_Nam":"DOLLAR BAY 0.2 ENE, MI","Latitude":"47.12067","Longitude":"-88.49895","Snowdepth":"4.000","Units":"in","Rept_Date":"2019-11-10 13"},"coordinates":[2252,5436]},{"type":"Point","properties":{"Station_ID":"MI-GT-21","Station_Nam":"KINGSLEY 2.7 ENE, MI","Latitude":"44.59871","Longitude":"-85.48426","Snowdepth":"4.000","Units":"in","Rept_Date":"2019-11-10 11"},"coordinates":[3033,2938]},{"type":"Point","properties":{"Station_ID":"IBLM5","Station_Nam":"ISABELLA 14W","Latitude":"47.59360","Longitude":"-91.65140","Snowdepth":"4.000","Units":"in","Rept_Date":"2019-11-10 15"},"coordinates":[1434,5904]},{"type":"Point","properties":{"Station_ID":"GGRM4","Station_Nam":"GREEN GARDEN NO.2","Latitude":"46.45330","Longitude":"-87.30380","Snowdepth":"4.000","Units":"in","Rept_Date":"2019-11-10 13"},"coordinates":[2562,4775]},{"type":"Point","properties":{"Station_ID":"CAN-ON-451","Station_Nam":"OWEN SOUND 1.2 N - GSCA, CAN","Latitude":"44.58092","Longitude":"-80.93025","Snowdepth":"4.000","Units":"in","Rept_Date":"2019-11-10 13"},"coordinates":[4214,2920]},{"type":"Point","properties":{"Station_ID":"CAN-NB-18","Station_Nam":"MCLEOD HILL 1.1 ENE, CA","Latitude":"46.02725","Longitude":"-66.67460","Snowdepth":"4.000","Units":"in","Rept_Date":"2019-11-10 12"},"coordinates":[7910,4353]},{"type":"Point","properties":{"Station_ID":"BBEM4","Station_Nam":"BIG BAY 9SW","Latitude":"46.74620","Longitude":"-87.88160","Snowdepth":"4.000","Units":"in","Rept_Date":"2019-11-10 13"},"coordinates":[2412,5065]},{"type":"Point","properties":{"Station_ID":"CAN-NB-98","Station_Nam":"HOYT 4.2 S, CAN","Latitude":"45.54763","Longitude":"-66.55440","Snowdepth":"3.900","Units":"in","Rept_Date":"2019-11-10 11"},"coordinates":[7941,3878]},{"type":"Point","properties":{"Station_ID":"CATQ6","Station_Nam":"CAT LAKE","Latitude":"51.72690","Longitude":"-91.82210","Snowdepth":"3.780","Units":"in","Rept_Date":"2019-11-11 06"},"coordinates":[1390,9999]},{"type":"Point","properties":{"Station_ID":"VT-OL-5","Station_Nam":"DERBY CENTER 1.8 NW, VT","Latitude":"44.97200","Longitude":"-72.14780","Snowdepth":"3.500","Units":"in","Rept_Date":"2019-11-10 12"},"coordinates":[6491,3307]},{"type":"Point","properties":{"Station_ID":"CAN-NB-28","Station_Nam":"SUSSEX CORNER 1.4 NE - KWRC, CAN","Latitude":"45.71691","Longitude":"-65.46217","Snowdepth":"3.500","Units":"in","Rept_Date":"2019-11-10 10"},"coordinates":[8225,4045]},{"type":"Point","properties":{"Station_ID":"PTLQ6","Station_Nam":"PORTAGE LAKE","Latitude":"49.06950","Longitude":"-86.65940","Snowdepth":"3.270","Units":"in","Rept_Date":"2019-11-11 06"},"coordinates":[2729,7367]},{"type":"Point","properties":{"Station_ID":"QLP","Station_Nam":"QLP","Latitude":"48.13920","Longitude":"-72.63830","Snowdepth":"3.268","Units":"in","Rept_Date":"2019-11-10 12"},"coordinates":[6364,6445]},{"type":"Point","properties":{"Station_ID":"TRIQ6","Station_Nam":"TRIO LAKE","Latitude":"49.22880","Longitude":"-87.22920","Snowdepth":"3.150","Units":"in","Rept_Date":"2019-11-11 06"},"coordinates":[2581,7524]},{"type":"Point","properties":{"Station_ID":"WTNM4","Station_Nam":"WATTON 2WSW","Latitude":"46.52660","Longitude":"-88.64240","Snowdepth":"3.000","Units":"in","Rept_Date":"2019-11-10 13"},"coordinates":[2214,4847]},{"type":"Point","properties":{"Station_ID":"WRRP1","Station_Nam":"ALLEGHENY RIVER AT WARREN","Latitude":"41.84380","Longitude":"-79.15000","Snowdepth":"3.000","Units":"in","Rept_Date":"2019-11-10 12"},"coordinates":[4676,209]},{"type":"Point","properties":{"Station_ID":"VT-OL-12","Station_Nam":"GREENSBORO 3.9 NNE, VT","Latitude":"44.63100","Longitude":"-72.28000","Snowdepth":"3.000","Units":"in","Rept_Date":"2019-11-10 12"},"coordinates":[6457,2970]},{"type":"Point","properties":{"Station_ID":"STIM4","Station_Nam":"ST IGNACE","Latitude":"45.86080","Longitude":"-84.71960","Snowdepth":"3.000","Units":"in","Rept_Date":"2019-11-10 12"},"coordinates":[3232,4188]},{"type":"Point","properties":{"Station_ID":"SPGM5","Station_Nam":"SPRING VALLEY","Latitude":"43.69330","Longitude":"-92.39260","Snowdepth":"3.000","Units":"in","Rept_Date":"2019-11-10 13"},"coordinates":[1242,2041]},{"type":"Point","properties":{"Station_ID":"MXON6","Station_Nam":"MEXICO","Latitude":"43.43830","Longitude":"-76.26560","Snowdepth":"3.000","Units":"in","Rept_Date":"2019-11-10 12"},"coordinates":[5424,1788]},{"type":"Point","properties":{"Station_ID":"MWN","Station_Nam":"MOUNT WASHINGTON","Latitude":"44.26670","Longitude":"-71.30000","Snowdepth":"3.000","Units":"in","Rept_Date":"2019-11-11 05"},"coordinates":[6711,2609]},{"type":"Point","properties":{"Station_ID":"MI-OT-4","Station_Nam":"GAYLORD 1.7 WNW, MI","Latitude":"45.03280","Longitude":"-84.71090","Snowdepth":"3.000","Units":"in","Rept_Date":"2019-11-10 13"},"coordinates":[3234,3368]},{"type":"Point","properties":{"Station_ID":"MI-OT-17","Station_Nam":"GAYLORD 4.1 S, MI","Latitude":"44.96388","Longitude":"-84.68467","Snowdepth":"3.000","Units":"in","Rept_Date":"2019-11-10 12"},"coordinates":[3241,3299]},{"type":"Point","properties":{"Station_ID":"MI-OG-6","Station_Nam":"WEST BRANCH 2.1 SSW, MI","Latitude":"44.24814","Longitude":"-84.25089","Snowdepth":"3.000","Units":"in","Rept_Date":"2019-11-10 12"},"coordinates":[3353,2590]},{"type":"Point","properties":{"Station_ID":"MI-MC-4","Station_Nam":"ST. IGNACE 0.5SE, MI","Latitude":"45.86057","Longitude":"-84.71980","Snowdepth":"3.000","Units":"in","Rept_Date":"2019-11-10 12"},"coordinates":[3232,4188]},{"type":"Point","properties":{"Station_ID":"MI-HG-1","Station_Nam":"HOUGHTON 1.6 ESE, MI","Latitude":"47.10774","Longitude":"-88.52940","Snowdepth":"3.000","Units":"in","Rept_Date":"2019-11-10 13"},"coordinates":[2244,5423]},{"type":"Point","properties":{"Station_ID":"MALN6","Station_Nam":"MALONE","Latitude":"44.84180","Longitude":"-74.30600","Snowdepth":"3.000","Units":"in","Rept_Date":"2019-11-10 12"},"coordinates":[5932,3178]},{"type":"Point","properties":{"Station_ID":"KMWN","Station_Nam":"MOUNT WASHINGTON","Latitude":"44.26666","Longitude":"-71.30000","Snowdepth":"3.000","Units":"in","Rept_Date":"2019-11-11 06"},"coordinates":[6711,2609]},{"type":"Point","properties":{"Station_ID":"KABM5","Station_Nam":"KABETOGAMA LAKE VISITOR CTR","Latitude":"48.40880","Longitude":"-93.04840","Snowdepth":"3.000","Units":"in","Rept_Date":"2019-11-10 13"},"coordinates":[1072,6712]},{"type":"Point","properties":{"Station_ID":"JEFV1","Station_Nam":"JEFFERSONVILLE","Latitude":"44.58430","Longitude":"-72.78700","Snowdepth":"3.000","Units":"in","Rept_Date":"2019-11-10 12"},"coordinates":[6325,2923]},{"type":"Point","properties":{"Station_ID":"IWOM4","Station_Nam":"IRONWOOD#2","Latitude":"46.46520","Longitude":"-90.13820","Snowdepth":"3.000","Units":"in","Rept_Date":"2019-11-10 13"},"coordinates":[1827,4787]},{"type":"Point","properties":{"Station_ID":"IRMM4","Station_Nam":"WWTP","Latitude":"46.46670","Longitude":"-90.18330","Snowdepth":"3.000","Units":"in","Rept_Date":"2019-11-10 13"},"coordinates":[1815,4788]},{"type":"Point","properties":{"Station_ID":"GAYM4","Station_Nam":"GAYLORD","Latitude":"45.03320","Longitude":"-84.71130","Snowdepth":"3.000","Units":"in","Rept_Date":"2019-11-10 13"},"coordinates":[3234,3368]},{"type":"Point","properties":{"Station_ID":"CAN-NB-11","Station_Nam":"MIRAMICHI 3.3 S, CAN","Latitude":"46.99343","Longitude":"-65.50690","Snowdepth":"3.000","Units":"in","Rept_Date":"2019-11-10 12"},"coordinates":[8213,5310]},{"type":"Point","properties":{"Station_ID":"BNDM5","Station_Nam":"ELY 25E","Latitude":"47.97190","Longitude":"-91.44860","Snowdepth":"3.000","Units":"in","Rept_Date":"2019-11-10 13"},"coordinates":[1487,6279]},{"type":"Point","properties":{"Station_ID":"APXM4","Station_Nam":"GAYLORD 9SSW","Latitude":"44.90720","Longitude":"-84.71880","Snowdepth":"3.000","Units":"in","Rept_Date":"2019-11-11 06"},"coordinates":[3232,3243]},{"type":"Point","properties":{"Station_ID":"QLI","Station_Nam":"QLI","Latitude":"50.27080","Longitude":"-73.92280","Snowdepth":"2.913","Units":"in","Rept_Date":"2019-11-10 12"},"coordinates":[6031,8557]},{"type":"Point","properties":{"Station_ID":"VT-WS-33","Station_Nam":"WAITSFIELD 3.5 WNW, VT","Latitude":"44.20052","Longitude":"-72.89421","Snowdepth":"2.800","Units":"in","Rept_Date":"2019-11-10 13"},"coordinates":[6298,2543]},{"type":"Point","properties":{"Station_ID":"VT-WS-30","Station_Nam":"WOODBURY 3.4 NNW, VT","Latitude":"44.48825","Longitude":"-72.43258","Snowdepth":"2.600","Units":"in","Rept_Date":"2019-11-10 12"},"coordinates":[6417,2828]},{"type":"Point","properties":{"Station_ID":"NY-JF-30","Station_Nam":"WEST CARTHAGE 0.3 ENE, NY","Latitude":"43.97493","Longitude":"-75.61640","Snowdepth":"2.500","Units":"in","Rept_Date":"2019-11-10 12"},"coordinates":[5592,2320]},{"type":"Point","properties":{"Station_ID":"NH-CS-4","Station_Nam":"PITTSBURG 6.1 NE, NH","Latitude":"45.11060","Longitude":"-71.29760","Snowdepth":"2.500","Units":"in","Rept_Date":"2019-11-10 12"},"coordinates":[6712,3445]},{"type":"Point","properties":{"Station_ID":"MI-OT-16","Station_Nam":"GAYLORD 2.2 SSE, MI","Latitude":"44.99441","Longitude":"-84.65820","Snowdepth":"2.500","Units":"in","Rept_Date":"2019-11-10 11"},"coordinates":[3247,3330]},{"type":"Point","properties":{"Station_ID":"QTV","Station_Nam":"QTV","Latitude":"49.66000","Longitude":"-69.35690","Snowdepth":"2.402","Units":"in","Rept_Date":"2019-11-10 12"},"coordinates":[7215,7951]},{"type":"Point","properties":{"Station_ID":"MN-SL-108","Station_Nam":"IRON JUNCTION 3.4 NNW, MN","Latitude":"47.46150","Longitude":"-92.63130","Snowdepth":"2.300","Units":"in","Rept_Date":"2019-11-10 21"},"coordinates":[1180,5774]},{"type":"Point","properties":{"Station_ID":"CAN-MB-368","Station_Nam":"WHITESHELL 1.3 NE, CAN","Latitude":"49.74405","Longitude":"-95.19123","Snowdepth":"2.300","Units":"in","Rept_Date":"2019-11-10 14"},"coordinates":[517,8035]},{"type":"Point","properties":{"Station_ID":"QGA","Station_Nam":"QGA","Latitude":"47.25640","Longitude":"-73.73810","Snowdepth":"2.047","Units":"in","Rept_Date":"2019-11-10 12"},"coordinates":[6079,5570]},{"type":"Point","properties":{"Station_ID":"WRUM5","Station_Nam":"WARROAD 4W","Latitude":"48.89600","Longitude":"-95.40700","Snowdepth":"2.000","Units":"in","Rept_Date":"2019-11-11 04"},"coordinates":[461,7195]},{"type":"Point","properties":{"Station_ID":"WAIV1","Station_Nam":"WAITSFIELD","Latitude":"44.17560","Longitude":"-72.79610","Snowdepth":"2.000","Units":"in","Rept_Date":"2019-11-10 12"},"coordinates":[6323,2518]},{"type":"Point","properties":{"Station_ID":"VT-WS-19","Station_Nam":"WATERBURY 3.0 NW, VT","Latitude":"44.36060","Longitude":"-72.80770","Snowdepth":"2.000","Units":"in","Rept_Date":"2019-11-10 11"},"coordinates":[6320,2702]},{"type":"Point","properties":{"Station_ID":"VT-WS-11","Station_Nam":"WAITSFIELD 1.8 SE, VT","Latitude":"44.17551","Longitude":"-72.79540","Snowdepth":"2.000","Units":"in","Rept_Date":"2019-11-10 12"},"coordinates":[6323,2518]},{"type":"Point","properties":{"Station_ID":"VT-WR-18","Station_Nam":"ROCHESTER 2.2 ESE, VT","Latitude":"43.86265","Longitude":"-72.76677","Snowdepth":"2.000","Units":"in","Rept_Date":"2019-11-10 11"},"coordinates":[6331,2208]},{"type":"Point","properties":{"Station_ID":"VT-OL-1","Station_Nam":"WESTFIELD 0.7 WNW, VT","Latitude":"44.89160","Longitude":"-72.44350","Snowdepth":"2.000","Units":"in","Rept_Date":"2019-11-10 12"},"coordinates":[6414,3228]},{"type":"Point","properties":{"Station_ID":"VT-ES-1","Station_Nam":"GRANBY 1.4 NW, VT","Latitude":"44.58330","Longitude":"-71.77870","Snowdepth":"2.000","Units":"in","Rept_Date":"2019-11-10 12"},"coordinates":[6587,2922]},{"type":"Point","properties":{"Station_ID":"VT-CH-4","Station_Nam":"UNDERHILL 4.4 NNE, VT","Latitude":"44.58774","Longitude":"-72.92250","Snowdepth":"2.000","Units":"in","Rept_Date":"2019-11-10 12"},"coordinates":[6290,2927]},{"type":"Point","properties":{"Station_ID":"THRM5","Station_Nam":"THORHULT,MN","Latitude":"48.21670","Longitude":"-95.25000","Snowdepth":"2.000","Units":"in","Rept_Date":"2019-11-10 23"},"coordinates":[501,6522]},{"type":"Point","properties":{"Station_ID":"TCEM4","Station_Nam":"TRAVERSE CITY 5ESE","Latitude":"44.73370","Longitude":"-85.51180","Snowdepth":"2.000","Units":"in","Rept_Date":"2019-11-10 12"},"coordinates":[3026,3071]},{"type":"Point","properties":{"Station_ID":"SHRM5","Station_Nam":"SHERBURN 3WSW","Latitude":"43.63040","Longitude":"-94.77440","Snowdepth":"2.000","Units":"in","Rept_Date":"2019-11-10 13"},"coordinates":[625,1978]},{"type":"Point","properties":{"Station_ID":"RLKW3","Station_Nam":"REST LAKE","Latitude":"46.12220","Longitude":"-89.87720","Snowdepth":"2.000","Units":"in","Rept_Date":"2019-11-10 15"},"coordinates":[1894,4447]},{"type":"Point","properties":{"Station_ID":"PTBN3","Station_Nam":"DAM WITHIN","Latitude":"45.05000","Longitude":"-71.38330","Snowdepth":"2.000","Units":"in","Rept_Date":"2019-11-10 12"},"coordinates":[6689,3385]},{"type":"Point","properties":{"Station_ID":"PDGM4","Station_Nam":"PAULDING","Latitude":"46.39760","Longitude":"-89.17940","Snowdepth":"2.000","Units":"in","Rept_Date":"2019-11-10 13"},"coordinates":[2075,4720]},{"type":"Point","properties":{"Station_ID":"NY-TM-42","Station_Nam":"ITHACA 6.4 E, NY","Latitude":"42.43350","Longitude":"-76.37860","Snowdepth":"2.000","Units":"in","Rept_Date":"2019-11-10 13"},"coordinates":[5394,793]},{"type":"Point","properties":{"Station_ID":"NY-FK-7","Station_Nam":"SARANAC LAKE 6.2 N, NY","Latitude":"44.41359","Longitude":"-74.15211","Snowdepth":"2.000","Units":"in","Rept_Date":"2019-11-10 13"},"coordinates":[5971,2754]},{"type":"Point","properties":{"Station_ID":"NY-CY-27","Station_Nam":"MORAVIA 5.9 ENE, NY","Latitude":"42.73491","Longitude":"-76.31137","Snowdepth":"2.000","Units":"in","Rept_Date":"2019-11-10 12"},"coordinates":[5412,1091]},{"type":"Point","properties":{"Station_ID":"NUNV1","Station_Nam":"NORTH UNDERHILL","Latitude":"44.58760","Longitude":"-72.92150","Snowdepth":"2.000","Units":"in","Rept_Date":"2019-11-10 12"},"coordinates":[6291,2927]},{"type":"Point","properties":{"Station_ID":"MIEM4","Station_Nam":"MICHIGAMME 3WNW","Latitude":"46.54530","Longitude":"-88.18000","Snowdepth":"2.000","Units":"in","Rept_Date":"2019-11-10 13"},"coordinates":[2334,4866]},{"type":"Point","properties":{"Station_ID":"MI-MQ-25","Station_Nam":"ISHPEMING 6.3 NW, MI","Latitude":"46.54140","Longitude":"-87.77153","Snowdepth":"2.000","Units":"in","Rept_Date":"2019-11-10 14"},"coordinates":[2440,4862]},{"type":"Point","properties":{"Station_ID":"MI-GT-25","Station_Nam":"TRAVERSE CITY 4.7 ESE, MI","Latitude":"44.73370","Longitude":"-85.51189","Snowdepth":"2.000","Units":"in","Rept_Date":"2019-11-10 12"},"coordinates":[3026,3071]},{"type":"Point","properties":{"Station_ID":"MI-CX-7","Station_Nam":"EAST JORDAN 2.1 NNW, MI","Latitude":"45.18639","Longitude":"-85.14750","Snowdepth":"2.000","Units":"in","Rept_Date":"2019-11-10 13"},"coordinates":[3121,3520]},{"type":"Point","properties":{"Station_ID":"MI-CF-9","Station_Nam":"GRAYLING 15.8 NE, MI","Latitude":"44.80464","Longitude":"-84.46313","Snowdepth":"2.000","Units":"in","Rept_Date":"2019-11-10 12"},"coordinates":[3298,3142]},{"type":"Point","properties":{"Station_ID":"LBKV1","Station_Nam":"LYE BROOK","Latitude":"43.05000","Longitude":"-73.03330","Snowdepth":"2.000","Units":"in","Rept_Date":"2019-11-11 06"},"coordinates":[6262,1403]},{"type":"Point","properties":{"Station_ID":"LAFW3","Station_Nam":"LA FARGE","Latitude":"43.57340","Longitude":"-90.63200","Snowdepth":"2.000","Units":"in","Rept_Date":"2019-11-10 13"},"coordinates":[1699,1922]},{"type":"Point","properties":{"Station_ID":"KZAP1","Station_Nam":"KINZUA","Latitude":"41.90060","Longitude":"-79.11860","Snowdepth":"2.000","Units":"in","Rept_Date":"2019-11-10 12"},"coordinates":[4684,265]},{"type":"Point","properties":{"Station_ID":"KSEM4","Station_Nam":"KALKASKA 11SE","Latitude":"44.58970","Longitude":"-85.04860","Snowdepth":"2.000","Units":"in","Rept_Date":"2019-11-10 13"},"coordinates":[3146,2929]},{"type":"Point","properties":{"Station_ID":"JEFN3","Station_Nam":"JEFFERSON","Latitude":"44.41690","Longitude":"-71.50080","Snowdepth":"2.000","Units":"in","Rept_Date":"2019-11-10 12"},"coordinates":[6659,2758]},{"type":"Point","properties":{"Station_ID":"JCBM4","Station_Nam":"JACOBSVILLE","Latitude":"47.00830","Longitude":"-88.43180","Snowdepth":"2.000","Units":"in","Rept_Date":"2019-11-10 12"},"coordinates":[2269,5325]},{"type":"Point","properties":{"Station_ID":"INL","Station_Nam":"FALLS INTERNATIONAL ARPT","Latitude":"48.56640","Longitude":"-93.40310","Snowdepth":"2.000","Units":"in","Rept_Date":"2019-11-11 00"},"coordinates":[980,6868]},{"type":"Point","properties":{"Station_ID":"IFSM5","Station_Nam":"INTERNATIONAL FALLS SNOW","Latitude":"48.57780","Longitude":"-93.39640","Snowdepth":"2.000","Units":"in","Rept_Date":"2019-11-10 12"},"coordinates":[982,6879]},{"type":"Point","properties":{"Station_ID":"HURW3","Station_Nam":"HURLEY","Latitude":"46.46250","Longitude":"-90.19550","Snowdepth":"2.000","Units":"in","Rept_Date":"2019-11-10 14"},"coordinates":[1812,4784]},{"type":"Point","properties":{"Station_ID":"GDCM4","Station_Nam":"GARDEN CORNERS","Latitude":"45.89830","Longitude":"-86.54850","Snowdepth":"2.000","Units":"in","Rept_Date":"2019-11-10 13"},"coordinates":[2757,4225]},{"type":"Point","properties":{"Station_ID":"EMBM5","Station_Nam":"EMBARASS,MN","Latitude":"47.65810","Longitude":"-92.19580","Snowdepth":"2.000","Units":"in","Rept_Date":"2019-11-10 14"},"coordinates":[1293,5968]},{"type":"Point","properties":{"Station_ID":"ELYM5","Station_Nam":"ELY","Latitude":"47.90560","Longitude":"-91.82830","Snowdepth":"2.000","Units":"in","Rept_Date":"2019-11-10 14"},"coordinates":[1388,6214]},{"type":"Point","properties":{"Station_ID":"EJNM4","Station_Nam":"EAST JORDAN 2NW","Latitude":"45.18630","Longitude":"-85.14770","Snowdepth":"2.000","Units":"in","Rept_Date":"2019-11-10 13"},"coordinates":[3121,3520]},{"type":"Point","properties":{"Station_ID":"CVWP1","Station_Nam":"CHANDLER VALLEY 1SE","Latitude":"41.93010","Longitude":"-79.29700","Snowdepth":"2.000","Units":"in","Rept_Date":"2019-11-10 12"},"coordinates":[4638,294]},{"type":"Point","properties":{"Station_ID":"COKM5","Station_Nam":"COOK","Latitude":"47.85060","Longitude":"-92.69250","Snowdepth":"2.000","Units":"in","Rept_Date":"2019-11-10 12"},"coordinates":[1164,6159]},{"type":"Point","properties":{"Station_ID":"CLKM4","Station_Nam":"CLARKSBURG","Latitude":"46.49910","Longitude":"-87.84500","Snowdepth":"2.000","Units":"in","Rept_Date":"2019-11-10 12"},"coordinates":[2421,4820]},{"type":"Point","properties":{"Station_ID":"CAN-NS-159","Station_Nam":"NORTHPORT 0.1 NE, CAN","Latitude":"45.93299","Longitude":"-63.86711","Snowdepth":"2.000","Units":"in","Rept_Date":"2019-11-10 11"},"coordinates":[8638,4259]},{"type":"Point","properties":{"Station_ID":"VT-WR-17","Station_Nam":"ROCHESTER 2.3 NE, VT","Latitude":"43.89418","Longitude":"-72.76992","Snowdepth":"1.800","Units":"in","Rept_Date":"2019-11-10 12"},"coordinates":[6330,2240]},{"type":"Point","properties":{"Station_ID":"WI-VL-9","Station_Nam":"LAND O' LAKES 11.7 W, WI","Latitude":"46.19023","Longitude":"-89.45790","Snowdepth":"1.500","Units":"in","Rept_Date":"2019-11-10 13"},"coordinates":[2003,4514]},{"type":"Point","properties":{"Station_ID":"WI-SK-16","Station_Nam":"LA VALLE 3.5 W, WI","Latitude":"43.58731","Longitude":"-90.20020","Snowdepth":"1.500","Units":"in","Rept_Date":"2019-11-10 13"},"coordinates":[1811,1936]},{"type":"Point","properties":{"Station_ID":"VT-OL-9","Station_Nam":"GREENSBORO 2.1 NNW, VT","Latitude":"44.60528","Longitude":"-72.30940","Snowdepth":"1.500","Units":"in","Rept_Date":"2019-11-10 12"},"coordinates":[6449,2944]},{"type":"Point","properties":{"Station_ID":"VT-ES-3","Station_Nam":"LUNENBURG 2.3 NNW, VT","Latitude":"44.49324","Longitude":"-71.70446","Snowdepth":"1.500","Units":"in","Rept_Date":"2019-11-10 12"},"coordinates":[6606,2833]},{"type":"Point","properties":{"Station_ID":"VT-CL-3","Station_Nam":"GROTON 4.4 WSW, VT","Latitude":"44.19440","Longitude":"-72.28240","Snowdepth":"1.500","Units":"in","Rept_Date":"2019-11-10 11"},"coordinates":[6456,2537]},{"type":"Point","properties":{"Station_ID":"NY-FK-9","Station_Nam":"GABRIELS 1.3 SE, NY","Latitude":"44.41934","Longitude":"-74.16194","Snowdepth":"1.500","Units":"in","Rept_Date":"2019-11-10 12"},"coordinates":[5969,2760]},{"type":"Point","properties":{"Station_ID":"MN-MW-8","Station_Nam":"AUSTIN 2.4 W, MN","Latitude":"43.67190","Longitude":"-93.02280","Snowdepth":"1.500","Units":"in","Rept_Date":"2019-11-10 13"},"coordinates":[1079,2019]},{"type":"Point","properties":{"Station_ID":"MN-IT-11","Station_Nam":"NASHWAUK 11.5 N, MN","Latitude":"47.54496","Longitude":"-93.19420","Snowdepth":"1.500","Units":"in","Rept_Date":"2019-11-10 13"},"coordinates":[1034,5856]},{"type":"Point","properties":{"Station_ID":"MN-FM-10","Station_Nam":"WYKOFF 3.1 NW, MN","Latitude":"43.74340","Longitude":"-92.30650","Snowdepth":"1.500","Units":"in","Rept_Date":"2019-11-10 13"},"coordinates":[1264,2090]},{"type":"Point","properties":{"Station_ID":"MI-PI-1","Station_Nam":"ROGERS CITY 0.2 WSW, MI","Latitude":"45.41740","Longitude":"-83.81060","Snowdepth":"1.500","Units":"in","Rept_Date":"2019-11-10 13"},"coordinates":[3467,3749]},{"type":"Point","properties":{"Station_ID":"MI-MD-10","Station_Nam":"MIDLAND 1.5 NNE, MI","Latitude":"43.64412","Longitude":"-84.21729","Snowdepth":"1.500","Units":"in","Rept_Date":"2019-11-10 11"},"coordinates":[3362,1992]},{"type":"Point","properties":{"Station_ID":"QIQ","Station_Nam":"QIQ","Latitude":"49.82390","Longitude":"-68.54310","Snowdepth":"1.299","Units":"in","Rept_Date":"2019-11-10 12"},"coordinates":[7426,8114]},{"type":"Point","properties":{"Station_ID":"CAN-ON-132","Station_Nam":"ORANGEVILLE 5.1 SSW - CANWARN, CAN","Latitude":"43.87372","Longitude":"-80.13428","Snowdepth":"1.200","Units":"in","Rept_Date":"2019-11-10 12"},"coordinates":[4420,2219]},{"type":"Point","properties":{"Station_ID":"CAN-NB-84","Station_Nam":"NORTON 7.1 WNW - KWRC, CAN","Latitude":"45.66195","Longitude":"-65.78279","Snowdepth":"1.200","Units":"in","Rept_Date":"2019-11-10 12"},"coordinates":[8141,3991]},{"type":"Point","properties":{"Station_ID":"CAN-NB-5","Station_Nam":"OAK POINT 0.9 SSW, CA","Latitude":"45.50752","Longitude":"-66.09860","Snowdepth":"1.200","Units":"in","Rept_Date":"2019-11-10 12"},"coordinates":[8060,3838]},{"type":"Point","properties":{"Station_ID":"QGT","Station_Nam":"QGT","Latitude":"49.64720","Longitude":"-67.62640","Snowdepth":"1.102","Units":"in","Rept_Date":"2019-11-10 12"},"coordinates":[7663,7939]},{"type":"Point","properties":{"Station_ID":"WTRM4","Station_Nam":"WATERSMEET 12WSW","Latitude":"46.22310","Longitude":"-89.40850","Snowdepth":"1.000","Units":"in","Rept_Date":"2019-11-10 12"},"coordinates":[2016,4547]},{"type":"Point","properties":{"Station_ID":"WORV1","Station_Nam":"WORCESTER 2 W","Latitude":"44.37470","Longitude":"-72.58220","Snowdepth":"1.000","Units":"in","Rept_Date":"2019-11-10 12"},"coordinates":[6379,2716]},{"type":"Point","properties":{"Station_ID":"WLNM4","Station_Nam":"WELLSTON 1N","Latitude":"44.22940","Longitude":"-85.95690","Snowdepth":"1.000","Units":"in","Rept_Date":"2019-11-10 12"},"coordinates":[2911,2572]},{"type":"Point","properties":{"Station_ID":"WLFM5","Station_Nam":"WOLF RIDGE ENVIRON LEARNING CENTER","Latitude":"47.38240","Longitude":"-91.19730","Snowdepth":"1.000","Units":"in","Rept_Date":"2019-11-10 13"},"coordinates":[1552,5695]},{"type":"Point","properties":{"Station_ID":"WI-WS-4","Station_Nam":"KEWASKUM 1.8 WNW, WI","Latitude":"43.52880","Longitude":"-88.26570","Snowdepth":"1.000","Units":"in","Rept_Date":"2019-11-10 13"},"coordinates":[2312,1878]},{"type":"Point","properties":{"Station_ID":"WI-VL-10","Station_Nam":"LAND O LAKES 4.3 WNW, WI","Latitude":"46.17440","Longitude":"-89.30380","Snowdepth":"1.000","Units":"in","Rept_Date":"2019-11-10 14"},"coordinates":[2043,4499]},{"type":"Point","properties":{"Station_ID":"WI-CB-4","Station_Nam":"PORTAGE 5.7 WSW, WI","Latitude":"43.51411","Longitude":"-89.56910","Snowdepth":"1.000","Units":"in","Rept_Date":"2019-11-10 11"},"coordinates":[1974,1863]},{"type":"Point","properties":{"Station_ID":"WI-AD-10","Station_Nam":"OXFORD 4.0 W, WI","Latitude":"43.78638","Longitude":"-89.64166","Snowdepth":"1.000","Units":"in","Rept_Date":"2019-11-10 13"},"coordinates":[1955,2133]},{"type":"Point","properties":{"Station_ID":"WDOM5","Station_Nam":"WINDOM","Latitude":"43.87700","Longitude":"-95.11590","Snowdepth":"1.000","Units":"in","Rept_Date":"2019-11-10 14"},"coordinates":[536,2223]},{"type":"Point","properties":{"Station_ID":"WATW3","Station_Nam":"WATERTOWN,WI","Latitude":"43.17500","Longitude":"-88.73530","Snowdepth":"1.000","Units":"in","Rept_Date":"2019-11-10 13"},"coordinates":[2190,1527]},{"type":"Point","properties":{"Station_ID":"VT-OL-2","Station_Nam":"BARTON 3.0 ENE, VT","Latitude":"44.75863","Longitude":"-72.11680","Snowdepth":"1.000","Units":"in","Rept_Date":"2019-11-10 12"},"coordinates":[6499,3096]},{"type":"Point","properties":{"Station_ID":"VT-LM-7","Station_Nam":"HYDE PARK 2.9 NE, VT","Latitude":"44.62080","Longitude":"-72.57250","Snowdepth":"1.000","Units":"in","Rept_Date":"2019-11-10 12"},"coordinates":[6381,2960]},{"type":"Point","properties":{"Station_ID":"VT-CL-18","Station_Nam":"WHEELOCK 1.6 S, VT","Latitude":"44.56491","Longitude":"-72.08830","Snowdepth":"1.000","Units":"in","Rept_Date":"2019-11-10 12"},"coordinates":[6507,2904]},{"type":"Point","properties":{"Station_ID":"VT-CH-13","Station_Nam":"RICHMOND 3.4 SSE, VT","Latitude":"44.36084","Longitude":"-72.96400","Snowdepth":"1.000","Units":"in","Rept_Date":"2019-11-10 12"},"coordinates":[6280,2702]},{"type":"Point","properties":{"Station_ID":"VT-BN-7","Station_Nam":"MANCHESTER 2.8 ENE, VT","Latitude":"43.17274","Longitude":"-73.01811","Snowdepth":"1.000","Units":"in","Rept_Date":"2019-11-10 12"},"coordinates":[6266,1525]},{"type":"Point","properties":{"Station_ID":"TSVP1","Station_Nam":"TITUSVILLE,PA","Latitude":"41.63330","Longitude":"-79.70000","Snowdepth":"1.000","Units":"in","Rept_Date":"2019-11-10 12"},"coordinates":[4533,0]},{"type":"Point","properties":{"Station_ID":"TOPM1","Station_Nam":"TOPSFIELD","Latitude":"45.43470","Longitude":"-67.72020","Snowdepth":"1.000","Units":"in","Rept_Date":"2019-11-10 12"},"coordinates":[7639,3766]},{"type":"Point","properties":{"Station_ID":"TCMM4","Station_Nam":"TRAVERSE CITY MUNSON","Latitude":"44.76070","Longitude":"-85.64430","Snowdepth":"1.000","Units":"in","Rept_Date":"2019-11-10 11"},"coordinates":[2992,3098]},{"type":"Point","properties":{"Station_ID":"SUTV1","Station_Nam":"SUTTON","Latitude":"44.61220","Longitude":"-72.04810","Snowdepth":"1.000","Units":"in","Rept_Date":"2019-11-10 13"},"coordinates":[6517,2951]},{"type":"Point","properties":{"Station_ID":"SULW3","Station_Nam":"SUMMIT LAKE","Latitude":"45.37880","Longitude":"-89.19410","Snowdepth":"1.000","Units":"in","Rept_Date":"2019-11-10 11"},"coordinates":[2071,3710]},{"type":"Point","properties":{"Station_ID":"SANI4","Station_Nam":"ST ANSGAR","Latitude":"43.38170","Longitude":"-92.92320","Snowdepth":"1.000","Units":"in","Rept_Date":"2019-11-10 12"},"coordinates":[1105,1732]},{"type":"Point","properties":{"Station_ID":"RWGM5","Station_Nam":"RED WING","Latitude":"44.57120","Longitude":"-92.52830","Snowdepth":"1.000","Units":"in","Rept_Date":"2019-11-10 14"},"coordinates":[1207,2910]},{"type":"Point","properties":{"Station_ID":"RST","Station_Nam":"ROCHESTER INTERNATIONAL ARPT","Latitude":"43.90890","Longitude":"-92.49780","Snowdepth":"1.000","Units":"in","Rept_Date":"2019-11-10 12"},"coordinates":[1215,2254]},{"type":"Point","properties":{"Station_ID":"RSRM5","Station_Nam":"ROCHESTER AP 2NE","Latitude":"43.92810","Longitude":"-92.47580","Snowdepth":"1.000","Units":"in","Rept_Date":"2019-11-11 00"},"coordinates":[1221,2273]},{"type":"Point","properties":{"Station_ID":"RNBW3","Station_Nam":"WFO GREEN BAY","Latitude":"44.49780","Longitude":"-88.11080","Snowdepth":"1.000","Units":"in","Rept_Date":"2019-11-11 06"},"coordinates":[2352,2838]},{"type":"Point","properties":{"Station_ID":"RHLW3","Station_Nam":"RHINELANDER 4NE","Latitude":"45.65270","Longitude":"-89.30740","Snowdepth":"1.000","Units":"in","Rept_Date":"2019-11-10 12"},"coordinates":[2042,3982]},{"type":"Point","properties":{"Station_ID":"RDFN6","Station_Nam":"REDFIELD 8N","Latitude":"43.64130","Longitude":"-75.88400","Snowdepth":"1.000","Units":"in","Rept_Date":"2019-11-10 12"},"coordinates":[5522,1989]},{"type":"Point","properties":{"Station_ID":"RCEM5","Station_Nam":"RICE","Latitude":"45.75760","Longitude":"-94.20720","Snowdepth":"1.000","Units":"in","Rept_Date":"2019-11-10 13"},"coordinates":[772,4086]},{"type":"Point","properties":{"Station_ID":"PLFV1","Station_Nam":"PLAINFIELD","Latitude":"44.27610","Longitude":"-72.41500","Snowdepth":"1.000","Units":"in","Rept_Date":"2019-11-10 12"},"coordinates":[6422,2618]},{"type":"Point","properties":{"Station_ID":"PHEW3","Station_Nam":"PHELPS","Latitude":"46.06630","Longitude":"-89.07520","Snowdepth":"1.000","Units":"in","Rept_Date":"2019-11-10 13"},"coordinates":[2102,4391]},{"type":"Point","properties":{"Station_ID":"PERV1","Station_Nam":"PERU","Latitude":"43.26670","Longitude":"-72.90000","Snowdepth":"1.000","Units":"in","Rept_Date":"2019-11-10 12"},"coordinates":[6296,1618]},{"type":"Point","properties":{"Station_ID":"PARM4","Station_Nam":"PARENT BAY","Latitude":"45.79610","Longitude":"-86.40110","Snowdepth":"1.000","Units":"in","Rept_Date":"2019-11-10 14"},"coordinates":[2796,4124]},{"type":"Point","properties":{"Station_ID":"NY-TG-26","Station_Nam":"CANDOR 0.7 NW, NY","Latitude":"42.23428","Longitude":"-76.34758","Snowdepth":"1.000","Units":"in","Rept_Date":"2019-11-10 12"},"coordinates":[5402,595]},{"type":"Point","properties":{"Station_ID":"NY-TG-15","Station_Nam":"BERKSHIRE 1.9 ENE, NY","Latitude":"42.31910","Longitude":"-76.21940","Snowdepth":"1.000","Units":"in","Rept_Date":"2019-11-10 13"},"coordinates":[5435,679]},{"type":"Point","properties":{"Station_ID":"NY-OT-29","Station_Nam":"NEW BERLIN 1.5 NE, NY","Latitude":"42.63689","Longitude":"-75.31090","Snowdepth":"1.000","Units":"in","Rept_Date":"2019-11-10 12"},"coordinates":[5671,994]},{"type":"Point","properties":{"Station_ID":"NY-CR-1","Station_Nam":"FREETOWN 1.0 NE, NY","Latitude":"42.53299","Longitude":"-76.02111","Snowdepth":"1.000","Units":"in","Rept_Date":"2019-11-10 12"},"coordinates":[5487,891]},{"type":"Point","properties":{"Station_ID":"NH-GR-47","Station_Nam":"LITTLETON 7.3 W, NH","Latitude":"44.31847","Longitude":"-71.91086","Snowdepth":"1.000","Units":"in","Rept_Date":"2019-11-10 13"},"coordinates":[6553,2660]},{"type":"Point","properties":{"Station_ID":"NH-CS-10","Station_Nam":"RANDOLPH 1.4 NE, NH","Latitude":"44.38824","Longitude":"-71.26950","Snowdepth":"1.000","Units":"in","Rept_Date":"2019-11-10 12"},"coordinates":[6719,2729]},{"type":"Point","properties":{"Station_ID":"MYOM4","Station_Nam":"MIO WWTP","Latitude":"44.64660","Longitude":"-84.11580","Snowdepth":"1.000","Units":"in","Rept_Date":"2019-11-10 13"},"coordinates":[3388,2985]},{"type":"Point","properties":{"Station_ID":"MTQM4","Station_Nam":"MANISTIQUE WWTP","Latitude":"45.95120","Longitude":"-86.25130","Snowdepth":"1.000","Units":"in","Rept_Date":"2019-11-10 12"},"coordinates":[2834,4277]},{"type":"Point","properties":{"Station_ID":"MRAM4","Station_Nam":"MORAN","Latitude":"45.99030","Longitude":"-84.83610","Snowdepth":"1.000","Units":"in","Rept_Date":"2019-11-10 13"},"coordinates":[3201,4316]},{"type":"Point","properties":{"Station_ID":"MQT","Station_Nam":"MARQUETTE, MI","Latitude":"46.53140","Longitude":"-87.54920","Snowdepth":"1.000","Units":"in","Rept_Date":"2019-11-11 06"},"coordinates":[2498,4852]},{"type":"Point","properties":{"Station_ID":"MN-WK-5","Station_Nam":"WOLVERTON 1.1 ENE, MN","Latitude":"46.56920","Longitude":"-96.71540","Snowdepth":"1.000","Units":"in","Rept_Date":"2019-11-10 13"},"coordinates":[121,4890]},{"type":"Point","properties":{"Station_ID":"MN-SL-15","Station_Nam":"CHISHOLM 0.4 WSW, MN","Latitude":"47.48557","Longitude":"-92.88690","Snowdepth":"1.000","Units":"in","Rept_Date":"2019-11-10 13"},"coordinates":[1114,5797]},{"type":"Point","properties":{"Station_ID":"MN-SL-143","Station_Nam":"CANYON 4.6 NNE, MN","Latitude":"47.09800","Longitude":"-92.42170","Snowdepth":"1.000","Units":"in","Rept_Date":"2019-11-10 13"},"coordinates":[1235,5413]},{"type":"Point","properties":{"Station_ID":"MN-OL-18","Station_Nam":"ROCHESTER 2.6 NE, MN","Latitude":"44.03975","Longitude":"-92.43750","Snowdepth":"1.000","Units":"in","Rept_Date":"2019-11-10 12"},"coordinates":[1230,2384]},{"type":"Point","properties":{"Station_ID":"MN-MT-6","Station_Nam":"FAIRMONT 0.7 E, MN","Latitude":"43.64501","Longitude":"-94.44860","Snowdepth":"1.000","Units":"in","Rept_Date":"2019-11-10 13"},"coordinates":[709,1993]},{"type":"Point","properties":{"Station_ID":"MN-CK-3","Station_Nam":"TOFTE 4.9 NE, MN","Latitude":"47.62394","Longitude":"-90.76100","Snowdepth":"1.000","Units":"in","Rept_Date":"2019-11-10 13"},"coordinates":[1665,5934]},{"type":"Point","properties":{"Station_ID":"MI-MQ-19","Station_Nam":"ISHPEMING 7.2 SW, MI","Latitude":"46.40550","Longitude":"-87.75670","Snowdepth":"1.000","Units":"in","Rept_Date":"2019-11-10 11"},"coordinates":[2444,4727]},{"type":"Point","properties":{"Station_ID":"MI-ME-10","Station_Nam":"MECOSTA 4.6 SSW, MI","Latitude":"43.56269","Longitude":"-85.28063","Snowdepth":"1.000","Units":"in","Rept_Date":"2019-11-10 13"},"coordinates":[3086,1911]},{"type":"Point","properties":{"Station_ID":"MI-HG-13","Station_Nam":"HOUGHTON 1.2 WNW, MI","Latitude":"47.12035","Longitude":"-88.58525","Snowdepth":"1.000","Units":"in","Rept_Date":"2019-11-10 13"},"coordinates":[2229,5436]},{"type":"Point","properties":{"Station_ID":"MI-BZ-1","Station_Nam":"BENZONIA 5.3 S, MI","Latitude":"44.53976","Longitude":"-86.10650","Snowdepth":"1.000","Units":"in","Rept_Date":"2019-11-10 13"},"coordinates":[2872,2879]},{"type":"Point","properties":{"Station_ID":"MAPM4","Station_Nam":"MAPLE CITY 1E","Latitude":"44.85500","Longitude":"-85.83520","Snowdepth":"1.000","Units":"in","Rept_Date":"2019-11-11 01"},"coordinates":[2942,3192]},{"type":"Point","properties":{"Station_ID":"LPLN6","Station_Nam":"LAKE PLACID 2 S","Latitude":"44.30420","Longitude":"-73.98390","Snowdepth":"1.000","Units":"in","Rept_Date":"2019-11-10 12"},"coordinates":[6015,2646]},{"type":"Point","properties":{"Station_ID":"LODW3","Station_Nam":"LODI","Latitude":"43.32170","Longitude":"-89.53110","Snowdepth":"1.000","Units":"in","Rept_Date":"2019-11-10 13"},"coordinates":[1984,1673]},{"type":"Point","properties":{"Station_ID":"LNOW3","Station_Nam":"LAND O LAKES","Latitude":"46.19000","Longitude":"-89.45700","Snowdepth":"1.000","Units":"in","Rept_Date":"2019-11-10 13"},"coordinates":[2003,4514]},{"type":"Point","properties":{"Station_ID":"LNGM5","Station_Nam":"LONG PRAIRIE","Latitude":"45.96460","Longitude":"-94.88920","Snowdepth":"1.000","Units":"in","Rept_Date":"2019-11-10 12"},"coordinates":[595,4291]},{"type":"Point","properties":{"Station_ID":"LEWM4","Station_Nam":"LEWISTON 3W","Latitude":"44.88210","Longitude":"-84.36540","Snowdepth":"1.000","Units":"in","Rept_Date":"2019-11-10 13"},"coordinates":[3323,3218]},{"type":"Point","properties":{"Station_ID":"LBRM5","Station_Nam":"LAKE BRONSON DAM","Latitude":"48.72410","Longitude":"-96.62180","Snowdepth":"1.000","Units":"in","Rept_Date":"2019-11-10 14"},"coordinates":[146,7024]},{"type":"Point","properties":{"Station_ID":"KGFK","Station_Nam":"GRAND FORKS INTERNATIONAL","Latitude":"47.95000","Longitude":"-97.18333","Snowdepth":"1.000","Units":"in","Rept_Date":"2019-11-10 18"},"coordinates":[0,6258]},{"type":"Point","properties":{"Station_ID":"JOHV1","Station_Nam":"JOHNSON 2 N","Latitude":"44.65790","Longitude":"-72.67850","Snowdepth":"1.000","Units":"in","Rept_Date":"2019-11-10 12"},"coordinates":[6354,2996]},{"type":"Point","properties":{"Station_ID":"ISLV1","Station_Nam":"ISLAND POND","Latitude":"44.81280","Longitude":"-71.89020","Snowdepth":"1.000","Units":"in","Rept_Date":"2019-11-10 14"},"coordinates":[6558,3150]},{"type":"Point","properties":{"Station_ID":"HRLN6","Station_Nam":"HORNELL ALMOND DAM","Latitude":"42.34880","Longitude":"-77.70440","Snowdepth":"1.000","Units":"in","Rept_Date":"2019-11-10 12"},"coordinates":[5050,709]},{"type":"Point","properties":{"Station_ID":"HORW3","Station_Nam":"HORICON WWTP","Latitude":"43.45000","Longitude":"-88.63330","Snowdepth":"1.000","Units":"in","Rept_Date":"2019-11-10 13"},"coordinates":[2217,1800]},{"type":"Point","properties":{"Station_ID":"HARW3","Station_Nam":"HARTFORD,WI","Latitude":"43.31670","Longitude":"-88.40000","Snowdepth":"1.000","Units":"in","Rept_Date":"2019-11-10 13"},"coordinates":[2277,1668]},{"type":"Point","properties":{"Station_ID":"FDCW3","Station_Nam":"FOND DU LAC-MID","Latitude":"43.63330","Longitude":"-88.45000","Snowdepth":"1.000","Units":"in","Rept_Date":"2019-11-11 06"},"coordinates":[2264,1981]},{"type":"Point","properties":{"Station_ID":"EVRW3","Station_Nam":"EAGLE RIVER-4 E","Latitude":"45.91890","Longitude":"-89.15280","Snowdepth":"1.000","Units":"in","Rept_Date":"2019-11-10 12"},"coordinates":[2082,4245]},{"type":"Point","properties":{"Station_ID":"EAHV1","Station_Nam":"EAST HAVEN","Latitude":"44.64250","Longitude":"-71.89120","Snowdepth":"1.000","Units":"in","Rept_Date":"2019-11-10 12"},"coordinates":[6558,2981]},{"type":"Point","properties":{"Station_ID":"DUBI4","Station_Nam":"DUBUQUE #3","Latitude":"42.40870","Longitude":"-90.73250","Snowdepth":"1.000","Units":"in","Rept_Date":"2019-11-11 06"},"coordinates":[1673,768]},{"type":"Point","properties":{"Station_ID":"DMX","Station_Nam":"DES MOINES, IA","Latitude":"41.73610","Longitude":"-93.72330","Snowdepth":"1.000","Units":"in","Rept_Date":"2019-11-11 06"},"coordinates":[897,102]},{"type":"Point","properties":{"Station_ID":"COVP1","Station_Nam":"COVINGTON 2WSW","Latitude":"41.73330","Longitude":"-77.11670","Snowdepth":"1.000","Units":"in","Rept_Date":"2019-11-10 12"},"coordinates":[5203,99]},{"type":"Point","properties":{"Station_ID":"CORV1","Station_Nam":"CORINTH","Latitude":"44.00690","Longitude":"-72.31940","Snowdepth":"1.000","Units":"in","Rept_Date":"2019-11-10 12"},"coordinates":[6447,2351]},{"type":"Point","properties":{"Station_ID":"CLKS2","Station_Nam":"WATERTOWN-23MI.ESE","Latitude":"44.75000","Longitude":"-96.68330","Snowdepth":"1.000","Units":"in","Rept_Date":"2019-11-10 16"},"coordinates":[130,3087]},{"type":"Point","properties":{"Station_ID":"CJRP1","Station_Nam":"COUDERSPORT 7SE","Latitude":"41.73920","Longitude":"-77.97110","Snowdepth":"1.000","Units":"in","Rept_Date":"2019-11-10 12"},"coordinates":[4981,105]},{"type":"Point","properties":{"Station_ID":"CGPM4","Station_Nam":"DOLLAR BAY","Latitude":"47.11670","Longitude":"-88.51370","Snowdepth":"1.000","Units":"in","Rept_Date":"2019-11-10 15"},"coordinates":[2248,5432]},{"type":"Point","properties":{"Station_ID":"CDLM4","Station_Nam":"CADILLAC 9&10 NEWS","Latitude":"44.21130","Longitude":"-85.40860","Snowdepth":"1.000","Units":"in","Rept_Date":"2019-11-10 12"},"coordinates":[3053,2554]},{"type":"Point","properties":{"Station_ID":"CAN-ON-5","Station_Nam":"OWEN SOUND 1.5 NW - GSCA, CAN","Latitude":"44.57837","Longitude":"-80.95461","Snowdepth":"1.000","Units":"in","Rept_Date":"2019-11-10 13"},"coordinates":[4208,2917]},{"type":"Point","properties":{"Station_ID":"CAN-ON-42","Station_Nam":"VANKLEEK HILL 3.4 S, CA","Latitude":"45.48987","Longitude":"-74.64570","Snowdepth":"1.000","Units":"in","Rept_Date":"2019-11-10 12"},"coordinates":[5844,3820]},{"type":"Point","properties":{"Station_ID":"BTV","Station_Nam":"BURLINGTON, VT","Latitude":"44.47140","Longitude":"-73.15330","Snowdepth":"1.000","Units":"in","Rept_Date":"2019-11-10 12"},"coordinates":[6230,2812]},{"type":"Point","properties":{"Station_ID":"BTHM5","Station_Nam":"BLUE EARTH 1S","Latitude":"43.62370","Longitude":"-94.09470","Snowdepth":"1.000","Units":"in","Rept_Date":"2019-11-10 14"},"coordinates":[801,1972]},{"type":"Point","properties":{"Station_ID":"BRAM5","Station_Nam":"BRAINERD","Latitude":"46.34320","Longitude":"-94.20900","Snowdepth":"1.000","Units":"in","Rept_Date":"2019-11-10 13"},"coordinates":[771,4666]},{"type":"Point","properties":{"Station_ID":"BGRM4","Station_Nam":"WATER WORKS","Latitude":"43.70000","Longitude":"-85.48330","Snowdepth":"1.000","Units":"in","Rept_Date":"2019-11-10 12"},"coordinates":[3034,2047]},{"type":"Point","properties":{"Station_ID":"BGMN6","Station_Nam":"BINGHAMTON WFO","Latitude":"42.21160","Longitude":"-75.98580","Snowdepth":"1.000","Units":"in","Rept_Date":"2019-11-11 05"},"coordinates":[5496,573]},{"type":"Point","properties":{"Station_ID":"BEAW3","Station_Nam":"BEAVER DAM,WI","Latitude":"43.45000","Longitude":"-88.85000","Snowdepth":"1.000","Units":"in","Rept_Date":"2019-11-10 13"},"coordinates":[2161,1800]},{"type":"Point","properties":{"Station_ID":"BDMW3","Station_Nam":"BEAVER DAM 1 N","Latitude":"43.46860","Longitude":"-88.83970","Snowdepth":"1.000","Units":"in","Rept_Date":"2019-11-10 13"},"coordinates":[2163,1818]},{"type":"Point","properties":{"Station_ID":"ARX","Station_Nam":"LA CROSSE, WI","Latitude":"43.82280","Longitude":"-91.19190","Snowdepth":"1.000","Units":"in","Rept_Date":"2019-11-11 06"},"coordinates":[1553,2169]},{"type":"Point","properties":{"Station_ID":"ANGN6","Station_Nam":"ANGELICA","Latitude":"42.31080","Longitude":"-78.02300","Snowdepth":"1.000","Units":"in","Rept_Date":"2019-11-10 12"},"coordinates":[4968,671]},{"type":"Point","properties":{"Station_ID":"AMDW3","Station_Nam":"ALMOND-5 NE","Latitude":"44.30830","Longitude":"-89.34640","Snowdepth":"1.000","Units":"in","Rept_Date":"2019-11-10 14"},"coordinates":[2032,2650]},{"type":"Point","properties":{"Station_ID":"ALXI4","Station_Nam":"WATERLOO SNOW","Latitude":"42.53130","Longitude":"-92.37550","Snowdepth":"1.000","Units":"in","Rept_Date":"2019-11-11 06"},"coordinates":[1247,890]},{"type":"Point","properties":{"Station_ID":"ALPM4","Station_Nam":"SNOW PAID OBSERVER FOR KAPN","Latitude":"45.03110","Longitude":"-83.55970","Snowdepth":"1.000","Units":"in","Rept_Date":"2019-11-11 06"},"coordinates":[3532,3366]},{"type":"Point","properties":{"Station_ID":"ALLW3","Station_Nam":"ALLENTON","Latitude":"43.42360","Longitude":"-88.35110","Snowdepth":"1.000","Units":"in","Rept_Date":"2019-11-10 12"},"coordinates":[2290,1774]},{"type":"Point","properties":{"Station_ID":"ALFN6","Station_Nam":"ALFRED","Latitude":"42.27980","Longitude":"-77.76560","Snowdepth":"1.000","Units":"in","Rept_Date":"2019-11-10 12"},"coordinates":[5035,640]}]}},"arcs":[],"transform":{"scale":[0.0038568686868686868,0.0010094609460946096],"translate":[-97.18333,41.6333]}}