{"type":"Topology","objects":{"snowdepth_geo":{"type":"GeometryCollection","name":"snowdepth","crs":{"type":"name","properties":{"name":"urn:ogc:def:crs:OGC:1.3:CRS84"}},"geometries":[{"type":"Point","properties":{"Station_ID":"KS-DG-10","Station_Nam":"LAWRENCE 2.2 W, KS","Latitude":"38.96685","Longitude":"-95.29670","Snowdepth":"102.000","Units":"in","Rept_Date":"2021-01-27 14"},"coordinates":[456,3674]},{"type":"Point","properties":{"Station_ID":"HPN24_MADIS","Station_Nam":"EDINA","Latitude":"44.86346","Longitude":"-93.35670","Snowdepth":"78.300","Units":"in","Rept_Date":"2021-01-28 04"},"coordinates":[911,6597]},{"type":"Point","properties":{"Station_ID":"PRKM4","Station_Nam":"MUNISING EAST","Latitude":"46.42580","Longitude":"-86.62000","Snowdepth":"76.500","Units":"in","Rept_Date":"2021-01-28 06"},"coordinates":[2492,7371]},{"type":"Point","properties":{"Station_ID":"HTLN3","Station_Nam":"HERMIT LAKE SNOWPLOT","Latitude":"44.26130","Longitude":"-71.28330","Snowdepth":"37.000","Units":"in","Rept_Date":"2021-01-27 10"},"coordinates":[6092,6298]},{"type":"Point","properties":{"Station_ID":"RDFN6","Station_Nam":"REDFIELD 8N","Latitude":"43.64130","Longitude":"-75.88400","Snowdepth":"36.000","Units":"in","Rept_Date":"2021-01-27 12"},"coordinates":[5012,5991]},{"type":"Point","properties":{"Station_ID":"HGHN6","Station_Nam":"HIGHMARKET","Latitude":"43.60510","Longitude":"-75.55430","Snowdepth":"36.000","Units":"in","Rept_Date":"2021-01-27 11"},"coordinates":[5089,5973]},{"type":"Point","properties":{"Station_ID":"BENN6","Station_Nam":"BENNETTS BRIDGE","Latitude":"43.53180","Longitude":"-75.95260","Snowdepth":"36.000","Units":"in","Rept_Date":"2021-01-27 12"},"coordinates":[4996,5937]},{"type":"Point","properties":{"Station_ID":"WI-EC-26","Station_Nam":"EAU CLAIRE 1.0 SW, WI","Latitude":"44.80992","Longitude":"-91.50578","Snowdepth":"35.000","Units":"in","Rept_Date":"2021-01-27 13"},"coordinates":[1345,6570]},{"type":"Point","properties":{"Station_ID":"MMNV1","Station_Nam":"MT. MANSFIELD","Latitude":"44.52480","Longitude":"-72.81540","Snowdepth":"35.000","Units":"in","Rept_Date":"2021-01-27 21"},"coordinates":[5732,6429]},{"type":"Point","properties":{"Station_ID":"HLSN3","Station_Nam":"HERMIT LAKE SNOTEL","Latitude":"44.26130","Longitude":"-71.28320","Snowdepth":"31.930","Units":"in","Rept_Date":"2021-01-28 06"},"coordinates":[6092,6298]},{"type":"Point","properties":{"Station_ID":"STRN6","Station_Nam":"STILLWATER RESERVOIR","Latitude":"43.89140","Longitude":"-75.03610","Snowdepth":"29.000","Units":"in","Rept_Date":"2021-01-27 13"},"coordinates":[5211,6115]},{"type":"Point","properties":{"Station_ID":"PDLM4","Station_Nam":"PAINESDALE","Latitude":"47.04160","Longitude":"-88.67170","Snowdepth":"29.000","Units":"in","Rept_Date":"2021-01-27 13"},"coordinates":[2011,7676]},{"type":"Point","properties":{"Station_ID":"HOKN6","Station_Nam":"HOOKER 12 NNW","Latitude":"43.85240","Longitude":"-75.71580","Snowdepth":"29.000","Units":"in","Rept_Date":"2021-01-27 11"},"coordinates":[5051,6095]},{"type":"Point","properties":{"Station_ID":"VT-WR-17","Station_Nam":"ROCHESTER 2.3 NE, VT","Latitude":"43.89418","Longitude":"-72.76992","Snowdepth":"28.000","Units":"in","Rept_Date":"2021-01-27 12"},"coordinates":[5743,6116]},{"type":"Point","properties":{"Station_ID":"PERV1","Station_Nam":"PERU","Latitude":"43.26670","Longitude":"-72.90000","Snowdepth":"25.000","Units":"in","Rept_Date":"2021-01-27 12"},"coordinates":[5712,5805]},{"type":"Point","properties":{"Station_ID":"VT-BN-12","Station_Nam":"STAMFORD 5.0 NNE, VT","Latitude":"42.82000","Longitude":"-73.02000","Snowdepth":"24.500","Units":"in","Rept_Date":"2021-01-27 21"},"coordinates":[5684,5584]},{"type":"Point","properties":{"Station_ID":"NH-CS-10","Station_Nam":"RANDOLPH 1.4 NE, NH","Latitude":"44.38824","Longitude":"-71.26950","Snowdepth":"24.500","Units":"in","Rept_Date":"2021-01-27 12"},"coordinates":[6095,6361]},{"type":"Point","properties":{"Station_ID":"PTLQ6","Station_Nam":"PORTAGE LAKE","Latitude":"49.06950","Longitude":"-86.65940","Snowdepth":"24.290","Units":"in","Rept_Date":"2021-01-28 06"},"coordinates":[2483,8682]},{"type":"Point","properties":{"Station_ID":"TRIQ6","Station_Nam":"TRIO LAKE","Latitude":"49.22880","Longitude":"-87.22920","Snowdepth":"24.020","Units":"in","Rept_Date":"2021-01-28 06"},"coordinates":[2349,8761]},{"type":"Point","properties":{"Station_ID":"OLMN6","Station_Nam":"OLD FORGE - MOOSE","Latitude":"43.71270","Longitude":"-74.96930","Snowdepth":"24.000","Units":"in","Rept_Date":"2021-01-27 13"},"coordinates":[5226,6026]},{"type":"Point","properties":{"Station_ID":"OCON6","Station_Nam":"OSCEOLA","Latitude":"43.50370","Longitude":"-75.72170","Snowdepth":"24.000","Units":"in","Rept_Date":"2021-01-27 13"},"coordinates":[5050,5923]},{"type":"Point","properties":{"Station_ID":"NY-HR-18","Station_Nam":"SALISBURY CENTER 1.8 NW, NY","Latitude":"43.16260","Longitude":"-74.80880","Snowdepth":"24.000","Units":"in","Rept_Date":"2021-01-27 12"},"coordinates":[5264,5754]},{"type":"Point","properties":{"Station_ID":"MI-KW-2","Station_Nam":"DELAWARE 5.2 SW, MI","Latitude":"47.36928","Longitude":"-88.17919","Snowdepth":"24.000","Units":"in","Rept_Date":"2021-01-27 09"},"coordinates":[2126,7839]},{"type":"Point","properties":{"Station_ID":"LBKV1","Station_Nam":"LYE BROOK","Latitude":"43.05000","Longitude":"-73.03330","Snowdepth":"24.000","Units":"in","Rept_Date":"2021-01-28 06"},"coordinates":[5681,5698]},{"type":"Point","properties":{"Station_ID":"KSGM4","Station_Nam":"KEARSARGE","Latitude":"47.27520","Longitude":"-88.41700","Snowdepth":"24.000","Units":"in","Rept_Date":"2021-01-27 13"},"coordinates":[2070,7792]},{"type":"Point","properties":{"Station_ID":"BMON6","Station_Nam":"BIG MOOSE 3SE","Latitude":"43.80000","Longitude":"-74.86670","Snowdepth":"24.000","Units":"in","Rept_Date":"2021-01-27 13"},"coordinates":[5251,6070]},{"type":"Point","properties":{"Station_ID":"VT-BN-3","Station_Nam":"LANDGROVE 1.1 NNE, VT","Latitude":"43.29092","Longitude":"-72.83260","Snowdepth":"23.000","Units":"in","Rept_Date":"2021-01-27 12"},"coordinates":[5728,5817]},{"type":"Point","properties":{"Station_ID":"QCU","Station_Nam":"QCU","Latitude":"47.82750","Longitude":"-76.59830","Snowdepth":"22.835","Units":"in","Rept_Date":"2021-01-27 12"},"coordinates":[4844,8066]},{"type":"Point","properties":{"Station_ID":"AUDQ6","Station_Nam":"AUDEN","Latitude":"48.52600","Longitude":"-82.57570","Snowdepth":"22.280","Units":"in","Rept_Date":"2021-01-28 06"},"coordinates":[3441,8412]},{"type":"Point","properties":{"Station_ID":"DVLQ6","Station_Nam":"DEVIOUS LAKE","Latitude":"49.19890","Longitude":"-87.76440","Snowdepth":"22.240","Units":"in","Rept_Date":"2021-01-28 06"},"coordinates":[2224,8746]},{"type":"Point","properties":{"Station_ID":"QLB","Station_Nam":"QLB","Latitude":"50.72360","Longitude":"-75.10000","Snowdepth":"21.339","Units":"in","Rept_Date":"2021-01-27 12"},"coordinates":[5196,9502]},{"type":"Point","properties":{"Station_ID":"QGO","Station_Nam":"QGO","Latitude":"48.85500","Longitude":"-74.20640","Snowdepth":"21.181","Units":"in","Rept_Date":"2021-01-27 12"},"coordinates":[5405,8575]},{"type":"Point","properties":{"Station_ID":"ROWM3","Station_Nam":"ROWE 3NE","Latitude":"42.73500","Longitude":"-72.86920","Snowdepth":"21.000","Units":"in","Rept_Date":"2021-01-27 18"},"coordinates":[5719,5542]},{"type":"Point","properties":{"Station_ID":"NY-LW-12","Station_Nam":"CHASES LAKE COOP, NY","Latitude":"43.75924","Longitude":"-75.29982","Snowdepth":"21.000","Units":"in","Rept_Date":"2021-01-27 11"},"coordinates":[5149,6049]},{"type":"Point","properties":{"Station_ID":"MWN","Station_Nam":"MOUNT WASHINGTON","Latitude":"44.26670","Longitude":"-71.30000","Snowdepth":"21.000","Units":"in","Rept_Date":"2021-01-27 12"},"coordinates":[6088,6301]},{"type":"Point","properties":{"Station_ID":"KMWN","Station_Nam":"MOUNT WASHINGTON","Latitude":"44.26666","Longitude":"-71.30000","Snowdepth":"21.000","Units":"in","Rept_Date":"2021-01-28 06"},"coordinates":[6088,6301]},{"type":"Point","properties":{"Station_ID":"GFDN6","Station_Nam":"CHASES LAKE","Latitude":"43.75920","Longitude":"-75.29980","Snowdepth":"21.000","Units":"in","Rept_Date":"2021-01-27 11"},"coordinates":[5149,6049]},{"type":"Point","properties":{"Station_ID":"BOON6","Station_Nam":"BOONVILLE 4 SSW","Latitude":"43.43610","Longitude":"-75.36970","Snowdepth":"21.000","Units":"in","Rept_Date":"2021-01-27 12"},"coordinates":[5132,5889]},{"type":"Point","properties":{"Station_ID":"QCO","Station_Nam":"QCO","Latitude":"51.45280","Longitude":"-72.20110","Snowdepth":"20.669","Units":"in","Rept_Date":"2021-01-27 12"},"coordinates":[5876,9863]},{"type":"Point","properties":{"Station_ID":"CAN-ON-245","Station_Nam":"PHELPSTON 3.1 ESE, CAN","Latitude":"44.50564","Longitude":"-79.81035","Snowdepth":"20.500","Units":"in","Rept_Date":"2021-01-27 13"},"coordinates":[4090,6419]},{"type":"Point","properties":{"Station_ID":"MI-HG-20","Station_Nam":"CALUMET 1.1 SSW, MI","Latitude":"47.23165","Longitude":"-88.45823","Snowdepth":"20.000","Units":"in","Rept_Date":"2021-01-27 11"},"coordinates":[2061,7771]},{"type":"Point","properties":{"Station_ID":"QNCM4","Station_Nam":"QUINCY HILL","Latitude":"47.13640","Longitude":"-88.57950","Snowdepth":"19.000","Units":"in","Rept_Date":"2021-01-27 12"},"coordinates":[2032,7723]},{"type":"Point","properties":{"Station_ID":"NY-OD-2","Station_Nam":"POINT ROCK 0.6 SE, NY","Latitude":"43.37335","Longitude":"-75.53840","Snowdepth":"19.000","Units":"in","Rept_Date":"2021-01-27 13"},"coordinates":[5093,5858]},{"type":"Point","properties":{"Station_ID":"NY-HM-10","Station_Nam":"LAKE PLEASANT 2.3 WSW, NY","Latitude":"43.45490","Longitude":"-74.45287","Snowdepth":"19.000","Units":"in","Rept_Date":"2021-01-27 12"},"coordinates":[5348,5898]},{"type":"Point","properties":{"Station_ID":"NY-HM-1","Station_Nam":"SPECULATOR 10.0 SSW, NY","Latitude":"43.45133","Longitude":"-74.47120","Snowdepth":"19.000","Units":"in","Rept_Date":"2021-01-27 12"},"coordinates":[5343,5897]},{"type":"Point","properties":{"Station_ID":"NCBN6","Station_Nam":"NEWCOMB","Latitude":"43.97070","Longitude":"-74.22200","Snowdepth":"19.000","Units":"in","Rept_Date":"2021-01-27 12"},"coordinates":[5402,6154]},{"type":"Point","properties":{"Station_ID":"GNLM4","Station_Nam":"GREENLAND 6N","Latitude":"46.87360","Longitude":"-89.10060","Snowdepth":"19.000","Units":"in","Rept_Date":"2021-01-27 13"},"coordinates":[1910,7593]},{"type":"Point","properties":{"Station_ID":"BRVN6","Station_Nam":"TRENTON FALLS","Latitude":"43.27610","Longitude":"-75.15660","Snowdepth":"19.000","Units":"in","Rept_Date":"2021-01-27 13"},"coordinates":[5182,5810]},{"type":"Point","properties":{"Station_ID":"QOU","Station_Nam":"QOU","Latitude":"50.79250","Longitude":"-69.67470","Snowdepth":"18.661","Units":"in","Rept_Date":"2021-01-27 12"},"coordinates":[6469,9536]},{"type":"Point","properties":{"Station_ID":"VT-OL-12","Station_Nam":"GREENSBORO 3.9 NNE, VT","Latitude":"44.63100","Longitude":"-72.28000","Snowdepth":"18.500","Units":"in","Rept_Date":"2021-01-27 13"},"coordinates":[5858,6481]},{"type":"Point","properties":{"Station_ID":"WPGN6","Station_Nam":"GEORGETOWN 2SE SNOW","Latitude":"42.75000","Longitude":"-75.70000","Snowdepth":"18.000","Units":"in","Rept_Date":"2021-01-27 15"},"coordinates":[5055,5549]},{"type":"Point","properties":{"Station_ID":"TOPN6","Station_Nam":"TUPPER LAKE SUNMOUNT","Latitude":"44.23070","Longitude":"-74.43820","Snowdepth":"18.000","Units":"in","Rept_Date":"2021-01-27 12"},"coordinates":[5351,6283]},{"type":"Point","properties":{"Station_ID":"PRGN6","Station_Nam":"PERRYSBURG","Latitude":"42.46470","Longitude":"-79.00310","Snowdepth":"18.000","Units":"in","Rept_Date":"2021-01-27 12"},"coordinates":[4280,5408]},{"type":"Point","properties":{"Station_ID":"PEKN6","Station_Nam":"PECK LAKE","Latitude":"43.11500","Longitude":"-74.42360","Snowdepth":"18.000","Units":"in","Rept_Date":"2021-01-27 12"},"coordinates":[5355,5730]},{"type":"Point","properties":{"Station_ID":"IWOM4","Station_Nam":"IRONWOOD#2","Latitude":"46.46520","Longitude":"-90.13820","Snowdepth":"18.000","Units":"in","Rept_Date":"2021-01-27 13"},"coordinates":[1666,7391]},{"type":"Point","properties":{"Station_ID":"HURW3","Station_Nam":"HURLEY","Latitude":"46.46250","Longitude":"-90.19550","Snowdepth":"18.000","Units":"in","Rept_Date":"2021-01-27 14"},"coordinates":[1653,7389]},{"type":"Point","properties":{"Station_ID":"QTM","Station_Nam":"QTM","Latitude":"51.05780","Longitude":"-72.57190","Snowdepth":"17.992","Units":"in","Rept_Date":"2021-01-27 12"},"coordinates":[5789,9667]},{"type":"Point","properties":{"Station_ID":"IL-SP-27","Station_Nam":"DAVIS 2.7 N, IL","Latitude":"42.46110","Longitude":"-89.40890","Snowdepth":"17.500","Units":"in","Rept_Date":"2021-01-27 13"},"coordinates":[1838,5406]},{"type":"Point","properties":{"Station_ID":"NE-LA-22","Station_Nam":"RAYMOND 7.3 WNW, NE","Latitude":"40.99820","Longitude":"-96.90930","Snowdepth":"17.400","Units":"in","Rept_Date":"2021-01-27 13"},"coordinates":[77,4681]},{"type":"Point","properties":{"Station_ID":"VT-WR-2","Station_Nam":"POMFRET 2.6 N, VT","Latitude":"43.74230","Longitude":"-72.52550","Snowdepth":"17.000","Units":"in","Rept_Date":"2021-01-27 12"},"coordinates":[5800,6041]},{"type":"Point","properties":{"Station_ID":"VT-OL-1","Station_Nam":"WESTFIELD 0.7 WNW, VT","Latitude":"44.89160","Longitude":"-72.44350","Snowdepth":"17.000","Units":"in","Rept_Date":"2021-01-27 12"},"coordinates":[5819,6611]},{"type":"Point","properties":{"Station_ID":"NY-ER-166","Station_Nam":"BOSTON 2.5 NE, NY","Latitude":"42.65480","Longitude":"-78.70300","Snowdepth":"17.000","Units":"in","Rept_Date":"2021-01-27 12"},"coordinates":[4350,5502]},{"type":"Point","properties":{"Station_ID":"NGLW3","Station_Nam":"NEW GLARUS","Latitude":"42.83500","Longitude":"-89.62080","Snowdepth":"17.000","Units":"in","Rept_Date":"2021-01-27 13"},"coordinates":[1788,5591]},{"type":"Point","properties":{"Station_ID":"MONW3","Station_Nam":"MONROE,WI","Latitude":"42.60000","Longitude":"-89.66670","Snowdepth":"17.000","Units":"in","Rept_Date":"2021-01-27 13"},"coordinates":[1777,5475]},{"type":"Point","properties":{"Station_ID":"MNSM4","Station_Nam":"MUNISING","Latitude":"46.41210","Longitude":"-86.66250","Snowdepth":"17.000","Units":"in","Rept_Date":"2021-01-27 11"},"coordinates":[2482,7364]},{"type":"Point","properties":{"Station_ID":"LANC015","Station_Nam":"PANAMA 1.3 SE, NE","Latitude":"40.58470","Longitude":"-96.49220","Snowdepth":"17.000","Units":"in","Rept_Date":"2021-01-27 13"},"coordinates":[175,4476]},{"type":"Point","properties":{"Station_ID":"HERM4","Station_Nam":"HERMAN,MI","Latitude":"46.65000","Longitude":"-88.33330","Snowdepth":"17.000","Units":"in","Rept_Date":"2021-01-27 13"},"coordinates":[2090,7482]},{"type":"Point","properties":{"Station_ID":"EHYM3","Station_Nam":"EAST HAWLEY","Latitude":"42.57410","Longitude":"-72.86790","Snowdepth":"17.000","Units":"in","Rept_Date":"2021-01-27 14"},"coordinates":[5720,5462]},{"type":"Point","properties":{"Station_ID":"CAN-ON-791","Station_Nam":"METCALFE 4.4 NNW, CAN","Latitude":"45.27286","Longitude":"-75.48952","Snowdepth":"16.700","Units":"in","Rept_Date":"2021-01-27 11"},"coordinates":[5104,6800]},{"type":"Point","properties":{"Station_ID":"OGIQ6","Station_Nam":"OGOKI CAMP","Latitude":"50.76680","Longitude":"-87.85820","Snowdepth":"16.690","Units":"in","Rept_Date":"2021-01-28 06"},"coordinates":[2202,9523]},{"type":"Point","properties":{"Station_ID":"VT-WS-7","Station_Nam":"MIDDLESEX 3.1 ENE, VT","Latitude":"44.31799","Longitude":"-72.62650","Snowdepth":"16.500","Units":"in","Rept_Date":"2021-01-27 13"},"coordinates":[5776,6326]},{"type":"Point","properties":{"Station_ID":"VT-WS-33","Station_Nam":"WAITSFIELD 3.5 WNW, VT","Latitude":"44.20052","Longitude":"-72.89421","Snowdepth":"16.500","Units":"in","Rept_Date":"2021-01-27 13"},"coordinates":[5713,6268]},{"type":"Point","properties":{"Station_ID":"NY-ES-6","Station_Nam":"OLMSTEDVILLE 4.6 NNE, NY","Latitude":"43.83350","Longitude":"-73.89780","Snowdepth":"16.500","Units":"in","Rept_Date":"2021-01-27 13"},"coordinates":[5478,6086]},{"type":"Point","properties":{"Station_ID":"WPEN6","Station_Nam":"SOUTH OTSELIC 2NNW SNOW","Latitude":"42.66670","Longitude":"-75.80000","Snowdepth":"16.000","Units":"in","Rept_Date":"2021-01-27 15"},"coordinates":[5031,5508]},{"type":"Point","properties":{"Station_ID":"WI-IW-3","Station_Nam":"MINERAL POINT 7.3 ENE, WI","Latitude":"42.91400","Longitude":"-90.05700","Snowdepth":"16.000","Units":"in","Rept_Date":"2021-01-27 13"},"coordinates":[1685,5630]},{"type":"Point","properties":{"Station_ID":"WHFN6","Station_Nam":"WILMINGTON 2W","Latitude":"44.39310","Longitude":"-73.85890","Snowdepth":"16.000","Units":"in","Rept_Date":"2021-01-27 13"},"coordinates":[5487,6364]},{"type":"Point","properties":{"Station_ID":"WAIV1","Station_Nam":"WAITSFIELD","Latitude":"44.17560","Longitude":"-72.79610","Snowdepth":"16.000","Units":"in","Rept_Date":"2021-01-27 11"},"coordinates":[5736,6256]},{"type":"Point","properties":{"Station_ID":"VT-WS-11","Station_Nam":"WAITSFIELD 1.8 SE, VT","Latitude":"44.17551","Longitude":"-72.79540","Snowdepth":"16.000","Units":"in","Rept_Date":"2021-01-27 11"},"coordinates":[5737,6256]},{"type":"Point","properties":{"Station_ID":"VT-WH-30","Station_Nam":"MARLBORO 2.0 NNE, VT","Latitude":"42.88484","Longitude":"-72.70935","Snowdepth":"16.000","Units":"in","Rept_Date":"2021-01-27 13"},"coordinates":[5757,5616]},{"type":"Point","properties":{"Station_ID":"VT-WH-19","Station_Nam":"EAST DOVER 1.8 N, VT","Latitude":"42.97658","Longitude":"-72.77637","Snowdepth":"16.000","Units":"in","Rept_Date":"2021-01-27 12"},"coordinates":[5741,5661]},{"type":"Point","properties":{"Station_ID":"STOW3","Station_Nam":"STOUGHTON,WI","Latitude":"42.91670","Longitude":"-89.21670","Snowdepth":"16.000","Units":"in","Rept_Date":"2021-01-27 13"},"coordinates":[1883,5632]},{"type":"Point","properties":{"Station_ID":"SPTI4","Station_Nam":"STRAWBERRY POINT","Latitude":"42.68530","Longitude":"-91.53300","Snowdepth":"16.000","Units":"in","Rept_Date":"2021-01-27 13"},"coordinates":[1339,5517]},{"type":"Point","properties":{"Station_ID":"SGVN6","Station_Nam":"SPRINGVILLE","Latitude":"42.54970","Longitude":"-78.57670","Snowdepth":"16.000","Units":"in","Rept_Date":"2021-01-28 02"},"coordinates":[4380,5450]},{"type":"Point","properties":{"Station_ID":"NY-FK-9","Station_Nam":"GABRIELS 1.3 SE, NY","Latitude":"44.41934","Longitude":"-74.16194","Snowdepth":"16.000","Units":"in","Rept_Date":"2021-01-27 12"},"coordinates":[5416,6377]},{"type":"Point","properties":{"Station_ID":"NY-ER-65","Station_Nam":"BOSTON 1.5 NE, NY","Latitude":"42.65470","Longitude":"-78.72010","Snowdepth":"16.000","Units":"in","Rept_Date":"2021-01-27 12"},"coordinates":[4346,5502]},{"type":"Point","properties":{"Station_ID":"NY-ER-56","Station_Nam":"COLDEN 1.4 NNW, NY","Latitude":"42.64740","Longitude":"-78.71120","Snowdepth":"16.000","Units":"in","Rept_Date":"2021-01-27 12"},"coordinates":[4348,5498]},{"type":"Point","properties":{"Station_ID":"NE-LA-41","Station_Nam":"MALCOLM 0.3 SSE, NE","Latitude":"40.90461","Longitude":"-96.86279","Snowdepth":"16.000","Units":"in","Rept_Date":"2021-01-27 15"},"coordinates":[88,4634]},{"type":"Point","properties":{"Station_ID":"MRLV1","Station_Nam":"MARLBORO","Latitude":"42.86000","Longitude":"-72.72000","Snowdepth":"16.000","Units":"in","Rept_Date":"2021-01-27 13"},"coordinates":[5754,5604]},{"type":"Point","properties":{"Station_ID":"LPLN6","Station_Nam":"LAKE PLACID 2 S","Latitude":"44.30420","Longitude":"-73.98390","Snowdepth":"16.000","Units":"in","Rept_Date":"2021-01-27 13"},"coordinates":[5458,6319]},{"type":"Point","properties":{"Station_ID":"LOWN6","Station_Nam":"LOWVILLE","Latitude":"43.79280","Longitude":"-75.48290","Snowdepth":"16.000","Units":"in","Rept_Date":"2021-01-27 12"},"coordinates":[5106,6066]},{"type":"Point","properties":{"Station_ID":"KABM5","Station_Nam":"KABETOGAMA LAKE VISITOR CTR","Latitude":"48.40880","Longitude":"-93.04840","Snowdepth":"16.000","Units":"in","Rept_Date":"2021-01-27 13"},"coordinates":[983,8354]},{"type":"Point","properties":{"Station_ID":"IA-DL-33","Station_Nam":"WAUKEE 1.6 N, IA","Latitude":"41.63119","Longitude":"-93.85778","Snowdepth":"16.000","Units":"in","Rept_Date":"2021-01-27 13"},"coordinates":[793,4994]},{"type":"Point","properties":{"Station_ID":"CODN6","Station_Nam":"COLDEN","Latitude":"42.64720","Longitude":"-78.71110","Snowdepth":"16.000","Units":"in","Rept_Date":"2021-01-27 12"},"coordinates":[4348,5498]},{"type":"Point","properties":{"Station_ID":"CLQM5","Station_Nam":"CLOQUET","Latitude":"46.70470","Longitude":"-92.52530","Snowdepth":"16.000","Units":"in","Rept_Date":"2021-01-27 14"},"coordinates":[1106,7509]},{"type":"Point","properties":{"Station_ID":"BBEM4","Station_Nam":"BIG BAY 9SW","Latitude":"46.74620","Longitude":"-87.88160","Snowdepth":"16.000","Units":"in","Rept_Date":"2021-01-27 13"},"coordinates":[2196,7530]},{"type":"Point","properties":{"Station_ID":"WI-GT-9","Station_Nam":"CASSVILLE 7.8 ENE, WI","Latitude":"42.74949","Longitude":"-90.84390","Snowdepth":"15.900","Units":"in","Rept_Date":"2021-01-27 14"},"coordinates":[1501,5549]},{"type":"Point","properties":{"Station_ID":"QWE","Station_Nam":"QWE","Latitude":"47.84610","Longitude":"-73.80670","Snowdepth":"15.591","Units":"in","Rept_Date":"2021-01-27 12"},"coordinates":[5499,8075]},{"type":"Point","properties":{"Station_ID":"NE-LA-52","Station_Nam":"LINCOLN 1.2 ENE, NE","Latitude":"40.82411","Longitude":"-96.66780","Snowdepth":"15.500","Units":"in","Rept_Date":"2021-01-27 13"},"coordinates":[134,4594]},{"type":"Point","properties":{"Station_ID":"MI-BG-3","Station_Nam":"THREE LAKES, MI","Latitude":"46.55730","Longitude":"-88.20770","Snowdepth":"15.500","Units":"in","Rept_Date":"2021-01-27 13"},"coordinates":[2119,7436]},{"type":"Point","properties":{"Station_ID":"LANC007","Station_Nam":"DAVEY 1.2 NNW, NE","Latitude":"41.00320","Longitude":"-96.67630","Snowdepth":"15.500","Units":"in","Rept_Date":"2021-01-27 13"},"coordinates":[132,4683]},{"type":"Point","properties":{"Station_ID":"IA-SH-6","Station_Nam":"KIRKMAN 1.0 SE, IA","Latitude":"41.71810","Longitude":"-95.25310","Snowdepth":"15.500","Units":"in","Rept_Date":"2021-01-27 13"},"coordinates":[466,5037]},{"type":"Point","properties":{"Station_ID":"SOCQ6","Station_Nam":"SOCKET LAKE","Latitude":"50.77870","Longitude":"-91.79300","Snowdepth":"15.200","Units":"in","Rept_Date":"2021-01-28 06"},"coordinates":[1278,9529]},{"type":"Point","properties":{"Station_ID":"MLZ","Station_Nam":"MLZ","Latitude":"50.66170","Longitude":"-68.82360","Snowdepth":"15.079","Units":"in","Rept_Date":"2021-01-27 12"},"coordinates":[6669,9471]},{"type":"Point","properties":{"Station_ID":"WPHN6","Station_Nam":"GEORGETOWN SNOW","Latitude":"42.76670","Longitude":"-75.70000","Snowdepth":"15.000","Units":"in","Rept_Date":"2021-01-27 15"},"coordinates":[5055,5557]},{"type":"Point","properties":{"Station_ID":"WPFN6","Station_Nam":"MARIPOSA 1NNW SNOW","Latitude":"42.73330","Longitude":"-75.81670","Snowdepth":"15.000","Units":"in","Rept_Date":"2021-01-27 15"},"coordinates":[5028,5541]},{"type":"Point","properties":{"Station_ID":"WORV1","Station_Nam":"WORCESTER 2 W","Latitude":"44.37470","Longitude":"-72.58220","Snowdepth":"15.000","Units":"in","Rept_Date":"2021-01-27 12"},"coordinates":[5787,6354]},{"type":"Point","properties":{"Station_ID":"WLFM5","Station_Nam":"WOLF RIDGE ENVIRON LEARNING CENTER","Latitude":"47.38240","Longitude":"-91.19730","Snowdepth":"15.000","Units":"in","Rept_Date":"2021-01-27 13"},"coordinates":[1418,7845]},{"type":"Point","properties":{"Station_ID":"VT-WS-30","Station_Nam":"WOODBURY 3.4 NNW, VT","Latitude":"44.48825","Longitude":"-72.43258","Snowdepth":"15.000","Units":"in","Rept_Date":"2021-01-27 12"},"coordinates":[5822,6411]},{"type":"Point","properties":{"Station_ID":"VT-WS-23","Station_Nam":"CABOT 2.3 E, VT","Latitude":"44.39807","Longitude":"-72.26570","Snowdepth":"15.000","Units":"in","Rept_Date":"2021-01-27 12"},"coordinates":[5861,6366]},{"type":"Point","properties":{"Station_ID":"VT-OL-2","Station_Nam":"BARTON 3.0 ENE, VT","Latitude":"44.75863","Longitude":"-72.11680","Snowdepth":"15.000","Units":"in","Rept_Date":"2021-01-27 12"},"coordinates":[5896,6545]},{"type":"Point","properties":{"Station_ID":"RANM1","Station_Nam":"RANGELEY","Latitude":"44.98910","Longitude":"-70.67190","Snowdepth":"15.000","Units":"in","Rept_Date":"2021-01-27 11"},"coordinates":[6235,6659]},{"type":"Point","properties":{"Station_ID":"PTBN3","Station_Nam":"PITTSBURG RESERVOIR","Latitude":"45.04690","Longitude":"-71.38300","Snowdepth":"15.000","Units":"in","Rept_Date":"2021-01-27 12"},"coordinates":[6068,6688]},{"type":"Point","properties":{"Station_ID":"NY-SR-22","Station_Nam":"GREENFIELD CENTER 1.6 W, NY","Latitude":"43.12684","Longitude":"-73.87860","Snowdepth":"15.000","Units":"in","Rept_Date":"2021-01-27 12"},"coordinates":[5482,5736]},{"type":"Point","properties":{"Station_ID":"MQT","Station_Nam":"MARQUETTE, MI","Latitude":"46.53140","Longitude":"-87.54920","Snowdepth":"15.000","Units":"in","Rept_Date":"2021-01-28 06"},"coordinates":[2274,7424]},{"type":"Point","properties":{"Station_ID":"ME-FR-2","Station_Nam":"TEMPLE 1.8 W, ME","Latitude":"44.68329","Longitude":"-70.26420","Snowdepth":"15.000","Units":"in","Rept_Date":"2021-01-27 12"},"coordinates":[6331,6507]},{"type":"Point","properties":{"Station_ID":"KABQ6","Station_Nam":"CAB LAKE","Latitude":"49.59950","Longitude":"-89.17990","Snowdepth":"15.000","Units":"in","Rept_Date":"2021-01-28 06"},"coordinates":[1891,8944]},{"type":"Point","properties":{"Station_ID":"IRMM4","Station_Nam":"WWTP","Latitude":"46.46670","Longitude":"-90.18330","Snowdepth":"15.000","Units":"in","Rept_Date":"2021-01-27 13"},"coordinates":[1656,7391]},{"type":"Point","properties":{"Station_ID":"INDN6","Station_Nam":"INDIAN LAKE","Latitude":"43.75500","Longitude":"-74.27560","Snowdepth":"15.000","Units":"in","Rept_Date":"2021-01-27 12"},"coordinates":[5389,6047]},{"type":"Point","properties":{"Station_ID":"IA-BH-6","Station_Nam":"WATERLOO 1.9 SSE, IA","Latitude":"42.46500","Longitude":"-92.34100","Snowdepth":"15.000","Units":"in","Rept_Date":"2021-01-27 14"},"coordinates":[1149,5408]},{"type":"Point","properties":{"Station_ID":"DGVW3","Station_Nam":"DODGEVILLE","Latitude":"42.96670","Longitude":"-90.11670","Snowdepth":"15.000","Units":"in","Rept_Date":"2021-01-27 13"},"coordinates":[1671,5656]},{"type":"Point","properties":{"Station_ID":"AVLV1","Station_Nam":"AVERILL","Latitude":"45.00570","Longitude":"-71.69030","Snowdepth":"15.000","Units":"in","Rept_Date":"2021-01-27 13"},"coordinates":[5996,6667]},{"type":"Point","properties":{"Station_ID":"ALO","Station_Nam":"WATERLOO MUNICIPAL AIRPORT","Latitude":"42.55690","Longitude":"-92.40000","Snowdepth":"15.000","Units":"in","Rept_Date":"2021-01-27 12"},"coordinates":[1136,5453]},{"type":"Point","properties":{"Station_ID":"CAN-QC-51","Station_Nam":"BELOEIL 0.7 NW, CAN","Latitude":"45.58049","Longitude":"-73.21218","Snowdepth":"14.600","Units":"in","Rept_Date":"2021-01-27 12"},"coordinates":[5639,6952]},{"type":"Point","properties":{"Station_ID":"CAN-MB-368","Station_Nam":"WHITESHELL 1.3 NE, CAN","Latitude":"49.74405","Longitude":"-95.19123","Snowdepth":"14.600","Units":"in","Rept_Date":"2021-01-27 14"},"coordinates":[481,9016]},{"type":"Point","properties":{"Station_ID":"VT-BN-7","Station_Nam":"MANCHESTER 2.8 ENE, VT","Latitude":"43.17274","Longitude":"-73.01811","Snowdepth":"14.500","Units":"in","Rept_Date":"2021-01-27 12"},"coordinates":[5684,5759]},{"type":"Point","properties":{"Station_ID":"NY-SL-6","Station_Nam":"HANNAWA FALLS 0.1 SW, NY","Latitude":"44.61154","Longitude":"-74.97190","Snowdepth":"14.500","Units":"in","Rept_Date":"2021-01-27 12"},"coordinates":[5226,6472]},{"type":"Point","properties":{"Station_ID":"NY-ES-11","Station_Nam":"VERMONTVILLE 2.8 S, NY","Latitude":"44.41205","Longitude":"-74.06760","Snowdepth":"14.500","Units":"in","Rept_Date":"2021-01-27 12"},"coordinates":[5438,6373]},{"type":"Point","properties":{"Station_ID":"NY-ER-194","Station_Nam":"GLENWOOD 1.0 SE, NY","Latitude":"42.60740","Longitude":"-78.64610","Snowdepth":"14.500","Units":"in","Rept_Date":"2021-01-27 12"},"coordinates":[4364,5478]},{"type":"Point","properties":{"Station_ID":"NE-CA-2","Station_Nam":"ALVO 2.1 W, NE","Latitude":"40.86903","Longitude":"-96.42660","Snowdepth":"14.500","Units":"in","Rept_Date":"2021-01-27 14"},"coordinates":[191,4617]},{"type":"Point","properties":{"Station_ID":"MA-HS-7","Station_Nam":"PLAINFIELD 2.2 SW, MA","Latitude":"42.49272","Longitude":"-72.94540","Snowdepth":"14.500","Units":"in","Rept_Date":"2021-01-27 13"},"coordinates":[5701,5421]},{"type":"Point","properties":{"Station_ID":"SVBQ6","Station_Nam":"SAVANT BASE","Latitude":"50.28730","Longitude":"-90.65670","Snowdepth":"14.490","Units":"in","Rept_Date":"2021-01-28 06"},"coordinates":[1545,9285]},{"type":"Point","properties":{"Station_ID":"WSFW3","Station_Nam":"TOWN OF WESTFORD","Latitude":"43.47190","Longitude":"-88.88250","Snowdepth":"14.000","Units":"in","Rept_Date":"2021-01-27 13"},"coordinates":[1961,5907]},{"type":"Point","properties":{"Station_ID":"WI-DD-16","Station_Nam":"BEAVER DAM 2.4 WNW, WI","Latitude":"43.47210","Longitude":"-88.88280","Snowdepth":"14.000","Units":"in","Rept_Date":"2021-01-27 13"},"coordinates":[1961,5907]},{"type":"Point","properties":{"Station_ID":"VT-WS-19","Station_Nam":"WATERBURY 3.0 NW, VT","Latitude":"44.36060","Longitude":"-72.80770","Snowdepth":"14.000","Units":"in","Rept_Date":"2021-01-27 11"},"coordinates":[5734,6347]},{"type":"Point","properties":{"Station_ID":"VT-WS-10","Station_Nam":"NORTHFIELD 1.5 N, VT","Latitude":"44.16986","Longitude":"-72.65200","Snowdepth":"14.000","Units":"in","Rept_Date":"2021-01-27 12"},"coordinates":[5770,6253]},{"type":"Point","properties":{"Station_ID":"VT-ES-3","Station_Nam":"LUNENBURG 2.3 NNW, VT","Latitude":"44.49324","Longitude":"-71.70446","Snowdepth":"14.000","Units":"in","Rept_Date":"2021-01-27 11"},"coordinates":[5993,6413]},{"type":"Point","properties":{"Station_ID":"SNYI4","Station_Nam":"STANLEY","Latitude":"42.63330","Longitude":"-91.86320","Snowdepth":"14.000","Units":"in","Rept_Date":"2021-01-27 13"},"coordinates":[1262,5491]},{"type":"Point","properties":{"Station_ID":"RGNM1","Station_Nam":"RANGELEY 2NW","Latitude":"44.98940","Longitude":"-70.67220","Snowdepth":"14.000","Units":"in","Rept_Date":"2021-01-27 11"},"coordinates":[6235,6659]},{"type":"Point","properties":{"Station_ID":"NY-FK-7","Station_Nam":"SARANAC LAKE 6.2 N, NY","Latitude":"44.41359","Longitude":"-74.15211","Snowdepth":"14.000","Units":"in","Rept_Date":"2021-01-27 12"},"coordinates":[5418,6374]},{"type":"Point","properties":{"Station_ID":"NY-CL-12","Station_Nam":"SARANAC 0.8 SSE, NY","Latitude":"44.63980","Longitude":"-73.73848","Snowdepth":"14.000","Units":"in","Rept_Date":"2021-01-27 12"},"coordinates":[5515,6486]},{"type":"Point","properties":{"Station_ID":"NH-CS-4","Station_Nam":"PITTSBURG 6.1 NE, NH","Latitude":"45.11060","Longitude":"-71.29760","Snowdepth":"14.000","Units":"in","Rept_Date":"2021-01-27 12"},"coordinates":[6088,6719]},{"type":"Point","properties":{"Station_ID":"NE-LA-56","Station_Nam":"LINCOLN 8.1 SSE, NE","Latitude":"40.71326","Longitude":"-96.61527","Snowdepth":"14.000","Units":"in","Rept_Date":"2021-01-27 14"},"coordinates":[146,4539]},{"type":"Point","properties":{"Station_ID":"NE-LA-40","Station_Nam":"LINCOLN 3.9 S, NE","Latitude":"40.76142","Longitude":"-96.70244","Snowdepth":"14.000","Units":"in","Rept_Date":"2021-01-27 13"},"coordinates":[126,4563]},{"type":"Point","properties":{"Station_ID":"MN-SL-15","Station_Nam":"CHISHOLM 0.4 WSW, MN","Latitude":"47.48557","Longitude":"-92.88690","Snowdepth":"14.000","Units":"in","Rept_Date":"2021-01-27 13"},"coordinates":[1021,7897]},{"type":"Point","properties":{"Station_ID":"MN-SL-108","Station_Nam":"IRON JUNCTION 3.4 NNW, MN","Latitude":"47.46150","Longitude":"-92.63130","Snowdepth":"14.000","Units":"in","Rept_Date":"2021-01-27 12"},"coordinates":[1081,7885]},{"type":"Point","properties":{"Station_ID":"MN-SE-2","Station_Nam":"OWATONNA 0.8 E, MN","Latitude":"44.09170","Longitude":"-93.21380","Snowdepth":"14.000","Units":"in","Rept_Date":"2021-01-27 13"},"coordinates":[945,6214]},{"type":"Point","properties":{"Station_ID":"MN-IT-7","Station_Nam":"GRAND RAPIDS 6.2 SSW, MN","Latitude":"47.13687","Longitude":"-93.56660","Snowdepth":"14.000","Units":"in","Rept_Date":"2021-01-27 12"},"coordinates":[862,7724]},{"type":"Point","properties":{"Station_ID":"MALN6","Station_Nam":"MALONE","Latitude":"44.84180","Longitude":"-74.30600","Snowdepth":"14.000","Units":"in","Rept_Date":"2021-01-27 12"},"coordinates":[5382,6586]},{"type":"Point","properties":{"Station_ID":"LNK","Station_Nam":"LINCOLN MUNICIPAL AIRPORT","Latitude":"40.85080","Longitude":"-96.75920","Snowdepth":"14.000","Units":"in","Rept_Date":"2021-01-28 00"},"coordinates":[113,4608]},{"type":"Point","properties":{"Station_ID":"KGTB","Station_Nam":"FORT DRUM / WHEELER-SACK U. S. ARMY AIRFIELD","Latitude":"44.05000","Longitude":"-75.73333","Snowdepth":"14.000","Units":"in","Rept_Date":"2021-01-28 06"},"coordinates":[5047,6193]},{"type":"Point","properties":{"Station_ID":"JOHV1","Station_Nam":"JOHNSON 2 N","Latitude":"44.65790","Longitude":"-72.67850","Snowdepth":"14.000","Units":"in","Rept_Date":"2021-01-27 12"},"coordinates":[5764,6495]},{"type":"Point","properties":{"Station_ID":"JEFV1","Station_Nam":"JEFFERSONVILLE","Latitude":"44.58430","Longitude":"-72.78700","Snowdepth":"14.000","Units":"in","Rept_Date":"2021-01-27 12"},"coordinates":[5739,6458]},{"type":"Point","properties":{"Station_ID":"ISLV1","Station_Nam":"ISLAND POND","Latitude":"44.81280","Longitude":"-71.89020","Snowdepth":"14.000","Units":"in","Rept_Date":"2021-01-27 14"},"coordinates":[5949,6572]},{"type":"Point","properties":{"Station_ID":"IA-PK-3","Station_Nam":"DES MOINES 4.5 WNW, IA","Latitude":"41.60663","Longitude":"-93.69560","Snowdepth":"14.000","Units":"in","Rept_Date":"2021-01-27 13"},"coordinates":[832,4982]},{"type":"Point","properties":{"Station_ID":"GTTI4","Station_Nam":"LOCK & DAM 10","Latitude":"42.78580","Longitude":"-91.09970","Snowdepth":"14.000","Units":"in","Rept_Date":"2021-01-27 14"},"coordinates":[1441,5567]},{"type":"Point","properties":{"Station_ID":"GTHI4","Station_Nam":"GUTHRIE CENTER,IA","Latitude":"41.68330","Longitude":"-94.50000","Snowdepth":"14.000","Units":"in","Rept_Date":"2021-01-27 17"},"coordinates":[643,5020]},{"type":"Point","properties":{"Station_ID":"CTEN1","Station_Nam":"DOANE COLLEGE","Latitude":"40.61670","Longitude":"-96.95000","Snowdepth":"14.000","Units":"in","Rept_Date":"2021-01-27 13"},"coordinates":[68,4491]},{"type":"Point","properties":{"Station_ID":"CLKM4","Station_Nam":"CLARKSBURG","Latitude":"46.49910","Longitude":"-87.84500","Snowdepth":"14.000","Units":"in","Rept_Date":"2021-01-27 12"},"coordinates":[2205,7407]},{"type":"Point","properties":{"Station_ID":"CLDI4","Station_Nam":"CLARINDA,IA","Latitude":"40.73330","Longitude":"-95.03330","Snowdepth":"14.000","Units":"in","Rept_Date":"2021-01-27 12"},"coordinates":[518,4549]},{"type":"Point","properties":{"Station_ID":"CAN-QC-56","Station_Nam":"SUTTON 2.6 N, CAN","Latitude":"45.13119","Longitude":"-72.61218","Snowdepth":"14.000","Units":"in","Rept_Date":"2021-01-27 12"},"coordinates":[5780,6729]},{"type":"Point","properties":{"Station_ID":"CAN-ON-42","Station_Nam":"VANKLEEK HILL 3.4 S, CA","Latitude":"45.48987","Longitude":"-74.64570","Snowdepth":"14.000","Units":"in","Rept_Date":"2021-01-27 12"},"coordinates":[5302,6907]},{"type":"Point","properties":{"Station_ID":"BLVI4","Station_Nam":"MISSISSIPPI RIVER","Latitude":"42.26670","Longitude":"-90.41670","Snowdepth":"14.000","Units":"in","Rept_Date":"2021-01-27 12"},"coordinates":[1601,5309]},{"type":"Point","properties":{"Station_ID":"ALXI4","Station_Nam":"WATERLOO SNOW","Latitude":"42.53130","Longitude":"-92.37550","Snowdepth":"14.000","Units":"in","Rept_Date":"2021-01-28 06"},"coordinates":[1141,5441]},{"type":"Point","properties":{"Station_ID":"NE-SY-11","Station_Nam":"LA VISTA 2.0 WSW, NE","Latitude":"41.17702","Longitude":"-96.07571","Snowdepth":"13.800","Units":"in","Rept_Date":"2021-01-27 13"},"coordinates":[273,4769]},{"type":"Point","properties":{"Station_ID":"VT-AD-20","Station_Nam":"HANCOCK 0.3 S, VT","Latitude":"43.92166","Longitude":"-72.84042","Snowdepth":"13.500","Units":"in","Rept_Date":"2021-01-27 12"},"coordinates":[5726,6130]},{"type":"Point","properties":{"Station_ID":"NY-OT-11","Station_Nam":"HARTWICK, NY","Latitude":"42.65990","Longitude":"-75.05000","Snowdepth":"13.500","Units":"in","Rept_Date":"2021-01-27 15"},"coordinates":[5208,5504]},{"type":"Point","properties":{"Station_ID":"NE-LA-38","Station_Nam":"LINCOLN 4.6 S, NE","Latitude":"40.74920","Longitude":"-96.68970","Snowdepth":"13.500","Units":"in","Rept_Date":"2021-01-27 13"},"coordinates":[129,4557]},{"type":"Point","properties":{"Station_ID":"IL-CR-12","Station_Nam":"MOUNT CARROLL 6.8 NNW, IL","Latitude":"42.18735","Longitude":"-90.02185","Snowdepth":"13.500","Units":"in","Rept_Date":"2021-01-27 13"},"coordinates":[1694,5270]},{"type":"Point","properties":{"Station_ID":"CAN-ON-699","Station_Nam":"DALHOUSIE MILLS, CAN","Latitude":"45.31670","Longitude":"-74.47120","Snowdepth":"13.500","Units":"in","Rept_Date":"2021-01-27 11"},"coordinates":[5343,6821]},{"type":"Point","properties":{"Station_ID":"QMD","Station_Nam":"QMD","Latitude":"49.29060","Longitude":"-75.84500","Snowdepth":"13.465","Units":"in","Rept_Date":"2021-01-27 12"},"coordinates":[5021,8791]},{"type":"Point","properties":{"Station_ID":"NY-JF-30","Station_Nam":"WEST CARTHAGE 0.3 ENE, NY","Latitude":"43.97493","Longitude":"-75.61640","Snowdepth":"13.300","Units":"in","Rept_Date":"2021-01-27 12"},"coordinates":[5075,6156]},{"type":"Point","properties":{"Station_ID":"WRSN6","Station_Nam":"WARSAW 6SW","Latitude":"42.68550","Longitude":"-78.22020","Snowdepth":"13.000","Units":"in","Rept_Date":"2021-01-27 12"},"coordinates":[4463,5517]},{"type":"Point","properties":{"Station_ID":"WPDN6","Station_Nam":"CINCINNATUS 2NW SNOW","Latitude":"42.55000","Longitude":"-75.93330","Snowdepth":"13.000","Units":"in","Rept_Date":"2021-01-27 15"},"coordinates":[5000,5450]},{"type":"Point","properties":{"Station_ID":"WPCN6","Station_Nam":"WILLET 2WNW SNOW","Latitude":"42.48330","Longitude":"-75.93330","Snowdepth":"13.000","Units":"in","Rept_Date":"2021-01-27 15"},"coordinates":[5000,5417]},{"type":"Point","properties":{"Station_ID":"WNDP1","Station_Nam":"WINDBER COUNTY CLUB","Latitude":"40.28780","Longitude":"-78.77530","Snowdepth":"13.000","Units":"in","Rept_Date":"2021-01-27 12"},"coordinates":[4333,4328]},{"type":"Point","properties":{"Station_ID":"WI-VL-9","Station_Nam":"LAND O' LAKES 11.7 W, WI","Latitude":"46.19023","Longitude":"-89.45790","Snowdepth":"13.000","Units":"in","Rept_Date":"2021-01-27 13"},"coordinates":[1826,7254]},{"type":"Point","properties":{"Station_ID":"WI-MW-14","Station_Nam":"MILWAUKEE 3.6 NNW, WI","Latitude":"43.11300","Longitude":"-87.98730","Snowdepth":"13.000","Units":"in","Rept_Date":"2021-01-27 11"},"coordinates":[2171,5729]},{"type":"Point","properties":{"Station_ID":"WI-IR-3","Station_Nam":"PENCE 0.1 E, WI","Latitude":"46.41555","Longitude":"-90.27013","Snowdepth":"13.000","Units":"in","Rept_Date":"2021-01-27 13"},"coordinates":[1635,7366]},{"type":"Point","properties":{"Station_ID":"WI-DA-99","Station_Nam":"FITCHBURG 1.1 NW, WI","Latitude":"42.99740","Longitude":"-89.44046","Snowdepth":"13.000","Units":"in","Rept_Date":"2021-01-27 13"},"coordinates":[1830,5672]},{"type":"Point","properties":{"Station_ID":"WELM5","Station_Nam":"WELLS","Latitude":"43.74680","Longitude":"-93.73680","Snowdepth":"13.000","Units":"in","Rept_Date":"2021-01-27 14"},"coordinates":[822,6043]},{"type":"Point","properties":{"Station_ID":"VT-CL-14","Station_Nam":"LYNDONVILLE 1.1 W, VT","Latitude":"44.53582","Longitude":"-72.02867","Snowdepth":"13.000","Units":"in","Rept_Date":"2021-01-27 12"},"coordinates":[5917,6434]},{"type":"Point","properties":{"Station_ID":"TOGM5","Station_Nam":"CELINA 2E","Latitude":"47.86630","Longitude":"-93.02660","Snowdepth":"13.000","Units":"in","Rept_Date":"2021-01-27 15"},"coordinates":[989,8085]},{"type":"Point","properties":{"Station_ID":"SUTV1","Station_Nam":"SUTTON","Latitude":"44.61220","Longitude":"-72.04810","Snowdepth":"13.000","Units":"in","Rept_Date":"2021-01-27 13"},"coordinates":[5912,6472]},{"type":"Point","properties":{"Station_ID":"SUAW3","Station_Nam":"SUAMICO","Latitude":"44.60190","Longitude":"-88.09780","Snowdepth":"13.000","Units":"in","Rept_Date":"2021-01-27 12"},"coordinates":[2145,6467]},{"type":"Point","properties":{"Station_ID":"SSMM4","Station_Nam":"SAULT STE MARIE","Latitude":"46.48660","Longitude":"-84.40250","Snowdepth":"13.000","Units":"in","Rept_Date":"2021-01-27 13"},"coordinates":[3013,7401]},{"type":"Point","properties":{"Station_ID":"SDHI4","Station_Nam":"SHENANDOAH,IA","Latitude":"40.78330","Longitude":"-95.35000","Snowdepth":"13.000","Units":"in","Rept_Date":"2021-01-27 14"},"coordinates":[443,4574]},{"type":"Point","properties":{"Station_ID":"ROKI4","Station_Nam":"RED OAK,IA","Latitude":"41.00000","Longitude":"-95.23330","Snowdepth":"13.000","Units":"in","Rept_Date":"2021-01-27 13"},"coordinates":[471,4681]},{"type":"Point","properties":{"Station_ID":"RCHW3","Station_Nam":"RICHRIELD,WI","Latitude":"43.21080","Longitude":"-88.20940","Snowdepth":"13.000","Units":"in","Rept_Date":"2021-01-27 12"},"coordinates":[2119,5777]},{"type":"Point","properties":{"Station_ID":"PRDM4","Station_Nam":"PARADISE","Latitude":"46.60380","Longitude":"-85.03960","Snowdepth":"13.000","Units":"in","Rept_Date":"2021-01-27 11"},"coordinates":[2863,7459]},{"type":"Point","properties":{"Station_ID":"NY-OG-12","Station_Nam":"CLAY 4.6 NW, NY","Latitude":"43.20000","Longitude":"-76.26000","Snowdepth":"13.000","Units":"in","Rept_Date":"2021-01-27 13"},"coordinates":[4924,5772]},{"type":"Point","properties":{"Station_ID":"NY-ER-63","Station_Nam":"GLENWOOD 1.5 SE, NY","Latitude":"42.60195","Longitude":"-78.63910","Snowdepth":"13.000","Units":"in","Rept_Date":"2021-01-27 13"},"coordinates":[4365,5476]},{"type":"Point","properties":{"Station_ID":"NY-ER-195","Station_Nam":"SPRINGVILLE 0.4 NE, NY","Latitude":"42.51351","Longitude":"-78.66492","Snowdepth":"13.000","Units":"in","Rept_Date":"2021-01-28 05"},"coordinates":[4359,5432]},{"type":"Point","properties":{"Station_ID":"NOHM5","Station_Nam":"NORTHOME","Latitude":"47.83590","Longitude":"-94.25550","Snowdepth":"13.000","Units":"in","Rept_Date":"2021-01-27 13"},"coordinates":[700,8070]},{"type":"Point","properties":{"Station_ID":"NH-MR-41","Station_Nam":"NEWBURY 1.6 NW, NH","Latitude":"43.33667","Longitude":"-72.06060","Snowdepth":"13.000","Units":"in","Rept_Date":"2021-01-27 12"},"coordinates":[5909,5840]},{"type":"Point","properties":{"Station_ID":"NE-LA-64","Station_Nam":"DAVEY 3.7 S, NE","Latitude":"40.92966","Longitude":"-96.65748","Snowdepth":"13.000","Units":"in","Rept_Date":"2021-01-27 13"},"coordinates":[136,4647]},{"type":"Point","properties":{"Station_ID":"NE-LA-24","Station_Nam":"HALLAM 0.2 NW, NE","Latitude":"40.53930","Longitude":"-96.78847","Snowdepth":"13.000","Units":"in","Rept_Date":"2021-01-27 13"},"coordinates":[106,4453]},{"type":"Point","properties":{"Station_ID":"NE-LA-19","Station_Nam":"LINCOLN 6.8 SE, NE","Latitude":"40.74944","Longitude":"-96.59280","Snowdepth":"13.000","Units":"in","Rept_Date":"2021-01-27 13"},"coordinates":[152,4557]},{"type":"Point","properties":{"Station_ID":"NCYN1","Station_Nam":"NEBRASKA CITY 2NW","Latitude":"40.69860","Longitude":"-95.88660","Snowdepth":"13.000","Units":"in","Rept_Date":"2021-01-27 13"},"coordinates":[317,4532]},{"type":"Point","properties":{"Station_ID":"MN-IS-18","Station_Nam":"BRAHAM 0.7 SW, MN","Latitude":"45.71379","Longitude":"-93.18095","Snowdepth":"13.000","Units":"in","Rept_Date":"2021-01-27 14"},"coordinates":[952,7018]},{"type":"Point","properties":{"Station_ID":"ME-OX-34","Station_Nam":"ANDOVER 3.8 W, ME","Latitude":"44.64156","Longitude":"-70.82782","Snowdepth":"13.000","Units":"in","Rept_Date":"2021-01-27 12"},"coordinates":[6198,6487]},{"type":"Point","properties":{"Station_ID":"LNOW3","Station_Nam":"LAND O LAKES","Latitude":"46.19000","Longitude":"-89.45700","Snowdepth":"13.000","Units":"in","Rept_Date":"2021-01-27 13"},"coordinates":[1826,7254]},{"type":"Point","properties":{"Station_ID":"FLDM5","Station_Nam":"FLOODWOOD,MN","Latitude":"47.00000","Longitude":"-92.91670","Snowdepth":"13.000","Units":"in","Rept_Date":"2021-01-27 14"},"coordinates":[1014,7656]},{"type":"Point","properties":{"Station_ID":"CMKW3","Station_Nam":"CLAM LAKE 4W","Latitude":"46.16940","Longitude":"-90.98080","Snowdepth":"13.000","Units":"in","Rept_Date":"2021-01-27 12"},"coordinates":[1469,7244]},{"type":"Point","properties":{"Station_ID":"CAN-QC-57","Station_Nam":"ACTON VALE 1.3 N, CAN","Latitude":"45.65868","Longitude":"-72.56645","Snowdepth":"13.000","Units":"in","Rept_Date":"2021-01-27 13"},"coordinates":[5790,6991]},{"type":"Point","properties":{"Station_ID":"BNDM5","Station_Nam":"ELY 25E","Latitude":"47.97190","Longitude":"-91.44860","Snowdepth":"13.000","Units":"in","Rept_Date":"2021-01-27 13"},"coordinates":[1359,8138]},{"type":"Point","properties":{"Station_ID":"BLTW3","Station_Nam":"BELOIT,WI","Latitude":"42.50000","Longitude":"-89.03330","Snowdepth":"13.000","Units":"in","Rept_Date":"2021-01-27 12"},"coordinates":[1926,5425]},{"type":"Point","properties":{"Station_ID":"ANJM4","Station_Nam":"SNOW PAID OBSERVER FOR KANJ","Latitude":"46.48670","Longitude":"-84.40260","Snowdepth":"13.000","Units":"in","Rept_Date":"2021-01-28 06"},"coordinates":[3013,7401]},{"type":"Point","properties":{"Station_ID":"ANJ","Station_Nam":"SAULT STE MARIE","Latitude":"46.46670","Longitude":"-84.36670","Snowdepth":"13.000","Units":"in","Rept_Date":"2021-01-28 00"},"coordinates":[3021,7391]},{"type":"Point","properties":{"Station_ID":"WI-WK-74","Station_Nam":"BROOKFIELD 2.8 SSW, WI","Latitude":"43.02390","Longitude":"-88.13760","Snowdepth":"12.500","Units":"in","Rept_Date":"2021-01-27 13"},"coordinates":[2136,5685]},{"type":"Point","properties":{"Station_ID":"WI-BY-2","Station_Nam":"MELLEN 18.6 SW, WI","Latitude":"46.16937","Longitude":"-90.98090","Snowdepth":"12.500","Units":"in","Rept_Date":"2021-01-27 13"},"coordinates":[1469,7244]},{"type":"Point","properties":{"Station_ID":"VT-WS-15","Station_Nam":"EAST CALAIS 1.5 SW, VT","Latitude":"44.35523","Longitude":"-72.45540","Snowdepth":"12.500","Units":"in","Rept_Date":"2021-01-27 12"},"coordinates":[5816,6345]},{"type":"Point","properties":{"Station_ID":"VT-OL-9","Station_Nam":"GREENSBORO 2.1 NNW, VT","Latitude":"44.60528","Longitude":"-72.30940","Snowdepth":"12.500","Units":"in","Rept_Date":"2021-01-27 12"},"coordinates":[5851,6469]},{"type":"Point","properties":{"Station_ID":"VT-CL-27","Station_Nam":"DANVILLE 0.4 N, VT","Latitude":"44.41769","Longitude":"-72.13936","Snowdepth":"12.500","Units":"in","Rept_Date":"2021-01-27 12"},"coordinates":[5891,6376]},{"type":"Point","properties":{"Station_ID":"MI-HG-1","Station_Nam":"HOUGHTON 1.6 ESE, MI","Latitude":"47.10774","Longitude":"-88.52940","Snowdepth":"12.500","Units":"in","Rept_Date":"2021-01-27 13"},"coordinates":[2044,7709]},{"type":"Point","properties":{"Station_ID":"MA-HS-14","Station_Nam":"PLAINFIELD 2.4 ESE, MA","Latitude":"42.49792","Longitude":"-72.87769","Snowdepth":"12.500","Units":"in","Rept_Date":"2021-01-27 12"},"coordinates":[5717,5424]},{"type":"Point","properties":{"Station_ID":"QCX","Station_Nam":"QCX","Latitude":"51.32830","Longitude":"-70.08060","Snowdepth":"12.441","Units":"in","Rept_Date":"2021-01-27 12"},"coordinates":[6374,9801]},{"type":"Point","properties":{"Station_ID":"CAN-ON-452","Station_Nam":"CHATSWORTH 1.8 ENE - GSCA, CAN","Latitude":"44.46118","Longitude":"-80.87506","Snowdepth":"12.400","Units":"in","Rept_Date":"2021-01-27 12"},"coordinates":[3840,6397]},{"type":"Point","properties":{"Station_ID":"CAN-ON-801","Station_Nam":"KANATA 9.4 NNW - RVCA, CAN","Latitude":"45.38428","Longitude":"-75.96845","Snowdepth":"12.200","Units":"in","Rept_Date":"2021-01-27 12"},"coordinates":[4992,6855]},{"type":"Point","properties":{"Station_ID":"CAN-ON-208","Station_Nam":"PAKENHAM 7.8 NNW, CAN","Latitude":"45.39166","Longitude":"-76.34111","Snowdepth":"12.200","Units":"in","Rept_Date":"2021-01-27 12"},"coordinates":[4904,6859]},{"type":"Point","properties":{"Station_ID":"QLI","Station_Nam":"QLI","Latitude":"50.27080","Longitude":"-73.92280","Snowdepth":"12.165","Units":"in","Rept_Date":"2021-01-27 12"},"coordinates":[5472,9277]},{"type":"Point","properties":{"Station_ID":"WTNM4","Station_Nam":"WATTON 2WSW","Latitude":"46.52660","Longitude":"-88.64240","Snowdepth":"12.000","Units":"in","Rept_Date":"2021-01-27 13"},"coordinates":[2017,7421]},{"type":"Point","properties":{"Station_ID":"WTBW3","Station_Nam":"WEST BEND PUBLIC WORKS","Latitude":"43.41110","Longitude":"-88.19380","Snowdepth":"12.000","Units":"in","Rept_Date":"2021-01-27 13"},"coordinates":[2123,5877]},{"type":"Point","properties":{"Station_ID":"WSWN6","Station_Nam":"WARSAW","Latitude":"42.74220","Longitude":"-78.20850","Snowdepth":"12.000","Units":"in","Rept_Date":"2021-01-27 12"},"coordinates":[4466,5545]},{"type":"Point","properties":{"Station_ID":"WRSM5","Station_Nam":"WRENSHALL","Latitude":"46.61550","Longitude":"-92.38380","Snowdepth":"12.000","Units":"in","Rept_Date":"2021-01-27 14"},"coordinates":[1139,7465]},{"type":"Point","properties":{"Station_ID":"WNBM5","Station_Nam":"DAM","Latitude":"47.43060","Longitude":"-94.05000","Snowdepth":"12.000","Units":"in","Rept_Date":"2021-01-27 14"},"coordinates":[748,7869]},{"type":"Point","properties":{"Station_ID":"WLBI4","Station_Nam":"WILLIAMSBURG 3 SE","Latitude":"41.64020","Longitude":"-91.97840","Snowdepth":"12.000","Units":"in","Rept_Date":"2021-01-27 13"},"coordinates":[1235,4999]},{"type":"Point","properties":{"Station_ID":"WI-WK-61","Station_Nam":"HARTLAND 5.0 NNE, WI","Latitude":"43.16351","Longitude":"-88.30400","Snowdepth":"12.000","Units":"in","Rept_Date":"2021-01-27 13"},"coordinates":[2097,5754]},{"type":"Point","properties":{"Station_ID":"WI-WK-29","Station_Nam":"OCONOMOWOC 4.6 NE, WI","Latitude":"43.14621","Longitude":"-88.42860","Snowdepth":"12.000","Units":"in","Rept_Date":"2021-01-27 15"},"coordinates":[2068,5745]},{"type":"Point","properties":{"Station_ID":"WI-RK-12","Station_Nam":"JANESVILLE 3.1 W, WI","Latitude":"42.67576","Longitude":"-89.07614","Snowdepth":"12.000","Units":"in","Rept_Date":"2021-01-27 13"},"coordinates":[1916,5512]},{"type":"Point","properties":{"Station_ID":"WI-JF-17","Station_Nam":"JOHNSON CREEK 2.7 SSW, WI","Latitude":"43.04559","Longitude":"-88.79925","Snowdepth":"12.000","Units":"in","Rept_Date":"2021-01-27 12"},"coordinates":[1981,5696]},{"type":"Point","properties":{"Station_ID":"WI-DD-5","Station_Nam":"THERESA 3.1 SE, WI","Latitude":"43.49201","Longitude":"-88.40165","Snowdepth":"12.000","Units":"in","Rept_Date":"2021-01-27 14"},"coordinates":[2074,5917]},{"type":"Point","properties":{"Station_ID":"WI-DA-31","Station_Nam":"DEERFIELD 0.6 N, WI","Latitude":"43.05958","Longitude":"-89.07340","Snowdepth":"12.000","Units":"in","Rept_Date":"2021-01-27 13"},"coordinates":[1916,5702]},{"type":"Point","properties":{"Station_ID":"WI-DA-13","Station_Nam":"MADISON 3.7 WSW, WI","Latitude":"43.06230","Longitude":"-89.45650","Snowdepth":"12.000","Units":"in","Rept_Date":"2021-01-27 13"},"coordinates":[1826,5704]},{"type":"Point","properties":{"Station_ID":"VT-WR-22","Station_Nam":"ROCHESTER 0.3 NE, VT","Latitude":"43.87816","Longitude":"-72.80459","Snowdepth":"12.000","Units":"in","Rept_Date":"2021-01-27 12"},"coordinates":[5734,6108]},{"type":"Point","properties":{"Station_ID":"VT-OL-25","Station_Nam":"NEWPORT 1.5 WSW, VT","Latitude":"44.93059","Longitude":"-72.23731","Snowdepth":"12.000","Units":"in","Rept_Date":"2021-01-27 12"},"coordinates":[5868,6630]},{"type":"Point","properties":{"Station_ID":"VT-CL-18","Station_Nam":"WHEELOCK 1.6 S, VT","Latitude":"44.56491","Longitude":"-72.08830","Snowdepth":"12.000","Units":"in","Rept_Date":"2021-01-27 13"},"coordinates":[5903,6449]},{"type":"Point","properties":{"Station_ID":"VT-CH-4","Station_Nam":"UNDERHILL 4.4 NNE, VT","Latitude":"44.58774","Longitude":"-72.92250","Snowdepth":"12.000","Units":"in","Rept_Date":"2021-01-27 12"},"coordinates":[5707,6460]},{"type":"Point","properties":{"Station_ID":"UGRW3","Station_Nam":"UNION GROVE,WI","Latitude":"42.70000","Longitude":"-88.03220","Snowdepth":"12.000","Units":"in","Rept_Date":"2021-01-27 13"},"coordinates":[2161,5524]},{"type":"Point","properties":{"Station_ID":"STOI2","Station_Nam":"STOCKTON 3 NNE","Latitude":"42.40050","Longitude":"-89.99580","Snowdepth":"12.000","Units":"in","Rept_Date":"2021-01-28 03"},"coordinates":[1700,5376]},{"type":"Point","properties":{"Station_ID":"SLNV1","Station_Nam":"SOUTH LINCOLN","Latitude":"44.07460","Longitude":"-72.97180","Snowdepth":"12.000","Units":"in","Rept_Date":"2021-01-27 12"},"coordinates":[5695,6206]},{"type":"Point","properties":{"Station_ID":"RANI4","Station_Nam":"RANDOLPH,IA","Latitude":"40.86670","Longitude":"-95.56670","Snowdepth":"12.000","Units":"in","Rept_Date":"2021-01-27 14"},"coordinates":[392,4615]},{"type":"Point","properties":{"Station_ID":"PWKW3","Station_Nam":"PEWAUKEE WWTP","Latitude":"43.06170","Longitude":"-88.29500","Snowdepth":"12.000","Units":"in","Rept_Date":"2021-01-27 13"},"coordinates":[2099,5704]},{"type":"Point","properties":{"Station_ID":"PKGM5","Station_Nam":"POKEGANA LK DAM","Latitude":"47.25080","Longitude":"-93.58610","Snowdepth":"12.000","Units":"in","Rept_Date":"2021-01-27 14"},"coordinates":[857,7780]},{"type":"Point","properties":{"Station_ID":"NY-OS-20","Station_Nam":"FULTON 0.2 W, NY","Latitude":"43.31650","Longitude":"-76.41850","Snowdepth":"12.000","Units":"in","Rept_Date":"2021-01-27 13"},"coordinates":[4886,5830]},{"type":"Point","properties":{"Station_ID":"NY-GR-14","Station_Nam":"LEXINGTON 1.5 N, NY","Latitude":"42.26024","Longitude":"-74.35875","Snowdepth":"12.000","Units":"in","Rept_Date":"2021-01-27 12"},"coordinates":[5370,5306]},{"type":"Point","properties":{"Station_ID":"NVLN6","Station_Nam":"NORTHVILLE","Latitude":"43.23330","Longitude":"-74.16670","Snowdepth":"12.000","Units":"in","Rept_Date":"2021-01-27 13"},"coordinates":[5415,5789]},{"type":"Point","properties":{"Station_ID":"NUNV1","Station_Nam":"NORTH UNDERHILL","Latitude":"44.58760","Longitude":"-72.92150","Snowdepth":"12.000","Units":"in","Rept_Date":"2021-01-27 12"},"coordinates":[5707,6460]},{"type":"Point","properties":{"Station_ID":"NUMN3","Station_Nam":"NORTHUMBERLAND","Latitude":"44.52830","Longitude":"-71.50440","Snowdepth":"12.000","Units":"in","Rept_Date":"2021-01-27 12"},"coordinates":[6040,6431]},{"type":"Point","properties":{"Station_ID":"NPTV1","Station_Nam":"NEWPORT","Latitude":"44.94900","Longitude":"-72.19120","Snowdepth":"12.000","Units":"in","Rept_Date":"2021-01-27 12"},"coordinates":[5878,6639]},{"type":"Point","properties":{"Station_ID":"NEMA002","Station_Nam":"BROWNVILLE 0.2 SW, NE","Latitude":"40.39560","Longitude":"-95.66010","Snowdepth":"12.000","Units":"in","Rept_Date":"2021-01-27 13"},"coordinates":[370,4382]},{"type":"Point","properties":{"Station_ID":"NE-SY-25","Station_Nam":"GRETNA 2.9 NNE, NE","Latitude":"41.17831","Longitude":"-96.21984","Snowdepth":"12.000","Units":"in","Rept_Date":"2021-01-27 14"},"coordinates":[239,4770]},{"type":"Point","properties":{"Station_ID":"NE-JF-4","Station_Nam":"FAIRBURY 0.6 N, NE","Latitude":"40.14954","Longitude":"-97.17528","Snowdepth":"12.000","Units":"in","Rept_Date":"2021-01-27 13"},"coordinates":[15,4260]},{"type":"Point","properties":{"Station_ID":"NCKN6","Station_Nam":"NORTH CREEK 5 SE","Latitude":"43.66110","Longitude":"-73.89690","Snowdepth":"12.000","Units":"in","Rept_Date":"2021-01-27 12"},"coordinates":[5478,6001]},{"type":"Point","properties":{"Station_ID":"MTCI2","Station_Nam":"MOUNT CARROLL","Latitude":"42.09800","Longitude":"-89.98410","Snowdepth":"12.000","Units":"in","Rept_Date":"2021-01-27 13"},"coordinates":[1703,5226]},{"type":"Point","properties":{"Station_ID":"MRBW3","Station_Nam":"MT HOREB","Latitude":"42.98030","Longitude":"-89.73940","Snowdepth":"12.000","Units":"in","Rept_Date":"2021-01-27 13"},"coordinates":[1760,5663]},{"type":"Point","properties":{"Station_ID":"MRAM5","Station_Nam":"MORA","Latitude":"45.87760","Longitude":"-93.31470","Snowdepth":"12.000","Units":"in","Rept_Date":"2021-01-27 13"},"coordinates":[921,7099]},{"type":"Point","properties":{"Station_ID":"MN-GH-28","Station_Nam":"CANNON FALLS 0.5 SE, MN","Latitude":"44.50866","Longitude":"-92.89526","Snowdepth":"12.000","Units":"in","Rept_Date":"2021-01-27 14"},"coordinates":[1019,6421]},{"type":"Point","properties":{"Station_ID":"MIEM4","Station_Nam":"MICHIGAMME 3WNW","Latitude":"46.54530","Longitude":"-88.18000","Snowdepth":"12.000","Units":"in","Rept_Date":"2021-01-27 13"},"coordinates":[2126,7430]},{"type":"Point","properties":{"Station_ID":"MI-MQ-19","Station_Nam":"ISHPEMING 7.2 SW, MI","Latitude":"46.40550","Longitude":"-87.75670","Snowdepth":"12.000","Units":"in","Rept_Date":"2021-01-27 11"},"coordinates":[2225,7361]},{"type":"Point","properties":{"Station_ID":"ME-AR-18","Station_Nam":"NEW SWEDEN 4.9 NNW, ME","Latitude":"47.01080","Longitude":"-68.14390","Snowdepth":"12.000","Units":"in","Rept_Date":"2021-01-27 12"},"coordinates":[6828,7661]},{"type":"Point","properties":{"Station_ID":"MDDW3","Station_Nam":"MIDDLETON,WI","Latitude":"43.09060","Longitude":"-89.51470","Snowdepth":"12.000","Units":"in","Rept_Date":"2021-01-27 13"},"coordinates":[1813,5718]},{"type":"Point","properties":{"Station_ID":"MA-BE-24","Station_Nam":"HANCOCK 3.6 NNE, MA","Latitude":"42.59130","Longitude":"-73.29530","Snowdepth":"12.000","Units":"in","Rept_Date":"2021-01-27 17"},"coordinates":[5619,5470]},{"type":"Point","properties":{"Station_ID":"LEIM5","Station_Nam":"ORR 3E","Latitude":"48.05810","Longitude":"-92.75220","Snowdepth":"12.000","Units":"in","Rept_Date":"2021-01-27 12"},"coordinates":[1053,8180]},{"type":"Point","properties":{"Station_ID":"JEFF020","Station_Nam":"FAIRBURY 1.6 ENE, NE","Latitude":"40.14680","Longitude":"-97.15240","Snowdepth":"12.000","Units":"in","Rept_Date":"2021-01-27 13"},"coordinates":[20,4259]},{"type":"Point","properties":{"Station_ID":"INL","Station_Nam":"FALLS INTERNATIONAL ARPT","Latitude":"48.56640","Longitude":"-93.40310","Snowdepth":"12.000","Units":"in","Rept_Date":"2021-01-28 00"},"coordinates":[900,8432]},{"type":"Point","properties":{"Station_ID":"IL-MCH-13","Station_Nam":"BULL VALLEY 2.5 WNW, IL","Latitude":"42.32455","Longitude":"-88.39460","Snowdepth":"12.000","Units":"in","Rept_Date":"2021-01-27 14"},"coordinates":[2076,5338]},{"type":"Point","properties":{"Station_ID":"IL-JD-8","Station_Nam":"STOCKTON 3.4 NNE, IL","Latitude":"42.39960","Longitude":"-89.99020","Snowdepth":"12.000","Units":"in","Rept_Date":"2021-01-27 13"},"coordinates":[1701,5375]},{"type":"Point","properties":{"Station_ID":"IFSM5","Station_Nam":"INTERNATIONAL FALLS SNOW","Latitude":"48.57780","Longitude":"-93.39640","Snowdepth":"12.000","Units":"in","Rept_Date":"2021-01-27 12"},"coordinates":[902,8438]},{"type":"Point","properties":{"Station_ID":"IA-PK-89","Station_Nam":"ANKENY 3.7 NNE, IA","Latitude":"41.77305","Longitude":"-93.57635","Snowdepth":"12.000","Units":"in","Rept_Date":"2021-01-27 13"},"coordinates":[860,5065]},{"type":"Point","properties":{"Station_ID":"IA-FM-1","Station_Nam":"SIDNEY 5.1 NNE, IA","Latitude":"40.81361","Longitude":"-95.60700","Snowdepth":"12.000","Units":"in","Rept_Date":"2021-01-27 14"},"coordinates":[383,4589]},{"type":"Point","properties":{"Station_ID":"IA-BT-12","Station_Nam":"FAIRFAX 4.0 NW, IA","Latitude":"41.96223","Longitude":"-91.83675","Snowdepth":"12.000","Units":"in","Rept_Date":"2021-01-27 13"},"coordinates":[1268,5158]},{"type":"Point","properties":{"Station_ID":"HUBN3","Station_Nam":"HUBBARD BROOK","Latitude":"43.93330","Longitude":"-71.71670","Snowdepth":"12.000","Units":"in","Rept_Date":"2021-01-28 05"},"coordinates":[5990,6136]},{"type":"Point","properties":{"Station_ID":"HORW3","Station_Nam":"HORICON WWTP","Latitude":"43.45000","Longitude":"-88.63330","Snowdepth":"12.000","Units":"in","Rept_Date":"2021-01-27 13"},"coordinates":[2020,5896]},{"type":"Point","properties":{"Station_ID":"GHMN3","Station_Nam":"PINKHAM NOTCH","Latitude":"44.25800","Longitude":"-71.25250","Snowdepth":"12.000","Units":"in","Rept_Date":"2021-01-27 10"},"coordinates":[6099,6297]},{"type":"Point","properties":{"Station_ID":"EAHV1","Station_Nam":"EAST HAVEN","Latitude":"44.64250","Longitude":"-71.89120","Snowdepth":"12.000","Units":"in","Rept_Date":"2021-01-27 12"},"coordinates":[5949,6487]},{"type":"Point","properties":{"Station_ID":"DARW3","Station_Nam":"DARLINGTON","Latitude":"42.67780","Longitude":"-90.11860","Snowdepth":"12.000","Units":"in","Rept_Date":"2021-01-27 13"},"coordinates":[1671,5513]},{"type":"Point","properties":{"Station_ID":"CUSW3","Station_Nam":"COLUMBUS","Latitude":"43.32610","Longitude":"-89.00810","Snowdepth":"12.000","Units":"in","Rept_Date":"2021-01-27 13"},"coordinates":[1932,5835]},{"type":"Point","properties":{"Station_ID":"CRNI4","Station_Nam":"CORNING","Latitude":"40.98860","Longitude":"-94.74910","Snowdepth":"12.000","Units":"in","Rept_Date":"2021-01-27 13"},"coordinates":[584,4676]},{"type":"Point","properties":{"Station_ID":"COTM5","Station_Nam":"COTTON","Latitude":"47.16870","Longitude":"-92.46290","Snowdepth":"12.000","Units":"in","Rept_Date":"2021-01-27 12"},"coordinates":[1121,7739]},{"type":"Point","properties":{"Station_ID":"CASS001","Station_Nam":"PLATTSMOUTH 1.4 SW, NE","Latitude":"40.99460","Longitude":"-95.89760","Snowdepth":"12.000","Units":"in","Rept_Date":"2021-01-27 13"},"coordinates":[315,4679]},{"type":"Point","properties":{"Station_ID":"CAN-ON-118","Station_Nam":"DURHAM 1.4 S, CAN","Latitude":"44.16525","Longitude":"-80.82064","Snowdepth":"12.000","Units":"in","Rept_Date":"2021-01-27 12"},"coordinates":[3853,6251]},{"type":"Point","properties":{"Station_ID":"BRAM1","Station_Nam":"BRASSUA DAM","Latitude":"45.66020","Longitude":"-69.81190","Snowdepth":"12.000","Units":"in","Rept_Date":"2021-01-27 12"},"coordinates":[6437,6992]},{"type":"Point","properties":{"Station_ID":"BNWI4","Station_Nam":"BOONE,IA","Latitude":"42.05000","Longitude":"-93.93330","Snowdepth":"12.000","Units":"in","Rept_Date":"2021-01-27 14"},"coordinates":[776,5202]},{"type":"Point","properties":{"Station_ID":"BLGW3","Station_Nam":"BELGIUM WWTP","Latitude":"43.51310","Longitude":"-87.85440","Snowdepth":"12.000","Units":"in","Rept_Date":"2021-01-27 13"},"coordinates":[2202,5927]},{"type":"Point","properties":{"Station_ID":"BEAW3","Station_Nam":"BEAVER DAM,WI","Latitude":"43.45000","Longitude":"-88.85000","Snowdepth":"12.000","Units":"in","Rept_Date":"2021-01-27 13"},"coordinates":[1969,5896]},{"type":"Point","properties":{"Station_ID":"BABM5","Station_Nam":"BABBITT","Latitude":"47.71210","Longitude":"-91.95330","Snowdepth":"12.000","Units":"in","Rept_Date":"2021-01-27 13"},"coordinates":[1240,8009]},{"type":"Point","properties":{"Station_ID":"AUBN1","Station_Nam":"AUBURN,NE","Latitude":"40.38330","Longitude":"-95.75000","Snowdepth":"12.000","Units":"in","Rept_Date":"2021-01-28 02"},"coordinates":[349,4376]},{"type":"Point","properties":{"Station_ID":"ARLW3","Station_Nam":"UNIV FARM","Latitude":"43.30000","Longitude":"-89.35000","Snowdepth":"12.000","Units":"in","Rept_Date":"2021-01-27 14"},"coordinates":[1851,5822]},{"type":"Point","properties":{"Station_ID":"CAN-ON-491","Station_Nam":"MILVERTON 1.1 ESE- CANWARN, CAN","Latitude":"43.56074","Longitude":"-80.90887","Snowdepth":"11.800","Units":"in","Rept_Date":"2021-01-27 11"},"coordinates":[3832,5951]},{"type":"Point","properties":{"Station_ID":"QLP","Station_Nam":"QLP","Latitude":"48.13920","Longitude":"-72.63830","Snowdepth":"11.653","Units":"in","Rept_Date":"2021-01-27 12"},"coordinates":[5774,8221]},{"type":"Point","properties":{"Station_ID":"CATQ6","Station_Nam":"CAT LAKE","Latitude":"51.72690","Longitude":"-91.82210","Snowdepth":"11.610","Units":"in","Rept_Date":"2021-01-28 06"},"coordinates":[1271,9999]},{"type":"Point","properties":{"Station_ID":"CAN-QC-47","Station_Nam":"SAINTE-FOY 1.8 ENE, CAN","Latitude":"46.76934","Longitude":"-71.27124","Snowdepth":"11.600","Units":"in","Rept_Date":"2021-01-27 12"},"coordinates":[6094,7541]},{"type":"Point","properties":{"Station_ID":"QGA","Station_Nam":"QGA","Latitude":"47.25640","Longitude":"-73.73810","Snowdepth":"11.535","Units":"in","Rept_Date":"2021-01-27 12"},"coordinates":[5515,7783]},{"type":"Point","properties":{"Station_ID":"WI-WB-2","Station_Nam":"STONE LAKE 2.0 NW, WI","Latitude":"45.85960","Longitude":"-91.57710","Snowdepth":"11.500","Units":"in","Rept_Date":"2021-01-27 13"},"coordinates":[1329,7090]},{"type":"Point","properties":{"Station_ID":"WI-BY-29","Station_Nam":"BAYFIELD 5.1 NNW, WI","Latitude":"46.88063","Longitude":"-90.85854","Snowdepth":"11.500","Units":"in","Rept_Date":"2021-01-27 14"},"coordinates":[1497,7597]},{"type":"Point","properties":{"Station_ID":"NY-OT-31","Station_Nam":"MARYLAND 1.8 W, NY","Latitude":"42.53310","Longitude":"-74.92090","Snowdepth":"11.500","Units":"in","Rept_Date":"2021-01-27 13"},"coordinates":[5238,5441]},{"type":"Point","properties":{"Station_ID":"NY-BM-21","Station_Nam":"WINDSOR 8.0 SE, NY","Latitude":"42.00992","Longitude":"-75.51420","Snowdepth":"11.500","Units":"in","Rept_Date":"2021-01-27 12"},"coordinates":[5099,5182]},{"type":"Point","properties":{"Station_ID":"NH-CS-19","Station_Nam":"CARROLL 4.6 NE, NH","Latitude":"44.33765","Longitude":"-71.46461","Snowdepth":"11.500","Units":"in","Rept_Date":"2021-01-27 12"},"coordinates":[6049,6336]},{"type":"Point","properties":{"Station_ID":"NE-LA-1","Station_Nam":"LINCOLN 4.5 SE, NE","Latitude":"40.77076","Longitude":"-96.62792","Snowdepth":"11.500","Units":"in","Rept_Date":"2021-01-27 13"},"coordinates":[143,4568]},{"type":"Point","properties":{"Station_ID":"ME-FR-22","Station_Nam":"FARMINGTON 4.8 NNW, ME","Latitude":"44.73396","Longitude":"-70.18007","Snowdepth":"11.500","Units":"in","Rept_Date":"2021-01-27 14"},"coordinates":[6350,6532]},{"type":"Point","properties":{"Station_ID":"IA-ST-1","Station_Nam":"LE CLAIRE 1.8 NNE, IA","Latitude":"41.62355","Longitude":"-90.35140","Snowdepth":"11.500","Units":"in","Rept_Date":"2021-01-27 14"},"coordinates":[1616,4991]},{"type":"Point","properties":{"Station_ID":"DOUG006","Station_Nam":"OMAHA 2.9 W, NE","Latitude":"41.26580","Longitude":"-95.99270","Snowdepth":"11.500","Units":"in","Rept_Date":"2021-01-27 13"},"coordinates":[292,4813]},{"type":"Point","properties":{"Station_ID":"CAN-ON-5","Station_Nam":"OWEN SOUND 1.5 NW - GSCA, CAN","Latitude":"44.57837","Longitude":"-80.95461","Snowdepth":"11.500","Units":"in","Rept_Date":"2021-01-27 13"},"coordinates":[3822,6455]},{"type":"Point","properties":{"Station_ID":"CAN-NB-13","Station_Nam":"BATHURST 3.8 NW, CAN","Latitude":"47.64212","Longitude":"-65.68756","Snowdepth":"11.500","Units":"in","Rept_Date":"2021-01-27 11"},"coordinates":[7405,7974]},{"type":"Point","properties":{"Station_ID":"CAN-ON-92","Station_Nam":"DUNROBIN 1.9 W - MVCA, CAN","Latitude":"45.42318","Longitude":"-76.04525","Snowdepth":"11.300","Units":"in","Rept_Date":"2021-01-27 12"},"coordinates":[4974,6874]},{"type":"Point","properties":{"Station_ID":"MI-OG-6","Station_Nam":"WEST BRANCH 2.1 SSW, MI","Latitude":"44.24814","Longitude":"-84.25089","Snowdepth":"11.200","Units":"in","Rept_Date":"2021-01-27 12"},"coordinates":[3048,6292]},{"type":"Point","properties":{"Station_ID":"QTV","Station_Nam":"QTV","Latitude":"49.66000","Longitude":"-69.35690","Snowdepth":"11.181","Units":"in","Rept_Date":"2021-01-27 12"},"coordinates":[6544,8974]},{"type":"Point","properties":{"Station_ID":"WI-WS-15","Station_Nam":"WEST BEND 5.4 SE, WI","Latitude":"43.37259","Longitude":"-88.10086","Snowdepth":"11.000","Units":"in","Rept_Date":"2021-01-27 14"},"coordinates":[2145,5858]},{"type":"Point","properties":{"Station_ID":"WI-WK-73","Station_Nam":"MENOMONEE FALLS 3.2 NNW, WI","Latitude":"43.18817","Longitude":"-88.15555","Snowdepth":"11.000","Units":"in","Rept_Date":"2021-01-27 13"},"coordinates":[2132,5766]},{"type":"Point","properties":{"Station_ID":"WI-WK-68","Station_Nam":"OCONOMOWOC 1.0 S, WI","Latitude":"43.09530","Longitude":"-88.48590","Snowdepth":"11.000","Units":"in","Rept_Date":"2021-01-27 13"},"coordinates":[2054,5720]},{"type":"Point","properties":{"Station_ID":"WI-PK-33","Station_Nam":"FREDERIC 4.8 NE, WI","Latitude":"45.70970","Longitude":"-92.39950","Snowdepth":"11.000","Units":"in","Rept_Date":"2021-01-27 13"},"coordinates":[1136,7016]},{"type":"Point","properties":{"Station_ID":"WI-OZ-22","Station_Nam":"SAUKVILLE 0.9 SSW, WI","Latitude":"43.37254","Longitude":"-87.95009","Snowdepth":"11.000","Units":"in","Rept_Date":"2021-01-27 13"},"coordinates":[2180,5858]},{"type":"Point","properties":{"Station_ID":"WI-OZ-12","Station_Nam":"PORT WASHINGTON 0.5 S, WI","Latitude":"43.38610","Longitude":"-87.87900","Snowdepth":"11.000","Units":"in","Rept_Date":"2021-01-27 13"},"coordinates":[2197,5864]},{"type":"Point","properties":{"Station_ID":"WI-JF-2","Station_Nam":"WATERTOWN 1.6 ESE, WI","Latitude":"43.17916","Longitude":"-88.69720","Snowdepth":"11.000","Units":"in","Rept_Date":"2021-01-27 13"},"coordinates":[2005,5762]},{"type":"Point","properties":{"Station_ID":"WI-DG-20","Station_Nam":"SOLON SPRINGS 1.2 W, WI","Latitude":"46.35217","Longitude":"-91.84405","Snowdepth":"11.000","Units":"in","Rept_Date":"2021-01-27 13"},"coordinates":[1266,7335]},{"type":"Point","properties":{"Station_ID":"WI-DA-45","Station_Nam":"MADISON 6.1 W, WI","Latitude":"43.06948","Longitude":"-89.50788","Snowdepth":"11.000","Units":"in","Rept_Date":"2021-01-27 13"},"coordinates":[1814,5707]},{"type":"Point","properties":{"Station_ID":"WI-DA-39","Station_Nam":"MADISON 4.0 W, WI","Latitude":"43.07741","Longitude":"-89.46757","Snowdepth":"11.000","Units":"in","Rept_Date":"2021-01-27 13"},"coordinates":[1824,5711]},{"type":"Point","properties":{"Station_ID":"WI-CB-5","Station_Nam":"PORTAGE 7.2 SW, WI","Latitude":"43.47933","Longitude":"-89.57370","Snowdepth":"11.000","Units":"in","Rept_Date":"2021-01-27 13"},"coordinates":[1799,5911]},{"type":"Point","properties":{"Station_ID":"TEKN1","Station_Nam":"TEKAMAH,NE","Latitude":"41.76670","Longitude":"-96.23330","Snowdepth":"11.000","Units":"in","Rept_Date":"2021-01-27 11"},"coordinates":[236,5062]},{"type":"Point","properties":{"Station_ID":"PLEP1","Station_Nam":"PLEASANT MOUNT 1 W","Latitude":"41.73940","Longitude":"-75.44650","Snowdepth":"11.000","Units":"in","Rept_Date":"2021-01-27 16"},"coordinates":[5114,5048]},{"type":"Point","properties":{"Station_ID":"ONCW3","Station_Nam":"SOUTH","Latitude":"43.11170","Longitude":"-88.49970","Snowdepth":"11.000","Units":"in","Rept_Date":"2021-01-27 13"},"coordinates":[2051,5728]},{"type":"Point","properties":{"Station_ID":"OMA","Station_Nam":"EPPLEY AIRFIELD","Latitude":"41.30220","Longitude":"-95.89330","Snowdepth":"11.000","Units":"in","Rept_Date":"2021-01-28 00"},"coordinates":[316,4831]},{"type":"Point","properties":{"Station_ID":"OAKI4","Station_Nam":"OAKLAND,IA","Latitude":"41.31330","Longitude":"-95.39060","Snowdepth":"11.000","Units":"in","Rept_Date":"2021-01-27 13"},"coordinates":[434,4837]},{"type":"Point","properties":{"Station_ID":"NY-FL-7","Station_Nam":"BROADALBIN 4.7 ESE, NY","Latitude":"43.03940","Longitude":"-74.10845","Snowdepth":"11.000","Units":"in","Rept_Date":"2021-01-27 14"},"coordinates":[5428,5692]},{"type":"Point","properties":{"Station_ID":"NY-CR-1","Station_Nam":"FREETOWN 1.0 NE, NY","Latitude":"42.53299","Longitude":"-76.02111","Snowdepth":"11.000","Units":"in","Rept_Date":"2021-01-27 12"},"coordinates":[4980,5441]},{"type":"Point","properties":{"Station_ID":"NY-AB-1","Station_Nam":"ALTAMONT 2.7 SSW, NY","Latitude":"42.66696","Longitude":"-74.05090","Snowdepth":"11.000","Units":"in","Rept_Date":"2021-01-27 13"},"coordinates":[5442,5508]},{"type":"Point","properties":{"Station_ID":"NH-MR-60","Station_Nam":"SOUTH SUTTON 1.3 SE, NH","Latitude":"43.29531","Longitude":"-71.90238","Snowdepth":"11.000","Units":"in","Rept_Date":"2021-01-27 13"},"coordinates":[5946,5819]},{"type":"Point","properties":{"Station_ID":"NH-CS-7","Station_Nam":"LANCASTER 0.5 N, NH","Latitude":"44.49611","Longitude":"-71.57640","Snowdepth":"11.000","Units":"in","Rept_Date":"2021-01-27 11"},"coordinates":[6023,6415]},{"type":"Point","properties":{"Station_ID":"NH-CR-26","Station_Nam":"CENTER SANDWICH 4.9 E, NH","Latitude":"43.80976","Longitude":"-71.34150","Snowdepth":"11.000","Units":"in","Rept_Date":"2021-01-27 12"},"coordinates":[6078,6074]},{"type":"Point","properties":{"Station_ID":"NE-SY-31","Station_Nam":"GRETNA 3.0 NNE, NE","Latitude":"41.18158","Longitude":"-96.22400","Snowdepth":"11.000","Units":"in","Rept_Date":"2021-01-27 13"},"coordinates":[238,4772]},{"type":"Point","properties":{"Station_ID":"NE-LA-58","Station_Nam":"LINCOLN 1.4 S, NE","Latitude":"40.79682","Longitude":"-96.68468","Snowdepth":"11.000","Units":"in","Rept_Date":"2021-01-27 13"},"coordinates":[130,4581]},{"type":"Point","properties":{"Station_ID":"NE-DG-8","Station_Nam":"OMAHA 7.0 W, NE","Latitude":"41.27451","Longitude":"-96.14630","Snowdepth":"11.000","Units":"in","Rept_Date":"2021-01-27 13"},"coordinates":[256,4818]},{"type":"Point","properties":{"Station_ID":"NE-DG-16","Station_Nam":"OMAHA 5.6 NNE, NE","Latitude":"41.33743","Longitude":"-95.96441","Snowdepth":"11.000","Units":"in","Rept_Date":"2021-01-27 13"},"coordinates":[299,4849]},{"type":"Point","properties":{"Station_ID":"MPTI4","Station_Nam":"NO.2","Latitude":"42.16670","Longitude":"-95.78330","Snowdepth":"11.000","Units":"in","Rept_Date":"2021-01-27 13"},"coordinates":[342,5260]},{"type":"Point","properties":{"Station_ID":"MN-IT-23","Station_Nam":"BOVEY 13.4 N, MN","Latitude":"47.48855","Longitude":"-93.43497","Snowdepth":"11.000","Units":"in","Rept_Date":"2021-01-27 13"},"coordinates":[893,7898]},{"type":"Point","properties":{"Station_ID":"MN-IT-1","Station_Nam":"GRAND RAPIDS 2.0 E, MN","Latitude":"47.22266","Longitude":"-93.49600","Snowdepth":"11.000","Units":"in","Rept_Date":"2021-01-27 14"},"coordinates":[878,7766]},{"type":"Point","properties":{"Station_ID":"MN-HN-6","Station_Nam":"LONG LAKE 0.2 WSW, MN","Latitude":"44.98290","Longitude":"-93.57360","Snowdepth":"11.000","Units":"in","Rept_Date":"2021-01-27 13"},"coordinates":[860,6656]},{"type":"Point","properties":{"Station_ID":"MN-CN-36","Station_Nam":"CLOQUET 3.4 ENE, MN","Latitude":"46.74146","Longitude":"-92.42698","Snowdepth":"11.000","Units":"in","Rept_Date":"2021-01-27 13"},"coordinates":[1129,7528]},{"type":"Point","properties":{"Station_ID":"MI-OT-4","Station_Nam":"GAYLORD 1.7 WNW, MI","Latitude":"45.03280","Longitude":"-84.71090","Snowdepth":"11.000","Units":"in","Rept_Date":"2021-01-27 13"},"coordinates":[2940,6681]},{"type":"Point","properties":{"Station_ID":"MI-OT-17","Station_Nam":"GAYLORD 4.1 S, MI","Latitude":"44.96388","Longitude":"-84.68467","Snowdepth":"11.000","Units":"in","Rept_Date":"2021-01-27 12"},"coordinates":[2946,6646]},{"type":"Point","properties":{"Station_ID":"MI-MQ-28","Station_Nam":"CARLSHEND, MI","Latitude":"46.31638","Longitude":"-87.19944","Snowdepth":"11.000","Units":"in","Rept_Date":"2021-01-27 13"},"coordinates":[2356,7317]},{"type":"Point","properties":{"Station_ID":"MI-AT-6","Station_Nam":"MANCELONA 0.5 ESE, MI","Latitude":"44.89981","Longitude":"-85.05100","Snowdepth":"11.000","Units":"in","Rept_Date":"2021-01-27 13"},"coordinates":[2860,6615]},{"type":"Point","properties":{"Station_ID":"ME-OX-2","Station_Nam":"HARTFORD 1.4 N, ME","Latitude":"44.39318","Longitude":"-70.34760","Snowdepth":"11.000","Units":"in","Rept_Date":"2021-01-27 12"},"coordinates":[6311,6364]},{"type":"Point","properties":{"Station_ID":"ME-FR-4","Station_Nam":"NEW SHARON 2.0 NW, ME","Latitude":"44.66582","Longitude":"-70.02720","Snowdepth":"11.000","Units":"in","Rept_Date":"2021-01-27 12"},"coordinates":[6386,6499]},{"type":"Point","properties":{"Station_ID":"MA-BE-21","Station_Nam":"CHESHIRE 0.5 NNW, MA","Latitude":"42.56315","Longitude":"-73.15701","Snowdepth":"11.000","Units":"in","Rept_Date":"2021-01-27 12"},"coordinates":[5652,5456]},{"type":"Point","properties":{"Station_ID":"LVDW3","Station_Nam":"LAC VIEUX DESERT","Latitude":"46.12110","Longitude":"-89.07580","Snowdepth":"11.000","Units":"in","Rept_Date":"2021-01-27 14"},"coordinates":[1916,7220]},{"type":"Point","properties":{"Station_ID":"LSXI4","Station_Nam":"LITTLE SIOUX,IA","Latitude":"41.81670","Longitude":"-96.01670","Snowdepth":"11.000","Units":"in","Rept_Date":"2021-01-27 13"},"coordinates":[287,5086]},{"type":"Point","properties":{"Station_ID":"LOOW3","Station_Nam":"WATERLOO","Latitude":"43.18830","Longitude":"-88.98440","Snowdepth":"11.000","Units":"in","Rept_Date":"2021-01-27 14"},"coordinates":[1937,5766]},{"type":"Point","properties":{"Station_ID":"LKMW3","Station_Nam":"LAKE MILLS,WI","Latitude":"43.06670","Longitude":"-88.91220","Snowdepth":"11.000","Units":"in","Rept_Date":"2021-01-27 12"},"coordinates":[1954,5706]},{"type":"Point","properties":{"Station_ID":"LANW3","Station_Nam":"LANCASTER 4WSW","Latitude":"42.82780","Longitude":"-90.78890","Snowdepth":"11.000","Units":"in","Rept_Date":"2021-01-27 14"},"coordinates":[1514,5588]},{"type":"Point","properties":{"Station_ID":"KOMA","Station_Nam":"OMAHA EPPLEY AIRFIELD","Latitude":"41.30000","Longitude":"-95.90000","Snowdepth":"11.000","Units":"in","Rept_Date":"2021-01-28 06"},"coordinates":[314,4830]},{"type":"Point","properties":{"Station_ID":"KOFF","Station_Nam":"OMAHA / OFFUTT AIR FORCE BASE","Latitude":"41.11666","Longitude":"-95.90000","Snowdepth":"11.000","Units":"in","Rept_Date":"2021-01-27 18"},"coordinates":[314,4739]},{"type":"Point","properties":{"Station_ID":"KINM1","Station_Nam":"KINGFIELD","Latitude":"44.95950","Longitude":"-70.17530","Snowdepth":"11.000","Units":"in","Rept_Date":"2021-01-27 12"},"coordinates":[6352,6644]},{"type":"Point","properties":{"Station_ID":"INDM5","Station_Nam":"INDUS,MN","Latitude":"48.61670","Longitude":"-93.90000","Snowdepth":"11.000","Units":"in","Rept_Date":"2021-01-27 14"},"coordinates":[784,8457]},{"type":"Point","properties":{"Station_ID":"IL-SP-6","Station_Nam":"FREEPORT 2.0 NW, IL","Latitude":"42.30955","Longitude":"-89.66370","Snowdepth":"11.000","Units":"in","Rept_Date":"2021-01-27 13"},"coordinates":[1778,5331]},{"type":"Point","properties":{"Station_ID":"IL-SP-25","Station_Nam":"FREEPORT 1.7 NW, IL","Latitude":"42.30427","Longitude":"-89.66285","Snowdepth":"11.000","Units":"in","Rept_Date":"2021-01-27 13"},"coordinates":[1778,5328]},{"type":"Point","properties":{"Station_ID":"IA-PK-97","Station_Nam":"ANKENY 1.5 NNE, IA","Latitude":"41.74376","Longitude":"-93.59088","Snowdepth":"11.000","Units":"in","Rept_Date":"2021-01-27 13"},"coordinates":[856,5050]},{"type":"Point","properties":{"Station_ID":"HRFI4","Station_Nam":"HARTFORD,IA","Latitude":"41.46670","Longitude":"-93.41670","Snowdepth":"11.000","Units":"in","Rept_Date":"2021-01-27 14"},"coordinates":[897,4913]},{"type":"Point","properties":{"Station_ID":"GRAN1","Station_Nam":"GRETNA,NE","Latitude":"41.20000","Longitude":"-96.20000","Snowdepth":"11.000","Units":"in","Rept_Date":"2021-01-27 14"},"coordinates":[244,4781]},{"type":"Point","properties":{"Station_ID":"GNFM5","Station_Nam":"GUNFLINT LAKE","Latitude":"48.16670","Longitude":"-90.88750","Snowdepth":"11.000","Units":"in","Rept_Date":"2021-01-27 13"},"coordinates":[1491,8234]},{"type":"Point","properties":{"Station_ID":"GAYM4","Station_Nam":"GAYLORD","Latitude":"45.03320","Longitude":"-84.71130","Snowdepth":"11.000","Units":"in","Rept_Date":"2021-01-27 13"},"coordinates":[2940,6681]},{"type":"Point","properties":{"Station_ID":"GATW3","Station_Nam":"GRAFTON WWTP","Latitude":"43.30810","Longitude":"-87.95530","Snowdepth":"11.000","Units":"in","Rept_Date":"2021-01-27 13"},"coordinates":[2179,5826]},{"type":"Point","properties":{"Station_ID":"FCLN1","Station_Nam":"FT CALHOUN 4W","Latitude":"41.44670","Longitude":"-96.09190","Snowdepth":"11.000","Units":"in","Rept_Date":"2021-01-27 13"},"coordinates":[269,4903]},{"type":"Point","properties":{"Station_ID":"ESDN3","Station_Nam":"EAST SANDWICH","Latitude":"43.80990","Longitude":"-71.34250","Snowdepth":"11.000","Units":"in","Rept_Date":"2021-01-27 11"},"coordinates":[6078,6074]},{"type":"Point","properties":{"Station_ID":"ENFV1","Station_Nam":"ENOSBURG FALLS 2","Latitude":"44.90960","Longitude":"-72.81370","Snowdepth":"11.000","Units":"in","Rept_Date":"2021-01-27 10"},"coordinates":[5732,6620]},{"type":"Point","properties":{"Station_ID":"ELKM5","Station_Nam":"ELK RIVER","Latitude":"45.30470","Longitude":"-93.58420","Snowdepth":"11.000","Units":"in","Rept_Date":"2021-01-27 13"},"coordinates":[858,6815]},{"type":"Point","properties":{"Station_ID":"CSLM5","Station_Nam":"CASS LAKE,MN","Latitude":"47.38470","Longitude":"-94.61470","Snowdepth":"11.000","Units":"in","Rept_Date":"2021-01-27 14"},"coordinates":[616,7847]},{"type":"Point","properties":{"Station_ID":"CRLM5","Station_Nam":"CROSS LAKE DAM","Latitude":"46.66930","Longitude":"-94.11060","Snowdepth":"11.000","Units":"in","Rept_Date":"2021-01-27 14"},"coordinates":[734,7492]},{"type":"Point","properties":{"Station_ID":"CORV1","Station_Nam":"CORINTH","Latitude":"44.00690","Longitude":"-72.31940","Snowdepth":"11.000","Units":"in","Rept_Date":"2021-01-27 12"},"coordinates":[5848,6172]},{"type":"Point","properties":{"Station_ID":"COKM5","Station_Nam":"COOK","Latitude":"47.85060","Longitude":"-92.69250","Snowdepth":"11.000","Units":"in","Rept_Date":"2021-01-27 12"},"coordinates":[1067,8077]},{"type":"Point","properties":{"Station_ID":"CNKN6","Station_Nam":"CONKLINGVILLE DAM","Latitude":"43.32030","Longitude":"-73.92560","Snowdepth":"11.000","Units":"in","Rept_Date":"2021-01-27 13"},"coordinates":[5471,5832]},{"type":"Point","properties":{"Station_ID":"CCTI4","Station_Nam":"CENTRAL CITY","Latitude":"42.21480","Longitude":"-91.52230","Snowdepth":"11.000","Units":"in","Rept_Date":"2021-01-27 14"},"coordinates":[1342,5284]},{"type":"Point","properties":{"Station_ID":"CAN-QC-66","Station_Nam":"SAINT-ARMAND 4.2 ESE, CAN","Latitude":"45.01614","Longitude":"-72.99450","Snowdepth":"11.000","Units":"in","Rept_Date":"2021-01-27 13"},"coordinates":[5690,6672]},{"type":"Point","properties":{"Station_ID":"BWTN6","Station_Nam":"BREWERTON LOCK 23","Latitude":"43.23860","Longitude":"-76.19640","Snowdepth":"11.000","Units":"in","Rept_Date":"2021-01-27 12"},"coordinates":[4938,5791]},{"type":"Point","properties":{"Station_ID":"BRLN3","Station_Nam":"BERLIN","Latitude":"44.45350","Longitude":"-71.18540","Snowdepth":"11.000","Units":"in","Rept_Date":"2021-01-27 12"},"coordinates":[6115,6393]},{"type":"Point","properties":{"Station_ID":"BRCN1","Station_Nam":"BEATRICE,NE","Latitude":"40.30000","Longitude":"-96.74940","Snowdepth":"11.000","Units":"in","Rept_Date":"2021-01-27 13"},"coordinates":[115,4334]},{"type":"Point","properties":{"Station_ID":"ASNI4","Station_Nam":"ALLISON,IA","Latitude":"42.75000","Longitude":"-92.78330","Snowdepth":"11.000","Units":"in","Rept_Date":"2021-01-27 13"},"coordinates":[1046,5549]},{"type":"Point","properties":{"Station_ID":"ARBW3","Station_Nam":"SOUTH SIDE-ARBORETUM UNIV WI","Latitude":"43.04110","Longitude":"-89.42860","Snowdepth":"11.000","Units":"in","Rept_Date":"2021-01-27 14"},"coordinates":[1833,5693]},{"type":"Point","properties":{"Station_ID":"FTHQ6","Station_Nam":"FORT HOPE","Latitude":"51.55820","Longitude":"-87.90510","Snowdepth":"10.910","Units":"in","Rept_Date":"2021-01-27 21"},"coordinates":[2191,9915]},{"type":"Point","properties":{"Station_ID":"MI-AG-6","Station_Nam":"MUNISING 11.1 SSW, MI","Latitude":"46.27805","Longitude":"-86.75747","Snowdepth":"10.700","Units":"in","Rept_Date":"2021-01-27 12"},"coordinates":[2460,7298]},{"type":"Point","properties":{"Station_ID":"CAN-NS-45","Station_Nam":"SPRINGFIELD 4.2 NNE, CAN","Latitude":"44.66975","Longitude":"-64.85256","Snowdepth":"10.600","Units":"in","Rept_Date":"2021-01-27 12"},"coordinates":[7601,6501]},{"type":"Point","properties":{"Station_ID":"WI-PR-6","Station_Nam":"PHILLIPS 1.3 S, WI","Latitude":"45.67677","Longitude":"-90.39543","Snowdepth":"10.500","Units":"in","Rept_Date":"2021-01-27 12"},"coordinates":[1606,7000]},{"type":"Point","properties":{"Station_ID":"WI-MW-46","Station_Nam":"WAUWATOSA 1.9 E, WI","Latitude":"43.05863","Longitude":"-87.99600","Snowdepth":"10.500","Units":"in","Rept_Date":"2021-01-27 13"},"coordinates":[2169,5702]},{"type":"Point","properties":{"Station_ID":"WI-DA-33","Station_Nam":"OREGON 0.4 SSW, WI","Latitude":"42.92080","Longitude":"-89.38540","Snowdepth":"10.500","Units":"in","Rept_Date":"2021-01-27 13"},"coordinates":[1843,5634]},{"type":"Point","properties":{"Station_ID":"WI-BY-6","Station_Nam":"BARNES 2.2 S, WI","Latitude":"46.30264","Longitude":"-91.50320","Snowdepth":"10.500","Units":"in","Rept_Date":"2021-01-27 13"},"coordinates":[1346,7310]},{"type":"Point","properties":{"Station_ID":"VT-OL-24","Station_Nam":"DERBY LINE 1.9 W, VT","Latitude":"45.00454","Longitude":"-72.14170","Snowdepth":"10.500","Units":"in","Rept_Date":"2021-01-27 12"},"coordinates":[5890,6667]},{"type":"Point","properties":{"Station_ID":"NY-MD-10","Station_Nam":"CAZENOVIA 2.9 SE, NY","Latitude":"42.90003","Longitude":"-75.81140","Snowdepth":"10.500","Units":"in","Rept_Date":"2021-01-27 12"},"coordinates":[5029,5623]},{"type":"Point","properties":{"Station_ID":"NY-DL-32","Station_Nam":"DELHI 6.6 WNW, NY","Latitude":"42.32118","Longitude":"-75.02991","Snowdepth":"10.500","Units":"in","Rept_Date":"2021-01-27 12"},"coordinates":[5212,5336]},{"type":"Point","properties":{"Station_ID":"NY-CR-5","Station_Nam":"MARATHON 1.0 NW, NY","Latitude":"42.45161","Longitude":"-76.04370","Snowdepth":"10.500","Units":"in","Rept_Date":"2021-01-27 12"},"coordinates":[4974,5401]},{"type":"Point","properties":{"Station_ID":"IL-WN-32","Station_Nam":"ROCKFORD 5.5 S, IL","Latitude":"42.19058","Longitude":"-89.06040","Snowdepth":"10.500","Units":"in","Rept_Date":"2021-01-27 14"},"coordinates":[1919,5272]},{"type":"Point","properties":{"Station_ID":"IL-BN-19","Station_Nam":"BELVIDERE 5.0 NNW, IL","Latitude":"42.32071","Longitude":"-88.88282","Snowdepth":"10.500","Units":"in","Rept_Date":"2021-01-27 13"},"coordinates":[1961,5336]},{"type":"Point","properties":{"Station_ID":"IA-WR-5","Station_Nam":"HARTFORD 1.0 E, IA","Latitude":"41.46014","Longitude":"-93.38550","Snowdepth":"10.500","Units":"in","Rept_Date":"2021-01-27 14"},"coordinates":[904,4910]},{"type":"Point","properties":{"Station_ID":"CAN-ON-771","Station_Nam":"KENORA 8.7 NNE - CANWARN, CAN","Latitude":"49.84171","Longitude":"-94.44386","Snowdepth":"10.500","Units":"in","Rept_Date":"2021-01-27 13"},"coordinates":[656,9064]},{"type":"Point","properties":{"Station_ID":"QLM","Station_Nam":"QLM","Latitude":"48.92030","Longitude":"-70.25280","Snowdepth":"10.472","Units":"in","Rept_Date":"2021-01-27 12"},"coordinates":[6333,8608]},{"type":"Point","properties":{"Station_ID":"IL-CK-288","Station_Nam":"ROSELLE 0.8 N, IL","Latitude":"41.99255","Longitude":"-88.08422","Snowdepth":"10.400","Units":"in","Rept_Date":"2021-01-27 13"},"coordinates":[2148,5174]},{"type":"Point","properties":{"Station_ID":"CAN-NL-82","Station_Nam":"GANDER 2.7 NW, CAN","Latitude":"48.97737","Longitude":"-54.63396","Snowdepth":"10.200","Units":"in","Rept_Date":"2021-01-27 10"},"coordinates":[9999,8636]},{"type":"Point","properties":{"Station_ID":"WTRM4","Station_Nam":"WATERSMEET 12WSW","Latitude":"46.22310","Longitude":"-89.40850","Snowdepth":"10.000","Units":"in","Rept_Date":"2021-01-27 12"},"coordinates":[1838,7271]},{"type":"Point","properties":{"Station_ID":"WPKW3","Station_Nam":"SW-WHITNAL PARK","Latitude":"42.91670","Longitude":"-88.03330","Snowdepth":"10.000","Units":"in","Rept_Date":"2021-01-27 15"},"coordinates":[2160,5632]},{"type":"Point","properties":{"Station_ID":"WNNM5","Station_Nam":"WINNEBAGO","Latitude":"43.76920","Longitude":"-94.18730","Snowdepth":"10.000","Units":"in","Rept_Date":"2021-01-27 14"},"coordinates":[716,6054]},{"type":"Point","properties":{"Station_ID":"WLDM5","Station_Nam":"WILD RIVER STATE PARK","Latitude":"45.52310","Longitude":"-92.74890","Snowdepth":"10.000","Units":"in","Rept_Date":"2021-01-27 14"},"coordinates":[1054,6924]},{"type":"Point","properties":{"Station_ID":"WI-WS-5","Station_Nam":"JACKSON 0.2 WSW, WI","Latitude":"43.32007","Longitude":"-88.16820","Snowdepth":"10.000","Units":"in","Rept_Date":"2021-01-27 12"},"coordinates":[2129,5832]},{"type":"Point","properties":{"Station_ID":"WI-WK-34","Station_Nam":"MUKWONAGO 5.3 W, WI","Latitude":"42.85380","Longitude":"-88.43550","Snowdepth":"10.000","Units":"in","Rept_Date":"2021-01-27 13"},"coordinates":[2066,5600]},{"type":"Point","properties":{"Station_ID":"WI-VL-14","Station_Nam":"BOULDER JUNCTION 1.4 NE, WI","Latitude":"46.12840","Longitude":"-89.62470","Snowdepth":"10.000","Units":"in","Rept_Date":"2021-01-27 13"},"coordinates":[1787,7224]},{"type":"Point","properties":{"Station_ID":"WI-RC-3","Station_Nam":"RACINE 2.3 WSW, WI","Latitude":"42.71124","Longitude":"-87.84570","Snowdepth":"10.000","Units":"in","Rept_Date":"2021-01-27 13"},"coordinates":[2204,5530]},{"type":"Point","properties":{"Station_ID":"WI-MW-43","Station_Nam":"BROWN DEER 0.8 NW, WI","Latitude":"43.18438","Longitude":"-87.98401","Snowdepth":"10.000","Units":"in","Rept_Date":"2021-01-27 13"},"coordinates":[2172,5764]},{"type":"Point","properties":{"Station_ID":"WI-JF-10","Station_Nam":"PALMYRA 1.5 N, WI","Latitude":"42.90084","Longitude":"-88.58620","Snowdepth":"10.000","Units":"in","Rept_Date":"2021-01-27 13"},"coordinates":[2031,5624]},{"type":"Point","properties":{"Station_ID":"WI-DA-88","Station_Nam":"BLACK EARTH 3.1 SSE, WI","Latitude":"43.09290","Longitude":"-89.72889","Snowdepth":"10.000","Units":"in","Rept_Date":"2021-01-27 13"},"coordinates":[1762,5719]},{"type":"Point","properties":{"Station_ID":"WI-DA-87","Station_Nam":"DUNKIRK 0.1 NW, WI","Latitude":"42.88356","Longitude":"-89.21056","Snowdepth":"10.000","Units":"in","Rept_Date":"2021-01-27 12"},"coordinates":[1884,5615]},{"type":"Point","properties":{"Station_ID":"WI-BT-14","Station_Nam":"OAKLAND 9.0 ENE, WI","Latitude":"45.95184","Longitude":"-92.21653","Snowdepth":"10.000","Units":"in","Rept_Date":"2021-01-27 13"},"coordinates":[1179,7136]},{"type":"Point","properties":{"Station_ID":"WDOM5","Station_Nam":"WINDOM","Latitude":"43.87700","Longitude":"-95.11590","Snowdepth":"10.000","Units":"in","Rept_Date":"2021-01-27 14"},"coordinates":[498,6108]},{"type":"Point","properties":{"Station_ID":"VT-FR-21","Station_Nam":"FAIRFAX 4.9 WNW, VT","Latitude":"44.68880","Longitude":"-73.10340","Snowdepth":"10.000","Units":"in","Rept_Date":"2021-01-27 14"},"coordinates":[5664,6510]},{"type":"Point","properties":{"Station_ID":"UNDI4","Station_Nam":"UNDERWOOD","Latitude":"41.38940","Longitude":"-95.68110","Snowdepth":"10.000","Units":"in","Rept_Date":"2021-01-27 13"},"coordinates":[366,4875]},{"type":"Point","properties":{"Station_ID":"THJP1","Station_Nam":"OSGOOD HOLLOWN SNOW","Latitude":"41.86670","Longitude":"-77.31670","Snowdepth":"10.000","Units":"in","Rept_Date":"2021-01-27 16"},"coordinates":[4676,5111]},{"type":"Point","properties":{"Station_ID":"THEP1","Station_Nam":"MORRIS RUN SNOW","Latitude":"41.68330","Longitude":"-76.93330","Snowdepth":"10.000","Units":"in","Rept_Date":"2021-01-27 16"},"coordinates":[4766,5020]},{"type":"Point","properties":{"Station_ID":"TCMN1","Station_Nam":"TECUMSEH,NE","Latitude":"40.36670","Longitude":"-96.18330","Snowdepth":"10.000","Units":"in","Rept_Date":"2021-01-27 14"},"coordinates":[248,4368]},{"type":"Point","properties":{"Station_ID":"TBLN1","Station_Nam":"TABLE ROCK,NE","Latitude":"40.23610","Longitude":"-96.08890","Snowdepth":"10.000","Units":"in","Rept_Date":"2021-01-27 13"},"coordinates":[270,4303]},{"type":"Point","properties":{"Station_ID":"SWTW3","Station_Nam":"SUPERIOR WWTP","Latitude":"46.72700","Longitude":"-92.07200","Snowdepth":"10.000","Units":"in","Rept_Date":"2021-01-28 06"},"coordinates":[1213,7520]},{"type":"Point","properties":{"Station_ID":"SWHI4","Station_Nam":"SWISHER #2","Latitude":"41.84970","Longitude":"-91.67650","Snowdepth":"10.000","Units":"in","Rept_Date":"2021-01-27 14"},"coordinates":[1305,5103]},{"type":"Point","properties":{"Station_ID":"STMM4","Station_Nam":"STAMBAUGH 2SSE","Latitude":"46.05550","Longitude":"-88.62780","Snowdepth":"10.000","Units":"in","Rept_Date":"2021-01-27 13"},"coordinates":[2021,7188]},{"type":"Point","properties":{"Station_ID":"SLRW3","Station_Nam":"SLINGER","Latitude":"43.33390","Longitude":"-88.29780","Snowdepth":"10.000","Units":"in","Rept_Date":"2021-01-27 13"},"coordinates":[2098,5838]},{"type":"Point","properties":{"Station_ID":"RLKW3","Station_Nam":"REST LAKE","Latitude":"46.12220","Longitude":"-89.87720","Snowdepth":"10.000","Units":"in","Rept_Date":"2021-01-27 14"},"coordinates":[1728,7221]},{"type":"Point","properties":{"Station_ID":"RARM4","Station_Nam":"RAPID RIVER 1 SW","Latitude":"45.91500","Longitude":"-86.98800","Snowdepth":"10.000","Units":"in","Rept_Date":"2021-01-27 12"},"coordinates":[2406,7118]},{"type":"Point","properties":{"Station_ID":"PORW3","Station_Nam":"PORTAGE,WI","Latitude":"43.53190","Longitude":"-89.43780","Snowdepth":"10.000","Units":"in","Rept_Date":"2021-01-27 14"},"coordinates":[1831,5937]},{"type":"Point","properties":{"Station_ID":"PLFV1","Station_Nam":"PLAINFIELD","Latitude":"44.27610","Longitude":"-72.41500","Snowdepth":"10.000","Units":"in","Rept_Date":"2021-01-27 12"},"coordinates":[5826,6306]},{"type":"Point","properties":{"Station_ID":"PERI4","Station_Nam":"PERRY,IA","Latitude":"41.83810","Longitude":"-94.11110","Snowdepth":"10.000","Units":"in","Rept_Date":"2021-01-27 17"},"coordinates":[734,5097]},{"type":"Point","properties":{"Station_ID":"PDGM4","Station_Nam":"PAULDING","Latitude":"46.39760","Longitude":"-89.17940","Snowdepth":"10.000","Units":"in","Rept_Date":"2021-01-27 13"},"coordinates":[1891,7357]},{"type":"Point","properties":{"Station_ID":"OSEI4","Station_Nam":"OSCEOLA,IA","Latitude":"41.01670","Longitude":"-93.81670","Snowdepth":"10.000","Units":"in","Rept_Date":"2021-01-27 13"},"coordinates":[803,4690]},{"type":"Point","properties":{"Station_ID":"OLNI4","Station_Nam":"OELWEIN 1E","Latitude":"42.68010","Longitude":"-91.87510","Snowdepth":"10.000","Units":"in","Rept_Date":"2021-01-27 12"},"coordinates":[1259,5514]},{"type":"Point","properties":{"Station_ID":"OILM4","Station_Nam":"OIL CITY 3E","Latitude":"43.61140","Longitude":"-84.52810","Snowdepth":"10.000","Units":"in","Rept_Date":"2021-01-27 12"},"coordinates":[2983,5976]},{"type":"Point","properties":{"Station_ID":"OFF","Station_Nam":"OFFUTT AFB","Latitude":"41.11810","Longitude":"-95.91250","Snowdepth":"10.000","Units":"in","Rept_Date":"2021-01-27 12"},"coordinates":[311,4740]},{"type":"Point","properties":{"Station_ID":"NY-OG-46","Station_Nam":"BALDWINSVILLE 3.5 NE, NY","Latitude":"43.19506","Longitude":"-76.28830","Snowdepth":"10.000","Units":"in","Rept_Date":"2021-01-27 13"},"coordinates":[4917,5770]},{"type":"Point","properties":{"Station_ID":"NY-MD-22","Station_Nam":"ONEIDA 0.4 NW, NY","Latitude":"43.08012","Longitude":"-75.66860","Snowdepth":"10.000","Units":"in","Rept_Date":"2021-01-27 12"},"coordinates":[5062,5713]},{"type":"Point","properties":{"Station_ID":"NY-ES-7","Station_Nam":"KEESEVILLE 0.8 SE, NY","Latitude":"44.49504","Longitude":"-73.47109","Snowdepth":"10.000","Units":"in","Rept_Date":"2021-01-27 12"},"coordinates":[5578,6414]},{"type":"Point","properties":{"Station_ID":"NY-DL-25","Station_Nam":"HOBART 4.8 ESE, NY","Latitude":"42.35230","Longitude":"-74.57830","Snowdepth":"10.000","Units":"in","Rept_Date":"2021-01-27 12"},"coordinates":[5318,5352]},{"type":"Point","properties":{"Station_ID":"NY-CQ-27","Station_Nam":"SILVER CREEK 1.0 SSE, NY","Latitude":"42.53088","Longitude":"-79.15986","Snowdepth":"10.000","Units":"in","Rept_Date":"2021-01-27 11"},"coordinates":[4243,5440]},{"type":"Point","properties":{"Station_ID":"NWSM1","Station_Nam":"NEW SHARON","Latitude":"44.63520","Longitude":"-70.00020","Snowdepth":"10.000","Units":"in","Rept_Date":"2021-01-27 12"},"coordinates":[6393,6484]},{"type":"Point","properties":{"Station_ID":"NE-SW-7","Station_Nam":"SEWARD 0.5 NE, NE","Latitude":"40.91689","Longitude":"-97.08981","Snowdepth":"10.000","Units":"in","Rept_Date":"2021-01-27 13"},"coordinates":[35,4640]},{"type":"Point","properties":{"Station_ID":"NE-DG-35","Station_Nam":"BENNINGTON 2.9 SSW, NE","Latitude":"41.32763","Longitude":"-96.17473","Snowdepth":"10.000","Units":"in","Rept_Date":"2021-01-27 13"},"coordinates":[250,4844]},{"type":"Point","properties":{"Station_ID":"NE-DG-19","Station_Nam":"ELKHORN 0.7 ENE, NE","Latitude":"41.28780","Longitude":"-96.22450","Snowdepth":"10.000","Units":"in","Rept_Date":"2021-01-27 13"},"coordinates":[238,4824]},{"type":"Point","properties":{"Station_ID":"MWOW3","Station_Nam":"MUKWONAGO","Latitude":"42.85380","Longitude":"-88.43550","Snowdepth":"10.000","Units":"in","Rept_Date":"2021-01-27 13"},"coordinates":[2066,5600]},{"type":"Point","properties":{"Station_ID":"MSTI4","Station_Nam":"MUSCATINE 2N","Latitude":"41.47130","Longitude":"-91.04630","Snowdepth":"10.000","Units":"in","Rept_Date":"2021-01-27 13"},"coordinates":[1453,4915]},{"type":"Point","properties":{"Station_ID":"MSN","Station_Nam":"MADISON DANE COUNTY RGNL","Latitude":"43.13970","Longitude":"-89.33750","Snowdepth":"10.000","Units":"in","Rept_Date":"2021-01-28 00"},"coordinates":[1854,5742]},{"type":"Point","properties":{"Station_ID":"MN-KB-17","Station_Nam":"MORA 2.5 S, MN","Latitude":"45.84100","Longitude":"-93.29700","Snowdepth":"10.000","Units":"in","Rept_Date":"2021-01-27 13"},"coordinates":[925,7081]},{"type":"Point","properties":{"Station_ID":"MN-IT-17","Station_Nam":"GRAND RAPIDS 6.1 N, MN","Latitude":"47.31165","Longitude":"-93.55036","Snowdepth":"10.000","Units":"in","Rept_Date":"2021-01-27 13"},"coordinates":[866,7810]},{"type":"Point","properties":{"Station_ID":"MN-CW-22","Station_Nam":"FORT RIPLEY 0.8 N, MN","Latitude":"46.18089","Longitude":"-94.36510","Snowdepth":"10.000","Units":"in","Rept_Date":"2021-01-27 13"},"coordinates":[674,7250]},{"type":"Point","properties":{"Station_ID":"MN-CV-22","Station_Nam":"VICTORIA 1.6 WSW, MN","Latitude":"44.85670","Longitude":"-93.68640","Snowdepth":"10.000","Units":"in","Rept_Date":"2021-01-27 13"},"coordinates":[834,6593]},{"type":"Point","properties":{"Station_ID":"MKX","Station_Nam":"MILWAUKEE, WI","Latitude":"42.96810","Longitude":"-88.54920","Snowdepth":"10.000","Units":"in","Rept_Date":"2021-01-28 06"},"coordinates":[2039,5657]},{"type":"Point","properties":{"Station_ID":"MI-CP-14","Station_Nam":"SAULT STE. MARIE 2.2 E, MI","Latitude":"46.48933","Longitude":"-84.31971","Snowdepth":"10.000","Units":"in","Rept_Date":"2021-01-27 13"},"coordinates":[3032,7403]},{"type":"Point","properties":{"Station_ID":"MEDN1","Station_Nam":"AGRONOMY LABRATORY","Latitude":"41.16670","Longitude":"-96.41670","Snowdepth":"10.000","Units":"in","Rept_Date":"2021-01-27 12"},"coordinates":[193,4764]},{"type":"Point","properties":{"Station_ID":"ME-SM-45","Station_Nam":"BRIGHTON PLANTATION 2.1 N, ME","Latitude":"45.07098","Longitude":"-69.69860","Snowdepth":"10.000","Units":"in","Rept_Date":"2021-01-27 12"},"coordinates":[6463,6700]},{"type":"Point","properties":{"Station_ID":"ME-SM-4","Station_Nam":"SOLON 3.9 ESE, ME","Latitude":"44.94705","Longitude":"-69.77790","Snowdepth":"10.000","Units":"in","Rept_Date":"2021-01-27 12"},"coordinates":[6445,6638]},