{"type":"Topology","objects":{"snowdepth_geo":{"type":"GeometryCollection","name":"snowdepth","crs":{"type":"name","properties":{"name":"urn:ogc:def:crs:OGC:1.3:CRS84"}},"geometries":[{"type":"Point","properties":{"Station_ID":"MMSV1","Station_Nam":"MOUNT MANSFIELD","Latitude":"44.53330","Longitude":"-72.83330","Snowdepth":"85.000","Units":"in","Rept_Date":"2019-11-24 05"},"coordinates":[7689,6433]},{"type":"Point","properties":{"Station_ID":"PRKM4","Station_Nam":"MUNISING EAST","Latitude":"46.42580","Longitude":"-86.62000","Snowdepth":"76.500","Units":"in","Rept_Date":"2019-11-24 06"},"coordinates":[3343,7371]},{"type":"Point","properties":{"Station_ID":"OGIQ6","Station_Nam":"OGOKI CAMP","Latitude":"50.76680","Longitude":"-87.85820","Snowdepth":"61.100","Units":"in","Rept_Date":"2019-11-24 06"},"coordinates":[2953,9523]},{"type":"Point","properties":{"Station_ID":"AUDQ6","Station_Nam":"AUDEN","Latitude":"48.52600","Longitude":"-82.57570","Snowdepth":"47.640","Units":"in","Rept_Date":"2019-11-24 06"},"coordinates":[4618,8412]},{"type":"Point","properties":{"Station_ID":"DVLQ6","Station_Nam":"DEVIOUS LAKE","Latitude":"49.19890","Longitude":"-87.76440","Snowdepth":"43.460","Units":"in","Rept_Date":"2019-11-24 06"},"coordinates":[2982,8746]},{"type":"Point","properties":{"Station_ID":"CAN-NB-50","Station_Nam":"DOYLEVILLE 2.4 WNW, CAN","Latitude":"47.90803","Longitude":"-66.13279","Snowdepth":"17.800","Units":"in","Rept_Date":"2019-11-23 13"},"coordinates":[9802,8106]},{"type":"Point","properties":{"Station_ID":"CAR","Station_Nam":"CARIBOU, ME","Latitude":"46.86830","Longitude":"-68.01360","Snowdepth":"12.000","Units":"in","Rept_Date":"2019-11-23 12"},"coordinates":[9209,7591]},{"type":"Point","properties":{"Station_ID":"ME-AR-18","Station_Nam":"NEW SWEDEN 4.9 NNW, ME","Latitude":"47.01080","Longitude":"-68.14390","Snowdepth":"11.500","Units":"in","Rept_Date":"2019-11-23 12"},"coordinates":[9168,7661]},{"type":"Point","properties":{"Station_ID":"MI-HG-18","Station_Nam":"CALUMET 0.7 W (TAMARACK), MI","Latitude":"47.24560","Longitude":"-88.46791","Snowdepth":"11.000","Units":"in","Rept_Date":"2019-11-23 13"},"coordinates":[2761,7778]},{"type":"Point","properties":{"Station_ID":"IBLM5","Station_Nam":"ISABELLA 14W","Latitude":"47.59360","Longitude":"-91.65140","Snowdepth":"11.000","Units":"in","Rept_Date":"2019-11-23 15"},"coordinates":[1757,7950]},{"type":"Point","properties":{"Station_ID":"MI-HG-17","Station_Nam":"CALUMET 0.5 NE (CALUMET LAKE), MI","Latitude":"47.25300","Longitude":"-88.44652","Snowdepth":"10.000","Units":"in","Rept_Date":"2019-11-23 13"},"coordinates":[2767,7781]},{"type":"Point","properties":{"Station_ID":"ME-AR-23","Station_Nam":"MADAWASKA 2.5 E, ME","Latitude":"47.34933","Longitude":"-68.28141","Snowdepth":"10.000","Units":"in","Rept_Date":"2019-11-23 12"},"coordinates":[9124,7829]},{"type":"Point","properties":{"Station_ID":"GMSM4","Station_Nam":"GRAND MARAIS 10S","Latitude":"46.50940","Longitude":"-85.96310","Snowdepth":"10.000","Units":"in","Rept_Date":"2019-11-23 13"},"coordinates":[3550,7413]},{"type":"Point","properties":{"Station_ID":"CARM1","Station_Nam":"CARIBOU WFO","Latitude":"46.86810","Longitude":"-68.01250","Snowdepth":"10.000","Units":"in","Rept_Date":"2019-11-24 05"},"coordinates":[9209,7590]},{"type":"Point","properties":{"Station_ID":"PTLQ6","Station_Nam":"PORTAGE LAKE","Latitude":"49.06950","Longitude":"-86.65940","Snowdepth":"9.250","Units":"in","Rept_Date":"2019-11-24 06"},"coordinates":[3331,8682]},{"type":"Point","properties":{"Station_ID":"VANM1","Station_Nam":"VAN BUREN","Latitude":"47.16600","Longitude":"-67.93900","Snowdepth":"9.000","Units":"in","Rept_Date":"2019-11-23 12"},"coordinates":[9232,7738]},{"type":"Point","properties":{"Station_ID":"LILM1","Station_Nam":"LILLE","Latitude":"47.27770","Longitude":"-68.10520","Snowdepth":"9.000","Units":"in","Rept_Date":"2019-11-23 12"},"coordinates":[9180,7793]},{"type":"Point","properties":{"Station_ID":"LEIM5","Station_Nam":"ORR 3E","Latitude":"48.05810","Longitude":"-92.75220","Snowdepth":"9.000","Units":"in","Rept_Date":"2019-11-23 12"},"coordinates":[1410,8180]},{"type":"Point","properties":{"Station_ID":"BNDM5","Station_Nam":"ELY 25E","Latitude":"47.97190","Longitude":"-91.44860","Snowdepth":"9.000","Units":"in","Rept_Date":"2019-11-23 13"},"coordinates":[1821,8138]},{"type":"Point","properties":{"Station_ID":"QNCM4","Station_Nam":"QUINCY HILL","Latitude":"47.13640","Longitude":"-88.57950","Snowdepth":"8.000","Units":"in","Rept_Date":"2019-11-23 12"},"coordinates":[2725,7723]},{"type":"Point","properties":{"Station_ID":"PDLM4","Station_Nam":"PAINESDALE","Latitude":"47.04160","Longitude":"-88.67170","Snowdepth":"8.000","Units":"in","Rept_Date":"2019-11-23 13"},"coordinates":[2696,7676]},{"type":"Point","properties":{"Station_ID":"IWOM4","Station_Nam":"IRONWOOD#2","Latitude":"46.46520","Longitude":"-90.13820","Snowdepth":"8.000","Units":"in","Rept_Date":"2019-11-23 13"},"coordinates":[2234,7391]},{"type":"Point","properties":{"Station_ID":"ELYM5","Station_Nam":"ELY","Latitude":"47.90560","Longitude":"-91.82830","Snowdepth":"8.000","Units":"in","Rept_Date":"2019-11-23 14"},"coordinates":[1701,8105]},{"type":"Point","properties":{"Station_ID":"PRDM4","Station_Nam":"PARADISE","Latitude":"46.60380","Longitude":"-85.03960","Snowdepth":"7.000","Units":"in","Rept_Date":"2019-11-23 11"},"coordinates":[3841,7459]},{"type":"Point","properties":{"Station_ID":"MMNV1","Station_Nam":"MT. MANSFIELD","Latitude":"44.52480","Longitude":"-72.81540","Snowdepth":"7.000","Units":"in","Rept_Date":"2019-11-23 21"},"coordinates":[7695,6429]},{"type":"Point","properties":{"Station_ID":"COKM5","Station_Nam":"COOK","Latitude":"47.85060","Longitude":"-92.69250","Snowdepth":"7.000","Units":"in","Rept_Date":"2019-11-23 12"},"coordinates":[1429,8077]},{"type":"Point","properties":{"Station_ID":"CAN-NB-13","Station_Nam":"BATHURST 3.8 NW, CAN","Latitude":"47.64212","Longitude":"-65.68756","Snowdepth":"7.000","Units":"in","Rept_Date":"2019-11-23 11"},"coordinates":[9942,7974]},{"type":"Point","properties":{"Station_ID":"ATMM4","Station_Nam":"ATLANTIC MINE 5NW","Latitude":"47.15440","Longitude":"-88.71670","Snowdepth":"7.000","Units":"in","Rept_Date":"2019-11-23 14"},"coordinates":[2682,7732]},{"type":"Point","properties":{"Station_ID":"SVBQ6","Station_Nam":"SAVANT BASE","Latitude":"50.28730","Longitude":"-90.65670","Snowdepth":"6.690","Units":"in","Rept_Date":"2019-11-24 06"},"coordinates":[2071,9285]},{"type":"Point","properties":{"Station_ID":"SOCQ6","Station_Nam":"SOCKET LAKE","Latitude":"50.77870","Longitude":"-91.79300","Snowdepth":"6.060","Units":"in","Rept_Date":"2019-11-24 06"},"coordinates":[1712,9529]},{"type":"Point","properties":{"Station_ID":"WI-IR-3","Station_Nam":"PENCE 0.1 E, WI","Latitude":"46.41555","Longitude":"-90.27013","Snowdepth":"6.000","Units":"in","Rept_Date":"2019-11-23 13"},"coordinates":[2192,7366]},{"type":"Point","properties":{"Station_ID":"NY-JF-30","Station_Nam":"WEST CARTHAGE 0.3 ENE, NY","Latitude":"43.97493","Longitude":"-75.61640","Snowdepth":"6.000","Units":"in","Rept_Date":"2019-11-23 12"},"coordinates":[6812,6156]},{"type":"Point","properties":{"Station_ID":"NY-FK-7","Station_Nam":"SARANAC LAKE 6.2 N, NY","Latitude":"44.41359","Longitude":"-74.15211","Snowdepth":"6.000","Units":"in","Rept_Date":"2019-11-23 10"},"coordinates":[7274,6374]},{"type":"Point","properties":{"Station_ID":"HURW3","Station_Nam":"HURLEY","Latitude":"46.46250","Longitude":"-90.19550","Snowdepth":"6.000","Units":"in","Rept_Date":"2019-11-23 14"},"coordinates":[2216,7389]},{"type":"Point","properties":{"Station_ID":"GNLM4","Station_Nam":"GREENLAND 6N","Latitude":"46.87360","Longitude":"-89.10060","Snowdepth":"6.000","Units":"in","Rept_Date":"2019-11-23 13"},"coordinates":[2561,7593]},{"type":"Point","properties":{"Station_ID":"FISM1","Station_Nam":"FORT KENT COOP","Latitude":"47.23850","Longitude":"-68.61240","Snowdepth":"6.000","Units":"in","Rept_Date":"2019-11-23 12"},"coordinates":[9020,7774]},{"type":"Point","properties":{"Station_ID":"AVLV1","Station_Nam":"AVERILL","Latitude":"45.00570","Longitude":"-71.69030","Snowdepth":"6.000","Units":"in","Rept_Date":"2019-11-23 13"},"coordinates":[8050,6667]},{"type":"Point","properties":{"Station_ID":"TRIQ6","Station_Nam":"TRIO LAKE","Latitude":"49.22880","Longitude":"-87.22920","Snowdepth":"5.940","Units":"in","Rept_Date":"2019-11-24 06"},"coordinates":[3151,8761]},{"type":"Point","properties":{"Station_ID":"CAN-ON-621","Station_Nam":"THUNDER BAY 4.2 WSW - MNRF, CAN","Latitude":"48.39163","Longitude":"-89.29107","Snowdepth":"5.900","Units":"in","Rept_Date":"2019-11-23 12"},"coordinates":[2501,8346]},{"type":"Point","properties":{"Station_ID":"VT-OL-12","Station_Nam":"GREENSBORO 3.9 NNE, VT","Latitude":"44.63100","Longitude":"-72.28000","Snowdepth":"5.500","Units":"in","Rept_Date":"2019-11-23 13"},"coordinates":[7864,6481]},{"type":"Point","properties":{"Station_ID":"CATQ6","Station_Nam":"CAT LAKE","Latitude":"51.72690","Longitude":"-91.82210","Snowdepth":"5.350","Units":"in","Rept_Date":"2019-11-24 06"},"coordinates":[1703,9999]},{"type":"Point","properties":{"Station_ID":"MI-BG-3","Station_Nam":"L'ANSE 17.8 SE, MI","Latitude":"46.55730","Longitude":"-88.20770","Snowdepth":"5.200","Units":"in","Rept_Date":"2019-11-23 13"},"coordinates":[2843,7436]},{"type":"Point","properties":{"Station_ID":"WLFM5","Station_Nam":"WOLF RIDGE ENVIRON LEARNING CENTER","Latitude":"47.38240","Longitude":"-91.19730","Snowdepth":"5.000","Units":"in","Rept_Date":"2019-11-23 13"},"coordinates":[1900,7845]},{"type":"Point","properties":{"Station_ID":"VT-CL-3","Station_Nam":"GROTON 4.4 WSW, VT","Latitude":"44.19440","Longitude":"-72.28240","Snowdepth":"5.000","Units":"in","Rept_Date":"2019-11-23 11"},"coordinates":[7863,6265]},{"type":"Point","properties":{"Station_ID":"SUAW3","Station_Nam":"SUAMICO","Latitude":"44.60190","Longitude":"-88.09780","Snowdepth":"5.000","Units":"in","Rept_Date":"2019-11-23 12"},"coordinates":[2877,6467]},{"type":"Point","properties":{"Station_ID":"LPLN6","Station_Nam":"LAKE PLACID 2 S","Latitude":"44.30420","Longitude":"-73.98390","Snowdepth":"5.000","Units":"in","Rept_Date":"2019-11-23 13"},"coordinates":[7327,6319]},{"type":"Point","properties":{"Station_ID":"IRMM4","Station_Nam":"WWTP","Latitude":"46.46670","Longitude":"-90.18330","Snowdepth":"5.000","Units":"in","Rept_Date":"2019-11-23 13"},"coordinates":[2220,7391]},{"type":"Point","properties":{"Station_ID":"HERM4","Station_Nam":"HERMAN,MI","Latitude":"46.65000","Longitude":"-88.33330","Snowdepth":"5.000","Units":"in","Rept_Date":"2019-11-23 13"},"coordinates":[2803,7482]},{"type":"Point","properties":{"Station_ID":"COVM4","Station_Nam":"COVINGTON","Latitude":"46.55880","Longitude":"-88.54190","Snowdepth":"5.000","Units":"in","Rept_Date":"2019-11-23 13"},"coordinates":[2737,7437]},{"type":"Point","properties":{"Station_ID":"CAN-NB-11","Station_Nam":"MIRAMICHI 3.3 S, CAN","Latitude":"46.99343","Longitude":"-65.50690","Snowdepth":"5.000","Units":"in","Rept_Date":"2019-11-23 12"},"coordinates":[9999,7653]},{"type":"Point","properties":{"Station_ID":"BBEM4","Station_Nam":"BIG BAY 9SW","Latitude":"46.74620","Longitude":"-87.88160","Snowdepth":"5.000","Units":"in","Rept_Date":"2019-11-23 13"},"coordinates":[2945,7530]},{"type":"Point","properties":{"Station_ID":"FTHQ6","Station_Nam":"FORT HOPE","Latitude":"51.55820","Longitude":"-87.90510","Snowdepth":"4.960","Units":"in","Rept_Date":"2019-11-24 06"},"coordinates":[2938,9915]},{"type":"Point","properties":{"Station_ID":"CAN-QC-47","Station_Nam":"SAINTE-FOY 1.8 ENE, CAN","Latitude":"46.76934","Longitude":"-71.27124","Snowdepth":"4.300","Units":"in","Rept_Date":"2019-11-23 12"},"coordinates":[8182,7541]},{"type":"Point","properties":{"Station_ID":"WTRM4","Station_Nam":"WATERSMEET 12WSW","Latitude":"46.22310","Longitude":"-89.40850","Snowdepth":"4.000","Units":"in","Rept_Date":"2019-11-23 12"},"coordinates":[2464,7271]},{"type":"Point","properties":{"Station_ID":"WRPW3","Station_Nam":"WATER PURIFICATION PLANT","Latitude":"44.38800","Longitude":"-89.80550","Snowdepth":"4.000","Units":"in","Rept_Date":"2019-11-23 12"},"coordinates":[2339,6361]},{"type":"Point","properties":{"Station_ID":"WI-VL-9","Station_Nam":"LAND O' LAKES 11.7 W, WI","Latitude":"46.19023","Longitude":"-89.45790","Snowdepth":"4.000","Units":"in","Rept_Date":"2019-11-23 13"},"coordinates":[2449,7254]},{"type":"Point","properties":{"Station_ID":"WI-VL-10","Station_Nam":"LAND O LAKES 4.3 WNW, WI","Latitude":"46.17440","Longitude":"-89.30380","Snowdepth":"4.000","Units":"in","Rept_Date":"2019-11-23 13"},"coordinates":[2497,7247]},{"type":"Point","properties":{"Station_ID":"PDGM4","Station_Nam":"PAULDING","Latitude":"46.39760","Longitude":"-89.17940","Snowdepth":"4.000","Units":"in","Rept_Date":"2019-11-23 13"},"coordinates":[2536,7357]},{"type":"Point","properties":{"Station_ID":"NY-FK-9","Station_Nam":"GABRIELS 1.3 SE, NY","Latitude":"44.41934","Longitude":"-74.16194","Snowdepth":"4.000","Units":"in","Rept_Date":"2019-11-23 12"},"coordinates":[7271,6377]},{"type":"Point","properties":{"Station_ID":"NWCM4","Station_Nam":"NEWBERRY CITY","Latitude":"46.35720","Longitude":"-85.51780","Snowdepth":"4.000","Units":"in","Rept_Date":"2019-11-23 12"},"coordinates":[3691,7337]},{"type":"Point","properties":{"Station_ID":"NOHM5","Station_Nam":"NORTHOME","Latitude":"47.83590","Longitude":"-94.25550","Snowdepth":"4.000","Units":"in","Rept_Date":"2019-11-23 13"},"coordinates":[936,8070]},{"type":"Point","properties":{"Station_ID":"MWN","Station_Nam":"MOUNT WASHINGTON","Latitude":"44.26670","Longitude":"-71.30000","Snowdepth":"4.000","Units":"in","Rept_Date":"2019-11-24 05"},"coordinates":[8173,6301]},{"type":"Point","properties":{"Station_ID":"MNSM4","Station_Nam":"MUNISING","Latitude":"46.41210","Longitude":"-86.66250","Snowdepth":"4.000","Units":"in","Rept_Date":"2019-11-23 11"},"coordinates":[3330,7364]},{"type":"Point","properties":{"Station_ID":"MN-SL-15","Station_Nam":"CHISHOLM 0.4 WSW, MN","Latitude":"47.48557","Longitude":"-92.88690","Snowdepth":"4.000","Units":"in","Rept_Date":"2019-11-23 13"},"coordinates":[1368,7897]},{"type":"Point","properties":{"Station_ID":"MN-CK-6","Station_Nam":"GRAND MARAIS 4.4 W, MN","Latitude":"47.74865","Longitude":"-90.43760","Snowdepth":"4.000","Units":"in","Rept_Date":"2019-11-23 13"},"coordinates":[2140,8027]},{"type":"Point","properties":{"Station_ID":"LNOW3","Station_Nam":"LAND O LAKES","Latitude":"46.19000","Longitude":"-89.45700","Snowdepth":"4.000","Units":"in","Rept_Date":"2019-11-23 13"},"coordinates":[2449,7254]},{"type":"Point","properties":{"Station_ID":"KMWN","Station_Nam":"MOUNT WASHINGTON","Latitude":"44.26666","Longitude":"-71.30000","Snowdepth":"4.000","Units":"in","Rept_Date":"2019-11-24 06"},"coordinates":[8173,6301]},{"type":"Point","properties":{"Station_ID":"KABM5","Station_Nam":"KABETOGAMA LAKE VISITOR CTR","Latitude":"48.40880","Longitude":"-93.04840","Snowdepth":"4.000","Units":"in","Rept_Date":"2019-11-23 13"},"coordinates":[1317,8354]},{"type":"Point","properties":{"Station_ID":"JOHV1","Station_Nam":"JOHNSON 2 N","Latitude":"44.65790","Longitude":"-72.67850","Snowdepth":"4.000","Units":"in","Rept_Date":"2019-11-23 12"},"coordinates":[7738,6495]},{"type":"Point","properties":{"Station_ID":"GHMN3","Station_Nam":"PINKHAM NOTCH","Latitude":"44.25800","Longitude":"-71.25250","Snowdepth":"4.000","Units":"in","Rept_Date":"2019-11-23 10"},"coordinates":[8188,6297]},{"type":"Point","properties":{"Station_ID":"ENFV1","Station_Nam":"ENOSBURG FALLS 2","Latitude":"44.90960","Longitude":"-72.81370","Snowdepth":"4.000","Units":"in","Rept_Date":"2019-11-23 13"},"coordinates":[7696,6620]},{"type":"Point","properties":{"Station_ID":"EMBM5","Station_Nam":"EMBARASS,MN","Latitude":"47.65810","Longitude":"-92.19580","Snowdepth":"4.000","Units":"in","Rept_Date":"2019-11-23 13"},"coordinates":[1585,7982]},{"type":"Point","properties":{"Station_ID":"CAN-NB-2","Station_Nam":"GRAFTON 2.7 NNE, CA","Latitude":"46.17062","Longitude":"-67.55330","Snowdepth":"4.000","Units":"in","Rept_Date":"2019-11-23 11"},"coordinates":[9354,7245]},{"type":"Point","properties":{"Station_ID":"BRDM1","Station_Nam":"BRIDGEWATER","Latitude":"46.42870","Longitude":"-67.84370","Snowdepth":"4.000","Units":"in","Rept_Date":"2019-11-23 23"},"coordinates":[9262,7373]},{"type":"Point","properties":{"Station_ID":"BGBM4","Station_Nam":"BIG BAY 1NW","Latitude":"46.83250","Longitude":"-87.75040","Snowdepth":"4.000","Units":"in","Rept_Date":"2019-11-23 13"},"coordinates":[2987,7573]},{"type":"Point","properties":{"Station_ID":"ANDM1","Station_Nam":"ANDOVER 2","Latitude":"44.65300","Longitude":"-70.79410","Snowdepth":"4.000","Units":"in","Rept_Date":"2019-11-23 11"},"coordinates":[8332,6492]},{"type":"Point","properties":{"Station_ID":"KABQ6","Station_Nam":"CAB LAKE","Latitude":"49.59950","Longitude":"-89.17990","Snowdepth":"3.580","Units":"in","Rept_Date":"2019-11-24 06"},"coordinates":[2536,8944]},{"type":"Point","properties":{"Station_ID":"VT-WS-30","Station_Nam":"WOODBURY 3.4 NNW, VT","Latitude":"44.48825","Longitude":"-72.43258","Snowdepth":"3.500","Units":"in","Rept_Date":"2019-11-23 12"},"coordinates":[7816,6411]},{"type":"Point","properties":{"Station_ID":"NY-ES-7","Station_Nam":"KEESEVILLE 0.8 SE, NY","Latitude":"44.49504","Longitude":"-73.47109","Snowdepth":"3.500","Units":"in","Rept_Date":"2019-11-23 12"},"coordinates":[7488,6414]},{"type":"Point","properties":{"Station_ID":"CAN-QC-51","Station_Nam":"BELOEIL 0.7 NW, CAN","Latitude":"45.58049","Longitude":"-73.21218","Snowdepth":"3.100","Units":"in","Rept_Date":"2019-11-23 12"},"coordinates":[7570,6952]},{"type":"Point","properties":{"Station_ID":"WTNM4","Station_Nam":"WATTON 2WSW","Latitude":"46.52660","Longitude":"-88.64240","Snowdepth":"3.000","Units":"in","Rept_Date":"2019-11-23 13"},"coordinates":[2706,7421]},{"type":"Point","properties":{"Station_ID":"WRUM5","Station_Nam":"WARROAD 4W","Latitude":"48.89600","Longitude":"-95.40700","Snowdepth":"3.000","Units":"in","Rept_Date":"2019-11-24 04"},"coordinates":[573,8596]},{"type":"Point","properties":{"Station_ID":"WKEK1","Station_Nam":"WAKEFIELD 4W","Latitude":"39.23020","Longitude":"-97.08950","Snowdepth":"3.000","Units":"in","Rept_Date":"2019-11-23 13"},"coordinates":[43,3804]},{"type":"Point","properties":{"Station_ID":"VT-OL-5","Station_Nam":"DERBY CENTER 1.8 NW, VT","Latitude":"44.97200","Longitude":"-72.14780","Snowdepth":"3.000","Units":"in","Rept_Date":"2019-11-23 12"},"coordinates":[7905,6650]},{"type":"Point","properties":{"Station_ID":"VT-OL-2","Station_Nam":"BARTON 3.0 ENE, VT","Latitude":"44.75863","Longitude":"-72.11680","Snowdepth":"3.000","Units":"in","Rept_Date":"2019-11-23 12"},"coordinates":[7915,6545]},{"type":"Point","properties":{"Station_ID":"VT-OL-1","Station_Nam":"WESTFIELD 0.7 WNW, VT","Latitude":"44.89160","Longitude":"-72.44350","Snowdepth":"3.000","Units":"in","Rept_Date":"2019-11-23 12"},"coordinates":[7812,6611]},{"type":"Point","properties":{"Station_ID":"TOPN6","Station_Nam":"TUPPER LAKE SUNMOUNT","Latitude":"44.23070","Longitude":"-74.43820","Snowdepth":"3.000","Units":"in","Rept_Date":"2019-11-23 12"},"coordinates":[7183,6283]},{"type":"Point","properties":{"Station_ID":"SUTV1","Station_Nam":"SUTTON","Latitude":"44.61220","Longitude":"-72.04810","Snowdepth":"3.000","Units":"in","Rept_Date":"2019-11-23 13"},"coordinates":[7937,6472]},{"type":"Point","properties":{"Station_ID":"RLKW3","Station_Nam":"REST LAKE","Latitude":"46.12220","Longitude":"-89.87720","Snowdepth":"3.000","Units":"in","Rept_Date":"2019-11-23 14"},"coordinates":[2316,7221]},{"type":"Point","properties":{"Station_ID":"NY-SR-22","Station_Nam":"GREENFIELD CENTER 1.6 W, NY","Latitude":"43.12684","Longitude":"-73.87860","Snowdepth":"3.000","Units":"in","Rept_Date":"2019-11-23 14"},"coordinates":[7360,5736]},{"type":"Point","properties":{"Station_ID":"NPTV1","Station_Nam":"NEWPORT","Latitude":"44.94900","Longitude":"-72.19120","Snowdepth":"3.000","Units":"in","Rept_Date":"2019-11-23 12"},"coordinates":[7892,6639]},{"type":"Point","properties":{"Station_ID":"NCKN6","Station_Nam":"NORTH CREEK 5 SE","Latitude":"43.66110","Longitude":"-73.89690","Snowdepth":"3.000","Units":"in","Rept_Date":"2019-11-23 12"},"coordinates":[7354,6001]},{"type":"Point","properties":{"Station_ID":"MN-CK-3","Station_Nam":"TOFTE 4.9 NE, MN","Latitude":"47.62394","Longitude":"-90.76100","Snowdepth":"3.000","Units":"in","Rept_Date":"2019-11-23 13"},"coordinates":[2038,7965]},{"type":"Point","properties":{"Station_ID":"MI-AT-6","Station_Nam":"MANCELONA 0.5 ESE, MI","Latitude":"44.89981","Longitude":"-85.05100","Snowdepth":"3.000","Units":"in","Rept_Date":"2019-11-23 13"},"coordinates":[3838,6615]},{"type":"Point","properties":{"Station_ID":"LVDW3","Station_Nam":"LAC VIEUX DESERT","Latitude":"46.12110","Longitude":"-89.07580","Snowdepth":"3.000","Units":"in","Rept_Date":"2019-11-23 14"},"coordinates":[2569,7220]},{"type":"Point","properties":{"Station_ID":"KFWA","Station_Nam":"FORT WAYNE INTERNATIONAL","Latitude":"41.00000","Longitude":"-85.20000","Snowdepth":"3.000","Units":"in","Rept_Date":"2019-11-24 06"},"coordinates":[3791,4681]},{"type":"Point","properties":{"Station_ID":"INL","Station_Nam":"FALLS INTERNATIONAL ARPT","Latitude":"48.56640","Longitude":"-93.40310","Snowdepth":"3.000","Units":"in","Rept_Date":"2019-11-24 00"},"coordinates":[1205,8432]},{"type":"Point","properties":{"Station_ID":"IFSM5","Station_Nam":"INTERNATIONAL FALLS SNOW","Latitude":"48.57780","Longitude":"-93.39640","Snowdepth":"3.000","Units":"in","Rept_Date":"2019-11-23 12"},"coordinates":[1207,8438]},{"type":"Point","properties":{"Station_ID":"FWA","Station_Nam":"FORT WAYNE INTERNATIONAL AIRPORT","Latitude":"40.97830","Longitude":"-85.19500","Snowdepth":"3.000","Units":"in","Rept_Date":"2019-11-24 06"},"coordinates":[3792,4671]},{"type":"Point","properties":{"Station_ID":"CAN-MB-63","Station_Nam":"STEINBACH 0.8 SSE, CA","Latitude":"49.51964","Longitude":"-96.67940","Snowdepth":"3.000","Units":"in","Rept_Date":"2019-11-23 13"},"coordinates":[172,8905]},{"type":"Point","properties":{"Station_ID":"MN-IT-11","Station_Nam":"NASHWAUK 11.5 N, MN","Latitude":"47.54496","Longitude":"-93.19420","Snowdepth":"2.700","Units":"in","Rept_Date":"2019-11-23 10"},"coordinates":[1271,7926]},{"type":"Point","properties":{"Station_ID":"VT-CL-14","Station_Nam":"LYNDONVILLE 1.1 W, VT","Latitude":"44.53582","Longitude":"-72.02867","Snowdepth":"2.500","Units":"in","Rept_Date":"2019-11-23 12"},"coordinates":[7943,6434]},{"type":"Point","properties":{"Station_ID":"VT-AD-24","Station_Nam":"MIDDLEBURY 0.3 N, VT","Latitude":"44.01808","Longitude":"-73.16844","Snowdepth":"2.500","Units":"in","Rept_Date":"2019-11-23 09"},"coordinates":[7584,6178]},{"type":"Point","properties":{"Station_ID":"NY-WR-10","Station_Nam":"WARRENSBURG 2.1 WNW, NY","Latitude":"43.51784","Longitude":"-73.81069","Snowdepth":"2.500","Units":"in","Rept_Date":"2019-11-23 13"},"coordinates":[7381,5930]},{"type":"Point","properties":{"Station_ID":"NH-GR-47","Station_Nam":"LITTLETON 7.3 W, NH","Latitude":"44.31847","Longitude":"-71.91086","Snowdepth":"2.500","Units":"in","Rept_Date":"2019-11-23 13"},"coordinates":[7980,6327]},{"type":"Point","properties":{"Station_ID":"KS-RL-48","Station_Nam":"MANHATTAN 3.0 W, KS","Latitude":"39.18569","Longitude":"-96.64659","Snowdepth":"2.500","Units":"in","Rept_Date":"2019-11-23 13"},"coordinates":[182,3782]},{"type":"Point","properties":{"Station_ID":"CAN-NB-97","Station_Nam":"NEW MARYLAND 0.6 NW, CAN","Latitude":"45.90112","Longitude":"-66.68739","Snowdepth":"2.400","Units":"in","Rept_Date":"2019-11-23 11"},"coordinates":[9627,7111]},{"type":"Point","properties":{"Station_ID":"KS-RL-51","Station_Nam":"MANHATTAN 7.0 WNW, KS","Latitude":"39.23548","Longitude":"-96.70729","Snowdepth":"2.300","Units":"in","Rept_Date":"2019-11-23 14"},"coordinates":[163,3807]},{"type":"Point","properties":{"Station_ID":"WI-BY-2","Station_Nam":"MELLEN 18.6 SW, WI","Latitude":"46.16937","Longitude":"-90.98090","Snowdepth":"2.200","Units":"in","Rept_Date":"2019-11-23 13"},"coordinates":[1968,7244]},{"type":"Point","properties":{"Station_ID":"CAN-QC-16","Station_Nam":"SAINT-ARMAND 3.6 W, CAN","Latitude":"45.02631","Longitude":"-73.08795","Snowdepth":"2.200","Units":"in","Rept_Date":"2019-11-23 12"},"coordinates":[7609,6677]},{"type":"Point","properties":{"Station_ID":"WI-BY-14","Station_Nam":"ASHLAND 9.8 W, WI","Latitude":"46.59742","Longitude":"-91.07856","Snowdepth":"2.000","Units":"in","Rept_Date":"2019-11-23 12"},"coordinates":[1938,7456]},{"type":"Point","properties":{"Station_ID":"VT-WS-19","Station_Nam":"WATERBURY 3.0 NW, VT","Latitude":"44.36060","Longitude":"-72.80770","Snowdepth":"2.000","Units":"in","Rept_Date":"2019-11-23 11"},"coordinates":[7697,6347]},{"type":"Point","properties":{"Station_ID":"VT-WR-2","Station_Nam":"POMFRET 2.6 N, VT","Latitude":"43.74230","Longitude":"-72.52550","Snowdepth":"2.000","Units":"in","Rept_Date":"2019-11-23 12"},"coordinates":[7786,6041]},{"type":"Point","properties":{"Station_ID":"VT-OG-11","Station_Nam":"VERSHIRE 1.5 ESE, VT","Latitude":"43.96138","Longitude":"-72.29777","Snowdepth":"2.000","Units":"in","Rept_Date":"2019-11-23 13"},"coordinates":[7858,6150]},{"type":"Point","properties":{"Station_ID":"VT-CL-40","Station_Nam":"LYNDONVILLE 4.2 NNW, VT","Latitude":"44.59440","Longitude":"-72.02389","Snowdepth":"2.000","Units":"in","Rept_Date":"2019-11-23 13"},"coordinates":[7945,6463]},{"type":"Point","properties":{"Station_ID":"VT-CL-23","Station_Nam":"RYEGATE 1.5 N, VT","Latitude":"44.23024","Longitude":"-72.10523","Snowdepth":"2.000","Units":"in","Rept_Date":"2019-11-23 12"},"coordinates":[7919,6283]},{"type":"Point","properties":{"Station_ID":"TX-LT-2","Station_Nam":"MEXIA 9.4 SSE, TX","Latitude":"31.55614","Longitude":"-96.42510","Snowdepth":"2.000","Units":"in","Rept_Date":"2019-11-23 13"},"coordinates":[252,0]},{"type":"Point","properties":{"Station_ID":"STGW3","Station_Nam":"ST GERMAIN","Latitude":"45.91550","Longitude":"-89.48940","Snowdepth":"2.000","Units":"in","Rept_Date":"2019-11-23 12"},"coordinates":[2439,7118]},{"type":"Point","properties":{"Station_ID":"SSMM4","Station_Nam":"SAULT STE MARIE","Latitude":"46.48660","Longitude":"-84.40250","Snowdepth":"2.000","Units":"in","Rept_Date":"2019-11-23 13"},"coordinates":[4042,7401]},{"type":"Point","properties":{"Station_ID":"SJBV1","Station_Nam":"SAINT JOHNSBURY","Latitude":"44.42000","Longitude":"-72.01940","Snowdepth":"2.000","Units":"in","Rept_Date":"2019-11-23 21"},"coordinates":[7946,6377]},{"type":"Point","properties":{"Station_ID":"RGNM1","Station_Nam":"RANGELEY 2NW","Latitude":"44.98940","Longitude":"-70.67220","Snowdepth":"2.000","Units":"in","Rept_Date":"2019-11-23 14"},"coordinates":[8371,6659]},{"type":"Point","properties":{"Station_ID":"RANM1","Station_Nam":"RANGELEY,ME","Latitude":"44.96670","Longitude":"-70.65000","Snowdepth":"2.000","Units":"in","Rept_Date":"2019-11-23 13"},"coordinates":[8378,6648]},{"type":"Point","properties":{"Station_ID":"PTBN3","Station_Nam":"DAM WITHIN","Latitude":"45.05000","Longitude":"-71.38330","Snowdepth":"2.000","Units":"in","Rept_Date":"2019-11-23 12"},"coordinates":[8146,6689]},{"type":"Point","properties":{"Station_ID":"PHEW3","Station_Nam":"PHELPS","Latitude":"46.06630","Longitude":"-89.07520","Snowdepth":"2.000","Units":"in","Rept_Date":"2019-11-23 13"},"coordinates":[2569,7193]},{"type":"Point","properties":{"Station_ID":"NUMN3","Station_Nam":"NORTHUMBERLAND","Latitude":"44.52830","Longitude":"-71.50440","Snowdepth":"2.000","Units":"in","Rept_Date":"2019-11-23 13"},"coordinates":[8108,6431]},{"type":"Point","properties":{"Station_ID":"NH-CS-10","Station_Nam":"RANDOLPH 1.4 NE, NH","Latitude":"44.38824","Longitude":"-71.26950","Snowdepth":"2.000","Units":"in","Rept_Date":"2019-11-23 12"},"coordinates":[8182,6361]},{"type":"Point","properties":{"Station_ID":"MN-IT-23","Station_Nam":"BOVEY 13.4 N, MN","Latitude":"47.48855","Longitude":"-93.43497","Snowdepth":"2.000","Units":"in","Rept_Date":"2019-11-23 13"},"coordinates":[1195,7898]},{"type":"Point","properties":{"Station_ID":"MIEM4","Station_Nam":"MICHIGAMME 3WNW","Latitude":"46.54530","Longitude":"-88.18000","Snowdepth":"2.000","Units":"in","Rept_Date":"2019-11-23 13"},"coordinates":[2851,7430]},{"type":"Point","properties":{"Station_ID":"MI-HG-1","Station_Nam":"HOUGHTON 1.6 ESE, MI","Latitude":"47.10774","Longitude":"-88.52940","Snowdepth":"2.000","Units":"in","Rept_Date":"2019-11-23 13"},"coordinates":[2741,7709]},{"type":"Point","properties":{"Station_ID":"MHTK1","Station_Nam":"MANHATTAN","Latitude":"39.19720","Longitude":"-96.58130","Snowdepth":"2.000","Units":"in","Rept_Date":"2019-11-23 13"},"coordinates":[203,3788]},{"type":"Point","properties":{"Station_ID":"ME-PN-45","Station_Nam":"MILLINOCKET 2.7 ESE, ME","Latitude":"45.65002","Longitude":"-68.64472","Snowdepth":"2.000","Units":"in","Rept_Date":"2019-11-23 12"},"coordinates":[9010,6987]},{"type":"Point","properties":{"Station_ID":"MALN6","Station_Nam":"MALONE","Latitude":"44.84180","Longitude":"-74.30600","Snowdepth":"2.000","Units":"in","Rept_Date":"2019-11-23 12"},"coordinates":[7225,6586]},{"type":"Point","properties":{"Station_ID":"LBKV1","Station_Nam":"LYE BROOK","Latitude":"43.05000","Longitude":"-73.03330","Snowdepth":"2.000","Units":"in","Rept_Date":"2019-11-24 06"},"coordinates":[7626,5698]},{"type":"Point","properties":{"Station_ID":"LAHI2","Station_Nam":"LA HARPE","Latitude":"40.58380","Longitude":"-90.96860","Snowdepth":"2.000","Units":"in","Rept_Date":"2019-11-23 14"},"coordinates":[1972,4475]},{"type":"Point","properties":{"Station_ID":"KSEM4","Station_Nam":"KALKASKA 11SE","Latitude":"44.58970","Longitude":"-85.04860","Snowdepth":"2.000","Units":"in","Rept_Date":"2019-11-23 13"},"coordinates":[3839,6461]},{"type":"Point","properties":{"Station_ID":"JKMM1","Station_Nam":"JACKMAN","Latitude":"45.62600","Longitude":"-70.24600","Snowdepth":"2.000","Units":"in","Rept_Date":"2019-11-23 12"},"coordinates":[8505,6975]},{"type":"Point","properties":{"Station_ID":"JEFN3","Station_Nam":"JEFFERSON","Latitude":"44.41690","Longitude":"-71.50080","Snowdepth":"2.000","Units":"in","Rept_Date":"2019-11-23 12"},"coordinates":[8109,6375]},{"type":"Point","properties":{"Station_ID":"ISLV1","Station_Nam":"ISLAND POND","Latitude":"44.81280","Longitude":"-71.89020","Snowdepth":"2.000","Units":"in","Rept_Date":"2019-11-23 14"},"coordinates":[7987,6572]},{"type":"Point","properties":{"Station_ID":"INDN6","Station_Nam":"INDIAN LAKE","Latitude":"43.75500","Longitude":"-74.27560","Snowdepth":"2.000","Units":"in","Rept_Date":"2019-11-23 13"},"coordinates":[7235,6047]},{"type":"Point","properties":{"Station_ID":"GFDN6","Station_Nam":"CHASE LAKE","Latitude":"43.75920","Longitude":"-75.29980","Snowdepth":"2.000","Units":"in","Rept_Date":"2019-11-23 11"},"coordinates":[6912,6049]},{"type":"Point","properties":{"Station_ID":"CORV1","Station_Nam":"CORINTH","Latitude":"44.00690","Longitude":"-72.31940","Snowdepth":"2.000","Units":"in","Rept_Date":"2019-11-23 12"},"coordinates":[7851,6172]},{"type":"Point","properties":{"Station_ID":"CMKW3","Station_Nam":"CLAM LAKE 4W","Latitude":"46.16940","Longitude":"-90.98080","Snowdepth":"2.000","Units":"in","Rept_Date":"2019-11-23 13"},"coordinates":[1968,7244]},{"type":"Point","properties":{"Station_ID":"CLKM4","Station_Nam":"CLARKSBURG","Latitude":"46.49910","Longitude":"-87.84500","Snowdepth":"2.000","Units":"in","Rept_Date":"2019-11-23 12"},"coordinates":[2957,7407]},{"type":"Point","properties":{"Station_ID":"CAN-NB-64","Station_Nam":"KESWICK RIDGE 4.0 SE, CAN","Latitude":"45.97014","Longitude":"-66.85538","Snowdepth":"2.000","Units":"in","Rept_Date":"2019-11-23 12"},"coordinates":[9574,7145]},{"type":"Point","properties":{"Station_ID":"CAN-NB-18","Station_Nam":"MCLEOD HILL 1.1 ENE, CA","Latitude":"46.02725","Longitude":"-66.67460","Snowdepth":"2.000","Units":"in","Rept_Date":"2019-11-23 12"},"coordinates":[9631,7174]},{"type":"Point","properties":{"Station_ID":"BAGM4","Station_Nam":"BARAGA 7NW","Latitude":"46.82100","Longitude":"-88.60590","Snowdepth":"2.000","Units":"in","Rept_Date":"2019-11-23 13"},"coordinates":[2717,7567]},{"type":"Point","properties":{"Station_ID":"ANJM4","Station_Nam":"SNOW PAID OBSERVER FOR KANJ","Latitude":"46.48670","Longitude":"-84.40260","Snowdepth":"2.000","Units":"in","Rept_Date":"2019-11-23 12"},"coordinates":[4042,7401]},{"type":"Point","properties":{"Station_ID":"ANJ","Station_Nam":"SAULT STE MARIE","Latitude":"46.46670","Longitude":"-84.36670","Snowdepth":"2.000","Units":"in","Rept_Date":"2019-11-24 00"},"coordinates":[4054,7391]},{"type":"Point","properties":{"Station_ID":"KS-WS-14","Station_Nam":"PALMER 6.9 SE, KS","Latitude":"39.56700","Longitude":"-97.04293","Snowdepth":"1.700","Units":"in","Rept_Date":"2019-11-23 13"},"coordinates":[57,3971]},{"type":"Point","properties":{"Station_ID":"WI-DG-20","Station_Nam":"SOLON SPRINGS 1.2 W, WI","Latitude":"46.35217","Longitude":"-91.84405","Snowdepth":"1.500","Units":"in","Rept_Date":"2019-11-23 13"},"coordinates":[1696,7335]},{"type":"Point","properties":{"Station_ID":"WI-BT-14","Station_Nam":"OAKLAND 9.0 ENE, WI","Latitude":"45.95184","Longitude":"-92.21653","Snowdepth":"1.500","Units":"in","Rept_Date":"2019-11-23 11"},"coordinates":[1579,7136]},{"type":"Point","properties":{"Station_ID":"VT-LM-7","Station_Nam":"HYDE PARK 2.9 NE, VT","Latitude":"44.62080","Longitude":"-72.57250","Snowdepth":"1.500","Units":"in","Rept_Date":"2019-11-23 13"},"coordinates":[7772,6476]},{"type":"Point","properties":{"Station_ID":"NY-SR-4","Station_Nam":"SARATOGA SPRINGS 0.5 S, NY","Latitude":"43.06032","Longitude":"-73.78010","Snowdepth":"1.500","Units":"in","Rept_Date":"2019-11-23 11"},"coordinates":[7391,5703]},{"type":"Point","properties":{"Station_ID":"NY-HR-18","Station_Nam":"SALISBURY CENTER 1.8 NW, NY","Latitude":"43.16260","Longitude":"-74.80880","Snowdepth":"1.500","Units":"in","Rept_Date":"2019-11-23 11"},"coordinates":[7067,5754]},{"type":"Point","properties":{"Station_ID":"NH-CS-4","Station_Nam":"PITTSBURG 6.1 NE, NH","Latitude":"45.11060","Longitude":"-71.29760","Snowdepth":"1.500","Units":"in","Rept_Date":"2019-11-23 12"},"coordinates":[8174,6719]},{"type":"Point","properties":{"Station_ID":"MN-SL-115","Station_Nam":"COTTON 5.7 ESE, MN","Latitude":"47.15142","Longitude":"-92.35772","Snowdepth":"1.500","Units":"in","Rept_Date":"2019-11-23 14"},"coordinates":[1534,7731]},{"type":"Point","properties":{"Station_ID":"KS-WS-13","Station_Nam":"PALMER 0.6 SSW, KS","Latitude":"39.62513","Longitude":"-97.14417","Snowdepth":"1.500","Units":"in","Rept_Date":"2019-11-23 13"},"coordinates":[25,4000]},{"type":"Point","properties":{"Station_ID":"KS-WS-12","Station_Nam":"MORROWVILLE 4.8 SSW, KS","Latitude":"39.78476","Longitude":"-97.21600","Snowdepth":"1.500","Units":"in","Rept_Date":"2019-11-23 13"},"coordinates":[3,4079]},{"type":"Point","properties":{"Station_ID":"KS-RL-16","Station_Nam":"RILEY 2.1 N, KS","Latitude":"39.32780","Longitude":"-96.83170","Snowdepth":"1.500","Units":"in","Rept_Date":"2019-11-23 14"},"coordinates":[124,3853]},{"type":"Point","properties":{"Station_ID":"IN-AD-11","Station_Nam":"BERNE 2.8 N, IN","Latitude":"40.69730","Longitude":"-84.95790","Snowdepth":"1.500","Units":"in","Rept_Date":"2019-11-23 23"},"coordinates":[3867,4531]},{"type":"Point","properties":{"Station_ID":"IL-HN-1","Station_Nam":"DALLAS CITY 3.0 SSE, IL","Latitude":"40.59383","Longitude":"-91.14670","Snowdepth":"1.400","Units":"in","Rept_Date":"2019-11-23 13"},"coordinates":[1916,4480]},{"type":"Point","properties":{"Station_ID":"KS-PT-21","Station_Nam":"WESTMORELAND 2.3 SE, KS","Latitude":"39.36774","Longitude":"-96.38830","Snowdepth":"1.200","Units":"in","Rept_Date":"2019-11-23 13"},"coordinates":[264,3872]},{"type":"Point","properties":{"Station_ID":"WRSM5","Station_Nam":"WRENSHALL","Latitude":"46.61550","Longitude":"-92.38380","Snowdepth":"1.000","Units":"in","Rept_Date":"2019-11-23 14"},"coordinates":[1526,7465]},{"type":"Point","properties":{"Station_ID":"WORV1","Station_Nam":"WORCESTER 2 W","Latitude":"44.37470","Longitude":"-72.58220","Snowdepth":"1.000","Units":"in","Rept_Date":"2019-11-23 12"},"coordinates":[7769,6354]},{"type":"Point","properties":{"Station_ID":"WMAK1","Station_Nam":"WASHINGTON","Latitude":"39.80880","Longitude":"-97.05500","Snowdepth":"1.000","Units":"in","Rept_Date":"2019-11-23 13"},"coordinates":[54,4091]},{"type":"Point","properties":{"Station_ID":"WAMK1","Station_Nam":"WAMEGO 4W","Latitude":"39.21430","Longitude":"-96.37020","Snowdepth":"1.000","Units":"in","Rept_Date":"2019-11-23 13"},"coordinates":[269,3796]},{"type":"Point","properties":{"Station_ID":"VT-WS-10","Station_Nam":"NORTHFIELD 1.5 N, VT","Latitude":"44.16986","Longitude":"-72.65200","Snowdepth":"1.000","Units":"in","Rept_Date":"2019-11-23 12"},"coordinates":[7747,6253]},{"type":"Point","properties":{"Station_ID":"VT-WR-17","Station_Nam":"ROCHESTER 2.3 NE, VT","Latitude":"43.89418","Longitude":"-72.76992","Snowdepth":"1.000","Units":"in","Rept_Date":"2019-11-23 12"},"coordinates":[7709,6116]},{"type":"Point","properties":{"Station_ID":"VT-RT-7","Station_Nam":"RUTLAND 1.2 N, VT","Latitude":"43.62533","Longitude":"-72.97790","Snowdepth":"1.000","Units":"in","Rept_Date":"2019-11-23 12"},"coordinates":[7644,5983]},{"type":"Point","properties":{"Station_ID":"VT-ES-3","Station_Nam":"LUNENBURG 2.3 NNW, VT","Latitude":"44.49324","Longitude":"-71.70446","Snowdepth":"1.000","Units":"in","Rept_Date":"2019-11-23 11"},"coordinates":[8045,6413]},{"type":"Point","properties":{"Station_ID":"TOPM1","Station_Nam":"TOPSFIELD","Latitude":"45.43470","Longitude":"-67.72020","Snowdepth":"1.000","Units":"in","Rept_Date":"2019-11-23 12"},"coordinates":[9301,6880]},{"type":"Point","properties":{"Station_ID":"RUTV1","Station_Nam":"RUTLAND","Latitude":"43.62530","Longitude":"-72.97810","Snowdepth":"1.000","Units":"in","Rept_Date":"2019-11-23 12"},"coordinates":[7644,5983]},{"type":"Point","properties":{"Station_ID":"ROWM3","Station_Nam":"ROWE 3NE","Latitude":"42.73500","Longitude":"-72.86920","Snowdepth":"1.000","Units":"in","Rept_Date":"2019-11-23 12"},"coordinates":[7678,5542]},{"type":"Point","properties":{"Station_ID":"PLFV1","Station_Nam":"PLAINFIELD","Latitude":"44.27610","Longitude":"-72.41500","Snowdepth":"1.000","Units":"in","Rept_Date":"2019-11-23 12"},"coordinates":[7821,6306]},{"type":"Point","properties":{"Station_ID":"PEKN6","Station_Nam":"PECK LAKE","Latitude":"43.11500","Longitude":"-74.42360","Snowdepth":"1.000","Units":"in","Rept_Date":"2019-11-23 13"},"coordinates":[7188,5730]},{"type":"Point","properties":{"Station_ID":"ORAN3","Station_Nam":"ORANGE","Latitude":"43.66880","Longitude":"-71.94830","Snowdepth":"1.000","Units":"in","Rept_Date":"2019-11-23 12"},"coordinates":[7968,6004]},{"type":"Point","properties":{"Station_ID":"NY-WS-8","Station_Nam":"GRANVILLE 9.5 SW, NY","Latitude":"43.31163","Longitude":"-73.39613","Snowdepth":"1.000","Units":"in","Rept_Date":"2019-11-23 14"},"coordinates":[7512,5827]},{"type":"Point","properties":{"Station_ID":"NSFN3","Station_Nam":"NORTH STRATFORD","Latitude":"44.68190","Longitude":"-71.58570","Snowdepth":"1.000","Units":"in","Rept_Date":"2019-11-23 12"},"coordinates":[8083,6507]},{"type":"Point","properties":{"Station_ID":"MWTM1","Station_Nam":"MILLINOCKET WWTP","Latitude":"45.64030","Longitude":"-68.67480","Snowdepth":"1.000","Units":"in","Rept_Date":"2019-11-23 12"},"coordinates":[9000,6982]},{"type":"Point","properties":{"Station_ID":"MRAM4","Station_Nam":"MORAN","Latitude":"45.99030","Longitude":"-84.83610","Snowdepth":"1.000","Units":"in","Rept_Date":"2019-11-23 13"},"coordinates":[3906,7155]},{"type":"Point","properties":{"Station_ID":"MQT","Station_Nam":"MARQUETTE, MI","Latitude":"46.53140","Longitude":"-87.54920","Snowdepth":"1.000","Units":"in","Rept_Date":"2019-11-24 06"},"coordinates":[3050,7424]},{"type":"Point","properties":{"Station_ID":"MN7M8EBJ","Station_Nam":"LUTSEN 15.7 NNW","Latitude":"47.85324","Longitude":"-89.92908","Snowdepth":"1.000","Units":"in","Rept_Date":"2019-11-23 14"},"coordinates":[2300,8079]},{"type":"Point","properties":{"Station_ID":"MN76ACVS","Station_Nam":"GRAND MARAIS 3.0 WNW","Latitude":"47.76602","Longitude":"-90.26427","Snowdepth":"1.000","Units":"in","Rept_Date":"2019-11-23 13"},"coordinates":[2194,8036]},{"type":"Point","properties":{"Station_ID":"MN6JKRHL","Station_Nam":"TOFTE 0.6 SSW","Latitude":"47.56557","Longitude":"-90.84117","Snowdepth":"1.000","Units":"in","Rept_Date":"2019-11-23 13"},"coordinates":[2012,7936]},{"type":"Point","properties":{"Station_ID":"MN-IT-7","Station_Nam":"GRAND RAPIDS 6.2 SSW, MN","Latitude":"47.13687","Longitude":"-93.56660","Snowdepth":"1.000","Units":"in","Rept_Date":"2019-11-23 12"},"coordinates":[1153,7724]},{"type":"Point","properties":{"Station_ID":"MN-IT-17","Station_Nam":"GRAND RAPIDS 6.1 N, MN","Latitude":"47.31165","Longitude":"-93.55036","Snowdepth":"1.000","Units":"in","Rept_Date":"2019-11-23 13"},"coordinates":[1158,7810]},{"type":"Point","properties":{"Station_ID":"MN-AT-5","Station_Nam":"TAMARACK 1.4 SW, MN","Latitude":"46.63760","Longitude":"-93.14554","Snowdepth":"1.000","Units":"in","Rept_Date":"2019-11-23 13"},"coordinates":[1286,7476]},{"type":"Point","properties":{"Station_ID":"MI-OT-17","Station_Nam":"GAYLORD 4.1 S, MI","Latitude":"44.96388","Longitude":"-84.68467","Snowdepth":"1.000","Units":"in","Rept_Date":"2019-11-23 12"},"coordinates":[3953,6646]},{"type":"Point","properties":{"Station_ID":"MI-EM-5","Station_Nam":"HARBOR SPRINGS 0.7 ENE, MI","Latitude":"45.43450","Longitude":"-84.97540","Snowdepth":"1.000","Units":"in","Rept_Date":"2019-11-23 12"},"coordinates":[3862,6880]},{"type":"Point","properties":{"Station_ID":"ME-SM-10","Station_Nam":"NORTH NEW PORTLAND 0.3 WSW, ME","Latitude":"44.92353","Longitude":"-70.02788","Snowdepth":"1.000","Units":"in","Rept_Date":"2019-11-23 12"},"coordinates":[8574,6626]},{"type":"Point","properties":{"Station_ID":"ME-FR-4","Station_Nam":"NEW SHARON 2.0 NW, ME","Latitude":"44.66582","Longitude":"-70.02720","Snowdepth":"1.000","Units":"in","Rept_Date":"2019-11-23 12"},"coordinates":[8574,6499]},{"type":"Point","properties":{"Station_ID":"ME-FR-22","Station_Nam":"FARMINGTON 4.8 NNW, ME","Latitude":"44.73396","Longitude":"-70.18007","Snowdepth":"1.000","Units":"in","Rept_Date":"2019-11-23 14"},"coordinates":[8526,6532]},{"type":"Point","properties":{"Station_ID":"MAPM4","Station_Nam":"MAPLE CITY 1E","Latitude":"44.85500","Longitude":"-85.83520","Snowdepth":"1.000","Units":"in","Rept_Date":"2019-11-24 02"},"coordinates":[3591,6592]},{"type":"Point","properties":{"Station_ID":"MAIW3","Station_Nam":"MADELINE ISLAND","Latitude":"46.78330","Longitude":"-90.76670","Snowdepth":"1.000","Units":"in","Rept_Date":"2019-11-23 14"},"coordinates":[2036,7548]},{"type":"Point","properties":{"Station_ID":"LNCM1","Station_Nam":"LINCOLN WATER DISTRICT","Latitude":"45.32410","Longitude":"-68.58300","Snowdepth":"1.000","Units":"in","Rept_Date":"2019-11-23 12"},"coordinates":[9029,6825]},{"type":"Point","properties":{"Station_ID":"KS-DK-47","Station_Nam":"ABILENE 10.3 S, KS","Latitude":"38.77095","Longitude":"-97.22497","Snowdepth":"1.000","Units":"in","Rept_Date":"2019-11-23 13"},"coordinates":[0,3577]},{"type":"Point","properties":{"Station_ID":"KISM4","Station_Nam":"K.I. SAWYER WWTP","Latitude":"46.33410","Longitude":"-87.37790","Snowdepth":"1.000","Units":"in","Rept_Date":"2019-11-23 13"},"coordinates":[3104,7326]},{"type":"Point","properties":{"Station_ID":"KGFK","Station_Nam":"GRAND FORKS INTERNATIONAL","Latitude":"47.95000","Longitude":"-97.18333","Snowdepth":"1.000","Units":"in","Rept_Date":"2019-11-24 06"},"coordinates":[13,8127]},{"type":"Point","properties":{"Station_ID":"KDAY","Station_Nam":"COX DAYTON INTERNATIONAL","Latitude":"39.90000","Longitude":"-84.21666","Snowdepth":"1.000","Units":"in","Rept_Date":"2019-11-24 06"},"coordinates":[4101,4136]},{"type":"Point","properties":{"Station_ID":"JCBM4","Station_Nam":"JACOBSVILLE","Latitude":"47.00830","Longitude":"-88.43180","Snowdepth":"1.000","Units":"in","Rept_Date":"2019-11-23 12"},"coordinates":[2772,7660]},{"type":"Point","properties":{"Station_ID":"ILIM5","Station_Nam":"ISLAND LAKE","Latitude":"47.02400","Longitude":"-92.07000","Snowdepth":"1.000","Units":"in","Rept_Date":"2019-11-23 15"},"coordinates":[1625,7668]},{"type":"Point","properties":{"Station_ID":"HLBK1","Station_Nam":"HILLSBORO","Latitude":"38.35690","Longitude":"-97.20250","Snowdepth":"1.000","Units":"in","Rept_Date":"2019-11-23 14"},"coordinates":[7,3371]},{"type":"Point","properties":{"Station_ID":"GRFN8","Station_Nam":"UNIVERSITY","Latitude":"47.93330","Longitude":"-97.08330","Snowdepth":"1.000","Units":"in","Rept_Date":"2019-11-24 06"},"coordinates":[45,8118]},{"type":"Point","properties":{"Station_ID":"GRBM5","Station_Nam":"GRAND RAPIDS 12N","Latitude":"47.39800","Longitude":"-93.51330","Snowdepth":"1.000","Units":"in","Rept_Date":"2019-11-23 14"},"coordinates":[1170,7853]},{"type":"Point","properties":{"Station_ID":"GGRM4","Station_Nam":"GREEN GARDEN NO.2","Latitude":"46.45330","Longitude":"-87.30380","Snowdepth":"1.000","Units":"in","Rept_Date":"2019-11-23 13"},"coordinates":[3128,7385]},{"type":"Point","properties":{"Station_ID":"GFK","Station_Nam":"GRAND FORKS INTERNATIONAL AIRPORT","Latitude":"47.94920","Longitude":"-97.17610","Snowdepth":"1.000","Units":"in","Rept_Date":"2019-11-24 00"},"coordinates":[15,8126]},{"type":"Point","properties":{"Station_ID":"FRVK1","Station_Nam":"FAIRVIEW","Latitude":"39.83490","Longitude":"-95.72290","Snowdepth":"1.000","Units":"in","Rept_Date":"2019-11-23 14"},"coordinates":[474,4104]},{"type":"Point","properties":{"Station_ID":"FLDM5","Station_Nam":"FLOODWOOD,MN","Latitude":"47.00000","Longitude":"-92.91670","Snowdepth":"1.000","Units":"in","Rept_Date":"2019-11-23 14"},"coordinates":[1358,7656]},{"type":"Point","properties":{"Station_ID":"EVRW3","Station_Nam":"EAGLE RIVER-4 E","Latitude":"45.91890","Longitude":"-89.15280","Snowdepth":"1.000","Units":"in","Rept_Date":"2019-11-23 13"},"coordinates":[2545,7120]},{"type":"Point","properties":{"Station_ID":"ESGM1","Station_Nam":"EAST SANGERVILLE","Latitude":"45.13690","Longitude":"-69.28060","Snowdepth":"1.000","Units":"in","Rept_Date":"2019-11-23 12"},"coordinates":[8809,6732]},{"type":"Point","properties":{"Station_ID":"DLHM5","Station_Nam":"DULUTH NWS","Latitude":"46.83680","Longitude":"-92.21080","Snowdepth":"1.000","Units":"in","Rept_Date":"2019-11-24 06"},"coordinates":[1581,7575]},{"type":"Point","properties":{"Station_ID":"DLH","Station_Nam":"DULUTH, MN","Latitude":"46.83690","Longitude":"-92.21030","Snowdepth":"1.000","Units":"in","Rept_Date":"2019-11-24 00"},"coordinates":[1581,7575]},{"type":"Point","properties":{"Station_ID":"DFXM1","Station_Nam":"DOVER-FOXCROFT","Latitude":"45.18720","Longitude":"-69.18350","Snowdepth":"1.000","Units":"in","Rept_Date":"2019-11-23 12"},"coordinates":[8840,6757]},{"type":"Point","properties":{"Station_ID":"COUW3","Station_Nam":"COUDERAY,WI","Latitude":"45.86670","Longitude":"-91.45000","Snowdepth":"1.000","Units":"in","Rept_Date":"2019-11-23 22"},"coordinates":[1821,7094]},{"type":"Point","properties":{"Station_ID":"COTM5","Station_Nam":"COTTON","Latitude":"47.16870","Longitude":"-92.46290","Snowdepth":"1.000","Units":"in","Rept_Date":"2019-11-23 13"},"coordinates":[1501,7739]},{"type":"Point","properties":{"Station_ID":"CORM1","Station_Nam":"CORINNA","Latitude":"44.91980","Longitude":"-69.24180","Snowdepth":"1.000","Units":"in","Rept_Date":"2019-11-23 13"},"coordinates":[8822,6625]},{"type":"Point","properties":{"Station_ID":"CCRK1","Station_Nam":"CLAY CENTER","Latitude":"39.37390","Longitude":"-97.12740","Snowdepth":"1.000","Units":"in","Rept_Date":"2019-11-23 13"},"coordinates":[31,3875]},{"type":"Point","properties":{"Station_ID":"CAN-ON-118","Station_Nam":"DURHAM 1.4 S, CAN","Latitude":"44.16525","Longitude":"-80.82064","Snowdepth":"1.000","Units":"in","Rept_Date":"2019-11-23 12"},"coordinates":[5171,6251]},{"type":"Point","properties":{"Station_ID":"BTYI2","Station_Nam":"BENTLEY","Latitude":"40.34440","Longitude":"-91.11240","Snowdepth":"1.000","Units":"in","Rept_Date":"2019-11-23 12"},"coordinates":[1927,4356]},{"type":"Point","properties":{"Station_ID":"BRMK1","Station_Nam":"BREMEN 1 E","Latitude":"39.90280","Longitude":"-96.76840","Snowdepth":"1.000","Units":"in","Rept_Date":"2019-11-23 13"},"coordinates":[144,4138]},{"type":"Point","properties":{"Station_ID":"BLNK1","Station_Nam":"BLAINE","Latitude":"39.49880","Longitude":"-96.40250","Snowdepth":"1.000","Units":"in","Rept_Date":"2019-11-23 14"},"coordinates":[259,3937]},{"type":"Point","properties":{"Station_ID":"BEAK1","Station_Nam":"BEATTIE 2NNW","Latitude":"39.89660","Longitude":"-96.42500","Snowdepth":"1.000","Units":"in","Rept_Date":"2019-11-23 14"},"coordinates":[252,4135]},{"type":"Point","properties":{"Station_ID":"AWXW3","Station_Nam":"ASHLAND","Latitude":"46.58240","Longitude":"-90.88390","Snowdepth":"1.000","Units":"in","Rept_Date":"2019-11-23 13"},"coordinates":[1999,7449]},{"type":"Point","properties":{"Station_ID":"AVTW3","Station_Nam":"ARBOR VITAE-JOHNSON LAKE","Latitude":"45.89940","Longitude":"-89.72670","Snowdepth":"1.000","Units":"in","Rept_Date":"2019-11-23 12"},"coordinates":[2364,7110]},{"type":"Point","properties":{"Station_ID":"APXM4","Station_Nam":"GAYLORD 9SSW","Latitude":"44.90720","Longitude":"-84.71880","Snowdepth":"1.000","Units":"in","Rept_Date":"2019-11-24 05"},"coordinates":[3943,6618]},{"type":"Point","properties":{"Station_ID":"AHNI2","Station_Nam":"ATHENS 4SW","Latitude":"39.92750","Longitude":"-89.79640","Snowdepth":"1.000","Units":"in","Rept_Date":"2019-11-23 13"},"coordinates":[2342,4150]}]}},"arcs":[],"transform":{"scale":[0.0031721242124212413,0.0020172777277727774],"translate":[-97.22497,31.55614]}}