{"type":"Topology","objects":{"snowdepth_geo":{"type":"GeometryCollection","name":"snowdepth","crs":{"type":"name","properties":{"name":"urn:ogc:def:crs:OGC:1.3:CRS84"}},"geometries":[{"type":"Point","properties":{"Station_ID":"MMSV1","Station_Nam":"MOUNT MANSFIELD","Latitude":"44.53330","Longitude":"-72.83330","Snowdepth":"81.000","Units":"in","Rept_Date":"2019-12-23 05"},"coordinates":[5728,5524]},{"type":"Point","properties":{"Station_ID":"PRKM4","Station_Nam":"MUNISING EAST","Latitude":"46.42580","Longitude":"-86.62000","Snowdepth":"76.500","Units":"in","Rept_Date":"2019-12-23 06"},"coordinates":[2492,6701]},{"type":"Point","properties":{"Station_ID":"OGIQ6","Station_Nam":"OGOKI CAMP","Latitude":"50.76680","Longitude":"-87.85820","Snowdepth":"61.100","Units":"in","Rept_Date":"2019-12-23 06"},"coordinates":[2202,9402]},{"type":"Point","properties":{"Station_ID":"DVLQ6","Station_Nam":"DEVIOUS LAKE","Latitude":"49.19890","Longitude":"-87.76440","Snowdepth":"43.460","Units":"in","Rept_Date":"2019-12-23 06"},"coordinates":[2224,8426]},{"type":"Point","properties":{"Station_ID":"HURW3","Station_Nam":"HURLEY","Latitude":"46.46250","Longitude":"-90.19550","Snowdepth":"36.000","Units":"in","Rept_Date":"2019-12-22 14"},"coordinates":[1653,6724]},{"type":"Point","properties":{"Station_ID":"PDLM4","Station_Nam":"PAINESDALE","Latitude":"47.04160","Longitude":"-88.67170","Snowdepth":"34.000","Units":"in","Rept_Date":"2019-12-22 13"},"coordinates":[2011,7084]},{"type":"Point","properties":{"Station_ID":"LVDW3","Station_Nam":"LAC VIEUX DESERT","Latitude":"46.12110","Longitude":"-89.07580","Snowdepth":"30.000","Units":"in","Rept_Date":"2019-12-22 15"},"coordinates":[1916,6511]},{"type":"Point","properties":{"Station_ID":"GMSM4","Station_Nam":"GRAND MARAIS 10S","Latitude":"46.50940","Longitude":"-85.96310","Snowdepth":"29.000","Units":"in","Rept_Date":"2019-12-22 12"},"coordinates":[2646,6753]},{"type":"Point","properties":{"Station_ID":"HTLN3","Station_Nam":"HERMIT LAKE SNOWPLOT","Latitude":"44.26130","Longitude":"-71.28330","Snowdepth":"27.000","Units":"in","Rept_Date":"2019-12-22 10"},"coordinates":[6092,5354]},{"type":"Point","properties":{"Station_ID":"QGO","Station_Nam":"QGO","Latitude":"48.85500","Longitude":"-74.20640","Snowdepth":"26.653","Units":"in","Rept_Date":"2019-12-22 12"},"coordinates":[5405,8212]},{"type":"Point","properties":{"Station_ID":"WI-FL-3","Station_Nam":"FLORENCE 0.7 ESE, WI","Latitude":"45.91760","Longitude":"-88.23900","Snowdepth":"26.000","Units":"in","Rept_Date":"2019-12-22 12"},"coordinates":[2112,6385]},{"type":"Point","properties":{"Station_ID":"PHEW3","Station_Nam":"PHELPS","Latitude":"46.06630","Longitude":"-89.07520","Snowdepth":"26.000","Units":"in","Rept_Date":"2019-12-22 13"},"coordinates":[1916,6477]},{"type":"Point","properties":{"Station_ID":"BERM4","Station_Nam":"BERGLAND DAM","Latitude":"46.58690","Longitude":"-89.54750","Snowdepth":"26.000","Units":"in","Rept_Date":"2019-12-22 13"},"coordinates":[1805,6801]},{"type":"Point","properties":{"Station_ID":"MI-BG-3","Station_Nam":"L'ANSE 17.8 SE, MI","Latitude":"46.55730","Longitude":"-88.20770","Snowdepth":"25.500","Units":"in","Rept_Date":"2019-12-22 13"},"coordinates":[2119,6783]},{"type":"Point","properties":{"Station_ID":"QNCM4","Station_Nam":"QUINCY HILL","Latitude":"47.13640","Longitude":"-88.57950","Snowdepth":"25.000","Units":"in","Rept_Date":"2019-12-22 12"},"coordinates":[2032,7143]},{"type":"Point","properties":{"Station_ID":"IBLM5","Station_Nam":"ISABELLA 14W","Latitude":"47.59360","Longitude":"-91.65140","Snowdepth":"25.000","Units":"in","Rept_Date":"2019-12-22 15"},"coordinates":[1311,7428]},{"type":"Point","properties":{"Station_ID":"WLFM5","Station_Nam":"WOLF RIDGE ENVIRON LEARNING CENTER","Latitude":"47.38240","Longitude":"-91.19730","Snowdepth":"24.000","Units":"in","Rept_Date":"2019-12-22 13"},"coordinates":[1418,7296]},{"type":"Point","properties":{"Station_ID":"MQT","Station_Nam":"MARQUETTE, MI","Latitude":"46.53140","Longitude":"-87.54920","Snowdepth":"24.000","Units":"in","Rept_Date":"2019-12-23 06"},"coordinates":[2274,6767]},{"type":"Point","properties":{"Station_ID":"QLB","Station_Nam":"QLB","Latitude":"50.72360","Longitude":"-75.10000","Snowdepth":"23.779","Units":"in","Rept_Date":"2019-12-22 12"},"coordinates":[5196,9375]},{"type":"Point","properties":{"Station_ID":"QOU","Station_Nam":"QOU","Latitude":"50.79250","Longitude":"-69.67470","Snowdepth":"23.701","Units":"in","Rept_Date":"2019-12-22 12"},"coordinates":[6469,9418]},{"type":"Point","properties":{"Station_ID":"WRSM5","Station_Nam":"WRENSHALL","Latitude":"46.61550","Longitude":"-92.38380","Snowdepth":"23.000","Units":"in","Rept_Date":"2019-12-22 14"},"coordinates":[1139,6819]},{"type":"Point","properties":{"Station_ID":"QCU","Station_Nam":"QCU","Latitude":"47.82750","Longitude":"-76.59830","Snowdepth":"22.756","Units":"in","Rept_Date":"2019-12-22 12"},"coordinates":[4844,7573]},{"type":"Point","properties":{"Station_ID":"NWCM4","Station_Nam":"NEWBERRY CITY","Latitude":"46.35720","Longitude":"-85.51780","Snowdepth":"22.000","Units":"in","Rept_Date":"2019-12-22 12"},"coordinates":[2751,6658]},{"type":"Point","properties":{"Station_ID":"MNSM4","Station_Nam":"MUNISING","Latitude":"46.41210","Longitude":"-86.66250","Snowdepth":"22.000","Units":"in","Rept_Date":"2019-12-22 11"},"coordinates":[2482,6692]},{"type":"Point","properties":{"Station_ID":"MAIW3","Station_Nam":"MADELINE ISLAND","Latitude":"46.78330","Longitude":"-90.76670","Snowdepth":"22.000","Units":"in","Rept_Date":"2019-12-22 14"},"coordinates":[1519,6923]},{"type":"Point","properties":{"Station_ID":"KISM4","Station_Nam":"K.I. SAWYER WWTP","Latitude":"46.33410","Longitude":"-87.37790","Snowdepth":"22.000","Units":"in","Rept_Date":"2019-12-22 13"},"coordinates":[2314,6644]},{"type":"Point","properties":{"Station_ID":"IWOM4","Station_Nam":"IRONWOOD#2","Latitude":"46.46520","Longitude":"-90.13820","Snowdepth":"22.000","Units":"in","Rept_Date":"2019-12-22 13"},"coordinates":[1666,6725]},{"type":"Point","properties":{"Station_ID":"GNLM4","Station_Nam":"GREENLAND 6N","Latitude":"46.87360","Longitude":"-89.10060","Snowdepth":"22.000","Units":"in","Rept_Date":"2019-12-22 13"},"coordinates":[1910,6980]},{"type":"Point","properties":{"Station_ID":"QMD","Station_Nam":"QMD","Latitude":"49.29060","Longitude":"-75.84500","Snowdepth":"21.890","Units":"in","Rept_Date":"2019-12-22 12"},"coordinates":[5021,8483]},{"type":"Point","properties":{"Station_ID":"QGD","Station_Nam":"QGD","Latitude":"51.11140","Longitude":"-67.13940","Snowdepth":"21.496","Units":"in","Rept_Date":"2019-12-22 12"},"coordinates":[7064,9616]},{"type":"Point","properties":{"Station_ID":"MLZ","Station_Nam":"MLZ","Latitude":"50.66170","Longitude":"-68.82360","Snowdepth":"20.984","Units":"in","Rept_Date":"2019-12-22 12"},"coordinates":[6669,9336]},{"type":"Point","properties":{"Station_ID":"WI-WB-2","Station_Nam":"STONE LAKE 2.0 NW, WI","Latitude":"45.85960","Longitude":"-91.57710","Snowdepth":"20.000","Units":"in","Rept_Date":"2019-12-22 13"},"coordinates":[1329,6349]},{"type":"Point","properties":{"Station_ID":"STGW3","Station_Nam":"ST GERMAIN","Latitude":"45.91550","Longitude":"-89.48940","Snowdepth":"20.000","Units":"in","Rept_Date":"2019-12-22 12"},"coordinates":[1819,6383]},{"type":"Point","properties":{"Station_ID":"PDGM4","Station_Nam":"PAULDING","Latitude":"46.39760","Longitude":"-89.17940","Snowdepth":"20.000","Units":"in","Rept_Date":"2019-12-22 14"},"coordinates":[1891,6683]},{"type":"Point","properties":{"Station_ID":"MN4DC1DW","Station_Nam":"FOUR CORNERS 3.6 E","Latitude":"46.84373","Longitude":"-92.20633","Snowdepth":"20.000","Units":"in","Rept_Date":"2019-12-22 12"},"coordinates":[1181,6961]},{"type":"Point","properties":{"Station_ID":"MA-MD-125","Station_Nam":"TEWKSBURY 3.6 SSE, MA","Latitude":"42.57083","Longitude":"-71.19813","Snowdepth":"20.000","Units":"in","Rept_Date":"2019-12-22 12"},"coordinates":[6112,4303]},{"type":"Point","properties":{"Station_ID":"LNOW3","Station_Nam":"LAND O LAKES","Latitude":"46.19000","Longitude":"-89.45700","Snowdepth":"20.000","Units":"in","Rept_Date":"2019-12-22 14"},"coordinates":[1826,6554]},{"type":"Point","properties":{"Station_ID":"ILIM5","Station_Nam":"ISLAND LAKE","Latitude":"47.02400","Longitude":"-92.07000","Snowdepth":"20.000","Units":"in","Rept_Date":"2019-12-22 15"},"coordinates":[1213,7073]},{"type":"Point","properties":{"Station_ID":"HVCN3","Station_Nam":"HARVARD CABIN SNOWPLOT","Latitude":"44.26630","Longitude":"-71.27790","Snowdepth":"20.000","Units":"in","Rept_Date":"2019-12-22 10"},"coordinates":[6093,5357]},{"type":"Point","properties":{"Station_ID":"DLH","Station_Nam":"DULUTH, MN","Latitude":"46.83690","Longitude":"-92.21030","Snowdepth":"20.000","Units":"in","Rept_Date":"2019-12-23 00"},"coordinates":[1180,6957]},{"type":"Point","properties":{"Station_ID":"QFT","Station_Nam":"QFT","Latitude":"50.83280","Longitude":"-74.40390","Snowdepth":"19.842","Units":"in","Rept_Date":"2019-12-22 12"},"coordinates":[5359,9443]},{"type":"Point","properties":{"Station_ID":"WI-VL-9","Station_Nam":"LAND O' LAKES 11.7 W, WI","Latitude":"46.19023","Longitude":"-89.45790","Snowdepth":"19.500","Units":"in","Rept_Date":"2019-12-22 14"},"coordinates":[1826,6554]},{"type":"Point","properties":{"Station_ID":"WI-BY-14","Station_Nam":"ASHLAND 9.8 W, WI","Latitude":"46.59742","Longitude":"-91.07856","Snowdepth":"19.500","Units":"in","Rept_Date":"2019-12-22 12"},"coordinates":[1446,6808]},{"type":"Point","properties":{"Station_ID":"MN-SL-18","Station_Nam":"DULUTH 1.4 NNW, MN","Latitude":"46.80321","Longitude":"-92.11240","Snowdepth":"19.500","Units":"in","Rept_Date":"2019-12-22 14"},"coordinates":[1203,6936]},{"type":"Point","properties":{"Station_ID":"WI-VL-10","Station_Nam":"LAND O LAKES 4.3 WNW, WI","Latitude":"46.17440","Longitude":"-89.30380","Snowdepth":"19.000","Units":"in","Rept_Date":"2019-12-22 13"},"coordinates":[1862,6545]},{"type":"Point","properties":{"Station_ID":"WI-BY-2","Station_Nam":"MELLEN 18.6 SW, WI","Latitude":"46.16937","Longitude":"-90.98090","Snowdepth":"19.000","Units":"in","Rept_Date":"2019-12-22 13"},"coordinates":[1469,6541]},{"type":"Point","properties":{"Station_ID":"DLHM5","Station_Nam":"DULUTH NWS","Latitude":"46.83680","Longitude":"-92.21080","Snowdepth":"19.000","Units":"in","Rept_Date":"2019-12-23 06"},"coordinates":[1180,6957]},{"type":"Point","properties":{"Station_ID":"CRVW3","Station_Nam":"CRIVITZ HIGH FALLS","Latitude":"45.35750","Longitude":"-88.19190","Snowdepth":"19.000","Units":"in","Rept_Date":"2019-12-22 13"},"coordinates":[2123,6036]},{"type":"Point","properties":{"Station_ID":"CMKW3","Station_Nam":"CLAM LAKE 4W","Latitude":"46.16940","Longitude":"-90.98080","Snowdepth":"19.000","Units":"in","Rept_Date":"2019-12-22 13"},"coordinates":[1469,6541]},{"type":"Point","properties":{"Station_ID":"BBEM4","Station_Nam":"BIG BAY 9SW","Latitude":"46.74620","Longitude":"-87.88160","Snowdepth":"19.000","Units":"in","Rept_Date":"2019-12-22 13"},"coordinates":[2196,6900]},{"type":"Point","properties":{"Station_ID":"ASTW3","Station_Nam":"ATHELSTANE","Latitude":"45.42500","Longitude":"-88.05750","Snowdepth":"19.000","Units":"in","Rept_Date":"2019-12-22 12"},"coordinates":[2155,6078]},{"type":"Point","properties":{"Station_ID":"WI-AS-4","Station_Nam":"ASHLAND 0.5 WNW, WI","Latitude":"46.58240","Longitude":"-90.88390","Snowdepth":"18.000","Units":"in","Rept_Date":"2019-12-22 13"},"coordinates":[1491,6798]},{"type":"Point","properties":{"Station_ID":"MMNV1","Station_Nam":"MT. MANSFIELD","Latitude":"44.52480","Longitude":"-72.81540","Snowdepth":"18.000","Units":"in","Rept_Date":"2019-12-22 21"},"coordinates":[5732,5518]},{"type":"Point","properties":{"Station_ID":"MI-MQ-19","Station_Nam":"ISHPEMING 7.2 SW, MI","Latitude":"46.40550","Longitude":"-87.75670","Snowdepth":"18.000","Units":"in","Rept_Date":"2019-12-22 11"},"coordinates":[2225,6688]},{"type":"Point","properties":{"Station_ID":"HERM4","Station_Nam":"HERMAN,MI","Latitude":"46.65000","Longitude":"-88.33330","Snowdepth":"18.000","Units":"in","Rept_Date":"2019-12-22 13"},"coordinates":[2090,6840]},{"type":"Point","properties":{"Station_ID":"EVRW3","Station_Nam":"EAGLE RIVER-4 E","Latitude":"45.91890","Longitude":"-89.15280","Snowdepth":"18.000","Units":"in","Rept_Date":"2019-12-22 14"},"coordinates":[1898,6386]},{"type":"Point","properties":{"Station_ID":"EGRW3","Station_Nam":"EAGLE RIVER-SOUTH","Latitude":"45.91360","Longitude":"-89.24360","Snowdepth":"18.000","Units":"in","Rept_Date":"2019-12-22 13"},"coordinates":[1876,6382]},{"type":"Point","properties":{"Station_ID":"CLKM4","Station_Nam":"CLARKSBURG","Latitude":"46.49910","Longitude":"-87.84500","Snowdepth":"18.000","Units":"in","Rept_Date":"2019-12-22 12"},"coordinates":[2205,6747]},{"type":"Point","properties":{"Station_ID":"BABM5","Station_Nam":"BABBITT","Latitude":"47.71210","Longitude":"-91.95330","Snowdepth":"18.000","Units":"in","Rept_Date":"2019-12-22 13"},"coordinates":[1240,7501]},{"type":"Point","properties":{"Station_ID":"AWXW3","Station_Nam":"ASHLAND","Latitude":"46.58240","Longitude":"-90.88390","Snowdepth":"18.000","Units":"in","Rept_Date":"2019-12-22 13"},"coordinates":[1491,6798]},{"type":"Point","properties":{"Station_ID":"QCX","Station_Nam":"QCX","Latitude":"51.32830","Longitude":"-70.08060","Snowdepth":"17.283","Units":"in","Rept_Date":"2019-12-22 12"},"coordinates":[6374,9751]},{"type":"Point","properties":{"Station_ID":"WTRM4","Station_Nam":"WATERSMEET 12WSW","Latitude":"46.22310","Longitude":"-89.40850","Snowdepth":"17.000","Units":"in","Rept_Date":"2019-12-22 12"},"coordinates":[1838,6575]},{"type":"Point","properties":{"Station_ID":"WI-VL-14","Station_Nam":"BOULDER JUNCTION 1.4 NE, WI","Latitude":"46.12840","Longitude":"-89.62470","Snowdepth":"17.000","Units":"in","Rept_Date":"2019-12-22 13"},"coordinates":[1787,6516]},{"type":"Point","properties":{"Station_ID":"SUAW3","Station_Nam":"SUAMICO","Latitude":"44.60190","Longitude":"-88.09780","Snowdepth":"17.000","Units":"in","Rept_Date":"2019-12-22 12"},"coordinates":[2145,5566]},{"type":"Point","properties":{"Station_ID":"GLDM4","Station_Nam":"GLADSTONE NO. 2","Latitude":"45.84330","Longitude":"-87.03910","Snowdepth":"17.000","Units":"in","Rept_Date":"2019-12-22 12"},"coordinates":[2394,6339]},{"type":"Point","properties":{"Station_ID":"GGRM4","Station_Nam":"GREEN GARDEN NO.2","Latitude":"46.45330","Longitude":"-87.30380","Snowdepth":"17.000","Units":"in","Rept_Date":"2019-12-22 13"},"coordinates":[2332,6718]},{"type":"Point","properties":{"Station_ID":"CLGM5","Station_Nam":"COLLEGEVILLE ST JOHN","Latitude":"45.57940","Longitude":"-94.39200","Snowdepth":"17.000","Units":"in","Rept_Date":"2019-12-23 00"},"coordinates":[668,6174]},{"type":"Point","properties":{"Station_ID":"QYR","Station_Nam":"QYR","Latitude":"48.87220","Longitude":"-75.61470","Snowdepth":"16.968","Units":"in","Rept_Date":"2019-12-22 12"},"coordinates":[5075,8223]},{"type":"Point","properties":{"Station_ID":"WI-BY-6","Station_Nam":"BARNES 2.2 S, WI","Latitude":"46.30264","Longitude":"-91.50320","Snowdepth":"16.500","Units":"in","Rept_Date":"2019-12-22 13"},"coordinates":[1346,6624]},{"type":"Point","properties":{"Station_ID":"MI-HG-1","Station_Nam":"HOUGHTON 1.6 ESE, MI","Latitude":"47.10774","Longitude":"-88.52940","Snowdepth":"16.500","Units":"in","Rept_Date":"2019-12-22 13"},"coordinates":[2044,7125]},{"type":"Point","properties":{"Station_ID":"STMM4","Station_Nam":"STAMBAUGH 2SSE","Latitude":"46.05550","Longitude":"-88.62780","Snowdepth":"16.000","Units":"in","Rept_Date":"2019-12-22 13"},"coordinates":[2021,6471]},{"type":"Point","properties":{"Station_ID":"RLKW3","Station_Nam":"REST LAKE","Latitude":"46.12220","Longitude":"-89.87720","Snowdepth":"16.000","Units":"in","Rept_Date":"2019-12-22 14"},"coordinates":[1728,6512]},{"type":"Point","properties":{"Station_ID":"RHIW3","Station_Nam":"RHINELANDER","Latitude":"45.59860","Longitude":"-89.45080","Snowdepth":"16.000","Units":"in","Rept_Date":"2019-12-22 13"},"coordinates":[1828,6186]},{"type":"Point","properties":{"Station_ID":"MFU","Station_Nam":"MFU","Latitude":"51.52170","Longitude":"-66.91110","Snowdepth":"15.315","Units":"in","Rept_Date":"2019-12-22 12"},"coordinates":[7118,9871]},{"type":"Point","properties":{"Station_ID":"WRIM5","Station_Nam":"WRIGHT 3E","Latitude":"46.68040","Longitude":"-92.95420","Snowdepth":"15.000","Units":"in","Rept_Date":"2019-12-22 12"},"coordinates":[1006,6859]},{"type":"Point","properties":{"Station_ID":"TOHM5","Station_Nam":"TWO HARBORS WWTP","Latitude":"47.01760","Longitude":"-91.66480","Snowdepth":"15.000","Units":"in","Rept_Date":"2019-12-22 13"},"coordinates":[1308,7069]},{"type":"Point","properties":{"Station_ID":"MN8JKXE2","Station_Nam":"PRAIRIE PORTAGE 5.2 SSW","Latitude":"47.97663","Longitude":"-91.46744","Snowdepth":"15.000","Units":"in","Rept_Date":"2019-12-22 12"},"coordinates":[1354,7666]},{"type":"Point","properties":{"Station_ID":"MN4QO5TH","Station_Nam":"TWO HARBORS 0.7 ESE","Latitude":"47.03297","Longitude":"-91.65673","Snowdepth":"15.000","Units":"in","Rept_Date":"2019-12-22 13"},"coordinates":[1310,7079]},{"type":"Point","properties":{"Station_ID":"MN49YOQ4","Station_Nam":"WRIGHT 3.9 NW","Latitude":"46.70182","Longitude":"-93.07461","Snowdepth":"15.000","Units":"in","Rept_Date":"2019-12-22 12"},"coordinates":[977,6873]},{"type":"Point","properties":{"Station_ID":"ESAM4","Station_Nam":"ESCANABA","Latitude":"45.74380","Longitude":"-87.04060","Snowdepth":"15.000","Units":"in","Rept_Date":"2019-12-22 12"},"coordinates":[2393,6277]},{"type":"Point","properties":{"Station_ID":"COUW3","Station_Nam":"COUDERAY,WI","Latitude":"45.86670","Longitude":"-91.45000","Snowdepth":"15.000","Units":"in","Rept_Date":"2019-12-22 22"},"coordinates":[1359,6353]},{"type":"Point","properties":{"Station_ID":"BNDM5","Station_Nam":"ELY 25E","Latitude":"47.97190","Longitude":"-91.44860","Snowdepth":"15.000","Units":"in","Rept_Date":"2019-12-22 13"},"coordinates":[1359,7663]},{"type":"Point","properties":{"Station_ID":"AVTW3","Station_Nam":"ARBOR VITAE-JOHNSON LAKE","Latitude":"45.89940","Longitude":"-89.72670","Snowdepth":"15.000","Units":"in","Rept_Date":"2019-12-22 12"},"coordinates":[1763,6373]},{"type":"Point","properties":{"Station_ID":"PTLQ6","Station_Nam":"PORTAGE LAKE","Latitude":"49.06950","Longitude":"-86.65940","Snowdepth":"14.960","Units":"in","Rept_Date":"2019-12-23 06"},"coordinates":[2483,8346]},{"type":"Point","properties":{"Station_ID":"QTV","Station_Nam":"QTV","Latitude":"49.66000","Longitude":"-69.35690","Snowdepth":"14.528","Units":"in","Rept_Date":"2019-12-22 12"},"coordinates":[6544,8713]},{"type":"Point","properties":{"Station_ID":"WI-SR-5","Station_Nam":"HAYWARD 9.7 NE, WI","Latitude":"46.12030","Longitude":"-91.35370","Snowdepth":"14.000","Units":"in","Rept_Date":"2019-12-22 14"},"coordinates":[1381,6511]},{"type":"Point","properties":{"Station_ID":"WI-RS-1","Station_Nam":"LADYSMITH 2.8 WNW, WI","Latitude":"45.48180","Longitude":"-91.14680","Snowdepth":"14.000","Units":"in","Rept_Date":"2019-12-22 13"},"coordinates":[1430,6114]},{"type":"Point","properties":{"Station_ID":"WI-PR-8","Station_Nam":"PHILLIPS 0.4 SSW, WI","Latitude":"45.69086","Longitude":"-90.40200","Snowdepth":"14.000","Units":"in","Rept_Date":"2019-12-22 13"},"coordinates":[1605,6244]},{"type":"Point","properties":{"Station_ID":"IRMM4","Station_Nam":"WWTP","Latitude":"46.46670","Longitude":"-90.18330","Snowdepth":"14.000","Units":"in","Rept_Date":"2019-12-22 13"},"coordinates":[1656,6726]},{"type":"Point","properties":{"Station_ID":"COVM4","Station_Nam":"COVINGTON","Latitude":"46.55880","Longitude":"-88.54190","Snowdepth":"14.000","Units":"in","Rept_Date":"2019-12-22 13"},"coordinates":[2041,6784]},{"type":"Point","properties":{"Station_ID":"ANTW3","Station_Nam":"ANTIGO,WI","Latitude":"45.13330","Longitude":"-89.15000","Snowdepth":"14.000","Units":"in","Rept_Date":"2019-12-22 14"},"coordinates":[1898,5897]},{"type":"Point","properties":{"Station_ID":"AGNW3","Station_Nam":"ARGONNE-1.5 NW","Latitude":"45.67360","Longitude":"-88.90380","Snowdepth":"14.000","Units":"in","Rept_Date":"2019-12-22 13"},"coordinates":[1956,6233]},{"type":"Point","properties":{"Station_ID":"ABGW3","Station_Nam":"AMBERG 9 E","Latitude":"45.48250","Longitude":"-87.81190","Snowdepth":"14.000","Units":"in","Rept_Date":"2019-12-22 12"},"coordinates":[2212,6114]},{"type":"Point","properties":{"Station_ID":"QMA","Station_Nam":"QMA","Latitude":"50.10330","Longitude":"-70.47190","Snowdepth":"13.779","Units":"in","Rept_Date":"2019-12-22 12"},"coordinates":[6282,8989]},{"type":"Point","properties":{"Station_ID":"SVBQ6","Station_Nam":"SAVANT BASE","Latitude":"50.28730","Longitude":"-90.65670","Snowdepth":"13.660","Units":"in","Rept_Date":"2019-12-23 06"},"coordinates":[1545,9103]},{"type":"Point","properties":{"Station_ID":"QLM","Station_Nam":"QLM","Latitude":"48.92030","Longitude":"-70.25280","Snowdepth":"13.543","Units":"in","Rept_Date":"2019-12-22 12"},"coordinates":[6333,8253]},{"type":"Point","properties":{"Station_ID":"MN-LK-4","Station_Nam":"TWO HARBORS 3.6 WNW, MN","Latitude":"47.04118","Longitude":"-91.75280","Snowdepth":"13.500","Units":"in","Rept_Date":"2019-12-22 13"},"coordinates":[1287,7084]},{"type":"Point","properties":{"Station_ID":"CAN-ON-526","Station_Nam":"HILTON BEACH 0.7 SW - MNRF, CAN","Latitude":"46.25357","Longitude":"-83.90014","Snowdepth":"13.400","Units":"in","Rept_Date":"2019-12-22 12"},"coordinates":[3130,6594]},{"type":"Point","properties":{"Station_ID":"QLI","Station_Nam":"QLI","Latitude":"50.27080","Longitude":"-73.92280","Snowdepth":"13.346","Units":"in","Rept_Date":"2019-12-22 12"},"coordinates":[5472,9093]},{"type":"Point","properties":{"Station_ID":"WILW3","Station_Nam":"RESERVOIR","Latitude":"45.70000","Longitude":"-89.83330","Snowdepth":"13.000","Units":"in","Rept_Date":"2019-12-22 12"},"coordinates":[1738,6249]},{"type":"Point","properties":{"Station_ID":"TOGM5","Station_Nam":"CELINA 2E","Latitude":"47.86630","Longitude":"-93.02660","Snowdepth":"13.000","Units":"in","Rept_Date":"2019-12-22 14"},"coordinates":[989,7597]},{"type":"Point","properties":{"Station_ID":"NH-CS-10","Station_Nam":"RANDOLPH 1.4 NE, NH","Latitude":"44.38824","Longitude":"-71.26950","Snowdepth":"13.000","Units":"in","Rept_Date":"2019-12-22 12"},"coordinates":[6095,5433]},{"type":"Point","properties":{"Station_ID":"MN-IT-23","Station_Nam":"BOVEY 13.4 N, MN","Latitude":"47.48855","Longitude":"-93.43497","Snowdepth":"13.000","Units":"in","Rept_Date":"2019-12-22 13"},"coordinates":[893,7362]},{"type":"Point","properties":{"Station_ID":"LTMW3","Station_Nam":"LAKE TOMAHAWK 2 SE","Latitude":"45.80750","Longitude":"-89.55830","Snowdepth":"13.000","Units":"in","Rept_Date":"2019-12-22 14"},"coordinates":[1803,6316]},{"type":"Point","properties":{"Station_ID":"JCBM4","Station_Nam":"JACOBSVILLE","Latitude":"47.00830","Longitude":"-88.43180","Snowdepth":"13.000","Units":"in","Rept_Date":"2019-12-22 12"},"coordinates":[2067,7063]},{"type":"Point","properties":{"Station_ID":"DTVM4","Station_Nam":"DETOUR VILLAGE","Latitude":"45.99830","Longitude":"-83.90130","Snowdepth":"13.000","Units":"in","Rept_Date":"2019-12-22 13"},"coordinates":[3130,6435]},{"type":"Point","properties":{"Station_ID":"CAN-NB-50","Station_Nam":"DOYLEVILLE 2.4 WNW, CAN","Latitude":"47.90803","Longitude":"-66.13279","Snowdepth":"13.000","Units":"in","Rept_Date":"2019-12-22 13"},"coordinates":[7300,7623]},{"type":"Point","properties":{"Station_ID":"AUDQ6","Station_Nam":"AUDEN","Latitude":"48.52600","Longitude":"-82.57570","Snowdepth":"12.990","Units":"in","Rept_Date":"2019-12-23 06"},"coordinates":[3441,8008]},{"type":"Point","properties":{"Station_ID":"QCO","Station_Nam":"QCO","Latitude":"51.45280","Longitude":"-72.20110","Snowdepth":"12.677","Units":"in","Rept_Date":"2019-12-22 12"},"coordinates":[5876,9828]},{"type":"Point","properties":{"Station_ID":"WI-PR-6","Station_Nam":"PHILLIPS 1.3 S, WI","Latitude":"45.67677","Longitude":"-90.39543","Snowdepth":"12.500","Units":"in","Rept_Date":"2019-12-22 13"},"coordinates":[1606,6235]},{"type":"Point","properties":{"Station_ID":"WI-ON-6","Station_Nam":"RHINELANDER 5.2 N, WI","Latitude":"45.71388","Longitude":"-89.42150","Snowdepth":"12.500","Units":"in","Rept_Date":"2019-12-22 14"},"coordinates":[1835,6258]},{"type":"Point","properties":{"Station_ID":"QTM","Station_Nam":"QTM","Latitude":"51.05780","Longitude":"-72.57190","Snowdepth":"12.165","Units":"in","Rept_Date":"2019-12-22 12"},"coordinates":[5789,9583]},{"type":"Point","properties":{"Station_ID":"TRIQ6","Station_Nam":"TRIO LAKE","Latitude":"49.22880","Longitude":"-87.22920","Snowdepth":"12.010","Units":"in","Rept_Date":"2019-12-23 06"},"coordinates":[2349,8445]},{"type":"Point","properties":{"Station_ID":"ZNOM4","Station_Nam":"NORWAY","Latitude":"45.77810","Longitude":"-87.89560","Snowdepth":"12.000","Units":"in","Rept_Date":"2019-12-23 01"},"coordinates":[2193,6298]},{"type":"Point","properties":{"Station_ID":"TAKW3","Station_Nam":"RICE RESERVOIR NO. 2","Latitude":"45.53770","Longitude":"-89.73220","Snowdepth":"12.000","Units":"in","Rept_Date":"2019-12-22 13"},"coordinates":[1762,6148]},{"type":"Point","properties":{"Station_ID":"SAUW3","Station_Nam":"WAUSAU WSAW TV","Latitude":"44.94630","Longitude":"-89.62220","Snowdepth":"12.000","Units":"in","Rept_Date":"2019-12-23 05"},"coordinates":[1788,5781]},{"type":"Point","properties":{"Station_ID":"RRVM4","Station_Nam":"RAPID RIVER 9S","Latitude":"45.78750","Longitude":"-86.93920","Snowdepth":"12.000","Units":"in","Rept_Date":"2019-12-22 13"},"coordinates":[2417,6304]},{"type":"Point","properties":{"Station_ID":"MRQM4","Station_Nam":"MARQUETTE WFP","Latitude":"46.54580","Longitude":"-87.37950","Snowdepth":"12.000","Units":"in","Rept_Date":"2019-12-22 13"},"coordinates":[2314,6776]},{"type":"Point","properties":{"Station_ID":"MQRW3","Station_Nam":"MINOCQUA","Latitude":"45.88630","Longitude":"-89.73220","Snowdepth":"12.000","Units":"in","Rept_Date":"2019-12-22 12"},"coordinates":[1762,6365]},{"type":"Point","properties":{"Station_ID":"MN70GOES","Station_Nam":"EMBARRASS 0.6 SSE","Latitude":"47.65101","Longitude":"-92.19222","Snowdepth":"12.000","Units":"in","Rept_Date":"2019-12-22 12"},"coordinates":[1184,7463]},{"type":"Point","properties":{"Station_ID":"MN3LTZND","Station_Nam":"BRAINERD 1.4 S","Latitude":"46.33224","Longitude":"-94.20905","Snowdepth":"12.000","Units":"in","Rept_Date":"2019-12-22 13"},"coordinates":[711,6643]},{"type":"Point","properties":{"Station_ID":"MN-SL-139","Station_Nam":"DULUTH 1.2 SE, MN","Latitude":"46.77000","Longitude":"-92.08826","Snowdepth":"12.000","Units":"in","Rept_Date":"2019-12-22 12"},"coordinates":[1209,6915]},{"type":"Point","properties":{"Station_ID":"MN-SL-108","Station_Nam":"IRON JUNCTION 3.4 NNW, MN","Latitude":"47.46150","Longitude":"-92.63130","Snowdepth":"12.000","Units":"in","Rept_Date":"2019-12-22 13"},"coordinates":[1081,7345]},{"type":"Point","properties":{"Station_ID":"MN-CK-3","Station_Nam":"TOFTE 4.9 NE, MN","Latitude":"47.62394","Longitude":"-90.76100","Snowdepth":"12.000","Units":"in","Rept_Date":"2019-12-22 13"},"coordinates":[1520,7446]},{"type":"Point","properties":{"Station_ID":"MLLW3","Station_Nam":"MERRILL 8W","Latitude":"45.17810","Longitude":"-89.84810","Snowdepth":"12.000","Units":"in","Rept_Date":"2019-12-22 12"},"coordinates":[1735,5925]},{"type":"Point","properties":{"Station_ID":"EMBM5","Station_Nam":"EMBARASS,MN","Latitude":"47.65810","Longitude":"-92.19580","Snowdepth":"12.000","Units":"in","Rept_Date":"2019-12-22 12"},"coordinates":[1184,7468]},{"type":"Point","properties":{"Station_ID":"BRAM5","Station_Nam":"BRAINERD","Latitude":"46.34320","Longitude":"-94.20900","Snowdepth":"12.000","Units":"in","Rept_Date":"2019-12-22 13"},"coordinates":[711,6650]},{"type":"Point","properties":{"Station_ID":"AUW","Station_Nam":"WAUSAU MUNICIPAL AIRPORT","Latitude":"44.92580","Longitude":"-89.62560","Snowdepth":"12.000","Units":"in","Rept_Date":"2019-12-23 00"},"coordinates":[1787,5768]},{"type":"Point","properties":{"Station_ID":"WI-LN-2","Station_Nam":"MERRILL 7.0 W, WI","Latitude":"45.17746","Longitude":"-89.84820","Snowdepth":"11.500","Units":"in","Rept_Date":"2019-12-22 12"},"coordinates":[1734,5924]},{"type":"Point","properties":{"Station_ID":"VT-BN-12","Station_Nam":"STAMFORD 5.0 NNE, VT","Latitude":"42.82000","Longitude":"-73.02000","Snowdepth":"11.500","Units":"in","Rept_Date":"2019-12-22 21"},"coordinates":[5684,4458]},{"type":"Point","properties":{"Station_ID":"MN-BK-6","Station_Nam":"LAKE PARK 6.0 S, MN","Latitude":"46.79850","Longitude":"-96.12180","Snowdepth":"11.500","Units":"in","Rept_Date":"2019-12-22 13"},"coordinates":[262,6933]},{"type":"Point","properties":{"Station_ID":"MI-DL-4","Station_Nam":"GLADSTONE 2.1 SW, MI","Latitude":"45.83218","Longitude":"-87.05727","Snowdepth":"11.500","Units":"in","Rept_Date":"2019-12-22 12"},"coordinates":[2389,6332]},{"type":"Point","properties":{"Station_ID":"QGA","Station_Nam":"QGA","Latitude":"47.25640","Longitude":"-73.73810","Snowdepth":"11.457","Units":"in","Rept_Date":"2019-12-22 12"},"coordinates":[5515,7218]},{"type":"Point","properties":{"Station_ID":"SOCQ6","Station_Nam":"SOCKET LAKE","Latitude":"50.77870","Longitude":"-91.79300","Snowdepth":"11.260","Units":"in","Rept_Date":"2019-12-23 06"},"coordinates":[1278,9409]},{"type":"Point","properties":{"Station_ID":"WTNM4","Station_Nam":"WATTON 2WSW","Latitude":"46.52660","Longitude":"-88.64240","Snowdepth":"11.000","Units":"in","Rept_Date":"2019-12-22 13"},"coordinates":[2017,6764]},{"type":"Point","properties":{"Station_ID":"WLKW3","Station_Nam":"WHITE LAKE 1 SE","Latitude":"45.14520","Longitude":"-88.74160","Snowdepth":"11.000","Units":"in","Rept_Date":"2019-12-22 14"},"coordinates":[1994,5904]},{"type":"Point","properties":{"Station_ID":"WI-BR-2","Station_Nam":"CHETEK 2.0 SE, WI","Latitude":"45.29427","Longitude":"-91.62470","Snowdepth":"11.000","Units":"in","Rept_Date":"2019-12-22 13"},"coordinates":[1318,5997]},{"type":"Point","properties":{"Station_ID":"WASW3","Station_Nam":"WASHINGTON IS","Latitude":"45.35800","Longitude":"-86.89110","Snowdepth":"11.000","Units":"in","Rept_Date":"2019-12-22 13"},"coordinates":[2428,6037]},{"type":"Point","properties":{"Station_ID":"RRLW3","Station_Nam":"MERRILL,WI","Latitude":"45.17860","Longitude":"-89.66170","Snowdepth":"11.000","Units":"in","Rept_Date":"2019-12-22 14"},"coordinates":[1778,5925]},{"type":"Point","properties":{"Station_ID":"RHLW3","Station_Nam":"RHINELANDER 4NE","Latitude":"45.65270","Longitude":"-89.30740","Snowdepth":"11.000","Units":"in","Rept_Date":"2019-12-22 12"},"coordinates":[1861,6220]},{"type":"Point","properties":{"Station_ID":"RHI","Station_Nam":"RHINELANDER-ONEIDA COUNTY AIRPORT","Latitude":"45.63080","Longitude":"-89.46530","Snowdepth":"11.000","Units":"in","Rept_Date":"2019-12-23 00"},"coordinates":[1824,6206]},{"type":"Point","properties":{"Station_ID":"MRAM5","Station_Nam":"MORA","Latitude":"45.87760","Longitude":"-93.31470","Snowdepth":"11.000","Units":"in","Rept_Date":"2019-12-22 13"},"coordinates":[921,6360]},{"type":"Point","properties":{"Station_ID":"MRAM4","Station_Nam":"MORAN","Latitude":"45.99030","Longitude":"-84.83610","Snowdepth":"11.000","Units":"in","Rept_Date":"2019-12-22 13"},"coordinates":[2911,6430]},{"type":"Point","properties":{"Station_ID":"MN8O09O3","Station_Nam":"ORR 3.6 E","Latitude":"48.04403","Longitude":"-92.75427","Snowdepth":"11.000","Units":"in","Rept_Date":"2019-12-22 12"},"coordinates":[1052,7708]},{"type":"Point","properties":{"Station_ID":"MN26O9MA","Station_Nam":"MORA 1.2 WNW","Latitude":"45.88239","Longitude":"-93.31788","Snowdepth":"11.000","Units":"in","Rept_Date":"2019-12-22 13"},"coordinates":[920,6363]},{"type":"Point","properties":{"Station_ID":"MIEM4","Station_Nam":"MICHIGAMME 3WNW","Latitude":"46.54530","Longitude":"-88.18000","Snowdepth":"11.000","Units":"in","Rept_Date":"2019-12-22 13"},"coordinates":[2126,6775]},{"type":"Point","properties":{"Station_ID":"MI-DL-1","Station_Nam":"GARDEN CORNERS 0.8 NW, MI","Latitude":"45.89815","Longitude":"-86.54850","Snowdepth":"11.000","Units":"in","Rept_Date":"2019-12-22 13"},"coordinates":[2509,6373]},{"type":"Point","properties":{"Station_ID":"LEIM5","Station_Nam":"ORR 3E","Latitude":"48.05810","Longitude":"-92.75220","Snowdepth":"11.000","Units":"in","Rept_Date":"2019-12-22 12"},"coordinates":[1053,7716]},{"type":"Point","properties":{"Station_ID":"GDCM4","Station_Nam":"GARDEN CORNERS","Latitude":"45.89830","Longitude":"-86.54850","Snowdepth":"11.000","Units":"in","Rept_Date":"2019-12-22 13"},"coordinates":[2509,6373]},{"type":"Point","properties":{"Station_ID":"BALW3","Station_Nam":"BALDWIN","Latitude":"44.96330","Longitude":"-92.39050","Snowdepth":"11.000","Units":"in","Rept_Date":"2019-12-22 13"},"coordinates":[1138,5791]},{"type":"Point","properties":{"Station_ID":"QIQ","Station_Nam":"QIQ","Latitude":"49.82390","Longitude":"-68.54310","Snowdepth":"10.591","Units":"in","Rept_Date":"2019-12-22 12"},"coordinates":[6735,8815]},{"type":"Point","properties":{"Station_ID":"WI-EC-23","Station_Nam":"EAU CLAIRE 3.7 S, WI","Latitude":"44.76858","Longitude":"-91.49898","Snowdepth":"10.500","Units":"in","Rept_Date":"2019-12-22 16"},"coordinates":[1347,5670]},{"type":"Point","properties":{"Station_ID":"WI-DN-1","Station_Nam":"BOYCEVILLE 3.3 N, WI","Latitude":"45.08913","Longitude":"-92.02760","Snowdepth":"10.500","Units":"in","Rept_Date":"2019-12-22 13"},"coordinates":[1223,5869]},{"type":"Point","properties":{"Station_ID":"WI-CH-7","Station_Nam":"CHIPPEWA FALLS 1.2 E, WI","Latitude":"44.92920","Longitude":"-91.36730","Snowdepth":"10.500","Units":"in","Rept_Date":"2019-12-22 13"},"coordinates":[1378,5770]},{"type":"Point","properties":{"Station_ID":"QLP","Station_Nam":"QLP","Latitude":"48.13920","Longitude":"-72.63830","Snowdepth":"10.276","Units":"in","Rept_Date":"2019-12-22 12"},"coordinates":[5774,7767]},{"type":"Point","properties":{"Station_ID":"WUNW3","Station_Nam":"WAUSAU-NORTHEAST","Latitude":"44.97310","Longitude":"-89.61690","Snowdepth":"10.000","Units":"in","Rept_Date":"2019-12-22 12"},"coordinates":[1789,5797]},{"type":"Point","properties":{"Station_ID":"SSMM4","Station_Nam":"SAULT STE MARIE","Latitude":"46.48660","Longitude":"-84.40250","Snowdepth":"10.000","Units":"in","Rept_Date":"2019-12-22 13"},"coordinates":[3013,6739]},{"type":"Point","properties":{"Station_ID":"RHRW3","Station_Nam":"RHINELANDER WJFW TV-12","Latitude":"45.62220","Longitude":"-89.41000","Snowdepth":"10.000","Units":"in","Rept_Date":"2019-12-23 05"},"coordinates":[1837,6201]},{"type":"Point","properties":{"Station_ID":"NY-ER-166","Station_Nam":"BOSTON 2.5 NE, NY","Latitude":"42.65480","Longitude":"-78.70300","Snowdepth":"10.000","Units":"in","Rept_Date":"2019-12-22 12"},"coordinates":[4350,4355]},{"type":"Point","properties":{"Station_ID":"MN-SR-29","Station_Nam":"ALBANY 3.8 S, MN","Latitude":"45.57441","Longitude":"-94.55543","Snowdepth":"10.000","Units":"in","Rept_Date":"2019-12-22 13"},"coordinates":[630,6171]},{"type":"Point","properties":{"Station_ID":"MN-CW-22","Station_Nam":"FORT RIPLEY 0.8 N, MN","Latitude":"46.18089","Longitude":"-94.36510","Snowdepth":"10.000","Units":"in","Rept_Date":"2019-12-22 13"},"coordinates":[674,6549]},{"type":"Point","properties":{"Station_ID":"MN-CK-6","Station_Nam":"GRAND MARAIS 4.4 W, MN","Latitude":"47.74865","Longitude":"-90.43760","Snowdepth":"10.000","Units":"in","Rept_Date":"2019-12-22 13"},"coordinates":[1596,7524]},{"type":"Point","properties":{"Station_ID":"MCLN8","Station_Nam":"MC LEOD,ND","Latitude":"46.40250","Longitude":"-97.23810","Snowdepth":"10.000","Units":"in","Rept_Date":"2019-12-22 14"},"coordinates":[0,6686]},{"type":"Point","properties":{"Station_ID":"MA-MD-47","Station_Nam":"WEST TOWNSEND 0.5 W, MA","Latitude":"42.67623","Longitude":"-71.74983","Snowdepth":"10.000","Units":"in","Rept_Date":"2019-12-22 11"},"coordinates":[5982,4368]},{"type":"Point","properties":{"Station_ID":"LUCW3","Station_Nam":"LUCK","Latitude":"45.57330","Longitude":"-92.48520","Snowdepth":"10.000","Units":"in","Rept_Date":"2019-12-22 14"},"coordinates":[1116,6171]},{"type":"Point","properties":{"Station_ID":"ISEM5","Station_Nam":"ISLE 12N","Latitude":"46.31970","Longitude":"-93.50140","Snowdepth":"10.000","Units":"in","Rept_Date":"2019-12-22 14"},"coordinates":[877,6635]},{"type":"Point","properties":{"Station_ID":"HGHN6","Station_Nam":"HIGHMARKET","Latitude":"43.57520","Longitude":"-75.52070","Snowdepth":"10.000","Units":"in","Rept_Date":"2019-12-22 10"},"coordinates":[5097,4927]},{"type":"Point","properties":{"Station_ID":"GRBM5","Station_Nam":"GRAND RAPIDS 12N","Latitude":"47.39800","Longitude":"-93.51330","Snowdepth":"10.000","Units":"in","Rept_Date":"2019-12-22 13"},"coordinates":[874,7306]},{"type":"Point","properties":{"Station_ID":"COTM5","Station_Nam":"COTTON","Latitude":"47.16870","Longitude":"-92.46290","Snowdepth":"10.000","Units":"in","Rept_Date":"2019-12-22 13"},"coordinates":[1121,7163]},{"type":"Point","properties":{"Station_ID":"BREW3","Station_Nam":"SURING","Latitude":"44.99580","Longitude":"-88.37860","Snowdepth":"10.000","Units":"in","Rept_Date":"2019-12-22 15"},"coordinates":[2079,5811]},{"type":"Point","properties":{"Station_ID":"ANJM4","Station_Nam":"SNOW PAID OBSERVER FOR KANJ","Latitude":"46.48670","Longitude":"-84.40260","Snowdepth":"10.000","Units":"in","Rept_Date":"2019-12-22 18"},"coordinates":[3013,6739]},{"type":"Point","properties":{"Station_ID":"ANJ","Station_Nam":"SAULT STE MARIE","Latitude":"46.46670","Longitude":"-84.36670","Snowdepth":"10.000","Units":"in","Rept_Date":"2019-12-23 00"},"coordinates":[3021,6726]},{"type":"Point","properties":{"Station_ID":"NY-OD-2","Station_Nam":"POINT ROCK 0.6 SE, NY","Latitude":"43.37335","Longitude":"-75.53840","Snowdepth":"9.500","Units":"in","Rept_Date":"2019-12-22 13"},"coordinates":[5093,4802]},{"type":"Point","properties":{"Station_ID":"MN-IT-7","Station_Nam":"GRAND RAPIDS 6.2 SSW, MN","Latitude":"47.13687","Longitude":"-93.56660","Snowdepth":"9.500","Units":"in","Rept_Date":"2019-12-22 12"},"coordinates":[862,7143]},{"type":"Point","properties":{"Station_ID":"MN-IT-17","Station_Nam":"GRAND RAPIDS 6.1 N, MN","Latitude":"47.31165","Longitude":"-93.55036","Snowdepth":"9.500","Units":"in","Rept_Date":"2019-12-22 13"},"coordinates":[866,7252]},{"type":"Point","properties":{"Station_ID":"MN-CW-29","Station_Nam":"BRAINERD 7.7 SSE, MN","Latitude":"46.24996","Longitude":"-94.14576","Snowdepth":"9.500","Units":"in","Rept_Date":"2019-12-22 13"},"coordinates":[726,6592]},{"type":"Point","properties":{"Station_ID":"CAN-ON-757","Station_Nam":"SAULT STE. MARIE 2.8 ESE - GLFC, CAN","Latitude":"46.50300","Longitude":"-84.30300","Snowdepth":"9.500","Units":"in","Rept_Date":"2019-12-22 13"},"coordinates":[3036,6749]},{"type":"Point","properties":{"Station_ID":"KABQ6","Station_Nam":"CAB LAKE","Latitude":"49.59950","Longitude":"-89.17990","Snowdepth":"9.490","Units":"in","Rept_Date":"2019-12-23 06"},"coordinates":[1891,8675]},{"type":"Point","properties":{"Station_ID":"CATQ6","Station_Nam":"CAT LAKE","Latitude":"51.72690","Longitude":"-91.82210","Snowdepth":"9.290","Units":"in","Rept_Date":"2019-12-23 06"},"coordinates":[1271,9999]},{"type":"Point","properties":{"Station_ID":"QWG","Station_Nam":"QWG","Latitude":"48.48890","Longitude":"-73.45940","Snowdepth":"9.055","Units":"in","Rept_Date":"2019-12-22 12"},"coordinates":[5581,7985]},{"type":"Point","properties":{"Station_ID":"WLDM5","Station_Nam":"WILD RIVER STATE PARK","Latitude":"45.52310","Longitude":"-92.74890","Snowdepth":"9.000","Units":"in","Rept_Date":"2019-12-22 14"},"coordinates":[1054,6139]},{"type":"Point","properties":{"Station_ID":"VT-OL-5","Station_Nam":"DERBY CENTER 1.8 NW, VT","Latitude":"44.97200","Longitude":"-72.14780","Snowdepth":"9.000","Units":"in","Rept_Date":"2019-12-22 12"},"coordinates":[5889,5796]},{"type":"Point","properties":{"Station_ID":"SVSN6","Station_Nam":"SILVER SPRINGS 3N","Latitude":"42.70580","Longitude":"-78.09370","Snowdepth":"9.000","Units":"in","Rept_Date":"2019-12-22 12"},"coordinates":[4493,4387]},{"type":"Point","properties":{"Station_ID":"STRW3","Station_Nam":"STRATFORD 1NW","Latitude":"44.81750","Longitude":"-90.08990","Snowdepth":"9.000","Units":"in","Rept_Date":"2019-12-22 13"},"coordinates":[1678,5700]},{"type":"Point","properties":{"Station_ID":"STIM4","Station_Nam":"ST IGNACE","Latitude":"45.86080","Longitude":"-84.71960","Snowdepth":"9.000","Units":"in","Rept_Date":"2019-12-22 12"},"coordinates":[2938,6349]},{"type":"Point","properties":{"Station_ID":"SPCW3","Station_Nam":"SPENCER-WWTP","Latitude":"44.75390","Longitude":"-90.28920","Snowdepth":"9.000","Units":"in","Rept_Date":"2019-12-22 13"},"coordinates":[1631,5661]},{"type":"Point","properties":{"Station_ID":"OTTM5","Station_Nam":"OTTERTAIL,MN","Latitude":"46.41670","Longitude":"-95.56670","Snowdepth":"9.000","Units":"in","Rept_Date":"2019-12-22 14"},"coordinates":[392,6695]},{"type":"Point","properties":{"Station_ID":"OCON6","Station_Nam":"OSCEOLA","Latitude":"43.49910","Longitude":"-75.71210","Snowdepth":"9.000","Units":"in","Rept_Date":"2019-12-22 12"},"coordinates":[5052,4880]},{"type":"Point","properties":{"Station_ID":"NY-ER-63","Station_Nam":"GLENWOOD 1.5 SE, NY","Latitude":"42.60195","Longitude":"-78.63910","Snowdepth":"9.000","Units":"in","Rept_Date":"2019-12-22 13"},"coordinates":[4365,4322]},{"type":"Point","properties":{"Station_ID":"MTQM4","Station_Nam":"MANISTIQUE WWTP","Latitude":"45.95120","Longitude":"-86.25130","Snowdepth":"9.000","Units":"in","Rept_Date":"2019-12-22 12"},"coordinates":[2579,6406]},{"type":"Point","properties":{"Station_ID":"MNMQO9OI","Station_Nam":"OTTERTAIL 1.5 WNW","Latitude":"46.43378","Longitude":"-95.58416","Snowdepth":"9.000","Units":"in","Rept_Date":"2019-12-22 13"},"coordinates":[388,6706]},{"type":"Point","properties":{"Station_ID":"MN9UO3KA","Station_Nam":"GAPPAS LANDING CG 3.8 N","Latitude":"48.49307","Longitude":"-93.03634","Snowdepth":"9.000","Units":"in","Rept_Date":"2019-12-22 13"},"coordinates":[986,7987]},{"type":"Point","properties":{"Station_ID":"MN-SH-985","Station_Nam":"PRINCETON 3.3 WSW, MN","Latitude":"45.55211","Longitude":"-93.64481","Snowdepth":"9.000","Units":"in","Rept_Date":"2019-12-22 14"},"coordinates":[843,6157]},{"type":"Point","properties":{"Station_ID":"MN-SH-10","Station_Nam":"BIG LAKE 5.6 NNE, MN","Latitude":"45.41409","Longitude":"-93.69190","Snowdepth":"9.000","Units":"in","Rept_Date":"2019-12-22 13"},"coordinates":[832,6072]},{"type":"Point","properties":{"Station_ID":"MN-BM-15","Station_Nam":"BEMIDJI 7.8 ENE, MN","Latitude":"47.52043","Longitude":"-94.72121","Snowdepth":"9.000","Units":"in","Rept_Date":"2019-12-22 13"},"coordinates":[591,7382]},{"type":"Point","properties":{"Station_ID":"MN-BM-14","Station_Nam":"SOLWAY 2.1 S, MN","Latitude":"47.49069","Longitude":"-95.12177","Snowdepth":"9.000","Units":"in","Rept_Date":"2019-12-22 14"},"coordinates":[497,7363]},{"type":"Point","properties":{"Station_ID":"MI-OT-17","Station_Nam":"GAYLORD 4.1 S, MI","Latitude":"44.96388","Longitude":"-84.68467","Snowdepth":"9.000","Units":"in","Rept_Date":"2019-12-22 12"},"coordinates":[2946,5791]},{"type":"Point","properties":{"Station_ID":"MI-CP-7","Station_Nam":"DRUMMOND 2.9 NE, MI","Latitude":"46.05329","Longitude":"-83.69060","Snowdepth":"9.000","Units":"in","Rept_Date":"2019-12-22 14"},"coordinates":[3180,6469]},{"type":"Point","properties":{"Station_ID":"MI-CP-14","Station_Nam":"SAULT STE. MARIE 2.2 E, MI","Latitude":"46.48933","Longitude":"-84.31971","Snowdepth":"9.000","Units":"in","Rept_Date":"2019-12-22 12"},"coordinates":[3032,6740]},{"type":"Point","properties":{"Station_ID":"MI-AT-6","Station_Nam":"MANCELONA 0.5 ESE, MI","Latitude":"44.89981","Longitude":"-85.05100","Snowdepth":"9.000","Units":"in","Rept_Date":"2019-12-22 13"},"coordinates":[2860,5752]},{"type":"Point","properties":{"Station_ID":"MA-HS-7","Station_Nam":"PLAINFIELD 2.2 SW, MA","Latitude":"42.49272","Longitude":"-72.94540","Snowdepth":"9.000","Units":"in","Rept_Date":"2019-12-22 13"},"coordinates":[5701,4254]},{"type":"Point","properties":{"Station_ID":"LDSW3","Station_Nam":"LADYSMITH 3W","Latitude":"45.46510","Longitude":"-91.12360","Snowdepth":"9.000","Units":"in","Rept_Date":"2019-12-22 11"},"coordinates":[1435,6103]},{"type":"Point","properties":{"Station_ID":"KGFK","Station_Nam":"GRAND FORKS INTERNATIONAL","Latitude":"47.95000","Longitude":"-97.18333","Snowdepth":"9.000","Units":"in","Rept_Date":"2019-12-23 06"},"coordinates":[13,7649]},{"type":"Point","properties":{"Station_ID":"KABM5","Station_Nam":"KABETOGAMA LAKE VISITOR CTR","Latitude":"48.40880","Longitude":"-93.04840","Snowdepth":"9.000","Units":"in","Rept_Date":"2019-12-22 13"},"coordinates":[983,7935]},{"type":"Point","properties":{"Station_ID":"GFK","Station_Nam":"GRAND FORKS INTERNATIONAL AIRPORT","Latitude":"47.94920","Longitude":"-97.17610","Snowdepth":"9.000","Units":"in","Rept_Date":"2019-12-23 00"},"coordinates":[15,7649]},{"type":"Point","properties":{"Station_ID":"EPTW3","Station_Nam":"EAU PLEINE TENDER","Latitude":"44.77220","Longitude":"-89.76720","Snowdepth":"9.000","Units":"in","Rept_Date":"2019-12-22 13"},"coordinates":[1753,5672]},{"type":"Point","properties":{"Station_ID":"CHPW3","Station_Nam":"CHIPPEWA FALLS","Latitude":"44.92770","Longitude":"-91.40810","Snowdepth":"9.000","Units":"in","Rept_Date":"2019-12-22 14"},"coordinates":[1368,5769]},{"type":"Point","properties":{"Station_ID":"MN-PN-17","Station_Nam":"BROOK PARK 3.9 S, MN","Latitude":"45.89189","Longitude":"-93.06306","Snowdepth":"8.900","Units":"in","Rept_Date":"2019-12-22 13"},"coordinates":[980,6369]},{"type":"Point","properties":{"Station_ID":"WI-DN-15","Station_Nam":"MENOMONIE 0.9 NW, WI","Latitude":"44.89832","Longitude":"-91.92398","Snowdepth":"8.500","Units":"in","Rept_Date":"2019-12-22 13"},"coordinates":[1247,5751]},{"type":"Point","properties":{"Station_ID":"NY-WY-11","Station_Nam":"SILVER SPRINGS COOP, NY","Latitude":"42.70580","Longitude":"-78.09370","Snowdepth":"8.500","Units":"in","Rept_Date":"2019-12-22 12"},"coordinates":[4493,4387]},{"type":"Point","properties":{"Station_ID":"NY-HR-18","Station_Nam":"SALISBURY CENTER 1.8 NW, NY","Latitude":"43.16260","Longitude":"-74.80880","Snowdepth":"8.500","Units":"in","Rept_Date":"2019-12-22 11"},"coordinates":[5264,4671]},{"type":"Point","properties":{"Station_ID":"MN-MR-13","Station_Nam":"LITTLE FALLS 8.0 NE, MN","Latitude":"46.06785","Longitude":"-94.24789","Snowdepth":"8.500","Units":"in","Rept_Date":"2019-12-22 13"},"coordinates":[702,6478]},{"type":"Point","properties":{"Station_ID":"MI-MC-4","Station_Nam":"ST. IGNACE 0.5SE, MI","Latitude":"45.86057","Longitude":"-84.71980","Snowdepth":"8.500","Units":"in","Rept_Date":"2019-12-22 12"},"coordinates":[2938,6349]},{"type":"Point","properties":{"Station_ID":"FTHQ6","Station_Nam":"FORT HOPE","Latitude":"51.55820","Longitude":"-87.90510","Snowdepth":"8.350","Units":"in","Rept_Date":"2019-12-23 06"},"coordinates":[2191,9894]},{"type":"Point","properties":{"Station_ID":"WRSN6","Station_Nam":"WARSAW 6SW","Latitude":"42.68550","Longitude":"-78.22020","Snowdepth":"8.000","Units":"in","Rept_Date":"2019-12-22 12"},"coordinates":[4463,4374]},{"type":"Point","properties":{"Station_ID":"WI-PC-5","Station_Nam":"RIVER FALLS 1.2 SSW, WI","Latitude":"44.84032","Longitude":"-92.63500","Snowdepth":"8.000","Units":"in","Rept_Date":"2019-12-22 13"},"coordinates":[1080,5715]},{"type":"Point","properties":{"Station_ID":"VT-OL-1","Station_Nam":"WESTFIELD 0.7 WNW, VT","Latitude":"44.89160","Longitude":"-72.44350","Snowdepth":"8.000","Units":"in","Rept_Date":"2019-12-22 12"},"coordinates":[5819,5746]},{"type":"Point","properties":{"Station_ID":"SIBI4","Station_Nam":"SIBLEY","Latitude":"43.40470","Longitude":"-95.74830","Snowdepth":"8.000","Units":"in","Rept_Date":"2019-12-22 13"},"coordinates":[350,4821]},{"type":"Point","properties":{"Station_ID":"RSTW3","Station_Nam":"ROSHOLT","Latitude":"44.62710","Longitude":"-89.30600","Snowdepth":"8.000","Units":"in","Rept_Date":"2019-12-22 11"},"coordinates":[1862,5582]},{"type":"Point","properties":{"Station_ID":"RGNM1","Station_Nam":"RANGELEY 2NW","Latitude":"44.98940","Longitude":"-70.67220","Snowdepth":"8.000","Units":"in","Rept_Date":"2019-12-22 14"},"coordinates":[6235,5807]},{"type":"Point","properties":{"Station_ID":"RCEM5","Station_Nam":"RICE","Latitude":"45.75760","Longitude":"-94.20720","Snowdepth":"8.000","Units":"in","Rept_Date":"2019-12-22 13"},"coordinates":[711,6285]},{"type":"Point","properties":{"Station_ID":"RANM1","Station_Nam":"RANGELEY,ME","Latitude":"44.96670","Longitude":"-70.65000","Snowdepth":"8.000","Units":"in","Rept_Date":"2019-12-22 13"},"coordinates":[6240,5793]},{"type":"Point","properties":{"Station_ID":"PTBN3","Station_Nam":"DAM WITHIN","Latitude":"45.05000","Longitude":"-71.38330","Snowdepth":"8.000","Units":"in","Rept_Date":"2019-12-22 12"},"coordinates":[6068,5845]},{"type":"Point","properties":{"Station_ID":"NY-ER-65","Station_Nam":"BOSTON 1.5 NE, NY","Latitude":"42.65470","Longitude":"-78.72010","Snowdepth":"8.000","Units":"in","Rept_Date":"2019-12-22 13"},"coordinates":[4346,4355]},{"type":"Point","properties":{"Station_ID":"NY-ER-158","Station_Nam":"EAST AURORA 2.7 SSE, NY","Latitude":"42.72936","Longitude":"-78.60561","Snowdepth":"8.000","Units":"in","Rept_Date":"2019-12-22 13"},"coordinates":[4373,4401]},{"type":"Point","properties":{"Station_ID":"MSP","Station_Nam":"MINNEAPOLIS-ST PAUL INTL AP","Latitude":"44.88310","Longitude":"-93.22890","Snowdepth":"8.000","Units":"in","Rept_Date":"2019-12-23 00"},"coordinates":[941,5741]},{"type":"Point","properties":{"Station_ID":"MNLGGILP","Station_Nam":"LONG PRAIRIE 1.1 WSW","Latitude":"45.96913","Longitude":"-94.88686","Snowdepth":"8.000","Units":"in","Rept_Date":"2019-12-22 12"},"coordinates":[552,6417]},{"type":"Point","properties":{"Station_ID":"MN7TCHCK","Station_Nam":"COOK 0.2 ENE","Latitude":"47.85225","Longitude":"-92.68378","Snowdepth":"8.000","Units":"in","Rept_Date":"2019-12-22 12"},"coordinates":[1069,7588]},{"type":"Point","properties":{"Station_ID":"MN228YHJ","Station_Nam":"RICE 2.8 ESE","Latitude":"45.73609","Longitude":"-94.17230","Snowdepth":"8.000","Units":"in","Rept_Date":"2019-12-22 13"},"coordinates":[720,6272]},{"type":"Point","properties":{"Station_ID":"MN228RRE","Station_Nam":"RICE 0.8 ENE","Latitude":"45.75724","Longitude":"-94.20638","Snowdepth":"8.000","Units":"in","Rept_Date":"2019-12-22 13"},"coordinates":[712,6285]},{"type":"Point","properties":{"Station_ID":"MN20GPME","Station_Nam":"MILACA 0.7 W","Latitude":"45.75695","Longitude":"-93.66835","Snowdepth":"8.000","Units":"in","Rept_Date":"2019-12-22 13"},"coordinates":[838,6285]},{"type":"Point","properties":{"Station_ID":"MN-MR-4","Station_Nam":"LITTLE FALLS 1.2 SW, MN","Latitude":"45.96886","Longitude":"-94.37720","Snowdepth":"8.000","Units":"in","Rept_Date":"2019-12-22 13"},"coordinates":[672,6417]},{"type":"Point","properties":{"Station_ID":"MN-CY-1","Station_Nam":"MOORHEAD 2.0 N, MN","Latitude":"46.88766","Longitude":"-96.74800","Snowdepth":"8.000","Units":"in","Rept_Date":"2019-12-22 13"},"coordinates":[115,6988]},{"type":"Point","properties":{"Station_ID":"MN-BK-10","Station_Nam":"DETROIT LAKES 5.7 N, MN","Latitude":"46.88666","Longitude":"-95.84444","Snowdepth":"8.000","Units":"in","Rept_Date":"2019-12-22 13"},"coordinates":[327,6988]},{"type":"Point","properties":{"Station_ID":"MN-AA-76","Station_Nam":"NOWTHEN 2.9 SSE, MN","Latitude":"45.30360","Longitude":"-93.42620","Snowdepth":"8.000","Units":"in","Rept_Date":"2019-12-22 13"},"coordinates":[895,6003]},{"type":"Point","properties":{"Station_ID":"MLCM5","Station_Nam":"MILACA","Latitude":"45.75320","Longitude":"-93.66170","Snowdepth":"8.000","Units":"in","Rept_Date":"2019-12-22 13"},"coordinates":[839,6283]},{"type":"Point","properties":{"Station_ID":"LPLN6","Station_Nam":"LAKE PLACID 2 S","Latitude":"44.30420","Longitude":"-73.98390","Snowdepth":"8.000","Units":"in","Rept_Date":"2019-12-22 14"},"coordinates":[5458,5381]},{"type":"Point","properties":{"Station_ID":"LNGM5","Station_Nam":"LONG PRAIRIE","Latitude":"45.96460","Longitude":"-94.88920","Snowdepth":"8.000","Units":"in","Rept_Date":"2019-12-22 12"},"coordinates":[551,6414]},{"type":"Point","properties":{"Station_ID":"JIMW3","Station_Nam":"JIM FALLS 3NW","Latitude":"45.08270","Longitude":"-91.33130","Snowdepth":"8.000","Units":"in","Rept_Date":"2019-12-22 12"},"coordinates":[1386,5865]},{"type":"Point","properties":{"Station_ID":"INL","Station_Nam":"FALLS INTERNATIONAL ARPT","Latitude":"48.56640","Longitude":"-93.40310","Snowdepth":"8.000","Units":"in","Rept_Date":"2019-12-23 00"},"coordinates":[900,8033]},{"type":"Point","properties":{"Station_ID":"IFSM5","Station_Nam":"INTERNATIONAL FALLS SNOW","Latitude":"48.57780","Longitude":"-93.39640","Snowdepth":"8.000","Units":"in","Rept_Date":"2019-12-22 12"},"coordinates":[902,8040]},{"type":"Point","properties":{"Station_ID":"HMYM1","Station_Nam":"HARMONY","Latitude":"44.94660","Longitude":"-69.54560","Snowdepth":"8.000","Units":"in","Rept_Date":"2019-12-22 12"},"coordinates":[6499,5781]},{"type":"Point","properties":{"Station_ID":"GRFN8","Station_Nam":"UNIVERSITY","Latitude":"47.93330","Longitude":"-97.08330","Snowdepth":"8.000","Units":"in","Rept_Date":"2019-12-23 06"},"coordinates":[36,7639]},{"type":"Point","properties":{"Station_ID":"EJNM4","Station_Nam":"EAST JORDAN 2NW","Latitude":"45.18630","Longitude":"-85.14770","Snowdepth":"8.000","Units":"in","Rept_Date":"2019-12-22 13"},"coordinates":[2838,5930]},{"type":"Point","properties":{"Station_ID":"DFXM1","Station_Nam":"DOVER-FOXCROFT","Latitude":"45.18720","Longitude":"-69.18350","Snowdepth":"8.000","Units":"in","Rept_Date":"2019-12-22 12"},"coordinates":[6584,5930]},{"type":"Point","properties":{"Station_ID":"COKM5","Station_Nam":"COOK","Latitude":"47.85060","Longitude":"-92.69250","Snowdepth":"8.000","Units":"in","Rept_Date":"2019-12-22 12"},"coordinates":[1067,7587]},{"type":"Point","properties":{"Station_ID":"CODN6","Station_Nam":"COLDEN","Latitude":"42.64720","Longitude":"-78.71110","Snowdepth":"8.000","Units":"in","Rept_Date":"2019-12-22 12"},"coordinates":[4348,4350]},{"type":"Point","properties":{"Station_ID":"BETM1","Station_Nam":"BETHEL 6 SSE","Latitude":"44.32000","Longitude":"-70.75680","Snowdepth":"8.000","Units":"in","Rept_Date":"2019-12-22 12"},"coordinates":[6215,5391]},{"type":"Point","properties":{"Station_ID":"NY-SR-22","Station_Nam":"GREENFIELD CENTER 1.6 W, NY","Latitude":"43.12684","Longitude":"-73.87860","Snowdepth":"7.500","Units":"in","Rept_Date":"2019-12-22 14"},"coordinates":[5482,4649]},{"type":"Point","properties":{"Station_ID":"MN-MC-16","Station_Nam":"HUTCHINSON 0.1 ENE, MN","Latitude":"44.88633","Longitude":"-94.37503","Snowdepth":"7.500","Units":"in","Rept_Date":"2019-12-22 13"},"coordinates":[672,5743]},{"type":"Point","properties":{"Station_ID":"MI-CX-7","Station_Nam":"EAST JORDAN 2.1 NNW, MI","Latitude":"45.18639","Longitude":"-85.14750","Snowdepth":"7.500","Units":"in","Rept_Date":"2019-12-22 13"},"coordinates":[2838,5930]},{"type":"Point","properties":{"Station_ID":"WMRM5","Station_Nam":"WILLMAR 5N","Latitude":"45.19010","Longitude":"-95.05860","Snowdepth":"7.000","Units":"in","Rept_Date":"2019-12-22 12"},"coordinates":[512,5932]},{"type":"Point","properties":{"Station_ID":"WI-PT-8","Station_Nam":"RUDOLPH 2.1 NNE, WI","Latitude":"44.52553","Longitude":"-89.78677","Snowdepth":"7.000","Units":"in","Rept_Date":"2019-12-22 11"},"coordinates":[1749,5519]},{"type":"Point","properties":{"Station_ID":"VT-BN-3","Station_Nam":"LANDGROVE 1.1 NNE, VT","Latitude":"43.29092","Longitude":"-72.83260","Snowdepth":"7.000","Units":"in","Rept_Date":"2019-12-22 12"},"coordinates":[5728,4751]},{"type":"Point","properties":{"Station_ID":"STPW3","Station_Nam":"STEVENS POINT","Latitude":"44.51130","Longitude":"-89.58550","Snowdepth":"7.000","Units":"in","Rept_Date":"2019-12-22 13"},"coordinates":[1796,5510]},{"type":"Point","properties":{"Station_ID":"SHHW3","Station_Nam":"SHAWANO 2SSW","Latitude":"44.76310","Longitude":"-88.61830","Snowdepth":"7.000","Units":"in","Rept_Date":"2019-12-22 14"},"coordinates":[2023,5667]},{"type":"Point","properties":{"Station_ID":"PSHW3","Station_Nam":"PESHTIGO","Latitude":"45.02810","Longitude":"-87.73560","Snowdepth":"7.000","Units":"in","Rept_Date":"2019-12-22 13"},"coordinates":[2230,5831]},{"type":"Point","properties":{"Station_ID":"PELW3","Station_Nam":"PELLA 3SE","Latitude":"44.73580","Longitude":"-88.73780","Snowdepth":"7.000","Units":"in","Rept_Date":"2019-12-22 11"},"coordinates":[1995,5650]},{"type":"Point","properties":{"Station_ID":"PEKN6","Station_Nam":"PECK LAKE","Latitude":"43.11500","Longitude":"-74.42360","Snowdepth":"7.000","Units":"in","Rept_Date":"2019-12-22 13"},"coordinates":[5355,4641]},{"type":"Point","properties":{"Station_ID":"NUMN3","Station_Nam":"NORTHUMBERLAND","Latitude":"44.52830","Longitude":"-71.50440","Snowdepth":"7.000","Units":"in","Rept_Date":"2019-12-22 13"},"coordinates":[6040,5520]},{"type":"Point","properties":{"Station_ID":"NH-CS-4","Station_Nam":"PITTSBURG 6.1 NE, NH","Latitude":"45.11060","Longitude":"-71.29760","Snowdepth":"7.000","Units":"in","Rept_Date":"2019-12-22 12"},"coordinates":[6088,5883]},{"type":"Point","properties":{"Station_ID":"NALN6","Station_Nam":"CATTARAUGUS","Latitude":"42.32450","Longitude":"-78.86700","Snowdepth":"7.000","Units":"in","Rept_Date":"2019-12-22 13"},"coordinates":[4312,4149]},{"type":"Point","properties":{"Station_ID":"MXON6","Station_Nam":"MEXICO","Latitude":"43.43830","Longitude":"-76.26560","Snowdepth":"7.000","Units":"in","Rept_Date":"2019-12-22 12"},"coordinates":[4922,4842]},{"type":"Point","properties":{"Station_ID":"MRIW3","Station_Nam":"MARINETTE","Latitude":"45.09830","Longitude":"-87.62360","Snowdepth":"7.000","Units":"in","Rept_Date":"2019-12-22 13"},"coordinates":[2257,5875]},{"type":"Point","properties":{"Station_ID":"MNJLCQKL","Station_Nam":"KIMBALL 2.6 NNW","Latitude":"45.34917","Longitude":"-94.31303","Snowdepth":"7.000","Units":"in","Rept_Date":"2019-12-22 12"},"coordinates":[687,6031]},{"type":"Point","properties":{"Station_ID":"MI-OT-16","Station_Nam":"GAYLORD 2.2 SSE, MI","Latitude":"44.99441","Longitude":"-84.65820","Snowdepth":"7.000","Units":"in","Rept_Date":"2019-12-22 12"},"coordinates":[2953,5810]},{"type":"Point","properties":{"Station_ID":"MECN6","Station_Nam":"MECKLENBURG 4 SW","Latitude":"42.44220","Longitude":"-76.75740","Snowdepth":"7.000","Units":"in","Rept_Date":"2019-12-22 12"},"coordinates":[4807,4223]},{"type":"Point","properties":{"Station_ID":"LBKV1","Station_Nam":"LYE BROOK","Latitude":"43.05000","Longitude":"-73.03330","Snowdepth":"7.000","Units":"in","Rept_Date":"2019-12-23 06"},"coordinates":[5681,4601]},{"type":"Point","properties":{"Station_ID":"KIMM5","Station_Nam":"KIMBALL 3N","Latitude":"45.35330","Longitude":"-94.30560","Snowdepth":"7.000","Units":"in","Rept_Date":"2019-12-22 12"},"coordinates":[688,6034]},{"type":"Point","properties":{"Station_ID":"FDRN8","Station_Nam":"FARGO 3S","Latitude":"46.82930","Longitude":"-96.79620","Snowdepth":"7.000","Units":"in","Rept_Date":"2019-12-22 23"},"coordinates":[104,6952]},{"type":"Point","properties":{"Station_ID":"FAR","Station_Nam":"HECTOR INTERNATIONAL ARPT","Latitude":"46.91560","Longitude":"-96.81440","Snowdepth":"7.000","Units":"in","Rept_Date":"2019-12-23 00"},"coordinates":[100,7006]},{"type":"Point","properties":{"Station_ID":"ETTW3","Station_Nam":"ETTRICK 4WNW","Latitude":"44.19000","Longitude":"-91.34240","Snowdepth":"7.000","Units":"in","Rept_Date":"2019-12-22 14"},"coordinates":[1384,5310]},{"type":"Point","properties":{"Station_ID":"EPMW3","Station_Nam":"EPHRAIM-1 NE WWTP","Latitude":"45.17080","Longitude":"-87.15360","Snowdepth":"7.000","Units":"in","Rept_Date":"2019-12-22 13"},"coordinates":[2367,5920]},{"type":"Point","properties":{"Station_ID":"ENFV1","Station_Nam":"ENOSBURG FALLS 2","Latitude":"44.90960","Longitude":"-72.81370","Snowdepth":"7.000","Units":"in","Rept_Date":"2019-12-22 12"},"coordinates":[5732,5758]},{"type":"Point","properties":{"Station_ID":"BMRW3","Station_Nam":"BLOOMER","Latitude":"45.09070","Longitude":"-91.48640","Snowdepth":"7.000","Units":"in","Rept_Date":"2019-12-22 14"},"coordinates":[1350,5870]},{"type":"Point","properties":{"Station_ID":"CAN-ON-132","Station_Nam":"ORANGEVILLE 5.1 SSW - CANWARN, CAN","Latitude":"43.87372","Longitude":"-80.13428","Snowdepth":"6.700","Units":"in","Rept_Date":"2019-12-22 14"},"coordinates":[4014,5113]},{"type":"Point","properties":{"Station_ID":"VT-WR-2","Station_Nam":"POMFRET 2.6 N, VT","Latitude":"43.74230","Longitude":"-72.52550","Snowdepth":"6.500","Units":"in","Rept_Date":"2019-12-22 12"},"coordinates":[5800,5031]},{"type":"Point","properties":{"Station_ID":"NY-CQ-39","Station_Nam":"GERRY 0.8 N, NY","Latitude":"42.20500","Longitude":"-79.24700","Snowdepth":"6.500","Units":"in","Rept_Date":"2019-12-22 13"},"coordinates":[4223,4075]},{"type":"Point","properties":{"Station_ID":"NH-HL-48","Station_Nam":"GREENVILLE 1.1 ENE, NH","Latitude":"42.77674","Longitude":"-71.77990","Snowdepth":"6.500","Units":"in","Rept_Date":"2019-12-22 13"},"coordinates":[5975,4431]},{"type":"Point","properties":{"Station_ID":"MN-MK-12","Station_Nam":"WATKINS 3.2 WSW, MN","Latitude":"45.30107","Longitude":"-94.47460","Snowdepth":"6.500","Units":"in","Rept_Date":"2019-12-22 15"},"coordinates":[649,6001]},{"type":"Point","properties":{"Station_ID":"WI-PC-10","Station_Nam":"RIVER FALLS 1.4 S, WI","Latitude":"44.83580","Longitude":"-92.62100","Snowdepth":"6.000","Units":"in","Rept_Date":"2019-12-22 13"},"coordinates":[1084,5712]},{"type":"Point","properties":{"Station_ID":"WDOM5","Station_Nam":"WINDOM","Latitude":"43.87700","Longitude":"-95.11590","Snowdepth":"6.000","Units":"in","Rept_Date":"2019-12-22 14"},"coordinates":[498,5115]},{"type":"Point","properties":{"Station_ID":"WABM5","Station_Nam":"WABASHA","Latitude":"44.38500","Longitude":"-92.04860","Snowdepth":"6.000","Units":"in","Rept_Date":"2019-12-22 13"},"coordinates":[1218,5431]},{"type":"Point","properties":{"Station_ID":"SUTV1","Station_Nam":"SUTTON","Latitude":"44.61220","Longitude":"-72.04810","Snowdepth":"6.000","Units":"in","Rept_Date":"2019-12-22 12"},"coordinates":[5912,5573]},{"type":"Point","properties":{"Station_ID":"ROWM3","Station_Nam":"ROWE 3NE","Latitude":"42.73500","Longitude":"-72.86920","Snowdepth":"6.000","Units":"in","Rept_Date":"2019-12-22 12"},"coordinates":[5719,4405]},{"type":"Point","properties":{"Station_ID":"ROBW3","Station_Nam":"ROBERTS WWTP","Latitude":"44.97070","Longitude":"-92.56200","Snowdepth":"6.000","Units":"in","Rept_Date":"2019-12-22 14"},"coordinates":[1098,5796]},{"type":"Point","properties":{"Station_ID":"PGVN6","Station_Nam":"PORTAGEVILLE","Latitude":"42.57580","Longitude":"-78.06720","Snowdepth":"6.000","Units":"in","Rept_Date":"2019-12-22 12"},"coordinates":[4499,4306]},{"type":"Point","properties":{"Station_ID":"NY-WY-10","Station_Nam":"WYOMING COOP, NY","Latitude":"42.82060","Longitude":"-78.14810","Snowdepth":"6.000","Units":"in","Rept_Date":"2019-12-22 12"},"coordinates":[4480,4458]},{"type":"Point","properties":{"Station_ID":"NY-OS-15","Station_Nam":"MINETTO 0.1 SE, NY","Latitude":"43.39771","Longitude":"-76.47960","Snowdepth":"6.000","Units":"in","Rept_Date":"2019-12-22 12"},"coordinates":[4872,4817]},{"type":"Point","properties":{"Station_ID":"NSFN3","Station_Nam":"NORTH STRATFORD","Latitude":"44.68190","Longitude":"-71.58570","Snowdepth":"6.000","Units":"in","Rept_Date":"2019-12-22 12"},"coordinates":[6021,5616]},{"type":"Point","properties":{"Station_ID":"NPTV1","Station_Nam":"NEWPORT","Latitude":"44.94900","Longitude":"-72.19120","Snowdepth":"6.000","Units":"in","Rept_Date":"2019-12-22 12"},"coordinates":[5878,5782]},{"type":"Point","properties":{"Station_ID":"MRLV1","Station_Nam":"MARLBORO","Latitude":"42.86000","Longitude":"-72.72000","Snowdepth":"6.000","Units":"in","Rept_Date":"2019-12-22 13"},"coordinates":[5754,4483]},{"type":"Point","properties":{"Station_ID":"MNV905PW","Station_Nam":"ROOSEVELT 5.3 N","Latitude":"48.87933","Longitude":"-95.08224","Snowdepth":"6.000","Units":"in","Rept_Date":"2019-12-22 13"},"coordinates":[506,8227]},{"type":"Point","properties":{"Station_ID":"MNG0GYSN","Station_Nam":"LONSDALE 1.1 SSW","Latitude":"44.46445","Longitude":"-93.43293","Snowdepth":"6.000","Units":"in","Rept_Date":"2019-12-22 12"},"coordinates":[893,5481]},{"type":"Point","properties":{"Station_ID":"MNFF4VWA","Station_Nam":"WABASHA 0.8 SSW","Latitude":"44.37265","Longitude":"-92.04459","Snowdepth":"6.000","Units":"in","Rept_Date":"2019-12-22 13"},"coordinates":[1219,5424]},{"type":"Point","properties":{"Station_ID":"MNCR4NWM","Station_Nam":"WINDOM 1.3 NNE","Latitude":"43.87817","Longitude":"-95.12003","Snowdepth":"6.000","Units":"in","Rept_Date":"2019-12-22 14"},"coordinates":[497,5116]},{"type":"Point","properties":{"Station_ID":"MN-SR-24","Station_Nam":"PAYNESVILLE 1.9 SSW, MN","Latitude":"45.35170","Longitude":"-94.73120","Snowdepth":"6.000","Units":"in","Rept_Date":"2019-12-22 13"},"coordinates":[588,6033]},{"type":"Point","properties":{"Station_ID":"MN-SC-2","Station_Nam":"PRIOR LAKE 2.0 W, MN","Latitude":"44.71250","Longitude":"-93.46360","Snowdepth":"6.000","Units":"in","Rept_Date":"2019-12-22 13"},"coordinates":[886,5635]},{"type":"Point","properties":{"Station_ID":"MN-RM-2","Station_Nam":"NORTH SAINT PAUL 1.0 NNW, MN","Latitude":"45.02629","Longitude":"-93.00790","Snowdepth":"6.000","Units":"in","Rept_Date":"2019-12-22 12"},"coordinates":[993,5830]},{"type":"Point","properties":{"Station_ID":"MN-RC-1","Station_Nam":"MONTGOMERY 3.2 ENE, MN","Latitude":"44.46400","Longitude":"-93.51980","Snowdepth":"6.000","Units":"in","Rept_Date":"2019-12-22 12"},"coordinates":[873,5480]},{"type":"Point","properties":{"Station_ID":"MN-HN-78","Station_Nam":"RICHFIELD 1.9 WNW, MN","Latitude":"44.89129","Longitude":"-93.31410","Snowdepth":"6.000","Units":"in","Rept_Date":"2019-12-22 11"},"coordinates":[921,5746]},{"type":"Point","properties":{"Station_ID":"MN-DK-70","Station_Nam":"EAGAN 2.0 NNW, MN","Latitude":"44.84322","Longitude":"-93.17899","Snowdepth":"6.000","Units":"in","Rept_Date":"2019-12-22 14"},"coordinates":[953,5716]},{"type":"Point","properties":{"Station_ID":"MN-CV-22","Station_Nam":"VICTORIA 1.6 WSW, MN","Latitude":"44.85670","Longitude":"-93.68640","Snowdepth":"6.000","Units":"in","Rept_Date":"2019-12-22 13"},"coordinates":[834,5725]},{"type":"Point","properties":{"Station_ID":"ME-FR-4","Station_Nam":"NEW SHARON 2.0 NW, ME","Latitude":"44.66582","Longitude":"-70.02720","Snowdepth":"6.000","Units":"in","Rept_Date":"2019-12-22 12"},"coordinates":[6386,5606]},{"type":"Point","properties":{"Station_ID":"ME-AR-18","Station_Nam":"NEW SWEDEN 4.9 NNW, ME","Latitude":"47.01080","Longitude":"-68.14390","Snowdepth":"6.000","Units":"in","Rept_Date":"2019-12-22 12"},"coordinates":[6828,7065]},{"type":"Point","properties":{"Station_ID":"MALN6","Station_Nam":"MALONE","Latitude":"44.84180","Longitude":"-74.30600","Snowdepth":"6.000","Units":"in","Rept_Date":"2019-12-22 12"},"coordinates":[5382,5715]},{"type":"Point","properties":{"Station_ID":"MA-FR-13","Station_Nam":"CONWAY 2.9 NW, MA","Latitude":"42.54419","Longitude":"-72.72743","Snowdepth":"6.000","Units":"in","Rept_Date":"2019-12-22 13"},"coordinates":[5753,4286]},{"type":"Point","properties":{"Station_ID":"JEFN3","Station_Nam":"JEFFERSON","Latitude":"44.41690","Longitude":"-71.50080","Snowdepth":"6.000","Units":"in","Rept_Date":"2019-12-22 12"},"coordinates":[6040,5451]},{"type":"Point","properties":{"Station_ID":"ISLV1","Station_Nam":"ISLAND POND","Latitude":"44.81280","Longitude":"-71.89020","Snowdepth":"6.000","Units":"in","Rept_Date":"2019-12-22 16"},"coordinates":[5949,5697]},{"type":"Point","properties":{"Station_ID":"EAU","Station_Nam":"CHIPPEWA VALLEY REGIONAL AIRPORT","Latitude":"44.86650","Longitude":"-91.48790","Snowdepth":"6.000","Units":"in","Rept_Date":"2019-12-23 00"},"coordinates":[1350,5731]},{"type":"Point","properties":{"Station_ID":"EAHV1","Station_Nam":"EAST HAVEN","Latitude":"44.64250","Longitude":"-71.89120","Snowdepth":"6.000","Units":"in","Rept_Date":"2019-12-22 12"},"coordinates":[5949,5592]},{"type":"Point","properties":{"Station_ID":"CORV1","Station_Nam":"CORINTH","Latitude":"44.00690","Longitude":"-72.31940","Snowdepth":"6.000","Units":"in","Rept_Date":"2019-12-22 12"},"coordinates":[5848,5196]},{"type":"Point","properties":{"Station_ID":"CORM1","Station_Nam":"CORINNA","Latitude":"44.91980","Longitude":"-69.24180","Snowdepth":"6.000","Units":"in","Rept_Date":"2019-12-22 15"},"coordinates":[6571,5764]},{"type":"Point","properties":{"Station_ID":"BRDM1","Station_Nam":"BRIDGEWATER","Latitude":"46.42870","Longitude":"-67.84370","Snowdepth":"6.000","Units":"in","Rept_Date":"2019-12-22 23"},"coordinates":[6899,6703]},{"type":"Point","properties":{"Station_ID":"BFSW3","Station_Nam":"BIG FALLS-5 NW","Latitude":"44.63980","Longitude":"-89.11330","Snowdepth":"6.000","Units":"in","Rept_Date":"2019-12-22 13"},"coordinates":[1907,5590]},{"type":"Point","properties":{"Station_ID":"ATAN6","Station_Nam":"ATTICA 7 SW","Latitude":"42.81070","Longitude":"-78.39790","Snowdepth":"6.000","Units":"in","Rept_Date":"2019-12-22 11"},"coordinates":[4422,4452]},{"type":"Point","properties":{"Station_ID":"APXM4","Station_Nam":"GAYLORD 9SSW","Latitude":"44.90720","Longitude":"-84.71880","Snowdepth":"6.000","Units":"in","Rept_Date":"2019-12-23 06"},"coordinates":[2938,5756]},{"type":"Point","properties":{"Station_ID":"ALTM5","Station_Nam":"ALTURA 5W","Latitude":"44.06330","Longitude":"-92.03970","Snowdepth":"6.000","Units":"in","Rept_Date":"2019-12-22 13"},"coordinates":[1220,5231]},{"type":"Point","properties":{"Station_ID":"ALFN6","Station_Nam":"ALFRED","Latitude":"42.27980","Longitude":"-77.76560","Snowdepth":"6.000","Units":"in","Rept_Date":"2019-12-22 12"},"coordinates":[4570,4122]},{"type":"Point","properties":{"Station_ID":"WI-BN-6","Station_Nam":"SUAMICO 4.4 WNW, WI","Latitude":"44.66111","Longitude":"-88.11780","Snowdepth":"5.500","Units":"in","Rept_Date":"2019-12-22 13"},"coordinates":[2141,5603]},{"type":"Point","properties":{"Station_ID":"VT-WH-29","Station_Nam":"BRATTLEBORO 0.7 S, VT","Latitude":"42.84030","Longitude":"-72.55580","Snowdepth":"5.500","Units":"in","Rept_Date":"2019-12-22 12"},"coordinates":[5793,4470]},{"type":"Point","properties":{"Station_ID":"VT-OL-9","Station_Nam":"GREENSBORO 2.1 NNW, VT","Latitude":"44.60528","Longitude":"-72.30940","Snowdepth":"5.500","Units":"in","Rept_Date":"2019-12-22 12"},"coordinates":[5851,5568]},{"type":"Point","properties":{"Station_ID":"NY-FK-9","Station_Nam":"GABRIELS 1.3 SE, NY","Latitude":"44.41934","Longitude":"-74.16194","Snowdepth":"5.500","Units":"in","Rept_Date":"2019-12-22 12"},"coordinates":[5416,5453]},{"type":"Point","properties":{"Station_ID":"MN-SV-4","Station_Nam":"DONNELLY 2.9 NW, MN","Latitude":"45.71649","Longitude":"-96.06043","Snowdepth":"5.500","Units":"in","Rept_Date":"2019-12-22 14"},"coordinates":[277,6260]},{"type":"Point","properties":{"Station_ID":"MN-RM-54","Station_Nam":"SAINT PAUL 5.1 SW, MN","Latitude":"44.90390","Longitude":"-93.18820","Snowdepth":"5.500","Units":"in","Rept_Date":"2019-12-22 13"},"coordinates":[951,5754]},{"type":"Point","properties":{"Station_ID":"MN-PK-15","Station_Nam":"MENTOR 2.5 SSW, MN","Latitude":"47.66625","Longitude":"-96.17328","Snowdepth":"5.500","Units":"in","Rept_Date":"2019-12-22 14"},"coordinates":[250,7473]},{"type":"Point","properties":{"Station_ID":"MN-GH-28","Station_Nam":"CANNON FALLS 0.5 SE, MN","Latitude":"44.50866","Longitude":"-92.89526","Snowdepth":"5.500","Units":"in","Rept_Date":"2019-12-22 14"},"coordinates":[1019,5508]},{"type":"Point","properties":{"Station_ID":"CAN-ON-452","Station_Nam":"CHATSWORTH 1.8 ENE - GSCA, CAN","Latitude":"44.46118","Longitude":"-80.87506","Snowdepth":"5.100","Units":"in","Rept_Date":"2019-12-22 12"},"coordinates":[3840,5479]},{"type":"Point","properties":{"Station_ID":"WRNM5","Station_Nam":"WORTHINGTON,MN","Latitude":"43.65440","Longitude":"-95.57920","Snowdepth":"5.000","Units":"in","Rept_Date":"2019-12-22 13"},"coordinates":[389,4977]},{"type":"Point","properties":{"Station_ID":"WNNM5","Station_Nam":"WINNEBAGO","Latitude":"43.76920","Longitude":"-94.18730","Snowdepth":"5.000","Units":"in","Rept_Date":"2019-12-22 13"},"coordinates":[716,5048]},{"type":"Point","properties":{"Station_ID":"WI-PK-4","Station_Nam":"DRESSER 6.1 ESE, WI","Latitude":"45.32436","Longitude":"-92.52080","Snowdepth":"5.000","Units":"in","Rept_Date":"2019-12-22 14"},"coordinates":[1107,6016]},{"type":"Point","properties":{"Station_ID":"WDSV1","Station_Nam":"WOODSTOCK","Latitude":"43.63030","Longitude":"-72.50720","Snowdepth":"5.000","Units":"in","Rept_Date":"2019-12-22 13"},"coordinates":[5804,4962]},{"type":"Point","properties":{"Station_ID":"VT-WS-30","Station_Nam":"WOODBURY 3.4 NNW, VT","Latitude":"44.48825","Longitude":"-72.43258","Snowdepth":"5.000","Units":"in","Rept_Date":"2019-12-22 12"},"coordinates":[5822,5496]},{"type":"Point","properties":{"Station_ID":"VT-RT-7","Station_Nam":"RUTLAND 1.2 N, VT","Latitude":"43.62533","Longitude":"-72.97790","Snowdepth":"5.000","Units":"in","Rept_Date":"2019-12-22 12"},"coordinates":[5694,4959]},{"type":"Point","properties":{"Station_ID":"VT-OL-2","Station_Nam":"BARTON 3.0 ENE, VT","Latitude":"44.75863","Longitude":"-72.11680","Snowdepth":"5.000","Units":"in","Rept_Date":"2019-12-22 12"},"coordinates":[5896,5664]},{"type":"Point","properties":{"Station_ID":"VT-OG-11","Station_Nam":"VERSHIRE 1.5 ESE, VT","Latitude":"43.96138","Longitude":"-72.29777","Snowdepth":"5.000","Units":"in","Rept_Date":"2019-12-22 15"},"coordinates":[5853,5168]},{"type":"Point","properties":{"Station_ID":"VT-ES-1","Station_Nam":"GRANBY 1.4 NW, VT","Latitude":"44.58330","Longitude":"-71.77870","Snowdepth":"5.000","Units":"in","Rept_Date":"2019-12-22 12"},"coordinates":[5975,5555]},{"type":"Point","properties":{"Station_ID":"TOPN6","Station_Nam":"TUPPER LAKE SUNMOUNT","Latitude":"44.23070","Longitude":"-74.43820","Snowdepth":"5.000","Units":"in","Rept_Date":"2019-12-22 12"},"coordinates":[5351,5335]},{"type":"Point","properties":{"Station_ID":"STC","Station_Nam":"ST. CLOUD REGIONAL AIRPORT","Latitude":"45.54330","Longitude":"-94.05140","Snowdepth":"5.000","Units":"in","Rept_Date":"2019-12-23 00"},"coordinates":[748,6152]},{"type":"Point","properties":{"Station_ID":"SHHN6","Station_Nam":"SCHOHARIE VILLAGE","Latitude":"42.66500","Longitude":"-74.30360","Snowdepth":"5.000","Units":"in","Rept_Date":"2019-12-22 12"},"coordinates":[5383,4361]},{"type":"Point","properties":{"Station_ID":"SGVN6","Station_Nam":"SPRINGVILLE","Latitude":"42.54970","Longitude":"-78.57670","Snowdepth":"5.000","Units":"in","Rept_Date":"2019-12-22 22"},"coordinates":[4380,4289]},{"type":"Point","properties":{"Station_ID":"SCSM5","Station_Nam":"ST CLOUD STATE","Latitude":"45.55100","Longitude":"-94.14950","Snowdepth":"5.000","Units":"in","Rept_Date":"2019-12-22 12"},"coordinates":[725,6157]},{"type":"Point","properties":{"Station_ID":"SBOP1","Station_Nam":"SPRINGBORO","Latitude":"41.81660","Longitude":"-80.43330","Snowdepth":"5.000","Units":"in","Rept_Date":"2019-12-22 12"},"coordinates":[3944,3833]},{"type":"Point","properties":{"Station_ID":"RUTV1","Station_Nam":"RUTLAND","Latitude":"43.62530","Longitude":"-72.97810","Snowdepth":"5.000","Units":"in","Rept_Date":"2019-12-22 12"},"coordinates":[5694,4959]},{"type":"Point","properties":{"Station_ID":"PULN6","Station_Nam":"PULASKI","Latitude":"43.56960","Longitude":"-76.11630","Snowdepth":"5.000","Units":"in","Rept_Date":"2019-12-22 11"},"coordinates":[4957,4924]},{"type":"Point","properties":{"Station_ID":"PBAN8","Station_Nam":"SITE 1-3MI.N","Latitude":"48.97420","Longitude":"-97.23860","Snowdepth":"5.000","Units":"in","Rept_Date":"2019-12-22 13"},"coordinates":[0,8286]},{"type":"Point","properties":{"Station_ID":"PA-CW-8","Station_Nam":"SPRINGBORO 3.0 WNW, PA","Latitude":"41.81654","Longitude":"-80.42540","Snowdepth":"5.000","Units":"in","Rept_Date":"2019-12-22 12"},"coordinates":[3946,3833]},{"type":"Point","properties":{"Station_ID":"NY-YT-8","Station_Nam":"MIDDLESEX 3.5 S, NY","Latitude":"42.65390","Longitude":"-77.26600","Snowdepth":"5.000","Units":"in","Rept_Date":"2019-12-22 14"},"coordinates":[4687,4354]},{"type":"Point","properties":{"Station_ID":"NY-OT-11","Station_Nam":"HARTWICK, NY","Latitude":"42.65990","Longitude":"-75.05000","Snowdepth":"5.000","Units":"in","Rept_Date":"2019-12-22 15"},"coordinates":[5208,4358]},{"type":"Point","properties":{"Station_ID":"NY-OS-21","Station_Nam":"PULASKI 0.5 NE, NY","Latitude":"43.56997","Longitude":"-76.11950","Snowdepth":"5.000","Units":"in","Rept_Date":"2019-12-22 12"},"coordinates":[4957,4924]},{"type":"Point","properties":{"Station_ID":"NY-OG-10","Station_Nam":"CAMILLUS 1.0 W, NY","Latitude":"43.03962","Longitude":"-76.32830","Snowdepth":"5.000","Units":"in","Rept_Date":"2019-12-22 12"},"coordinates":[4908,4594]},{"type":"Point","properties":{"Station_ID":"NY-GN-6","Station_Nam":"STAFFORD 1.8 NE, NY","Latitude":"42.99890","Longitude":"-78.04830","Snowdepth":"5.000","Units":"in","Rept_Date":"2019-12-22 12"},"coordinates":[4504,4569]},{"type":"Point","properties":{"Station_ID":"NY-CR-5","Station_Nam":"MARATHON 1.0 NW, NY","Latitude":"42.45161","Longitude":"-76.04370","Snowdepth":"5.000","Units":"in","Rept_Date":"2019-12-22 12"},"coordinates":[4974,4228]},{"type":"Point","properties":{"Station_ID":"NH-MR-41","Station_Nam":"NEWBURY 1.6 NW, NH","Latitude":"43.33667","Longitude":"-72.06060","Snowdepth":"5.000","Units":"in","Rept_Date":"2019-12-22 12"},"coordinates":[5909,4779]},{"type":"Point","properties":{"Station_ID":"NH-GR-47","Station_Nam":"LITTLETON 7.3 W, NH","Latitude":"44.31847","Longitude":"-71.91086","Snowdepth":"5.000","Units":"in","Rept_Date":"2019-12-22 13"},"coordinates":[5944,5390]},{"type":"Point","properties":{"Station_ID":"NCBN6","Station_Nam":"NEWCOMB","Latitude":"43.97070","Longitude":"-74.22200","Snowdepth":"5.000","Units":"in","Rept_Date":"2019-12-22 14"},"coordinates":[5402,5174]},{"type":"Point","properties":{"Station_ID":"MPXM5","Station_Nam":"CHANHASSEN WSFO","Latitude":"44.84960","Longitude":"-93.56440","Snowdepth":"5.000","Units":"in","Rept_Date":"2019-12-23 06"},"coordinates":[862,5720]},{"type":"Point","properties":{"Station_ID":"MNMC0BBE","Station_Nam":"BRECKENRIDGE 3.1 E","Latitude":"46.25468","Longitude":"-96.52093","Snowdepth":"5.000","Units":"in","Rept_Date":"2019-12-22 11"},"coordinates":[168,6595]},{"type":"Point","properties":{"Station_ID":"MNKQ8XME","Station_Nam":"MELROSE 0.7 NW","Latitude":"45.68070","Longitude":"-94.82005","Snowdepth":"5.000","Units":"in","Rept_Date":"2019-12-22 13"},"coordinates":[568,6237]},{"type":"Point","properties":{"Station_ID":"MNHMOECS","Station_Nam":"HAZELTINE 1.9 NE","Latitude":"44.85545","Longitude":"-93.57125","Snowdepth":"5.000","Units":"in","Rept_Date":"2019-12-22 12"},"coordinates":[861,5724]},{"type":"Point","properties":{"Station_ID":"MNE9SLWI","Station_Nam":"LEAVENWORTH 5.4 S","Latitude":"44.14481","Longitude":"-94.78882","Snowdepth":"5.000","Units":"in","Rept_Date":"2019-12-22 13"},"coordinates":[575,5282]},{"type":"Point","properties":{"Station_ID":"MNDI83EN","Station_Nam":"ELGIN 2.2 SSW","Latitude":"44.10044","Longitude":"-92.26947","Snowdepth":"5.000","Units":"in","Rept_Date":"2019-12-22 13"},"coordinates":[1166,5254]},{"type":"Point","properties":{"Station_ID":"MNC40YWG","Station_Nam":"WINNEBAGO 0.4 E","Latitude":"43.77370","Longitude":"-94.16484","Snowdepth":"5.000","Units":"in","Rept_Date":"2019-12-22 13"},"coordinates":[721,5051]},{"type":"Point","properties":{"Station_ID":"MLRM5","Station_Nam":"MELROSE","Latitude":"45.67710","Longitude":"-94.80200","Snowdepth":"5.000","Units":"in","Rept_Date":"2019-12-22 13"},"coordinates":[572,6235]},{"type":"Point","properties":{"Station_ID":"MI-OT-4","Station_Nam":"GAYLORD 1.7 WNW, MI","Latitude":"45.03280","Longitude":"-84.71090","Snowdepth":"5.000","Units":"in","Rept_Date":"2019-12-22 13"},"coordinates":[2940,5834]},{"type":"Point","properties":{"Station_ID":"ME-SM-10","Station_Nam":"NORTH NEW PORTLAND 0.3 WSW, ME","Latitude":"44.92353","Longitude":"-70.02788","Snowdepth":"5.000","Units":"in","Rept_Date":"2019-12-22 12"},"coordinates":[6386,5766]},{"type":"Point","properties":{"Station_ID":"MA-WR-22","Station_Nam":"FITCHBURG 2.0 NNE, MA","Latitude":"42.61671","Longitude":"-71.80100","Snowdepth":"5.000","Units":"in","Rept_Date":"2019-12-22 13"},"coordinates":[5970,4331]},{"type":"Point","properties":{"Station_ID":"LVRM1","Station_Nam":"LIVERMORE FALLS 1 E","Latitude":"44.47160","Longitude":"-70.15940","Snowdepth":"5.000","Units":"in","Rept_Date":"2019-12-22 12"},"coordinates":[6355,5485]},{"type":"Point","properties":{"Station_ID":"LGRN8","Station_Nam":"LIDGERWOOD,ND","Latitude":"46.06670","Longitude":"-97.16670","Snowdepth":"5.000","Units":"in","Rept_Date":"2019-12-22 13"},"coordinates":[17,6478]},{"type":"Point","properties":{"Station_ID":"LERN6","Station_Nam":"LE ROY 1E","Latitude":"42.97360","Longitude":"-77.96710","Snowdepth":"5.000","Units":"in","Rept_Date":"2019-12-22 13"},"coordinates":[4523,4553]},{"type":"Point","properties":{"Station_ID":"LBRM5","Station_Nam":"LAKE BRONSON DAM","Latitude":"48.72410","Longitude":"-96.62180","Snowdepth":"5.000","Units":"in","Rept_Date":"2019-12-22 14"},"coordinates":[145,8131]},{"type":"Point","properties":{"Station_ID":"LACN3","Station_Nam":"LACONIA","Latitude":"43.53010","Longitude":"-71.46260","Snowdepth":"5.000","Units":"in","Rept_Date":"2019-12-22 10"},"coordinates":[6049,4899]},{"type":"Point","properties":{"Station_ID":"KSYR","Station_Nam":"SYRACUSE HANCOCK INTERNATIONAL  AIRPORT","Latitude":"43.11666","Longitude":"-76.10000","Snowdepth":"5.000","Units":"in","Rept_Date":"2019-12-22 18"},"coordinates":[4961,4642]},{"type":"Point","properties":{"Station_ID":"KSEM4","Station_Nam":"KALKASKA 11SE","Latitude":"44.58970","Longitude":"-85.04860","Snowdepth":"5.000","Units":"in","Rept_Date":"2019-12-22 13"},"coordinates":[2861,5559]},{"type":"Point","properties":{"Station_ID":"JUDW3","Station_Nam":"FISH CREEK 3S - JUDDVILLE","Latitude":"45.08920","Longitude":"-87.25890","Snowdepth":"5.000","Units":"in","Rept_Date":"2019-12-22 14"},"coordinates":[2342,5869]},{"type":"Point","properties":{"Station_ID":"INDN6","Station_Nam":"INDIAN LAKE","Latitude":"43.75500","Longitude":"-74.27560","Snowdepth":"5.000","Units":"in","Rept_Date":"2019-12-22 14"},"coordinates":[5389,5039]},{"type":"Point","properties":{"Station_ID":"ILEW3","Station_Nam":"STILES 1S","Latitude":"44.84190","Longitude":"-88.05420","Snowdepth":"5.000","Units":"in","Rept_Date":"2019-12-22 13"},"coordinates":[2156,5716]},{"type":"Point","properties":{"Station_ID":"HVJP1","Station_Nam":"HIDDEN VALLEY COOP","Latitude":"40.04200","Longitude":"-79.25660","Snowdepth":"5.000","Units":"in","Rept_Date":"2019-12-22 13"},"coordinates":[4220,2729]},{"type":"Point","properties":{"Station_ID":"HRTM1","Station_Nam":"HARTFORD","Latitude":"44.37440","Longitude":"-70.31620","Snowdepth":"5.000","Units":"in","Rept_Date":"2019-12-22 12"},"coordinates":[6318,5425]},{"type":"Point","properties":{"Station_ID":"GILV1","Station_Nam":"GILMAN","Latitude":"44.41120","Longitude":"-71.71860","Snowdepth":"5.000","Units":"in","Rept_Date":"2019-12-22 11"},"coordinates":[5989,5448]},{"type":"Point","properties":{"Station_ID":"GFDN6","Station_Nam":"CHASES LAKE","Latitude":"43.75920","Longitude":"-75.29980","Snowdepth":"5.000","Units":"in","Rept_Date":"2019-12-22 11"},"coordinates":[5149,5042]},{"type":"Point","properties":{"Station_ID":"GAYM4","Station_Nam":"GAYLORD","Latitude":"45.03320","Longitude":"-84.71130","Snowdepth":"5.000","Units":"in","Rept_Date":"2019-12-22 13"},"coordinates":[2940,5835]},{"type":"Point","properties":{"Station_ID":"FARM1","Station_Nam":"FARMINGTON","Latitude":"44.68930","Longitude":"-70.15640","Snowdepth":"5.000","Units":"in","Rept_Date":"2019-12-22 12"},"coordinates":[6356,5621]},{"type":"Point","properties":{"Station_ID":"EHYM3","Station_Nam":"EAST HAWLEY","Latitude":"42.57410","Longitude":"-72.86790","Snowdepth":"5.000","Units":"in","Rept_Date":"2019-12-22 13"},"coordinates":[5720,4305]},{"type":"Point","properties":{"Station_ID":"EGNM5","Station_Nam":"ELGIN 2SSW","Latitude":"44.09700","Longitude":"-92.27010","Snowdepth":"5.000","Units":"in","Rept_Date":"2019-12-22 13"},"coordinates":[1166,5252]},{"type":"Point","properties":{"Station_ID":"CVWP1","Station_Nam":"CHANDLER VALLEY 1SE","Latitude":"41.93010","Longitude":"-79.29700","Snowdepth":"5.000","Units":"in","Rept_Date":"2019-12-22 12"},"coordinates":[4211,3904]},{"type":"Point","properties":{"Station_ID":"CNTW3","Station_Nam":"CLINTONVILLE","Latitude":"44.62270","Longitude":"-88.74830","Snowdepth":"5.000","Units":"in","Rept_Date":"2019-12-22 13"},"coordinates":[1993,5579]},{"type":"Point","properties":{"Station_ID":"CARM1","Station_Nam":"CARIBOU WFO","Latitude":"46.86810","Longitude":"-68.01250","Snowdepth":"5.000","Units":"in","Rept_Date":"2019-12-23 05"},"coordinates":[6859,6976]},{"type":"Point","properties":{"Station_ID":"BKEM5","Station_Nam":"BRECKENRIDGE 4NE","Latitude":"46.30470","Longitude":"-96.52170","Snowdepth":"5.000","Units":"in","Rept_Date":"2019-12-22 11"},"coordinates":[168,6626]},{"type":"Point","properties":{"Station_ID":"BDFP1","Station_Nam":"BRADFORD,PA","Latitude":"41.95000","Longitude":"-78.73330","Snowdepth":"5.000","Units":"in","Rept_Date":"2019-12-22 13"},"coordinates":[4343,3916]},{"type":"Point","properties":{"Station_ID":"ANGN6","Station_Nam":"ANGELICA","Latitude":"42.31080","Longitude":"-78.02300","Snowdepth":"5.000","Units":"in","Rept_Date":"2019-12-22 12"},"coordinates":[4510,4141]},{"type":"Point","properties":{"Station_ID":"ABNM3","Station_Nam":"ASHBURNHAM NORTH","Latitude":"42.66170","Longitude":"-71.93590","Snowdepth":"5.000","Units":"in","Rept_Date":"2019-12-22 12"},"coordinates":[5938,4359]},{"type":"Point","properties":{"Station_ID":"QGT","Station_Nam":"QGT","Latitude":"49.64720","Longitude":"-67.62640","Snowdepth":"4.842","Units":"in","Rept_Date":"2019-12-22 12"},"coordinates":[6950,8705]},{"type":"Point","properties":{"Station_ID":"CAN-NS-94","Station_Nam":"MARGAREE FORKS 2.6 SSE CBN, CAN","Latitude":"46.30937","Longitude":"-61.07603","Snowdepth":"4.700","Units":"in","Rept_Date":"2019-12-22 13"},"coordinates":[8487,6629]},{"type":"Point","properties":{"Station_ID":"CAN-NS-105","Station_Nam":"SLUICE POINT 0.4 SSE, CAN","Latitude":"43.78767","Longitude":"-65.96486","Snowdepth":"4.700","Units":"in","Rept_Date":"2019-12-22 12"},"coordinates":[7340,5060]},{"type":"Point","properties":{"Station_ID":"VT-LM-7","Station_Nam":"HYDE PARK 2.9 NE, VT","Latitude":"44.62080","Longitude":"-72.57250","Snowdepth":"4.500","Units":"in","Rept_Date":"2019-12-22 13"},"coordinates":[5789,5578]},{"type":"Point","properties":{"Station_ID":"VT-ES-3","Station_Nam":"LUNENBURG 2.3 NNW, VT","Latitude":"44.49324","Longitude":"-71.70446","Snowdepth":"4.500","Units":"in","Rept_Date":"2019-12-22 12"},"coordinates":[5993,5499]},{"type":"Point","properties":{"Station_ID":"VT-CL-18","Station_Nam":"WHEELOCK 1.6 S, VT","Latitude":"44.56491","Longitude":"-72.08830","Snowdepth":"4.500","Units":"in","Rept_Date":"2019-12-22 12"},"coordinates":[5903,5543]},{"type":"Point","properties":{"Station_ID":"NY-WR-10","Station_Nam":"WARRENSBURG 2.1 WNW, NY","Latitude":"43.51784","Longitude":"-73.81069","Snowdepth":"4.500","Units":"in","Rept_Date":"2019-12-22 13"},"coordinates":[5498,4892]},{"type":"Point","properties":{"Station_ID":"NY-TM-18","Station_Nam":"EAST ITHACA 4.7 E, NY","Latitude":"42.41910","Longitude":"-76.37330","Snowdepth":"4.500","Units":"in","Rept_Date":"2019-12-22 12"},"coordinates":[4897,4208]},{"type":"Point","properties":{"Station_ID":"NY-SY-1","Station_Nam":"SMITH VALLEY 1.9 SE, NY","Latitude":"42.39072","Longitude":"-76.71760","Snowdepth":"4.500","Units":"in","Rept_Date":"2019-12-22 12"},"coordinates":[4816,4191]},{"type":"Point","properties":{"Station_ID":"NY-OT-29","Station_Nam":"NEW BERLIN 1.5 NE, NY","Latitude":"42.63689","Longitude":"-75.31090","Snowdepth":"4.500","Units":"in","Rept_Date":"2019-12-22 13"},"coordinates":[5146,4344]},{"type":"Point","properties":{"Station_ID":"NY-NG-12","Station_Nam":"LOCKPORT 0.8 NE, NY","Latitude":"43.17645","Longitude":"-78.68340","Snowdepth":"4.500","Units":"in","Rept_Date":"2019-12-22 12"},"coordinates":[4355,4679]},{"type":"Point","properties":{"Station_ID":"NY-ER-138","Station_Nam":"EAST AURORA 3.4 NNE, NY","Latitude":"42.81400","Longitude":"-78.59670","Snowdepth":"4.500","Units":"in","Rept_Date":"2019-12-22 12"},"coordinates":[4375,4454]},{"type":"Point","properties":{"Station_ID":"NY-CQ-34","Station_Nam":"KENNEDY 2.6 SE, NY","Latitude":"42.12567","Longitude":"-79.07235","Snowdepth":"4.500","Units":"in","Rept_Date":"2019-12-22 13"},"coordinates":[4263,4026]},{"type":"Point","properties":{"Station_ID":"NH-MR-45","Station_Nam":"NORTHFIELD 2.8 E, NH","Latitude":"43.43945","Longitude":"-71.53730","Snowdepth":"4.500","Units":"in","Rept_Date":"2019-12-22 12"},"coordinates":[6032,4843]},{"type":"Point","properties":{"Station_ID":"MN-HN-31","Station_Nam":"MAPLE GROVE 1.0 NNE, MN","Latitude":"45.12261","Longitude":"-93.45790","Snowdepth":"4.500","Units":"in","Rept_Date":"2019-12-22 17"},"coordinates":[887,5890]},{"type":"Point","properties":{"Station_ID":"MN-BW-8","Station_Nam":"COMFREY 6.5 ENE, MN","Latitude":"44.15109","Longitude":"-94.78516","Snowdepth":"4.500","Units":"in","Rept_Date":"2019-12-22 14"},"coordinates":[576,5286]},{"type":"Point","properties":{"Station_ID":"ME-HN-4","Station_Nam":"MARIAVILLE 1.4 ESE, ME","Latitude":"44.71810","Longitude":"-68.38810","Snowdepth":"4.500","Units":"in","Rept_Date":"2019-12-22 13"},"coordinates":[6771,5639]},{"type":"Point","properties":{"Station_ID":"ME-FR-22","Station_Nam":"FARMINGTON 4.8 NNW, ME","Latitude":"44.73396","Longitude":"-70.18007","Snowdepth":"4.500","Units":"in","Rept_Date":"2019-12-22 14"},"coordinates":[6350,5648]},{"type":"Point","properties":{"Station_ID":"CAN-ON-5","Station_Nam":"OWEN SOUND 1.5 NW - GSCA, CAN","Latitude":"44.57837","Longitude":"-80.95461","Snowdepth":"4.500","Units":"in","Rept_Date":"2019-12-22 13"},"coordinates":[3822,5552]},{"type":"Point","properties":{"Station_ID":"ME-AN-32","Station_Nam":"WINTHROP 9.4 W, ME","Latitude":"44.30476","Longitude":"-70.15835","Snowdepth":"4.200","Units":"in","Rept_Date":"2019-12-22 12"},"coordinates":[6356,5381]},{"type":"Point","properties":{"Station_ID":"WRRP1","Station_Nam":"ALLEGHENY RIVER AT WARREN","Latitude":"41.84380","Longitude":"-79.15000","Snowdepth":"4.000","Units":"in","Rept_Date":"2019-12-22 12"},"coordinates":[4245,3850]},{"type":"Point","properties":{"Station_ID":"WNDP1","Station_Nam":"WINDBER COUNTY CLUB","Latitude":"40.28780","Longitude":"-78.77530","Snowdepth":"4.000","Units":"in","Rept_Date":"2019-12-22 12"},"coordinates":[4333,2882]},{"type":"Point","properties":{"Station_ID":"WBLN6","Station_Nam":"WEST BLOOMFIELD","Latitude":"42.88460","Longitude":"-77.53400","Snowdepth":"4.000","Units":"in","Rept_Date":"2019-12-22 12"},"coordinates":[4625,4498]},{"type":"Point","properties":{"Station_ID":"WALN6","Station_Nam":"WALTON 2","Latitude":"42.18470","Longitude":"-75.14550","Snowdepth":"4.000","Units":"in","Rept_Date":"2019-12-22 10"},"coordinates":[5185,4062]},{"type":"Point","properties":{"Station_ID":"VT-WR-10","Station_Nam":"WEST WINDSOR 1.7 S, VT","Latitude":"43.46164","Longitude":"-72.49197","Snowdepth":"4.000","Units":"in","Rept_Date":"2019-12-22 12"},"coordinates":[5808,4857]},{"type":"Point","properties":{"Station_ID":"VT-CL-23","Station_Nam":"RYEGATE 1.5 N, VT","Latitude":"44.23024","Longitude":"-72.10523","Snowdepth":"4.000","Units":"in","Rept_Date":"2019-12-22 12"},"coordinates":[5899,5335]},{"type":"Point","properties":{"Station_ID":"VT-CH-11","Station_Nam":"UNDERHILL 5.1 NNE, VT","Latitude":"44.59811","Longitude":"-72.91880","Snowdepth":"4.000","Units":"in","Rept_Date":"2019-12-22 13"},"coordinates":[5708,5564]},{"type":"Point","properties":{"Station_ID":"SBNN6","Station_Nam":"SANBORN","Latitude":"43.17050","Longitude":"-78.81810","Snowdepth":"4.000","Units":"in","Rept_Date":"2019-12-22 12"},"coordinates":[4323,4676]},{"type":"Point","properties":{"Station_ID":"PVRW3","Station_Nam":"PLOVER-2-E WATER TREATMENT PLANT","Latitude":"44.45920","Longitude":"-89.49530","Snowdepth":"4.000","Units":"in","Rept_Date":"2019-12-22 13"},"coordinates":[1817,5477]},{"type":"Point","properties":{"Station_ID":"PSM","Station_Nam":"PEASE INTL TRADEPORT AP","Latitude":"43.07810","Longitude":"-70.82330","Snowdepth":"4.000","Units":"in","Rept_Date":"2019-12-22 12"},"coordinates":[6199,4618]},{"type":"Point","properties":{"Station_ID":"PERV1","Station_Nam":"PERU","Latitude":"43.26670","Longitude":"-72.90000","Snowdepth":"4.000","Units":"in","Rept_Date":"2019-12-22 12"},"coordinates":[5712,4736]},{"type":"Point","properties":{"Station_ID":"PARM4","Station_Nam":"PARENT BAY","Latitude":"45.79610","Longitude":"-86.40110","Snowdepth":"4.000","Units":"in","Rept_Date":"2019-12-22 11"},"coordinates":[2543,6309]},{"type":"Point","properties":{"Station_ID":"NY-TM-42","Station_Nam":"ITHACA 6.4 E, NY","Latitude":"42.43350","Longitude":"-76.37860","Snowdepth":"4.000","Units":"in","Rept_Date":"2019-12-22 12"},"coordinates":[4896,4217]},{"type":"Point","properties":{"Station_ID":"NY-SY-11","Station_Nam":"DUNDEE 6.2 E, NY","Latitude":"42.52210","Longitude":"-76.85580","Snowdepth":"4.000","Units":"in","Rept_Date":"2019-12-22 12"},"coordinates":[4784,4272]},{"type":"Point","properties":{"Station_ID":"NY-SR-4","Station_Nam":"SARATOGA SPRINGS 0.5 S, NY","Latitude":"43.06032","Longitude":"-73.78010","Snowdepth":"4.000","Units":"in","Rept_Date":"2019-12-22 11"},"coordinates":[5506,4607]},{"type":"Point","properties":{"Station_ID":"NY-SC-16","Station_Nam":"NISKAYUNA 2.0 N, NY","Latitude":"42.84645","Longitude":"-73.89920","Snowdepth":"4.000","Units":"in","Rept_Date":"2019-12-22 12"},"coordinates":[5478,4474]},{"type":"Point","properties":{"Station_ID":"NY-ON-15","Station_Nam":"GENEVA COOP, NY","Latitude":"42.87660","Longitude":"-77.03080","Snowdepth":"4.000","Units":"in","Rept_Date":"2019-12-22 13"},"coordinates":[4743,4493]},{"type":"Point","properties":{"Station_ID":"NY-OG-72","Station_Nam":"LIVERPOOL 4.5 N, NY","Latitude":"43.17016","Longitude":"-76.22385","Snowdepth":"4.000","Units":"in","Rept_Date":"2019-12-22 13"},"coordinates":[4932,4675]},{"type":"Point","properties":{"Station_ID":"NY-OG-2","Station_Nam":"DE WITT 1.4 WSW, NY","Latitude":"43.03333","Longitude":"-76.10000","Snowdepth":"4.000","Units":"in","Rept_Date":"2019-12-22 12"},"coordinates":[4961,4590]},{"type":"Point","properties":{"Station_ID":"NY-OD-23","Station_Nam":"DURHAMVILLE 3.5 NNW, NY","Latitude":"43.17115","Longitude":"-75.68280","Snowdepth":"4.000","Units":"in","Rept_Date":"2019-12-22 12"},"coordinates":[5059,4676]},{"type":"Point","properties":{"Station_ID":"NY-MD-22","Station_Nam":"ONEIDA 0.4 NW, NY","Latitude":"43.08012","Longitude":"-75.66860","Snowdepth":"4.000","Units":"in","Rept_Date":"2019-12-22 12"},"coordinates":[5062,4619]},{"type":"Point","properties":{"Station_ID":"NY-ER-178","Station_Nam":"WEST SENECA 2.5 SE, NY","Latitude":"42.81374","Longitude":"-78.71399","Snowdepth":"4.000","Units":"in","Rept_Date":"2019-12-22 12"},"coordinates":[4348,4454]},{"type":"Point","properties":{"Station_ID":"NY-DL-32","Station_Nam":"DELHI 6.6 WNW, NY","Latitude":"42.32118","Longitude":"-75.02991","Snowdepth":"4.000","Units":"in","Rept_Date":"2019-12-22 12"},"coordinates":[5212,4147]},{"type":"Point","properties":{"Station_ID":"NY-CR-1","Station_Nam":"FREETOWN 1.0 NE, NY","Latitude":"42.53299","Longitude":"-76.02111","Snowdepth":"4.000","Units":"in","Rept_Date":"2019-12-22 12"},"coordinates":[4980,4279]},{"type":"Point","properties":{"Station_ID":"NY-AL-11","Station_Nam":"WELLSVILLE 2.4 ENE, NY","Latitude":"42.13750","Longitude":"-77.90550","Snowdepth":"4.000","Units":"in","Rept_Date":"2019-12-22 12"},"coordinates":[4537,4033]},{"type":"Point","properties":{"Station_ID":"NWSM1","Station_Nam":"NEW SHARON","Latitude":"44.63520","Longitude":"-70.00020","Snowdepth":"4.000","Units":"in","Rept_Date":"2019-12-22 12"},"coordinates":[6393,5587]},{"type":"Point","properties":{"Station_ID":"NUMM5","Station_Nam":"NEW ULM 3SE","Latitude":"44.29450","Longitude":"-94.40840","Snowdepth":"4.000","Units":"in","Rept_Date":"2019-12-22 12"},"coordinates":[664,5375]},{"type":"Point","properties":{"Station_ID":"NH-MR-60","Station_Nam":"SOUTH SUTTON 1.3 SE, NH","Latitude":"43.29531","Longitude":"-71.90238","Snowdepth":"4.000","Units":"in","Rept_Date":"2019-12-22 13"},"coordinates":[5946,4753]},{"type":"Point","properties":{"Station_ID":"NH-MR-6","Station_Nam":"DANBURY 2.2 ESE, NH","Latitude":"43.52000","Longitude":"-71.81900","Snowdepth":"4.000","Units":"in","Rept_Date":"2019-12-22 13"},"coordinates":[5966,4893]},{"type":"Point","properties":{"Station_ID":"NH-MR-4","Station_Nam":"BOW 1.6 NW, NH","Latitude":"43.14994","Longitude":"-71.55650","Snowdepth":"4.000","Units":"in","Rept_Date":"2019-12-22 12"},"coordinates":[6027,4663]},{"type":"Point","properties":{"Station_ID":"NH-HL-49","Station_Nam":"MONT VERNON 1.3 SSW, NH","Latitude":"42.87616","Longitude":"-71.68280","Snowdepth":"4.000","Units":"in","Rept_Date":"2019-12-22 13"},"coordinates":[5998,4493]},{"type":"Point","properties":{"Station_ID":"NH-GR-49","Station_Nam":"PLYMOUTH 3.7 N, NH","Latitude":"43.79048","Longitude":"-71.68413","Snowdepth":"4.000","Units":"in","Rept_Date":"2019-12-22 12"},"coordinates":[5997,5061]},{"type":"Point","properties":{"Station_ID":"NH-BK-29","Station_Nam":"SANBORNTON 2.3 WNW, NH","Latitude":"43.49730","Longitude":"-71.62800","Snowdepth":"4.000","Units":"in","Rept_Date":"2019-12-22 12"},"coordinates":[6011,4879]},{"type":"Point","properties":{"Station_ID":"NH-BK-2","Station_Nam":"BELMONT 1.7 SW, NH","Latitude":"43.43556","Longitude":"-71.50690","Snowdepth":"4.000","Units":"in","Rept_Date":"2019-12-22 12"},"coordinates":[6039,4841]},{"type":"Point","properties":{"Station_ID":"NCKN6","Station_Nam":"NORTH CREEK 5 SE","Latitude":"43.66110","Longitude":"-73.89690","Snowdepth":"4.000","Units":"in","Rept_Date":"2019-12-22 12"},"coordinates":[5478,4981]},{"type":"Point","properties":{"Station_ID":"MWN","Station_Nam":"MOUNT WASHINGTON","Latitude":"44.26670","Longitude":"-71.30000","Snowdepth":"4.000","Units":"in","Rept_Date":"2019-12-23 05"},"coordinates":[6088,5358]},{"type":"Point","properties":{"Station_ID":"MNH7MKZS","Station_Nam":"HASTINGS 0.9 NW","Latitude":"44.74710","Longitude":"-92.87300","Snowdepth":"4.000","Units":"in","Rept_Date":"2019-12-22 13"},"coordinates":[1025,5657]},{"type":"Point","properties":{"Station_ID":"MNF74YNU","Station_Nam":"NEW ULM 3.3 ESE","Latitude":"44.29029","Longitude":"-94.40196","Snowdepth":"4.000","Units":"in","Rept_Date":"2019-12-22 11"},"coordinates":[666,5372]},{"type":"Point","properties":{"Station_ID":"MN-WG-74","Station_Nam":"OAKDALE 0.4 S, MN","Latitude":"44.98208","Longitude":"-92.96510","Snowdepth":"4.000","Units":"in","Rept_Date":"2019-12-22 13"},"coordinates":[1003,5803]},{"type":"Point","properties":{"Station_ID":"MN-SE-2","Station_Nam":"OWATONNA 0.8 E, MN","Latitude":"44.09170","Longitude":"-93.21380","Snowdepth":"4.000","Units":"in","Rept_Date":"2019-12-22 13"},"coordinates":[945,5249]},{"type":"Point","properties":{"Station_ID":"MN-MW-8","Station_Nam":"AUSTIN 2.4 W, MN","Latitude":"43.67190","Longitude":"-93.02280","Snowdepth":"4.000","Units":"in","Rept_Date":"2019-12-22 13"},"coordinates":[989,4988]},{"type":"Point","properties":{"Station_ID":"MLBS2","Station_Nam":"MILBANK","Latitude":"45.22040","Longitude":"-96.62530","Snowdepth":"4.000","Units":"in","Rept_Date":"2019-12-22 13"},"coordinates":[144,5951]},{"type":"Point","properties":{"Station_ID":"MI-EM-5","Station_Nam":"HARBOR SPRINGS 0.7 ENE, MI","Latitude":"45.43450","Longitude":"-84.97540","Snowdepth":"4.000","Units":"in","Rept_Date":"2019-12-22 12"},