{"type":"Topology","objects":{"snowdepth_geo":{"type":"GeometryCollection","name":"snowdepth","crs":{"type":"name","properties":{"name":"urn:ogc:def:crs:OGC:1.3:CRS84"}},"geometries":[{"type":"Point","properties":{"Station_ID":"PRKM4","Station_Nam":"MUNISING EAST","Latitude":"46.42580","Longitude":"-86.62000","Snowdepth":"76.500","Units":"in","Rept_Date":"2020-02-02 06"},"coordinates":[2389,6802]},{"type":"Point","properties":{"Station_ID":"OGIQ6","Station_Nam":"OGOKI CAMP","Latitude":"50.76680","Longitude":"-87.85820","Snowdepth":"61.100","Units":"in","Rept_Date":"2020-02-02 06"},"coordinates":[2111,9420]},{"type":"Point","properties":{"Station_ID":"PDLM4","Station_Nam":"PAINESDALE","Latitude":"47.04160","Longitude":"-88.67170","Snowdepth":"51.000","Units":"in","Rept_Date":"2020-02-01 13"},"coordinates":[1928,7173]},{"type":"Point","properties":{"Station_ID":"CLUM4","Station_Nam":"CALUMET-TAMARACK","Latitude":"47.24550","Longitude":"-88.46790","Snowdepth":"51.000","Units":"in","Rept_Date":"2020-02-01 14"},"coordinates":[1973,7296]},{"type":"Point","properties":{"Station_ID":"AUDQ6","Station_Nam":"AUDEN","Latitude":"48.52600","Longitude":"-82.57570","Snowdepth":"47.640","Units":"in","Rept_Date":"2020-02-02 06"},"coordinates":[3299,8068]},{"type":"Point","properties":{"Station_ID":"KSGM4","Station_Nam":"KEARSARGE","Latitude":"47.27520","Longitude":"-88.41700","Snowdepth":"45.000","Units":"in","Rept_Date":"2020-02-01 13"},"coordinates":[1985,7314]},{"type":"Point","properties":{"Station_ID":"HTLN3","Station_Nam":"HERMIT LAKE SNOWPLOT","Latitude":"44.26130","Longitude":"-71.28330","Snowdepth":"45.000","Units":"in","Rept_Date":"2020-02-01 10"},"coordinates":[5840,5496]},{"type":"Point","properties":{"Station_ID":"DVLQ6","Station_Nam":"DEVIOUS LAKE","Latitude":"49.19890","Longitude":"-87.76440","Snowdepth":"43.460","Units":"in","Rept_Date":"2020-02-02 06"},"coordinates":[2132,8474]},{"type":"Point","properties":{"Station_ID":"WLFM5","Station_Nam":"WOLF RIDGE ENVIRON LEARNING CENTER","Latitude":"47.38240","Longitude":"-91.19730","Snowdepth":"42.000","Units":"in","Rept_Date":"2020-02-01 13"},"coordinates":[1359,7379]},{"type":"Point","properties":{"Station_ID":"GMSM4","Station_Nam":"GRAND MARAIS 10S","Latitude":"46.50940","Longitude":"-85.96310","Snowdepth":"40.000","Units":"in","Rept_Date":"2020-02-01 12"},"coordinates":[2537,6852]},{"type":"Point","properties":{"Station_ID":"MI-KW-2","Station_Nam":"DELAWARE 5.2 SW, MI","Latitude":"47.36928","Longitude":"-88.17919","Snowdepth":"38.000","Units":"in","Rept_Date":"2020-02-01 09"},"coordinates":[2038,7371]},{"type":"Point","properties":{"Station_ID":"QNCM4","Station_Nam":"QUINCY HILL","Latitude":"47.13640","Longitude":"-88.57950","Snowdepth":"36.000","Units":"in","Rept_Date":"2020-02-01 12"},"coordinates":[1948,7230]},{"type":"Point","properties":{"Station_ID":"IBLM5","Station_Nam":"ISABELLA 14W","Latitude":"47.59360","Longitude":"-91.65140","Snowdepth":"36.000","Units":"in","Rept_Date":"2020-02-01 15"},"coordinates":[1257,7506]},{"type":"Point","properties":{"Station_ID":"PHEW3","Station_Nam":"PHELPS","Latitude":"46.06630","Longitude":"-89.07520","Snowdepth":"35.000","Units":"in","Rept_Date":"2020-02-01 13"},"coordinates":[1837,6585]},{"type":"Point","properties":{"Station_ID":"MQT","Station_Nam":"MARQUETTE, MI","Latitude":"46.53140","Longitude":"-87.54920","Snowdepth":"35.000","Units":"in","Rept_Date":"2020-02-02 06"},"coordinates":[2180,6865]},{"type":"Point","properties":{"Station_ID":"HVCN3","Station_Nam":"HARVARD CABIN SNOWPLOT","Latitude":"44.26630","Longitude":"-71.27790","Snowdepth":"34.000","Units":"in","Rept_Date":"2020-02-01 10"},"coordinates":[5841,5499]},{"type":"Point","properties":{"Station_ID":"CAN-NL-11","Station_Nam":"MOUNT PEARL 2.1 SSE, CA","Latitude":"47.50347","Longitude":"-52.79730","Snowdepth":"33.900","Units":"in","Rept_Date":"2020-02-01 10"},"coordinates":[9999,7452]},{"type":"Point","properties":{"Station_ID":"MI-BG-3","Station_Nam":"L'ANSE 17.8 SE, MI","Latitude":"46.55730","Longitude":"-88.20770","Snowdepth":"33.000","Units":"in","Rept_Date":"2020-02-01 13"},"coordinates":[2032,6881]},{"type":"Point","properties":{"Station_ID":"QGO","Station_Nam":"QGO","Latitude":"48.85500","Longitude":"-74.20640","Snowdepth":"32.402","Units":"in","Rept_Date":"2020-02-01 12"},"coordinates":[5182,8267]},{"type":"Point","properties":{"Station_ID":"WRPW3","Station_Nam":"WATER PURIFICATION PLANT","Latitude":"44.38800","Longitude":"-89.80550","Snowdepth":"32.000","Units":"in","Rept_Date":"2020-02-01 12"},"coordinates":[1672,5573]},{"type":"Point","properties":{"Station_ID":"LVDW3","Station_Nam":"LAC VIEUX DESERT","Latitude":"46.12110","Longitude":"-89.07580","Snowdepth":"32.000","Units":"in","Rept_Date":"2020-02-01 15"},"coordinates":[1837,6618]},{"type":"Point","properties":{"Station_ID":"QOU","Station_Nam":"QOU","Latitude":"50.79250","Longitude":"-69.67470","Snowdepth":"31.417","Units":"in","Rept_Date":"2020-02-01 12"},"coordinates":[6202,9435]},{"type":"Point","properties":{"Station_ID":"MLZ","Station_Nam":"MLZ","Latitude":"50.66170","Longitude":"-68.82360","Snowdepth":"31.417","Units":"in","Rept_Date":"2020-02-01 12"},"coordinates":[6393,9357]},{"type":"Point","properties":{"Station_ID":"WI-VL-10","Station_Nam":"LAND O LAKES 4.3 WNW, WI","Latitude":"46.17440","Longitude":"-89.30380","Snowdepth":"30.000","Units":"in","Rept_Date":"2020-02-01 13"},"coordinates":[1785,6650]},{"type":"Point","properties":{"Station_ID":"STEM4","Station_Nam":"STEUBEN","Latitude":"46.18530","Longitude":"-86.46410","Snowdepth":"30.000","Units":"in","Rept_Date":"2020-02-01 14"},"coordinates":[2424,6657]},{"type":"Point","properties":{"Station_ID":"ILIM5","Station_Nam":"ISLAND LAKE","Latitude":"47.02400","Longitude":"-92.07000","Snowdepth":"30.000","Units":"in","Rept_Date":"2020-02-01 15"},"coordinates":[1163,7163]},{"type":"Point","properties":{"Station_ID":"HURW3","Station_Nam":"HURLEY","Latitude":"46.46250","Longitude":"-90.19550","Snowdepth":"30.000","Units":"in","Rept_Date":"2020-02-01 14"},"coordinates":[1585,6824]},{"type":"Point","properties":{"Station_ID":"HERM4","Station_Nam":"HERMAN,MI","Latitude":"46.65000","Longitude":"-88.33330","Snowdepth":"30.000","Units":"in","Rept_Date":"2020-02-01 13"},"coordinates":[2004,6937]},{"type":"Point","properties":{"Station_ID":"BBEM4","Station_Nam":"BIG BAY 9SW","Latitude":"46.74620","Longitude":"-87.88160","Snowdepth":"30.000","Units":"in","Rept_Date":"2020-02-01 13"},"coordinates":[2105,6995]},{"type":"Point","properties":{"Station_ID":"QCU","Station_Nam":"QCU","Latitude":"47.82750","Longitude":"-76.59830","Snowdepth":"29.567","Units":"in","Rept_Date":"2020-02-01 12"},"coordinates":[4644,7647]},{"type":"Point","properties":{"Station_ID":"QGD","Station_Nam":"QGD","Latitude":"51.11140","Longitude":"-67.13940","Snowdepth":"29.134","Units":"in","Rept_Date":"2020-02-01 12"},"coordinates":[6772,9628]},{"type":"Point","properties":{"Station_ID":"WI-VL-9","Station_Nam":"LAND O' LAKES 11.7 W, WI","Latitude":"46.19023","Longitude":"-89.45790","Snowdepth":"29.000","Units":"in","Rept_Date":"2020-02-01 13"},"coordinates":[1751,6660]},{"type":"Point","properties":{"Station_ID":"STGW3","Station_Nam":"ST GERMAIN","Latitude":"45.91550","Longitude":"-89.48940","Snowdepth":"29.000","Units":"in","Rept_Date":"2020-02-01 12"},"coordinates":[1744,6494]},{"type":"Point","properties":{"Station_ID":"PDGM4","Station_Nam":"PAULDING","Latitude":"46.39760","Longitude":"-89.17940","Snowdepth":"29.000","Units":"in","Rept_Date":"2020-02-01 14"},"coordinates":[1813,6785]},{"type":"Point","properties":{"Station_ID":"LNOW3","Station_Nam":"LAND O LAKES","Latitude":"46.19000","Longitude":"-89.45700","Snowdepth":"29.000","Units":"in","Rept_Date":"2020-02-01 13"},"coordinates":[1751,6660]},{"type":"Point","properties":{"Station_ID":"CAN-NL-82","Station_Nam":"GANDER 2.7 NW, CAN","Latitude":"48.97737","Longitude":"-54.63396","Snowdepth":"28.700","Units":"in","Rept_Date":"2020-02-01 10"},"coordinates":[9586,8341]},{"type":"Point","properties":{"Station_ID":"QWE","Station_Nam":"QWE","Latitude":"47.84610","Longitude":"-73.80670","Snowdepth":"28.661","Units":"in","Rept_Date":"2020-02-01 12"},"coordinates":[5272,7658]},{"type":"Point","properties":{"Station_ID":"WRSM5","Station_Nam":"WRENSHALL","Latitude":"46.61550","Longitude":"-92.38380","Snowdepth":"28.000","Units":"in","Rept_Date":"2020-02-01 14"},"coordinates":[1092,6916]},{"type":"Point","properties":{"Station_ID":"GNLM4","Station_Nam":"GREENLAND 6N","Latitude":"46.87360","Longitude":"-89.10060","Snowdepth":"28.000","Units":"in","Rept_Date":"2020-02-01 13"},"coordinates":[1831,7072]},{"type":"Point","properties":{"Station_ID":"WTRM4","Station_Nam":"WATERSMEET 12WSW","Latitude":"46.22310","Longitude":"-89.40850","Snowdepth":"27.000","Units":"in","Rept_Date":"2020-02-01 12"},"coordinates":[1762,6680]},{"type":"Point","properties":{"Station_ID":"MNSM4","Station_Nam":"MUNISING","Latitude":"46.41210","Longitude":"-86.66250","Snowdepth":"27.000","Units":"in","Rept_Date":"2020-02-01 11"},"coordinates":[2380,6794]},{"type":"Point","properties":{"Station_ID":"MN-CK-6","Station_Nam":"GRAND MARAIS 4.4 W, MN","Latitude":"47.74865","Longitude":"-90.43760","Snowdepth":"27.000","Units":"in","Rept_Date":"2020-02-01 13"},"coordinates":[1530,7600]},{"type":"Point","properties":{"Station_ID":"MI-MQ-19","Station_Nam":"ISHPEMING 7.2 SW, MI","Latitude":"46.40550","Longitude":"-87.75670","Snowdepth":"27.000","Units":"in","Rept_Date":"2020-02-01 11"},"coordinates":[2133,6790]},{"type":"Point","properties":{"Station_ID":"EVRW3","Station_Nam":"EAGLE RIVER-4 E","Latitude":"45.91890","Longitude":"-89.15280","Snowdepth":"27.000","Units":"in","Rept_Date":"2020-02-01 13"},"coordinates":[1819,6496]},{"type":"Point","properties":{"Station_ID":"PTLQ6","Station_Nam":"PORTAGE LAKE","Latitude":"49.06950","Longitude":"-86.65940","Snowdepth":"26.140","Units":"in","Rept_Date":"2020-02-02 06"},"coordinates":[2380,8396]},{"type":"Point","properties":{"Station_ID":"WI-WB-2","Station_Nam":"STONE LAKE 2.0 NW, WI","Latitude":"45.85960","Longitude":"-91.57710","Snowdepth":"26.000","Units":"in","Rept_Date":"2020-02-01 13"},"coordinates":[1274,6460]},{"type":"Point","properties":{"Station_ID":"WI-VL-14","Station_Nam":"BOULDER JUNCTION 1.4 NE, WI","Latitude":"46.12840","Longitude":"-89.62470","Snowdepth":"26.000","Units":"in","Rept_Date":"2020-02-01 13"},"coordinates":[1713,6622]},{"type":"Point","properties":{"Station_ID":"WI-IR-3","Station_Nam":"PENCE 0.1 E, WI","Latitude":"46.41555","Longitude":"-90.27013","Snowdepth":"26.000","Units":"in","Rept_Date":"2020-02-01 13"},"coordinates":[1568,6796]},{"type":"Point","properties":{"Station_ID":"SUAW3","Station_Nam":"SUAMICO","Latitude":"44.60190","Longitude":"-88.09780","Snowdepth":"26.000","Units":"in","Rept_Date":"2020-02-01 12"},"coordinates":[2057,5702]},{"type":"Point","properties":{"Station_ID":"RHIW3","Station_Nam":"RHINELANDER","Latitude":"45.59860","Longitude":"-89.45080","Snowdepth":"26.000","Units":"in","Rept_Date":"2020-02-01 13"},"coordinates":[1752,6303]},{"type":"Point","properties":{"Station_ID":"DLHM5","Station_Nam":"DULUTH NWS","Latitude":"46.83680","Longitude":"-92.21080","Snowdepth":"26.000","Units":"in","Rept_Date":"2020-02-02 06"},"coordinates":[1131,7050]},{"type":"Point","properties":{"Station_ID":"DLH","Station_Nam":"DULUTH, MN","Latitude":"46.83690","Longitude":"-92.21030","Snowdepth":"26.000","Units":"in","Rept_Date":"2020-02-02 00"},"coordinates":[1131,7050]},{"type":"Point","properties":{"Station_ID":"MN-SL-15","Station_Nam":"CHISHOLM 0.4 WSW, MN","Latitude":"47.48557","Longitude":"-92.88690","Snowdepth":"25.500","Units":"in","Rept_Date":"2020-02-01 13"},"coordinates":[979,7441]},{"type":"Point","properties":{"Station_ID":"QLB","Station_Nam":"QLB","Latitude":"50.72360","Longitude":"-75.10000","Snowdepth":"25.197","Units":"in","Rept_Date":"2020-02-01 12"},"coordinates":[4981,9394]},{"type":"Point","properties":{"Station_ID":"PRDM4","Station_Nam":"PARADISE","Latitude":"46.60380","Longitude":"-85.03960","Snowdepth":"25.000","Units":"in","Rept_Date":"2020-02-01 11"},"coordinates":[2745,6909]},{"type":"Point","properties":{"Station_ID":"GLDM4","Station_Nam":"GLADSTONE NO. 2","Latitude":"45.84330","Longitude":"-87.03910","Snowdepth":"25.000","Units":"in","Rept_Date":"2020-02-01 12"},"coordinates":[2295,6450]},{"type":"Point","properties":{"Station_ID":"EGRW3","Station_Nam":"EAGLE RIVER-SOUTH","Latitude":"45.91360","Longitude":"-89.24360","Snowdepth":"25.000","Units":"in","Rept_Date":"2020-02-01 13"},"coordinates":[1799,6493]},{"type":"Point","properties":{"Station_ID":"CRVW3","Station_Nam":"CRIVITZ HIGH FALLS","Latitude":"45.35750","Longitude":"-88.19190","Snowdepth":"25.000","Units":"in","Rept_Date":"2020-02-01 13"},"coordinates":[2035,6157]},{"type":"Point","properties":{"Station_ID":"QTV","Station_Nam":"QTV","Latitude":"49.66000","Longitude":"-69.35690","Snowdepth":"24.685","Units":"in","Rept_Date":"2020-02-01 12"},"coordinates":[6273,8752]},{"type":"Point","properties":{"Station_ID":"MI-HG-1","Station_Nam":"HOUGHTON 1.6 ESE, MI","Latitude":"47.10774","Longitude":"-88.52940","Snowdepth":"24.500","Units":"in","Rept_Date":"2020-02-01 13"},"coordinates":[1960,7213]},{"type":"Point","properties":{"Station_ID":"WI-BY-2","Station_Nam":"MELLEN 18.6 SW, WI","Latitude":"46.16937","Longitude":"-90.98090","Snowdepth":"24.000","Units":"in","Rept_Date":"2020-02-01 12"},"coordinates":[1408,6647]},{"type":"Point","properties":{"Station_ID":"WI-BY-14","Station_Nam":"ASHLAND 9.8 W, WI","Latitude":"46.59742","Longitude":"-91.07856","Snowdepth":"24.000","Units":"in","Rept_Date":"2020-02-01 12"},"coordinates":[1386,6905]},{"type":"Point","properties":{"Station_ID":"TOGM5","Station_Nam":"CELINA 2E","Latitude":"47.86630","Longitude":"-93.02660","Snowdepth":"24.000","Units":"in","Rept_Date":"2020-02-01 14"},"coordinates":[948,7671]},{"type":"Point","properties":{"Station_ID":"MN-IT-23","Station_Nam":"BOVEY 13.4 N, MN","Latitude":"47.48855","Longitude":"-93.43497","Snowdepth":"24.000","Units":"in","Rept_Date":"2020-02-01 13"},"coordinates":[856,7443]},{"type":"Point","properties":{"Station_ID":"COKM5","Station_Nam":"COOK","Latitude":"47.85060","Longitude":"-92.69250","Snowdepth":"24.000","Units":"in","Rept_Date":"2020-02-01 12"},"coordinates":[1023,7661]},{"type":"Point","properties":{"Station_ID":"CMKW3","Station_Nam":"CLAM LAKE 4W","Latitude":"46.16940","Longitude":"-90.98080","Snowdepth":"24.000","Units":"in","Rept_Date":"2020-02-01 12"},"coordinates":[1408,6647]},{"type":"Point","properties":{"Station_ID":"QGA","Station_Nam":"QGA","Latitude":"47.25640","Longitude":"-73.73810","Snowdepth":"23.858","Units":"in","Rept_Date":"2020-02-01 12"},"coordinates":[5287,7303]},{"type":"Point","properties":{"Station_ID":"SVBQ6","Station_Nam":"SAVANT BASE","Latitude":"50.28730","Longitude":"-90.65670","Snowdepth":"23.620","Units":"in","Rept_Date":"2020-02-02 06"},"coordinates":[1481,9131]},{"type":"Point","properties":{"Station_ID":"ME-AR-18","Station_Nam":"NEW SWEDEN 4.9 NNW, ME","Latitude":"47.01080","Longitude":"-68.14390","Snowdepth":"23.500","Units":"in","Rept_Date":"2020-02-01 12"},"coordinates":[6546,7155]},{"type":"Point","properties":{"Station_ID":"QMA","Station_Nam":"QMA","Latitude":"50.10330","Longitude":"-70.47190","Snowdepth":"23.150","Units":"in","Rept_Date":"2020-02-01 12"},"coordinates":[6022,9020]},{"type":"Point","properties":{"Station_ID":"TOHM5","Station_Nam":"TWO HARBORS WWTP","Latitude":"47.01760","Longitude":"-91.66480","Snowdepth":"23.000","Units":"in","Rept_Date":"2020-02-01 13"},"coordinates":[1254,7159]},{"type":"Point","properties":{"Station_ID":"MN-IT-1","Station_Nam":"GRAND RAPIDS 2.0 E, MN","Latitude":"47.22266","Longitude":"-93.49600","Snowdepth":"23.000","Units":"in","Rept_Date":"2020-02-01 14"},"coordinates":[842,7282]},{"type":"Point","properties":{"Station_ID":"MCLN8","Station_Nam":"MC LEOD,ND","Latitude":"46.40250","Longitude":"-97.23810","Snowdepth":"23.000","Units":"in","Rept_Date":"2020-02-01 13"},"coordinates":[0,6788]},{"type":"Point","properties":{"Station_ID":"KABM5","Station_Nam":"KABETOGAMA LAKE VISITOR CTR","Latitude":"48.40880","Longitude":"-93.04840","Snowdepth":"23.000","Units":"in","Rept_Date":"2020-02-01 13"},"coordinates":[943,7998]},{"type":"Point","properties":{"Station_ID":"GGRM4","Station_Nam":"GREEN GARDEN NO.2","Latitude":"46.45330","Longitude":"-87.30380","Snowdepth":"23.000","Units":"in","Rept_Date":"2020-02-01 12"},"coordinates":[2235,6818]},{"type":"Point","properties":{"Station_ID":"CANM5","Station_Nam":"CANBY","Latitude":"44.71840","Longitude":"-96.26960","Snowdepth":"23.000","Units":"in","Rept_Date":"2020-02-01 14"},"coordinates":[218,5772]},{"type":"Point","properties":{"Station_ID":"BNDM5","Station_Nam":"ELY 25E","Latitude":"47.97190","Longitude":"-91.44860","Snowdepth":"23.000","Units":"in","Rept_Date":"2020-02-01 13"},"coordinates":[1303,7734]},{"type":"Point","properties":{"Station_ID":"AURW3","Station_Nam":"AURORA","Latitude":"45.77000","Longitude":"-88.11810","Snowdepth":"23.000","Units":"in","Rept_Date":"2020-02-01 14"},"coordinates":[2052,6406]},{"type":"Point","properties":{"Station_ID":"QFT","Station_Nam":"QFT","Latitude":"50.83280","Longitude":"-74.40390","Snowdepth":"22.795","Units":"in","Rept_Date":"2020-02-01 12"},"coordinates":[5138,9460]},{"type":"Point","properties":{"Station_ID":"QCX","Station_Nam":"QCX","Latitude":"51.32830","Longitude":"-70.08060","Snowdepth":"22.598","Units":"in","Rept_Date":"2020-02-01 12"},"coordinates":[6110,9759]},{"type":"Point","properties":{"Station_ID":"MN-SL-108","Station_Nam":"IRON JUNCTION 3.4 NNW, MN","Latitude":"47.46150","Longitude":"-92.63130","Snowdepth":"22.500","Units":"in","Rept_Date":"2020-02-01 14"},"coordinates":[1037,7426]},{"type":"Point","properties":{"Station_ID":"WI-BY-22","Station_Nam":"MASON 11.5 WNW, WI","Latitude":"46.50198","Longitude":"-91.28339","Snowdepth":"22.000","Units":"in","Rept_Date":"2020-02-01 14"},"coordinates":[1340,6848]},{"type":"Point","properties":{"Station_ID":"SULW3","Station_Nam":"SUMMIT LAKE","Latitude":"45.37880","Longitude":"-89.19410","Snowdepth":"22.000","Units":"in","Rept_Date":"2020-02-01 11"},"coordinates":[1810,6170]},{"type":"Point","properties":{"Station_ID":"STMM4","Station_Nam":"STAMBAUGH 2SSE","Latitude":"46.05550","Longitude":"-88.62780","Snowdepth":"22.000","Units":"in","Rept_Date":"2020-02-01 13"},"coordinates":[1937,6578]},{"type":"Point","properties":{"Station_ID":"EMBM5","Station_Nam":"EMBARASS,MN","Latitude":"47.65810","Longitude":"-92.19580","Snowdepth":"22.000","Units":"in","Rept_Date":"2020-02-01 13"},"coordinates":[1135,7545]},{"type":"Point","properties":{"Station_ID":"CAN-NS-39","Station_Nam":"ST. ANNS 2.8 NW, CA","Latitude":"46.25082","Longitude":"-60.64340","Snowdepth":"22.000","Units":"in","Rept_Date":"2020-02-01 12"},"coordinates":[8234,6696]},{"type":"Point","properties":{"Station_ID":"AVTW3","Station_Nam":"ARBOR VITAE-JOHNSON LAKE","Latitude":"45.89940","Longitude":"-89.72670","Snowdepth":"22.000","Units":"in","Rept_Date":"2020-02-01 12"},"coordinates":[1690,6484]},{"type":"Point","properties":{"Station_ID":"AGNW3","Station_Nam":"ARGONNE-1.5 NW","Latitude":"45.67360","Longitude":"-88.90380","Snowdepth":"22.000","Units":"in","Rept_Date":"2020-02-01 13"},"coordinates":[1875,6348]},{"type":"Point","properties":{"Station_ID":"QYR","Station_Nam":"QYR","Latitude":"48.87220","Longitude":"-75.61470","Snowdepth":"21.850","Units":"in","Rept_Date":"2020-02-01 12"},"coordinates":[4865,8277]},{"type":"Point","properties":{"Station_ID":"KABQ6","Station_Nam":"CAB LAKE","Latitude":"49.59950","Longitude":"-89.17990","Snowdepth":"21.730","Units":"in","Rept_Date":"2020-02-02 06"},"coordinates":[1813,8716]},{"type":"Point","properties":{"Station_ID":"MN-IT-11","Station_Nam":"NASHWAUK 11.5 N, MN","Latitude":"47.54496","Longitude":"-93.19420","Snowdepth":"21.500","Units":"in","Rept_Date":"2020-02-01 13"},"coordinates":[910,7477]},{"type":"Point","properties":{"Station_ID":"MN-BK-6","Station_Nam":"LAKE PARK 6.0 S, MN","Latitude":"46.79850","Longitude":"-96.12180","Snowdepth":"21.500","Units":"in","Rept_Date":"2020-02-01 13"},"coordinates":[251,7027]},{"type":"Point","properties":{"Station_ID":"ME-AR-23","Station_Nam":"MADAWASKA 2.5 E, ME","Latitude":"47.34933","Longitude":"-68.28141","Snowdepth":"21.500","Units":"in","Rept_Date":"2020-02-01 12"},"coordinates":[6515,7359]},{"type":"Point","properties":{"Station_ID":"RHLW3","Station_Nam":"RHINELANDER 4NE","Latitude":"45.65270","Longitude":"-89.30740","Snowdepth":"21.000","Units":"in","Rept_Date":"2020-02-01 12"},"coordinates":[1784,6336]},{"type":"Point","properties":{"Station_ID":"MTQM4","Station_Nam":"MANISTIQUE WWTP","Latitude":"45.95120","Longitude":"-86.25130","Snowdepth":"21.000","Units":"in","Rept_Date":"2020-02-01 12"},"coordinates":[2472,6516]},{"type":"Point","properties":{"Station_ID":"MN-IT-17","Station_Nam":"GRAND RAPIDS 6.1 N, MN","Latitude":"47.31165","Longitude":"-93.55036","Snowdepth":"21.000","Units":"in","Rept_Date":"2020-02-01 13"},"coordinates":[830,7336]},{"type":"Point","properties":{"Station_ID":"MIEM4","Station_Nam":"MICHIGAMME 3WNW","Latitude":"46.54530","Longitude":"-88.18000","Snowdepth":"21.000","Units":"in","Rept_Date":"2020-02-01 13"},"coordinates":[2038,6874]},{"type":"Point","properties":{"Station_ID":"LEIM5","Station_Nam":"ORR 3E","Latitude":"48.05810","Longitude":"-92.75220","Snowdepth":"21.000","Units":"in","Rept_Date":"2020-02-01 12"},"coordinates":[1009,7786]},{"type":"Point","properties":{"Station_ID":"IMNM4","Station_Nam":"IRON MOUTAIN 5N","Latitude":"45.87580","Longitude":"-88.04030","Snowdepth":"21.000","Units":"in","Rept_Date":"2020-02-01 13"},"coordinates":[2070,6470]},{"type":"Point","properties":{"Station_ID":"CLKM4","Station_Nam":"CLARKSBURG","Latitude":"46.49910","Longitude":"-87.84500","Snowdepth":"21.000","Units":"in","Rept_Date":"2020-02-01 12"},"coordinates":[2114,6846]},{"type":"Point","properties":{"Station_ID":"TRIQ6","Station_Nam":"TRIO LAKE","Latitude":"49.22880","Longitude":"-87.22920","Snowdepth":"20.870","Units":"in","Rept_Date":"2020-02-02 06"},"coordinates":[2252,8492]},{"type":"Point","properties":{"Station_ID":"CAN-QC-47","Station_Nam":"SAINTE-FOY 1.8 ENE, CAN","Latitude":"46.76934","Longitude":"-71.27124","Snowdepth":"20.500","Units":"in","Rept_Date":"2020-02-01 12"},"coordinates":[5842,7009]},{"type":"Point","properties":{"Station_ID":"QTM","Station_Nam":"QTM","Latitude":"51.05780","Longitude":"-72.57190","Snowdepth":"20.394","Units":"in","Rept_Date":"2020-02-01 12"},"coordinates":[5550,9595]},{"type":"Point","properties":{"Station_ID":"QLP","Station_Nam":"QLP","Latitude":"48.13920","Longitude":"-72.63830","Snowdepth":"20.354","Units":"in","Rept_Date":"2020-02-01 12"},"coordinates":[5535,7835]},{"type":"Point","properties":{"Station_ID":"QLM","Station_Nam":"QLM","Latitude":"48.92030","Longitude":"-70.25280","Snowdepth":"20.197","Units":"in","Rept_Date":"2020-02-01 12"},"coordinates":[6072,8306]},{"type":"Point","properties":{"Station_ID":"QMD","Station_Nam":"QMD","Latitude":"49.29060","Longitude":"-75.84500","Snowdepth":"20.118","Units":"in","Rept_Date":"2020-02-01 12"},"coordinates":[4813,8530]},{"type":"Point","properties":{"Station_ID":"WTNM4","Station_Nam":"WATTON 2WSW","Latitude":"46.52660","Longitude":"-88.64240","Snowdepth":"20.000","Units":"in","Rept_Date":"2020-02-01 13"},"coordinates":[1934,6863]},{"type":"Point","properties":{"Station_ID":"WI-ON-4","Station_Nam":"RHINELANDER 0.6 SSW, WI","Latitude":"45.63141","Longitude":"-89.41470","Snowdepth":"20.000","Units":"in","Rept_Date":"2020-02-01 13"},"coordinates":[1760,6323]},{"type":"Point","properties":{"Station_ID":"WI-AS-4","Station_Nam":"ASHLAND 0.5 WNW, WI","Latitude":"46.58240","Longitude":"-90.88390","Snowdepth":"20.000","Units":"in","Rept_Date":"2020-02-01 13"},"coordinates":[1430,6896]},{"type":"Point","properties":{"Station_ID":"MN-CW-22","Station_Nam":"FORT RIPLEY 0.8 N, MN","Latitude":"46.18089","Longitude":"-94.36510","Snowdepth":"20.000","Units":"in","Rept_Date":"2020-02-01 13"},"coordinates":[647,6654]},{"type":"Point","properties":{"Station_ID":"INL","Station_Nam":"FALLS INTERNATIONAL ARPT","Latitude":"48.56640","Longitude":"-93.40310","Snowdepth":"20.000","Units":"in","Rept_Date":"2020-02-02 00"},"coordinates":[863,8093]},{"type":"Point","properties":{"Station_ID":"IFSM5","Station_Nam":"INTERNATIONAL FALLS SNOW","Latitude":"48.57780","Longitude":"-93.39640","Snowdepth":"20.000","Units":"in","Rept_Date":"2020-02-02 00"},"coordinates":[864,8100]},{"type":"Point","properties":{"Station_ID":"GNFM5","Station_Nam":"GUNFLINT LAKE","Latitude":"48.16670","Longitude":"-90.88750","Snowdepth":"20.000","Units":"in","Rept_Date":"2020-02-01 13"},"coordinates":[1429,7852]},{"type":"Point","properties":{"Station_ID":"ELYM5","Station_Nam":"ELY","Latitude":"47.90560","Longitude":"-91.82830","Snowdepth":"20.000","Units":"in","Rept_Date":"2020-02-01 14"},"coordinates":[1217,7694]},{"type":"Point","properties":{"Station_ID":"COTM5","Station_Nam":"COTTON","Latitude":"47.16870","Longitude":"-92.46290","Snowdepth":"20.000","Units":"in","Rept_Date":"2020-02-01 13"},"coordinates":[1075,7250]},{"type":"Point","properties":{"Station_ID":"BRAM5","Station_Nam":"BRAINERD","Latitude":"46.34320","Longitude":"-94.20900","Snowdepth":"20.000","Units":"in","Rept_Date":"2020-02-01 13"},"coordinates":[682,6752]},{"type":"Point","properties":{"Station_ID":"AWXW3","Station_Nam":"ASHLAND","Latitude":"46.58240","Longitude":"-90.88390","Snowdepth":"20.000","Units":"in","Rept_Date":"2020-02-01 13"},"coordinates":[1430,6896]},{"type":"Point","properties":{"Station_ID":"ATY","Station_Nam":"WATERTOWN MUNICIPAL AIRPORT","Latitude":"44.91420","Longitude":"-97.15440","Snowdepth":"20.000","Units":"in","Rept_Date":"2020-02-01 12"},"coordinates":[19,5890]},{"type":"Point","properties":{"Station_ID":"ASTW3","Station_Nam":"ATHELSTANE","Latitude":"45.42500","Longitude":"-88.05750","Snowdepth":"20.000","Units":"in","Rept_Date":"2020-02-01 12"},"coordinates":[2066,6198]},{"type":"Point","properties":{"Station_ID":"CAN-NL-65","Station_Nam":"KIPPENS 0.7 NE, CA","Latitude":"48.55436","Longitude":"-58.61850","Snowdepth":"19.500","Units":"in","Rept_Date":"2020-02-01 12"},"coordinates":[8689,8086]},{"type":"Point","properties":{"Station_ID":"QIQ","Station_Nam":"QIQ","Latitude":"49.82390","Longitude":"-68.54310","Snowdepth":"19.291","Units":"in","Rept_Date":"2020-02-01 12"},"coordinates":[6456,8851]},{"type":"Point","properties":{"Station_ID":"CATQ6","Station_Nam":"CAT LAKE","Latitude":"51.72690","Longitude":"-91.82210","Snowdepth":"19.130","Units":"in","Rept_Date":"2020-02-02 06"},"coordinates":[1219,9999]},{"type":"Point","properties":{"Station_ID":"SOCQ6","Station_Nam":"SOCKET LAKE","Latitude":"50.77870","Longitude":"-91.79300","Snowdepth":"19.090","Units":"in","Rept_Date":"2020-02-02 06"},"coordinates":[1225,9427]},{"type":"Point","properties":{"Station_ID":"WLKW3","Station_Nam":"WHITE LAKE 1 SE","Latitude":"45.14520","Longitude":"-88.74160","Snowdepth":"19.000","Units":"in","Rept_Date":"2020-02-01 14"},"coordinates":[1912,6029]},{"type":"Point","properties":{"Station_ID":"WI-SR-1","Station_Nam":"HAYWARD 9.2 NNE, WI","Latitude":"46.13255","Longitude":"-91.40500","Snowdepth":"19.000","Units":"in","Rept_Date":"2020-02-01 12"},"coordinates":[1313,6625]},{"type":"Point","properties":{"Station_ID":"WI-PR-2","Station_Nam":"BUTTERNUT 5.9 SW, WI","Latitude":"45.96501","Longitude":"-90.59750","Snowdepth":"19.000","Units":"in","Rept_Date":"2020-02-01 12"},"coordinates":[1494,6524]},{"type":"Point","properties":{"Station_ID":"WI-BY-1","Station_Nam":"BAYFIELD 8.8 N, WI","Latitude":"46.93855","Longitude":"-90.83490","Snowdepth":"19.000","Units":"in","Rept_Date":"2020-02-01 13"},"coordinates":[1441,7111]},{"type":"Point","properties":{"Station_ID":"RLKW3","Station_Nam":"REST LAKE","Latitude":"46.12220","Longitude":"-89.87720","Snowdepth":"19.000","Units":"in","Rept_Date":"2020-02-01 14"},"coordinates":[1656,6619]},{"type":"Point","properties":{"Station_ID":"RHI","Station_Nam":"RHINELANDER-ONEIDA COUNTY AIRPORT","Latitude":"45.63080","Longitude":"-89.46530","Snowdepth":"19.000","Units":"in","Rept_Date":"2020-02-01 12"},"coordinates":[1749,6322]},{"type":"Point","properties":{"Station_ID":"OTTM5","Station_Nam":"OTTERTAIL,MN","Latitude":"46.41670","Longitude":"-95.56670","Snowdepth":"19.000","Units":"in","Rept_Date":"2020-02-01 12"},"coordinates":[376,6796]},{"type":"Point","properties":{"Station_ID":"MN-IT-7","Station_Nam":"GRAND RAPIDS 6.2 SSW, MN","Latitude":"47.13687","Longitude":"-93.56660","Snowdepth":"19.000","Units":"in","Rept_Date":"2020-02-01 12"},"coordinates":[826,7231]},{"type":"Point","properties":{"Station_ID":"AUW","Station_Nam":"WAUSAU MUNICIPAL AIRPORT","Latitude":"44.92580","Longitude":"-89.62560","Snowdepth":"19.000","Units":"in","Rept_Date":"2020-02-01 12"},"coordinates":[1713,5897]},{"type":"Point","properties":{"Station_ID":"AROM4","Station_Nam":"ARNOLD,MI","Latitude":"46.06670","Longitude":"-87.48330","Snowdepth":"19.000","Units":"in","Rept_Date":"2020-02-01 13"},"coordinates":[2195,6585]},{"type":"Point","properties":{"Station_ID":"QCO","Station_Nam":"QCO","Latitude":"51.45280","Longitude":"-72.20110","Snowdepth":"18.346","Units":"in","Rept_Date":"2020-02-01 12"},"coordinates":[5633,9834]},{"type":"Point","properties":{"Station_ID":"ZNOM4","Station_Nam":"NORWAY","Latitude":"45.77810","Longitude":"-87.89560","Snowdepth":"18.000","Units":"in","Rept_Date":"2020-02-01 13"},"coordinates":[2102,6411]},{"type":"Point","properties":{"Station_ID":"WI-RS-1","Station_Nam":"LADYSMITH 2.8 WNW, WI","Latitude":"45.48180","Longitude":"-91.14680","Snowdepth":"18.000","Units":"in","Rept_Date":"2020-02-01 13"},"coordinates":[1371,6232]},{"type":"Point","properties":{"Station_ID":"RHRW3","Station_Nam":"RHINELANDER WJFW TV-12","Latitude":"45.62220","Longitude":"-89.41000","Snowdepth":"18.000","Units":"in","Rept_Date":"2020-02-02 04"},"coordinates":[1761,6317]},{"type":"Point","properties":{"Station_ID":"RARM4","Station_Nam":"RAPID RIVER 1 SW","Latitude":"45.91500","Longitude":"-86.98800","Snowdepth":"18.000","Units":"in","Rept_Date":"2020-02-01 12"},"coordinates":[2306,6494]},{"type":"Point","properties":{"Station_ID":"NH-CS-10","Station_Nam":"RANDOLPH 1.4 NE, NH","Latitude":"44.38824","Longitude":"-71.26950","Snowdepth":"18.000","Units":"in","Rept_Date":"2020-02-01 12"},"coordinates":[5843,5573]},{"type":"Point","properties":{"Station_ID":"MQRW3","Station_Nam":"MINOCQUA","Latitude":"45.88630","Longitude":"-89.73220","Snowdepth":"18.000","Units":"in","Rept_Date":"2020-02-01 12"},"coordinates":[1689,6476]},{"type":"Point","properties":{"Station_ID":"VT-OL-1","Station_Nam":"WESTFIELD 0.7 WNW, VT","Latitude":"44.89160","Longitude":"-72.44350","Snowdepth":"17.500","Units":"in","Rept_Date":"2020-02-01 12"},"coordinates":[5579,5876]},{"type":"Point","properties":{"Station_ID":"MN-BM-15","Station_Nam":"BEMIDJI 7.8 ENE, MN","Latitude":"47.52043","Longitude":"-94.72121","Snowdepth":"17.500","Units":"in","Rept_Date":"2020-02-01 13"},"coordinates":[566,7462]},{"type":"Point","properties":{"Station_ID":"MN-AT-5","Station_Nam":"TAMARACK 1.4 SW, MN","Latitude":"46.63760","Longitude":"-93.14554","Snowdepth":"17.500","Units":"in","Rept_Date":"2020-02-01 13"},"coordinates":[921,6930]},{"type":"Point","properties":{"Station_ID":"WI-SR-5","Station_Nam":"HAYWARD 9.7 NE, WI","Latitude":"46.12030","Longitude":"-91.35370","Snowdepth":"17.000","Units":"in","Rept_Date":"2020-02-01 14"},"coordinates":[1324,6618]},{"type":"Point","properties":{"Station_ID":"WI-PR-6","Station_Nam":"PHILLIPS 1.3 S, WI","Latitude":"45.67677","Longitude":"-90.39543","Snowdepth":"17.000","Units":"in","Rept_Date":"2020-02-01 12"},"coordinates":[1540,6350]},{"type":"Point","properties":{"Station_ID":"WI-LN-2","Station_Nam":"MERRILL 7.0 W, WI","Latitude":"45.17746","Longitude":"-89.84820","Snowdepth":"17.000","Units":"in","Rept_Date":"2020-02-01 12"},"coordinates":[1663,6049]},{"type":"Point","properties":{"Station_ID":"WI-BT-14","Station_Nam":"OAKLAND 9.0 ENE, WI","Latitude":"45.95184","Longitude":"-92.21653","Snowdepth":"17.000","Units":"in","Rept_Date":"2020-02-01 13"},"coordinates":[1130,6516]},{"type":"Point","properties":{"Station_ID":"VANM1","Station_Nam":"VAN BUREN","Latitude":"47.16600","Longitude":"-67.93900","Snowdepth":"17.000","Units":"in","Rept_Date":"2020-02-01 13"},"coordinates":[6592,7248]},{"type":"Point","properties":{"Station_ID":"TAKW3","Station_Nam":"RICE RESERVOIR NO. 2","Latitude":"45.53770","Longitude":"-89.73220","Snowdepth":"17.000","Units":"in","Rept_Date":"2020-02-01 13"},"coordinates":[1689,6266]},{"type":"Point","properties":{"Station_ID":"SWTW3","Station_Nam":"SUPERIOR WWTP","Latitude":"46.72700","Longitude":"-92.07200","Snowdepth":"17.000","Units":"in","Rept_Date":"2020-02-02 06"},"coordinates":[1162,6983]},{"type":"Point","properties":{"Station_ID":"SUTV1","Station_Nam":"SUTTON","Latitude":"44.61220","Longitude":"-72.04810","Snowdepth":"17.000","Units":"in","Rept_Date":"2020-02-01 12"},"coordinates":[5668,5708]},{"type":"Point","properties":{"Station_ID":"SBNM5","Station_Nam":"SABIN","Latitude":"46.77690","Longitude":"-96.65610","Snowdepth":"17.000","Units":"in","Rept_Date":"2020-02-01 14"},"coordinates":[131,7014]},{"type":"Point","properties":{"Station_ID":"SAUW3","Station_Nam":"WAUSAU WSAW TV","Latitude":"44.94630","Longitude":"-89.62220","Snowdepth":"17.000","Units":"in","Rept_Date":"2020-02-02 05"},"coordinates":[1714,5909]},{"type":"Point","properties":{"Station_ID":"MN-BK-10","Station_Nam":"DETROIT LAKES 5.7 N, MN","Latitude":"46.88666","Longitude":"-95.84444","Snowdepth":"17.000","Units":"in","Rept_Date":"2020-02-01 10"},"coordinates":[314,7080]},{"type":"Point","properties":{"Station_ID":"MLLW3","Station_Nam":"MERRILL 8W","Latitude":"45.17810","Longitude":"-89.84810","Snowdepth":"17.000","Units":"in","Rept_Date":"2020-02-01 12"},"coordinates":[1663,6049]},{"type":"Point","properties":{"Station_ID":"JCBM4","Station_Nam":"JACOBSVILLE","Latitude":"47.00830","Longitude":"-88.43180","Snowdepth":"17.000","Units":"in","Rept_Date":"2020-02-01 12"},"coordinates":[1981,7153]},{"type":"Point","properties":{"Station_ID":"FLDM5","Station_Nam":"FLOODWOOD,MN","Latitude":"47.00000","Longitude":"-92.91670","Snowdepth":"17.000","Units":"in","Rept_Date":"2020-02-01 14"},"coordinates":[972,7148]},{"type":"Point","properties":{"Station_ID":"BRUM5","Station_Nam":"BRUNO,MN","Latitude":"46.28330","Longitude":"-92.50000","Snowdepth":"17.000","Units":"in","Rept_Date":"2020-02-01 14"},"coordinates":[1066,6716]},{"type":"Point","properties":{"Station_ID":"ALXM5","Station_Nam":"ALEXANDRIA","Latitude":"45.87820","Longitude":"-95.38270","Snowdepth":"17.000","Units":"in","Rept_Date":"2020-02-01 12"},"coordinates":[418,6472]},{"type":"Point","properties":{"Station_ID":"CAN-ON-526","Station_Nam":"HILTON BEACH 0.7 SW - MNRF, CAN","Latitude":"46.25357","Longitude":"-83.90014","Snowdepth":"16.900","Units":"in","Rept_Date":"2020-02-01 12"},"coordinates":[3001,6698]},{"type":"Point","properties":{"Station_ID":"CAN-NB-89","Station_Nam":"MEMRAMCOOK 4.0 W, CAN","Latitude":"46.01133","Longitude":"-64.60244","Snowdepth":"16.900","Units":"in","Rept_Date":"2020-02-01 12"},"coordinates":[7343,6552]},{"type":"Point","properties":{"Station_ID":"QLI","Station_Nam":"QLI","Latitude":"50.27080","Longitude":"-73.92280","Snowdepth":"16.693","Units":"in","Rept_Date":"2020-02-01 12"},"coordinates":[5246,9121]},{"type":"Point","properties":{"Station_ID":"VT-OL-12","Station_Nam":"GREENSBORO 3.9 NNE, VT","Latitude":"44.63100","Longitude":"-72.28000","Snowdepth":"16.500","Units":"in","Rept_Date":"2020-02-01 13"},"coordinates":[5616,5719]},{"type":"Point","properties":{"Station_ID":"MN-PK-15","Station_Nam":"MENTOR 2.5 SSW, MN","Latitude":"47.66625","Longitude":"-96.17328","Snowdepth":"16.500","Units":"in","Rept_Date":"2020-02-01 13"},"coordinates":[240,7550]},{"type":"Point","properties":{"Station_ID":"CAN-NB-11","Station_Nam":"MIRAMICHI 3.3 S, CAN","Latitude":"46.99343","Longitude":"-65.50690","Snowdepth":"16.500","Units":"in","Rept_Date":"2020-02-01 12"},"coordinates":[7139,7144]},{"type":"Point","properties":{"Station_ID":"QWG","Station_Nam":"QWG","Latitude":"48.48890","Longitude":"-73.45940","Snowdepth":"16.181","Units":"in","Rept_Date":"2020-02-01 12"},"coordinates":[5350,8046]},{"type":"Point","properties":{"Station_ID":"STRW3","Station_Nam":"STRATFORD 1NW","Latitude":"44.81750","Longitude":"-90.08990","Snowdepth":"16.000","Units":"in","Rept_Date":"2020-02-01 13"},"coordinates":[1608,5832]},{"type":"Point","properties":{"Station_ID":"SD-CD-30","Station_Nam":"WATERTOWN 2.3 E, SD","Latitude":"44.91604","Longitude":"-97.11925","Snowdepth":"16.000","Units":"in","Rept_Date":"2020-02-01 13"},"coordinates":[27,5891]},{"type":"Point","properties":{"Station_ID":"RSTW3","Station_Nam":"ROSHOLT","Latitude":"44.62710","Longitude":"-89.30600","Snowdepth":"16.000","Units":"in","Rept_Date":"2020-02-01 14"},"coordinates":[1785,5717]},{"type":"Point","properties":{"Station_ID":"RRVM4","Station_Nam":"RAPID RIVER 9S","Latitude":"45.78750","Longitude":"-86.93920","Snowdepth":"16.000","Units":"in","Rept_Date":"2020-02-01 13"},"coordinates":[2317,6417]},{"type":"Point","properties":{"Station_ID":"ND-CS-25","Station_Nam":"FARGO 2.1 N, ND","Latitude":"46.90816","Longitude":"-96.77937","Snowdepth":"16.000","Units":"in","Rept_Date":"2020-02-01 14"},"coordinates":[103,7093]},{"type":"Point","properties":{"Station_ID":"MI-AT-6","Station_Nam":"MANCELONA 0.5 ESE, MI","Latitude":"44.89981","Longitude":"-85.05100","Snowdepth":"16.000","Units":"in","Rept_Date":"2020-02-01 13"},"coordinates":[2742,5881]},{"type":"Point","properties":{"Station_ID":"LNGM5","Station_Nam":"LONG PRAIRIE","Latitude":"45.96460","Longitude":"-94.88920","Snowdepth":"16.000","Units":"in","Rept_Date":"2020-02-01 12"},"coordinates":[529,6524]},{"type":"Point","properties":{"Station_ID":"GLRM5","Station_Nam":"GLACIAL RIDGE","Latitude":"47.71670","Longitude":"-96.26670","Snowdepth":"16.000","Units":"in","Rept_Date":"2020-02-02 01"},"coordinates":[219,7580]},{"type":"Point","properties":{"Station_ID":"GFK","Station_Nam":"GRAND FORKS INTERNATIONAL AIRPORT","Latitude":"47.94920","Longitude":"-97.17610","Snowdepth":"16.000","Units":"in","Rept_Date":"2020-02-01 13"},"coordinates":[14,7721]},{"type":"Point","properties":{"Station_ID":"FISM1","Station_Nam":"FORT KENT COOP","Latitude":"47.23850","Longitude":"-68.61240","Snowdepth":"16.000","Units":"in","Rept_Date":"2020-02-01 11"},"coordinates":[6441,7292]},{"type":"Point","properties":{"Station_ID":"FAR","Station_Nam":"HECTOR INTERNATIONAL ARPT","Latitude":"46.91560","Longitude":"-96.81440","Snowdepth":"16.000","Units":"in","Rept_Date":"2020-02-02 00"},"coordinates":[95,7097]},{"type":"Point","properties":{"Station_ID":"EPTW3","Station_Nam":"EAU PLEINE TENDER","Latitude":"44.77220","Longitude":"-89.76720","Snowdepth":"16.000","Units":"in","Rept_Date":"2020-02-01 13"},"coordinates":[1681,5804]},{"type":"Point","properties":{"Station_ID":"COUW3","Station_Nam":"COUDERAY,WI","Latitude":"45.86670","Longitude":"-91.45000","Snowdepth":"16.000","Units":"in","Rept_Date":"2020-02-01 22"},"coordinates":[1302,6465]},{"type":"Point","properties":{"Station_ID":"CARM1","Station_Nam":"CARIBOU WFO","Latitude":"46.86810","Longitude":"-68.01250","Snowdepth":"16.000","Units":"in","Rept_Date":"2020-02-02 05"},"coordinates":[6576,7069]},{"type":"Point","properties":{"Station_ID":"CAR","Station_Nam":"CARIBOU, ME","Latitude":"46.86830","Longitude":"-68.01360","Snowdepth":"16.000","Units":"in","Rept_Date":"2020-02-01 12"},"coordinates":[6575,7069]},{"type":"Point","properties":{"Station_ID":"BRVM5","Station_Nam":"BROWNS VALLEY,MN","Latitude":"45.61670","Longitude":"-96.83330","Snowdepth":"16.000","Units":"in","Rept_Date":"2020-02-01 13"},"coordinates":[91,6314]},{"type":"Point","properties":{"Station_ID":"BRDM1","Station_Nam":"BRIDGEWATER","Latitude":"46.42870","Longitude":"-67.84370","Snowdepth":"16.000","Units":"in","Rept_Date":"2020-02-01 23"},"coordinates":[6614,6804]},{"type":"Point","properties":{"Station_ID":"MFU","Station_Nam":"MFU","Latitude":"51.52170","Longitude":"-66.91110","Snowdepth":"15.197","Units":"in","Rept_Date":"2020-02-01 12"},"coordinates":[6823,9875]},{"type":"Point","properties":{"Station_ID":"SSMM4","Station_Nam":"SAULT STE MARIE","Latitude":"46.48660","Longitude":"-84.40250","Snowdepth":"15.000","Units":"in","Rept_Date":"2020-02-01 13"},"coordinates":[2888,6838]},{"type":"Point","properties":{"Station_ID":"RRLW3","Station_Nam":"MERRILL,WI","Latitude":"45.17860","Longitude":"-89.66170","Snowdepth":"15.000","Units":"in","Rept_Date":"2020-02-01 14"},"coordinates":[1705,6050]},{"type":"Point","properties":{"Station_ID":"MN-MR-13","Station_Nam":"LITTLE FALLS 8.0 NE, MN","Latitude":"46.06785","Longitude":"-94.24789","Snowdepth":"15.000","Units":"in","Rept_Date":"2020-02-01 13"},"coordinates":[673,6586]},{"type":"Point","properties":{"Station_ID":"MI-OT-17","Station_Nam":"GAYLORD 4.1 S, MI","Latitude":"44.96388","Longitude":"-84.68467","Snowdepth":"15.000","Units":"in","Rept_Date":"2020-02-01 12"},"coordinates":[2825,5920]},{"type":"Point","properties":{"Station_ID":"LUCW3","Station_Nam":"LUCK","Latitude":"45.57330","Longitude":"-92.48520","Snowdepth":"15.000","Units":"in","Rept_Date":"2020-02-01 17"},"coordinates":[1069,6288]},{"type":"Point","properties":{"Station_ID":"LGRN8","Station_Nam":"LIDGERWOOD,ND","Latitude":"46.06670","Longitude":"-97.16670","Snowdepth":"15.000","Units":"in","Rept_Date":"2020-02-01 13"},"coordinates":[16,6585]},{"type":"Point","properties":{"Station_ID":"KGFK","Station_Nam":"GRAND FORKS INTERNATIONAL","Latitude":"47.95000","Longitude":"-97.18333","Snowdepth":"15.000","Units":"in","Rept_Date":"2020-02-02 06"},"coordinates":[12,7721]},{"type":"Point","properties":{"Station_ID":"FDRN8","Station_Nam":"FARGO 3S","Latitude":"46.82930","Longitude":"-96.79620","Snowdepth":"15.000","Units":"in","Rept_Date":"2020-02-02 00"},"coordinates":[100,7045]},{"type":"Point","properties":{"Station_ID":"ANJM4","Station_Nam":"SNOW PAID OBSERVER FOR KANJ","Latitude":"46.48670","Longitude":"-84.40260","Snowdepth":"15.000","Units":"in","Rept_Date":"2020-02-02 06"},"coordinates":[2888,6839]},{"type":"Point","properties":{"Station_ID":"ANJ","Station_Nam":"SAULT STE MARIE","Latitude":"46.46670","Longitude":"-84.36670","Snowdepth":"15.000","Units":"in","Rept_Date":"2020-02-02 00"},"coordinates":[2896,6826]},{"type":"Point","properties":{"Station_ID":"ND-CS-1","Station_Nam":"WEST FARGO 3.8 SSE, ND","Latitude":"46.82750","Longitude":"-96.85280","Snowdepth":"14.500","Units":"in","Rept_Date":"2020-02-01 13"},"coordinates":[87,7044]},{"type":"Point","properties":{"Station_ID":"CAN-MB-32","Station_Nam":"PINAWA 1.0 SW, CA","Latitude":"50.14747","Longitude":"-95.89020","Snowdepth":"14.500","Units":"in","Rept_Date":"2020-02-01 13"},"coordinates":[303,9046]},{"type":"Point","properties":{"Station_ID":"WUNW3","Station_Nam":"WAUSAU-NORTHEAST","Latitude":"44.97310","Longitude":"-89.61690","Snowdepth":"14.000","Units":"in","Rept_Date":"2020-02-01 12"},"coordinates":[1715,5926]},{"type":"Point","properties":{"Station_ID":"WILW3","Station_Nam":"RESERVOIR","Latitude":"45.70000","Longitude":"-89.83330","Snowdepth":"14.000","Units":"in","Rept_Date":"2020-02-01 12"},"coordinates":[1666,6364]},{"type":"Point","properties":{"Station_ID":"WI-EC-23","Station_Nam":"EAU CLAIRE 3.7 S, WI","Latitude":"44.76858","Longitude":"-91.49898","Snowdepth":"14.000","Units":"in","Rept_Date":"2020-02-01 14"},"coordinates":[1291,5802]},{"type":"Point","properties":{"Station_ID":"WI-CH-7","Station_Nam":"CHIPPEWA FALLS 1.2 E, WI","Latitude":"44.92920","Longitude":"-91.36730","Snowdepth":"14.000","Units":"in","Rept_Date":"2020-02-01 13"},"coordinates":[1321,5899]},{"type":"Point","properties":{"Station_ID":"WI-CH-3","Station_Nam":"CORNELL 4.1 W, WI","Latitude":"45.17024","Longitude":"-91.23610","Snowdepth":"14.000","Units":"in","Rept_Date":"2020-02-01 14"},"coordinates":[1351,6045]},{"type":"Point","properties":{"Station_ID":"WI-BR-2","Station_Nam":"CHETEK 2.0 SE, WI","Latitude":"45.29427","Longitude":"-91.62470","Snowdepth":"14.000","Units":"in","Rept_Date":"2020-02-01 13"},"coordinates":[1263,6119]},{"type":"Point","properties":{"Station_ID":"MN-SH-10","Station_Nam":"BIG LAKE 5.6 NNE, MN","Latitude":"45.41409","Longitude":"-93.69190","Snowdepth":"14.000","Units":"in","Rept_Date":"2020-02-01 13"},"coordinates":[798,6192]},{"type":"Point","properties":{"Station_ID":"MN-MR-4","Station_Nam":"LITTLE FALLS 1.2 SW, MN","Latitude":"45.96886","Longitude":"-94.37720","Snowdepth":"14.000","Units":"in","Rept_Date":"2020-02-01 13"},"coordinates":[644,6526]},{"type":"Point","properties":{"Station_ID":"MI-DL-4","Station_Nam":"GLADSTONE 2.1 SW, MI","Latitude":"45.83218","Longitude":"-87.05727","Snowdepth":"14.000","Units":"in","Rept_Date":"2020-02-01 12"},"coordinates":[2291,6444]},{"type":"Point","properties":{"Station_ID":"MI-DL-1","Station_Nam":"GARDEN CORNERS 0.8 NW, MI","Latitude":"45.89815","Longitude":"-86.54850","Snowdepth":"14.000","Units":"in","Rept_Date":"2020-02-01 13"},"coordinates":[2405,6484]},{"type":"Point","properties":{"Station_ID":"LILM1","Station_Nam":"LILLE","Latitude":"47.27770","Longitude":"-68.10520","Snowdepth":"14.000","Units":"in","Rept_Date":"2020-02-01 12"},"coordinates":[6555,7316]},{"type":"Point","properties":{"Station_ID":"GRFN8","Station_Nam":"UNIVERSITY","Latitude":"47.93330","Longitude":"-97.08330","Snowdepth":"14.000","Units":"in","Rept_Date":"2020-02-02 06"},"coordinates":[35,7711]},{"type":"Point","properties":{"Station_ID":"GDCM4","Station_Nam":"GARDEN CORNERS","Latitude":"45.89830","Longitude":"-86.54850","Snowdepth":"14.000","Units":"in","Rept_Date":"2020-02-01 13"},"coordinates":[2405,6484]},{"type":"Point","properties":{"Station_ID":"EAHV1","Station_Nam":"EAST HAVEN","Latitude":"44.64250","Longitude":"-71.89120","Snowdepth":"14.000","Units":"in","Rept_Date":"2020-02-01 12"},"coordinates":[5703,5726]},{"type":"Point","properties":{"Station_ID":"CAN-PE-19","Station_Nam":"CHARLOTTETOWN 6.5 NNW, CAN","Latitude":"46.29235","Longitude":"-63.17271","Snowdepth":"14.000","Units":"in","Rept_Date":"2020-02-01 12"},"coordinates":[7665,6721]},{"type":"Point","properties":{"Station_ID":"BKEM5","Station_Nam":"BRECKENRIDGE 4NE","Latitude":"46.30470","Longitude":"-96.52170","Snowdepth":"14.000","Units":"in","Rept_Date":"2020-02-01 13"},"coordinates":[161,6729]},{"type":"Point","properties":{"Station_ID":"AVLV1","Station_Nam":"AVERILL","Latitude":"45.00570","Longitude":"-71.69030","Snowdepth":"14.000","Units":"in","Rept_Date":"2020-02-01 13"},"coordinates":[5748,5945]},{"type":"Point","properties":{"Station_ID":"FTHQ6","Station_Nam":"FORT HOPE","Latitude":"51.55820","Longitude":"-87.90510","Snowdepth":"13.900","Units":"in","Rept_Date":"2020-02-02 06"},"coordinates":[2100,9897]},{"type":"Point","properties":{"Station_ID":"ME-PN-45","Station_Nam":"MILLINOCKET 2.7 ESE, ME","Latitude":"45.65002","Longitude":"-68.64472","Snowdepth":"13.500","Units":"in","Rept_Date":"2020-02-01 12"},"coordinates":[6433,6334]},{"type":"Point","properties":{"Station_ID":"CAN-NS-94","Station_Nam":"MARGAREE FORKS 2.6 SSE CBN, CAN","Latitude":"46.30937","Longitude":"-61.07603","Snowdepth":"13.400","Units":"in","Rept_Date":"2020-02-01 13"},"coordinates":[8136,6732]},{"type":"Point","properties":{"Station_ID":"CAN-PE-7","Station_Nam":"MORELL 1.4 NNW, CA","Latitude":"46.42741","Longitude":"-62.70870","Snowdepth":"13.300","Units":"in","Rept_Date":"2020-02-01 12"},"coordinates":[7769,6803]},{"type":"Point","properties":{"Station_ID":"VT-ES-1","Station_Nam":"GRANBY 1.4 NW, VT","Latitude":"44.58330","Longitude":"-71.77870","Snowdepth":"13.000","Units":"in","Rept_Date":"2020-02-01 12"},"coordinates":[5728,5691]},{"type":"Point","properties":{"Station_ID":"RCEM5","Station_Nam":"RICE","Latitude":"45.75760","Longitude":"-94.20720","Snowdepth":"13.000","Units":"in","Rept_Date":"2020-02-01 13"},"coordinates":[682,6399]},{"type":"Point","properties":{"Station_ID":"PBAN8","Station_Nam":"SITE 1-3MI.N","Latitude":"48.97420","Longitude":"-97.23860","Snowdepth":"13.000","Units":"in","Rept_Date":"2020-02-01 14"},"coordinates":[0,8339]},{"type":"Point","properties":{"Station_ID":"MRAM4","Station_Nam":"MORAN","Latitude":"45.99030","Longitude":"-84.83610","Snowdepth":"13.000","Units":"in","Rept_Date":"2020-02-01 13"},"coordinates":[2790,6539]},{"type":"Point","properties":{"Station_ID":"MLCM5","Station_Nam":"MILACA","Latitude":"45.75320","Longitude":"-93.66170","Snowdepth":"13.000","Units":"in","Rept_Date":"2020-02-01 13"},"coordinates":[805,6396]},{"type":"Point","properties":{"Station_ID":"MI-OT-16","Station_Nam":"GAYLORD 2.2 SSE, MI","Latitude":"44.99441","Longitude":"-84.65820","Snowdepth":"13.000","Units":"in","Rept_Date":"2020-02-01 13"},"coordinates":[2831,5938]},{"type":"Point","properties":{"Station_ID":"MEDW3","Station_Nam":"MEDFORD","Latitude":"45.13080","Longitude":"-90.34390","Snowdepth":"13.000","Units":"in","Rept_Date":"2020-02-01 14"},"coordinates":[1551,6021]},{"type":"Point","properties":{"Station_ID":"LBRM5","Station_Nam":"LAKE BRONSON DAM","Latitude":"48.72410","Longitude":"-96.62180","Snowdepth":"13.000","Units":"in","Rept_Date":"2020-02-01 14"},"coordinates":[139,8188]},{"type":"Point","properties":{"Station_ID":"GRBM5","Station_Nam":"GRAND RAPIDS 12N","Latitude":"47.39800","Longitude":"-93.51330","Snowdepth":"13.000","Units":"in","Rept_Date":"2020-02-01 13"},"coordinates":[838,7388]},{"type":"Point","properties":{"Station_ID":"EJNM4","Station_Nam":"EAST JORDAN 2NW","Latitude":"45.18630","Longitude":"-85.14770","Snowdepth":"13.000","Units":"in","Rept_Date":"2020-02-01 13"},"coordinates":[2720,6054]},{"type":"Point","properties":{"Station_ID":"CORV1","Station_Nam":"CORINTH","Latitude":"44.00690","Longitude":"-72.31940","Snowdepth":"13.000","Units":"in","Rept_Date":"2020-02-01 12"},"coordinates":[5607,5343]},{"type":"Point","properties":{"Station_ID":"BREW3","Station_Nam":"SURING","Latitude":"44.99580","Longitude":"-88.37860","Snowdepth":"13.000","Units":"in","Rept_Date":"2020-02-01 15"},"coordinates":[1993,5939]},{"type":"Point","properties":{"Station_ID":"BALW3","Station_Nam":"BALDWIN","Latitude":"44.96330","Longitude":"-92.39050","Snowdepth":"13.000","Units":"in","Rept_Date":"2020-02-01 13"},"coordinates":[1091,5920]},{"type":"Point","properties":{"Station_ID":"ARTM5","Station_Nam":"ARTICHOKE LAKE 1 E","Latitude":"45.38560","Longitude":"-96.12570","Snowdepth":"13.000","Units":"in","Rept_Date":"2020-02-02 00"},"coordinates":[250,6174]},{"type":"Point","properties":{"Station_ID":"APXM4","Station_Nam":"GAYLORD 9SSW","Latitude":"44.90720","Longitude":"-84.71880","Snowdepth":"13.000","Units":"in","Rept_Date":"2020-02-02 06"},"coordinates":[2817,5886]},{"type":"Point","properties":{"Station_ID":"AMDW3","Station_Nam":"ALMOND-5 NE","Latitude":"44.30830","Longitude":"-89.34640","Snowdepth":"13.000","Units":"in","Rept_Date":"2020-02-01 14"},"coordinates":[1776,5525]},{"type":"Point","properties":{"Station_ID":"ABGW3","Station_Nam":"AMBERG 9 E","Latitude":"45.48250","Longitude":"-87.81190","Snowdepth":"13.000","Units":"in","Rept_Date":"2020-02-01 12"},"coordinates":[2121,6233]},{"type":"Point","properties":{"Station_ID":"VT-OL-9","Station_Nam":"GREENSBORO 2.1 NNW, VT","Latitude":"44.60528","Longitude":"-72.30940","Snowdepth":"12.500","Units":"in","Rept_Date":"2020-02-01 12"},"coordinates":[5609,5704]},{"type":"Point","properties":{"Station_ID":"MI-CX-7","Station_Nam":"EAST JORDAN 2.1 NNW, MI","Latitude":"45.18639","Longitude":"-85.14750","Snowdepth":"12.500","Units":"in","Rept_Date":"2020-02-01 13"},"coordinates":[2720,6054]},{"type":"Point","properties":{"Station_ID":"CAN-NS-60","Station_Nam":"SYDNEY FORKS, CAN","Latitude":"46.05645","Longitude":"-60.31510","Snowdepth":"12.500","Units":"in","Rept_Date":"2020-02-01 14"},"coordinates":[8308,6579]},{"type":"Point","properties":{"Station_ID":"WI-PT-8","Station_Nam":"RUDOLPH 2.1 NNE, WI","Latitude":"44.52553","Longitude":"-89.78677","Snowdepth":"12.000","Units":"in","Rept_Date":"2020-02-01 11"},"coordinates":[1677,5656]},{"type":"Point","properties":{"Station_ID":"VT-CL-14","Station_Nam":"LYNDONVILLE 1.1 W, VT","Latitude":"44.53582","Longitude":"-72.02867","Snowdepth":"12.000","Units":"in","Rept_Date":"2020-02-01 12"},"coordinates":[5672,5662]},{"type":"Point","properties":{"Station_ID":"SPCW3","Station_Nam":"SPENCER-WWTP","Latitude":"44.75390","Longitude":"-90.28920","Snowdepth":"12.000","Units":"in","Rept_Date":"2020-02-01 13"},"coordinates":[1564,5793]},{"type":"Point","properties":{"Station_ID":"SIWS2","Station_Nam":"SISSETON 3W","Latitude":"45.65870","Longitude":"-97.12450","Snowdepth":"12.000","Units":"in","Rept_Date":"2020-02-01 13"},"coordinates":[26,6339]},{"type":"Point","properties":{"Station_ID":"SIBI4","Station_Nam":"SIBLEY","Latitude":"43.40470","Longitude":"-95.74830","Snowdepth":"12.000","Units":"in","Rept_Date":"2020-02-01 13"},"coordinates":[335,4980]},{"type":"Point","properties":{"Station_ID":"SD-RB-1","Station_Nam":"SISSETON 3.8 W, SD","Latitude":"45.65865","Longitude":"-97.12370","Snowdepth":"12.000","Units":"in","Rept_Date":"2020-02-01 13"},"coordinates":[26,6339]},{"type":"Point","properties":{"Station_ID":"MNG0GYSN","Station_Nam":"LONSDALE 1.1 SSW","Latitude":"44.46445","Longitude":"-93.43293","Snowdepth":"12.000","Units":"in","Rept_Date":"2020-02-01 12"},"coordinates":[856,5619]},{"type":"Point","properties":{"Station_ID":"MN-SR-29","Station_Nam":"ALBANY 3.8 S, MN","Latitude":"45.57441","Longitude":"-94.55543","Snowdepth":"12.000","Units":"in","Rept_Date":"2020-02-01 13"},"coordinates":[604,6288]},{"type":"Point","properties":{"Station_ID":"MN-RC-1","Station_Nam":"MONTGOMERY 3.2 ENE, MN","Latitude":"44.46400","Longitude":"-93.51980","Snowdepth":"12.000","Units":"in","Rept_Date":"2020-02-01 12"},"coordinates":[837,5619]},{"type":"Point","properties":{"Station_ID":"MI-OT-4","Station_Nam":"GAYLORD 1.7 WNW, MI","Latitude":"45.03280","Longitude":"-84.71090","Snowdepth":"12.000","Units":"in","Rept_Date":"2020-02-01 13"},"coordinates":[2819,5962]},{"type":"Point","properties":{"Station_ID":"LPLN6","Station_Nam":"LAKE PLACID 2 S","Latitude":"44.30420","Longitude":"-73.98390","Snowdepth":"12.000","Units":"in","Rept_Date":"2020-02-01 12"},"coordinates":[5232,5522]},{"type":"Point","properties":{"Station_ID":"LBKV1","Station_Nam":"LYE BROOK","Latitude":"43.05000","Longitude":"-73.03330","Snowdepth":"12.000","Units":"in","Rept_Date":"2020-02-02 06"},"coordinates":[5446,4766]},{"type":"Point","properties":{"Station_ID":"KIMM5","Station_Nam":"KIMBALL 3N","Latitude":"45.35330","Longitude":"-94.30560","Snowdepth":"12.000","Units":"in","Rept_Date":"2020-02-01 12"},"coordinates":[660,6155]},{"type":"Point","properties":{"Station_ID":"ISEM5","Station_Nam":"ISLE 12N","Latitude":"46.31970","Longitude":"-93.50140","Snowdepth":"12.000","Units":"in","Rept_Date":"2020-02-01 14"},"coordinates":[841,6738]},{"type":"Point","properties":{"Station_ID":"GAYM4","Station_Nam":"GAYLORD","Latitude":"45.03320","Longitude":"-84.71130","Snowdepth":"12.000","Units":"in","Rept_Date":"2020-02-01 13"},"coordinates":[2819,5962]},{"type":"Point","properties":{"Station_ID":"FORM5","Station_Nam":"FOREST LAKE 5NE","Latitude":"45.33170","Longitude":"-92.89820","Snowdepth":"12.000","Units":"in","Rept_Date":"2020-02-01 13"},"coordinates":[977,6142]},{"type":"Point","properties":{"Station_ID":"ESAM4","Station_Nam":"ESCANABA","Latitude":"45.74380","Longitude":"-87.04060","Snowdepth":"12.000","Units":"in","Rept_Date":"2020-02-01 12"},"coordinates":[2294,6390]},{"type":"Point","properties":{"Station_ID":"EAU","Station_Nam":"CHIPPEWA VALLEY REGIONAL AIRPORT","Latitude":"44.86650","Longitude":"-91.48790","Snowdepth":"12.000","Units":"in","Rept_Date":"2020-02-02 00"},"coordinates":[1294,5861]},{"type":"Point","properties":{"Station_ID":"CAN-ON-757","Station_Nam":"SAULT STE. MARIE 2.8 ESE - GLFC, CAN","Latitude":"46.50300","Longitude":"-84.30300","Snowdepth":"12.000","Units":"in","Rept_Date":"2020-02-01 13"},"coordinates":[2910,6848]},{"type":"Point","properties":{"Station_ID":"CAN-ON-245","Station_Nam":"PHELPSTON 3.1 ESE, CAN","Latitude":"44.50564","Longitude":"-79.81035","Snowdepth":"11.500","Units":"in","Rept_Date":"2020-02-01 14"},"coordinates":[3921,5644]},{"type":"Point","properties":{"Station_ID":"CAN-NB-18","Station_Nam":"MCLEOD HILL 1.1 ENE, CA","Latitude":"46.02725","Longitude":"-66.67460","Snowdepth":"11.500","Units":"in","Rept_Date":"2020-02-01 12"},"coordinates":[6877,6561]},{"type":"Point","properties":{"Station_ID":"WSFW3","Station_Nam":"TOWN OF WESTFORD","Latitude":"43.47190","Longitude":"-88.88250","Snowdepth":"11.000","Units":"in","Rept_Date":"2020-02-01 13"},"coordinates":[1880,5020]},{"type":"Point","properties":{"Station_ID":"WRUM5","Station_Nam":"WARROAD 4W","Latitude":"48.89600","Longitude":"-95.40700","Snowdepth":"11.000","Units":"in","Rept_Date":"2020-02-02 04"},"coordinates":[412,8292]},{"type":"Point","properties":{"Station_ID":"WMRM5","Station_Nam":"WILLMAR 5N","Latitude":"45.19010","Longitude":"-95.05860","Snowdepth":"11.000","Units":"in","Rept_Date":"2020-02-01 12"},"coordinates":[490,6057]},{"type":"Point","properties":{"Station_ID":"WI-DD-16","Station_Nam":"BEAVER DAM 2.4 WNW, WI","Latitude":"43.47210","Longitude":"-88.88280","Snowdepth":"11.000","Units":"in","Rept_Date":"2020-02-01 13"},"coordinates":[1880,5020]},{"type":"Point","properties":{"Station_ID":"WABM5","Station_Nam":"WABASHA","Latitude":"44.38500","Longitude":"-92.04860","Snowdepth":"11.000","Units":"in","Rept_Date":"2020-02-01 13"},"coordinates":[1168,5571]},{"type":"Point","properties":{"Station_ID":"THLM5","Station_Nam":"THEILMAN 1SSW","Latitude":"44.28130","Longitude":"-92.19430","Snowdepth":"11.000","Units":"in","Rept_Date":"2020-02-01 13"},"coordinates":[1135,5508]},{"type":"Point","properties":{"Station_ID":"STC","Station_Nam":"ST. CLOUD REGIONAL AIRPORT","Latitude":"45.54330","Longitude":"-94.05140","Snowdepth":"11.000","Units":"in","Rept_Date":"2020-02-01 12"},"coordinates":[717,6270]},{"type":"Point","properties":{"Station_ID":"SHIW3","Station_Nam":"SHIOCTON","Latitude":"44.43890","Longitude":"-88.58390","Snowdepth":"11.000","Units":"in","Rept_Date":"2020-02-01 13"},"coordinates":[1947,5603]},{"type":"Point","properties":{"Station_ID":"SCSM5","Station_Nam":"ST CLOUD STATE","Latitude":"45.55100","Longitude":"-94.14950","Snowdepth":"11.000","Units":"in","Rept_Date":"2020-02-01 13"},"coordinates":[695,6274]},{"type":"Point","properties":{"Station_ID":"RDFN6","Station_Nam":"REDFIELD 8N","Latitude":"43.64130","Longitude":"-75.88400","Snowdepth":"11.000","Units":"in","Rept_Date":"2020-02-01 12"},"coordinates":[4805,5122]},{"type":"Point","properties":{"Station_ID":"PTBN3","Station_Nam":"PITTSBURG RESERVOIR","Latitude":"45.04690","Longitude":"-71.38300","Snowdepth":"11.000","Units":"in","Rept_Date":"2020-02-01 12"},"coordinates":[5817,5970]},{"type":"Point","properties":{"Station_ID":"NY-FK-7","Station_Nam":"SARANAC LAKE 6.2 N, NY","Latitude":"44.41359","Longitude":"-74.15211","Snowdepth":"11.000","Units":"in","Rept_Date":"2020-02-01 12"},"coordinates":[5194,5588]},{"type":"Point","properties":{"Station_ID":"NUMN3","Station_Nam":"NORTHUMBERLAND","Latitude":"44.52830","Longitude":"-71.50440","Snowdepth":"11.000","Units":"in","Rept_Date":"2020-02-01 13"},"coordinates":[5790,5657]},{"type":"Point","properties":{"Station_ID":"MRQM4","Station_Nam":"MARQUETTE WFP","Latitude":"46.54580","Longitude":"-87.37950","Snowdepth":"11.000","Units":"in","Rept_Date":"2020-02-01 13"},"coordinates":[2218,6874]},{"type":"Point","properties":{"Station_ID":"MN-WR-40","Station_Nam":"CLEARWATER 5.4 SSE, MN","Latitude":"45.34795","Longitude":"-94.03374","Snowdepth":"11.000","Units":"in","Rept_Date":"2020-02-01 14"},"coordinates":[721,6152]},{"type":"Point","properties":{"Station_ID":"MN-HN-6","Station_Nam":"LONG LAKE 0.2 WSW, MN","Latitude":"44.98290","Longitude":"-93.57360","Snowdepth":"11.000","Units":"in","Rept_Date":"2020-02-01 13"},"coordinates":[825,5932]},{"type":"Point","properties":{"Station_ID":"MN-DK-53","Station_Nam":"LAKEVILLE 3.8 ENE, MN","Latitude":"44.70423","Longitude":"-93.18460","Snowdepth":"11.000","Units":"in","Rept_Date":"2020-02-01 13"},"coordinates":[912,5763]},{"type":"Point","properties":{"Station_ID":"MN-CV-22","Station_Nam":"VICTORIA 1.6 WSW, MN","Latitude":"44.85670","Longitude":"-93.68640","Snowdepth":"11.000","Units":"in","Rept_Date":"2020-02-01 13"},"coordinates":[799,5855]},{"type":"Point","properties":{"Station_ID":"KSEM4","Station_Nam":"KALKASKA 11SE","Latitude":"44.58970","Longitude":"-85.04860","Snowdepth":"11.000","Units":"in","Rept_Date":"2020-02-01 13"},"coordinates":[2743,5694]},{"type":"Point","properties":{"Station_ID":"KINM1","Station_Nam":"KINGFIELD","Latitude":"44.95950","Longitude":"-70.17530","Snowdepth":"11.000","Units":"in","Rept_Date":"2020-02-01 17"},"coordinates":[6089,5917]},{"type":"Point","properties":{"Station_ID":"JEFN3","Station_Nam":"JEFFERSON","Latitude":"44.41690","Longitude":"-71.50080","Snowdepth":"11.000","Units":"in","Rept_Date":"2020-02-01 12"},"coordinates":[5791,5590]},{"type":"Point","properties":{"Station_ID":"ISLV1","Station_Nam":"ISLAND POND","Latitude":"44.81280","Longitude":"-71.89020","Snowdepth":"11.000","Units":"in","Rept_Date":"2020-02-01 15"},"coordinates":[5703,5829]},{"type":"Point","properties":{"Station_ID":"GHMN3","Station_Nam":"PINKHAM NOTCH","Latitude":"44.25800","Longitude":"-71.25250","Snowdepth":"11.000","Units":"in","Rept_Date":"2020-02-01 11"},"coordinates":[5847,5494]},{"type":"Point","properties":{"Station_ID":"FYTI4","Station_Nam":"FAYETTE","Latitude":"42.88300","Longitude":"-91.83020","Snowdepth":"11.000","Units":"in","Rept_Date":"2020-02-01 13"},"coordinates":[1217,4665]},{"type":"Point","properties":{"Station_ID":"CAN-ON-208","Station_Nam":"PAKENHAM 7.8 NNW, CAN","Latitude":"45.39166","Longitude":"-76.34111","Snowdepth":"11.000","Units":"in","Rept_Date":"2020-02-01 12"},"coordinates":[4702,6178]},{"type":"Point","properties":{"Station_ID":"BFSW3","Station_Nam":"BIG FALLS-5 NW","Latitude":"44.63980","Longitude":"-89.11330","Snowdepth":"11.000","Units":"in","Rept_Date":"2020-02-01 13"},"coordinates":[1828,5725]},{"type":"Point","properties":{"Station_ID":"VT-WS-15","Station_Nam":"EAST CALAIS 1.5 SW, VT","Latitude":"44.35523","Longitude":"-72.45540","Snowdepth":"10.500","Units":"in","Rept_Date":"2020-02-01 12"},"coordinates":[5576,5553]},{"type":"Point","properties":{"Station_ID":"NY-FK-9","Station_Nam":"GABRIELS 1.3 SE, NY","Latitude":"44.41934","Longitude":"-74.16194","Snowdepth":"10.500","Units":"in","Rept_Date":"2020-02-01 12"},"coordinates":[5192,5592]},{"type":"Point","properties":{"Station_ID":"NY-ES-6","Station_Nam":"OLMSTEDVILLE 4.6 NNE, NY","Latitude":"43.83350","Longitude":"-73.89780","Snowdepth":"10.500","Units":"in","Rept_Date":"2020-02-01 13"},"coordinates":[5252,5238]},{"type":"Point","properties":{"Station_ID":"CAN-NS-103","Station_Nam":"TRAFALGAR 4.9 WSW, CAN","Latitude":"45.26217","Longitude":"-62.72285","Snowdepth":"10.500","Units":"in","Rept_Date":"2020-02-01 12"},"coordinates":[7766,6100]},{"type":"Point","properties":{"Station_ID":"CAN-NB-2","Station_Nam":"GRAFTON 2.7 NNE, CA","Latitude":"46.17062","Longitude":"-67.55330","Snowdepth":"10.500","Units":"in","Rept_Date":"2020-02-01 10"},"coordinates":[6679,6648]},{"type":"Point","properties":{"Station_ID":"WNNM5","Station_Nam":"WINNEBAGO","Latitude":"43.76920","Longitude":"-94.18730","Snowdepth":"10.000","Units":"in","Rept_Date":"2020-02-01 14"},"coordinates":[687,5200]},{"type":"Point","properties":{"Station_ID":"WMTI4","Station_Nam":"FORT DODGE,IA","Latitude":"42.50610","Longitude":"-94.20110","Snowdepth":"10.000","Units":"in","Rept_Date":"2020-02-01 14"},"coordinates":[683,4438]},{"type":"Point","properties":{"Station_ID":"WI-PK-4","Station_Nam":"DRESSER 6.1 ESE, WI","Latitude":"45.32436","Longitude":"-92.52080","Snowdepth":"10.000","Units":"in","Rept_Date":"2020-02-01 14"},"coordinates":[1061,6137]},{"type":"Point","properties":{"Station_ID":"WI-PC-5","Station_Nam":"RIVER FALLS 1.2 SSW, WI","Latitude":"44.84032","Longitude":"-92.63500","Snowdepth":"10.000","Units":"in","Rept_Date":"2020-02-01 13"},"coordinates":[1036,5846]},{"type":"Point","properties":{"Station_ID":"WDOM5","Station_Nam":"WINDOM","Latitude":"43.87700","Longitude":"-95.11590","Snowdepth":"10.000","Units":"in","Rept_Date":"2020-02-01 14"},"coordinates":[478,5265]},{"type":"Point","properties":{"Station_ID":"VT-OL-2","Station_Nam":"BARTON 3.0 ENE, VT","Latitude":"44.75863","Longitude":"-72.11680","Snowdepth":"10.000","Units":"in","Rept_Date":"2020-02-01 12"},"coordinates":[5652,5796]},{"type":"Point","properties":{"Station_ID":"VT-OG-11","Station_Nam":"VERSHIRE 1.5 ESE, VT","Latitude":"43.96138","Longitude":"-72.29777","Snowdepth":"10.000","Units":"in","Rept_Date":"2020-02-01 13"},"coordinates":[5612,5315]},{"type":"Point","properties":{"Station_ID":"TAHW3","Station_Nam":"TAYCHEEDAH","Latitude":"43.83390","Longitude":"-88.34690","Snowdepth":"10.000","Units":"in","Rept_Date":"2020-02-01 12"},"coordinates":[2001,5239]},{"type":"Point","properties":{"Station_ID":"SHHW3","Station_Nam":"SHAWANO 2SSW","Latitude":"44.76310","Longitude":"-88.61830","Snowdepth":"10.000","Units":"in","Rept_Date":"2020-02-01 14"},"coordinates":[1940,5799]},{"type":"Point","properties":{"Station_ID":"SD-BK-7","Station_Nam":"BROOKINGS 0.2 SSW, SD","Latitude":"44.30389","Longitude":"-96.78780","Snowdepth":"10.000","Units":"in","Rept_Date":"2020-02-01 13"},"coordinates":[101,5522]},{"type":"Point","properties":{"Station_ID":"RGNM1","Station_Nam":"RANGELEY 2NW","Latitude":"44.98940","Longitude":"-70.67220","Snowdepth":"10.000","Units":"in","Rept_Date":"2020-02-01 12"},"coordinates":[5977,5935]},{"type":"Point","properties":{"Station_ID":"RANM1","Station_Nam":"RANGELEY","Latitude":"44.98910","Longitude":"-70.67190","Snowdepth":"10.000","Units":"in","Rept_Date":"2020-02-01 12"},"coordinates":[5977,5935]},{"type":"Point","properties":{"Station_ID":"PULW3","Station_Nam":"PULASKI WWTP","Latitude":"44.67830","Longitude":"-88.22750","Snowdepth":"10.000","Units":"in","Rept_Date":"2020-02-01 12"},"coordinates":[2027,5748]},{"type":"Point","properties":{"Station_ID":"NH-CR-11","Station_Nam":"NORTH CONWAY 1.4 SSW, NH","Latitude":"44.03556","Longitude":"-71.14010","Snowdepth":"10.000","Units":"in","Rept_Date":"2020-02-01 12"},"coordinates":[5872,5360]},{"type":"Point","properties":{"Station_ID":"MONW3","Station_Nam":"MONROE,WI","Latitude":"42.60000","Longitude":"-89.66670","Snowdepth":"10.000","Units":"in","Rept_Date":"2020-02-01 13"},"coordinates":[1704,4494]},{"type":"Point","properties":{"Station_ID":"MN-MW-8","Station_Nam":"AUSTIN 2.4 W, MN","Latitude":"43.67190","Longitude":"-93.02280","Snowdepth":"10.000","Units":"in","Rept_Date":"2020-02-01 13"},"coordinates":[949,5141]},{"type":"Point","properties":{"Station_ID":"MN-HN-19","Station_Nam":"EDINA 1.3 SW, MN","Latitude":"44.87830","Longitude":"-93.37890","Snowdepth":"10.000","Units":"in","Rept_Date":"2020-02-01 13"},"coordinates":[868,5868]},{"type":"Point","properties":{"Station_ID":"MN-HN-181","Station_Nam":"MINNEAPOLIS 0.4 NE, MN","Latitude":"44.96708","Longitude":"-93.26222","Snowdepth":"10.000","Units":"in","Rept_Date":"2020-02-01 13"},"coordinates":[895,5922]},{"type":"Point","properties":{"Station_ID":"MLRM5","Station_Nam":"MELROSE","Latitude":"45.67710","Longitude":"-94.80200","Snowdepth":"10.000","Units":"in","Rept_Date":"2020-02-01 13"},"coordinates":[548,6350]},{"type":"Point","properties":{"Station_ID":"LACN3","Station_Nam":"LACONIA","Latitude":"43.53010","Longitude":"-71.46260","Snowdepth":"10.000","Units":"in","Rept_Date":"2020-02-01 12"},"coordinates":[5799,5055]},{"type":"Point","properties":{"Station_ID":"INDN6","Station_Nam":"INDIAN LAKE","Latitude":"43.75500","Longitude":"-74.27560","Snowdepth":"10.000","Units":"in","Rept_Date":"2020-02-01 13"},"coordinates":[5167,5191]},{"type":"Point","properties":{"Station_ID":"ELRW3","Station_Nam":"EAU CLAIRE 3SW","Latitude":"44.78780","Longitude":"-91.51650","Snowdepth":"10.000","Units":"in","Rept_Date":"2020-02-02 06"},"coordinates":[1287,5814]},{"type":"Point","properties":{"Station_ID":"CNTW3","Station_Nam":"CLINTONVILLE","Latitude":"44.62270","Longitude":"-88.74830","Snowdepth":"10.000","Units":"in","Rept_Date":"2020-02-01 13"},"coordinates":[1910,5714]},{"type":"Point","properties":{"Station_ID":"BLKW3","Station_Nam":"BLACK RIVER FALLS SEWAGE","Latitude":"44.29040","Longitude":"-90.85360","Snowdepth":"10.000","Units":"in","Rept_Date":"2020-02-01 14"},"coordinates":[1437,5514]},{"type":"Point","properties":{"Station_ID":"BDMW3","Station_Nam":"BEAVER DAM 1 N","Latitude":"43.46860","Longitude":"-88.83970","Snowdepth":"10.000","Units":"in","Rept_Date":"2020-02-01 13"},"coordinates":[1890,5018]},{"type":"Point","properties":{"Station_ID":"CAN-QC-51","Station_Nam":"BELOEIL 0.7 NW, CAN","Latitude":"45.58049","Longitude":"-73.21218","Snowdepth":"9.800","Units":"in","Rept_Date":"2020-02-01 12"},"coordinates":[5406,6292]},{"type":"Point","properties":{"Station_ID":"WI-DR-5","Station_Nam":"ELLISON BAY 2.2 E, WI","Latitude":"45.25750","Longitude":"-87.02670","Snowdepth":"9.500","Units":"in","Rept_Date":"2020-02-01 13"},"coordinates":[2298,6097]},{"type":"Point","properties":{"Station_ID":"SD-RB-4","Station_Nam":"SISSETON 10.4 ENE, SD","Latitude":"45.69480","Longitude":"-96.83480","Snowdepth":"9.500","Units":"in","Rept_Date":"2020-02-01 13"},"coordinates":[91,6361]},{"type":"Point","properties":{"Station_ID":"NH-GR-49","Station_Nam":"PLYMOUTH 3.7 N, NH","Latitude":"43.79048","Longitude":"-71.68413","Snowdepth":"9.500","Units":"in","Rept_Date":"2020-02-01 12"},"coordinates":[5750,5212]},{"type":"Point","properties":{"Station_ID":"MN-MC-16","Station_Nam":"HUTCHINSON 0.1 ENE, MN","Latitude":"44.88633","Longitude":"-94.37503","Snowdepth":"9.500","Units":"in","Rept_Date":"2020-02-01 13"},"coordinates":[644,5873]},{"type":"Point","properties":{"Station_ID":"QGT","Station_Nam":"QGT","Latitude":"49.64720","Longitude":"-67.62640","Snowdepth":"9.409","Units":"in","Rept_Date":"2020-02-01 12"},"coordinates":[6663,8745]},{"type":"Point","properties":{"Station_ID":"MN-FM-10","Station_Nam":"WYKOFF 3.1 NW, MN","Latitude":"43.74340","Longitude":"-92.30650","Snowdepth":"9.300","Units":"in","Rept_Date":"2020-02-01 13"},"coordinates":[1110,5184]},{"type":"Point","properties":{"Station_ID":"WTBW3","Station_Nam":"WEST BEND PUBLIC WORKS","Latitude":"43.41110","Longitude":"-88.19380","Snowdepth":"9.000","Units":"in","Rept_Date":"2020-02-01 13"},"coordinates":[2035,4984]},{"type":"Point","properties":{"Station_ID":"WORV1","Station_Nam":"WORCESTER 2 W","Latitude":"44.37470","Longitude":"-72.58220","Snowdepth":"9.000","Units":"in","Rept_Date":"2020-02-01 12"},"coordinates":[5548,5565]},{"type":"Point","properties":{"Station_ID":"WI-WN-9","Station_Nam":"NEENAH 1.1 ENE, WI","Latitude":"44.17370","Longitude":"-88.45130","Snowdepth":"9.000","Units":"in","Rept_Date":"2020-02-01 13"},"coordinates":[1977,5443]},{"type":"Point","properties":{"Station_ID":"WI-WH-7","Station_Nam":"WILD ROSE 0.5 E, WI","Latitude":"44.17764","Longitude":"-89.23812","Snowdepth":"9.000","Units":"in","Rept_Date":"2020-02-01 13"},"coordinates":[1800,5446]},{"type":"Point","properties":{"Station_ID":"WI-VR-1","Station_Nam":"HILLSBORO 0.5 WSW, WI","Latitude":"43.65138","Longitude":"-90.34753","Snowdepth":"9.000","Units":"in","Rept_Date":"2020-02-01 13"},"coordinates":[1550,5128]},{"type":"Point","properties":{"Station_ID":"WI-IW-3","Station_Nam":"MINERAL POINT 7.3 ENE, WI","Latitude":"42.91400","Longitude":"-90.05700","Snowdepth":"9.000","Units":"in","Rept_Date":"2020-02-01 13"},"coordinates":[1616,4684]},{"type":"Point","properties":{"Station_ID":"WASW3","Station_Nam":"WASHINGTON IS","Latitude":"45.35800","Longitude":"-86.89110","Snowdepth":"9.000","Units":"in","Rept_Date":"2020-02-01 13"},"coordinates":[2328,6158]},{"type":"Point","properties":{"Station_ID":"WACM5","Station_Nam":"WACONIA","Latitude":"44.85330","Longitude":"-93.80260","Snowdepth":"9.000","Units":"in","Rept_Date":"2020-02-01 12"},"coordinates":[773,5853]},{"type":"Point","properties":{"Station_ID":"SHDI4","Station_Nam":"SHELDON,IA","Latitude":"43.18080","Longitude":"-95.85280","Snowdepth":"9.000","Units":"in","Rept_Date":"2020-02-01 13"},"coordinates":[312,4845]},{"type":"Point","properties":{"Station_ID":"SD-MH-41","Station_Nam":"SIOUX FALLS 3.9 SW, SD","Latitude":"43.50475","Longitude":"-96.78660","Snowdepth":"9.000","Units":"in","Rept_Date":"2020-02-01 13"},"coordinates":[102,5040]},{"type":"Point","properties":{"Station_ID":"SANI4","Station_Nam":"ST ANSGAR","Latitude":"43.38170","Longitude":"-92.92320","Snowdepth":"9.000","Units":"in","Rept_Date":"2020-02-01 12"},"coordinates":[971,4966]},{"type":"Point","properties":{"Station_ID":"OSAI4","Station_Nam":"OSAGE","Latitude":"43.27940","Longitude":"-92.81060","Snowdepth":"9.000","Units":"in","Rept_Date":"2020-02-01 13"},"coordinates":[996,4904]},{"type":"Point","properties":{"Station_ID":"OCNW3","Station_Nam":"OCONTO 4 W","Latitude":"44.89190","Longitude":"-87.95500","Snowdepth":"9.000","Units":"in","Rept_Date":"2020-02-01 13"},"coordinates":[2089,5877]},{"type":"Point","properties":{"Station_ID":"NY-HR-18","Station_Nam":"SALISBURY CENTER 1.8 NW, NY","Latitude":"43.16260","Longitude":"-74.80880","Snowdepth":"9.000","Units":"in","Rept_Date":"2020-02-01 12"},"coordinates":[5047,4834]},{"type":"Point","properties":{"Station_ID":"NUNV1","Station_Nam":"NORTH UNDERHILL","Latitude":"44.58760","Longitude":"-72.92150","Snowdepth":"9.000","Units":"in","Rept_Date":"2020-02-01 12"},"coordinates":[5471,5693]},{"type":"Point","properties":{"Station_ID":"NUMM5","Station_Nam":"NEW ULM 3SE","Latitude":"44.29450","Longitude":"-94.40840","Snowdepth":"9.000","Units":"in","Rept_Date":"2020-02-01 11"},"coordinates":[637,5516]},{"type":"Point","properties":{"Station_ID":"NH-CR-26","Station_Nam":"CENTER SANDWICH 4.9 E, NH","Latitude":"43.80976","Longitude":"-71.34150","Snowdepth":"9.000","Units":"in","Rept_Date":"2020-02-01 12"},"coordinates":[5827,5224]},{"type":"Point","properties":{"Station_ID":"MN76ACVS","Station_Nam":"GRAND MARAIS 3.0 WNW","Latitude":"47.76602","Longitude":"-90.26427","Snowdepth":"9.000","Units":"in","Rept_Date":"2020-02-01 13"},"coordinates":[1569,7610]},{"type":"Point","properties":{"Station_ID":"MN0GWSNW","Station_Nam":"LAKE ELMO 2.9 SE","Latitude":"44.97220","Longitude":"-92.83065","Snowdepth":"9.000","Units":"in","Rept_Date":"2020-02-01 13"},"coordinates":[992,5925]},{"type":"Point","properties":{"Station_ID":"MN-DK-73","Station_Nam":"LAKEVILLE 2.6 NNE, MN","Latitude":"44.71250","Longitude":"-93.23043","Snowdepth":"9.000","Units":"in","Rept_Date":"2020-02-01 13"},"coordinates":[902,5768]},{"type":"Point","properties":{"Station_ID":"MN-DK-70","Station_Nam":"EAGAN 2.0 NNW, MN","Latitude":"44.84322","Longitude":"-93.17899","Snowdepth":"9.000","Units":"in","Rept_Date":"2020-02-01 16"},"coordinates":[913,5847]},{"type":"Point","properties":{"Station_ID":"MN-CV-40","Station_Nam":"EXCELSIOR 0.8 S, MN","Latitude":"44.88996","Longitude":"-93.56646","Snowdepth":"9.000","Units":"in","Rept_Date":"2020-02-01 13"},"coordinates":[826,5875]},{"type":"Point","properties":{"Station_ID":"MN-CG-16","Station_Nam":"NORTH BRANCH 1.3 NNW, MN","Latitude":"45.53121","Longitude":"-92.97110","Snowdepth":"9.000","Units":"in","Rept_Date":"2020-02-01 12"},"coordinates":[960,6262]},{"type":"Point","properties":{"Station_ID":"MIAM5","Station_Nam":"MILAN 1NW","Latitude":"45.12190","Longitude":"-95.92690","Snowdepth":"9.000","Units":"in","Rept_Date":"2020-02-02 00"},"coordinates":[295,6015]},{"type":"Point","properties":{"Station_ID":"IWAI4","Station_Nam":"IOWA FALLS,IA","Latitude":"42.53330","Longitude":"-93.26670","Snowdepth":"9.000","Units":"in","Rept_Date":"2020-02-01 13"},"coordinates":[894,4454]},{"type":"Point","properties":{"Station_ID":"IA-KS-4","Station_Nam":"ALGONA 0.7 SE, IA","Latitude":"43.06627","Longitude":"-94.22214","Snowdepth":"9.000","Units":"in","Rept_Date":"2020-02-01 13"},"coordinates":[679,4776]},{"type":"Point","properties":{"Station_ID":"FLAM4","Station_Nam":"FIFE LAKE 2WNW","Latitude":"44.58480","Longitude":"-85.36530","Snowdepth":"9.000","Units":"in","Rept_Date":"2020-02-01 12"},"coordinates":[2671,5691]},{"type":"Point","properties":{"Station_ID":"ESGM1","Station_Nam":"EAST SANGERVILLE","Latitude":"45.13690","Longitude":"-69.28060","Snowdepth":"9.000","Units":"in","Rept_Date":"2020-02-01 12"},"coordinates":[6290,6024]},{"type":"Point","properties":{"Station_ID":"ESDN3","Station_Nam":"EAST SANDWICH","Latitude":"43.80990","Longitude":"-71.34250","Snowdepth":"9.000","Units":"in","Rept_Date":"2020-02-01 11"},"coordinates":[5826,5224]},{"type":"Point","properties":{"Station_ID":"EGNM5","Station_Nam":"ELGIN 2SSW","Latitude":"44.09700","Longitude":"-92.27010","Snowdepth":"9.000","Units":"in","Rept_Date":"2020-02-01 13"},"coordinates":[1118,5397]},{"type":"Point","properties":{"Station_ID":"CRCI4","Station_Nam":"CRESCO 1NE","Latitude":"43.38940","Longitude":"-92.09380","Snowdepth":"9.000","Units":"in","Rept_Date":"2020-02-01 13"},"coordinates":[1158,4970]},{"type":"Point","properties":{"Station_ID":"CHRM4","Station_Nam":"CHARLEVOIX","Latitude":"45.31720","Longitude":"-85.26720","Snowdepth":"9.000","Units":"in","Rept_Date":"2020-02-01 13"},"coordinates":[2693,6133]},{"type":"Point","properties":{"Station_ID":"BTLN3","Station_Nam":"BARTLETT","Latitude":"44.08380","Longitude":"-71.29340","Snowdepth":"9.000","Units":"in","Rept_Date":"2020-02-01 12"},"coordinates":[5838,5389]},{"type":"Point","properties":{"Station_ID":"BRLN3","Station_Nam":"BERLIN","Latitude":"44.45350","Longitude":"-71.18540","Snowdepth":"9.000","Units":"in","Rept_Date":"2020-02-01 14"},"coordinates":[5862,5612]},{"type":"Point","properties":{"Station_ID":"BRKI4","Station_Nam":"BROOKLYN,IA","Latitude":"41.72830","Longitude":"-92.43330","Snowdepth":"9.000","Units":"in","Rept_Date":"2020-02-01 13"},"coordinates":[1081,3969]},{"type":"Point","properties":{"Station_ID":"BMRW3","Station_Nam":"BLOOMER","Latitude":"45.09070","Longitude":"-91.48640","Snowdepth":"9.000","Units":"in","Rept_Date":"2020-02-01 14"},"coordinates":[1294,5997]},{"type":"Point","properties":{"Station_ID":"BEAW3","Station_Nam":"BEAVER DAM,WI","Latitude":"43.45000","Longitude":"-88.85000","Snowdepth":"9.000","Units":"in","Rept_Date":"2020-02-01 13"},"coordinates":[1887,5007]},{"type":"Point","properties":{"Station_ID":"APPW3","Station_Nam":"APPLETON","Latitude":"44.27690","Longitude":"-88.43770","Snowdepth":"9.000","Units":"in","Rept_Date":"2020-02-01 12"},"coordinates":[1980,5506]},{"type":"Point","properties":{"Station_ID":"AMHW3","Station_Nam":"AMHERST-3 SE","Latitude":"44.41280","Longitude":"-89.26390","Snowdepth":"9.000","Units":"in","Rept_Date":"2020-02-01 13"},"coordinates":[1794,5588]},{"type":"Point","properties":{"Station_ID":"ALTM5","Station_Nam":"ALTURA 5W","Latitude":"44.06330","Longitude":"-92.03970","Snowdepth":"9.000","Units":"in","Rept_Date":"2020-02-01 13"},"coordinates":[1170,5377]},{"type":"Point","properties":{"Station_ID":"ALGI4","Station_Nam":"ALGONA,IA","Latitude":"43.06670","Longitude":"-94.30610","Snowdepth":"9.000","Units":"in","Rept_Date":"2020-02-01 13"},"coordinates":[660,4776]},{"type":"Point","properties":{"Station_ID":"8D3","Station_Nam":"SISSETON MUNICIPAL AP","Latitude":"45.67080","Longitude":"-96.99610","Snowdepth":"9.000","Units":"in","Rept_Date":"2020-02-01 12"},"coordinates":[55,6346]},{"type":"Point","properties":{"Station_ID":"WI-WN-5","Station_Nam":"OSHKOSH 5.2 N, WI","Latitude":"44.09351","Longitude":"-88.55310","Snowdepth":"8.500","Units":"in","Rept_Date":"2020-02-01 13"},"coordinates":[1954,5395]},{"type":"Point","properties":{"Station_ID":"WI-DN-15","Station_Nam":"MENOMONIE 0.9 NW, WI","Latitude":"44.89832","Longitude":"-91.92398","Snowdepth":"8.500","Units":"in","Rept_Date":"2020-02-01 13"},"coordinates":[1196,5881]},{"type":"Point","properties":{"Station_ID":"WI-DA-33","Station_Nam":"OREGON 0.4 SSW, WI","Latitude":"42.92080","Longitude":"-89.38540","Snowdepth":"8.500","Units":"in","Rept_Date":"2020-02-01 13"},"coordinates":[1767,4688]},{"type":"Point","properties":{"Station_ID":"VT-WR-2","Station_Nam":"POMFRET 2.6 N, VT","Latitude":"43.74230","Longitude":"-72.52550","Snowdepth":"8.500","Units":"in","Rept_Date":"2020-02-01 12"},"coordinates":[5560,5183]},{"type":"Point","properties":{"Station_ID":"NY-OD-2","Station_Nam":"POINT ROCK 0.6 SE, NY","Latitude":"43.37335","Longitude":"-75.53840","Snowdepth":"8.500","Units":"in","Rept_Date":"2020-02-01 13"},"coordinates":[4882,4961]},{"type":"Point","properties":{"Station_ID":"MN-SR-24","Station_Nam":"PAYNESVILLE 1.9 SSW, MN","Latitude":"45.35170","Longitude":"-94.73120","Snowdepth":"8.500","Units":"in","Rept_Date":"2020-02-01 13"},"coordinates":[564,6154]},{"type":"Point","properties":{"Station_ID":"MN-GH-28","Station_Nam":"CANNON FALLS 0.5 SE, MN","Latitude":"44.50866","Longitude":"-92.89526","Snowdepth":"8.500","Units":"in","Rept_Date":"2020-02-01 14"},"coordinates":[977,5646]},{"type":"Point","properties":{"Station_ID":"MI-GT-21","Station_Nam":"KINGSLEY 2.7 ENE, MI","Latitude":"44.59871","Longitude":"-85.48426","Snowdepth":"8.500","Units":"in","Rept_Date":"2020-02-01 14"},"coordinates":[2645,5700]},{"type":"Point","properties":{"Station_ID":"IA-BH-6","Station_Nam":"WATERLOO 1.9 SSE, IA","Latitude":"42.46500","Longitude":"-92.34100","Snowdepth":"8.500","Units":"in","Rept_Date":"2020-02-01 14"},"coordinates":[1102,4413]},{"type":"Point","properties":{"Station_ID":"WWWW3","Station_Nam":"WAUPACA","Latitude":"44.35470","Longitude":"-89.05920","Snowdepth":"8.000","Units":"in","Rept_Date":"2020-02-01 14"},"coordinates":[1840,5553]},{"type":"Point","properties":{"Station_ID":"WI-GL-4","Station_Nam":"GREEN LAKE 0.8 E, WI","Latitude":"43.84369","Longitude":"-88.94066","Snowdepth":"8.000","Units":"in","Rept_Date":"2020-02-01 13"},"coordinates":[1867,5244]},{"type":"Point","properties":{"Station_ID":"WI-DA-39","Station_Nam":"MADISON 4.0 W, WI","Latitude":"43.07741","Longitude":"-89.46757","Snowdepth":"8.000","Units":"in","Rept_Date":"2020-02-01 13"},"coordinates":[1748,4782]},{"type":"Point","properties":{"Station_ID":"WHTM5","Station_Nam":"WHEATON,MN","Latitude":"45.80000","Longitude":"-96.48330","Snowdepth":"8.000","Units":"in","Rept_Date":"2020-02-01 14"},"coordinates":[170,6424]},{"type":"Point","properties":{"Station_ID":"WAOW3","Station_Nam":"WAUTOMA SILVER LAKE SANITARY DISTRICT","Latitude":"44.04110","Longitude":"-89.24330","Snowdepth":"8.000","Units":"in","Rept_Date":"2020-02-01 14"},"coordinates":[1799,5364]},{"type":"Point","properties":{"Station_ID":"VT-CH-11","Station_Nam":"UNDERHILL 5.1 NNE, VT","Latitude":"44.59811","Longitude":"-72.91880","Snowdepth":"8.000","Units":"in","Rept_Date":"2020-02-01 13"},"coordinates":[5472,5699]},{"type":"Point","properties":{"Station_ID":"VQAW3","Station_Nam":"VIROQUA","Latitude":"43.55970","Longitude":"-90.87560","Snowdepth":"8.000","Units":"in","Rept_Date":"2020-02-01 13"},"coordinates":[1432,5073]},{"type":"Point","properties":{"Station_ID":"VOLI4","Station_Nam":"VOLGA 1NE","Latitude":"42.81150","Longitude":"-91.52300","Snowdepth":"8.000","Units":"in","Rept_Date":"2020-02-01 13"},"coordinates":[1286,4622]},{"type":"Point","properties":{"Station_ID":"TRPI4","Station_Nam":"TRIPOLI,IA","Latitude":"42.81310","Longitude":"-92.25830","Snowdepth":"8.000","Units":"in","Rept_Date":"2020-02-01 13"},"coordinates":[1121,4623]},{"type":"Point","properties":{"Station_ID":"TCEM4","Station_Nam":"TRAVERSE CITY 5ESE","Latitude":"44.73370","Longitude":"-85.51180","Snowdepth":"8.000","Units":"in","Rept_Date":"2020-02-01 12"},"coordinates":[2638,5781]},{"type":"Point","properties":{"Station_ID":"SPTI4","Station_Nam":"STRAWBERRY POINT","Latitude":"42.68530","Longitude":"-91.53300","Snowdepth":"8.000","Units":"in","Rept_Date":"2020-02-01 13"},"coordinates":[1284,4546]},{"type":"Point","properties":{"Station_ID":"SPEM5","Station_Nam":"ST PETER","Latitude":"44.32230","Longitude":"-93.96560","Snowdepth":"8.000","Units":"in","Rept_Date":"2020-02-01 13"},"coordinates":[736,5533]},{"type":"Point","properties":{"Station_ID":"SLRW3","Station_Nam":"SLINGER","Latitude":"43.33390","Longitude":"-88.29780","Snowdepth":"8.000","Units":"in","Rept_Date":"2020-02-01 13"},"coordinates":[2012,4937]},{"type":"Point","properties":{"Station_ID":"OOHW3","Station_Nam":"OSHKOSH 5 N","Latitude":"44.09360","Longitude":"-88.55310","Snowdepth":"8.000","Units":"in","Rept_Date":"2020-02-01 13"},"coordinates":[1954,5395]},{"type":"Point","properties":{"Station_ID":"OCON6","Station_Nam":"OSCEOLA","Latitude":"43.49910","Longitude":"-75.71210","Snowdepth":"8.000","Units":"in","Rept_Date":"2020-02-01 12"},"coordinates":[4843,5037]},{"type":"Point","properties":{"Station_ID":"NONW3","Station_Nam":"NEW LONDON","Latitude":"44.35890","Longitude":"-88.71890","Snowdepth":"8.000","Units":"in","Rept_Date":"2020-02-01 12"},"coordinates":[1917,5555]},{"type":"Point","properties":{"Station_ID":"NCON3","Station_Nam":"NORTH CONWAY","Latitude":"44.05620","Longitude":"-71.12970","Snowdepth":"8.000","Units":"in","Rept_Date":"2020-02-01 13"},"coordinates":[5874,5373]},{"type":"Point","properties":{"Station_ID":"NCKN6","Station_Nam":"NORTH CREEK 5 SE","Latitude":"43.66110","Longitude":"-73.89690","Snowdepth":"8.000","Units":"in","Rept_Date":"2020-02-01 12"},"coordinates":[5252,5134]},{"type":"Point","properties":{"Station_ID":"MSHI4","Station_Nam":"MARSHALLTOWN,IA","Latitude":"42.06670","Longitude":"-92.93330","Snowdepth":"8.000","Units":"in","Rept_Date":"2020-02-01 13"},"coordinates":[969,4173]},{"type":"Point","properties":{"Station_ID":"MRBW3","Station_Nam":"MT HOREB","Latitude":"42.98030","Longitude":"-89.73940","Snowdepth":"8.000","Units":"in","Rept_Date":"2020-02-01 13"},"coordinates":[1687,4724]},{"type":"Point","properties":{"Station_ID":"MPXM5","Station_Nam":"CHANHASSEN WSFO","Latitude":"44.84960","Longitude":"-93.56440","Snowdepth":"8.000","Units":"in","Rept_Date":"2020-02-02 06"},"coordinates":[827,5851]},{"type":"Point","properties":{"Station_ID":"MN0HS1SL","Station_Nam":"NORTH SAINT PAUL 1.6 NW","Latitude":"45.02800","Longitude":"-93.01506","Snowdepth":"8.000","Units":"in","Rept_Date":"2020-02-01 13"},"coordinates":[950,5959]},{"type":"Point","properties":{"Station_ID":"MN-SE-2","Station_Nam":"OWATONNA 0.8 E, MN","Latitude":"44.09170","Longitude":"-93.21380","Snowdepth":"8.000","Units":"in","Rept_Date":"2020-02-01 13"},"coordinates":[906,5394]},{"type":"Point","properties":{"Station_ID":"MN-RM-63","Station_Nam":"NORTH SAINT PAUL 1.0 NW, MN","Latitude":"45.02410","Longitude":"-93.01400","Snowdepth":"8.000","Units":"in","Rept_Date":"2020-02-01 13"},"coordinates":[951,5956]},{"type":"Point","properties":{"Station_ID":"MN-RM-2","Station_Nam":"NORTH SAINT PAUL 1.0 NNW, MN","Latitude":"45.02629","Longitude":"-93.00790","Snowdepth":"8.000","Units":"in","Rept_Date":"2020-02-01 12"},"coordinates":[952,5958]},{"type":"Point","properties":{"Station_ID":"MN-RC-11","Station_Nam":"NEW PRAGUE 4.8 ESE, MN","Latitude":"44.51999","Longitude":"-93.48470","Snowdepth":"8.000","Units":"in","Rept_Date":"2020-02-01 11"},"coordinates":[845,5652]},{"type":"Point","properties":{"Station_ID":"MN-HN-78","Station_Nam":"RICHFIELD 1.9 WNW, MN","Latitude":"44.89129","Longitude":"-93.31410","Snowdepth":"8.000","Units":"in","Rept_Date":"2020-02-01 11"},"coordinates":[883,5876]},{"type":"Point","properties":{"Station_ID":"MN-HN-110","Station_Nam":"EDINA 1.9 SSE, MN","Latitude":"44.86875","Longitude":"-93.33940","Snowdepth":"8.000","Units":"in","Rept_Date":"2020-02-01 13"},"coordinates":[877,5863]},{"type":"Point","properties":{"Station_ID":"MI-GT-25","Station_Nam":"TRAVERSE CITY 4.7 ESE, MI","Latitude":"44.73370","Longitude":"-85.51189","Snowdepth":"8.000","Units":"in","Rept_Date":"2020-02-01 12"},"coordinates":[2638,5781]},{"type":"Point","properties":{"Station_ID":"ME-CM-98","Station_Nam":"SEBAGO 2.4 ESE, ME","Latitude":"43.88000","Longitude":"-70.63000","Snowdepth":"8.000","Units":"in","Rept_Date":"2020-02-01 14"},"coordinates":[5987,5266]},{"type":"Point","properties":{"Station_ID":"MALN6","Station_Nam":"MALONE","Latitude":"44.84180","Longitude":"-74.30600","Snowdepth":"8.000","Units":"in","Rept_Date":"2020-02-01 12"},"coordinates":[5160,5846]},{"type":"Point","properties":{"Station_ID":"MA-HS-7","Station_Nam":"PLAINFIELD 2.2 SW, MA","Latitude":"42.49272","Longitude":"-72.94540","Snowdepth":"8.000","Units":"in","Rept_Date":"2020-02-01 13"},"coordinates":[5466,4430]},{"type":"Point","properties":{"Station_ID":"LKFM5","Station_Nam":"LAKEFIELD,MN","Latitude":"43.68330","Longitude":"-95.18330","Snowdepth":"8.000","Units":"in","Rept_Date":"2020-02-01 13"},"coordinates":[462,5148]},{"type":"Point","properties":{"Station_ID":"LAKM5","Station_Nam":"LAKE CITY","Latitude":"44.43630","Longitude":"-92.27930","Snowdepth":"8.000","Units":"in","Rept_Date":"2020-02-01 13"},"coordinates":[1116,5602]},{"type":"Point","properties":{"Station_ID":"KMWN","Station_Nam":"MOUNT WASHINGTON","Latitude":"44.26666","Longitude":"-71.30000","Snowdepth":"8.000","Units":"in","Rept_Date":"2020-02-02 06"},"coordinates":[5836,5500]},{"type":"Point","properties":{"Station_ID":"JKMM1","Station_Nam":"JACKMAN","Latitude":"45.62600","Longitude":"-70.24600","Snowdepth":"8.000","Units":"in","Rept_Date":"2020-02-01 12"},"coordinates":[6073,6319]},{"type":"Point","properties":{"Station_ID":"IA-PK-21","Station_Nam":"JOHNSTON 3.7 NNW, IA","Latitude":"41.73660","Longitude":"-93.72360","Snowdepth":"8.000","Units":"in","Rept_Date":"2020-02-01 13"},"coordinates":[791,3974]},{"type":"Point","properties":{"Station_ID":"HTLM4","Station_Nam":"SNOW PAID OBSERVER FOR KHTL","Latitude":"44.34470","Longitude":"-84.67730","Snowdepth":"8.000","Units":"in","Rept_Date":"2020-02-01 18"},"coordinates":[2826,5547]},{"type":"Point","properties":{"Station_ID":"HTL","Station_Nam":"ROSCOMMON COUNTY AIRPORT","Latitude":"44.35000","Longitude":"-84.66670","Snowdepth":"8.000","Units":"in","Rept_Date":"2020-02-02 00"},"coordinates":[2829,5550]},{"type":"Point","properties":{"Station_ID":"HPTI4","Station_Nam":"HAMPTON,IA","Latitude":"42.75000","Longitude":"-93.20000","Snowdepth":"8.000","Units":"in","Rept_Date":"2020-02-01 13"},"coordinates":[909,4585]},{"type":"Point","properties":{"Station_ID":"HGHN6","Station_Nam":"HIGHMARKET","Latitude":"43.57520","Longitude":"-75.52070","Snowdepth":"8.000","Units":"in","Rept_Date":"2020-02-01 11"},"coordinates":[4886,5083]},{"type":"Point","properties":{"Station_ID":"FRSW3","Station_Nam":"FRIENDSHIP","Latitude":"43.97500","Longitude":"-89.83080","Snowdepth":"8.000","Units":"in","Rept_Date":"2020-02-01 13"},"coordinates":[1667,5324]},{"type":"Point","properties":{"Station_ID":"FARM1","Station_Nam":"FARMINGTON","Latitude":"44.68930","Longitude":"-70.15640","Snowdepth":"8.000","Units":"in","Rept_Date":"2020-02-01 12"},"coordinates":[6093,5754]},{"type":"Point","properties":{"Station_ID":"EPMW3","Station_Nam":"EPHRAIM-1 NE WWTP","Latitude":"45.17080","Longitude":"-87.15360","Snowdepth":"8.000","Units":"in","Rept_Date":"2020-02-01 15"},"coordinates":[2269,6045]},{"type":"Point","properties":{"Station_ID":"EJDM4","Station_Nam":"EAST JORDAN","Latitude":"45.15190","Longitude":"-85.13220","Snowdepth":"8.000","Units":"in","Rept_Date":"2020-02-01 13"},"coordinates":[2724,6033]},{"type":"Point","properties":{"Station_ID":"DWSM5","Station_Nam":"DAWSON","Latitude":"44.93180","Longitude":"-96.04500","Snowdepth":"8.000","Units":"in","Rept_Date":"2020-02-01 13"},"coordinates":[269,5901]},{"type":"Point","properties":{"Station_ID":"DUBI4","Station_Nam":"DUBUQUE #3","Latitude":"42.40870","Longitude":"-90.73250","Snowdepth":"8.000","Units":"in","Rept_Date":"2020-02-01 18"},"coordinates":[1464,4379]},{"type":"Point","properties":{"Station_ID":"DTVM4","Station_Nam":"DETOUR VILLAGE","Latitude":"45.99830","Longitude":"-83.90130","Snowdepth":"8.000","Units":"in","Rept_Date":"2020-02-01 13"},"coordinates":[3001,6544]},{"type":"Point","properties":{"Station_ID":"DBQ","Station_Nam":"DUBUQUE REGIONAL AIRPORT","Latitude":"42.40310","Longitude":"-90.70920","Snowdepth":"8.000","Units":"in","Rept_Date":"2020-02-01 12"},"coordinates":[1469,4376]},{"type":"Point","properties":{"Station_ID":"CMRI4","Station_Nam":"CALMAR NE","Latitude":"43.18760","Longitude":"-91.86200","Snowdepth":"8.000","Units":"in","Rept_Date":"2020-02-01 13"},"coordinates":[1210,4849]},{"type":"Point","properties":{"Station_ID":"CHRI4","Station_Nam":"CHARITON,IA","Latitude":"41.00000","Longitude":"-93.31670","Snowdepth":"8.000","Units":"in","Rept_Date":"2020-02-01 13"},"coordinates":[882,3529]},{"type":"Point","properties":{"Station_ID":"CHPW3","Station_Nam":"CHIPPEWA FALLS","Latitude":"44.92770","Longitude":"-91.40810","Snowdepth":"8.000","Units":"in","Rept_Date":"2020-02-01 14"},"coordinates":[1312,5898]},{"type":"Point","properties":{"Station_ID":"CHES2","Station_Nam":"CHESTER 2N","Latitude":"43.92830","Longitude":"-96.93160","Snowdepth":"8.000","Units":"in","Rept_Date":"2020-02-01 13"},"coordinates":[69,5295]},{"type":"Point","properties":{"Station_ID":"BRLW3","Station_Nam":"BRILLION,WI","Latitude":"44.18330","Longitude":"-88.06670","Snowdepth":"8.000","Units":"in","Rept_Date":"2020-02-01 12"},"coordinates":[2064,5449]},{"type":"Point","properties":{"Station_ID":"BLLI4","Station_Nam":"BELLE PLAINE","Latitude":"41.88140","Longitude":"-92.27640","Snowdepth":"8.000","Units":"in","Rept_Date":"2020-02-01 15"},"coordinates":[1116,4061]},{"type":"Point","properties":{"Station_ID":"ALXI4","Station_Nam":"WATERLOO SNOW","Latitude":"42.53130","Longitude":"-92.37550","Snowdepth":"8.000","Units":"in","Rept_Date":"2020-02-02 06"},"coordinates":[1094,4453]},{"type":"Point","properties":{"Station_ID":"ALO","Station_Nam":"WATERLOO MUNICIPAL AIRPORT","Latitude":"42.55690","Longitude":"-92.40000","Snowdepth":"8.000","Units":"in","Rept_Date":"2020-02-02 00"},"coordinates":[1089,4468]},{"type":"Point","properties":{"Station_ID":"ALLW3","Station_Nam":"ALLENTON","Latitude":"43.42360","Longitude":"-88.35110","Snowdepth":"8.000","Units":"in","Rept_Date":"2020-02-01 13"},"coordinates":[2000,4991]},{"type":"Point","properties":{"Station_ID":"WI-GN-5","Station_Nam":"MONTICELLO 2.2 SE, WI","Latitude":"42.71990","Longitude":"-89.56360","Snowdepth":"7.500","Units":"in","Rept_Date":"2020-02-01 13"},"coordinates":[1727,4567]},{"type":"Point","properties":{"Station_ID":"VT-WS-33","Station_Nam":"WAITSFIELD 3.5 WNW, VT","Latitude":"44.20052","Longitude":"-72.89421","Snowdepth":"7.500","Units":"in","Rept_Date":"2020-02-01 12"},"coordinates":[5477,5460]},{"type":"Point","properties":{"Station_ID":"VT-ES-3","Station_Nam":"LUNENBURG 2.3 NNW, VT","Latitude":"44.49324","Longitude":"-71.70446","Snowdepth":"7.500","Units":"in","Rept_Date":"2020-02-01 12"},"coordinates":[5745,5636]},{"type":"Point","properties":{"Station_ID":"NY-ER-166","Station_Nam":"BOSTON 2.5 NE, NY","Latitude":"42.65480","Longitude":"-78.70300","Snowdepth":"7.500","Units":"in","Rept_Date":"2020-02-01 12"},"coordinates":[4170,4527]},{"type":"Point","properties":{"Station_ID":"MN-WG-74","Station_Nam":"OAKDALE 0.4 S, MN","Latitude":"44.98208","Longitude":"-92.96510","Snowdepth":"7.500","Units":"in","Rept_Date":"2020-02-01 13"},"coordinates":[962,5931]},{"type":"Point","properties":{"Station_ID":"MI-BZ-1","Station_Nam":"BENZONIA 5.3 S, MI","Latitude":"44.53976","Longitude":"-86.10650","Snowdepth":"7.500","Units":"in","Rept_Date":"2020-02-01 14"},"coordinates":[2505,5664]},{"type":"Point","properties":{"Station_ID":"ME-CM-3","Station_Nam":"NEW GLOUCESTER 3.0 SE, ME","Latitude":"43.92372","Longitude":"-70.25790","Snowdepth":"7.500","Units":"in","Rept_Date":"2020-02-01 12"},"coordinates":[6070,5293]},{"type":"Point","properties":{"Station_ID":"ME-CM-125","Station_Nam":"CUMBERLAND CENTER 4.4 NW, ME","Latitude":"43.84640","Longitude":"-70.31340","Snowdepth":"7.500","Units":"in","Rept_Date":"2020-02-01 12"},"coordinates":[6058,5246]},{"type":"Point","properties":{"Station_ID":"CAN-ON-42","Station_Nam":"VANKLEEK HILL 3.4 S, CA","Latitude":"45.48987","Longitude":"-74.64570","Snowdepth":"7.500","Units":"in","Rept_Date":"2020-02-01 12"},"coordinates":[5083,6237]},{"type":"Point","properties":{"Station_ID":"WI-WS-4","Station_Nam":"KEWASKUM 1.8 WNW, WI","Latitude":"43.52880","Longitude":"-88.26570","Snowdepth":"7.000","Units":"in","Rept_Date":"2020-02-01 13"},"coordinates":[2019,5055]},{"type":"Point","properties":{"Station_ID":"WI-WN-15","Station_Nam":"OSHKOSH 2.0 W, WI","Latitude":"44.01962","Longitude":"-88.59359","Snowdepth":"7.000","Units":"in","Rept_Date":"2020-02-01 13"},"coordinates":[1945,5351]},{"type":"Point","properties":{"Station_ID":"WI-DA-46","Station_Nam":"MADISON 6.4 W, WI","Latitude":"43.08337","Longitude":"-89.51503","Snowdepth":"7.000","Units":"in","Rept_Date":"2020-02-01 13"},"coordinates":[1738,4786]},{"type":"Point","properties":{"Station_ID":"WI-DA-35","Station_Nam":"MADISON 5.5 N, WI","Latitude":"43.15858","Longitude":"-89.37280","Snowdepth":"7.000","Units":"in","Rept_Date":"2020-02-01 14"},"coordinates":[1770,4831]},{"type":"Point","properties":{"Station_ID":"VT-WS-19","Station_Nam":"WATERBURY 3.0 NW, VT","Latitude":"44.36060","Longitude":"-72.80770","Snowdepth":"7.000","Units":"in","Rept_Date":"2020-02-01 11"},"coordinates":[5497,5556]},{"type":"Point","properties":{"Station_ID":"VT-LM-7","Station_Nam":"HYDE PARK 2.9 NE, VT","Latitude":"44.62080","Longitude":"-72.57250","Snowdepth":"7.000","Units":"in","Rept_Date":"2020-02-01 13"},"coordinates":[5550,5713]},{"type":"Point","properties":{"Station_ID":"VT-CL-23","Station_Nam":"RYEGATE 1.5 N, VT","Latitude":"44.23024","Longitude":"-72.10523","Snowdepth":"7.000","Units":"in","Rept_Date":"2020-02-01 12"},"coordinates":[5655,5478]},{"type":"Point","properties":{"Station_ID":"VT-BN-3","Station_Nam":"LANDGROVE 1.1 NNE, VT","Latitude":"43.29092","Longitude":"-72.83260","Snowdepth":"7.000","Units":"in","Rept_Date":"2020-02-01 12"},"coordinates":[5491,4911]},{"type":"Point","properties":{"Station_ID":"VNTI4","Station_Nam":"VINTON","Latitude":"42.17020","Longitude":"-92.00770","Snowdepth":"7.000","Units":"in","Rept_Date":"2020-02-01 13"},"coordinates":[1177,4235]},{"type":"Point","properties":{"Station_ID":"VADM5","Station_Nam":"VADNAIS LAKE","Latitude":"45.04820","Longitude":"-93.09590","Snowdepth":"7.000","Units":"in","Rept_Date":"2020-02-01 20"},"coordinates":[932,5971]},{"type":"Point","properties":{"Station_ID":"SSSS2","Station_Nam":"MILBANK-36MI.NW","Latitude":"45.66670","Longitude":"-97.00000","Snowdepth":"7.000","Units":"in","Rept_Date":"2020-02-02 04"},"coordinates":[54,6344]},{"type":"Point","properties":{"Station_ID":"SPRI4","Station_Nam":"SPIRIT LAKE","Latitude":"43.42310","Longitude":"-95.10000","Snowdepth":"7.000","Units":"in","Rept_Date":"2020-02-01 13"},"coordinates":[481,4991]},{"type":"Point","properties":{"Station_ID":"RWGM5","Station_Nam":"RED WING","Latitude":"44.57120","Longitude":"-92.52830","Snowdepth":"7.000","Units":"in","Rept_Date":"2020-02-01 14"},"coordinates":[1060,5683]},{"type":"Point","properties":{"Station_ID":"RVFW3","Station_Nam":"RIVER FALLS","Latitude":"44.85440","Longitude":"-92.61220","Snowdepth":"7.000","Units":"in","Rept_Date":"2020-02-01 11"},"coordinates":[1041,5854]},{"type":"Point","properties":{"Station_ID":"RST","Station_Nam":"ROCHESTER INTERNATIONAL ARPT","Latitude":"43.90890","Longitude":"-92.49780","Snowdepth":"7.000","Units":"in","Rept_Date":"2020-02-02 00"},"coordinates":[1067,5284]},{"type":"Point","properties":{"Station_ID":"RSRM5","Station_Nam":"ROCHESTER AP 2NE","Latitude":"43.92810","Longitude":"-92.47580","Snowdepth":"7.000","Units":"in","Rept_Date":"2020-02-01 12"},"coordinates":[1072,5295]},