{"type":"Topology","objects":{"snowdepth_geo":{"type":"GeometryCollection","name":"snowdepth","crs":{"type":"name","properties":{"name":"urn:ogc:def:crs:OGC:1.3:CRS84"}},"geometries":[{"type":"Point","properties":{"Station_ID":"PRKM4","Station_Nam":"MUNISING EAST","Latitude":"46.42580","Longitude":"-86.62000","Snowdepth":"76.500","Units":"in","Rept_Date":"2020-04-07 06"},"coordinates":[2492,6701]},{"type":"Point","properties":{"Station_ID":"OGIQ6","Station_Nam":"OGOKI CAMP","Latitude":"50.76680","Longitude":"-87.85820","Snowdepth":"61.100","Units":"in","Rept_Date":"2020-04-07 06"},"coordinates":[2202,9402]},{"type":"Point","properties":{"Station_ID":"DVLQ6","Station_Nam":"DEVIOUS LAKE","Latitude":"49.19890","Longitude":"-87.76440","Snowdepth":"43.460","Units":"in","Rept_Date":"2020-04-07 06"},"coordinates":[2224,8426]},{"type":"Point","properties":{"Station_ID":"CAN-NS-39","Station_Nam":"ST. ANNS 2.8 NW, CA","Latitude":"46.25082","Longitude":"-60.64340","Snowdepth":"32.000","Units":"in","Rept_Date":"2020-04-06 12"},"coordinates":[8589,6592]},{"type":"Point","properties":{"Station_ID":"PDLM4","Station_Nam":"PAINESDALE","Latitude":"47.04160","Longitude":"-88.67170","Snowdepth":"31.000","Units":"in","Rept_Date":"2020-04-06 12"},"coordinates":[2011,7084]},{"type":"Point","properties":{"Station_ID":"CAN-NL-82","Station_Nam":"GANDER 2.7 NW, CAN","Latitude":"48.97737","Longitude":"-54.63396","Snowdepth":"27.200","Units":"in","Rept_Date":"2020-04-06 10"},"coordinates":[9999,8288]},{"type":"Point","properties":{"Station_ID":"WLFM5","Station_Nam":"WOLF RIDGE ENVIRON LEARNING CENTER","Latitude":"47.38240","Longitude":"-91.19730","Snowdepth":"24.000","Units":"in","Rept_Date":"2020-04-06 12"},"coordinates":[1418,7296]},{"type":"Point","properties":{"Station_ID":"MNSM4","Station_Nam":"MUNISING","Latitude":"46.41210","Longitude":"-86.66250","Snowdepth":"24.000","Units":"in","Rept_Date":"2020-04-06 10"},"coordinates":[2482,6692]},{"type":"Point","properties":{"Station_ID":"CAN-NB-13","Station_Nam":"BATHURST 3.8 NW, CAN","Latitude":"47.64212","Longitude":"-65.68756","Snowdepth":"22.500","Units":"in","Rept_Date":"2020-04-06 09"},"coordinates":[7405,7458]},{"type":"Point","properties":{"Station_ID":"CAN-ON-224","Station_Nam":"NAKINA 3.8 N - MNRF, CAN","Latitude":"50.21269","Longitude":"-86.70099","Snowdepth":"22.400","Units":"in","Rept_Date":"2020-04-06 18"},"coordinates":[2473,9057]},{"type":"Point","properties":{"Station_ID":"KSGM4","Station_Nam":"KEARSARGE","Latitude":"47.27520","Longitude":"-88.41700","Snowdepth":"19.000","Units":"in","Rept_Date":"2020-04-06 12"},"coordinates":[2070,7229]},{"type":"Point","properties":{"Station_ID":"ME-AR-18","Station_Nam":"NEW SWEDEN 4.9 NNW, ME","Latitude":"47.01080","Longitude":"-68.14390","Snowdepth":"18.500","Units":"in","Rept_Date":"2020-04-06 12"},"coordinates":[6828,7065]},{"type":"Point","properties":{"Station_ID":"QNCM4","Station_Nam":"QUINCY HILL","Latitude":"47.13640","Longitude":"-88.57950","Snowdepth":"18.000","Units":"in","Rept_Date":"2020-04-06 11"},"coordinates":[2032,7143]},{"type":"Point","properties":{"Station_ID":"IBLM5","Station_Nam":"ISABELLA 14W","Latitude":"47.59360","Longitude":"-91.65140","Snowdepth":"18.000","Units":"in","Rept_Date":"2020-04-06 14"},"coordinates":[1311,7428]},{"type":"Point","properties":{"Station_ID":"HERM4","Station_Nam":"HERMAN,MI","Latitude":"46.65000","Longitude":"-88.33330","Snowdepth":"18.000","Units":"in","Rept_Date":"2020-04-06 12"},"coordinates":[2090,6840]},{"type":"Point","properties":{"Station_ID":"MI-BG-3","Station_Nam":"L'ANSE 17.8 SE, MI","Latitude":"46.55730","Longitude":"-88.20770","Snowdepth":"17.500","Units":"in","Rept_Date":"2020-04-06 13"},"coordinates":[2119,6783]},{"type":"Point","properties":{"Station_ID":"CAN-NB-11","Station_Nam":"MIRAMICHI 3.3 S, CAN","Latitude":"46.99343","Longitude":"-65.50690","Snowdepth":"17.500","Units":"in","Rept_Date":"2020-04-06 12"},"coordinates":[7447,7054]},{"type":"Point","properties":{"Station_ID":"CAN-QC-47","Station_Nam":"SAINTE-FOY 1.8 ENE, CAN","Latitude":"46.76934","Longitude":"-71.27124","Snowdepth":"17.300","Units":"in","Rept_Date":"2020-04-06 12"},"coordinates":[6094,6915]},{"type":"Point","properties":{"Station_ID":"PTLQ6","Station_Nam":"PORTAGE LAKE","Latitude":"49.06950","Longitude":"-86.65940","Snowdepth":"17.240","Units":"in","Rept_Date":"2020-04-07 06"},"coordinates":[2483,8346]},{"type":"Point","properties":{"Station_ID":"MQT","Station_Nam":"MARQUETTE, MI","Latitude":"46.53140","Longitude":"-87.54920","Snowdepth":"17.000","Units":"in","Rept_Date":"2020-04-07 06"},"coordinates":[2274,6767]},{"type":"Point","properties":{"Station_ID":"TRIQ6","Station_Nam":"TRIO LAKE","Latitude":"49.22880","Longitude":"-87.22920","Snowdepth":"16.650","Units":"in","Rept_Date":"2020-04-07 06"},"coordinates":[2349,8445]},{"type":"Point","properties":{"Station_ID":"NH-CS-10","Station_Nam":"RANDOLPH 1.4 NE, NH","Latitude":"44.38824","Longitude":"-71.26950","Snowdepth":"16.000","Units":"in","Rept_Date":"2020-04-06 12"},"coordinates":[6095,5433]},{"type":"Point","properties":{"Station_ID":"FISM1","Station_Nam":"FORT KENT COOP","Latitude":"47.23850","Longitude":"-68.61240","Snowdepth":"16.000","Units":"in","Rept_Date":"2020-04-06 10"},"coordinates":[6718,7207]},{"type":"Point","properties":{"Station_ID":"CAN-ON-335","Station_Nam":"NAKINA 1.6 NW - MNRF, CAN","Latitude":"50.18910","Longitude":"-86.72684","Snowdepth":"15.500","Units":"in","Rept_Date":"2020-04-06 13"},"coordinates":[2467,9042]},{"type":"Point","properties":{"Station_ID":"STEM4","Station_Nam":"STEUBEN","Latitude":"46.18530","Longitude":"-86.46410","Snowdepth":"15.000","Units":"in","Rept_Date":"2020-04-06 13"},"coordinates":[2529,6551]},{"type":"Point","properties":{"Station_ID":"CAN-NB-96","Station_Nam":"SAINT-IGNACE 2.6 NE, CAN","Latitude":"46.71424","Longitude":"-65.05609","Snowdepth":"13.800","Units":"in","Rept_Date":"2020-04-06 11"},"coordinates":[7553,6880]},{"type":"Point","properties":{"Station_ID":"SVBQ6","Station_Nam":"SAVANT BASE","Latitude":"50.28730","Longitude":"-90.65670","Snowdepth":"13.540","Units":"in","Rept_Date":"2020-04-07 06"},"coordinates":[1545,9103]},{"type":"Point","properties":{"Station_ID":"RGNM1","Station_Nam":"RANGELEY 2NW","Latitude":"44.98940","Longitude":"-70.67220","Snowdepth":"12.000","Units":"in","Rept_Date":"2020-04-06 10"},"coordinates":[6235,5807]},{"type":"Point","properties":{"Station_ID":"AUDQ6","Station_Nam":"AUDEN","Latitude":"48.52600","Longitude":"-82.57570","Snowdepth":"11.540","Units":"in","Rept_Date":"2020-04-07 06"},"coordinates":[3441,8008]},{"type":"Point","properties":{"Station_ID":"MWN","Station_Nam":"MOUNT WASHINGTON","Latitude":"44.26670","Longitude":"-71.30000","Snowdepth":"11.000","Units":"in","Rept_Date":"2020-04-07 04"},"coordinates":[6088,5358]},{"type":"Point","properties":{"Station_ID":"MI-HG-6","Station_Nam":"CALUMET 5.8 ENE, MI","Latitude":"47.27200","Longitude":"-88.33400","Snowdepth":"11.000","Units":"in","Rept_Date":"2020-04-06 11"},"coordinates":[2090,7227]},{"type":"Point","properties":{"Station_ID":"MI-HG-1","Station_Nam":"HOUGHTON 1.6 ESE, MI","Latitude":"47.10774","Longitude":"-88.52940","Snowdepth":"11.000","Units":"in","Rept_Date":"2020-04-06 14"},"coordinates":[2044,7125]},{"type":"Point","properties":{"Station_ID":"KMWN","Station_Nam":"MOUNT WASHINGTON","Latitude":"44.26666","Longitude":"-71.30000","Snowdepth":"11.000","Units":"in","Rept_Date":"2020-04-07 06"},"coordinates":[6088,5358]},{"type":"Point","properties":{"Station_ID":"WRPW3","Station_Nam":"WATER PURIFICATION PLANT","Latitude":"44.38800","Longitude":"-89.80550","Snowdepth":"10.000","Units":"in","Rept_Date":"2020-04-06 11"},"coordinates":[1744,5433]},{"type":"Point","properties":{"Station_ID":"PRDM4","Station_Nam":"PARADISE","Latitude":"46.60380","Longitude":"-85.03960","Snowdepth":"10.000","Units":"in","Rept_Date":"2020-04-06 11"},"coordinates":[2863,6812]},{"type":"Point","properties":{"Station_ID":"MN-CK-18","Station_Nam":"GRAND MARAIS 4.4 WSW, MN","Latitude":"47.74462","Longitude":"-90.43796","Snowdepth":"10.000","Units":"in","Rept_Date":"2020-04-06 13"},"coordinates":[1596,7521]},{"type":"Point","properties":{"Station_ID":"GHMN3","Station_Nam":"PINKHAM NOTCH","Latitude":"44.25800","Longitude":"-71.25250","Snowdepth":"10.000","Units":"in","Rept_Date":"2020-04-06 10"},"coordinates":[6099,5352]},{"type":"Point","properties":{"Station_ID":"CAN-NS-60","Station_Nam":"SYDNEY FORKS, CAN","Latitude":"46.05645","Longitude":"-60.31510","Snowdepth":"10.000","Units":"in","Rept_Date":"2020-04-06 12"},"coordinates":[8666,6471]},{"type":"Point","properties":{"Station_ID":"CAN-NB-105","Station_Nam":"SISSON BROOK 3.8 E, CAN","Latitude":"46.98305","Longitude":"-67.32532","Snowdepth":"9.800","Units":"in","Rept_Date":"2020-04-06 12"},"coordinates":[7020,7048]},{"type":"Point","properties":{"Station_ID":"WI-VL-9","Station_Nam":"LAND O' LAKES 11.7 W, WI","Latitude":"46.19023","Longitude":"-89.45790","Snowdepth":"9.000","Units":"in","Rept_Date":"2020-04-06 13"},"coordinates":[1826,6554]},{"type":"Point","properties":{"Station_ID":"VT-CL-3","Station_Nam":"GROTON 4.4 WSW, VT","Latitude":"44.19440","Longitude":"-72.28240","Snowdepth":"9.000","Units":"in","Rept_Date":"2020-04-06 11"},"coordinates":[5857,5313]},{"type":"Point","properties":{"Station_ID":"VANM1","Station_Nam":"VAN BUREN","Latitude":"47.16600","Longitude":"-67.93900","Snowdepth":"9.000","Units":"in","Rept_Date":"2020-04-06 11"},"coordinates":[6876,7161]},{"type":"Point","properties":{"Station_ID":"MI-GG-4","Station_Nam":"WATERSMEET 5.0 SE, MI","Latitude":"46.20333","Longitude":"-89.13170","Snowdepth":"9.000","Units":"in","Rept_Date":"2020-04-06 14"},"coordinates":[1903,6563]},{"type":"Point","properties":{"Station_ID":"ME-AR-15","Station_Nam":"PRESQUE ISLE 1.3 WSW, ME","Latitude":"46.67960","Longitude":"-68.01270","Snowdepth":"9.000","Units":"in","Rept_Date":"2020-04-06 12"},"coordinates":[6859,6859]},{"type":"Point","properties":{"Station_ID":"LNOW3","Station_Nam":"LAND O LAKES","Latitude":"46.19000","Longitude":"-89.45700","Snowdepth":"9.000","Units":"in","Rept_Date":"2020-04-06 12"},"coordinates":[1826,6554]},{"type":"Point","properties":{"Station_ID":"KISM4","Station_Nam":"K.I. SAWYER WWTP","Latitude":"46.33410","Longitude":"-87.37790","Snowdepth":"9.000","Units":"in","Rept_Date":"2020-04-06 12"},"coordinates":[2314,6644]},{"type":"Point","properties":{"Station_ID":"CARM1","Station_Nam":"CARIBOU WFO","Latitude":"46.86810","Longitude":"-68.01250","Snowdepth":"9.000","Units":"in","Rept_Date":"2020-04-07 04"},"coordinates":[6859,6976]},{"type":"Point","properties":{"Station_ID":"WI-IR-3","Station_Nam":"PENCE 0.1 E, WI","Latitude":"46.41555","Longitude":"-90.27013","Snowdepth":"8.000","Units":"in","Rept_Date":"2020-04-06 13"},"coordinates":[1635,6695]},{"type":"Point","properties":{"Station_ID":"CAN-NS-103","Station_Nam":"TRAFALGAR 4.9 WSW, CAN","Latitude":"45.26217","Longitude":"-62.72285","Snowdepth":"8.000","Units":"in","Rept_Date":"2020-04-06 11"},"coordinates":[8101,5977]},{"type":"Point","properties":{"Station_ID":"WI-VL-10","Station_Nam":"LAND O LAKES 4.3 WNW, WI","Latitude":"46.17440","Longitude":"-89.30380","Snowdepth":"7.000","Units":"in","Rept_Date":"2020-04-06 13"},"coordinates":[1862,6545]},{"type":"Point","properties":{"Station_ID":"MN-IT-10","Station_Nam":"DEER RIVER 3.7 W, MN","Latitude":"47.33564","Longitude":"-93.87514","Snowdepth":"7.000","Units":"in","Rept_Date":"2020-04-06 14"},"coordinates":[789,7267]},{"type":"Point","properties":{"Station_ID":"MI-MQ-19","Station_Nam":"ISHPEMING 7.2 SW, MI","Latitude":"46.40550","Longitude":"-87.75670","Snowdepth":"7.000","Units":"in","Rept_Date":"2020-04-06 11"},"coordinates":[2225,6688]},{"type":"Point","properties":{"Station_ID":"LVDW3","Station_Nam":"LAC VIEUX DESERT","Latitude":"46.12110","Longitude":"-89.07580","Snowdepth":"7.000","Units":"in","Rept_Date":"2020-04-06 14"},"coordinates":[1916,6511]},{"type":"Point","properties":{"Station_ID":"LBRM5","Station_Nam":"LAKE BRONSON DAM","Latitude":"48.72410","Longitude":"-96.62180","Snowdepth":"7.000","Units":"in","Rept_Date":"2020-04-06 13"},"coordinates":[145,8131]},{"type":"Point","properties":{"Station_ID":"CAN-MB-32","Station_Nam":"PINAWA 1.0 SW, CA","Latitude":"50.14747","Longitude":"-95.89020","Snowdepth":"7.000","Units":"in","Rept_Date":"2020-04-06 13"},"coordinates":[316,9016]},{"type":"Point","properties":{"Station_ID":"BNDM5","Station_Nam":"ELY 25E","Latitude":"47.97190","Longitude":"-91.44860","Snowdepth":"7.000","Units":"in","Rept_Date":"2020-04-06 12"},"coordinates":[1359,7663]},{"type":"Point","properties":{"Station_ID":"KABQ6","Station_Nam":"CAB LAKE","Latitude":"49.59950","Longitude":"-89.17990","Snowdepth":"6.570","Units":"in","Rept_Date":"2020-04-07 06"},"coordinates":[1891,8675]},{"type":"Point","properties":{"Station_ID":"RANM1","Station_Nam":"RANGELEY","Latitude":"44.98910","Longitude":"-70.67190","Snowdepth":"6.000","Units":"in","Rept_Date":"2020-04-06 10"},"coordinates":[6235,5807]},{"type":"Point","properties":{"Station_ID":"NOHM5","Station_Nam":"NORTHOME","Latitude":"47.83590","Longitude":"-94.25550","Snowdepth":"6.000","Units":"in","Rept_Date":"2020-04-06 12"},"coordinates":[700,7578]},{"type":"Point","properties":{"Station_ID":"MN-CK-6","Station_Nam":"GRAND MARAIS 4.4 W, MN","Latitude":"47.74865","Longitude":"-90.43760","Snowdepth":"6.000","Units":"in","Rept_Date":"2020-04-06 13"},"coordinates":[1596,7524]},{"type":"Point","properties":{"Station_ID":"DFXM1","Station_Nam":"DOVER-FOXCROFT","Latitude":"45.18720","Longitude":"-69.18350","Snowdepth":"6.000","Units":"in","Rept_Date":"2020-04-06 11"},"coordinates":[6584,5930]},{"type":"Point","properties":{"Station_ID":"SOCQ6","Station_Nam":"SOCKET LAKE","Latitude":"50.77870","Longitude":"-91.79300","Snowdepth":"5.790","Units":"in","Rept_Date":"2020-04-07 06"},"coordinates":[1278,9409]},{"type":"Point","properties":{"Station_ID":"SUAW3","Station_Nam":"SUAMICO","Latitude":"44.60190","Longitude":"-88.09780","Snowdepth":"5.000","Units":"in","Rept_Date":"2020-04-06 11"},"coordinates":[2145,5566]},{"type":"Point","properties":{"Station_ID":"MN7M8EBJ","Station_Nam":"LUTSEN 15.7 NNW","Latitude":"47.85324","Longitude":"-89.92908","Snowdepth":"5.000","Units":"in","Rept_Date":"2020-04-06 13"},"coordinates":[1715,7589]},{"type":"Point","properties":{"Station_ID":"KGFK","Station_Nam":"GRAND FORKS INTERNATIONAL","Latitude":"47.95000","Longitude":"-97.18333","Snowdepth":"5.000","Units":"in","Rept_Date":"2020-04-06 18"},"coordinates":[13,7649]},{"type":"Point","properties":{"Station_ID":"GFK","Station_Nam":"GRAND FORKS INTERNATIONAL AIRPORT","Latitude":"47.94920","Longitude":"-97.17610","Snowdepth":"5.000","Units":"in","Rept_Date":"2020-04-07 00"},"coordinates":[15,7649]},{"type":"Point","properties":{"Station_ID":"COKM5","Station_Nam":"COOK","Latitude":"47.85060","Longitude":"-92.69250","Snowdepth":"5.000","Units":"in","Rept_Date":"2020-04-06 11"},"coordinates":[1067,7587]},{"type":"Point","properties":{"Station_ID":"CAN-PE-3","Station_Nam":"WELLINGTON 1.6 NE, CA","Latitude":"46.46672","Longitude":"-63.98920","Snowdepth":"5.000","Units":"in","Rept_Date":"2020-04-06 11"},"coordinates":[7803,6726]},{"type":"Point","properties":{"Station_ID":"CAN-ON-220","Station_Nam":"DEEP RIVER 1.5 SE - MNRF, CAN","Latitude":"46.09592","Longitude":"-77.47853","Snowdepth":"4.700","Units":"in","Rept_Date":"2020-04-06 12"},"coordinates":[4638,6496]},{"type":"Point","properties":{"Station_ID":"CAN-PE-7","Station_Nam":"MORELL 1.4 NNW, CA","Latitude":"46.42741","Longitude":"-62.70870","Snowdepth":"4.200","Units":"in","Rept_Date":"2020-04-06 12"},"coordinates":[8104,6702]},{"type":"Point","properties":{"Station_ID":"WI-VL-14","Station_Nam":"BOULDER JUNCTION 1.4 NE, WI","Latitude":"46.12840","Longitude":"-89.62470","Snowdepth":"4.000","Units":"in","Rept_Date":"2020-04-06 13"},"coordinates":[1787,6516]},{"type":"Point","properties":{"Station_ID":"WI-ON-8","Station_Nam":"HAZELHURST 2.1 SSE, WI","Latitude":"45.78186","Longitude":"-89.70330","Snowdepth":"4.000","Units":"in","Rept_Date":"2020-04-06 13"},"coordinates":[1768,6300]},{"type":"Point","properties":{"Station_ID":"STGW3","Station_Nam":"ST GERMAIN","Latitude":"45.91550","Longitude":"-89.48940","Snowdepth":"4.000","Units":"in","Rept_Date":"2020-04-06 11"},"coordinates":[1819,6383]},{"type":"Point","properties":{"Station_ID":"PBAN8","Station_Nam":"SITE 1-3MI.N","Latitude":"48.97420","Longitude":"-97.23860","Snowdepth":"4.000","Units":"in","Rept_Date":"2020-04-06 12"},"coordinates":[0,8286]},{"type":"Point","properties":{"Station_ID":"NH-CR-15","Station_Nam":"JACKSON 3.7 NW, NH","Latitude":"44.19069","Longitude":"-71.22598","Snowdepth":"4.000","Units":"in","Rept_Date":"2020-04-06 12"},"coordinates":[6105,5310]},{"type":"Point","properties":{"Station_ID":"MN-SL-15","Station_Nam":"CHISHOLM 0.4 WSW, MN","Latitude":"47.48557","Longitude":"-92.88690","Snowdepth":"4.000","Units":"in","Rept_Date":"2020-04-06 13"},"coordinates":[1021,7360]},{"type":"Point","properties":{"Station_ID":"MN-IT-23","Station_Nam":"BOVEY 13.4 N, MN","Latitude":"47.48855","Longitude":"-93.43497","Snowdepth":"4.000","Units":"in","Rept_Date":"2020-04-06 13"},"coordinates":[893,7362]},{"type":"Point","properties":{"Station_ID":"KINM1","Station_Nam":"KINGFIELD","Latitude":"44.95950","Longitude":"-70.17530","Snowdepth":"4.000","Units":"in","Rept_Date":"2020-04-06 10"},"coordinates":[6352,5789]},{"type":"Point","properties":{"Station_ID":"GRFN8","Station_Nam":"UNIVERSITY","Latitude":"47.93330","Longitude":"-97.08330","Snowdepth":"4.000","Units":"in","Rept_Date":"2020-04-07 05"},"coordinates":[36,7639]},{"type":"Point","properties":{"Station_ID":"GRBM5","Station_Nam":"GRAND RAPIDS 12N","Latitude":"47.39800","Longitude":"-93.51330","Snowdepth":"4.000","Units":"in","Rept_Date":"2020-04-06 11"},"coordinates":[874,7306]},{"type":"Point","properties":{"Station_ID":"CSLM5","Station_Nam":"CASS LAKE,MN","Latitude":"47.38470","Longitude":"-94.61470","Snowdepth":"4.000","Units":"in","Rept_Date":"2020-04-06 13"},"coordinates":[616,7298]},{"type":"Point","properties":{"Station_ID":"CLKM4","Station_Nam":"CLARKSBURG","Latitude":"46.49910","Longitude":"-87.84500","Snowdepth":"4.000","Units":"in","Rept_Date":"2020-04-06 11"},"coordinates":[2205,6747]},{"type":"Point","properties":{"Station_ID":"WI-BY-14","Station_Nam":"ASHLAND 9.8 W, WI","Latitude":"46.59742","Longitude":"-91.07856","Snowdepth":"3.500","Units":"in","Rept_Date":"2020-04-06 12"},"coordinates":[1446,6808]},{"type":"Point","properties":{"Station_ID":"ME-FR-22","Station_Nam":"FARMINGTON 4.8 NNW, ME","Latitude":"44.73396","Longitude":"-70.18007","Snowdepth":"3.500","Units":"in","Rept_Date":"2020-04-06 14"},"coordinates":[6350,5648]},{"type":"Point","properties":{"Station_ID":"CAN-NB-97","Station_Nam":"NEW MARYLAND 0.6 NW, CAN","Latitude":"45.90112","Longitude":"-66.68739","Snowdepth":"3.500","Units":"in","Rept_Date":"2020-04-06 11"},"coordinates":[7170,6375]},{"type":"Point","properties":{"Station_ID":"CAN-MB-298","Station_Nam":"GARDENTON 4.2 W - SRRCD, CAN","Latitude":"49.09480","Longitude":"-96.75446","Snowdepth":"3.500","Units":"in","Rept_Date":"2020-04-06 13"},"coordinates":[114,8361]},{"type":"Point","properties":{"Station_ID":"CAN-MB-368","Station_Nam":"WHITESHELL 1.3 NE, CAN","Latitude":"49.74405","Longitude":"-95.19123","Snowdepth":"3.300","Units":"in","Rept_Date":"2020-04-06 14"},"coordinates":[481,8765]},{"type":"Point","properties":{"Station_ID":"VT-BN-12","Station_Nam":"STAMFORD 5.0 NNE, VT","Latitude":"42.82000","Longitude":"-73.02000","Snowdepth":"3.000","Units":"in","Rept_Date":"2020-04-06 21"},"coordinates":[5684,4458]},{"type":"Point","properties":{"Station_ID":"SSMM4","Station_Nam":"SAULT STE MARIE","Latitude":"46.48660","Longitude":"-84.40250","Snowdepth":"3.000","Units":"in","Rept_Date":"2020-04-06 12"},"coordinates":[3013,6739]},{"type":"Point","properties":{"Station_ID":"SBNM5","Station_Nam":"SABIN","Latitude":"46.77690","Longitude":"-96.65610","Snowdepth":"3.000","Units":"in","Rept_Date":"2020-04-06 13"},"coordinates":[137,6919]},{"type":"Point","properties":{"Station_ID":"MCLN8","Station_Nam":"MC LEOD,ND","Latitude":"46.40250","Longitude":"-97.23810","Snowdepth":"3.000","Units":"in","Rept_Date":"2020-04-06 12"},"coordinates":[0,6686]},{"type":"Point","properties":{"Station_ID":"LILM1","Station_Nam":"LILLE","Latitude":"47.27770","Longitude":"-68.10520","Snowdepth":"3.000","Units":"in","Rept_Date":"2020-04-06 11"},"coordinates":[6837,7231]},{"type":"Point","properties":{"Station_ID":"LEIM5","Station_Nam":"ORR 3E","Latitude":"48.05810","Longitude":"-92.75220","Snowdepth":"3.000","Units":"in","Rept_Date":"2020-04-06 11"},"coordinates":[1053,7716]},{"type":"Point","properties":{"Station_ID":"IWOM4","Station_Nam":"IRONWOOD#2","Latitude":"46.46520","Longitude":"-90.13820","Snowdepth":"3.000","Units":"in","Rept_Date":"2020-04-06 12"},"coordinates":[1666,6725]},{"type":"Point","properties":{"Station_ID":"INL","Station_Nam":"FALLS INTERNATIONAL ARPT","Latitude":"48.56640","Longitude":"-93.40310","Snowdepth":"3.000","Units":"in","Rept_Date":"2020-04-07 00"},"coordinates":[900,8033]},{"type":"Point","properties":{"Station_ID":"DLHM5","Station_Nam":"DULUTH NWS","Latitude":"46.83680","Longitude":"-92.21080","Snowdepth":"3.000","Units":"in","Rept_Date":"2020-04-07 00"},"coordinates":[1180,6957]},{"type":"Point","properties":{"Station_ID":"DLH","Station_Nam":"DULUTH, MN","Latitude":"46.83690","Longitude":"-92.21030","Snowdepth":"3.000","Units":"in","Rept_Date":"2020-04-07 00"},"coordinates":[1180,6957]},{"type":"Point","properties":{"Station_ID":"CRVW3","Station_Nam":"CRIVITZ HIGH FALLS","Latitude":"45.35750","Longitude":"-88.19190","Snowdepth":"3.000","Units":"in","Rept_Date":"2020-04-06 12"},"coordinates":[2123,6036]},{"type":"Point","properties":{"Station_ID":"BRDM1","Station_Nam":"BRIDGEWATER","Latitude":"46.42870","Longitude":"-67.84370","Snowdepth":"3.000","Units":"in","Rept_Date":"2020-04-06 22"},"coordinates":[6899,6703]},{"type":"Point","properties":{"Station_ID":"BABM5","Station_Nam":"BABBITT","Latitude":"47.71210","Longitude":"-91.95330","Snowdepth":"3.000","Units":"in","Rept_Date":"2020-04-06 12"},"coordinates":[1240,7501]},{"type":"Point","properties":{"Station_ID":"ANJM4","Station_Nam":"SNOW PAID OBSERVER FOR KANJ","Latitude":"46.48670","Longitude":"-84.40260","Snowdepth":"3.000","Units":"in","Rept_Date":"2020-04-06 18"},"coordinates":[3013,6739]},{"type":"Point","properties":{"Station_ID":"ANJ","Station_Nam":"SAULT STE MARIE","Latitude":"46.46670","Longitude":"-84.36670","Snowdepth":"3.000","Units":"in","Rept_Date":"2020-04-07 00"},"coordinates":[3021,6726]},{"type":"Point","properties":{"Station_ID":"CAN-NS-163","Station_Nam":"SYDNEY MINES 2.2 WNW, CAN","Latitude":"46.24851","Longitude":"-60.25161","Snowdepth":"2.800","Units":"in","Rept_Date":"2020-04-06 12"},"coordinates":[8681,6591]},{"type":"Point","properties":{"Station_ID":"MN-PK-15","Station_Nam":"MENTOR 2.5 SSW, MN","Latitude":"47.66625","Longitude":"-96.17328","Snowdepth":"2.500","Units":"in","Rept_Date":"2020-04-06 13"},"coordinates":[250,7473]},{"type":"Point","properties":{"Station_ID":"RLWM5","Station_Nam":"CAMP NORRIS DNR","Latitude":"48.61000","Longitude":"-95.18170","Snowdepth":"2.000","Units":"in","Rept_Date":"2020-04-06 12"},"coordinates":[483,8060]},{"type":"Point","properties":{"Station_ID":"ND-CS-25","Station_Nam":"FARGO 2.1 N, ND","Latitude":"46.90816","Longitude":"-96.77937","Snowdepth":"2.000","Units":"in","Rept_Date":"2020-04-06 14"},"coordinates":[108,7001]},{"type":"Point","properties":{"Station_ID":"MNV905PW","Station_Nam":"ROOSEVELT 5.3 N","Latitude":"48.87933","Longitude":"-95.08224","Snowdepth":"2.000","Units":"in","Rept_Date":"2020-04-06 12"},"coordinates":[506,8227]},{"type":"Point","properties":{"Station_ID":"MN70GOES","Station_Nam":"EMBARRASS 0.6 SSE","Latitude":"47.65101","Longitude":"-92.19222","Snowdepth":"2.000","Units":"in","Rept_Date":"2020-04-06 10"},"coordinates":[1184,7463]},{"type":"Point","properties":{"Station_ID":"JKMM1","Station_Nam":"JACKMAN","Latitude":"45.62600","Longitude":"-70.24600","Snowdepth":"2.000","Units":"in","Rept_Date":"2020-04-06 11"},"coordinates":[6335,6203]},{"type":"Point","properties":{"Station_ID":"EMBM5","Station_Nam":"EMBARASS,MN","Latitude":"47.65810","Longitude":"-92.19580","Snowdepth":"2.000","Units":"in","Rept_Date":"2020-04-06 11"},"coordinates":[1184,7468]},{"type":"Point","properties":{"Station_ID":"ELYM5","Station_Nam":"ELY","Latitude":"47.90560","Longitude":"-91.82830","Snowdepth":"2.000","Units":"in","Rept_Date":"2020-04-06 13"},"coordinates":[1270,7622]},{"type":"Point","properties":{"Station_ID":"CAN-NB-2","Station_Nam":"GRAFTON 2.7 NNE, CA","Latitude":"46.17062","Longitude":"-67.55330","Snowdepth":"2.000","Units":"in","Rept_Date":"2020-04-06 10"},"coordinates":[6967,6542]},{"type":"Point","properties":{"Station_ID":"CATQ6","Station_Nam":"CAT LAKE","Latitude":"51.72690","Longitude":"-91.82210","Snowdepth":"1.970","Units":"in","Rept_Date":"2020-04-07 06"},"coordinates":[1271,9999]},{"type":"Point","properties":{"Station_ID":"WTNM4","Station_Nam":"WATTON 2WSW","Latitude":"46.52660","Longitude":"-88.64240","Snowdepth":"1.000","Units":"in","Rept_Date":"2020-04-06 12"},"coordinates":[2017,6764]},{"type":"Point","properties":{"Station_ID":"TOPM1","Station_Nam":"TOPSFIELD","Latitude":"45.43470","Longitude":"-67.72020","Snowdepth":"1.000","Units":"in","Rept_Date":"2020-04-06 11"},"coordinates":[6928,6084]},{"type":"Point","properties":{"Station_ID":"SUTV1","Station_Nam":"SUTTON","Latitude":"44.61220","Longitude":"-72.04810","Snowdepth":"1.000","Units":"in","Rept_Date":"2020-04-06 12"},"coordinates":[5912,5573]},{"type":"Point","properties":{"Station_ID":"NH-GR-49","Station_Nam":"PLYMOUTH 3.7 N, NH","Latitude":"43.79048","Longitude":"-71.68413","Snowdepth":"1.000","Units":"in","Rept_Date":"2020-04-06 12"},"coordinates":[5997,5061]},{"type":"Point","properties":{"Station_ID":"ND-CS-1","Station_Nam":"WEST FARGO 3.8 SSE, ND","Latitude":"46.82750","Longitude":"-96.85280","Snowdepth":"1.000","Units":"in","Rept_Date":"2020-04-06 13"},"coordinates":[91,6951]},{"type":"Point","properties":{"Station_ID":"MTLT1","Station_Nam":"GATLINBURG,TN","Latitude":"35.65500","Longitude":"-83.44110","Snowdepth":"1.000","Units":"in","Rept_Date":"2020-04-06 12"},"coordinates":[3238,0]},{"type":"Point","properties":{"Station_ID":"MN-SL-108","Station_Nam":"IRON JUNCTION 3.4 NNW, MN","Latitude":"47.46150","Longitude":"-92.63130","Snowdepth":"1.000","Units":"in","Rept_Date":"2020-04-06 14"},"coordinates":[1081,7345]},{"type":"Point","properties":{"Station_ID":"IFSM5","Station_Nam":"INTERNATIONAL FALLS SNOW","Latitude":"48.57780","Longitude":"-93.39640","Snowdepth":"1.000","Units":"in","Rept_Date":"2020-04-07 06"},"coordinates":[902,8040]},{"type":"Point","properties":{"Station_ID":"FDRN8","Station_Nam":"FARGO 3S","Latitude":"46.82930","Longitude":"-96.79620","Snowdepth":"1.000","Units":"in","Rept_Date":"2020-04-06 22"},"coordinates":[104,6952]},{"type":"Point","properties":{"Station_ID":"FAR","Station_Nam":"HECTOR INTERNATIONAL ARPT","Latitude":"46.91560","Longitude":"-96.81440","Snowdepth":"1.000","Units":"in","Rept_Date":"2020-04-07 00"},"coordinates":[100,7006]},{"type":"Point","properties":{"Station_ID":"COVM4","Station_Nam":"COVINGTON","Latitude":"46.55880","Longitude":"-88.54190","Snowdepth":"1.000","Units":"in","Rept_Date":"2020-04-06 12"},"coordinates":[2041,6784]},{"type":"Point","properties":{"Station_ID":"CORV1","Station_Nam":"CORINTH","Latitude":"44.00690","Longitude":"-72.31940","Snowdepth":"1.000","Units":"in","Rept_Date":"2020-04-06 11"},"coordinates":[5848,5196]},{"type":"Point","properties":{"Station_ID":"BBEM4","Station_Nam":"BIG BAY 9SW","Latitude":"46.74620","Longitude":"-87.88160","Snowdepth":"1.000","Units":"in","Rept_Date":"2020-04-06 12"},"coordinates":[2196,6900]},{"type":"Point","properties":{"Station_ID":"BAUM5","Station_Nam":"BAUDETTE,MN","Latitude":"48.71670","Longitude":"-94.61670","Snowdepth":"1.000","Units":"in","Rept_Date":"2020-04-06 20"},"coordinates":[615,8126]}]}},"arcs":[],"transform":{"scale":[0.004260890089008902,0.0016073507350735073],"translate":[-97.2386,35.655]}}