{"type":"Topology","objects":{"snowdepth_geo":{"type":"GeometryCollection","name":"snowdepth","crs":{"type":"name","properties":{"name":"urn:ogc:def:crs:OGC:1.3:CRS84"}},"geometries":[{"type":"Point","properties":{"Station_ID":"PRKM4","Station_Nam":"MUNISING EAST","Latitude":"46.42580","Longitude":"-86.62000","Snowdepth":"76.500","Units":"in","Rept_Date":"2020-04-21 06"},"coordinates":[1717,2962]},{"type":"Point","properties":{"Station_ID":"OGIQ6","Station_Nam":"OGOKI CAMP","Latitude":"50.76680","Longitude":"-87.85820","Snowdepth":"61.100","Units":"in","Rept_Date":"2020-04-21 06"},"coordinates":[1414,8725]},{"type":"Point","properties":{"Station_ID":"MMNV1","Station_Nam":"MT. MANSFIELD","Latitude":"44.52480","Longitude":"-72.81540","Snowdepth":"59.000","Units":"in","Rept_Date":"2020-04-20 20"},"coordinates":[5098,439]},{"type":"Point","properties":{"Station_ID":"DVLQ6","Station_Nam":"DEVIOUS LAKE","Latitude":"49.19890","Longitude":"-87.76440","Snowdepth":"43.460","Units":"in","Rept_Date":"2020-04-21 06"},"coordinates":[1437,6643]},{"type":"Point","properties":{"Station_ID":"CLUM4","Station_Nam":"CALUMET-TAMARACK","Latitude":"47.24550","Longitude":"-88.46790","Snowdepth":"31.000","Units":"in","Rept_Date":"2020-04-20 13"},"coordinates":[1265,4050]},{"type":"Point","properties":{"Station_ID":"PDLM4","Station_Nam":"PAINESDALE","Latitude":"47.04160","Longitude":"-88.67170","Snowdepth":"26.000","Units":"in","Rept_Date":"2020-04-20 12"},"coordinates":[1215,3780]},{"type":"Point","properties":{"Station_ID":"MNSM4","Station_Nam":"MUNISING","Latitude":"46.41210","Longitude":"-86.66250","Snowdepth":"25.000","Units":"in","Rept_Date":"2020-04-20 10"},"coordinates":[1707,2944]},{"type":"Point","properties":{"Station_ID":"CAN-NS-39","Station_Nam":"ST. ANNS 2.8 NW, CA","Latitude":"46.25082","Longitude":"-60.64340","Snowdepth":"23.000","Units":"in","Rept_Date":"2020-04-20 11"},"coordinates":[8078,2730]},{"type":"Point","properties":{"Station_ID":"MI-BG-3","Station_Nam":"L'ANSE 17.8 SE, MI","Latitude":"46.55730","Longitude":"-88.20770","Snowdepth":"18.000","Units":"in","Rept_Date":"2020-04-20 12"},"coordinates":[1329,3137]},{"type":"Point","properties":{"Station_ID":"HERM4","Station_Nam":"HERMAN,MI","Latitude":"46.65000","Longitude":"-88.33330","Snowdepth":"18.000","Units":"in","Rept_Date":"2020-04-20 14"},"coordinates":[1298,3260]},{"type":"Point","properties":{"Station_ID":"TRIQ6","Station_Nam":"TRIO LAKE","Latitude":"49.22880","Longitude":"-87.22920","Snowdepth":"16.060","Units":"in","Rept_Date":"2020-04-21 06"},"coordinates":[1568,6683]},{"type":"Point","properties":{"Station_ID":"WNTM1","Station_Nam":"WINTERVILLE SNOW COURSE","Latitude":"46.93170","Longitude":"-68.52720","Snowdepth":"16.000","Units":"in","Rept_Date":"2020-04-20 16"},"coordinates":[6148,3634]},{"type":"Point","properties":{"Station_ID":"MI-KW-2","Station_Nam":"DELAWARE 5.2 SW, MI","Latitude":"47.36928","Longitude":"-88.17919","Snowdepth":"16.000","Units":"in","Rept_Date":"2020-04-20 08"},"coordinates":[1336,4214]},{"type":"Point","properties":{"Station_ID":"CAN-NS-61","Station_Nam":"ASPY  BAY 0.9 SW, CA","Latitude":"46.91621","Longitude":"-60.49460","Snowdepth":"16.000","Units":"in","Rept_Date":"2020-04-20 10"},"coordinates":[8114,3613]},{"type":"Point","properties":{"Station_ID":"MQT","Station_Nam":"MARQUETTE, MI","Latitude":"46.53140","Longitude":"-87.54920","Snowdepth":"15.000","Units":"in","Rept_Date":"2020-04-21 06"},"coordinates":[1490,3102]},{"type":"Point","properties":{"Station_ID":"CAN-NL-82","Station_Nam":"GANDER 2.7 NW, CAN","Latitude":"48.97737","Longitude":"-54.63396","Snowdepth":"15.000","Units":"in","Rept_Date":"2020-04-20 09"},"coordinates":[9549,6349]},{"type":"Point","properties":{"Station_ID":"PTLQ6","Station_Nam":"PORTAGE LAKE","Latitude":"49.06950","Longitude":"-86.65940","Snowdepth":"14.170","Units":"in","Rept_Date":"2020-04-21 06"},"coordinates":[1708,6471]},{"type":"Point","properties":{"Station_ID":"KSGM4","Station_Nam":"KEARSARGE","Latitude":"47.27520","Longitude":"-88.41700","Snowdepth":"14.000","Units":"in","Rept_Date":"2020-04-20 12"},"coordinates":[1277,4090]},{"type":"Point","properties":{"Station_ID":"ALSM1","Station_Nam":"ALLAGASH SNOW COURSE","Latitude":"47.07110","Longitude":"-69.07720","Snowdepth":"14.000","Units":"in","Rept_Date":"2020-04-20 15"},"coordinates":[6013,3819]},{"type":"Point","properties":{"Station_ID":"SVBQ6","Station_Nam":"SAVANT BASE","Latitude":"50.28730","Longitude":"-90.65670","Snowdepth":"13.350","Units":"in","Rept_Date":"2020-04-21 06"},"coordinates":[729,8088]},{"type":"Point","properties":{"Station_ID":"CAN-NS-166","Station_Nam":"PORT MORIEN 5.7 SSE, CAN","Latitude":"46.08367","Longitude":"-59.85858","Snowdepth":"13.000","Units":"in","Rept_Date":"2020-04-20 09"},"coordinates":[8270,2508]},{"type":"Point","properties":{"Station_ID":"CAN-NB-13","Station_Nam":"BATHURST 3.8 NW, CAN","Latitude":"47.64212","Longitude":"-65.68756","Snowdepth":"12.000","Units":"in","Rept_Date":"2020-04-20 08"},"coordinates":[6843,4577]},{"type":"Point","properties":{"Station_ID":"AUDQ6","Station_Nam":"AUDEN","Latitude":"48.52600","Longitude":"-82.57570","Snowdepth":"11.930","Units":"in","Rept_Date":"2020-04-21 06"},"coordinates":[2708,5750]},{"type":"Point","properties":{"Station_ID":"HWRM1","Station_Nam":"HATHAWAY ROAD SNOW CORE","Latitude":"46.80830","Longitude":"-68.49580","Snowdepth":"11.900","Units":"in","Rept_Date":"2020-04-20 17"},"coordinates":[6155,3470]},{"type":"Point","properties":{"Station_ID":"GURM1","Station_Nam":"GUERETTE SNOW COURSE","Latitude":"47.08360","Longitude":"-68.23140","Snowdepth":"11.500","Units":"in","Rept_Date":"2020-04-20 13"},"coordinates":[6220,3835]},{"type":"Point","properties":{"Station_ID":"NH-CS-10","Station_Nam":"RANDOLPH 1.4 NE, NH","Latitude":"44.38824","Longitude":"-71.26950","Snowdepth":"11.000","Units":"in","Rept_Date":"2020-04-20 11"},"coordinates":[5476,257]},{"type":"Point","properties":{"Station_ID":"CAN-NL-11","Station_Nam":"MOUNT PEARL 2.1 SSE, CA","Latitude":"47.50347","Longitude":"-52.79730","Snowdepth":"9.400","Units":"in","Rept_Date":"2020-04-20 09"},"coordinates":[9999,4393]},{"type":"Point","properties":{"Station_ID":"STEM4","Station_Nam":"STEUBEN","Latitude":"46.18530","Longitude":"-86.46410","Snowdepth":"9.000","Units":"in","Rept_Date":"2020-04-20 13"},"coordinates":[1756,2643]},{"type":"Point","properties":{"Station_ID":"TWOM5","Station_Nam":"TWO HARBORS,MN","Latitude":"47.12580","Longitude":"-91.70750","Snowdepth":"8.000","Units":"in","Rept_Date":"2020-04-21 00"},"coordinates":[472,3891]},{"type":"Point","properties":{"Station_ID":"MWN","Station_Nam":"MOUNT WASHINGTON","Latitude":"44.26670","Longitude":"-71.30000","Snowdepth":"8.000","Units":"in","Rept_Date":"2020-04-20 12"},"coordinates":[5469,96]},{"type":"Point","properties":{"Station_ID":"KMWN","Station_Nam":"MOUNT WASHINGTON","Latitude":"44.26666","Longitude":"-71.30000","Snowdepth":"8.000","Units":"in","Rept_Date":"2020-04-21 06"},"coordinates":[5469,96]},{"type":"Point","properties":{"Station_ID":"CAN-NL-65","Station_Nam":"KIPPENS 0.7 NE, CA","Latitude":"48.55436","Longitude":"-58.61850","Snowdepth":"7.500","Units":"in","Rept_Date":"2020-04-20 10"},"coordinates":[8574,5788]},{"type":"Point","properties":{"Station_ID":"WLFM5","Station_Nam":"WOLF RIDGE ENVIRON LEARNING CENTER","Latitude":"47.38240","Longitude":"-91.19730","Snowdepth":"7.000","Units":"in","Rept_Date":"2020-04-20 12"},"coordinates":[597,4232]},{"type":"Point","properties":{"Station_ID":"ME-AR-18","Station_Nam":"NEW SWEDEN 4.9 NNW, ME","Latitude":"47.01080","Longitude":"-68.14390","Snowdepth":"7.000","Units":"in","Rept_Date":"2020-04-20 11"},"coordinates":[6241,3739]},{"type":"Point","properties":{"Station_ID":"FISM1","Station_Nam":"FORT KENT COOP","Latitude":"47.23850","Longitude":"-68.61240","Snowdepth":"6.800","Units":"in","Rept_Date":"2020-04-20 14"},"coordinates":[6127,4041]},{"type":"Point","properties":{"Station_ID":"CAN-NB-11","Station_Nam":"MIRAMICHI 3.3 S, CAN","Latitude":"46.99343","Longitude":"-65.50690","Snowdepth":"6.000","Units":"in","Rept_Date":"2020-04-20 10"},"coordinates":[6887,3716]},{"type":"Point","properties":{"Station_ID":"IBLM5","Station_Nam":"ISABELLA 14W","Latitude":"47.59360","Longitude":"-91.65140","Snowdepth":"5.000","Units":"in","Rept_Date":"2020-04-20 14"},"coordinates":[486,4512]},{"type":"Point","properties":{"Station_ID":"BBEM4","Station_Nam":"BIG BAY 9SW","Latitude":"46.74620","Longitude":"-87.88160","Snowdepth":"5.000","Units":"in","Rept_Date":"2020-04-20 12"},"coordinates":[1409,3387]},{"type":"Point","properties":{"Station_ID":"SOCQ6","Station_Nam":"SOCKET LAKE","Latitude":"50.77870","Longitude":"-91.79300","Snowdepth":"4.690","Units":"in","Rept_Date":"2020-04-21 06"},"coordinates":[451,8740]},{"type":"Point","properties":{"Station_ID":"RGNM1","Station_Nam":"RANGELEY 2NW","Latitude":"44.98940","Longitude":"-70.67220","Snowdepth":"4.000","Units":"in","Rept_Date":"2020-04-20 13"},"coordinates":[5622,1055]},{"type":"Point","properties":{"Station_ID":"GNFM5","Station_Nam":"GUNFLINT LAKE","Latitude":"48.16670","Longitude":"-90.88750","Snowdepth":"4.000","Units":"in","Rept_Date":"2020-04-20 12"},"coordinates":[673,5273]},{"type":"Point","properties":{"Station_ID":"VT-CL-3","Station_Nam":"GROTON 4.4 WSW, VT","Latitude":"44.19440","Longitude":"-72.28240","Snowdepth":"3.500","Units":"in","Rept_Date":"2020-04-20 10"},"coordinates":[5228,0]},{"type":"Point","properties":{"Station_ID":"HPN04_MADIS","Station_Nam":"HANOVER","Latitude":"45.16770","Longitude":"-93.63430","Snowdepth":"3.440","Units":"in","Rept_Date":"2020-04-21 06"},"coordinates":[0,1292]},{"type":"Point","properties":{"Station_ID":"WI-IR-3","Station_Nam":"PENCE 0.1 E, WI","Latitude":"46.41555","Longitude":"-90.27013","Snowdepth":"3.000","Units":"in","Rept_Date":"2020-04-20 12"},"coordinates":[824,2948]},{"type":"Point","properties":{"Station_ID":"RKWM1","Station_Nam":"MOOSEHEAD LAKE","Latitude":"45.58330","Longitude":"-69.71670","Snowdepth":"3.000","Units":"in","Rept_Date":"2020-04-20 11"},"coordinates":[5856,1844]},{"type":"Point","properties":{"Station_ID":"PRDM4","Station_Nam":"PARADISE","Latitude":"46.60380","Longitude":"-85.03960","Snowdepth":"3.000","Units":"in","Rept_Date":"2020-04-20 10"},"coordinates":[2104,3198]},{"type":"Point","properties":{"Station_ID":"PNKM1","Station_Nam":"PINKHAM MILL SNOW CORE","Latitude":"46.71270","Longitude":"-68.45840","Snowdepth":"3.000","Units":"in","Rept_Date":"2020-04-20 18"},"coordinates":[6164,3343]},{"type":"Point","properties":{"Station_ID":"MI-GG-4","Station_Nam":"WATERSMEET 5.0 SE, MI","Latitude":"46.20333","Longitude":"-89.13170","Snowdepth":"3.000","Units":"in","Rept_Date":"2020-04-20 13"},"coordinates":[1102,2667]},{"type":"Point","properties":{"Station_ID":"CEFM4","Station_Nam":"EXPERIMENT FARM #2","Latitude":"46.33330","Longitude":"-86.91670","Snowdepth":"3.000","Units":"in","Rept_Date":"2020-04-20 12"},"coordinates":[1645,2839]},{"type":"Point","properties":{"Station_ID":"CAN-NS-60","Station_Nam":"SYDNEY FORKS, CAN","Latitude":"46.05645","Longitude":"-60.31510","Snowdepth":"3.000","Units":"in","Rept_Date":"2020-04-20 12"},"coordinates":[8158,2472]},{"type":"Point","properties":{"Station_ID":"BRAM1","Station_Nam":"BRASSUA DAM","Latitude":"45.66020","Longitude":"-69.81190","Snowdepth":"3.000","Units":"in","Rept_Date":"2020-04-20 11"},"coordinates":[5833,1946]},{"type":"Point","properties":{"Station_ID":"KABQ6","Station_Nam":"CAB LAKE","Latitude":"49.59950","Longitude":"-89.17990","Snowdepth":"2.950","Units":"in","Rept_Date":"2020-04-21 06"},"coordinates":[1091,7175]},{"type":"Point","properties":{"Station_ID":"VT-OL-12","Station_Nam":"GREENSBORO 3.9 NNE, VT","Latitude":"44.63100","Longitude":"-72.28000","Snowdepth":"2.500","Units":"in","Rept_Date":"2020-04-20 09"},"coordinates":[5229,580]},{"type":"Point","properties":{"Station_ID":"WI-VL-10","Station_Nam":"LAND O LAKES 4.3 WNW, WI","Latitude":"46.17440","Longitude":"-89.30380","Snowdepth":"2.000","Units":"in","Rept_Date":"2020-04-20 12"},"coordinates":[1060,2628]},{"type":"Point","properties":{"Station_ID":"MN-CK-6","Station_Nam":"GRAND MARAIS 4.4 W, MN","Latitude":"47.74865","Longitude":"-90.43760","Snowdepth":"2.000","Units":"in","Rept_Date":"2020-04-20 12"},"coordinates":[783,4718]},{"type":"Point","properties":{"Station_ID":"HRVM4","Station_Nam":"HARVEY","Latitude":"46.49080","Longitude":"-87.35470","Snowdepth":"2.000","Units":"in","Rept_Date":"2020-04-20 12"},"coordinates":[1538,3048]},{"type":"Point","properties":{"Station_ID":"GGRM4","Station_Nam":"GREEN GARDEN NO.2","Latitude":"46.45330","Longitude":"-87.30380","Snowdepth":"2.000","Units":"in","Rept_Date":"2020-04-20 12"},"coordinates":[1550,2999]},{"type":"Point","properties":{"Station_ID":"CAN-NB-96","Station_Nam":"SAINT-IGNACE 2.6 NE, CAN","Latitude":"46.71424","Longitude":"-65.05609","Snowdepth":"2.000","Units":"in","Rept_Date":"2020-04-20 10"},"coordinates":[6997,3345]},{"type":"Point","properties":{"Station_ID":"CATQ6","Station_Nam":"CAT LAKE","Latitude":"51.72690","Longitude":"-91.82210","Snowdepth":"1.970","Units":"in","Rept_Date":"2020-04-21 06"},"coordinates":[444,9999]},{"type":"Point","properties":{"Station_ID":"FTHQ6","Station_Nam":"FORT HOPE","Latitude":"51.55820","Longitude":"-87.90510","Snowdepth":"1.260","Units":"in","Rept_Date":"2020-04-21 06"},"coordinates":[1403,9775]},{"type":"Point","properties":{"Station_ID":"WI-VL-9","Station_Nam":"LAND O' LAKES 11.7 W, WI","Latitude":"46.19023","Longitude":"-89.45790","Snowdepth":"1.000","Units":"in","Rept_Date":"2020-04-20 12"},"coordinates":[1023,2649]},{"type":"Point","properties":{"Station_ID":"PTBN3","Station_Nam":"PITTSBURG RESERVOIR","Latitude":"45.04690","Longitude":"-71.38300","Snowdepth":"1.000","Units":"in","Rept_Date":"2020-04-20 12"},"coordinates":[5448,1132]},{"type":"Point","properties":{"Station_ID":"LVDW3","Station_Nam":"LAC VIEUX DESERT","Latitude":"46.12110","Longitude":"-89.07580","Snowdepth":"1.000","Units":"in","Rept_Date":"2020-04-20 12"},"coordinates":[1116,2558]},{"type":"Point","properties":{"Station_ID":"LNOW3","Station_Nam":"LAND O LAKES","Latitude":"46.19000","Longitude":"-89.45700","Snowdepth":"1.000","Units":"in","Rept_Date":"2020-04-20 12"},"coordinates":[1023,2649]},{"type":"Point","properties":{"Station_ID":"COVM4","Station_Nam":"COVINGTON","Latitude":"46.55880","Longitude":"-88.54190","Snowdepth":"1.000","Units":"in","Rept_Date":"2020-04-20 12"},"coordinates":[1247,3139]},{"type":"Point","properties":{"Station_ID":"APXM4","Station_Nam":"GAYLORD 9SSW","Latitude":"44.90720","Longitude":"-84.71880","Snowdepth":"1.000","Units":"in","Rept_Date":"2020-04-21 06"},"coordinates":[2183,946]}]}},"arcs":[],"transform":{"scale":[0.004084108410841084,0.0007533253325332533],"translate":[-93.6343,44.1944]}}