{"type":"Topology","objects":{"snowdepth_geo":{"type":"GeometryCollection","name":"snowdepth","crs":{"type":"name","properties":{"name":"urn:ogc:def:crs:OGC:1.3:CRS84"}},"geometries":[{"type":"Point","properties":{"Station_ID":"PRKM4","Station_Nam":"MUNISING EAST","Latitude":"46.42580","Longitude":"-86.62000","Snowdepth":"76.500","Units":"in","Rept_Date":"2021-02-18 06"},"coordinates":[2494,7628]},{"type":"Point","properties":{"Station_ID":"PDLM4","Station_Nam":"PAINESDALE","Latitude":"47.04160","Longitude":"-88.67170","Snowdepth":"47.000","Units":"in","Rept_Date":"2021-02-17 13"},"coordinates":[2012,7904]},{"type":"Point","properties":{"Station_ID":"MMNV1","Station_Nam":"MT. MANSFIELD","Latitude":"44.52480","Longitude":"-72.81540","Snowdepth":"47.000","Units":"in","Rept_Date":"2021-02-17 21"},"coordinates":[5733,6778]},{"type":"Point","properties":{"Station_ID":"MI-SH-1","Station_Nam":"MANISTIQUE 2.7 NW, MI","Latitude":"45.99042","Longitude":"-86.28266","Snowdepth":"47.000","Units":"in","Rept_Date":"2021-02-17 11"},"coordinates":[2573,7434]},{"type":"Point","properties":{"Station_ID":"HTLN3","Station_Nam":"HERMIT LAKE SNOWPLOT","Latitude":"44.26130","Longitude":"-71.28330","Snowdepth":"44.000","Units":"in","Rept_Date":"2021-02-17 10"},"coordinates":[6092,6660]},{"type":"Point","properties":{"Station_ID":"KSGM4","Station_Nam":"KEARSARGE","Latitude":"47.27520","Longitude":"-88.41700","Snowdepth":"40.000","Units":"in","Rept_Date":"2021-02-17 13"},"coordinates":[2072,8008]},{"type":"Point","properties":{"Station_ID":"HLSN3","Station_Nam":"HERMIT LAKE SNOTEL","Latitude":"44.26130","Longitude":"-71.28320","Snowdepth":"39.210","Units":"in","Rept_Date":"2021-02-18 06"},"coordinates":[6092,6660]},{"type":"Point","properties":{"Station_ID":"RDFN6","Station_Nam":"REDFIELD 8N","Latitude":"43.64130","Longitude":"-75.88400","Snowdepth":"38.000","Units":"in","Rept_Date":"2021-02-17 12"},"coordinates":[5013,6383]},{"type":"Point","properties":{"Station_ID":"BENN6","Station_Nam":"BENNETTS BRIDGE","Latitude":"43.53180","Longitude":"-75.95260","Snowdepth":"38.000","Units":"in","Rept_Date":"2021-02-17 12"},"coordinates":[4997,6334]},{"type":"Point","properties":{"Station_ID":"HGHN6","Station_Nam":"HIGHMARKET","Latitude":"43.60510","Longitude":"-75.55430","Snowdepth":"37.000","Units":"in","Rept_Date":"2021-02-17 11"},"coordinates":[5090,6367]},{"type":"Point","properties":{"Station_ID":"QNCM4","Station_Nam":"QUINCY HILL","Latitude":"47.13640","Longitude":"-88.57950","Snowdepth":"36.000","Units":"in","Rept_Date":"2021-02-17 12"},"coordinates":[2034,7946]},{"type":"Point","properties":{"Station_ID":"IL-LK-69","Station_Nam":"HIGHWOOD 0.9 S, IL","Latitude":"42.19841","Longitude":"-87.81400","Snowdepth":"35.000","Units":"in","Rept_Date":"2021-02-17 13"},"coordinates":[2214,5738]},{"type":"Point","properties":{"Station_ID":"MI-HG-20","Station_Nam":"CALUMET 1.1 SSW, MI","Latitude":"47.23165","Longitude":"-88.45823","Snowdepth":"34.000","Units":"in","Rept_Date":"2021-02-17 11"},"coordinates":[2063,7989]},{"type":"Point","properties":{"Station_ID":"GNLM4","Station_Nam":"GREENLAND 6N","Latitude":"46.87360","Longitude":"-89.10060","Snowdepth":"34.000","Units":"in","Rept_Date":"2021-02-17 13"},"coordinates":[1912,7829]},{"type":"Point","properties":{"Station_ID":"PTLQ6","Station_Nam":"PORTAGE LAKE","Latitude":"49.06950","Longitude":"-86.65940","Snowdepth":"32.600","Units":"in","Rept_Date":"2021-02-18 06"},"coordinates":[2485,8811]},{"type":"Point","properties":{"Station_ID":"IL-CK-211","Station_Nam":"OAK LAWN 1.6 WNW, IL","Latitude":"41.72686","Longitude":"-87.77770","Snowdepth":"31.100","Units":"in","Rept_Date":"2021-02-17 14"},"coordinates":[2222,5527]},{"type":"Point","properties":{"Station_ID":"WI-MW-14","Station_Nam":"MILWAUKEE 3.6 NNW, WI","Latitude":"43.11300","Longitude":"-87.98730","Snowdepth":"31.000","Units":"in","Rept_Date":"2021-02-17 11"},"coordinates":[2173,6147]},{"type":"Point","properties":{"Station_ID":"APPV1","Station_Nam":"APPALACHIAN GAP","Latitude":"44.21060","Longitude":"-72.93170","Snowdepth":"31.000","Units":"in","Rept_Date":"2021-02-17 21"},"coordinates":[5706,6638]},{"type":"Point","properties":{"Station_ID":"MNSM4","Station_Nam":"MUNISING","Latitude":"46.41210","Longitude":"-86.66250","Snowdepth":"30.000","Units":"in","Rept_Date":"2021-02-17 11"},"coordinates":[2484,7622]},{"type":"Point","properties":{"Station_ID":"GMSM4","Station_Nam":"GRAND MARAIS 10S","Latitude":"46.50940","Longitude":"-85.96310","Snowdepth":"30.000","Units":"in","Rept_Date":"2021-02-17 12"},"coordinates":[2648,7666]},{"type":"Point","properties":{"Station_ID":"BOON6","Station_Nam":"BOONVILLE 4 SSW","Latitude":"43.43610","Longitude":"-75.36970","Snowdepth":"30.000","Units":"in","Rept_Date":"2021-02-17 12"},"coordinates":[5134,6291]},{"type":"Point","properties":{"Station_ID":"IL-CK-12","Station_Nam":"BRIDGEVIEW 1.3 NNW, IL","Latitude":"41.75502","Longitude":"-87.81730","Snowdepth":"29.500","Units":"in","Rept_Date":"2021-02-17 13"},"coordinates":[2213,5540]},{"type":"Point","properties":{"Station_ID":"OCON6","Station_Nam":"OSCEOLA","Latitude":"43.50370","Longitude":"-75.72170","Snowdepth":"29.000","Units":"in","Rept_Date":"2021-02-17 13"},"coordinates":[5051,6322]},{"type":"Point","properties":{"Station_ID":"NY-HR-18","Station_Nam":"SALISBURY CENTER 1.8 NW, NY","Latitude":"43.16260","Longitude":"-74.80880","Snowdepth":"29.000","Units":"in","Rept_Date":"2021-02-17 11"},"coordinates":[5265,6169]},{"type":"Point","properties":{"Station_ID":"NH-CS-10","Station_Nam":"RANDOLPH 1.4 NE, NH","Latitude":"44.38824","Longitude":"-71.26950","Snowdepth":"29.000","Units":"in","Rept_Date":"2021-02-17 12"},"coordinates":[6096,6717]},{"type":"Point","properties":{"Station_ID":"TRIQ6","Station_Nam":"TRIO LAKE","Latitude":"49.22880","Longitude":"-87.22920","Snowdepth":"28.900","Units":"in","Rept_Date":"2021-02-18 06"},"coordinates":[2351,8882]},{"type":"Point","properties":{"Station_ID":"IL-CK-149","Station_Nam":"OAK LAWN 0.5 SSW, IL","Latitude":"41.70845","Longitude":"-87.75390","Snowdepth":"28.500","Units":"in","Rept_Date":"2021-02-17 14"},"coordinates":[2228,5519]},{"type":"Point","properties":{"Station_ID":"QGO","Station_Nam":"QGO","Latitude":"48.85500","Longitude":"-74.20640","Snowdepth":"28.150","Units":"in","Rept_Date":"2021-02-17 12"},"coordinates":[5407,8715]},{"type":"Point","properties":{"Station_ID":"VT-BN-12","Station_Nam":"STAMFORD 5.0 NNE, VT","Latitude":"42.82000","Longitude":"-73.02000","Snowdepth":"28.000","Units":"in","Rept_Date":"2021-02-17 21"},"coordinates":[5685,6016]},{"type":"Point","properties":{"Station_ID":"PRGN6","Station_Nam":"PERRYSBURG","Latitude":"42.46470","Longitude":"-79.00310","Snowdepth":"28.000","Units":"in","Rept_Date":"2021-02-17 12"},"coordinates":[4281,5857]},{"type":"Point","properties":{"Station_ID":"MTQM4","Station_Nam":"MANISTIQUE WWTP","Latitude":"45.95120","Longitude":"-86.25130","Snowdepth":"28.000","Units":"in","Rept_Date":"2021-02-17 12"},"coordinates":[2580,7416]},{"type":"Point","properties":{"Station_ID":"JAYV1","Station_Nam":"JAY PEAK","Latitude":"44.93830","Longitude":"-72.50490","Snowdepth":"28.000","Units":"in","Rept_Date":"2021-02-17 21"},"coordinates":[5806,6963]},{"type":"Point","properties":{"Station_ID":"WI-RC-3","Station_Nam":"RACINE 2.3 WSW, WI","Latitude":"42.71124","Longitude":"-87.84570","Snowdepth":"27.500","Units":"in","Rept_Date":"2021-02-17 13"},"coordinates":[2206,5967]},{"type":"Point","properties":{"Station_ID":"DVLQ6","Station_Nam":"DEVIOUS LAKE","Latitude":"49.19890","Longitude":"-87.76440","Snowdepth":"27.440","Units":"in","Rept_Date":"2021-02-18 06"},"coordinates":[2225,8869]},{"type":"Point","properties":{"Station_ID":"KENW3","Station_Nam":"WATER POLLUTION CONTROL PLANT","Latitude":"42.55000","Longitude":"-87.81420","Snowdepth":"27.000","Units":"in","Rept_Date":"2021-02-18 06"},"coordinates":[2214,5895]},{"type":"Point","properties":{"Station_ID":"FISM1","Station_Nam":"FORT KENT COOP","Latitude":"47.23850","Longitude":"-68.61240","Snowdepth":"27.000","Units":"in","Rept_Date":"2021-02-17 12"},"coordinates":[6719,7992]},{"type":"Point","properties":{"Station_ID":"CAN-ON-491","Station_Nam":"MILVERTON 1.1 ESE- CANWARN, CAN","Latitude":"43.56074","Longitude":"-80.90887","Snowdepth":"26.100","Units":"in","Rept_Date":"2021-02-17 11"},"coordinates":[3834,6347]},{"type":"Point","properties":{"Station_ID":"WHFN6","Station_Nam":"WILMINGTON 2W","Latitude":"44.39310","Longitude":"-73.85890","Snowdepth":"26.000","Units":"in","Rept_Date":"2021-02-17 13"},"coordinates":[5488,6719]},{"type":"Point","properties":{"Station_ID":"ROXV1","Station_Nam":"ROXBURY GAP","Latitude":"44.10950","Longitude":"-72.78750","Snowdepth":"26.000","Units":"in","Rept_Date":"2021-02-17 21"},"coordinates":[5739,6593]},{"type":"Point","properties":{"Station_ID":"PARM4","Station_Nam":"PARENT BAY","Latitude":"45.79610","Longitude":"-86.40110","Snowdepth":"26.000","Units":"in","Rept_Date":"2021-02-17 13"},"coordinates":[2545,7347]},{"type":"Point","properties":{"Station_ID":"NY-LW-12","Station_Nam":"CHASES LAKE COOP, NY","Latitude":"43.75924","Longitude":"-75.29982","Snowdepth":"26.000","Units":"in","Rept_Date":"2021-02-17 12"},"coordinates":[5150,6436]},{"type":"Point","properties":{"Station_ID":"LBKV1","Station_Nam":"LYE BROOK","Latitude":"43.05000","Longitude":"-73.03330","Snowdepth":"26.000","Units":"in","Rept_Date":"2021-02-18 06"},"coordinates":[5682,6119]},{"type":"Point","properties":{"Station_ID":"GHMN3","Station_Nam":"PINKHAM NOTCH","Latitude":"44.25800","Longitude":"-71.25250","Snowdepth":"26.000","Units":"in","Rept_Date":"2021-02-17 10"},"coordinates":[6100,6659]},{"type":"Point","properties":{"Station_ID":"GFDN6","Station_Nam":"CHASES LAKE","Latitude":"43.75920","Longitude":"-75.29980","Snowdepth":"26.000","Units":"in","Rept_Date":"2021-02-17 11"},"coordinates":[5150,6436]},{"type":"Point","properties":{"Station_ID":"QLB","Station_Nam":"QLB","Latitude":"50.72360","Longitude":"-75.10000","Snowdepth":"25.512","Units":"in","Rept_Date":"2021-02-17 12"},"coordinates":[5197,9550]},{"type":"Point","properties":{"Station_ID":"MI-HG-1","Station_Nam":"HOUGHTON 1.6 ESE, MI","Latitude":"47.10774","Longitude":"-88.52940","Snowdepth":"25.500","Units":"in","Rept_Date":"2021-02-17 13"},"coordinates":[2046,7933]},{"type":"Point","properties":{"Station_ID":"ME-FR-2","Station_Nam":"TEMPLE 1.8 W, ME","Latitude":"44.68329","Longitude":"-70.26420","Snowdepth":"25.500","Units":"in","Rept_Date":"2021-02-17 12"},"coordinates":[6332,6849]},{"type":"Point","properties":{"Station_ID":"CAN-NB-11","Station_Nam":"MIRAMICHI 3.3 S, CAN","Latitude":"46.99343","Longitude":"-65.50690","Snowdepth":"25.500","Units":"in","Rept_Date":"2021-02-17 12"},"coordinates":[7448,7882]},{"type":"Point","properties":{"Station_ID":"QWE","Station_Nam":"QWE","Latitude":"47.84610","Longitude":"-73.80670","Snowdepth":"25.276","Units":"in","Rept_Date":"2021-02-17 12"},"coordinates":[5500,8264]},{"type":"Point","properties":{"Station_ID":"AUDQ6","Station_Nam":"AUDEN","Latitude":"48.52600","Longitude":"-82.57570","Snowdepth":"25.200","Units":"in","Rept_Date":"2021-02-18 06"},"coordinates":[3443,8568]},{"type":"Point","properties":{"Station_ID":"WNDP1","Station_Nam":"WINDBER COUNTY CLUB","Latitude":"40.28780","Longitude":"-78.77530","Snowdepth":"25.000","Units":"in","Rept_Date":"2021-02-17 12"},"coordinates":[4335,4884]},{"type":"Point","properties":{"Station_ID":"WLDV1","Station_Nam":"WILDCAT ROAD","Latitude":"43.69250","Longitude":"-72.87420","Snowdepth":"25.000","Units":"in","Rept_Date":"2021-02-17 17"},"coordinates":[5719,6406]},{"type":"Point","properties":{"Station_ID":"VT-OL-12","Station_Nam":"GREENSBORO 3.9 NNE, VT","Latitude":"44.63100","Longitude":"-72.28000","Snowdepth":"25.000","Units":"in","Rept_Date":"2021-02-17 13"},"coordinates":[5859,6826]},{"type":"Point","properties":{"Station_ID":"PLMN6","Station_Nam":"PALERMO 2SSE","Latitude":"43.33140","Longitude":"-76.26930","Snowdepth":"25.000","Units":"in","Rept_Date":"2021-02-17 11"},"coordinates":[4923,6245]},{"type":"Point","properties":{"Station_ID":"JEFV1","Station_Nam":"JEFFERSONVILLE","Latitude":"44.58430","Longitude":"-72.78700","Snowdepth":"25.000","Units":"in","Rept_Date":"2021-02-17 12"},"coordinates":[5740,6805]},{"type":"Point","properties":{"Station_ID":"IL-CK-94","Station_Nam":"LINCOLNWOOD 1.8 E, IL","Latitude":"42.00187","Longitude":"-87.69850","Snowdepth":"25.000","Units":"in","Rept_Date":"2021-02-17 13"},"coordinates":[2241,5650]},{"type":"Point","properties":{"Station_ID":"IL-CK-288","Station_Nam":"ROSELLE 0.8 N, IL","Latitude":"41.99255","Longitude":"-88.08422","Snowdepth":"25.000","Units":"in","Rept_Date":"2021-02-17 13"},"coordinates":[2150,5646]},{"type":"Point","properties":{"Station_ID":"IL-CK-180","Station_Nam":"PARK RIDGE 0.5 SSW, IL","Latitude":"42.00443","Longitude":"-87.84600","Snowdepth":"25.000","Units":"in","Rept_Date":"2021-02-17 13"},"coordinates":[2206,5651]},{"type":"Point","properties":{"Station_ID":"CLKV1","Station_Nam":"CLARKS CAMP","Latitude":"43.70500","Longitude":"-72.88830","Snowdepth":"25.000","Units":"in","Rept_Date":"2021-02-17 17"},"coordinates":[5716,6412]},{"type":"Point","properties":{"Station_ID":"CHRM4","Station_Nam":"CHARLEVOIX","Latitude":"45.31720","Longitude":"-85.26720","Snowdepth":"25.000","Units":"in","Rept_Date":"2021-02-17 13"},"coordinates":[2811,7133]},{"type":"Point","properties":{"Station_ID":"NY-OD-2","Station_Nam":"POINT ROCK 0.6 SE, NY","Latitude":"43.37335","Longitude":"-75.53840","Snowdepth":"24.500","Units":"in","Rept_Date":"2021-02-17 13"},"coordinates":[5094,6263]},{"type":"Point","properties":{"Station_ID":"MOSN3","Station_Nam":"MOOSE FALLS","Latitude":"45.18890","Longitude":"-71.18810","Snowdepth":"24.500","Units":"in","Rept_Date":"2021-02-17 18"},"coordinates":[6115,7075]},{"type":"Point","properties":{"Station_ID":"IL-DP-155","Station_Nam":"MEDINAH 1.0 SSW, IL","Latitude":"41.96360","Longitude":"-88.06590","Snowdepth":"24.500","Units":"in","Rept_Date":"2021-02-17 14"},"coordinates":[2155,5633]},{"type":"Point","properties":{"Station_ID":"IL-CK-285","Station_Nam":"HARWOOD HEIGHTS 0.4 NNE, IL","Latitude":"41.97154","Longitude":"-87.80325","Snowdepth":"24.500","Units":"in","Rept_Date":"2021-02-17 13"},"coordinates":[2216,5637]},{"type":"Point","properties":{"Station_ID":"QCU","Station_Nam":"QCU","Latitude":"47.82750","Longitude":"-76.59830","Snowdepth":"24.252","Units":"in","Rept_Date":"2021-02-17 12"},"coordinates":[4845,8255]},{"type":"Point","properties":{"Station_ID":"VT-WR-17","Station_Nam":"ROCHESTER 2.3 NE, VT","Latitude":"43.89418","Longitude":"-72.76992","Snowdepth":"24.000","Units":"in","Rept_Date":"2021-02-17 12"},"coordinates":[5744,6496]},{"type":"Point","properties":{"Station_ID":"TOPN6","Station_Nam":"TUPPER LAKE SUNMOUNT","Latitude":"44.23070","Longitude":"-74.43820","Snowdepth":"24.000","Units":"in","Rept_Date":"2021-02-17 12"},"coordinates":[5352,6647]},{"type":"Point","properties":{"Station_ID":"NY-FK-9","Station_Nam":"GABRIELS 1.3 SE, NY","Latitude":"44.41934","Longitude":"-74.16194","Snowdepth":"24.000","Units":"in","Rept_Date":"2021-02-17 12"},"coordinates":[5417,6731]},{"type":"Point","properties":{"Station_ID":"NY-CL-12","Station_Nam":"SARANAC 0.8 SSE, NY","Latitude":"44.63980","Longitude":"-73.73848","Snowdepth":"24.000","Units":"in","Rept_Date":"2021-02-17 12"},"coordinates":[5516,6830]},{"type":"Point","properties":{"Station_ID":"MI-OG-6","Station_Nam":"WEST BRANCH 2.1 SSW, MI","Latitude":"44.24814","Longitude":"-84.25089","Snowdepth":"24.000","Units":"in","Rept_Date":"2021-02-17 12"},"coordinates":[3050,6655]},{"type":"Point","properties":{"Station_ID":"MI-MQ-28","Station_Nam":"CARLSHEND, MI","Latitude":"46.31638","Longitude":"-87.19944","Snowdepth":"24.000","Units":"in","Rept_Date":"2021-02-17 13"},"coordinates":[2358,7579]},{"type":"Point","properties":{"Station_ID":"ME-SM-45","Station_Nam":"BRIGHTON PLANTATION 2.1 N, ME","Latitude":"45.07098","Longitude":"-69.69860","Snowdepth":"24.000","Units":"in","Rept_Date":"2021-02-17 12"},"coordinates":[6464,7023]},{"type":"Point","properties":{"Station_ID":"MALN6","Station_Nam":"MALONE","Latitude":"44.84180","Longitude":"-74.30600","Snowdepth":"24.000","Units":"in","Rept_Date":"2021-02-17 12"},"coordinates":[5383,6920]},{"type":"Point","properties":{"Station_ID":"LPLN6","Station_Nam":"LAKE PLACID 2 S","Latitude":"44.30420","Longitude":"-73.98390","Snowdepth":"24.000","Units":"in","Rept_Date":"2021-02-17 13"},"coordinates":[5459,6680]},{"type":"Point","properties":{"Station_ID":"IL-CK-64","Station_Nam":"HOMEWOOD 0.1 ESE, IL","Latitude":"41.55769","Longitude":"-87.65940","Snowdepth":"24.000","Units":"in","Rept_Date":"2021-02-17 13"},"coordinates":[2250,5451]},{"type":"Point","properties":{"Station_ID":"IL-CK-145","Station_Nam":"OAK PARK 1.5 S, IL","Latitude":"41.86592","Longitude":"-87.79280","Snowdepth":"24.000","Units":"in","Rept_Date":"2021-02-17 12"},"coordinates":[2219,5589]},{"type":"Point","properties":{"Station_ID":"HERM4","Station_Nam":"HERMAN,MI","Latitude":"46.65000","Longitude":"-88.33330","Snowdepth":"24.000","Units":"in","Rept_Date":"2021-02-17 13"},"coordinates":[2092,7729]},{"type":"Point","properties":{"Station_ID":"EHYM3","Station_Nam":"EAST HAWLEY","Latitude":"42.57410","Longitude":"-72.86790","Snowdepth":"24.000","Units":"in","Rept_Date":"2021-02-17 14"},"coordinates":[5721,5906]},{"type":"Point","properties":{"Station_ID":"EDEV1","Station_Nam":"EDEN","Latitude":"44.71110","Longitude":"-72.54920","Snowdepth":"24.000","Units":"in","Rept_Date":"2021-02-17 21"},"coordinates":[5795,6862]},{"type":"Point","properties":{"Station_ID":"VT-WS-33","Station_Nam":"WAITSFIELD 3.5 WNW, VT","Latitude":"44.20052","Longitude":"-72.89421","Snowdepth":"23.500","Units":"in","Rept_Date":"2021-02-17 13"},"coordinates":[5714,6633]},{"type":"Point","properties":{"Station_ID":"VT-OL-1","Station_Nam":"WESTFIELD 0.7 WNW, VT","Latitude":"44.89160","Longitude":"-72.44350","Snowdepth":"23.500","Units":"in","Rept_Date":"2021-02-17 12"},"coordinates":[5820,6942]},{"type":"Point","properties":{"Station_ID":"NY-ES-11","Station_Nam":"VERMONTVILLE 2.8 S, NY","Latitude":"44.41205","Longitude":"-74.06760","Snowdepth":"23.500","Units":"in","Rept_Date":"2021-02-17 12"},"coordinates":[5439,6728]},{"type":"Point","properties":{"Station_ID":"ME-AR-18","Station_Nam":"NEW SWEDEN 4.9 NNW, ME","Latitude":"47.01080","Longitude":"-68.14390","Snowdepth":"23.500","Units":"in","Rept_Date":"2021-02-17 12"},"coordinates":[6829,7890]},{"type":"Point","properties":{"Station_ID":"CAN-QC-47","Station_Nam":"SAINTE-FOY 1.8 ENE, CAN","Latitude":"46.76934","Longitude":"-71.27124","Snowdepth":"23.400","Units":"in","Rept_Date":"2021-02-17 12"},"coordinates":[6095,7782]},{"type":"Point","properties":{"Station_ID":"PRDM4","Station_Nam":"PARADISE","Latitude":"46.60380","Longitude":"-85.03960","Snowdepth":"23.000","Units":"in","Rept_Date":"2021-02-17 11"},"coordinates":[2865,7708]},{"type":"Point","properties":{"Station_ID":"PKFI2","Station_Nam":"PARK FOREST,IL","Latitude":"41.50000","Longitude":"-87.68330","Snowdepth":"23.000","Units":"in","Rept_Date":"2021-02-17 11"},"coordinates":[2244,5426]},{"type":"Point","properties":{"Station_ID":"NCBN6","Station_Nam":"NEWCOMB","Latitude":"43.97070","Longitude":"-74.22200","Snowdepth":"23.000","Units":"in","Rept_Date":"2021-02-17 13"},"coordinates":[5403,6531]},{"type":"Point","properties":{"Station_ID":"MONW3","Station_Nam":"MONROE,WI","Latitude":"42.60000","Longitude":"-89.66670","Snowdepth":"23.000","Units":"in","Rept_Date":"2021-02-17 13"},"coordinates":[1779,5918]},{"type":"Point","properties":{"Station_ID":"MI-OW-2","Station_Nam":"HOLLAND 3.9 NNE, MI","Latitude":"42.82296","Longitude":"-86.06780","Snowdepth":"23.000","Units":"in","Rept_Date":"2021-02-17 11"},"coordinates":[2623,6017]},{"type":"Point","properties":{"Station_ID":"MI-AN-20","Station_Nam":"HOLLAND 5.3 WSW, MI","Latitude":"42.74900","Longitude":"-86.20200","Snowdepth":"23.000","Units":"in","Rept_Date":"2021-02-17 13"},"coordinates":[2592,5984]},{"type":"Point","properties":{"Station_ID":"MFWI2","Station_Nam":"MIDWAY COOP","Latitude":"41.73730","Longitude":"-87.77760","Snowdepth":"23.000","Units":"in","Rept_Date":"2021-02-17 12"},"coordinates":[2222,5532]},{"type":"Point","properties":{"Station_ID":"LNNT1","Station_Nam":"LEBANON 7N","Latitude":"36.29800","Longitude":"-86.26300","Snowdepth":"23.000","Units":"in","Rept_Date":"2021-02-17 13"},"coordinates":[2578,3099]},{"type":"Point","properties":{"Station_ID":"IN-PT-98","Station_Nam":"VALPARAISO 0.9 NNW, IN","Latitude":"41.48956","Longitude":"-87.05800","Snowdepth":"23.000","Units":"in","Rept_Date":"2021-02-17 13"},"coordinates":[2391,5421]},{"type":"Point","properties":{"Station_ID":"IN-PT-3","Station_Nam":"VALPARAISO 2.0 WSW, IN","Latitude":"41.46741","Longitude":"-87.08750","Snowdepth":"23.000","Units":"in","Rept_Date":"2021-02-17 23"},"coordinates":[2384,5411]},{"type":"Point","properties":{"Station_ID":"IL-MCH-43","Station_Nam":"ALGONQUIN 0.7 N, IL","Latitude":"42.17392","Longitude":"-88.29930","Snowdepth":"23.000","Units":"in","Rept_Date":"2021-02-17 12"},"coordinates":[2100,5727]},{"type":"Point","properties":{"Station_ID":"GERW3","Station_Nam":"GERMANTOWN,WI","Latitude":"43.21670","Longitude":"-88.11670","Snowdepth":"23.000","Units":"in","Rept_Date":"2021-02-17 13"},"coordinates":[2143,6193]},{"type":"Point","properties":{"Station_ID":"CAN-QC-56","Station_Nam":"SUTTON 2.6 N, CAN","Latitude":"45.13119","Longitude":"-72.61218","Snowdepth":"23.000","Units":"in","Rept_Date":"2021-02-17 12"},"coordinates":[5781,7049]},{"type":"Point","properties":{"Station_ID":"CAN-QC-51","Station_Nam":"BELOEIL 0.7 NW, CAN","Latitude":"45.58049","Longitude":"-73.21218","Snowdepth":"23.000","Units":"in","Rept_Date":"2021-02-17 12"},"coordinates":[5640,7250]},{"type":"Point","properties":{"Station_ID":"BULV1","Station_Nam":"BUELS GORE","Latitude":"44.21910","Longitude":"-72.95170","Snowdepth":"23.000","Units":"in","Rept_Date":"2021-02-17 21"},"coordinates":[5701,6642]},{"type":"Point","properties":{"Station_ID":"BLTW3","Station_Nam":"BELOIT,WI","Latitude":"42.50000","Longitude":"-89.03330","Snowdepth":"23.000","Units":"in","Rept_Date":"2021-02-17 12"},"coordinates":[1928,5873]},{"type":"Point","properties":{"Station_ID":"BERM4","Station_Nam":"BERGLAND DAM","Latitude":"46.58690","Longitude":"-89.54750","Snowdepth":"23.000","Units":"in","Rept_Date":"2021-02-17 13"},"coordinates":[1807,7700]},{"type":"Point","properties":{"Station_ID":"IL-WL-63","Station_Nam":"NEW LENOX 1.8 SE, IL","Latitude":"41.49964","Longitude":"-87.96030","Snowdepth":"22.900","Units":"in","Rept_Date":"2021-02-17 13"},"coordinates":[2179,5425]},{"type":"Point","properties":{"Station_ID":"QFT","Station_Nam":"QFT","Latitude":"50.83280","Longitude":"-74.40390","Snowdepth":"22.598","Units":"in","Rept_Date":"2021-02-17 12"},"coordinates":[5360,9599]},{"type":"Point","properties":{"Station_ID":"VT-WR-2","Station_Nam":"POMFRET 2.6 N, VT","Latitude":"43.74230","Longitude":"-72.52550","Snowdepth":"22.500","Units":"in","Rept_Date":"2021-02-17 12"},"coordinates":[5801,6428]},{"type":"Point","properties":{"Station_ID":"NY-HM-10","Station_Nam":"LAKE PLEASANT 2.3 WSW, NY","Latitude":"43.45490","Longitude":"-74.45287","Snowdepth":"22.500","Units":"in","Rept_Date":"2021-02-17 12"},"coordinates":[5349,6300]},{"type":"Point","properties":{"Station_ID":"IL-CK-152","Station_Nam":"CHICAGO RIDGE 0.2 WSW, IL","Latitude":"41.70177","Longitude":"-87.78200","Snowdepth":"22.500","Units":"in","Rept_Date":"2021-02-17 13"},"coordinates":[2221,5516]},{"type":"Point","properties":{"Station_ID":"WV-PR-10","Station_Nam":"TERRA ALTA 4.9 NNE, WV","Latitude":"39.51024","Longitude":"-79.51024","Snowdepth":"22.000","Units":"in","Rept_Date":"2021-02-17 13"},"coordinates":[4162,4536]},{"type":"Point","properties":{"Station_ID":"ROWM3","Station_Nam":"ROWE 3NE","Latitude":"42.73500","Longitude":"-72.86920","Snowdepth":"22.000","Units":"in","Rept_Date":"2021-02-17 14"},"coordinates":[5720,5978]},{"type":"Point","properties":{"Station_ID":"NY-FK-7","Station_Nam":"SARANAC LAKE 6.2 N, NY","Latitude":"44.41359","Longitude":"-74.15211","Snowdepth":"22.000","Units":"in","Rept_Date":"2021-02-17 12"},"coordinates":[5419,6729]},{"type":"Point","properties":{"Station_ID":"NGLW3","Station_Nam":"NEW GLARUS","Latitude":"42.83500","Longitude":"-89.62080","Snowdepth":"22.000","Units":"in","Rept_Date":"2021-02-17 13"},"coordinates":[1790,6023]},{"type":"Point","properties":{"Station_ID":"IN-LP-7","Station_Nam":"LA PORTE 1.6 SW, IN","Latitude":"41.59040","Longitude":"-86.73430","Snowdepth":"22.000","Units":"in","Rept_Date":"2021-02-17 13"},"coordinates":[2467,5466]},{"type":"Point","properties":{"Station_ID":"IL-DP-118","Station_Nam":"DARIEN 0.4 SSE, IL","Latitude":"41.74312","Longitude":"-87.97462","Snowdepth":"22.000","Units":"in","Rept_Date":"2021-02-17 14"},"coordinates":[2176,5534]},{"type":"Point","properties":{"Station_ID":"IL-CK-214","Station_Nam":"ROGERS PARK 1.5 SW, IL","Latitude":"41.99567","Longitude":"-87.69180","Snowdepth":"22.000","Units":"in","Rept_Date":"2021-02-17 13"},"coordinates":[2242,5647]},{"type":"Point","properties":{"Station_ID":"FUTN6","Station_Nam":"FULTON","Latitude":"43.30500","Longitude":"-76.39380","Snowdepth":"22.000","Units":"in","Rept_Date":"2021-02-17 12"},"coordinates":[4893,6233]},{"type":"Point","properties":{"Station_ID":"CNRM1","Station_Nam":"CONNOR TWP","Latitude":"46.95830","Longitude":"-68.03330","Snowdepth":"22.000","Units":"in","Rept_Date":"2021-02-17 12"},"coordinates":[6855,7867]},{"type":"Point","properties":{"Station_ID":"CAN-ON-5","Station_Nam":"OWEN SOUND 1.5 NW - GSCA, CAN","Latitude":"44.57837","Longitude":"-80.95461","Snowdepth":"22.000","Units":"in","Rept_Date":"2021-02-17 13"},"coordinates":[3823,6802]},{"type":"Point","properties":{"Station_ID":"CAN-NB-13","Station_Nam":"BATHURST 3.8 NW, CAN","Latitude":"47.64212","Longitude":"-65.68756","Snowdepth":"22.000","Units":"in","Rept_Date":"2021-02-17 11"},"coordinates":[7405,8172]},{"type":"Point","properties":{"Station_ID":"CAN-NB-105","Station_Nam":"SISSON BROOK 3.8 E, CAN","Latitude":"46.98305","Longitude":"-67.32532","Snowdepth":"21.700","Units":"in","Rept_Date":"2021-02-17 12"},"coordinates":[7021,7878]},{"type":"Point","properties":{"Station_ID":"QTM","Station_Nam":"QTM","Latitude":"51.05780","Longitude":"-72.57190","Snowdepth":"21.535","Units":"in","Rept_Date":"2021-02-17 12"},"coordinates":[5790,9700]},{"type":"Point","properties":{"Station_ID":"VT-WS-30","Station_Nam":"WOODBURY 3.4 NNW, VT","Latitude":"44.48825","Longitude":"-72.43258","Snowdepth":"21.500","Units":"in","Rept_Date":"2021-02-17 12"},"coordinates":[5823,6762]},{"type":"Point","properties":{"Station_ID":"VT-WS-23","Station_Nam":"CABOT 2.3 E, VT","Latitude":"44.39807","Longitude":"-72.26570","Snowdepth":"21.500","Units":"in","Rept_Date":"2021-02-17 12"},"coordinates":[5862,6722]},{"type":"Point","properties":{"Station_ID":"NY-ES-6","Station_Nam":"OLMSTEDVILLE 4.6 NNE, NY","Latitude":"43.83350","Longitude":"-73.89780","Snowdepth":"21.500","Units":"in","Rept_Date":"2021-02-17 13"},"coordinates":[5479,6469]},{"type":"Point","properties":{"Station_ID":"CAN-ON-451","Station_Nam":"OWEN SOUND 1.2 N - GSCA, CAN","Latitude":"44.58092","Longitude":"-80.93025","Snowdepth":"21.500","Units":"in","Rept_Date":"2021-02-17 13"},"coordinates":[3829,6803]},{"type":"Point","properties":{"Station_ID":"QTV","Station_Nam":"QTV","Latitude":"49.66000","Longitude":"-69.35690","Snowdepth":"21.102","Units":"in","Rept_Date":"2021-02-17 12"},"coordinates":[6544,9075]},{"type":"Point","properties":{"Station_ID":"IL-MCH-80","Station_Nam":"HUNTLEY 0.1 SSE, IL","Latitude":"42.16628","Longitude":"-88.42308","Snowdepth":"21.100","Units":"in","Rept_Date":"2021-02-17 13"},"coordinates":[2071,5724]},{"type":"Point","properties":{"Station_ID":"WLFM5","Station_Nam":"WOLF RIDGE ENVIRON LEARNING CENTER","Latitude":"47.38240","Longitude":"-91.19730","Snowdepth":"21.000","Units":"in","Rept_Date":"2021-02-17 13"},"coordinates":[1420,8056]},{"type":"Point","properties":{"Station_ID":"WI-WW-12","Station_Nam":"ELKHORN 0.4 ESE, WI","Latitude":"42.66970","Longitude":"-88.53170","Snowdepth":"21.000","Units":"in","Rept_Date":"2021-02-17 11"},"coordinates":[2045,5949]},{"type":"Point","properties":{"Station_ID":"UGRW3","Station_Nam":"UNION GROVE,WI","Latitude":"42.70000","Longitude":"-88.03220","Snowdepth":"21.000","Units":"in","Rept_Date":"2021-02-17 13"},"coordinates":[2163,5962]},{"type":"Point","properties":{"Station_ID":"PTBN3","Station_Nam":"PITTSBURG RESERVOIR","Latitude":"45.04690","Longitude":"-71.38300","Snowdepth":"21.000","Units":"in","Rept_Date":"2021-02-17 12"},"coordinates":[6069,7012]},{"type":"Point","properties":{"Station_ID":"PEKN6","Station_Nam":"PECK LAKE","Latitude":"43.11500","Longitude":"-74.42360","Snowdepth":"21.000","Units":"in","Rept_Date":"2021-02-17 12"},"coordinates":[5356,6148]},{"type":"Point","properties":{"Station_ID":"NY-ER-166","Station_Nam":"BOSTON 2.5 NE, NY","Latitude":"42.65480","Longitude":"-78.70300","Snowdepth":"21.000","Units":"in","Rept_Date":"2021-02-17 12"},"coordinates":[4351,5942]},{"type":"Point","properties":{"Station_ID":"MKE","Station_Nam":"GEN MITCHELL INTL AIRPORT","Latitude":"42.94720","Longitude":"-87.89670","Snowdepth":"21.000","Units":"in","Rept_Date":"2021-02-18 00"},"coordinates":[2194,6073]},{"type":"Point","properties":{"Station_ID":"MI-BN-5","Station_Nam":"BUCHANAN 1.3 WNW, MI","Latitude":"41.83634","Longitude":"-86.38900","Snowdepth":"21.000","Units":"in","Rept_Date":"2021-02-17 12"},"coordinates":[2548,5576]},{"type":"Point","properties":{"Station_ID":"ME-AR-15","Station_Nam":"PRESQUE ISLE 1.3 WSW, ME","Latitude":"46.67960","Longitude":"-68.01270","Snowdepth":"21.000","Units":"in","Rept_Date":"2021-02-17 12"},"coordinates":[6860,7742]},{"type":"Point","properties":{"Station_ID":"MDWI2","Station_Nam":"BURBANK,IL","Latitude":"41.73330","Longitude":"-87.76670","Snowdepth":"21.000","Units":"in","Rept_Date":"2021-02-18 06"},"coordinates":[2225,5530]},{"type":"Point","properties":{"Station_ID":"LOWN6","Station_Nam":"LOWVILLE","Latitude":"43.79280","Longitude":"-75.48290","Snowdepth":"21.000","Units":"in","Rept_Date":"2021-02-17 12"},"coordinates":[5107,6451]},{"type":"Point","properties":{"Station_ID":"KMKE","Station_Nam":"GEN MITCHELL INTERNATIONAL  AIRPORT","Latitude":"42.95000","Longitude":"-87.90000","Snowdepth":"21.000","Units":"in","Rept_Date":"2021-02-18 06"},"coordinates":[2194,6074]},{"type":"Point","properties":{"Station_ID":"IN-PT-63","Station_Nam":"VALPARAISO 1.8 NW, IN","Latitude":"41.49775","Longitude":"-87.07300","Snowdepth":"21.000","Units":"in","Rept_Date":"2021-02-17 14"},"coordinates":[2388,5425]},{"type":"Point","properties":{"Station_ID":"IL-SP-27","Station_Nam":"DAVIS 2.7 N, IL","Latitude":"42.46110","Longitude":"-89.40890","Snowdepth":"21.000","Units":"in","Rept_Date":"2021-02-17 13"},"coordinates":[1839,5855]},{"type":"Point","properties":{"Station_ID":"HRTM1","Station_Nam":"HARTFORD","Latitude":"44.37440","Longitude":"-70.31620","Snowdepth":"21.000","Units":"in","Rept_Date":"2021-02-17 12"},"coordinates":[6319,6711]},{"type":"Point","properties":{"Station_ID":"CAN-ON-208","Station_Nam":"PAKENHAM 7.8 NNW, CAN","Latitude":"45.39166","Longitude":"-76.34111","Snowdepth":"21.000","Units":"in","Rept_Date":"2021-02-17 12"},"coordinates":[4906,7166]},{"type":"Point","properties":{"Station_ID":"FNLN3","Station_Nam":"FIRST CONNECTICUT LAKE","Latitude":"45.08500","Longitude":"-71.30670","Snowdepth":"20.600","Units":"in","Rept_Date":"2021-02-17 18"},"coordinates":[6087,7029]},{"type":"Point","properties":{"Station_ID":"WI-RK-12","Station_Nam":"JANESVILLE 3.1 W, WI","Latitude":"42.67576","Longitude":"-89.07614","Snowdepth":"20.500","Units":"in","Rept_Date":"2021-02-17 13"},"coordinates":[1918,5951]},{"type":"Point","properties":{"Station_ID":"VT-WS-19","Station_Nam":"WATERBURY 3.0 NW, VT","Latitude":"44.36060","Longitude":"-72.80770","Snowdepth":"20.500","Units":"in","Rept_Date":"2021-02-17 11"},"coordinates":[5735,6705]},{"type":"Point","properties":{"Station_ID":"NH-MR-41","Station_Nam":"NEWBURY 1.6 NW, NH","Latitude":"43.33667","Longitude":"-72.06060","Snowdepth":"20.500","Units":"in","Rept_Date":"2021-02-17 12"},"coordinates":[5910,6247]},{"type":"Point","properties":{"Station_ID":"ME-FR-22","Station_Nam":"FARMINGTON 4.8 NNW, ME","Latitude":"44.73396","Longitude":"-70.18007","Snowdepth":"20.500","Units":"in","Rept_Date":"2021-02-17 14"},"coordinates":[6351,6872]},{"type":"Point","properties":{"Station_ID":"IL-CK-316","Station_Nam":"OAK LAWN 0.8 WSW, IL","Latitude":"41.71069","Longitude":"-87.76631","Snowdepth":"20.500","Units":"in","Rept_Date":"2021-02-17 13"},"coordinates":[2225,5520]},{"type":"Point","properties":{"Station_ID":"CAN-ON-791","Station_Nam":"METCALFE 4.4 NNW, CAN","Latitude":"45.27286","Longitude":"-75.48952","Snowdepth":"20.500","Units":"in","Rept_Date":"2021-02-17 11"},"coordinates":[5105,7113]},{"type":"Point","properties":{"Station_ID":"CAN-NL-82","Station_Nam":"GANDER 2.7 NW, CAN","Latitude":"48.97737","Longitude":"-54.63396","Snowdepth":"20.500","Units":"in","Rept_Date":"2021-02-17 10"},"coordinates":[9999,8769]},{"type":"Point","properties":{"Station_ID":"QOU","Station_Nam":"QOU","Latitude":"50.79250","Longitude":"-69.67470","Snowdepth":"20.433","Units":"in","Rept_Date":"2021-02-17 12"},"coordinates":[6470,9581]},{"type":"Point","properties":{"Station_ID":"SELN3","Station_Nam":"SECOND CONNECTICUT LAKE","Latitude":"45.13640","Longitude":"-71.20140","Snowdepth":"20.200","Units":"in","Rept_Date":"2021-02-17 18"},"coordinates":[6112,7052]},{"type":"Point","properties":{"Station_ID":"QCO","Station_Nam":"QCO","Latitude":"51.45280","Longitude":"-72.20110","Snowdepth":"20.118","Units":"in","Rept_Date":"2021-02-17 12"},"coordinates":[5877,9876]},{"type":"Point","properties":{"Station_ID":"WVRV1","Station_Nam":"WRIGHTSVILLE DETENTION RESERVOIR","Latitude":"44.31060","Longitude":"-72.57530","Snowdepth":"20.000","Units":"in","Rept_Date":"2021-02-17 21"},"coordinates":[5789,6683]},{"type":"Point","properties":{"Station_ID":"WSWN6","Station_Nam":"WARSAW","Latitude":"42.74220","Longitude":"-78.20850","Snowdepth":"20.000","Units":"in","Rept_Date":"2021-02-17 12"},"coordinates":[4468,5981]},{"type":"Point","properties":{"Station_ID":"WELM4","Station_Nam":"WELLSTON TIPPY DAM","Latitude":"44.25860","Longitude":"-85.93940","Snowdepth":"20.000","Units":"in","Rept_Date":"2021-02-17 13"},"coordinates":[2654,6659]},{"type":"Point","properties":{"Station_ID":"WARV1","Station_Nam":"FOODBANK FARM","Latitude":"44.14220","Longitude":"-72.84340","Snowdepth":"20.000","Units":"in","Rept_Date":"2021-02-17 21"},"coordinates":[5726,6607]},{"type":"Point","properties":{"Station_ID":"WAIV1","Station_Nam":"WAITSFIELD","Latitude":"44.17560","Longitude":"-72.79610","Snowdepth":"20.000","Units":"in","Rept_Date":"2021-02-17 11"},"coordinates":[5737,6622]},{"type":"Point","properties":{"Station_ID":"VT-WS-11","Station_Nam":"WAITSFIELD 1.8 SE, VT","Latitude":"44.17551","Longitude":"-72.79540","Snowdepth":"20.000","Units":"in","Rept_Date":"2021-02-17 11"},"coordinates":[5738,6622]},{"type":"Point","properties":{"Station_ID":"VT-WH-30","Station_Nam":"MARLBORO 2.0 NNE, VT","Latitude":"42.88484","Longitude":"-72.70935","Snowdepth":"20.000","Units":"in","Rept_Date":"2021-02-17 13"},"coordinates":[5758,6045]},{"type":"Point","properties":{"Station_ID":"STOI2","Station_Nam":"STOCKTON 3 NNE","Latitude":"42.40050","Longitude":"-89.99580","Snowdepth":"20.000","Units":"in","Rept_Date":"2021-02-18 03"},"coordinates":[1702,5828]},{"type":"Point","properties":{"Station_ID":"RCNW3","Station_Nam":"RACINE,WI","Latitude":"42.70390","Longitude":"-87.76670","Snowdepth":"20.000","Units":"in","Rept_Date":"2021-02-17 14"},"coordinates":[2225,5964]},{"type":"Point","properties":{"Station_ID":"RANM1","Station_Nam":"RANGELEY","Latitude":"44.98910","Longitude":"-70.67190","Snowdepth":"20.000","Units":"in","Rept_Date":"2021-02-17 11"},"coordinates":[6236,6986]},{"type":"Point","properties":{"Station_ID":"PAEO2","Station_Nam":"PAWNEE","Latitude":"36.35660","Longitude":"-96.81080","Snowdepth":"20.000","Units":"in","Rept_Date":"2021-02-17 13"},"coordinates":[103,3126]},{"type":"Point","properties":{"Station_ID":"NY-MD-10","Station_Nam":"CAZENOVIA 2.9 SE, NY","Latitude":"42.90003","Longitude":"-75.81140","Snowdepth":"20.000","Units":"in","Rept_Date":"2021-02-17 12"},"coordinates":[5030,6052]},{"type":"Point","properties":{"Station_ID":"NY-ES-7","Station_Nam":"KEESEVILLE 0.8 SE, NY","Latitude":"44.49504","Longitude":"-73.47109","Snowdepth":"20.000","Units":"in","Rept_Date":"2021-02-17 12"},"coordinates":[5579,6765]},{"type":"Point","properties":{"Station_ID":"NY-ER-65","Station_Nam":"BOSTON 1.5 NE, NY","Latitude":"42.65470","Longitude":"-78.72010","Snowdepth":"20.000","Units":"in","Rept_Date":"2021-02-17 12"},"coordinates":[4347,5942]},{"type":"Point","properties":{"Station_ID":"NH-CR-26","Station_Nam":"CENTER SANDWICH 4.9 E, NH","Latitude":"43.80976","Longitude":"-71.34150","Snowdepth":"20.000","Units":"in","Rept_Date":"2021-02-17 12"},"coordinates":[6079,6459]},{"type":"Point","properties":{"Station_ID":"MTNV1","Station_Nam":"MOUNTAIN TOP ROAD","Latitude":"43.73640","Longitude":"-72.93670","Snowdepth":"20.000","Units":"in","Rept_Date":"2021-02-17 17"},"coordinates":[5704,6426]},{"type":"Point","properties":{"Station_ID":"MRLV1","Station_Nam":"MARLBORO","Latitude":"42.86000","Longitude":"-72.72000","Snowdepth":"20.000","Units":"in","Rept_Date":"2021-02-17 13"},"coordinates":[5755,6034]},{"type":"Point","properties":{"Station_ID":"MI-BG-3","Station_Nam":"THREE LAKES, MI","Latitude":"46.55730","Longitude":"-88.20770","Snowdepth":"20.000","Units":"in","Rept_Date":"2021-02-17 13"},"coordinates":[2121,7687]},{"type":"Point","properties":{"Station_ID":"MHRI4","Station_Nam":"MANCHESTER #2","Latitude":"42.47320","Longitude":"-91.45160","Snowdepth":"20.000","Units":"in","Rept_Date":"2021-02-17 13"},"coordinates":[1360,5861]},{"type":"Point","properties":{"Station_ID":"LNSI2","Station_Nam":"LANSING","Latitude":"41.54220","Longitude":"-87.54170","Snowdepth":"20.000","Units":"in","Rept_Date":"2021-02-17 13"},"coordinates":[2278,5445]},{"type":"Point","properties":{"Station_ID":"LEFV1","Station_Nam":"LEFFERTS GATE","Latitude":"43.71580","Longitude":"-72.90670","Snowdepth":"20.000","Units":"in","Rept_Date":"2021-02-17 17"},"coordinates":[5712,6417]},{"type":"Point","properties":{"Station_ID":"KMDW","Station_Nam":"CHICAGO MIDWAY AIRPORT","Latitude":"41.78333","Longitude":"-87.75000","Snowdepth":"20.000","Units":"in","Rept_Date":"2021-02-18 06"},"coordinates":[2229,5552]},{"type":"Point","properties":{"Station_ID":"JCBM4","Station_Nam":"JACOBSVILLE","Latitude":"47.00830","Longitude":"-88.43180","Snowdepth":"20.000","Units":"in","Rept_Date":"2021-02-17 12"},"coordinates":[2069,7889]},{"type":"Point","properties":{"Station_ID":"IWOM4","Station_Nam":"IRONWOOD#2","Latitude":"46.46520","Longitude":"-90.13820","Snowdepth":"20.000","Units":"in","Rept_Date":"2021-02-17 13"},"coordinates":[1668,7646]},{"type":"Point","properties":{"Station_ID":"IN-PT-157","Station_Nam":"PORTAGE 2.4 NNW, IN","Latitude":"41.61942","Longitude":"-87.19629","Snowdepth":"20.000","Units":"in","Rept_Date":"2021-02-17 12"},"coordinates":[2359,5479]},{"type":"Point","properties":{"Station_ID":"IL-WL-80","Station_Nam":"LOCKPORT 1.3 SE, IL","Latitude":"41.57454","Longitude":"-88.03300","Snowdepth":"20.000","Units":"in","Rept_Date":"2021-02-17 13"},"coordinates":[2162,5459]},{"type":"Point","properties":{"Station_ID":"IL-WL-25","Station_Nam":"CRETE 2.6 E, IL","Latitude":"41.44681","Longitude":"-87.56570","Snowdepth":"20.000","Units":"in","Rept_Date":"2021-02-17 13"},"coordinates":[2272,5402]},{"type":"Point","properties":{"Station_ID":"IL-WL-131","Station_Nam":"HOMER GLEN 0.7 NNE, IL","Latitude":"41.60842","Longitude":"-87.93270","Snowdepth":"20.000","Units":"in","Rept_Date":"2021-02-17 13"},"coordinates":[2186,5474]},{"type":"Point","properties":{"Station_ID":"IL-JD-8","Station_Nam":"STOCKTON 3.4 NNE, IL","Latitude":"42.39960","Longitude":"-89.99020","Snowdepth":"20.000","Units":"in","Rept_Date":"2021-02-17 13"},"coordinates":[1703,5828]},{"type":"Point","properties":{"Station_ID":"IL-DP-127","Station_Nam":"DOWNERS GROVE 0.4 NNE, IL","Latitude":"41.80331","Longitude":"-88.01542","Snowdepth":"20.000","Units":"in","Rept_Date":"2021-02-17 13"},"coordinates":[2166,5561]},{"type":"Point","properties":{"Station_ID":"IL-CK-336","Station_Nam":"EVANSTON 0.8 ESE, IL","Latitude":"42.04309","Longitude":"-87.67920","Snowdepth":"20.000","Units":"in","Rept_Date":"2021-02-17 14"},"coordinates":[2245,5669]},{"type":"Point","properties":{"Station_ID":"HURW3","Station_Nam":"HURLEY","Latitude":"46.46250","Longitude":"-90.19550","Snowdepth":"20.000","Units":"in","Rept_Date":"2021-02-17 14"},"coordinates":[1655,7645]},{"type":"Point","properties":{"Station_ID":"FARM1","Station_Nam":"FARMINGTON","Latitude":"44.68930","Longitude":"-70.15640","Snowdepth":"20.000","Units":"in","Rept_Date":"2021-02-17 12"},"coordinates":[6357,6852]},{"type":"Point","properties":{"Station_ID":"ESDN3","Station_Nam":"EAST SANDWICH","Latitude":"43.80990","Longitude":"-71.34250","Snowdepth":"20.000","Units":"in","Rept_Date":"2021-02-17 18"},"coordinates":[6079,6459]},{"type":"Point","properties":{"Station_ID":"EMRV1","Station_Nam":"LAKE ELMORE RAWS","Latitude":"44.54310","Longitude":"-72.52940","Snowdepth":"20.000","Units":"in","Rept_Date":"2021-02-17 21"},"coordinates":[5800,6786]},{"type":"Point","properties":{"Station_ID":"CARM1","Station_Nam":"CARIBOU WFO","Latitude":"46.86810","Longitude":"-68.01250","Snowdepth":"20.000","Units":"in","Rept_Date":"2021-02-18 05"},"coordinates":[6860,7826]},{"type":"Point","properties":{"Station_ID":"CAR","Station_Nam":"CARIBOU, ME","Latitude":"46.86830","Longitude":"-68.01360","Snowdepth":"20.000","Units":"in","Rept_Date":"2021-02-17 12"},"coordinates":[6860,7826]},{"type":"Point","properties":{"Station_ID":"CAN-NB-18","Station_Nam":"MCLEOD HILL 1.1 ENE, CA","Latitude":"46.02725","Longitude":"-66.67460","Snowdepth":"20.000","Units":"in","Rept_Date":"2021-02-17 12"},"coordinates":[7174,7450]},{"type":"Point","properties":{"Station_ID":"BWTN6","Station_Nam":"BREWERTON LOCK 23","Latitude":"43.23860","Longitude":"-76.19640","Snowdepth":"20.000","Units":"in","Rept_Date":"2021-02-17 12"},"coordinates":[4940,6203]},{"type":"Point","properties":{"Station_ID":"IL-LE-22","Station_Nam":"AMBOY 0.5 SSW, IL","Latitude":"41.71016","Longitude":"-89.33695","Snowdepth":"19.700","Units":"in","Rept_Date":"2021-02-17 12"},"coordinates":[1856,5520]},{"type":"Point","properties":{"Station_ID":"CAN-ON-741","Station_Nam":"KIMBERLEY 2.7 WSW, CAN","Latitude":"44.37820","Longitude":"-80.56956","Snowdepth":"19.700","Units":"in","Rept_Date":"2021-02-17 15"},"coordinates":[3914,6713]},{"type":"Point","properties":{"Station_ID":"WI-RC-33","Station_Nam":"RACINE 5.9 N, WI","Latitude":"42.81268","Longitude":"-87.81460","Snowdepth":"19.500","Units":"in","Rept_Date":"2021-02-17 13"},"coordinates":[2214,6013]},{"type":"Point","properties":{"Station_ID":"MI-CX-7","Station_Nam":"EAST JORDAN 2.1 NNW, MI","Latitude":"45.18639","Longitude":"-85.14750","Snowdepth":"19.500","Units":"in","Rept_Date":"2021-02-17 13"},"coordinates":[2839,7074]},{"type":"Point","properties":{"Station_ID":"IN-PT-110","Station_Nam":"CHESTERTON 1.4 ENE, IN","Latitude":"41.61204","Longitude":"-87.03401","Snowdepth":"19.500","Units":"in","Rept_Date":"2021-02-17 13"},"coordinates":[2397,5476]},{"type":"Point","properties":{"Station_ID":"QLP","Station_Nam":"QLP","Latitude":"48.13920","Longitude":"-72.63830","Snowdepth":"19.370","Units":"in","Rept_Date":"2021-02-17 12"},"coordinates":[5775,8395]},{"type":"Point","properties":{"Station_ID":"OGIQ6","Station_Nam":"OGOKI CAMP","Latitude":"50.76680","Longitude":"-87.85820","Snowdepth":"19.020","Units":"in","Rept_Date":"2021-02-18 06"},"coordinates":[2203,9570]},{"type":"Point","properties":{"Station_ID":"WRSN6","Station_Nam":"WARSAW 6SW","Latitude":"42.68550","Longitude":"-78.22020","Snowdepth":"19.000","Units":"in","Rept_Date":"2021-02-17 12"},"coordinates":[4465,5956]},{"type":"Point","properties":{"Station_ID":"WPFN6","Station_Nam":"MARIPOSA 1NNW SNOW","Latitude":"42.73330","Longitude":"-75.81670","Snowdepth":"19.000","Units":"in","Rept_Date":"2021-02-17 13"},"coordinates":[5029,5977]},{"type":"Point","properties":{"Station_ID":"WORV1","Station_Nam":"WORCESTER 2 W","Latitude":"44.37470","Longitude":"-72.58220","Snowdepth":"19.000","Units":"in","Rept_Date":"2021-02-17 12"},"coordinates":[5788,6711]},{"type":"Point","properties":{"Station_ID":"WI-VL-9","Station_Nam":"LAND O' LAKES 11.7 W, WI","Latitude":"46.19023","Longitude":"-89.45790","Snowdepth":"19.000","Units":"in","Rept_Date":"2021-02-17 13"},"coordinates":[1828,7523]},{"type":"Point","properties":{"Station_ID":"VT-WS-10","Station_Nam":"NORTHFIELD 1.5 N, VT","Latitude":"44.16986","Longitude":"-72.65200","Snowdepth":"19.000","Units":"in","Rept_Date":"2021-02-17 12"},"coordinates":[5771,6620]},{"type":"Point","properties":{"Station_ID":"VT-WR-10","Station_Nam":"WEST WINDSOR 1.7 S, VT","Latitude":"43.46164","Longitude":"-72.49197","Snowdepth":"19.000","Units":"in","Rept_Date":"2021-02-17 12"},"coordinates":[5809,6303]},{"type":"Point","properties":{"Station_ID":"VT-BN-7","Station_Nam":"MANCHESTER 2.8 ENE, VT","Latitude":"43.17274","Longitude":"-73.01811","Snowdepth":"19.000","Units":"in","Rept_Date":"2021-02-17 12"},"coordinates":[5685,6174]},{"type":"Point","properties":{"Station_ID":"VT-AD-20","Station_Nam":"HANCOCK 0.3 S, VT","Latitude":"43.92166","Longitude":"-72.84042","Snowdepth":"19.000","Units":"in","Rept_Date":"2021-02-17 12"},"coordinates":[5727,6509]},{"type":"Point","properties":{"Station_ID":"STOW3","Station_Nam":"STOUGHTON,WI","Latitude":"42.91670","Longitude":"-89.21670","Snowdepth":"19.000","Units":"in","Rept_Date":"2021-02-17 13"},"coordinates":[1885,6059]},{"type":"Point","properties":{"Station_ID":"SSMM4","Station_Nam":"SAULT STE MARIE","Latitude":"46.48660","Longitude":"-84.40250","Snowdepth":"19.000","Units":"in","Rept_Date":"2021-02-17 13"},"coordinates":[3014,7656]},{"type":"Point","properties":{"Station_ID":"RGNM1","Station_Nam":"RANGELEY 2NW","Latitude":"44.98940","Longitude":"-70.67220","Snowdepth":"19.000","Units":"in","Rept_Date":"2021-02-17 11"},"coordinates":[6236,6986]},{"type":"Point","properties":{"Station_ID":"PEOI2","Station_Nam":"PEOTONE,IL","Latitude":"41.33330","Longitude":"-87.80000","Snowdepth":"19.000","Units":"in","Rept_Date":"2021-02-17 13"},"coordinates":[2217,5351]},{"type":"Point","properties":{"Station_ID":"NY-OS-15","Station_Nam":"MINETTO 0.1 SE, NY","Latitude":"43.39771","Longitude":"-76.47960","Snowdepth":"19.000","Units":"in","Rept_Date":"2021-02-17 13"},"coordinates":[4873,6274]},{"type":"Point","properties":{"Station_ID":"NY-ER-56","Station_Nam":"COLDEN 1.4 NNW, NY","Latitude":"42.64740","Longitude":"-78.71120","Snowdepth":"19.000","Units":"in","Rept_Date":"2021-02-17 12"},"coordinates":[4350,5939]},{"type":"Point","properties":{"Station_ID":"MRRN6","Station_Nam":"MORRISVILLE 6 SW","Latitude":"42.84160","Longitude":"-75.72630","Snowdepth":"19.000","Units":"in","Rept_Date":"2021-02-17 12"},"coordinates":[5050,6026]},{"type":"Point","properties":{"Station_ID":"MI-AG-6","Station_Nam":"MUNISING 11.1 SSW, MI","Latitude":"46.27805","Longitude":"-86.75747","Snowdepth":"19.000","Units":"in","Rept_Date":"2021-02-17 12"},"coordinates":[2462,7562]},{"type":"Point","properties":{"Station_ID":"MA-HS-7","Station_Nam":"PLAINFIELD 2.2 SW, MA","Latitude":"42.49272","Longitude":"-72.94540","Snowdepth":"19.000","Units":"in","Rept_Date":"2021-02-17 13"},"coordinates":[5702,5870]},{"type":"Point","properties":{"Station_ID":"LNOW3","Station_Nam":"LAND O LAKES","Latitude":"46.19000","Longitude":"-89.45700","Snowdepth":"19.000","Units":"in","Rept_Date":"2021-02-17 13"},"coordinates":[1828,7523]},{"type":"Point","properties":{"Station_ID":"IL-WL-46","Station_Nam":"PEOTONE 0.4 ENE, IL","Latitude":"41.33361","Longitude":"-87.78910","Snowdepth":"19.000","Units":"in","Rept_Date":"2021-02-17 13"},"coordinates":[2220,5351]},{"type":"Point","properties":{"Station_ID":"IL-WL-149","Station_Nam":"BULT FIELD-MONEE 4.9 SE, IL","Latitude":"41.37740","Longitude":"-87.67975","Snowdepth":"19.000","Units":"in","Rept_Date":"2021-02-17 14"},"coordinates":[2245,5371]},{"type":"Point","properties":{"Station_ID":"IL-MCH-95","Station_Nam":"CARY 0.5 SSW, IL","Latitude":"42.20235","Longitude":"-88.25224","Snowdepth":"19.000","Units":"in","Rept_Date":"2021-02-17 12"},"coordinates":[2111,5740]},{"type":"Point","properties":{"Station_ID":"GTTI4","Station_Nam":"LOCK & DAM 10","Latitude":"42.78580","Longitude":"-91.09970","Snowdepth":"19.000","Units":"in","Rept_Date":"2021-02-17 14"},"coordinates":[1443,6001]},{"type":"Point","properties":{"Station_ID":"GLEI2","Station_Nam":"GLEN ELLYN 4S","Latitude":"41.82670","Longitude":"-88.05810","Snowdepth":"19.000","Units":"in","Rept_Date":"2021-02-17 13"},"coordinates":[2156,5572]},{"type":"Point","properties":{"Station_ID":"ERM45","Station_Nam":"CEBA MARIPOSA","Latitude":"42.70000","Longitude":"-75.80000","Snowdepth":"19.000","Units":"in","Rept_Date":"2021-02-17 17"},"coordinates":[5033,5962]},{"type":"Point","properties":{"Station_ID":"EJNM4","Station_Nam":"EAST JORDAN 2NW","Latitude":"45.18630","Longitude":"-85.14770","Snowdepth":"19.000","Units":"in","Rept_Date":"2021-02-17 13"},"coordinates":[2839,7074]},{"type":"Point","properties":{"Station_ID":"DXNI2","Station_Nam":"DIXON,IL","Latitude":"41.83330","Longitude":"-89.51670","Snowdepth":"19.000","Units":"in","Rept_Date":"2021-02-17 14"},"coordinates":[1814,5575]},{"type":"Point","properties":{"Station_ID":"CODN6","Station_Nam":"COLDEN","Latitude":"42.64720","Longitude":"-78.71110","Snowdepth":"19.000","Units":"in","Rept_Date":"2021-02-17 12"},"coordinates":[4350,5939]},{"type":"Point","properties":{"Station_ID":"CAN-ON-42","Station_Nam":"VANKLEEK HILL 3.4 S, CA","Latitude":"45.48987","Longitude":"-74.64570","Snowdepth":"19.000","Units":"in","Rept_Date":"2021-02-17 12"},"coordinates":[5303,7210]},{"type":"Point","properties":{"Station_ID":"ANJM4","Station_Nam":"SNOW PAID OBSERVER FOR KANJ","Latitude":"46.48670","Longitude":"-84.40260","Snowdepth":"19.000","Units":"in","Rept_Date":"2021-02-17 18"},"coordinates":[3014,7656]},{"type":"Point","properties":{"Station_ID":"ANJ","Station_Nam":"SAULT STE MARIE","Latitude":"46.46670","Longitude":"-84.36670","Snowdepth":"19.000","Units":"in","Rept_Date":"2021-02-18 00"},"coordinates":[3023,7647]},{"type":"Point","properties":{"Station_ID":"CAN-ON-757","Station_Nam":"SAULT STE. MARIE 2.8 ESE - GLFC, CAN","Latitude":"46.50300","Longitude":"-84.30300","Snowdepth":"18.600","Units":"in","Rept_Date":"2021-02-17 13"},"coordinates":[3038,7663]},{"type":"Point","properties":{"Station_ID":"QMD","Station_Nam":"QMD","Latitude":"49.29060","Longitude":"-75.84500","Snowdepth":"18.583","Units":"in","Rept_Date":"2021-02-17 12"},"coordinates":[5022,8910]},{"type":"Point","properties":{"Station_ID":"VT-OL-9","Station_Nam":"GREENSBORO 2.1 NNW, VT","Latitude":"44.60528","Longitude":"-72.30940","Snowdepth":"18.500","Units":"in","Rept_Date":"2021-02-17 12"},"coordinates":[5852,6814]},{"type":"Point","properties":{"Station_ID":"VT-FR-21","Station_Nam":"FAIRFAX 4.9 WNW, VT","Latitude":"44.68880","Longitude":"-73.10340","Snowdepth":"18.500","Units":"in","Rept_Date":"2021-02-17 14"},"coordinates":[5665,6852]},{"type":"Point","properties":{"Station_ID":"VT-CH-11","Station_Nam":"UNDERHILL 5.1 NNE, VT","Latitude":"44.59811","Longitude":"-72.91880","Snowdepth":"18.500","Units":"in","Rept_Date":"2021-02-17 13"},"coordinates":[5709,6811]},{"type":"Point","properties":{"Station_ID":"NY-ER-63","Station_Nam":"GLENWOOD 1.5 SE, NY","Latitude":"42.60195","Longitude":"-78.63910","Snowdepth":"18.500","Units":"in","Rept_Date":"2021-02-17 13"},"coordinates":[4366,5918]},{"type":"Point","properties":{"Station_ID":"NH-CS-19","Station_Nam":"CARROLL 4.6 NE, NH","Latitude":"44.33765","Longitude":"-71.46461","Snowdepth":"18.500","Units":"in","Rept_Date":"2021-02-17 12"},"coordinates":[6050,6695]},{"type":"Point","properties":{"Station_ID":"IN-PT-163","Station_Nam":"VALPARAISO 2.2 NW, IN","Latitude":"41.50298","Longitude":"-87.07452","Snowdepth":"18.500","Units":"in","Rept_Date":"2021-02-17 16"},"coordinates":[2387,5427]},{"type":"Point","properties":{"Station_ID":"IN-JS-37","Station_Nam":"DE MOTTE 0.8 NNW, IN","Latitude":"41.21043","Longitude":"-87.20540","Snowdepth":"18.500","Units":"in","Rept_Date":"2021-02-17 12"},"coordinates":[2357,5296]},{"type":"Point","properties":{"Station_ID":"IL-DP-78","Station_Nam":"NAPERVILLE 2.4 SE, IL","Latitude":"41.74184","Longitude":"-88.11620","Snowdepth":"18.500","Units":"in","Rept_Date":"2021-02-17 13"},"coordinates":[2143,5534]},{"type":"Point","properties":{"Station_ID":"CAN-NL-65","Station_Nam":"KIPPENS 0.7 NE, CA","Latitude":"48.55436","Longitude":"-58.61850","Snowdepth":"18.500","Units":"in","Rept_Date":"2021-02-17 12"},"coordinates":[9064,8580]},{"type":"Point","properties":{"Station_ID":"SOCQ6","Station_Nam":"SOCKET LAKE","Latitude":"50.77870","Longitude":"-91.79300","Snowdepth":"18.270","Units":"in","Rept_Date":"2021-02-18 06"},"coordinates":[1280,9575]},{"type":"Point","properties":{"Station_ID":"WI-WW-2","Station_Nam":"LAKE GENEVA 0.6 ENE, WI","Latitude":"42.59169","Longitude":"-88.41770","Snowdepth":"18.200","Units":"in","Rept_Date":"2021-02-17 13"},"coordinates":[2072,5914]},{"type":"Point","properties":{"Station_ID":"KABQ6","Station_Nam":"CAB LAKE","Latitude":"49.59950","Longitude":"-89.17990","Snowdepth":"18.110","Units":"in","Rept_Date":"2021-02-18 06"},"coordinates":[1893,9048]},{"type":"Point","properties":{"Station_ID":"WTNM4","Station_Nam":"WATTON 2WSW","Latitude":"46.52660","Longitude":"-88.64240","Snowdepth":"18.000","Units":"in","Rept_Date":"2021-02-17 13"},"coordinates":[2019,7673]},{"type":"Point","properties":{"Station_ID":"WSFW3","Station_Nam":"TOWN OF WESTFORD","Latitude":"43.47190","Longitude":"-88.88250","Snowdepth":"18.000","Units":"in","Rept_Date":"2021-02-17 13"},"coordinates":[1963,6307]},{"type":"Point","properties":{"Station_ID":"WSFN6","Station_Nam":"WEST FALLS SNOW","Latitude":"42.68470","Longitude":"-78.68710","Snowdepth":"18.000","Units":"in","Rept_Date":"2021-02-17 18"},"coordinates":[4355,5955]},{"type":"Point","properties":{"Station_ID":"WI-OZ-12","Station_Nam":"PORT WASHINGTON 0.5 S, WI","Latitude":"43.38610","Longitude":"-87.87900","Snowdepth":"18.000","Units":"in","Rept_Date":"2021-02-17 13"},"coordinates":[2198,6269]},{"type":"Point","properties":{"Station_ID":"WI-MW-43","Station_Nam":"BROWN DEER 0.8 NW, WI","Latitude":"43.18438","Longitude":"-87.98401","Snowdepth":"18.000","Units":"in","Rept_Date":"2021-02-17 13"},"coordinates":[2174,6179]},{"type":"Point","properties":{"Station_ID":"WI-DD-16","Station_Nam":"BEAVER DAM 2.4 WNW, WI","Latitude":"43.47210","Longitude":"-88.88280","Snowdepth":"18.000","Units":"in","Rept_Date":"2021-02-17 13"},"coordinates":[1963,6308]},{"type":"Point","properties":{"Station_ID":"WI-BY-29","Station_Nam":"BAYFIELD 5.1 NNW, WI","Latitude":"46.88063","Longitude":"-90.85854","Snowdepth":"18.000","Units":"in","Rept_Date":"2021-02-17 14"},"coordinates":[1499,7832]},{"type":"Point","properties":{"Station_ID":"VT-WH-19","Station_Nam":"EAST DOVER 1.8 N, VT","Latitude":"42.97658","Longitude":"-72.77637","Snowdepth":"18.000","Units":"in","Rept_Date":"2021-02-17 12"},"coordinates":[5742,6086]},{"type":"Point","properties":{"Station_ID":"VT-OL-25","Station_Nam":"NEWPORT 1.5 WSW, VT","Latitude":"44.93059","Longitude":"-72.23731","Snowdepth":"18.000","Units":"in","Rept_Date":"2021-02-17 12"},"coordinates":[5869,6960]},{"type":"Point","properties":{"Station_ID":"VT-CH-7","Station_Nam":"HUNTINGTON 1.1 E, VT","Latitude":"44.32488","Longitude":"-72.96570","Snowdepth":"18.000","Units":"in","Rept_Date":"2021-02-17 12"},"coordinates":[5698,6689]},{"type":"Point","properties":{"Station_ID":"TOL","Station_Nam":"EUGENE F KRANZ TOLEDO EXPRESS","Latitude":"41.58750","Longitude":"-83.80530","Snowdepth":"18.000","Units":"in","Rept_Date":"2021-02-18 00"},"coordinates":[3154,5465]},{"type":"Point","properties":{"Station_ID":"SUTV1","Station_Nam":"SUTTON","Latitude":"44.61220","Longitude":"-72.04810","Snowdepth":"18.000","Units":"in","Rept_Date":"2021-02-17 13"},"coordinates":[5913,6817]},{"type":"Point","properties":{"Station_ID":"STEM4","Station_Nam":"STEUBEN","Latitude":"46.18530","Longitude":"-86.46410","Snowdepth":"18.000","Units":"in","Rept_Date":"2021-02-17 14"},"coordinates":[2530,7521]},{"type":"Point","properties":{"Station_ID":"SNYI4","Station_Nam":"STANLEY","Latitude":"42.63330","Longitude":"-91.86320","Snowdepth":"18.000","Units":"in","Rept_Date":"2021-02-17 13"},"coordinates":[1264,5932]},{"type":"Point","properties":{"Station_ID":"RZZI3","Station_Nam":"RENSSELAER","Latitude":"40.92380","Longitude":"-87.17540","Snowdepth":"18.000","Units":"in","Rept_Date":"2021-02-17 13"},"coordinates":[2364,5168]},{"type":"Point","properties":{"Station_ID":"RCHW3","Station_Nam":"RICHRIELD,WI","Latitude":"43.21080","Longitude":"-88.20940","Snowdepth":"18.000","Units":"in","Rept_Date":"2021-02-17 12"},"coordinates":[2121,6191]},{"type":"Point","properties":{"Station_ID":"OH-HC-12","Station_Nam":"FINDLAY 0.4 WSW, OH","Latitude":"41.04010","Longitude":"-83.64919","Snowdepth":"18.000","Units":"in","Rept_Date":"2021-02-17 12"},"coordinates":[3191,5220]},{"type":"Point","properties":{"Station_ID":"OH-AL-8","Station_Nam":"DELPHOS 2.3 ESE, OH","Latitude":"40.83350","Longitude":"-84.29820","Snowdepth":"18.000","Units":"in","Rept_Date":"2021-02-17 12"},"coordinates":[3039,5128]},{"type":"Point","properties":{"Station_ID":"NY-SR-22","Station_Nam":"GREENFIELD CENTER 1.6 W, NY","Latitude":"43.12684","Longitude":"-73.87860","Snowdepth":"18.000","Units":"in","Rept_Date":"2021-02-17 14"},"coordinates":[5483,6153]},{"type":"Point","properties":{"Station_ID":"NY-OS-38","Station_Nam":"MEXICO COOP, NY","Latitude":"43.43830","Longitude":"-76.26570","Snowdepth":"18.000","Units":"in","Rept_Date":"2021-02-17 12"},"coordinates":[4923,6292]},{"type":"Point","properties":{"Station_ID":"NVLV1","Station_Nam":"NASHVILLE","Latitude":"44.44970","Longitude":"-72.92640","Snowdepth":"18.000","Units":"in","Rept_Date":"2021-02-17 12"},"coordinates":[5707,6745]},{"type":"Point","properties":{"Station_ID":"NPTV1","Station_Nam":"NEWPORT","Latitude":"44.94900","Longitude":"-72.19120","Snowdepth":"18.000","Units":"in","Rept_Date":"2021-02-17 12"},"coordinates":[5879,6968]},{"type":"Point","properties":{"Station_ID":"NH-CR-41","Station_Nam":"ALBANY 2.8 SW, NH","Latitude":"43.92648","Longitude":"-71.21556","Snowdepth":"18.000","Units":"in","Rept_Date":"2021-02-17 13"},"coordinates":[6108,6511]},{"type":"Point","properties":{"Station_ID":"MXON6","Station_Nam":"MEXICO","Latitude":"43.43830","Longitude":"-76.26560","Snowdepth":"18.000","Units":"in","Rept_Date":"2021-02-17 12"},"coordinates":[4923,6292]},{"type":"Point","properties":{"Station_ID":"MTCI2","Station_Nam":"MOUNT CARROLL","Latitude":"42.09800","Longitude":"-89.98410","Snowdepth":"18.000","Units":"in","Rept_Date":"2021-02-17 13"},"coordinates":[1705,5693]},{"type":"Point","properties":{"Station_ID":"MQT","Station_Nam":"MARQUETTE, MI","Latitude":"46.53140","Longitude":"-87.54920","Snowdepth":"18.000","Units":"in","Rept_Date":"2021-02-18 06"},"coordinates":[2276,7676]},{"type":"Point","properties":{"Station_ID":"MI-KZ-1","Station_Nam":"KALAMAZOO 6.0 SW, MI","Latitude":"42.20613","Longitude":"-85.65900","Snowdepth":"18.000","Units":"in","Rept_Date":"2021-02-17 13"},"coordinates":[2719,5741]},{"type":"Point","properties":{"Station_ID":"LODW3","Station_Nam":"LODI","Latitude":"43.32170","Longitude":"-89.53110","Snowdepth":"18.000","Units":"in","Rept_Date":"2021-02-17 13"},"coordinates":[1811,6240]},{"type":"Point","properties":{"Station_ID":"KORD","Station_Nam":"CHICAGO OHARE INTERNATIONAL","Latitude":"41.98333","Longitude":"-87.91666","Snowdepth":"18.000","Units":"in","Rept_Date":"2021-02-18 06"},"coordinates":[2190,5642]},{"type":"Point","properties":{"Station_ID":"KGTB","Station_Nam":"FORT DRUM / WHEELER-SACK U. S. ARMY AIRFIELD","Latitude":"44.05000","Longitude":"-75.73333","Snowdepth":"18.000","Units":"in","Rept_Date":"2021-02-18 06"},"coordinates":[5048,6566]},{"type":"Point","properties":{"Station_ID":"JOHV1","Station_Nam":"JOHNSON 2 N","Latitude":"44.65790","Longitude":"-72.67850","Snowdepth":"18.000","Units":"in","Rept_Date":"2021-02-17 12"},"coordinates":[5765,6838]},{"type":"Point","properties":{"Station_ID":"JKMM1","Station_Nam":"JACKMAN","Latitude":"45.62600","Longitude":"-70.24600","Snowdepth":"18.000","Units":"in","Rept_Date":"2021-02-17 12"},"coordinates":[6336,7271]},{"type":"Point","properties":{"Station_ID":"ISLV1","Station_Nam":"ISLAND POND","Latitude":"44.81280","Longitude":"-71.89020","Snowdepth":"18.000","Units":"in","Rept_Date":"2021-02-17 13"},"coordinates":[5950,6907]},{"type":"Point","properties":{"Station_ID":"INDN6","Station_Nam":"INDIAN LAKE","Latitude":"43.75500","Longitude":"-74.27560","Snowdepth":"18.000","Units":"in","Rept_Date":"2021-02-17 13"},"coordinates":[5390,6434]},{"type":"Point","properties":{"Station_ID":"IN-HT-15","Station_Nam":"WARREN 4.9 NNE, IN","Latitude":"40.74758","Longitude":"-85.37605","Snowdepth":"18.000","Units":"in","Rept_Date":"2021-02-17 12"},"coordinates":[2786,5089]},{"type":"Point","properties":{"Station_ID":"IL-LK-81","Station_Nam":"LAKE VILLA 2.3 WSW, IL","Latitude":"42.40532","Longitude":"-88.12380","Snowdepth":"18.000","Units":"in","Rept_Date":"2021-02-17 13"},"coordinates":[2141,5831]},{"type":"Point","properties":{"Station_ID":"IL-DP-79","Station_Nam":"BURR RIDGE 1.9 SW, IL","Latitude":"41.73194","Longitude":"-87.94860","Snowdepth":"18.000","Units":"in","Rept_Date":"2021-02-17 13"},"coordinates":[2182,5529]},{"type":"Point","properties":{"Station_ID":"IL-DK-24","Station_Nam":"SOMONAUK 1.9 NE, IL","Latitude":"41.65063","Longitude":"-88.65663","Snowdepth":"18.000","Units":"in","Rept_Date":"2021-02-17 11"},"coordinates":[2016,5493]},{"type":"Point","properties":{"Station_ID":"IL-CR-12","Station_Nam":"MOUNT CARROLL 6.8 NNW, IL","Latitude":"42.18735","Longitude":"-90.02185","Snowdepth":"18.000","Units":"in","Rept_Date":"2021-02-17 13"},"coordinates":[1696,5733]},{"type":"Point","properties":{"Station_ID":"IL-CK-306","Station_Nam":"OAK FOREST 0.6 N, IL","Latitude":"41.61550","Longitude":"-87.75070","Snowdepth":"18.000","Units":"in","Rept_Date":"2021-02-17 13"},"coordinates":[2229,5477]},{"type":"Point","properties":{"Station_ID":"IL-CK-131","Station_Nam":"SCHAUMBURG 2.0 E, IL","Latitude":"42.03028","Longitude":"-88.04400","Snowdepth":"18.000","Units":"in","Rept_Date":"2021-02-17 13"},"coordinates":[2160,5663]},{"type":"Point","properties":{"Station_ID":"IL-BN-19","Station_Nam":"BELVIDERE 5.0 NNW, IL","Latitude":"42.32071","Longitude":"-88.88282","Snowdepth":"18.000","Units":"in","Rept_Date":"2021-02-17 13"},"coordinates":[1963,5793]},{"type":"Point","properties":{"Station_ID":"IA-ST-1","Station_Nam":"LE CLAIRE 1.8 NNE, IA","Latitude":"41.62355","Longitude":"-90.35140","Snowdepth":"18.000","Units":"in","Rept_Date":"2021-02-17 13"},"coordinates":[1618,5481]},{"type":"Point","properties":{"Station_ID":"HVJP1","Station_Nam":"HIDDEN VALLEY COOP","Latitude":"40.04200","Longitude":"-79.25660","Snowdepth":"18.000","Units":"in","Rept_Date":"2021-02-17 13"},"coordinates":[4222,4774]},{"type":"Point","properties":{"Station_ID":"FOTN6","Station_Nam":"FOOTES - CONCORD SNOW","Latitude":"42.57950","Longitude":"-78.64480","Snowdepth":"18.000","Units":"in","Rept_Date":"2021-02-17 18"},"coordinates":[4365,5908]},{"type":"Point","properties":{"Station_ID":"ERB23","Station_Nam":"CEBF WEST FALLS","Latitude":"42.68000","Longitude":"-78.68000","Snowdepth":"18.000","Units":"in","Rept_Date":"2021-02-17 17"},"coordinates":[4357,5953]},{"type":"Point","properties":{"Station_ID":"ERB12","Station_Nam":"CEBF FOOTES","Latitude":"42.60000","Longitude":"-78.65000","Snowdepth":"18.000","Units":"in","Rept_Date":"2021-02-17 17"},"coordinates":[4364,5918]},{"type":"Point","properties":{"Station_ID":"ENFV1","Station_Nam":"ENOSBURG FALLS 2","Latitude":"44.90960","Longitude":"-72.81370","Snowdepth":"18.000","Units":"in","Rept_Date":"2021-02-17 10"},"coordinates":[5733,6950]},{"type":"Point","properties":{"Station_ID":"EBKV1","Station_Nam":"MISSISQUOI RIVER","Latitude":"44.96000","Longitude":"-72.69690","Snowdepth":"18.000","Units":"in","Rept_Date":"2021-02-17 21"},"coordinates":[5761,6973]},{"type":"Point","properties":{"Station_ID":"DUBI4","Station_Nam":"DUBUQUE #3","Latitude":"42.40870","Longitude":"-90.73250","Snowdepth":"18.000","Units":"in","Rept_Date":"2021-02-17 18"},"coordinates":[1529,5832]},{"type":"Point","properties":{"Station_ID":"DGVW3","Station_Nam":"DODGEVILLE","Latitude":"42.96670","Longitude":"-90.11670","Snowdepth":"18.000","Units":"in","Rept_Date":"2021-02-17 13"},"coordinates":[1673,6082]},{"type":"Point","properties":{"Station_ID":"DEKI2","Station_Nam":"SOUTH BRANCH KISHWAUKEE RIVER AT DEKALB","Latitude":"41.93110","Longitude":"-88.75970","Snowdepth":"18.000","Units":"in","Rept_Date":"2021-02-17 13"},"coordinates":[1992,5618]},{"type":"Point","properties":{"Station_ID":"DBQ","Station_Nam":"DUBUQUE REGIONAL AIRPORT","Latitude":"42.40310","Longitude":"-90.70920","Snowdepth":"18.000","Units":"in","Rept_Date":"2021-02-17 12"},"coordinates":[1534,5830]},{"type":"Point","properties":{"Station_ID":"CLUI4","Station_Nam":"CLUTIER,IA","Latitude":"42.08330","Longitude":"-92.40000","Snowdepth":"18.000","Units":"in","Rept_Date":"2021-02-17 13"},"coordinates":[1138,5687]},{"type":"Point","properties":{"Station_ID":"CLKM4","Station_Nam":"CLARKSBURG","Latitude":"46.49910","Longitude":"-87.84500","Snowdepth":"18.000","Units":"in","Rept_Date":"2021-02-17 12"},"coordinates":[2206,7661]},{"type":"Point","properties":{"Station_ID":"BROW3","Station_Nam":"BRODHEAD,WI","Latitude":"42.61720","Longitude":"-89.38970","Snowdepth":"18.000","Units":"in","Rept_Date":"2021-02-17 13"},"coordinates":[1844,5925]},{"type":"Point","properties":{"Station_ID":"BLGW3","Station_Nam":"BELGIUM WWTP","Latitude":"43.51310","Longitude":"-87.85440","Snowdepth":"18.000","Units":"in","Rept_Date":"2021-02-17 13"},"coordinates":[2204,6326]},{"type":"Point","properties":{"Station_ID":"BEAW3","Station_Nam":"BEAVER DAM,WI","Latitude":"43.45000","Longitude":"-88.85000","Snowdepth":"18.000","Units":"in","Rept_Date":"2021-02-17 13"},"coordinates":[1971,6298]},{"type":"Point","properties":{"Station_ID":"AVLV1","Station_Nam":"AVERILL","Latitude":"45.00570","Longitude":"-71.69030","Snowdepth":"18.000","Units":"in","Rept_Date":"2021-02-17 13"},"coordinates":[5997,6993]},{"type":"Point","properties":{"Station_ID":"42.1173_079.8962","Station_Nam":"4 W Colt Station  Trained Spotter (CLE0298)","Latitude":"42.11734","Longitude":"-79.89615","Snowdepth":"18.000","Units":"in","Rept_Date":"2021-02-17 13"},"coordinates":[4072,5702]},{"type":"Point","properties":{"Station_ID":"42.0800_080.0143","Station_Nam":"ERIE 5SE  SNOW SPOTTER (X4210800)","Latitude":"42.08000","Longitude":"-80.01430","Snowdepth":"18.000","Units":"in","Rept_Date":"2021-02-17 12"},"coordinates":[4044,5685]},{"type":"Point","properties":{"Station_ID":"41.2574_080.6670","Station_Nam":"Youngstown Regional Airport  Trained Spotter (CLE2302)","Latitude":"41.25735","Longitude":"-80.66700","Snowdepth":"18.000","Units":"in","Rept_Date":"2021-02-17 12"},"coordinates":[3891,5317]},{"type":"Point","properties":{"Station_ID":"QGA","Station_Nam":"QGA","Latitude":"47.25640","Longitude":"-73.73810","Snowdepth":"17.559","Units":"in","Rept_Date":"2021-02-17 12"},"coordinates":[5516,8000]},{"type":"Point","properties":{"Station_ID":"WI-DA-87","Station_Nam":"DUNKIRK 0.1 NW, WI","Latitude":"42.88356","Longitude":"-89.21056","Snowdepth":"17.500","Units":"in","Rept_Date":"2021-02-17 12"},"coordinates":[1886,6044]},{"type":"Point","properties":{"Station_ID":"WI-DA-35","Station_Nam":"MADISON 5.5 N, WI","Latitude":"43.15858","Longitude":"-89.37280","Snowdepth":"17.500","Units":"in","Rept_Date":"2021-02-17 14"},"coordinates":[1848,6167]},{"type":"Point","properties":{"Station_ID":"VT-OL-24","Station_Nam":"DERBY LINE 1.9 W, VT","Latitude":"45.00454","Longitude":"-72.14170","Snowdepth":"17.500","Units":"in","Rept_Date":"2021-02-17 12"},"coordinates":[5891,6993]},{"type":"Point","properties":{"Station_ID":"VT-ES-3","Station_Nam":"LUNENBURG 2.3 NNW, VT","Latitude":"44.49324","Longitude":"-71.70446","Snowdepth":"17.500","Units":"in","Rept_Date":"2021-02-17 11"},"coordinates":[5994,6764]},{"type":"Point","properties":{"Station_ID":"RCNN6","Station_Nam":"RICE CORNERS - SARDINIA SNOW","Latitude":"42.54890","Longitude":"-78.49500","Snowdepth":"17.500","Units":"in","Rept_Date":"2021-02-17 18"},"coordinates":[4400,5895]},{"type":"Point","properties":{"Station_ID":"NY-ER-194","Station_Nam":"GLENWOOD 1.0 SE, NY","Latitude":"42.60740","Longitude":"-78.64610","Snowdepth":"17.500","Units":"in","Rept_Date":"2021-02-17 12"},"coordinates":[4365,5921]},{"type":"Point","properties":{"Station_ID":"MI-CP-14","Station_Nam":"SAULT STE. MARIE 2.2 E, MI","Latitude":"46.48933","Longitude":"-84.31971","Snowdepth":"17.500","Units":"in","Rept_Date":"2021-02-17 13"},"coordinates":[3034,7657]},{"type":"Point","properties":{"Station_ID":"ME-AN-32","Station_Nam":"WINTHROP 9.4 W, ME","Latitude":"44.30476","Longitude":"-70.15835","Snowdepth":"17.500","Units":"in","Rept_Date":"2021-02-17 12"},"coordinates":[6356,6680]},{"type":"Point","properties":{"Station_ID":"IL-WL-26","Station_Nam":"MANHATTAN 0.8 ESE, IL","Latitude":"41.42127","Longitude":"-87.97490","Snowdepth":"17.500","Units":"in","Rept_Date":"2021-02-17 14"},"coordinates":[2176,5390]},{"type":"Point","properties":{"Station_ID":"IL-MCH-13","Station_Nam":"BULL VALLEY 2.5 WNW, IL","Latitude":"42.32455","Longitude":"-88.39460","Snowdepth":"17.500","Units":"in","Rept_Date":"2021-02-17 14"},"coordinates":[2077,5794]},{"type":"Point","properties":{"Station_ID":"IL-DP-157","Station_Nam":"WEST CHICAGO 3.5 NNE, IL","Latitude":"41.93718","Longitude":"-88.19884","Snowdepth":"17.500","Units":"in","Rept_Date":"2021-02-17 13"},"coordinates":[2123,5621]},{"type":"Point","properties":{"Station_ID":"IL-CK-98","Station_Nam":"LA GRANGE PARK 0.7 SSW, IL","Latitude":"41.82257","Longitude":"-87.87580","Snowdepth":"17.500","Units":"in","Rept_Date":"2021-02-17 13"},"coordinates":[2199,5570]},{"type":"Point","properties":{"Station_ID":"IL-CK-345","Station_Nam":"FRANKLIN PARK 0.5 SSE, IL","Latitude":"41.92947","Longitude":"-87.87399","Snowdepth":"17.500","Units":"in","Rept_Date":"2021-02-17 14"},"coordinates":[2200,5618]},{"type":"Point","properties":{"Station_ID":"ERB18","Station_Nam":"CEBF RICE CORNERS","Latitude":"42.55000","Longitude":"-78.48000","Snowdepth":"17.500","Units":"in","Rept_Date":"2021-02-17 17"},"coordinates":[4404,5895]},{"type":"Point","properties":{"Station_ID":"ERB09","Station_Nam":"CEBF E CONCORD","Latitude":"42.55000","Longitude":"-78.62000","Snowdepth":"17.500","Units":"in","Rept_Date":"2021-02-17 17"},"coordinates":[4371,5895]},{"type":"Point","properties":{"Station_ID":"EACN6","Station_Nam":"EAST CONCORD SNOW","Latitude":"42.54980","Longitude":"-78.57670","Snowdepth":"17.500","Units":"in","Rept_Date":"2021-02-17 18"},"coordinates":[4381,5895]},{"type":"Point","properties":{"Station_ID":"CAN-NB-64","Station_Nam":"KESWICK RIDGE 4.0 SE, CAN","Latitude":"45.97014","Longitude":"-66.85538","Snowdepth":"17.500","Units":"in","Rept_Date":"2021-02-17 13"},"coordinates":[7131,7425]},{"type":"Point","properties":{"Station_ID":"CAN-NB-98","Station_Nam":"HOYT 4.2 S, CAN","Latitude":"45.54763","Longitude":"-66.55440","Snowdepth":"17.300","Units":"in","Rept_Date":"2021-02-17 11"},"coordinates":[7202,7236]},{"type":"Point","properties":{"Station_ID":"SVBQ6","Station_Nam":"SAVANT BASE","Latitude":"50.28730","Longitude":"-90.65670","Snowdepth":"17.010","Units":"in","Rept_Date":"2021-02-18 06"},"coordinates":[1547,9355]},{"type":"Point","properties":{"Station_ID":"WTRM4","Station_Nam":"WATERSMEET 12WSW","Latitude":"46.22310","Longitude":"-89.40850","Snowdepth":"17.000","Units":"in","Rept_Date":"2021-02-17 12"},"coordinates":[1840,7538]},{"type":"Point","properties":{"Station_ID":"WPHN6","Station_Nam":"GEORGETOWN SNOW","Latitude":"42.76670","Longitude":"-75.70000","Snowdepth":"17.000","Units":"in","Rept_Date":"2021-02-17 13"},"coordinates":[5056,5992]},{"type":"Point","properties":{"Station_ID":"WODI2","Station_Nam":"WOODSTOCK","Latitude":"42.36280","Longitude":"-88.53140","Snowdepth":"17.000","Units":"in","Rept_Date":"2021-02-17 13"},"coordinates":[2045,5811]},{"type":"Point","properties":{"Station_ID":"WLLI2","Station_Nam":"WILLOW SPRINGS","Latitude":"41.70910","Longitude":"-87.95940","Snowdepth":"17.000","Units":"in","Rept_Date":"2021-02-17 14"},"coordinates":[2180,5519]},{"type":"Point","properties":{"Station_ID":"WI-WS-15","Station_Nam":"WEST BEND 5.4 SE, WI","Latitude":"43.37259","Longitude":"-88.10086","Snowdepth":"17.000","Units":"in","Rept_Date":"2021-02-17 14"},"coordinates":[2146,6263]},{"type":"Point","properties":{"Station_ID":"WI-WK-34","Station_Nam":"MUKWONAGO 5.3 W, WI","Latitude":"42.85380","Longitude":"-88.43550","Snowdepth":"17.000","Units":"in","Rept_Date":"2021-02-17 13"},"coordinates":[2068,6031]},{"type":"Point","properties":{"Station_ID":"WI-DA-99","Station_Nam":"FITCHBURG 1.1 NW, WI","Latitude":"42.99740","Longitude":"-89.44046","Snowdepth":"17.000","Units":"in","Rept_Date":"2021-02-17 13"},"coordinates":[1832,6095]},{"type":"Point","properties":{"Station_ID":"WI-BY-14","Station_Nam":"ASHLAND 9.8 W, WI","Latitude":"46.59742","Longitude":"-91.07856","Snowdepth":"17.000","Units":"in","Rept_Date":"2021-02-17 12"},"coordinates":[1448,7705]},{"type":"Point","properties":{"Station_ID":"VNTI4","Station_Nam":"VINTON","Latitude":"42.17020","Longitude":"-92.00770","Snowdepth":"17.000","Units":"in","Rept_Date":"2021-02-17 13"},"coordinates":[1230,5725]},{"type":"Point","properties":{"Station_ID":"TOPM1","Station_Nam":"TOPSFIELD","Latitude":"45.43470","Longitude":"-67.72020","Snowdepth":"17.000","Units":"in","Rept_Date":"2021-02-17 12"},"coordinates":[6928,7185]},{"type":"Point","properties":{"Station_ID":"SUAW3","Station_Nam":"SUAMICO","Latitude":"44.60190","Longitude":"-88.09780","Snowdepth":"17.000","Units":"in","Rept_Date":"2021-02-17 12"},"coordinates":[2147,6813]},{"type":"Point","properties":{"Station_ID":"SLNV1","Station_Nam":"SOUTH LINCOLN","Latitude":"44.07460","Longitude":"-72.97180","Snowdepth":"17.000","Units":"in","Rept_Date":"2021-02-17 12"},"coordinates":[5696,6577]},{"type":"Point","properties":{"Station_ID":"RKHN6","Station_Nam":"ROCK HILL 3 SW","Latitude":"41.59170","Longitude":"-74.61410","Snowdepth":"17.000","Units":"in","Rept_Date":"2021-02-17 12"},"coordinates":[5311,5467]},{"type":"Point","properties":{"Station_ID":"RICM4","Station_Nam":"RICHMOND 4 NNW","Latitude":"42.87830","Longitude":"-82.79580","Snowdepth":"17.000","Units":"in","Rept_Date":"2021-02-17 14"},"coordinates":[3391,6042]},{"type":"Point","properties":{"Station_ID":"RCRI3","Station_Nam":"ROCHESTER","Latitude":"41.06580","Longitude":"-86.20940","Snowdepth":"17.000","Units":"in","Rept_Date":"2021-02-17 12"},"coordinates":[2590,5231]},{"type":"Point","properties":{"Station_ID":"PDGM4","Station_Nam":"PAULDING","Latitude":"46.39760","Longitude":"-89.17940","Snowdepth":"17.000","Units":"in","Rept_Date":"2021-02-17 13"},"coordinates":[1893,7616]},{"type":"Point","properties":{"Station_ID":"OH-LS-22","Station_Nam":"WATERVILLE 2.4 NNE, OH","Latitude":"41.53086","Longitude":"-83.71882","Snowdepth":"17.000","Units":"in","Rept_Date":"2021-02-17 14"},"coordinates":[3175,5439]},{"type":"Point","properties":{"Station_ID":"NY-OT-29","Station_Nam":"NEW BERLIN 1.5 NE, NY","Latitude":"42.63689","Longitude":"-75.31090","Snowdepth":"17.000","Units":"in","Rept_Date":"2021-02-17 13"},"coordinates":[5147,5934]},{"type":"Point","properties":{"Station_ID":"NY-CL-7","Station_Nam":"PERU 4.1 ESE, NY","Latitude":"44.56461","Longitude":"-73.45390","Snowdepth":"17.000","Units":"in","Rept_Date":"2021-02-17 11"},"coordinates":[5583,6796]},{"type":"Point","properties":{"Station_ID":"NJ-SS-54","Station_Nam":"SPARTA TWP 3.6 SSW, NJ","Latitude":"41.00503","Longitude":"-74.66358","Snowdepth":"17.000","Units":"in","Rept_Date":"2021-02-17 12"},"coordinates":[5299,5204]},{"type":"Point","properties":{"Station_ID":"MWOW3","Station_Nam":"MUKWONAGO","Latitude":"42.85380","Longitude":"-88.43550","Snowdepth":"17.000","Units":"in","Rept_Date":"2021-02-17 13"},"coordinates":[2068,6031]},{"type":"Point","properties":{"Station_ID":"MIEM4","Station_Nam":"MICHIGAMME 3WNW","Latitude":"46.54530","Longitude":"-88.18000","Snowdepth":"17.000","Units":"in","Rept_Date":"2021-02-17 13"},"coordinates":[2128,7682]},{"type":"Point","properties":{"Station_ID":"MI-OC-3","Station_Nam":"HART 3 WSW, MI","Latitude":"43.67470","Longitude":"-86.42250","Snowdepth":"17.000","Units":"in","Rept_Date":"2021-02-17 12"},"coordinates":[2540,6398]},{"type":"Point","properties":{"Station_ID":"MI-LV-26","Station_Nam":"FENTON 6.2 WSW, MI","Latitude":"42.76832","Longitude":"-83.82928","Snowdepth":"17.000","Units":"in","Rept_Date":"2021-02-17 13"},"coordinates":[3149,5993]},{"type":"Point","properties":{"Station_ID":"MI-IH-47","Station_Nam":"EDGEMONT PARK 0.7 NNE, MI","Latitude":"42.75557","Longitude":"-84.58680","Snowdepth":"17.000","Units":"in","Rept_Date":"2021-02-17 12"},"coordinates":[2971,5987]},{"type":"Point","properties":{"Station_ID":"ME-SM-4","Station_Nam":"SOLON 3.9 ESE, ME","Latitude":"44.94705","Longitude":"-69.77790","Snowdepth":"17.000","Units":"in","Rept_Date":"2021-02-17 12"},"coordinates":[6446,6967]},{"type":"Point","properties":{"Station_ID":"ME-FR-4","Station_Nam":"NEW SHARON 2.0 NW, ME","Latitude":"44.66582","Longitude":"-70.02720","Snowdepth":"17.000","Units":"in","Rept_Date":"2021-02-17 12"},"coordinates":[6387,6841]},{"type":"Point","properties":{"Station_ID":"LPEM4","Station_Nam":"LAPEER,MI","Latitude":"43.06280","Longitude":"-83.33330","Snowdepth":"17.000","Units":"in","Rept_Date":"2021-02-17 14"},"coordinates":[3265,6125]},{"type":"Point","properties":{"Station_ID":"LGEW3","Station_Nam":"LAKE GENEVA, WI","Latitude":"42.60000","Longitude":"-88.43440","Snowdepth":"17.000","Units":"in","Rept_Date":"2021-02-17 13"},"coordinates":[2068,5918]},{"type":"Point","properties":{"Station_ID":"KINM1","Station_Nam":"KINGFIELD","Latitude":"44.95950","Longitude":"-70.17530","Snowdepth":"17.000","Units":"in","Rept_Date":"2021-02-17 11"},"coordinates":[6352,6973]},{"type":"Point","properties":{"Station_ID":"IRMM4","Station_Nam":"WWTP","Latitude":"46.46670","Longitude":"-90.18330","Snowdepth":"17.000","Units":"in","Rept_Date":"2021-02-17 13"},"coordinates":[1658,7647]},{"type":"Point","properties":{"Station_ID":"IN-WY-17","Station_Nam":"COLUMBIA CITY 4.6 S, IN","Latitude":"41.09314","Longitude":"-85.46940","Snowdepth":"17.000","Units":"in","Rept_Date":"2021-02-17 12"},"coordinates":[2764,5244]},{"type":"Point","properties":{"Station_ID":"IN-WL-14","Station_Nam":"OSSIAN 2.4 W, IN","Latitude":"40.87371","Longitude":"-85.21480","Snowdepth":"17.000","Units":"in","Rept_Date":"2021-02-17 13"},"coordinates":[2824,5146]},{"type":"Point","properties":{"Station_ID":"IN-KS-64","Station_Nam":"WARSAW 4.6 NNE, IN","Latitude":"41.30023","Longitude":"-85.81108","Snowdepth":"17.000","Units":"in","Rept_Date":"2021-02-17 13"},"coordinates":[2684,5336]},{"type":"Point","properties":{"Station_ID":"IL-WL-166","Station_Nam":"NAPERVILLE 3.6 SE, IL","Latitude":"41.72312","Longitude":"-88.10876","Snowdepth":"17.000","Units":"in","Rept_Date":"2021-02-17 15"},"coordinates":[2145,5525]},{"type":"Point","properties":{"Station_ID":"IL-SP-6","Station_Nam":"FREEPORT 2.0 NW, IL","Latitude":"42.30955","Longitude":"-89.66370","Snowdepth":"17.000","Units":"in","Rept_Date":"2021-02-17 13"},"coordinates":[1780,5788]},{"type":"Point","properties":{"Station_ID":"IL-LK-98","Station_Nam":"LINDENHURST 0.7 NNW, IL","Latitude":"42.42730","Longitude":"-88.03289","Snowdepth":"17.000","Units":"in","Rept_Date":"2021-02-17 13"},"coordinates":[2162,5840]},{"type":"Point","properties":{"Station_ID":"IL-LK-42","Station_Nam":"GURNEE 1.6 W, IL","Latitude":"42.37776","Longitude":"-87.96740","Snowdepth":"17.000","Units":"in","Rept_Date":"2021-02-17 13"},"coordinates":[2178,5818]},{"type":"Point","properties":{"Station_ID":"IL-KN-104","Station_Nam":"GENEVA 3.9 WSW, IL","Latitude":"41.85711","Longitude":"-88.38230","Snowdepth":"17.000","Units":"in","Rept_Date":"2021-02-17 11"},"coordinates":[2080,5585]},{"type":"Point","properties":{"Station_ID":"IL-DP-132","Station_Nam":"WHEATON 2.0 NNE, IL","Latitude":"41.87980","Longitude":"-88.08630","Snowdepth":"17.000","Units":"in","Rept_Date":"2021-02-17 13"},"coordinates":[2150,5595]},{"type":"Point","properties":{"Station_ID":"HUBN3","Station_Nam":"HUBBARD BROOK","Latitude":"43.93330","Longitude":"-71.71670","Snowdepth":"17.000","Units":"in","Rept_Date":"2021-02-18 06"},"coordinates":[5991,6514]},{"type":"Point","properties":{"Station_ID":"HRTM4","Station_Nam":"HART,MI","Latitude":"43.70000","Longitude":"-86.36670","Snowdepth":"17.000","Units":"in","Rept_Date":"2021-02-17 12"},"coordinates":[2553,6409]},{"type":"Point","properties":{"Station_ID":"GWDN6","Station_Nam":"GLENWOOD SNOW","Latitude":"42.60410","Longitude":"-78.65330","Snowdepth":"17.000","Units":"in","Rept_Date":"2021-02-17 18"},"coordinates":[4363,5919]},{"type":"Point","properties":{"Station_ID":"GOVN6","Station_Nam":"GOUVERNEUR 3 NW","Latitude":"44.35400","Longitude":"-75.51230","Snowdepth":"17.000","Units":"in","Rept_Date":"2021-02-17 12"},"coordinates":[5100,6702]},{"type":"Point","properties":{"Station_ID":"ERM64","Station_Nam":"GEORGETOWN","Latitude":"42.78000","Longitude":"-75.75000","Snowdepth":"17.000","Units":"in","Rept_Date":"2021-02-17 17"},"coordinates":[5044,5998]},{"type":"Point","properties":{"Station_ID":"ERB13","Station_Nam":"CEBF GLENWOOD","Latitude":"42.63000","Longitude":"-78.67000","Snowdepth":"17.000","Units":"in","Rept_Date":"2021-02-17 17"},"coordinates":[4359,5931]},{"type":"Point","properties":{"Station_ID":"DLNW3","Station_Nam":"WALWORTH COUNTYMETROPOLITAN SEWERAGE DISTRICT (DELEVAN)","Latitude":"42.63440","Longitude":"-88.66280","Snowdepth":"17.000","Units":"in","Rept_Date":"2021-02-17 16"},"coordinates":[2015,5933]},{"type":"Point","properties":{"Station_ID":"COVP1","Station_Nam":"COVINGTON 2WSW","Latitude":"41.73330","Longitude":"-77.11670","Snowdepth":"17.000","Units":"in","Rept_Date":"2021-02-17 11"},"coordinates":[4724,5530]},{"type":"Point","properties":{"Station_ID":"CLIW3","Station_Nam":"CLINTON - TURTLE CREEK","Latitude":"42.60000","Longitude":"-88.88330","Snowdepth":"17.000","Units":"in","Rept_Date":"2021-02-17 13"},"coordinates":[1963,5918]},{"type":"Point","properties":{"Station_ID":"CAN-ON-92","Station_Nam":"DUNROBIN 1.9 W - MVCA, CAN","Latitude":"45.42318","Longitude":"-76.04525","Snowdepth":"17.000","Units":"in","Rept_Date":"2021-02-17 12"},"coordinates":[4975,7180]},{"type":"Point","properties":{"Station_ID":"CAN-NS-39","Station_Nam":"ST. ANNS 2.8 NW, CA","Latitude":"46.25082","Longitude":"-60.64340","Snowdepth":"17.000","Units":"in","Rept_Date":"2021-02-17 12"},"coordinates":[8589,7550]},{"type":"Point","properties":{"Station_ID":"BLDV1","Station_Nam":"BALDWIN CREEK","Latitude":"44.15510","Longitude":"-73.04710","Snowdepth":"17.000","Units":"in","Rept_Date":"2021-02-17 21"},"coordinates":[5679,6613]},{"type":"Point","properties":{"Station_ID":"BKBW2","Station_Nam":"DAVIS.","Latitude":"39.09830","Longitude":"-79.43190","Snowdepth":"17.000","Units":"in","Rept_Date":"2021-02-17 12"},"coordinates":[4180,4352]},{"type":"Point","properties":{"Station_ID":"BDMW3","Station_Nam":"BEAVER DAM 1 N","Latitude":"43.46860","Longitude":"-88.83970","Snowdepth":"17.000","Units":"in","Rept_Date":"2021-02-17 13"},"coordinates":[1973,6306]},{"type":"Point","properties":{"Station_ID":"BAGM4","Station_Nam":"BARAGA 7NW","Latitude":"46.82100","Longitude":"-88.60590","Snowdepth":"17.000","Units":"in","Rept_Date":"2021-02-17 13"},"coordinates":[2028,7805]},{"type":"Point","properties":{"Station_ID":"AMAM4","Station_Nam":"AMASA 1W","Latitude":"46.23470","Longitude":"-88.45440","Snowdepth":"17.000","Units":"in","Rept_Date":"2021-02-17 14"},"coordinates":[2063,7543]},{"type":"Point","properties":{"Station_ID":"41.9034_079.6523","Station_Nam":"CORRY (CLE0230)","Latitude":"41.90340","Longitude":"-79.65230","Snowdepth":"17.000","Units":"in","Rept_Date":"2021-02-17 14"},"coordinates":[4129,5606]},{"type":"Point","properties":{"Station_ID":"41.5309_083.7188","Station_Nam":"2 NNE Waterville  CoCoRaHS (OH-LS-22)","Latitude":"41.53090","Longitude":"-83.71880","Snowdepth":"17.000","Units":"in","Rept_Date":"2021-02-17 14"},"coordinates":[3175,5439]},{"type":"Point","properties":{"Station_ID":"41.4329_081.3246","Station_Nam":"South Russell  Trained Spotter (CLE1339)","Latitude":"41.43291","Longitude":"-81.32455","Snowdepth":"17.000","Units":"in","Rept_Date":"2021-02-17 12"},"coordinates":[3736,5396]},{"type":"Point","properties":{"Station_ID":"NY-ER-96","Station_Nam":"ELMA 2.7 WSW, NY","Latitude":"42.81004","Longitude":"-78.68130","Snowdepth":"16.800","Units":"in","Rept_Date":"2021-02-17 12"},"coordinates":[4357,6011]},{"type":"Point","properties":{"Station_ID":"IL-SP-14","Station_Nam":"FREEPORT 1.7 ESE, IL","Latitude":"42.28257","Longitude":"-89.60360","Snowdepth":"16.800","Units":"in","Rept_Date":"2021-02-17 13"},"coordinates":[1794,5776]},{"type":"Point","properties":{"Station_ID":"WI-KN-26","Station_Nam":"KENOSHA 3.8 WSW, WI","Latitude":"42.56913","Longitude":"-87.92632","Snowdepth":"16.500","Units":"in","Rept_Date":"2021-02-17 12"},"coordinates":[2187,5904]},{"type":"Point","properties":{"Station_ID":"WI-CB-4","Station_Nam":"PORTAGE 5.7 WSW, WI","Latitude":"43.51411","Longitude":"-89.56910","Snowdepth":"16.500","Units":"in","Rept_Date":"2021-02-17 12"},"coordinates":[1802,6326]},{"type":"Point","properties":{"Station_ID":"VT-LM-1","Station_Nam":"STOWE 0.2 SW, VT","Latitude":"44.46399","Longitude":"-72.69070","Snowdepth":"16.500","Units":"in","Rept_Date":"2021-02-17 12"},"coordinates":[5762,6751]},{"type":"Point","properties":{"Station_ID":"NY-TM-45","Station_Nam":"NEWFIELD HAMLET 4.3 S, NY","Latitude":"42.29650","Longitude":"-76.60676","Snowdepth":"16.500","Units":"in","Rept_Date":"2021-02-17 14"},"coordinates":[4843,5782]},{"type":"Point","properties":{"Station_ID":"MD-GR-9","Station_Nam":"MOUNTAIN LAKE PARK 0.4 E, MD","Latitude":"39.40407","Longitude":"-79.37220","Snowdepth":"16.500","Units":"in","Rept_Date":"2021-02-17 11"},"coordinates":[4194,4488]},{"type":"Point","properties":{"Station_ID":"IL-LK-39","Station_Nam":"RIVERWOODS 0.4 ENE, IL","Latitude":"42.17264","Longitude":"-87.88840","Snowdepth":"16.500","Units":"in","Rept_Date":"2021-02-17 13"},"coordinates":[2196,5726]},{"type":"Point","properties":{"Station_ID":"IL-CK-75","Station_Nam":"ELK GROVE VILLAGE 2.2 WSW, IL","Latitude":"41.99526","Longitude":"-88.05270","Snowdepth":"16.500","Units":"in","Rept_Date":"2021-02-17 13"},"coordinates":[2158,5647]},{"type":"Point","properties":{"Station_ID":"IA-SH-6","Station_Nam":"KIRKMAN 1.0 SE, IA","Latitude":"41.71810","Longitude":"-95.25310","Snowdepth":"16.500","Units":"in","Rept_Date":"2021-02-17 13"},"coordinates":[468,5523]},{"type":"Point","properties":{"Station_ID":"CAN-QC-57","Station_Nam":"ACTON VALE 1.3 N, CAN","Latitude":"45.65868","Longitude":"-72.56645","Snowdepth":"16.500","Units":"in","Rept_Date":"2021-02-17 13"},"coordinates":[5791,7285]},{"type":"Point","properties":{"Station_ID":"CAN-NB-96","Station_Nam":"SAINT-IGNACE 2.6 NE, CAN","Latitude":"46.71424","Longitude":"-65.05609","Snowdepth":"16.100","Units":"in","Rept_Date":"2021-02-17 11"},"coordinates":[7554,7757]},{"type":"Point","properties":{"Station_ID":"YNGI3","Station_Nam":"YOUNG AMERICA,IN","Latitude":"40.56670","Longitude":"-86.33330","Snowdepth":"16.000","Units":"in","Rept_Date":"2021-02-17 13"},"coordinates":[2561,5008]},{"type":"Point","properties":{"Station_ID":"WPEN6","Station_Nam":"SOUTH OTSELIC 2NNW SNOW","Latitude":"42.66670","Longitude":"-75.80000","Snowdepth":"16.000","Units":"in","Rept_Date":"2021-02-17 13"},"coordinates":[5033,5947]},{"type":"Point","properties":{"Station_ID":"WPDN6","Station_Nam":"CINCINNATUS 2NW SNOW","Latitude":"42.55000","Longitude":"-75.93330","Snowdepth":"16.000","Units":"in","Rept_Date":"2021-02-17 13"},"coordinates":[5001,5895]},{"type":"Point","properties":{"Station_ID":"WI-SB-19","Station_Nam":"SHEBOYGAN 0.7 SSW, WI","Latitude":"43.73560","Longitude":"-87.73490","Snowdepth":"16.000","Units":"in","Rept_Date":"2021-02-17 14"},"coordinates":[2232,6425]},{"type":"Point","properties":{"Station_ID":"WI-SB-10","Station_Nam":"RANDOM LAKE 0.5 SSE, WI","Latitude":"43.54812","Longitude":"-87.95050","Snowdepth":"16.000","Units":"in","Rept_Date":"2021-02-17 13"},"coordinates":[2182,6342]},{"type":"Point","properties":{"Station_ID":"WI-PR-2","Station_Nam":"BUTTERNUT 5.9 SW, WI","Latitude":"45.96501","Longitude":"-90.59750","Snowdepth":"16.000","Units":"in","Rept_Date":"2021-02-17 12"},"coordinates":[1561,7422]},{"type":"Point","properties":{"Station_ID":"WI-MW-18","Station_Nam":"WEST ALLIS 0.7 SSE, WI","Latitude":"42.99802","Longitude":"-88.02380","Snowdepth":"16.000","Units":"in","Rept_Date":"2021-02-17 14"},"coordinates":[2164,6096]},{"type":"Point","properties":{"Station_ID":"WI-IW-3","Station_Nam":"MINERAL POINT 7.3 ENE, WI","Latitude":"42.91400","Longitude":"-90.05700","Snowdepth":"16.000","Units":"in","Rept_Date":"2021-02-17 13"},"coordinates":[1687,6058]},{"type":"Point","properties":{"Station_ID":"WI-IR-2","Station_Nam":"MERCER 2.0 SE, WI","Latitude":"46.14749","Longitude":"-90.03097","Snowdepth":"16.000","Units":"in","Rept_Date":"2021-02-17 13"},"coordinates":[1694,7504]},{"type":"Point","properties":{"Station_ID":"WI-CB-5","Station_Nam":"PORTAGE 7.2 SW, WI","Latitude":"43.47933","Longitude":"-89.57370","Snowdepth":"16.000","Units":"in","Rept_Date":"2021-02-17 13"},"coordinates":[1801,6311]},{"type":"Point","properties":{"Station_ID":"WDBI3","Station_Nam":"WOODBURN 3N","Latitude":"41.16450","Longitude":"-84.84820","Snowdepth":"16.000","Units":"in","Rept_Date":"2021-02-17 12"},"coordinates":[2910,5276]},{"type":"Point","properties":{"Station_ID":"VT-WS-15","Station_Nam":"EAST CALAIS 1.5 SW, VT","Latitude":"44.35523","Longitude":"-72.45540","Snowdepth":"16.000","Units":"in","Rept_Date":"2021-02-17 12"},"coordinates":[5817,6702]},{"type":"Point","properties":{"Station_ID":"VT-OL-2","Station_Nam":"BARTON 3.0 ENE, VT","Latitude":"44.75863","Longitude":"-72.11680","Snowdepth":"16.000","Units":"in","Rept_Date":"2021-02-17 12"},"coordinates":[5897,6883]},{"type":"Point","properties":{"Station_ID":"VT-CL-14","Station_Nam":"LYNDONVILLE 1.1 W, VT","Latitude":"44.53582","Longitude":"-72.02867","Snowdepth":"16.000","Units":"in","Rept_Date":"2021-02-17 12"},"coordinates":[5918,6783]},{"type":"Point","properties":{"Station_ID":"VT-CH-38","Station_Nam":"WILLISTON 0.2 WSW, VT","Latitude":"44.43669","Longitude":"-73.07154","Snowdepth":"16.000","Units":"in","Rept_Date":"2021-02-17 12"},"coordinates":[5673,6739]},{"type":"Point","properties":{"Station_ID":"VSSM4","Station_Nam":"VASSAR,MI","Latitude":"43.36670","Longitude":"-83.58330","Snowdepth":"16.000","Units":"in","Rept_Date":"2021-02-17 12"},"coordinates":[3206,6260]},{"type":"Point","properties":{"Station_ID":"VRBN6","Station_Nam":"VARYSBURG W (20) SNOW","Latitude":"42.76250","Longitude":"-78.33640","Snowdepth":"16.000","Units":"in","Rept_Date":"2021-02-17 18"},"coordinates":[4438,5990]},{"type":"Point","properties":{"Station_ID":"TMWN3","Station_Nam":"TAMWORTH 4","Latitude":"43.86390","Longitude":"-71.26610","Snowdepth":"16.000","Units":"in","Rept_Date":"2021-02-17 12"},"coordinates":[6096,6483]},{"type":"Point","properties":{"Station_ID":"TLDI4","Station_Nam":"TOLEDO,IA","Latitude":"41.98330","Longitude":"-92.58330","Snowdepth":"16.000","Units":"in","Rept_Date":"2021-02-17 13"},"coordinates":[1095,5642]},{"type":"Point","properties":{"Station_ID":"SGVN6","Station_Nam":"SPRINGVILLE","Latitude":"42.54970","Longitude":"-78.57670","Snowdepth":"16.000","Units":"in","Rept_Date":"2021-02-17 23"},"coordinates":[4381,5895]},{"type":"Point","properties":{"Station_ID":"SAVW3","Station_Nam":"SAUKVILLE WWTP","Latitude":"43.37470","Longitude":"-87.93940","Snowdepth":"16.000","Units":"in","Rept_Date":"2021-02-17 12"},"coordinates":[2184,6264]},{"type":"Point","properties":{"Station_ID":"ROCW3","Station_Nam":"ROCHESTER WWTP","Latitude":"42.72690","Longitude":"-88.22580","Snowdepth":"16.000","Units":"in","Rept_Date":"2021-02-17 10"},"coordinates":[2117,5974]},{"type":"Point","properties":{"Station_ID":"PYMI3","Station_Nam":"PLYMOUTH","Latitude":"41.33920","Longitude":"-86.33580","Snowdepth":"16.000","Units":"in","Rept_Date":"2021-02-17 11"},"coordinates":[2561,5354]},{"type":"Point","properties":{"Station_ID":"PLEP1","Station_Nam":"PLEASANT MOUNT 1 W","Latitude":"41.73940","Longitude":"-75.44650","Snowdepth":"16.000","Units":"in","Rept_Date":"2021-02-17 12"},"coordinates":[5116,5533]},{"type":"Point","properties":{"Station_ID":"PLBN6","Station_Nam":"PLATTSBURGH COOP","Latitude":"44.69180","Longitude":"-73.45560","Snowdepth":"16.000","Units":"in","Rept_Date":"2021-02-17 12"},"coordinates":[5583,6853]},{"type":"Point","properties":{"Station_ID":"NY-OG-12","Station_Nam":"CLAY 4.6 NW, NY","Latitude":"43.20000","Longitude":"-76.26000","Snowdepth":"16.000","Units":"in","Rept_Date":"2021-02-17 13"},"coordinates":[4925,6186]},{"type":"Point","properties":{"Station_ID":"NY-ER-86","Station_Nam":"TONAWANDA 1.5 NNE, NY","Latitude":"43.00507","Longitude":"-78.86600","Snowdepth":"16.000","Units":"in","Rept_Date":"2021-02-17 14"},"coordinates":[4313,6099]},{"type":"Point","properties":{"Station_ID":"NY-ER-158","Station_Nam":"EAST AURORA 2.7 SSE, NY","Latitude":"42.72936","Longitude":"-78.60561","Snowdepth":"16.000","Units":"in","Rept_Date":"2021-02-17 13"},"coordinates":[4374,5975]},{"type":"Point","properties":{"Station_ID":"NWSM1","Station_Nam":"NEW SHARON","Latitude":"44.63520","Longitude":"-70.00020","Snowdepth":"16.000","Units":"in","Rept_Date":"2021-02-17 12"},"coordinates":[6393,6828]},{"type":"Point","properties":{"Station_ID":"NOHV1","Station_Nam":"NORTH HARTLAND LAKE","Latitude":"43.60270","Longitude":"-72.36210","Snowdepth":"16.000","Units":"in","Rept_Date":"2021-02-17 12"},"coordinates":[5839,6366]},{"type":"Point","properties":{"Station_ID":"NH-CR-11","Station_Nam":"NORTH CONWAY 1.4 SSW, NH","Latitude":"44.03556","Longitude":"-71.14010","Snowdepth":"16.000","Units":"in","Rept_Date":"2021-02-17 12"},"coordinates":[6126,6560]},{"type":"Point","properties":{"Station_ID":"NH-CH-20","Station_Nam":"RINDGE 3.2 ESE, NH","Latitude":"42.73100","Longitude":"-71.95200","Snowdepth":"16.000","Units":"in","Rept_Date":"2021-02-17 12"},"coordinates":[5936,5976]},{"type":"Point","properties":{"Station_ID":"NCON3","Station_Nam":"NORTH CONWAY","Latitude":"44.05620","Longitude":"-71.12970","Snowdepth":"16.000","Units":"in","Rept_Date":"2021-02-17 13"},"coordinates":[6128,6569]},{"type":"Point","properties":{"Station_ID":"NCKN6","Station_Nam":"NORTH CREEK 5 SE","Latitude":"43.66110","Longitude":"-73.89690","Snowdepth":"16.000","Units":"in","Rept_Date":"2021-02-17 12"},"coordinates":[5479,6392]},{"type":"Point","properties":{"Station_ID":"MWTM1","Station_Nam":"MILLINOCKET WWTP","Latitude":"45.64030","Longitude":"-68.67480","Snowdepth":"16.000","Units":"in","Rept_Date":"2021-02-17 11"},"coordinates":[6704,7277]},{"type":"Point","properties":{"Station_ID":"MSRN3","Station_Nam":"MASCOMA RIVER","Latitude":"43.78330","Longitude":"-72.03330","Snowdepth":"16.000","Units":"in","Rept_Date":"2021-02-18 05"},"coordinates":[5916,6447]},{"type":"Point","properties":{"Station_ID":"MNPV1","Station_Nam":"MONTPELIER 2","Latitude":"44.25530","Longitude":"-72.60060","Snowdepth":"16.000","Units":"in","Rept_Date":"2021-02-17 12"},"coordinates":[5783,6658]},{"type":"Point","properties":{"Station_ID":"MI-ET-1","Station_Nam":"LANSING 3.8 WNW, MI","Latitude":"42.72243","Longitude":"-84.62690","Snowdepth":"16.000","Units":"in","Rept_Date":"2021-02-17 12"},"coordinates":[2962,5972]},{"type":"Point","properties":{"Station_ID":"MECN6","Station_Nam":"MECKLENBURG 4 SW","Latitude":"42.44220","Longitude":"-76.75740","Snowdepth":"16.000","Units":"in","Rept_Date":"2021-02-17 12"},"coordinates":[4808,5847]},{"type":"Point","properties":{"Station_ID":"LSXI4","Station_Nam":"LITTLE SIOUX,IA","Latitude":"41.81670","Longitude":"-96.01670","Snowdepth":"16.000","Units":"in","Rept_Date":"2021-02-17 13"},"coordinates":[289,5567]},{"type":"Point","properties":{"Station_ID":"LAN","Station_Nam":"CAPITAL REGION INTL AP","Latitude":"42.77860","Longitude":"-84.58720","Snowdepth":"16.000","Units":"in","Rept_Date":"2021-02-17 12"},"coordinates":[2971,5997]},{"type":"Point","properties":{"Station_ID":"KRFD","Station_Nam":"GREATER ROCKFORD AIRPORT","Latitude":"42.20000","Longitude":"-89.10000","Snowdepth":"16.000","Units":"in","Rept_Date":"2021-02-18 06"},"coordinates":[1912,5739]},{"type":"Point","properties":{"Station_ID":"KKEI2","Station_Nam":"WATER POLLUTION CONTROL","Latitude":"41.13330","Longitude":"-87.88330","Snowdepth":"16.000","Units":"in","Rept_Date":"2021-02-17 13"},"coordinates":[2197,5262]},{"type":"Point","properties":{"Station_ID":"IN-WL-11","Station_Nam":"BLUFFTON 0.9 SE, IN","Latitude":"40.73015","Longitude":"-85.16070","Snowdepth":"16.000","Units":"in","Rept_Date":"2021-02-17 12"},"coordinates":[2836,5081]},{"type":"Point","properties":{"Station_ID":"IN-KS-32","Station_Nam":"LEESBURG 6.7 ESE, IN","Latitude":"41.31009","Longitude":"-85.72290","Snowdepth":"16.000","Units":"in","Rept_Date":"2021-02-17 12"},"coordinates":[2704,5341]},{"type":"Point","properties":{"Station_ID":"IL-WL-97","Station_Nam":"NEW LENOX 3.3 E, IL","Latitude":"41.51934","Longitude":"-87.91930","Snowdepth":"16.000","Units":"in","Rept_Date":"2021-02-17 13"},"coordinates":[2189,5434]},{"type":"Point","properties":{"Station_ID":"IL-WL-136","Station_Nam":"CRETE 3.3 ENE FRANKTUARY FARM, IL","Latitude":"41.46631","Longitude":"-87.55438","Snowdepth":"16.000","Units":"in","Rept_Date":"2021-02-17 13"},"coordinates":[2275,5411]},{"type":"Point","properties":{"Station_ID":"IL-SP-25","Station_Nam":"FREEPORT 1.7 NW, IL","Latitude":"42.30427","Longitude":"-89.66285","Snowdepth":"16.000","Units":"in","Rept_Date":"2021-02-17 13"},"coordinates":[1780,5785]},{"type":"Point","properties":{"Station_ID":"IL-LK-16","Station_Nam":"BUFFALO GROVE 1.5 N, IL","Latitude":"42.18800","Longitude":"-87.95900","Snowdepth":"16.000","Units":"in","Rept_Date":"2021-02-17 13"},"coordinates":[2180,5733]},{"type":"Point","properties":{"Station_ID":"IL-KN-64","Station_Nam":"ST. CHARLES 0.1 E, IL","Latitude":"41.92010","Longitude":"-88.29900","Snowdepth":"16.000","Units":"in","Rept_Date":"2021-02-17 14"},"coordinates":[2100,5614]},{"type":"Point","properties":{"Station_ID":"IL-KN-22","Station_Nam":"GENEVA 1.0 SSW, IL","Latitude":"41.86823","Longitude":"-88.32032","Snowdepth":"16.000","Units":"in","Rept_Date":"2021-02-17 13"},"coordinates":[2095,5590]},{"type":"Point","properties":{"Station_ID":"IL-KN-128","Station_Nam":"BATAVIA 3.4 WSW, IL","Latitude":"41.83007","Longitude":"-88.36107","Snowdepth":"16.000","Units":"in","Rept_Date":"2021-02-17 12"},"coordinates":[2085,5573]},{"type":"Point","properties":{"Station_ID":"GNDI4","Station_Nam":"GRUNDY CENTER,IA","Latitude":"42.35530","Longitude":"-92.77390","Snowdepth":"16.000","Units":"in","Rept_Date":"2021-02-17 13"},"coordinates":[1050,5808]},