{"type":"Topology","objects":{"snowdepth_geo":{"type":"GeometryCollection","name":"snowdepth","crs":{"type":"name","properties":{"name":"urn:ogc:def:crs:OGC:1.3:CRS84"}},"geometries":[{"type":"Point","properties":{"Station_ID":"HTLN3","Station_Nam":"HERMIT LAKE SNOWPLOT","Latitude":"44.26130","Longitude":"-71.28330","Snowdepth":"85.000","Units":"in","Rept_Date":"2020-04-12 09"},"coordinates":[6091,5367]},{"type":"Point","properties":{"Station_ID":"PRKM4","Station_Nam":"MUNISING EAST","Latitude":"46.42580","Longitude":"-86.62000","Snowdepth":"76.500","Units":"in","Rept_Date":"2020-04-13 06"},"coordinates":[2491,6710]},{"type":"Point","properties":{"Station_ID":"OGIQ6","Station_Nam":"OGOKI CAMP","Latitude":"50.76680","Longitude":"-87.85820","Snowdepth":"61.100","Units":"in","Rept_Date":"2020-04-13 06"},"coordinates":[2201,9403]},{"type":"Point","properties":{"Station_ID":"DVLQ6","Station_Nam":"DEVIOUS LAKE","Latitude":"49.19890","Longitude":"-87.76440","Snowdepth":"43.460","Units":"in","Rept_Date":"2020-04-13 06"},"coordinates":[2223,8431]},{"type":"Point","properties":{"Station_ID":"NH-CS-10","Station_Nam":"RANDOLPH 1.4 NE, NH","Latitude":"44.38824","Longitude":"-71.26950","Snowdepth":"26.000","Units":"in","Rept_Date":"2020-04-12 12"},"coordinates":[6094,5446]},{"type":"Point","properties":{"Station_ID":"PDLM4","Station_Nam":"PAINESDALE","Latitude":"47.04160","Longitude":"-88.67170","Snowdepth":"24.000","Units":"in","Rept_Date":"2020-04-12 12"},"coordinates":[2010,7092]},{"type":"Point","properties":{"Station_ID":"ME-AR-18","Station_Nam":"NEW SWEDEN 4.9 NNW, ME","Latitude":"47.01080","Longitude":"-68.14390","Snowdepth":"24.000","Units":"in","Rept_Date":"2020-04-12 12"},"coordinates":[6828,7073]},{"type":"Point","properties":{"Station_ID":"CAN-NL-82","Station_Nam":"GANDER 2.7 NW, CAN","Latitude":"48.97737","Longitude":"-54.63396","Snowdepth":"23.200","Units":"in","Rept_Date":"2020-04-12 10"},"coordinates":[9999,8293]},{"type":"Point","properties":{"Station_ID":"CAN-NB-13","Station_Nam":"BATHURST 3.8 NW, CAN","Latitude":"47.64212","Longitude":"-65.68756","Snowdepth":"23.000","Units":"in","Rept_Date":"2020-04-12 11"},"coordinates":[7404,7465]},{"type":"Point","properties":{"Station_ID":"CAN-NB-11","Station_Nam":"MIRAMICHI 3.3 S, CAN","Latitude":"46.99343","Longitude":"-65.50690","Snowdepth":"22.500","Units":"in","Rept_Date":"2020-04-12 13"},"coordinates":[7447,7062]},{"type":"Point","properties":{"Station_ID":"MWN","Station_Nam":"MOUNT WASHINGTON","Latitude":"44.26670","Longitude":"-71.30000","Snowdepth":"21.000","Units":"in","Rept_Date":"2020-04-12 12"},"coordinates":[6087,5370]},{"type":"Point","properties":{"Station_ID":"KMWN","Station_Nam":"MOUNT WASHINGTON","Latitude":"44.26666","Longitude":"-71.30000","Snowdepth":"21.000","Units":"in","Rept_Date":"2020-04-13 06"},"coordinates":[6087,5370]},{"type":"Point","properties":{"Station_ID":"MQT","Station_Nam":"MARQUETTE, MI","Latitude":"46.53140","Longitude":"-87.54920","Snowdepth":"20.000","Units":"in","Rept_Date":"2020-04-13 06"},"coordinates":[2273,6776]},{"type":"Point","properties":{"Station_ID":"MNSM4","Station_Nam":"MUNISING","Latitude":"46.41210","Longitude":"-86.66250","Snowdepth":"19.000","Units":"in","Rept_Date":"2020-04-12 10"},"coordinates":[2481,6702]},{"type":"Point","properties":{"Station_ID":"GHMN3","Station_Nam":"PINKHAM NOTCH","Latitude":"44.25800","Longitude":"-71.25250","Snowdepth":"18.000","Units":"in","Rept_Date":"2020-04-12 09"},"coordinates":[6098,5365]},{"type":"Point","properties":{"Station_ID":"FISM1","Station_Nam":"FORT KENT COOP","Latitude":"47.23850","Longitude":"-68.61240","Snowdepth":"18.000","Units":"in","Rept_Date":"2020-04-12 10"},"coordinates":[6718,7214]},{"type":"Point","properties":{"Station_ID":"CAN-NL-65","Station_Nam":"KIPPENS 0.7 NE, CA","Latitude":"48.55436","Longitude":"-58.61850","Snowdepth":"15.500","Units":"in","Rept_Date":"2020-04-12 12"},"coordinates":[9064,8031]},{"type":"Point","properties":{"Station_ID":"WLFM5","Station_Nam":"WOLF RIDGE ENVIRON LEARNING CENTER","Latitude":"47.38240","Longitude":"-91.19730","Snowdepth":"15.000","Units":"in","Rept_Date":"2020-04-12 12"},"coordinates":[1417,7304]},{"type":"Point","properties":{"Station_ID":"RGNM1","Station_Nam":"RANGELEY 2NW","Latitude":"44.98940","Longitude":"-70.67220","Snowdepth":"15.000","Units":"in","Rept_Date":"2020-04-12 14"},"coordinates":[6234,5819]},{"type":"Point","properties":{"Station_ID":"KSGM4","Station_Nam":"KEARSARGE","Latitude":"47.27520","Longitude":"-88.41700","Snowdepth":"15.000","Units":"in","Rept_Date":"2020-04-12 12"},"coordinates":[2069,7237]},{"type":"Point","properties":{"Station_ID":"CAN-NB-96","Station_Nam":"SAINT-IGNACE 2.6 NE, CAN","Latitude":"46.71424","Longitude":"-65.05609","Snowdepth":"15.000","Units":"in","Rept_Date":"2020-04-12 11"},"coordinates":[7553,6889]},{"type":"Point","properties":{"Station_ID":"TRIQ6","Station_Nam":"TRIO LAKE","Latitude":"49.22880","Longitude":"-87.22920","Snowdepth":"14.650","Units":"in","Rept_Date":"2020-04-13 06"},"coordinates":[2348,8449]},{"type":"Point","properties":{"Station_ID":"PTLQ6","Station_Nam":"PORTAGE LAKE","Latitude":"49.06950","Longitude":"-86.65940","Snowdepth":"14.330","Units":"in","Rept_Date":"2020-04-13 06"},"coordinates":[2482,8350]},{"type":"Point","properties":{"Station_ID":"SVBQ6","Station_Nam":"SAVANT BASE","Latitude":"50.28730","Longitude":"-90.65670","Snowdepth":"14.060","Units":"in","Rept_Date":"2020-04-13 06"},"coordinates":[1544,9106]},{"type":"Point","properties":{"Station_ID":"QNCM4","Station_Nam":"QUINCY HILL","Latitude":"47.13640","Longitude":"-88.57950","Snowdepth":"14.000","Units":"in","Rept_Date":"2020-04-12 11"},"coordinates":[2031,7151]},{"type":"Point","properties":{"Station_ID":"ME-SM-45","Station_Nam":"BRIGHTON PLANTATION 2.1 N, ME","Latitude":"45.07098","Longitude":"-69.69860","Snowdepth":"14.000","Units":"in","Rept_Date":"2020-04-12 12"},"coordinates":[6463,5869]},{"type":"Point","properties":{"Station_ID":"CNRM1","Station_Nam":"CONNOR TWP","Latitude":"46.95830","Longitude":"-68.03330","Snowdepth":"14.000","Units":"in","Rept_Date":"2020-04-12 12"},"coordinates":[6854,7040]},{"type":"Point","properties":{"Station_ID":"CAN-QC-47","Station_Nam":"SAINTE-FOY 1.8 ENE, CAN","Latitude":"46.76934","Longitude":"-71.27124","Snowdepth":"13.400","Units":"in","Rept_Date":"2020-04-12 12"},"coordinates":[6094,6923]},{"type":"Point","properties":{"Station_ID":"MI-BG-3","Station_Nam":"L'ANSE 17.8 SE, MI","Latitude":"46.55730","Longitude":"-88.20770","Snowdepth":"13.000","Units":"in","Rept_Date":"2020-04-12 13"},"coordinates":[2119,6792]},{"type":"Point","properties":{"Station_ID":"HERM4","Station_Nam":"HERMAN,MI","Latitude":"46.65000","Longitude":"-88.33330","Snowdepth":"13.000","Units":"in","Rept_Date":"2020-04-12 12"},"coordinates":[2089,6849]},{"type":"Point","properties":{"Station_ID":"CARM1","Station_Nam":"CARIBOU WFO","Latitude":"46.86810","Longitude":"-68.01250","Snowdepth":"12.000","Units":"in","Rept_Date":"2020-04-13 04"},"coordinates":[6859,6984]},{"type":"Point","properties":{"Station_ID":"CAR","Station_Nam":"CARIBOU, ME","Latitude":"46.86830","Longitude":"-68.01360","Snowdepth":"12.000","Units":"in","Rept_Date":"2020-04-12 12"},"coordinates":[6859,6985]},{"type":"Point","properties":{"Station_ID":"AUDQ6","Station_Nam":"AUDEN","Latitude":"48.52600","Longitude":"-82.57570","Snowdepth":"10.830","Units":"in","Rept_Date":"2020-04-13 06"},"coordinates":[3440,8013]},{"type":"Point","properties":{"Station_ID":"IBLM5","Station_Nam":"ISABELLA 14W","Latitude":"47.59360","Longitude":"-91.65140","Snowdepth":"10.000","Units":"in","Rept_Date":"2020-04-12 14"},"coordinates":[1310,7435]},{"type":"Point","properties":{"Station_ID":"DHMM1","Station_Nam":"DEDHAM","Latitude":"44.67880","Longitude":"-68.63560","Snowdepth":"10.000","Units":"in","Rept_Date":"2020-04-12 13"},"coordinates":[6713,5626]},{"type":"Point","properties":{"Station_ID":"AVLV1","Station_Nam":"AVERILL","Latitude":"45.00570","Longitude":"-71.69030","Snowdepth":"10.000","Units":"in","Rept_Date":"2020-04-12 12"},"coordinates":[5996,5829]},{"type":"Point","properties":{"Station_ID":"CAN-NB-105","Station_Nam":"SISSON BROOK 3.8 E, CAN","Latitude":"46.98305","Longitude":"-67.32532","Snowdepth":"8.700","Units":"in","Rept_Date":"2020-04-12 12"},"coordinates":[7020,7056]},{"type":"Point","properties":{"Station_ID":"RSRM5","Station_Nam":"ROCHESTER AP 2NE","Latitude":"43.92810","Longitude":"-92.47580","Snowdepth":"8.000","Units":"in","Rept_Date":"2020-04-13 05"},"coordinates":[1117,5160]},{"type":"Point","properties":{"Station_ID":"PTBN3","Station_Nam":"PITTSBURG RESERVOIR","Latitude":"45.04690","Longitude":"-71.38300","Snowdepth":"8.000","Units":"in","Rept_Date":"2020-04-12 12"},"coordinates":[6068,5854]},{"type":"Point","properties":{"Station_ID":"KINM1","Station_Nam":"KINGFIELD","Latitude":"44.95950","Longitude":"-70.17530","Snowdepth":"8.000","Units":"in","Rept_Date":"2020-04-12 12"},"coordinates":[6351,5800]},{"type":"Point","properties":{"Station_ID":"E0729_MADIS","Station_Nam":"EW0729 ROCHESTER","Latitude":"44.03983","Longitude":"-92.43770","Snowdepth":"8.000","Units":"in","Rept_Date":"2020-04-12 20"},"coordinates":[1126,5230]},{"type":"Point","properties":{"Station_ID":"ME-PN-55","Station_Nam":"ORONO 1.1 SSW, ME","Latitude":"44.87005","Longitude":"-68.69446","Snowdepth":"7.500","Units":"in","Rept_Date":"2020-04-12 12"},"coordinates":[6699,5745]},{"type":"Point","properties":{"Station_ID":"ME-KX-6","Station_Nam":"UNION 3.0 NW, ME","Latitude":"44.24435","Longitude":"-69.31540","Snowdepth":"7.500","Units":"in","Rept_Date":"2020-04-12 12"},"coordinates":[6553,5357]},{"type":"Point","properties":{"Station_ID":"SOCQ6","Station_Nam":"SOCKET LAKE","Latitude":"50.77870","Longitude":"-91.79300","Snowdepth":"7.090","Units":"in","Rept_Date":"2020-04-13 06"},"coordinates":[1277,9411]},{"type":"Point","properties":{"Station_ID":"VANM1","Station_Nam":"VAN BUREN","Latitude":"47.16600","Longitude":"-67.93900","Snowdepth":"7.000","Units":"in","Rept_Date":"2020-04-12 11"},"coordinates":[6876,7169]},{"type":"Point","properties":{"Station_ID":"RHRW3","Station_Nam":"RHINELANDER WJFW TV-12","Latitude":"45.62220","Longitude":"-89.41000","Snowdepth":"7.000","Units":"in","Rept_Date":"2020-04-13 03"},"coordinates":[1836,6211]},{"type":"Point","properties":{"Station_ID":"PRDM4","Station_Nam":"PARADISE","Latitude":"46.60380","Longitude":"-85.03960","Snowdepth":"7.000","Units":"in","Rept_Date":"2020-04-12 11"},"coordinates":[2862,6820]},{"type":"Point","properties":{"Station_ID":"IMNM4","Station_Nam":"IRON MOUTAIN 5N","Latitude":"45.87580","Longitude":"-88.04030","Snowdepth":"7.000","Units":"in","Rept_Date":"2020-04-13 00"},"coordinates":[2158,6369]},{"type":"Point","properties":{"Station_ID":"VT-CL-3","Station_Nam":"GROTON 4.4 WSW, VT","Latitude":"44.19440","Longitude":"-72.28240","Snowdepth":"6.800","Units":"in","Rept_Date":"2020-04-12 11"},"coordinates":[5857,5326]},{"type":"Point","properties":{"Station_ID":"MN-GH-33","Station_Nam":"DENNISON 2.0 NNE, MN","Latitude":"44.43470","Longitude":"-93.02000","Snowdepth":"6.500","Units":"in","Rept_Date":"2020-04-12 13"},"coordinates":[989,5475]},{"type":"Point","properties":{"Station_ID":"CAN-NB-2","Station_Nam":"GRAFTON 2.7 NNE, CA","Latitude":"46.17062","Longitude":"-67.55330","Snowdepth":"6.500","Units":"in","Rept_Date":"2020-04-12 11"},"coordinates":[6967,6552]},{"type":"Point","properties":{"Station_ID":"WI-CK-3","Station_Nam":"COLBY 5.9 WSW, WI","Latitude":"44.87209","Longitude":"-90.42463","Snowdepth":"6.000","Units":"in","Rept_Date":"2020-04-13 01"},"coordinates":[1598,5746]},{"type":"Point","properties":{"Station_ID":"TOPM1","Station_Nam":"TOPSFIELD","Latitude":"45.43470","Longitude":"-67.72020","Snowdepth":"6.000","Units":"in","Rept_Date":"2020-04-12 11"},"coordinates":[6927,6095]},{"type":"Point","properties":{"Station_ID":"RANM1","Station_Nam":"RANGELEY","Latitude":"44.98910","Longitude":"-70.67190","Snowdepth":"6.000","Units":"in","Rept_Date":"2020-04-12 14"},"coordinates":[6235,5819]},{"type":"Point","properties":{"Station_ID":"NH-CS-4","Station_Nam":"PITTSBURG 6.1 NE, NH","Latitude":"45.11060","Longitude":"-71.29760","Snowdepth":"6.000","Units":"in","Rept_Date":"2020-04-12 12"},"coordinates":[6088,5894]},{"type":"Point","properties":{"Station_ID":"MPXM5","Station_Nam":"CHANHASSEN WSFO","Latitude":"44.84960","Longitude":"-93.56440","Snowdepth":"6.000","Units":"in","Rept_Date":"2020-04-13 06"},"coordinates":[861,5732]},{"type":"Point","properties":{"Station_ID":"ME-AN-32","Station_Nam":"WINTHROP 9.4 W, ME","Latitude":"44.30476","Longitude":"-70.15835","Snowdepth":"6.000","Units":"in","Rept_Date":"2020-04-12 11"},"coordinates":[6355,5394]},{"type":"Point","properties":{"Station_ID":"JKMM1","Station_Nam":"JACKMAN","Latitude":"45.62600","Longitude":"-70.24600","Snowdepth":"6.000","Units":"in","Rept_Date":"2020-04-12 11"},"coordinates":[6335,6214]},{"type":"Point","properties":{"Station_ID":"HRTM1","Station_Nam":"HARTFORD","Latitude":"44.37440","Longitude":"-70.31620","Snowdepth":"6.000","Units":"in","Rept_Date":"2020-04-12 11"},"coordinates":[6318,5437]},{"type":"Point","properties":{"Station_ID":"ESGM1","Station_Nam":"EAST SANGERVILLE","Latitude":"45.13690","Longitude":"-69.28060","Snowdepth":"6.000","Units":"in","Rept_Date":"2020-04-12 11"},"coordinates":[6561,5910]},{"type":"Point","properties":{"Station_ID":"EAU","Station_Nam":"CHIPPEWA VALLEY REGIONAL AIRPORT","Latitude":"44.86650","Longitude":"-91.48790","Snowdepth":"6.000","Units":"in","Rept_Date":"2020-04-13 00"},"coordinates":[1349,5743]},{"type":"Point","properties":{"Station_ID":"CAN-NB-97","Station_Nam":"NEW MARYLAND 0.6 NW, CAN","Latitude":"45.90112","Longitude":"-66.68739","Snowdepth":"5.900","Units":"in","Rept_Date":"2020-04-12 12"},"coordinates":[7170,6384]},{"type":"Point","properties":{"Station_ID":"CAN-NS-60","Station_Nam":"SYDNEY FORKS, CAN","Latitude":"46.05645","Longitude":"-60.31510","Snowdepth":"5.500","Units":"in","Rept_Date":"2020-04-12 12"},"coordinates":[8666,6481]},{"type":"Point","properties":{"Station_ID":"ZNOM4","Station_Nam":"NORWAY","Latitude":"45.77810","Longitude":"-87.89560","Snowdepth":"5.000","Units":"in","Rept_Date":"2020-04-13 00"},"coordinates":[2192,6308]},{"type":"Point","properties":{"Station_ID":"WI-IR-3","Station_Nam":"PENCE 0.1 E, WI","Latitude":"46.41555","Longitude":"-90.27013","Snowdepth":"5.000","Units":"in","Rept_Date":"2020-04-12 13"},"coordinates":[1634,6704]},{"type":"Point","properties":{"Station_ID":"SAUW3","Station_Nam":"WAUSAU WSAW TV","Latitude":"44.94630","Longitude":"-89.62220","Snowdepth":"5.000","Units":"in","Rept_Date":"2020-04-13 04"},"coordinates":[1786,5792]},{"type":"Point","properties":{"Station_ID":"NH-CR-15","Station_Nam":"JACKSON 3.7 NW, NH","Latitude":"44.19069","Longitude":"-71.22598","Snowdepth":"5.000","Units":"in","Rept_Date":"2020-04-12 12"},"coordinates":[6104,5323]},{"type":"Point","properties":{"Station_ID":"MWTM1","Station_Nam":"MILLINOCKET WWTP","Latitude":"45.64030","Longitude":"-68.67480","Snowdepth":"5.000","Units":"in","Rept_Date":"2020-04-12 10"},"coordinates":[6703,6223]},{"type":"Point","properties":{"Station_ID":"MSP","Station_Nam":"MINNEAPOLIS-ST PAUL INTL AP","Latitude":"44.88310","Longitude":"-93.22890","Snowdepth":"5.000","Units":"in","Rept_Date":"2020-04-13 00"},"coordinates":[940,5753]},{"type":"Point","properties":{"Station_ID":"MN-CK-18","Station_Nam":"GRAND MARAIS 4.4 WSW, MN","Latitude":"47.74462","Longitude":"-90.43796","Snowdepth":"5.000","Units":"in","Rept_Date":"2020-04-12 13"},"coordinates":[1595,7528]},{"type":"Point","properties":{"Station_ID":"ME-SM-10","Station_Nam":"NORTH NEW PORTLAND 0.3 WSW, ME","Latitude":"44.92353","Longitude":"-70.02788","Snowdepth":"5.000","Units":"in","Rept_Date":"2020-04-12 12"},"coordinates":[6386,5778]},{"type":"Point","properties":{"Station_ID":"ME-LN-1","Station_Nam":"NEWCASTLE 2.1 SW, ME","Latitude":"44.02767","Longitude":"-69.56860","Snowdepth":"5.000","Units":"in","Rept_Date":"2020-04-12 12"},"coordinates":[6494,5222]},{"type":"Point","properties":{"Station_ID":"KMSP","Station_Nam":"MINNEAPOLIS-ST PAUL INTERNATIONAL","Latitude":"44.86666","Longitude":"-93.21666","Snowdepth":"5.000","Units":"in","Rept_Date":"2020-04-13 06"},"coordinates":[943,5743]},{"type":"Point","properties":{"Station_ID":"CHES2","Station_Nam":"CHESTER 2N","Latitude":"43.92830","Longitude":"-96.93160","Snowdepth":"5.000","Units":"in","Rept_Date":"2020-04-12 12"},"coordinates":[71,5160]},{"type":"Point","properties":{"Station_ID":"CAN-NB-18","Station_Nam":"MCLEOD HILL 1.1 ENE, CA","Latitude":"46.02725","Longitude":"-66.67460","Snowdepth":"5.000","Units":"in","Rept_Date":"2020-04-12 12"},"coordinates":[7173,6463]},{"type":"Point","properties":{"Station_ID":"KABQ6","Station_Nam":"CAB LAKE","Latitude":"49.59950","Longitude":"-89.17990","Snowdepth":"4.880","Units":"in","Rept_Date":"2020-04-13 06"},"coordinates":[1890,8679]},{"type":"Point","properties":{"Station_ID":"CAN-NB-64","Station_Nam":"KESWICK RIDGE 4.0 SE, CAN","Latitude":"45.97014","Longitude":"-66.85538","Snowdepth":"4.500","Units":"in","Rept_Date":"2020-04-12 13"},"coordinates":[7130,6427]},{"type":"Point","properties":{"Station_ID":"ME-KX-12","Station_Nam":"UNION 3.0 W, ME","Latitude":"44.21320","Longitude":"-69.34160","Snowdepth":"4.300","Units":"in","Rept_Date":"2020-04-12 12"},"coordinates":[6547,5337]},{"type":"Point","properties":{"Station_ID":"CAN-NB-98","Station_Nam":"HOYT 4.2 S, CAN","Latitude":"45.54763","Longitude":"-66.55440","Snowdepth":"4.300","Units":"in","Rept_Date":"2020-04-12 11"},"coordinates":[7201,6165]},{"type":"Point","properties":{"Station_ID":"HPN04_MADIS","Station_Nam":"HANOVER","Latitude":"45.16770","Longitude":"-93.63430","Snowdepth":"4.260","Units":"in","Rept_Date":"2020-04-13 06"},"coordinates":[845,5929]},{"type":"Point","properties":{"Station_ID":"ME-KX-10","Station_Nam":"UNION 2.1 NNE, ME","Latitude":"44.23693","Longitude":"-69.27170","Snowdepth":"4.200","Units":"in","Rept_Date":"2020-04-12 12"},"coordinates":[6563,5352]},{"type":"Point","properties":{"Station_ID":"VT-ES-3","Station_Nam":"LUNENBURG 2.3 NNW, VT","Latitude":"44.49324","Longitude":"-71.70446","Snowdepth":"4.000","Units":"in","Rept_Date":"2020-04-12 11"},"coordinates":[5992,5511]},{"type":"Point","properties":{"Station_ID":"TURM1","Station_Nam":"TURNER","Latitude":"44.28220","Longitude":"-70.25610","Snowdepth":"4.000","Units":"in","Rept_Date":"2020-04-12 11"},"coordinates":[6332,5380]},{"type":"Point","properties":{"Station_ID":"NWSM1","Station_Nam":"NEW SHARON","Latitude":"44.63520","Longitude":"-70.00020","Snowdepth":"4.000","Units":"in","Rept_Date":"2020-04-12 11"},"coordinates":[6392,5599]},{"type":"Point","properties":{"Station_ID":"NESN1","Station_Nam":"CONCORD","Latitude":"42.38440","Longitude":"-96.98830","Snowdepth":"4.000","Units":"in","Rept_Date":"2020-04-12 22"},"coordinates":[58,4203]},{"type":"Point","properties":{"Station_ID":"MRFS2","Station_Nam":"MADISON,SD","Latitude":"44.00000","Longitude":"-97.23330","Snowdepth":"4.000","Units":"in","Rept_Date":"2020-04-12 14"},"coordinates":[0,5205]},{"type":"Point","properties":{"Station_ID":"MONS2","Station_Nam":"MONTROSE","Latitude":"43.70500","Longitude":"-97.18780","Snowdepth":"4.000","Units":"in","Rept_Date":"2020-04-12 13"},"coordinates":[11,5022]},{"type":"Point","properties":{"Station_ID":"MN-CK-6","Station_Nam":"GRAND MARAIS 4.4 W, MN","Latitude":"47.74865","Longitude":"-90.43760","Snowdepth":"4.000","Units":"in","Rept_Date":"2020-04-12 13"},"coordinates":[1595,7531]},{"type":"Point","properties":{"Station_ID":"VT-OL-1","Station_Nam":"WESTFIELD 0.7 WNW, VT","Latitude":"44.89160","Longitude":"-72.44350","Snowdepth":"3.500","Units":"in","Rept_Date":"2020-04-12 12"},"coordinates":[5819,5758]},{"type":"Point","properties":{"Station_ID":"HPN02_MADIS","Station_Nam":"MAPLE GROVE","Latitude":"45.11820","Longitude":"-93.42830","Snowdepth":"3.190","Units":"in","Rept_Date":"2020-04-13 06"},"coordinates":[893,5899]},{"type":"Point","properties":{"Station_ID":"VADM5","Station_Nam":"VADNAIS LAKE","Latitude":"45.04820","Longitude":"-93.09590","Snowdepth":"3.000","Units":"in","Rept_Date":"2020-04-12 19"},"coordinates":[971,5855]},{"type":"Point","properties":{"Station_ID":"RMSI4","Station_Nam":"REMSEN NO. 2","Latitude":"42.81050","Longitude":"-95.97530","Snowdepth":"3.000","Units":"in","Rept_Date":"2020-04-12 15"},"coordinates":[295,4467]},{"type":"Point","properties":{"Station_ID":"POLM1","Station_Nam":"POLAND","Latitude":"44.00700","Longitude":"-70.36140","Snowdepth":"3.000","Units":"in","Rept_Date":"2020-04-12 11"},"coordinates":[6307,5209]},{"type":"Point","properties":{"Station_ID":"MN-RV-8","Station_Nam":"BIRD ISLAND 7.2 SSE, MN","Latitude":"44.66542","Longitude":"-94.85440","Snowdepth":"3.000","Units":"in","Rept_Date":"2020-04-12 13"},"coordinates":[558,5618]},{"type":"Point","properties":{"Station_ID":"MN-HN-216","Station_Nam":"MINNEAPOLIS 1.7 NNW, MN","Latitude":"44.98502","Longitude":"-93.28080","Snowdepth":"3.000","Units":"in","Rept_Date":"2020-04-12 22"},"coordinates":[928,5816]},{"type":"Point","properties":{"Station_ID":"MN-BW-1","Station_Nam":"SPRINGFIELD 1.7 NNW, MN","Latitude":"44.26120","Longitude":"-94.99220","Snowdepth":"3.000","Units":"in","Rept_Date":"2020-04-12 13"},"coordinates":[526,5367]},{"type":"Point","properties":{"Station_ID":"MI-HG-1","Station_Nam":"HOUGHTON 1.6 ESE, MI","Latitude":"47.10774","Longitude":"-88.52940","Snowdepth":"3.000","Units":"in","Rept_Date":"2020-04-12 13"},"coordinates":[2043,7133]},{"type":"Point","properties":{"Station_ID":"ME-KB-25","Station_Nam":"SIDNEY 2.6 NNW, ME","Latitude":"44.44985","Longitude":"-69.73840","Snowdepth":"3.000","Units":"in","Rept_Date":"2020-04-12 12"},"coordinates":[6454,5484]},{"type":"Point","properties":{"Station_ID":"ME-HN-2","Station_Nam":"EAST SURRY, ME","Latitude":"44.49367","Longitude":"-68.45775","Snowdepth":"3.000","Units":"in","Rept_Date":"2020-04-12 13"},"coordinates":[6754,5511]},{"type":"Point","properties":{"Station_ID":"ME-FR-4","Station_Nam":"NEW SHARON 2.0 NW, ME","Latitude":"44.66582","Longitude":"-70.02720","Snowdepth":"3.000","Units":"in","Rept_Date":"2020-04-12 12"},"coordinates":[6386,5618]},{"type":"Point","properties":{"Station_ID":"LNCM1","Station_Nam":"LINCOLN WATER DISTRICT","Latitude":"45.32410","Longitude":"-68.58300","Snowdepth":"3.000","Units":"in","Rept_Date":"2020-04-12 11"},"coordinates":[6725,6026]},{"type":"Point","properties":{"Station_ID":"LILM1","Station_Nam":"LILLE","Latitude":"47.27770","Longitude":"-68.10520","Snowdepth":"3.000","Units":"in","Rept_Date":"2020-04-12 11"},"coordinates":[6837,7239]},{"type":"Point","properties":{"Station_ID":"JEFN3","Station_Nam":"JEFFERSON","Latitude":"44.41690","Longitude":"-71.50080","Snowdepth":"3.000","Units":"in","Rept_Date":"2020-04-12 11"},"coordinates":[6040,5464]},{"type":"Point","properties":{"Station_ID":"ISLV1","Station_Nam":"ISLAND POND","Latitude":"44.81280","Longitude":"-71.89020","Snowdepth":"3.000","Units":"in","Rept_Date":"2020-04-12 17"},"coordinates":[5949,5709]},{"type":"Point","properties":{"Station_ID":"FARM1","Station_Nam":"FARMINGTON","Latitude":"44.68930","Longitude":"-70.15640","Snowdepth":"3.000","Units":"in","Rept_Date":"2020-04-12 12"},"coordinates":[6356,5633]},{"type":"Point","properties":{"Station_ID":"BROS2","Station_Nam":"BROOKINGS,SD","Latitude":"44.31670","Longitude":"-96.76670","Snowdepth":"3.000","Units":"in","Rept_Date":"2020-04-12 13"},"coordinates":[110,5401]},{"type":"Point","properties":{"Station_ID":"BRDM1","Station_Nam":"BRIDGEWATER","Latitude":"46.42870","Longitude":"-67.84370","Snowdepth":"3.000","Units":"in","Rept_Date":"2020-04-12 22"},"coordinates":[6898,6712]},{"type":"Point","properties":{"Station_ID":"BDIM5","Station_Nam":"BIRD ISLAND 7SSE","Latitude":"44.66490","Longitude":"-94.85460","Snowdepth":"3.000","Units":"in","Rept_Date":"2020-04-12 12"},"coordinates":[558,5617]},{"type":"Point","properties":{"Station_ID":"CATQ6","Station_Nam":"CAT LAKE","Latitude":"51.72690","Longitude":"-91.82210","Snowdepth":"2.720","Units":"in","Rept_Date":"2020-04-13 06"},"coordinates":[1270,9999]},{"type":"Point","properties":{"Station_ID":"VT-OL-9","Station_Nam":"GREENSBORO 2.1 NNW, VT","Latitude":"44.60528","Longitude":"-72.30940","Snowdepth":"2.500","Units":"in","Rept_Date":"2020-04-12 12"},"coordinates":[5850,5580]},{"type":"Point","properties":{"Station_ID":"SD-BK-3","Station_Nam":"BROOKINGS 1.4 SW, SD","Latitude":"44.28989","Longitude":"-96.80210","Snowdepth":"2.500","Units":"in","Rept_Date":"2020-04-12 14"},"coordinates":[101,5385]},{"type":"Point","properties":{"Station_ID":"ME-LN-21","Station_Nam":"WESTPORT ISLAND 2.2 SSW, ME","Latitude":"43.88806","Longitude":"-69.70890","Snowdepth":"2.500","Units":"in","Rept_Date":"2020-04-12 13"},"coordinates":[6461,5136]},{"type":"Point","properties":{"Station_ID":"CAN-NB-1","Station_Nam":"FREDERICTON 4.0 SSE, CA","Latitude":"45.92897","Longitude":"-66.62830","Snowdepth":"2.200","Units":"in","Rept_Date":"2020-04-12 12"},"coordinates":[7184,6402]},{"type":"Point","properties":{"Station_ID":"WI-VL-10","Station_Nam":"LAND O LAKES 4.3 WNW, WI","Latitude":"46.17440","Longitude":"-89.30380","Snowdepth":"2.000","Units":"in","Rept_Date":"2020-04-12 13"},"coordinates":[1861,6554]},{"type":"Point","properties":{"Station_ID":"VT-WS-30","Station_Nam":"WOODBURY 3.4 NNW, VT","Latitude":"44.48825","Longitude":"-72.43258","Snowdepth":"2.000","Units":"in","Rept_Date":"2020-04-12 12"},"coordinates":[5821,5508]},{"type":"Point","properties":{"Station_ID":"VT-OL-2","Station_Nam":"BARTON 3.0 ENE, VT","Latitude":"44.75863","Longitude":"-72.11680","Snowdepth":"2.000","Units":"in","Rept_Date":"2020-04-12 12"},"coordinates":[5895,5676]},{"type":"Point","properties":{"Station_ID":"VT-BN-3","Station_Nam":"LANDGROVE 1.1 NNE, VT","Latitude":"43.29092","Longitude":"-72.83260","Snowdepth":"2.000","Units":"in","Rept_Date":"2020-04-12 11"},"coordinates":[5727,4765]},{"type":"Point","properties":{"Station_ID":"SD-MH-20","Station_Nam":"SIOUX FALLS 3.4 ESE, SD","Latitude":"43.52670","Longitude":"-96.66580","Snowdepth":"2.000","Units":"in","Rept_Date":"2020-04-12 14"},"coordinates":[133,4911]},{"type":"Point","properties":{"Station_ID":"SD-MH-1","Station_Nam":"SIOUX FALLS 5.0 SE ARPT, SD","Latitude":"43.52360","Longitude":"-96.66780","Snowdepth":"2.000","Units":"in","Rept_Date":"2020-04-12 13"},"coordinates":[133,4909]},{"type":"Point","properties":{"Station_ID":"SD-BK-7","Station_Nam":"BROOKINGS 0.2 SSW, SD","Latitude":"44.30389","Longitude":"-96.78780","Snowdepth":"2.000","Units":"in","Rept_Date":"2020-04-12 13"},"coordinates":[105,5394]},{"type":"Point","properties":{"Station_ID":"REWM5","Station_Nam":"REDWOOD FALLS","Latitude":"44.54850","Longitude":"-95.09980","Snowdepth":"2.000","Units":"in","Rept_Date":"2020-04-12 12"},"coordinates":[501,5545]},{"type":"Point","properties":{"Station_ID":"ME-SG-1","Station_Nam":"BATH 1.1 WSW, ME","Latitude":"43.93063","Longitude":"-69.85730","Snowdepth":"2.000","Units":"in","Rept_Date":"2020-04-12 11"},"coordinates":[6426,5162]},{"type":"Point","properties":{"Station_ID":"ME-AN-41","Station_Nam":"AUBURN 2.1 NNW, ME","Latitude":"44.11275","Longitude":"-70.26452","Snowdepth":"2.000","Units":"in","Rept_Date":"2020-04-12 12"},"coordinates":[6330,5275]},{"type":"Point","properties":{"Station_ID":"LVRM1","Station_Nam":"LIVERMORE FALLS 1 E","Latitude":"44.47160","Longitude":"-70.15940","Snowdepth":"2.000","Units":"in","Rept_Date":"2020-04-12 11"},"coordinates":[6355,5498]},{"type":"Point","properties":{"Station_ID":"LSNW3","Station_Nam":"LA CROSSE SNOW","Latitude":"43.86220","Longitude":"-91.26660","Snowdepth":"2.000","Units":"in","Rept_Date":"2020-04-13 05"},"coordinates":[1401,5119]},{"type":"Point","properties":{"Station_ID":"LPLN6","Station_Nam":"LAKE PLACID 2 S","Latitude":"44.30420","Longitude":"-73.98390","Snowdepth":"2.000","Units":"in","Rept_Date":"2020-04-12 12"},"coordinates":[5457,5394]},{"type":"Point","properties":{"Station_ID":"KISM4","Station_Nam":"K.I. SAWYER WWTP","Latitude":"46.33410","Longitude":"-87.37790","Snowdepth":"2.000","Units":"in","Rept_Date":"2020-04-12 12"},"coordinates":[2313,6653]},{"type":"Point","properties":{"Station_ID":"KBGR","Station_Nam":"BANGOR INTL AIRPORT","Latitude":"44.80000","Longitude":"-68.81666","Snowdepth":"2.000","Units":"in","Rept_Date":"2020-04-12 18"},"coordinates":[6670,5701]},{"type":"Point","properties":{"Station_ID":"JORM5","Station_Nam":"JORDAN 1SSW","Latitude":"44.65010","Longitude":"-93.63560","Snowdepth":"2.000","Units":"in","Rept_Date":"2020-04-12 10"},"coordinates":[844,5608]},{"type":"Point","properties":{"Station_ID":"JACS2","Station_Nam":"SIOUX FALLS 5.5SE FSD ARPT","Latitude":"43.52610","Longitude":"-96.66390","Snowdepth":"2.000","Units":"in","Rept_Date":"2020-04-12 13"},"coordinates":[134,4911]},{"type":"Point","properties":{"Station_ID":"FSDS2","Station_Nam":"SIOUX FALLS NWS WFO AP","Latitude":"43.58780","Longitude":"-96.73000","Snowdepth":"2.000","Units":"in","Rept_Date":"2020-04-13 05"},"coordinates":[118,4949]},{"type":"Point","properties":{"Station_ID":"FSD","Station_Nam":"SIOUX FALLS, SD","Latitude":"43.58750","Longitude":"-96.72940","Snowdepth":"2.000","Units":"in","Rept_Date":"2020-04-12 12"},"coordinates":[118,4949]},{"type":"Point","properties":{"Station_ID":"COUW3","Station_Nam":"COUDERAY,WI","Latitude":"45.86670","Longitude":"-91.45000","Snowdepth":"2.000","Units":"in","Rept_Date":"2020-04-12 21"},"coordinates":[1357,6363]},{"type":"Point","properties":{"Station_ID":"COLN3","Station_Nam":"COLEBROOK 3SW","Latitude":"44.86100","Longitude":"-71.53920","Snowdepth":"2.000","Units":"in","Rept_Date":"2020-04-12 11"},"coordinates":[6031,5739]},{"type":"Point","properties":{"Station_ID":"CNNS2","Station_Nam":"CANTON","Latitude":"43.31120","Longitude":"-96.58770","Snowdepth":"2.000","Units":"in","Rept_Date":"2020-04-12 13"},"coordinates":[152,4778]},{"type":"Point","properties":{"Station_ID":"CAN-PE-7","Station_Nam":"MORELL 1.4 NNW, CA","Latitude":"46.42741","Longitude":"-62.70870","Snowdepth":"2.000","Units":"in","Rept_Date":"2020-04-12 12"},"coordinates":[8104,6711]},{"type":"Point","properties":{"Station_ID":"CAN-PE-3","Station_Nam":"WELLINGTON 1.6 NE, CA","Latitude":"46.46672","Longitude":"-63.98920","Snowdepth":"2.000","Units":"in","Rept_Date":"2020-04-12 11"},"coordinates":[7803,6735]},{"type":"Point","properties":{"Station_ID":"CAN-NB-104","Station_Nam":"PENNFIELD RIDGE 2.7 SSW, CAN","Latitude":"45.09355","Longitude":"-66.71389","Snowdepth":"2.000","Units":"in","Rept_Date":"2020-04-12 11"},"coordinates":[7164,5883]},{"type":"Point","properties":{"Station_ID":"BTHM1","Station_Nam":"BATH","Latitude":"43.93160","Longitude":"-69.85640","Snowdepth":"2.000","Units":"in","Rept_Date":"2020-04-12 10"},"coordinates":[6426,5163]},{"type":"Point","properties":{"Station_ID":"BGR","Station_Nam":"BANGOR INTERNATIONAL AIRPORT","Latitude":"44.79780","Longitude":"-68.81840","Snowdepth":"2.000","Units":"in","Rept_Date":"2020-04-12 12"},"coordinates":[6670,5700]},{"type":"Point","properties":{"Station_ID":"BETM1","Station_Nam":"BETHEL 6 SSE","Latitude":"44.32000","Longitude":"-70.75680","Snowdepth":"2.000","Units":"in","Rept_Date":"2020-04-12 15"},"coordinates":[6215,5404]},{"type":"Point","properties":{"Station_ID":"ARX","Station_Nam":"LA CROSSE, WI","Latitude":"43.82280","Longitude":"-91.19190","Snowdepth":"2.000","Units":"in","Rept_Date":"2020-04-13 05"},"coordinates":[1418,5095]},{"type":"Point","properties":{"Station_ID":"MN-OL-12","Station_Nam":"ROCHESTER 5.5 N, MN","Latitude":"44.09541","Longitude":"-92.46800","Snowdepth":"1.500","Units":"in","Rept_Date":"2020-04-12 16"},"coordinates":[1119,5264]},{"type":"Point","properties":{"Station_ID":"MN-AA-5","Station_Nam":"EAST BETHEL 3.1 NE, MN","Latitude":"45.38459","Longitude":"-93.15530","Snowdepth":"1.500","Units":"in","Rept_Date":"2020-04-13 06"},"coordinates":[957,6064]},{"type":"Point","properties":{"Station_ID":"ME-CM-125","Station_Nam":"CUMBERLAND CENTER 4.4 NW, ME","Latitude":"43.84640","Longitude":"-70.31340","Snowdepth":"1.500","Units":"in","Rept_Date":"2020-04-12 12"},"coordinates":[6319,5110]},{"type":"Point","properties":{"Station_ID":"HPN21_MADIS","Station_Nam":"FRIDLEY","Latitude":"45.04889","Longitude":"-93.27610","Snowdepth":"1.500","Units":"in","Rept_Date":"2020-04-13 06"},"coordinates":[929,5856]},{"type":"Point","properties":{"Station_ID":"CAN-NB-55","Station_Nam":"FREDERICTON 4.5 N, CAN","Latitude":"45.99547","Longitude":"-66.64252","Snowdepth":"1.300","Units":"in","Rept_Date":"2020-04-12 12"},"coordinates":[7180,6443]},{"type":"Point","properties":{"Station_ID":"SD-CY-10","Station_Nam":"VERMILLION 1.4 SE, SD","Latitude":"42.76865","Longitude":"-96.90649","Snowdepth":"1.200","Units":"in","Rept_Date":"2020-04-12 12"},"coordinates":[77,4441]},{"type":"Point","properties":{"Station_ID":"NFGT1","Station_Nam":"NEW FOUND GAP","Latitude":"35.61080","Longitude":"-83.42890","Snowdepth":"1.070","Units":"in","Rept_Date":"2020-04-13 06"},"coordinates":[3240,0]},{"type":"Point","properties":{"Station_ID":"WNNM5","Station_Nam":"WINNEBAGO","Latitude":"43.76920","Longitude":"-94.18730","Snowdepth":"1.000","Units":"in","Rept_Date":"2020-04-12 13"},"coordinates":[715,5062]},{"type":"Point","properties":{"Station_ID":"WMRM5","Station_Nam":"WILLMAR 5N","Latitude":"45.19010","Longitude":"-95.05860","Snowdepth":"1.000","Units":"in","Rept_Date":"2020-04-12 11"},"coordinates":[510,5943]},{"type":"Point","properties":{"Station_ID":"WI-VL-9","Station_Nam":"LAND O' LAKES 11.7 W, WI","Latitude":"46.19023","Longitude":"-89.45790","Snowdepth":"1.000","Units":"in","Rept_Date":"2020-04-12 13"},"coordinates":[1825,6564]},{"type":"Point","properties":{"Station_ID":"WI-ON-8","Station_Nam":"HAZELHURST 2.1 SSE, WI","Latitude":"45.78186","Longitude":"-89.70330","Snowdepth":"1.000","Units":"in","Rept_Date":"2020-04-12 13"},"coordinates":[1767,6310]},{"type":"Point","properties":{"Station_ID":"WDOM5","Station_Nam":"WINDOM","Latitude":"43.87700","Longitude":"-95.11590","Snowdepth":"1.000","Units":"in","Rept_Date":"2020-04-12 13"},"coordinates":[497,5129]},{"type":"Point","properties":{"Station_ID":"UPSW3","Station_Nam":"UPSON,WI","Latitude":"46.36780","Longitude":"-90.41220","Snowdepth":"1.000","Units":"in","Rept_Date":"2020-04-12 23"},"coordinates":[1601,6674]},{"type":"Point","properties":{"Station_ID":"SUTV1","Station_Nam":"SUTTON","Latitude":"44.61220","Longitude":"-72.04810","Snowdepth":"1.000","Units":"in","Rept_Date":"2020-04-12 12"},"coordinates":[5912,5585]},{"type":"Point","properties":{"Station_ID":"SHDI4","Station_Nam":"SHELDON,IA","Latitude":"43.18080","Longitude":"-95.85280","Snowdepth":"1.000","Units":"in","Rept_Date":"2020-04-12 13"},"coordinates":[324,4697]},{"type":"Point","properties":{"Station_ID":"SD-UN-2","Station_Nam":"ELK POINT 5.6 NNE, SD","Latitude":"42.76126","Longitude":"-96.65320","Snowdepth":"1.000","Units":"in","Rept_Date":"2020-04-12 14"},"coordinates":[136,4436]},{"type":"Point","properties":{"Station_ID":"SD-MH-8","Station_Nam":"HARTFORD 6.4 S, SD","Latitude":"43.53128","Longitude":"-96.95020","Snowdepth":"1.000","Units":"in","Rept_Date":"2020-04-12 14"},"coordinates":[66,4914]},{"type":"Point","properties":{"Station_ID":"SD-MH-41","Station_Nam":"SIOUX FALLS 3.9 SW, SD","Latitude":"43.50475","Longitude":"-96.78660","Snowdepth":"1.000","Units":"in","Rept_Date":"2020-04-12 14"},"coordinates":[105,4898]},{"type":"Point","properties":{"Station_ID":"SD-LN-32","Station_Nam":"SIOUX FALLS 3.6 SSE, SD","Latitude":"43.49360","Longitude":"-96.71249","Snowdepth":"1.000","Units":"in","Rept_Date":"2020-04-12 13"},"coordinates":[122,4891]},{"type":"Point","properties":{"Station_ID":"SD-BK-9","Station_Nam":"BRUCE 4.1 NE, SD","Latitude":"44.48479","Longitude":"-96.83750","Snowdepth":"1.000","Units":"in","Rept_Date":"2020-04-12 13"},"coordinates":[93,5506]},{"type":"Point","properties":{"Station_ID":"NY-ES-11","Station_Nam":"VERMONTVILLE 2.8 S, NY","Latitude":"44.41205","Longitude":"-74.06760","Snowdepth":"1.000","Units":"in","Rept_Date":"2020-04-12 12"},"coordinates":[5438,5461]},{"type":"Point","properties":{"Station_ID":"MVDM5","Station_Nam":"MONTEVIDEO 1SW","Latitude":"44.93410","Longitude":"-95.74590","Snowdepth":"1.000","Units":"in","Rept_Date":"2020-04-12 12"},"coordinates":[349,5785]},{"type":"Point","properties":{"Station_ID":"MNHZK4CP","Station_Nam":"WATERTOWN 0.8 NW","Latitude":"44.97073","Longitude":"-93.85906","Snowdepth":"1.000","Units":"in","Rept_Date":"2020-04-12 12"},"coordinates":[792,5807]},{"type":"Point","properties":{"Station_ID":"MNE9SLWI","Station_Nam":"LEAVENWORTH 5.4 S","Latitude":"44.14481","Longitude":"-94.78882","Snowdepth":"1.000","Units":"in","Rept_Date":"2020-04-12 12"},"coordinates":[574,5295]},{"type":"Point","properties":{"Station_ID":"MN0GWSNW","Station_Nam":"LAKE ELMO 2.9 SE","Latitude":"44.97220","Longitude":"-92.83065","Snowdepth":"1.000","Units":"in","Rept_Date":"2020-04-12 12"},"coordinates":[1033,5808]},{"type":"Point","properties":{"Station_ID":"MN-MT-6","Station_Nam":"FAIRMONT 0.7 E, MN","Latitude":"43.64501","Longitude":"-94.44860","Snowdepth":"1.000","Units":"in","Rept_Date":"2020-04-12 13"},"coordinates":[654,4985]},{"type":"Point","properties":{"Station_ID":"MN-HN-31","Station_Nam":"MAPLE GROVE 1.0 NNE, MN","Latitude":"45.12261","Longitude":"-93.45790","Snowdepth":"1.000","Units":"in","Rept_Date":"2020-04-12 17"},"coordinates":[886,5901]},{"type":"Point","properties":{"Station_ID":"MN-BW-8","Station_Nam":"COMFREY 6.5 ENE, MN","Latitude":"44.15109","Longitude":"-94.78516","Snowdepth":"1.000","Units":"in","Rept_Date":"2020-04-12 13"},"coordinates":[575,5299]},{"type":"Point","properties":{"Station_ID":"MMLM5","Station_Nam":"DIVERSION","Latitude":"44.47060","Longitude":"-95.80000","Snowdepth":"1.000","Units":"in","Rept_Date":"2020-04-12 13"},"coordinates":[336,5497]},{"type":"Point","properties":{"Station_ID":"ME-PN-47","Station_Nam":"MILFORD 0.8 SSW, ME","Latitude":"44.94108","Longitude":"-68.64154","Snowdepth":"1.000","Units":"in","Rept_Date":"2020-04-12 11"},"coordinates":[6711,5789]},{"type":"Point","properties":{"Station_ID":"ME-HN-4","Station_Nam":"MARIAVILLE 1.4 ESE, ME","Latitude":"44.71810","Longitude":"-68.38810","Snowdepth":"1.000","Units":"in","Rept_Date":"2020-04-12 13"},"coordinates":[6771,5650]},{"type":"Point","properties":{"Station_ID":"ME-CM-137","Station_Nam":"GRAY 1.5 NE, ME","Latitude":"43.90034","Longitude":"-70.30883","Snowdepth":"1.000","Units":"in","Rept_Date":"2020-04-12 12"},"coordinates":[6320,5143]},{"type":"Point","properties":{"Station_ID":"LYON1","Station_Nam":"LYONS,NE","Latitude":"41.93810","Longitude":"-96.47920","Snowdepth":"1.000","Units":"in","Rept_Date":"2020-04-12 13"},"coordinates":[177,3926]},{"type":"Point","properties":{"Station_ID":"LSE","Station_Nam":"LA CROSSE MUNICIPAL AIRPORT","Latitude":"43.87920","Longitude":"-91.25610","Snowdepth":"1.000","Units":"in","Rept_Date":"2020-04-13 00"},"coordinates":[1403,5130]},{"type":"Point","properties":{"Station_ID":"LNOW3","Station_Nam":"LAND O LAKES","Latitude":"46.19000","Longitude":"-89.45700","Snowdepth":"1.000","Units":"in","Rept_Date":"2020-04-12 12"},"coordinates":[1825,6564]},{"type":"Point","properties":{"Station_ID":"LKFM5","Station_Nam":"LAKEFIELD,MN","Latitude":"43.68330","Longitude":"-95.18330","Snowdepth":"1.000","Units":"in","Rept_Date":"2020-04-12 12"},"coordinates":[481,5008]},{"type":"Point","properties":{"Station_ID":"JOHV1","Station_Nam":"JOHNSON 2 N","Latitude":"44.65790","Longitude":"-72.67850","Snowdepth":"1.000","Units":"in","Rept_Date":"2020-04-12 11"},"coordinates":[5764,5613]},{"type":"Point","properties":{"Station_ID":"GYX","Station_Nam":"PORTLAND, ME","Latitude":"43.89250","Longitude":"-70.25500","Snowdepth":"1.000","Units":"in","Rept_Date":"2020-04-12 12"},"coordinates":[6332,5138]},{"type":"Point","properties":{"Station_ID":"COVM4","Station_Nam":"COVINGTON","Latitude":"46.55880","Longitude":"-88.54190","Snowdepth":"1.000","Units":"in","Rept_Date":"2020-04-12 12"},"coordinates":[2040,6793]},{"type":"Point","properties":{"Station_ID":"COKM5","Station_Nam":"COOK","Latitude":"47.85060","Longitude":"-92.69250","Snowdepth":"1.000","Units":"in","Rept_Date":"2020-04-12 11"},"coordinates":[1066,7594]},{"type":"Point","properties":{"Station_ID":"BNDM5","Station_Nam":"ELY 25E","Latitude":"47.97190","Longitude":"-91.44860","Snowdepth":"1.000","Units":"in","Rept_Date":"2020-04-12 12"},"coordinates":[1358,7669]}]}},"arcs":[],"transform":{"scale":[0.0042603600360036,0.001611771177117712],"translate":[-97.2333,35.6108]}}