{"type":"Topology","objects":{"snowdepth_geo":{"type":"GeometryCollection","name":"snowdepth","crs":{"type":"name","properties":{"name":"urn:ogc:def:crs:OGC:1.3:CRS84"}},"geometries":[{"type":"Point","properties":{"Station_ID":"PRKM4","Station_Nam":"MUNISING EAST","Latitude":"46.42580","Longitude":"-86.62000","Snowdepth":"76.500","Units":"in","Rept_Date":"2020-01-09 06"},"coordinates":[2429,6710]},{"type":"Point","properties":{"Station_ID":"OGIQ6","Station_Nam":"OGOKI CAMP","Latitude":"50.76680","Longitude":"-87.85820","Snowdepth":"61.100","Units":"in","Rept_Date":"2020-01-09 06"},"coordinates":[2145,9403]},{"type":"Point","properties":{"Station_ID":"AUDQ6","Station_Nam":"AUDEN","Latitude":"48.52600","Longitude":"-82.57570","Snowdepth":"47.640","Units":"in","Rept_Date":"2020-01-09 06"},"coordinates":[3354,8013]},{"type":"Point","properties":{"Station_ID":"DVLQ6","Station_Nam":"DEVIOUS LAKE","Latitude":"49.19890","Longitude":"-87.76440","Snowdepth":"43.460","Units":"in","Rept_Date":"2020-01-09 06"},"coordinates":[2167,8431]},{"type":"Point","properties":{"Station_ID":"HTLN3","Station_Nam":"HERMIT LAKE SNOWPLOT","Latitude":"44.26130","Longitude":"-71.28330","Snowdepth":"41.000","Units":"in","Rept_Date":"2020-01-08 10"},"coordinates":[5936,5367]},{"type":"Point","properties":{"Station_ID":"PDLM4","Station_Nam":"PAINESDALE","Latitude":"47.04160","Longitude":"-88.67170","Snowdepth":"39.000","Units":"in","Rept_Date":"2020-01-08 13"},"coordinates":[1959,7092]},{"type":"Point","properties":{"Station_ID":"GMSM4","Station_Nam":"GRAND MARAIS 10S","Latitude":"46.50940","Longitude":"-85.96310","Snowdepth":"39.000","Units":"in","Rept_Date":"2020-01-08 12"},"coordinates":[2579,6762]},{"type":"Point","properties":{"Station_ID":"MMNV1","Station_Nam":"MT. MANSFIELD","Latitude":"44.52480","Longitude":"-72.81540","Snowdepth":"33.000","Units":"in","Rept_Date":"2020-01-08 21"},"coordinates":[5586,5531]},{"type":"Point","properties":{"Station_ID":"HVCN3","Station_Nam":"HARVARD CABIN SNOWPLOT","Latitude":"44.26630","Longitude":"-71.27790","Snowdepth":"32.000","Units":"in","Rept_Date":"2020-01-08 11"},"coordinates":[5937,5370]},{"type":"Point","properties":{"Station_ID":"QGO","Station_Nam":"QGO","Latitude":"48.85500","Longitude":"-74.20640","Snowdepth":"30.039","Units":"in","Rept_Date":"2020-01-08 12"},"coordinates":[5268,8217]},{"type":"Point","properties":{"Station_ID":"WLFM5","Station_Nam":"WOLF RIDGE ENVIRON LEARNING CENTER","Latitude":"47.38240","Longitude":"-91.19730","Snowdepth":"30.000","Units":"in","Rept_Date":"2020-01-08 13"},"coordinates":[1382,7304]},{"type":"Point","properties":{"Station_ID":"KSGM4","Station_Nam":"KEARSARGE","Latitude":"47.27520","Longitude":"-88.41700","Snowdepth":"30.000","Units":"in","Rept_Date":"2020-01-08 13"},"coordinates":[2018,7237]},{"type":"Point","properties":{"Station_ID":"QOU","Station_Nam":"QOU","Latitude":"50.79250","Longitude":"-69.67470","Snowdepth":"28.150","Units":"in","Rept_Date":"2020-01-08 12"},"coordinates":[6304,9419]},{"type":"Point","properties":{"Station_ID":"QGD","Station_Nam":"QGD","Latitude":"51.11140","Longitude":"-67.13940","Snowdepth":"27.441","Units":"in","Rept_Date":"2020-01-08 12"},"coordinates":[6884,9617]},{"type":"Point","properties":{"Station_ID":"QCU","Station_Nam":"QCU","Latitude":"47.82750","Longitude":"-76.59830","Snowdepth":"27.441","Units":"in","Rept_Date":"2020-01-08 12"},"coordinates":[4721,7580]},{"type":"Point","properties":{"Station_ID":"QNCM4","Station_Nam":"QUINCY HILL","Latitude":"47.13640","Longitude":"-88.57950","Snowdepth":"27.000","Units":"in","Rept_Date":"2020-01-08 12"},"coordinates":[1980,7151]},{"type":"Point","properties":{"Station_ID":"NWCM4","Station_Nam":"NEWBERRY CITY","Latitude":"46.35720","Longitude":"-85.51780","Snowdepth":"27.000","Units":"in","Rept_Date":"2020-01-08 12"},"coordinates":[2681,6667]},{"type":"Point","properties":{"Station_ID":"HURW3","Station_Nam":"HURLEY","Latitude":"46.46250","Longitude":"-90.19550","Snowdepth":"27.000","Units":"in","Rept_Date":"2020-01-08 14"},"coordinates":[1611,6733]},{"type":"Point","properties":{"Station_ID":"MLZ","Station_Nam":"MLZ","Latitude":"50.66170","Longitude":"-68.82360","Snowdepth":"26.575","Units":"in","Rept_Date":"2020-01-08 12"},"coordinates":[6499,9338]},{"type":"Point","properties":{"Station_ID":"MI-BG-3","Station_Nam":"L'ANSE 17.8 SE, MI","Latitude":"46.55730","Longitude":"-88.20770","Snowdepth":"26.000","Units":"in","Rept_Date":"2020-01-08 13"},"coordinates":[2065,6792]},{"type":"Point","properties":{"Station_ID":"PRDM4","Station_Nam":"PARADISE","Latitude":"46.60380","Longitude":"-85.03960","Snowdepth":"25.000","Units":"in","Rept_Date":"2020-01-08 11"},"coordinates":[2790,6820]},{"type":"Point","properties":{"Station_ID":"NOHM5","Station_Nam":"NORTHOME","Latitude":"47.83590","Longitude":"-94.25550","Snowdepth":"25.000","Units":"in","Rept_Date":"2020-01-08 13"},"coordinates":[682,7585]},{"type":"Point","properties":{"Station_ID":"MQT","Station_Nam":"MARQUETTE, MI","Latitude":"46.53140","Longitude":"-87.54920","Snowdepth":"25.000","Units":"in","Rept_Date":"2020-01-09 06"},"coordinates":[2216,6776]},{"type":"Point","properties":{"Station_ID":"MNSM4","Station_Nam":"MUNISING","Latitude":"46.41210","Longitude":"-86.66250","Snowdepth":"25.000","Units":"in","Rept_Date":"2020-01-08 11"},"coordinates":[2419,6702]},{"type":"Point","properties":{"Station_ID":"IWOM4","Station_Nam":"IRONWOOD#2","Latitude":"46.46520","Longitude":"-90.13820","Snowdepth":"25.000","Units":"in","Rept_Date":"2020-01-08 13"},"coordinates":[1624,6734]},{"type":"Point","properties":{"Station_ID":"IBLM5","Station_Nam":"ISABELLA 14W","Latitude":"47.59360","Longitude":"-91.65140","Snowdepth":"25.000","Units":"in","Rept_Date":"2020-01-08 15"},"coordinates":[1278,7435]},{"type":"Point","properties":{"Station_ID":"BERM4","Station_Nam":"BERGLAND DAM","Latitude":"46.58690","Longitude":"-89.54750","Snowdepth":"25.000","Units":"in","Rept_Date":"2020-01-08 13"},"coordinates":[1759,6810]},{"type":"Point","properties":{"Station_ID":"UPSW3","Station_Nam":"UPSON,WI","Latitude":"46.36780","Longitude":"-90.41220","Snowdepth":"24.000","Units":"in","Rept_Date":"2020-01-09 00"},"coordinates":[1561,6674]},{"type":"Point","properties":{"Station_ID":"MN-SL-15","Station_Nam":"CHISHOLM 0.4 WSW, MN","Latitude":"47.48557","Longitude":"-92.88690","Snowdepth":"23.500","Units":"in","Rept_Date":"2020-01-08 13"},"coordinates":[995,7368]},{"type":"Point","properties":{"Station_ID":"QLB","Station_Nam":"QLB","Latitude":"50.72360","Longitude":"-75.10000","Snowdepth":"23.228","Units":"in","Rept_Date":"2020-01-08 12"},"coordinates":[5063,9377]},{"type":"Point","properties":{"Station_ID":"WRPW3","Station_Nam":"WATER PURIFICATION PLANT","Latitude":"44.38800","Longitude":"-89.80550","Snowdepth":"23.000","Units":"in","Rept_Date":"2020-01-08 12"},"coordinates":[1700,5446]},{"type":"Point","properties":{"Station_ID":"WI-VL-10","Station_Nam":"LAND O LAKES 4.3 WNW, WI","Latitude":"46.17440","Longitude":"-89.30380","Snowdepth":"22.500","Units":"in","Rept_Date":"2020-01-08 13"},"coordinates":[1815,6554]},{"type":"Point","properties":{"Station_ID":"WI-IR-3","Station_Nam":"PENCE 0.1 E, WI","Latitude":"46.41555","Longitude":"-90.27013","Snowdepth":"22.500","Units":"in","Rept_Date":"2020-01-08 13"},"coordinates":[1594,6704]},{"type":"Point","properties":{"Station_ID":"QYR","Station_Nam":"QYR","Latitude":"48.87220","Longitude":"-75.61470","Snowdepth":"22.323","Units":"in","Rept_Date":"2020-01-08 12"},"coordinates":[4946,8228]},{"type":"Point","properties":{"Station_ID":"QCX","Station_Nam":"QCX","Latitude":"51.32830","Longitude":"-70.08060","Snowdepth":"22.008","Units":"in","Rept_Date":"2020-01-08 12"},"coordinates":[6211,9752]},{"type":"Point","properties":{"Station_ID":"WRSM5","Station_Nam":"WRENSHALL","Latitude":"46.61550","Longitude":"-92.38380","Snowdepth":"22.000","Units":"in","Rept_Date":"2020-01-08 14"},"coordinates":[1110,6828]},{"type":"Point","properties":{"Station_ID":"WNBM5","Station_Nam":"DAM","Latitude":"47.43060","Longitude":"-94.05000","Snowdepth":"22.000","Units":"in","Rept_Date":"2020-01-08 14"},"coordinates":[729,7333]},{"type":"Point","properties":{"Station_ID":"PDGM4","Station_Nam":"PAULDING","Latitude":"46.39760","Longitude":"-89.17940","Snowdepth":"22.000","Units":"in","Rept_Date":"2020-01-08 13"},"coordinates":[1843,6693]},{"type":"Point","properties":{"Station_ID":"LVDW3","Station_Nam":"LAC VIEUX DESERT","Latitude":"46.12110","Longitude":"-89.07580","Snowdepth":"22.000","Units":"in","Rept_Date":"2020-01-08 15"},"coordinates":[1867,6521]},{"type":"Point","properties":{"Station_ID":"ILIM5","Station_Nam":"ISLAND LAKE","Latitude":"47.02400","Longitude":"-92.07000","Snowdepth":"22.000","Units":"in","Rept_Date":"2020-01-08 15"},"coordinates":[1182,7081]},{"type":"Point","properties":{"Station_ID":"GNLM4","Station_Nam":"GREENLAND 6N","Latitude":"46.87360","Longitude":"-89.10060","Snowdepth":"22.000","Units":"in","Rept_Date":"2020-01-08 13"},"coordinates":[1861,6988]},{"type":"Point","properties":{"Station_ID":"CLQM5","Station_Nam":"CLOQUET","Latitude":"46.70470","Longitude":"-92.52530","Snowdepth":"22.000","Units":"in","Rept_Date":"2020-01-08 14"},"coordinates":[1078,6883]},{"type":"Point","properties":{"Station_ID":"BBEM4","Station_Nam":"BIG BAY 9SW","Latitude":"46.74620","Longitude":"-87.88160","Snowdepth":"22.000","Units":"in","Rept_Date":"2020-01-08 13"},"coordinates":[2140,6909]},{"type":"Point","properties":{"Station_ID":"CAN-NL-81","Station_Nam":"GRAND FALLS-WINDSOR 1.2 S, CAN","Latitude":"48.93123","Longitude":"-55.65333","Snowdepth":"21.700","Units":"in","Rept_Date":"2020-01-08 10"},"coordinates":[9511,8264]},{"type":"Point","properties":{"Station_ID":"PTLQ6","Station_Nam":"PORTAGE LAKE","Latitude":"49.06950","Longitude":"-86.65940","Snowdepth":"21.380","Units":"in","Rept_Date":"2020-01-09 06"},"coordinates":[2420,8350]},{"type":"Point","properties":{"Station_ID":"SVBQ6","Station_Nam":"SAVANT BASE","Latitude":"50.28730","Longitude":"-90.65670","Snowdepth":"21.140","Units":"in","Rept_Date":"2020-01-09 06"},"coordinates":[1505,9106]},{"type":"Point","properties":{"Station_ID":"VT-OL-12","Station_Nam":"GREENSBORO 3.9 NNE, VT","Latitude":"44.63100","Longitude":"-72.28000","Snowdepth":"21.000","Units":"in","Rept_Date":"2020-01-08 12"},"coordinates":[5708,5596]},{"type":"Point","properties":{"Station_ID":"TOGM5","Station_Nam":"CELINA 2E","Latitude":"47.86630","Longitude":"-93.02660","Snowdepth":"21.000","Units":"in","Rept_Date":"2020-01-08 14"},"coordinates":[963,7604]},{"type":"Point","properties":{"Station_ID":"MI-MQ-19","Station_Nam":"ISHPEMING 7.2 SW, MI","Latitude":"46.40550","Longitude":"-87.75670","Snowdepth":"21.000","Units":"in","Rept_Date":"2020-01-08 11"},"coordinates":[2169,6697]},{"type":"Point","properties":{"Station_ID":"BNDM5","Station_Nam":"ELY 25E","Latitude":"47.97190","Longitude":"-91.44860","Snowdepth":"21.000","Units":"in","Rept_Date":"2020-01-08 13"},"coordinates":[1324,7669]},{"type":"Point","properties":{"Station_ID":"BABM5","Station_Nam":"BABBITT","Latitude":"47.71210","Longitude":"-91.95330","Snowdepth":"21.000","Units":"in","Rept_Date":"2020-01-08 13"},"coordinates":[1209,7508]},{"type":"Point","properties":{"Station_ID":"QMD","Station_Nam":"QMD","Latitude":"49.29060","Longitude":"-75.84500","Snowdepth":"20.866","Units":"in","Rept_Date":"2020-01-08 12"},"coordinates":[4893,8487]},{"type":"Point","properties":{"Station_ID":"TRIQ6","Station_Nam":"TRIO LAKE","Latitude":"49.22880","Longitude":"-87.22920","Snowdepth":"20.750","Units":"in","Rept_Date":"2020-01-09 06"},"coordinates":[2289,8449]},{"type":"Point","properties":{"Station_ID":"MN-BK-6","Station_Nam":"LAKE PARK 6.0 S, MN","Latitude":"46.79850","Longitude":"-96.12180","Snowdepth":"20.500","Units":"in","Rept_Date":"2020-01-08 13"},"coordinates":[255,6941]},{"type":"Point","properties":{"Station_ID":"WI-WB-2","Station_Nam":"STONE LAKE 2.0 NW, WI","Latitude":"45.85960","Longitude":"-91.57710","Snowdepth":"20.000","Units":"in","Rept_Date":"2020-01-08 13"},"coordinates":[1295,6359]},{"type":"Point","properties":{"Station_ID":"WI-VL-9","Station_Nam":"LAND O' LAKES 11.7 W, WI","Latitude":"46.19023","Longitude":"-89.45790","Snowdepth":"20.000","Units":"in","Rept_Date":"2020-01-08 13"},"coordinates":[1780,6564]},{"type":"Point","properties":{"Station_ID":"MI-HG-6","Station_Nam":"CALUMET 5.8 ENE, MI","Latitude":"47.27200","Longitude":"-88.33400","Snowdepth":"20.000","Units":"in","Rept_Date":"2020-01-08 11"},"coordinates":[2037,7235]},{"type":"Point","properties":{"Station_ID":"MCLN8","Station_Nam":"MC LEOD,ND","Latitude":"46.40250","Longitude":"-97.23810","Snowdepth":"20.000","Units":"in","Rept_Date":"2020-01-08 14"},"coordinates":[0,6696]},{"type":"Point","properties":{"Station_ID":"LNOW3","Station_Nam":"LAND O LAKES","Latitude":"46.19000","Longitude":"-89.45700","Snowdepth":"20.000","Units":"in","Rept_Date":"2020-01-08 13"},"coordinates":[1780,6564]},{"type":"Point","properties":{"Station_ID":"KISM4","Station_Nam":"K.I. SAWYER WWTP","Latitude":"46.33410","Longitude":"-87.37790","Snowdepth":"20.000","Units":"in","Rept_Date":"2020-01-08 13"},"coordinates":[2255,6653]},{"type":"Point","properties":{"Station_ID":"DLHM5","Station_Nam":"DULUTH NWS","Latitude":"46.83680","Longitude":"-92.21080","Snowdepth":"20.000","Units":"in","Rept_Date":"2020-01-09 06"},"coordinates":[1150,6965]},{"type":"Point","properties":{"Station_ID":"DLH","Station_Nam":"DULUTH, MN","Latitude":"46.83690","Longitude":"-92.21030","Snowdepth":"20.000","Units":"in","Rept_Date":"2020-01-09 00"},"coordinates":[1150,6965]},{"type":"Point","properties":{"Station_ID":"CRNM5","Station_Nam":"NW EXPERIMENT STN","Latitude":"47.80360","Longitude":"-96.61670","Snowdepth":"20.000","Units":"in","Rept_Date":"2020-01-08 14"},"coordinates":[142,7565]},{"type":"Point","properties":{"Station_ID":"CLKM4","Station_Nam":"CLARKSBURG","Latitude":"46.49910","Longitude":"-87.84500","Snowdepth":"20.000","Units":"in","Rept_Date":"2020-01-08 12"},"coordinates":[2148,6755]},{"type":"Point","properties":{"Station_ID":"BRMM5","Station_Nam":"BRIMSON 2S","Latitude":"47.24720","Longitude":"-91.86240","Snowdepth":"20.000","Units":"in","Rept_Date":"2020-01-09 01"},"coordinates":[1230,7220]},{"type":"Point","properties":{"Station_ID":"QWE","Station_Nam":"QWE","Latitude":"47.84610","Longitude":"-73.80670","Snowdepth":"19.921","Units":"in","Rept_Date":"2020-01-08 12"},"coordinates":[5359,7591]},{"type":"Point","properties":{"Station_ID":"MN-IT-23","Station_Nam":"BOVEY 13.4 N, MN","Latitude":"47.48855","Longitude":"-93.43497","Snowdepth":"19.500","Units":"in","Rept_Date":"2020-01-08 13"},"coordinates":[870,7369]},{"type":"Point","properties":{"Station_ID":"QFT","Station_Nam":"QFT","Latitude":"50.83280","Longitude":"-74.40390","Snowdepth":"19.409","Units":"in","Rept_Date":"2020-01-08 12"},"coordinates":[5223,9444]},{"type":"Point","properties":{"Station_ID":"QTV","Station_Nam":"QTV","Latitude":"49.66000","Longitude":"-69.35690","Snowdepth":"19.213","Units":"in","Rept_Date":"2020-01-08 12"},"coordinates":[6377,8717]},{"type":"Point","properties":{"Station_ID":"KABQ6","Station_Nam":"CAB LAKE","Latitude":"49.59950","Longitude":"-89.17990","Snowdepth":"19.060","Units":"in","Rept_Date":"2020-01-09 06"},"coordinates":[1843,8679]},{"type":"Point","properties":{"Station_ID":"SUTV1","Station_Nam":"SUTTON","Latitude":"44.61220","Longitude":"-72.04810","Snowdepth":"19.000","Units":"in","Rept_Date":"2020-01-08 12"},"coordinates":[5761,5585]},{"type":"Point","properties":{"Station_ID":"STGW3","Station_Nam":"ST GERMAIN","Latitude":"45.91550","Longitude":"-89.48940","Snowdepth":"19.000","Units":"in","Rept_Date":"2020-01-08 12"},"coordinates":[1772,6393]},{"type":"Point","properties":{"Station_ID":"MI-HG-1","Station_Nam":"HOUGHTON 1.6 ESE, MI","Latitude":"47.10774","Longitude":"-88.52940","Snowdepth":"19.000","Units":"in","Rept_Date":"2020-01-08 13"},"coordinates":[1992,7133]},{"type":"Point","properties":{"Station_ID":"MAIW3","Station_Nam":"MADELINE ISLAND","Latitude":"46.78330","Longitude":"-90.76670","Snowdepth":"19.000","Units":"in","Rept_Date":"2020-01-08 14"},"coordinates":[1480,6932]},{"type":"Point","properties":{"Station_ID":"EVRW3","Station_Nam":"EAGLE RIVER-4 E","Latitude":"45.91890","Longitude":"-89.15280","Snowdepth":"19.000","Units":"in","Rept_Date":"2020-01-08 13"},"coordinates":[1849,6396]},{"type":"Point","properties":{"Station_ID":"SWSN6","Station_Nam":"STILLWATER RESERVOIR AREA","Latitude":"43.90000","Longitude":"-75.03330","Snowdepth":"18.700","Units":"in","Rept_Date":"2020-01-08 18"},"coordinates":[5079,5143]},{"type":"Point","properties":{"Station_ID":"QCO","Station_Nam":"QCO","Latitude":"51.45280","Longitude":"-72.20110","Snowdepth":"18.661","Units":"in","Rept_Date":"2020-01-08 12"},"coordinates":[5726,9829]},{"type":"Point","properties":{"Station_ID":"WI-BY-14","Station_Nam":"ASHLAND 9.8 W, WI","Latitude":"46.59742","Longitude":"-91.07856","Snowdepth":"18.500","Units":"in","Rept_Date":"2020-01-08 12"},"coordinates":[1409,6816]},{"type":"Point","properties":{"Station_ID":"QMA","Station_Nam":"QMA","Latitude":"50.10330","Longitude":"-70.47190","Snowdepth":"18.386","Units":"in","Rept_Date":"2020-01-08 12"},"coordinates":[6122,8992]},{"type":"Point","properties":{"Station_ID":"WTRM4","Station_Nam":"WATERSMEET 12WSW","Latitude":"46.22310","Longitude":"-89.40850","Snowdepth":"18.000","Units":"in","Rept_Date":"2020-01-08 12"},"coordinates":[1791,6584]},{"type":"Point","properties":{"Station_ID":"WI-VL-14","Station_Nam":"BOULDER JUNCTION 1.4 NE, WI","Latitude":"46.12840","Longitude":"-89.62470","Snowdepth":"18.000","Units":"in","Rept_Date":"2020-01-08 14"},"coordinates":[1741,6525]},{"type":"Point","properties":{"Station_ID":"SUAW3","Station_Nam":"SUAMICO","Latitude":"44.60190","Longitude":"-88.09780","Snowdepth":"18.000","Units":"in","Rept_Date":"2020-01-08 12"},"coordinates":[2091,5578]},{"type":"Point","properties":{"Station_ID":"RHIW3","Station_Nam":"RHINELANDER","Latitude":"45.59860","Longitude":"-89.45080","Snowdepth":"18.000","Units":"in","Rept_Date":"2020-01-08 13"},"coordinates":[1781,6197]},{"type":"Point","properties":{"Station_ID":"PKGM5","Station_Nam":"POKEGANA LK DAM","Latitude":"47.25080","Longitude":"-93.58610","Snowdepth":"18.000","Units":"in","Rept_Date":"2020-01-08 14"},"coordinates":[835,7222]},{"type":"Point","properties":{"Station_ID":"MWN","Station_Nam":"MOUNT WASHINGTON","Latitude":"44.26670","Longitude":"-71.30000","Snowdepth":"18.000","Units":"in","Rept_Date":"2020-01-09 05"},"coordinates":[5932,5370]},{"type":"Point","properties":{"Station_ID":"KMWN","Station_Nam":"MOUNT WASHINGTON","Latitude":"44.26666","Longitude":"-71.30000","Snowdepth":"18.000","Units":"in","Rept_Date":"2020-01-09 06"},"coordinates":[5932,5370]},{"type":"Point","properties":{"Station_ID":"IRMM4","Station_Nam":"WWTP","Latitude":"46.46670","Longitude":"-90.18330","Snowdepth":"18.000","Units":"in","Rept_Date":"2020-01-08 13"},"coordinates":[1614,6735]},{"type":"Point","properties":{"Station_ID":"GLRM5","Station_Nam":"GLACIAL RIDGE","Latitude":"47.71670","Longitude":"-96.26670","Snowdepth":"18.000","Units":"in","Rept_Date":"2020-01-09 06"},"coordinates":[222,7511]},{"type":"Point","properties":{"Station_ID":"CSLM5","Station_Nam":"CASS LAKE,MN","Latitude":"47.38470","Longitude":"-94.61470","Snowdepth":"18.000","Units":"in","Rept_Date":"2020-01-08 14"},"coordinates":[600,7305]},{"type":"Point","properties":{"Station_ID":"CAN-NL-14","Station_Nam":"WHITBOURNE 1.4 NE, CA","Latitude":"47.42741","Longitude":"-53.51950","Snowdepth":"17.300","Units":"in","Rept_Date":"2020-01-08 10"},"coordinates":[9999,7331]},{"type":"Point","properties":{"Station_ID":"MFU","Station_Nam":"MFU","Latitude":"51.52170","Longitude":"-66.91110","Snowdepth":"17.126","Units":"in","Rept_Date":"2020-01-08 12"},"coordinates":[6936,9872]},{"type":"Point","properties":{"Station_ID":"VT-OL-1","Station_Nam":"WESTFIELD 0.7 WNW, VT","Latitude":"44.89160","Longitude":"-72.44350","Snowdepth":"17.000","Units":"in","Rept_Date":"2020-01-08 12"},"coordinates":[5671,5758]},{"type":"Point","properties":{"Station_ID":"MN-CK-3","Station_Nam":"TOFTE 4.9 NE, MN","Latitude":"47.62394","Longitude":"-90.76100","Snowdepth":"17.000","Units":"in","Rept_Date":"2020-01-08 13"},"coordinates":[1481,7453]},{"type":"Point","properties":{"Station_ID":"LEIM5","Station_Nam":"ORR 3E","Latitude":"48.05810","Longitude":"-92.75220","Snowdepth":"17.000","Units":"in","Rept_Date":"2020-01-08 12"},"coordinates":[1026,7723]},{"type":"Point","properties":{"Station_ID":"JOHV1","Station_Nam":"JOHNSON 2 N","Latitude":"44.65790","Longitude":"-72.67850","Snowdepth":"17.000","Units":"in","Rept_Date":"2020-01-08 12"},"coordinates":[5617,5613]},{"type":"Point","properties":{"Station_ID":"GLDM4","Station_Nam":"GLADSTONE NO. 2","Latitude":"45.84330","Longitude":"-87.03910","Snowdepth":"17.000","Units":"in","Rept_Date":"2020-01-08 12"},"coordinates":[2333,6349]},{"type":"Point","properties":{"Station_ID":"EMBM5","Station_Nam":"EMBARASS,MN","Latitude":"47.65810","Longitude":"-92.19580","Snowdepth":"17.000","Units":"in","Rept_Date":"2020-01-08 12"},"coordinates":[1153,7475]},{"type":"Point","properties":{"Station_ID":"ELYM5","Station_Nam":"ELY","Latitude":"47.90560","Longitude":"-91.82830","Snowdepth":"17.000","Units":"in","Rept_Date":"2020-01-08 15"},"coordinates":[1237,7628]},{"type":"Point","properties":{"Station_ID":"EGRW3","Station_Nam":"EAGLE RIVER-SOUTH","Latitude":"45.91360","Longitude":"-89.24360","Snowdepth":"17.000","Units":"in","Rept_Date":"2020-01-08 13"},"coordinates":[1829,6392]},{"type":"Point","properties":{"Station_ID":"CBVM1","Station_Nam":"CARRABASSETT VALLEY","Latitude":"45.08040","Longitude":"-70.30310","Snowdepth":"17.000","Units":"in","Rept_Date":"2020-01-08 12"},"coordinates":[6160,5875]},{"type":"Point","properties":{"Station_ID":"QIQ","Station_Nam":"QIQ","Latitude":"49.82390","Longitude":"-68.54310","Snowdepth":"16.693","Units":"in","Rept_Date":"2020-01-08 12"},"coordinates":[6563,8818]},{"type":"Point","properties":{"Station_ID":"VT-OL-9","Station_Nam":"GREENSBORO 2.1 NNW, VT","Latitude":"44.60528","Longitude":"-72.30940","Snowdepth":"16.500","Units":"in","Rept_Date":"2020-01-08 12"},"coordinates":[5702,5580]},{"type":"Point","properties":{"Station_ID":"VT-CL-40","Station_Nam":"LYNDONVILLE 4.2 NNW, VT","Latitude":"44.59440","Longitude":"-72.02389","Snowdepth":"16.500","Units":"in","Rept_Date":"2020-01-08 13"},"coordinates":[5767,5574]},{"type":"Point","properties":{"Station_ID":"NH-CS-10","Station_Nam":"RANDOLPH 1.4 NE, NH","Latitude":"44.38824","Longitude":"-71.26950","Snowdepth":"16.500","Units":"in","Rept_Date":"2020-01-08 12"},"coordinates":[5939,5446]},{"type":"Point","properties":{"Station_ID":"MN-SL-108","Station_Nam":"IRON JUNCTION 3.4 NNW, MN","Latitude":"47.46150","Longitude":"-92.63130","Snowdepth":"16.500","Units":"in","Rept_Date":"2020-01-08 13"},"coordinates":[1054,7353]},{"type":"Point","properties":{"Station_ID":"SOCQ6","Station_Nam":"SOCKET LAKE","Latitude":"50.77870","Longitude":"-91.79300","Snowdepth":"16.300","Units":"in","Rept_Date":"2020-01-09 06"},"coordinates":[1245,9411]},{"type":"Point","properties":{"Station_ID":"QLM","Station_Nam":"QLM","Latitude":"48.92030","Longitude":"-70.25280","Snowdepth":"16.220","Units":"in","Rept_Date":"2020-01-08 12"},"coordinates":[6172,8258]},{"type":"Point","properties":{"Station_ID":"CAN-ON-526","Station_Nam":"HILTON BEACH 0.7 SW - MNRF, CAN","Latitude":"46.25357","Longitude":"-83.90014","Snowdepth":"16.100","Units":"in","Rept_Date":"2020-01-08 12"},"coordinates":[3051,6603]},{"type":"Point","properties":{"Station_ID":"WI-FL-4","Station_Nam":"FLORENCE 5.6 ESE, WI","Latitude":"45.89370","Longitude":"-88.14150","Snowdepth":"16.000","Units":"in","Rept_Date":"2020-01-08 13"},"coordinates":[2081,6380]},{"type":"Point","properties":{"Station_ID":"WI-BY-2","Station_Nam":"MELLEN 18.6 SW, WI","Latitude":"46.16937","Longitude":"-90.98090","Snowdepth":"16.000","Units":"in","Rept_Date":"2020-01-08 13"},"coordinates":[1431,6551]},{"type":"Point","properties":{"Station_ID":"VT-OL-2","Station_Nam":"BARTON 3.0 ENE, VT","Latitude":"44.75863","Longitude":"-72.11680","Snowdepth":"16.000","Units":"in","Rept_Date":"2020-01-08 12"},"coordinates":[5746,5676]},{"type":"Point","properties":{"Station_ID":"VT-CL-18","Station_Nam":"WHEELOCK 1.6 S, VT","Latitude":"44.56491","Longitude":"-72.08830","Snowdepth":"16.000","Units":"in","Rept_Date":"2020-01-08 12"},"coordinates":[5752,5555]},{"type":"Point","properties":{"Station_ID":"NYMM5","Station_Nam":"NEW YORK MILLS","Latitude":"46.50920","Longitude":"-95.37990","Snowdepth":"16.000","Units":"in","Rept_Date":"2020-01-08 13"},"coordinates":[425,6762]},{"type":"Point","properties":{"Station_ID":"MN-PK-15","Station_Nam":"MENTOR 2.5 SSW, MN","Latitude":"47.66625","Longitude":"-96.17328","Snowdepth":"16.000","Units":"in","Rept_Date":"2020-01-08 13"},"coordinates":[244,7480]},{"type":"Point","properties":{"Station_ID":"MI-OT-17","Station_Nam":"GAYLORD 4.1 S, MI","Latitude":"44.96388","Longitude":"-84.68467","Snowdepth":"16.000","Units":"in","Rept_Date":"2020-01-08 12"},"coordinates":[2871,5803]},{"type":"Point","properties":{"Station_ID":"LTMW3","Station_Nam":"LAKE TOMAHAWK 2 SE","Latitude":"45.80750","Longitude":"-89.55830","Snowdepth":"16.000","Units":"in","Rept_Date":"2020-01-08 12"},"coordinates":[1757,6326]},{"type":"Point","properties":{"Station_ID":"KABM5","Station_Nam":"KABETOGAMA LAKE VISITOR CTR","Latitude":"48.40880","Longitude":"-93.04840","Snowdepth":"16.000","Units":"in","Rept_Date":"2020-01-08 13"},"coordinates":[958,7940]},{"type":"Point","properties":{"Station_ID":"GHMN3","Station_Nam":"PINKHAM NOTCH","Latitude":"44.25800","Longitude":"-71.25250","Snowdepth":"16.000","Units":"in","Rept_Date":"2020-01-08 11"},"coordinates":[5943,5365]},{"type":"Point","properties":{"Station_ID":"FEDM5","Station_Nam":"LEECH LAKE DAM","Latitude":"47.24670","Longitude":"-94.22280","Snowdepth":"16.000","Units":"in","Rept_Date":"2020-01-08 14"},"coordinates":[690,7219]},{"type":"Point","properties":{"Station_ID":"CRLM5","Station_Nam":"CROSS LAKE DAM","Latitude":"46.66930","Longitude":"-94.11060","Snowdepth":"16.000","Units":"in","Rept_Date":"2020-01-08 14"},"coordinates":[715,6861]},{"type":"Point","properties":{"Station_ID":"COVM4","Station_Nam":"COVINGTON","Latitude":"46.55880","Longitude":"-88.54190","Snowdepth":"16.000","Units":"in","Rept_Date":"2020-01-08 13"},"coordinates":[1989,6793]},{"type":"Point","properties":{"Station_ID":"CMKW3","Station_Nam":"CLAM LAKE 4W","Latitude":"46.16940","Longitude":"-90.98080","Snowdepth":"16.000","Units":"in","Rept_Date":"2020-01-08 13"},"coordinates":[1431,6551]},{"type":"Point","properties":{"Station_ID":"CEFM4","Station_Nam":"EXPERIMENT FARM #2","Latitude":"46.33330","Longitude":"-86.91670","Snowdepth":"16.000","Units":"in","Rept_Date":"2020-01-08 13"},"coordinates":[2361,6653]},{"type":"Point","properties":{"Station_ID":"AMAM4","Station_Nam":"AMASA 1W","Latitude":"46.23470","Longitude":"-88.45440","Snowdepth":"16.000","Units":"in","Rept_Date":"2020-01-08 14"},"coordinates":[2009,6591]},{"type":"Point","properties":{"Station_ID":"AGNW3","Station_Nam":"ARGONNE-1.5 NW","Latitude":"45.67360","Longitude":"-88.90380","Snowdepth":"16.000","Units":"in","Rept_Date":"2020-01-08 13"},"coordinates":[1906,6243]},{"type":"Point","properties":{"Station_ID":"QLP","Station_Nam":"QLP","Latitude":"48.13920","Longitude":"-72.63830","Snowdepth":"15.787","Units":"in","Rept_Date":"2020-01-08 12"},"coordinates":[5626,7773]},{"type":"Point","properties":{"Station_ID":"QGA","Station_Nam":"QGA","Latitude":"47.25640","Longitude":"-73.73810","Snowdepth":"15.669","Units":"in","Rept_Date":"2020-01-08 12"},"coordinates":[5375,7225]},{"type":"Point","properties":{"Station_ID":"QTM","Station_Nam":"QTM","Latitude":"51.05780","Longitude":"-72.57190","Snowdepth":"15.433","Units":"in","Rept_Date":"2020-01-08 12"},"coordinates":[5642,9584]},{"type":"Point","properties":{"Station_ID":"QLI","Station_Nam":"QLI","Latitude":"50.27080","Longitude":"-73.92280","Snowdepth":"15.236","Units":"in","Rept_Date":"2020-01-08 12"},"coordinates":[5333,9096]},{"type":"Point","properties":{"Station_ID":"WRTS2","Station_Nam":"WATERTOWN,SD","Latitude":"44.90280","Longitude":"-97.11360","Snowdepth":"15.000","Units":"in","Rept_Date":"2020-01-08 15"},"coordinates":[29,5765]},{"type":"Point","properties":{"Station_ID":"WI-ON-6","Station_Nam":"RHINELANDER 5.2 N, WI","Latitude":"45.71388","Longitude":"-89.42150","Snowdepth":"15.000","Units":"in","Rept_Date":"2020-01-08 13"},"coordinates":[1788,6268]},{"type":"Point","properties":{"Station_ID":"VT-ES-1","Station_Nam":"GRANBY 1.4 NW, VT","Latitude":"44.58330","Longitude":"-71.77870","Snowdepth":"15.000","Units":"in","Rept_Date":"2020-01-08 13"},"coordinates":[5823,5567]},{"type":"Point","properties":{"Station_ID":"SSMM4","Station_Nam":"SAULT STE MARIE","Latitude":"46.48660","Longitude":"-84.40250","Snowdepth":"15.000","Units":"in","Rept_Date":"2020-01-08 13"},"coordinates":[2936,6748]},{"type":"Point","properties":{"Station_ID":"OTTM5","Station_Nam":"OTTERTAIL,MN","Latitude":"46.41670","Longitude":"-95.56670","Snowdepth":"15.000","Units":"in","Rept_Date":"2020-01-08 12"},"coordinates":[382,6704]},{"type":"Point","properties":{"Station_ID":"ND-CS-25","Station_Nam":"FARGO 2.1 N, ND","Latitude":"46.90816","Longitude":"-96.77937","Snowdepth":"15.000","Units":"in","Rept_Date":"2020-01-08 14"},"coordinates":[105,7009]},{"type":"Point","properties":{"Station_ID":"ND-CS-1","Station_Nam":"WEST FARGO 3.8 SSE, ND","Latitude":"46.82750","Longitude":"-96.85280","Snowdepth":"15.000","Units":"in","Rept_Date":"2020-01-08 13"},"coordinates":[88,6959]},{"type":"Point","properties":{"Station_ID":"MIEM4","Station_Nam":"MICHIGAMME 3WNW","Latitude":"46.54530","Longitude":"-88.18000","Snowdepth":"15.000","Units":"in","Rept_Date":"2020-01-08 13"},"coordinates":[2072,6784]},{"type":"Point","properties":{"Station_ID":"IFSM5","Station_Nam":"INTERNATIONAL FALLS SNOW","Latitude":"48.57780","Longitude":"-93.39640","Snowdepth":"15.000","Units":"in","Rept_Date":"2020-01-09 06"},"coordinates":[879,8045]},{"type":"Point","properties":{"Station_ID":"GGRM4","Station_Nam":"GREEN GARDEN NO.2","Latitude":"46.45330","Longitude":"-87.30380","Snowdepth":"15.000","Units":"in","Rept_Date":"2020-01-08 11"},"coordinates":[2272,6727]},{"type":"Point","properties":{"Station_ID":"FLNW3","Station_Nam":"FLORENCE","Latitude":"45.93360","Longitude":"-88.25830","Snowdepth":"15.000","Units":"in","Rept_Date":"2020-01-08 13"},"coordinates":[2054,6405]},{"type":"Point","properties":{"Station_ID":"FDRN8","Station_Nam":"FARGO 3S","Latitude":"46.82930","Longitude":"-96.79620","Snowdepth":"15.000","Units":"in","Rept_Date":"2020-01-09 06"},"coordinates":[101,6960]},{"type":"Point","properties":{"Station_ID":"FAR","Station_Nam":"HECTOR INTERNATIONAL ARPT","Latitude":"46.91560","Longitude":"-96.81440","Snowdepth":"15.000","Units":"in","Rept_Date":"2020-01-09 00"},"coordinates":[97,7014]},{"type":"Point","properties":{"Station_ID":"CRVW3","Station_Nam":"CRIVITZ HIGH FALLS","Latitude":"45.35750","Longitude":"-88.19190","Snowdepth":"15.000","Units":"in","Rept_Date":"2020-01-08 13"},"coordinates":[2069,6047]},{"type":"Point","properties":{"Station_ID":"BRAM5","Station_Nam":"BRAINERD","Latitude":"46.34320","Longitude":"-94.20900","Snowdepth":"15.000","Units":"in","Rept_Date":"2020-01-08 13"},"coordinates":[693,6659]},{"type":"Point","properties":{"Station_ID":"AURW3","Station_Nam":"AURORA","Latitude":"45.77000","Longitude":"-88.11810","Snowdepth":"15.000","Units":"in","Rept_Date":"2020-01-08 13"},"coordinates":[2086,6303]},{"type":"Point","properties":{"Station_ID":"ANTW3","Station_Nam":"ANTIGO,WI","Latitude":"45.13330","Longitude":"-89.15000","Snowdepth":"15.000","Units":"in","Rept_Date":"2020-01-08 14"},"coordinates":[1850,5908]},{"type":"Point","properties":{"Station_ID":"ANJM4","Station_Nam":"SNOW PAID OBSERVER FOR KANJ","Latitude":"46.48670","Longitude":"-84.40260","Snowdepth":"15.000","Units":"in","Rept_Date":"2020-01-09 06"},"coordinates":[2936,6748]},{"type":"Point","properties":{"Station_ID":"ANJ","Station_Nam":"SAULT STE MARIE","Latitude":"46.46670","Longitude":"-84.36670","Snowdepth":"15.000","Units":"in","Rept_Date":"2020-01-09 00"},"coordinates":[2944,6735]},{"type":"Point","properties":{"Station_ID":"QWG","Station_Nam":"QWG","Latitude":"48.48890","Longitude":"-73.45940","Snowdepth":"14.685","Units":"in","Rept_Date":"2020-01-08 12"},"coordinates":[5439,7990]},{"type":"Point","properties":{"Station_ID":"WI-IR-2","Station_Nam":"MERCER 2.0 SE, WI","Latitude":"46.14749","Longitude":"-90.03097","Snowdepth":"14.500","Units":"in","Rept_Date":"2020-01-08 13"},"coordinates":[1648,6537]},{"type":"Point","properties":{"Station_ID":"CAN-ON-757","Station_Nam":"SAULT STE. MARIE 2.8 ESE - GLFC, CAN","Latitude":"46.50300","Longitude":"-84.30300","Snowdepth":"14.400","Units":"in","Rept_Date":"2020-01-08 13"},"coordinates":[2959,6758]},{"type":"Point","properties":{"Station_ID":"CATQ6","Station_Nam":"CAT LAKE","Latitude":"51.72690","Longitude":"-91.82210","Snowdepth":"14.290","Units":"in","Rept_Date":"2020-01-09 06"},"coordinates":[1239,9999]},{"type":"Point","properties":{"Station_ID":"VT-ES-3","Station_Nam":"LUNENBURG 2.3 NNW, VT","Latitude":"44.49324","Longitude":"-71.70446","Snowdepth":"14.000","Units":"in","Rept_Date":"2020-01-08 11"},"coordinates":[5840,5511]},{"type":"Point","properties":{"Station_ID":"RLWM5","Station_Nam":"CAMP NORRIS DNR","Latitude":"48.61000","Longitude":"-95.18170","Snowdepth":"14.000","Units":"in","Rept_Date":"2020-01-08 14"},"coordinates":[470,8065]},{"type":"Point","properties":{"Station_ID":"RBLW3","Station_Nam":"RIB LAKE","Latitude":"45.31530","Longitude":"-90.20640","Snowdepth":"14.000","Units":"in","Rept_Date":"2020-01-08 13"},"coordinates":[1608,6021]},{"type":"Point","properties":{"Station_ID":"RARM4","Station_Nam":"RAPID RIVER 1 SW","Latitude":"45.91500","Longitude":"-86.98800","Snowdepth":"14.000","Units":"in","Rept_Date":"2020-01-08 12"},"coordinates":[2344,6393]},{"type":"Point","properties":{"Station_ID":"MI-AT-6","Station_Nam":"MANCELONA 0.5 ESE, MI","Latitude":"44.89981","Longitude":"-85.05100","Snowdepth":"14.000","Units":"in","Rept_Date":"2020-01-08 13"},"coordinates":[2787,5763]},{"type":"Point","properties":{"Station_ID":"INL","Station_Nam":"FALLS INTERNATIONAL ARPT","Latitude":"48.56640","Longitude":"-93.40310","Snowdepth":"14.000","Units":"in","Rept_Date":"2020-01-09 00"},"coordinates":[877,8038]},{"type":"Point","properties":{"Station_ID":"IMNM4","Station_Nam":"IRON MOUTAIN 5N","Latitude":"45.87580","Longitude":"-88.04030","Snowdepth":"14.000","Units":"in","Rept_Date":"2020-01-08 14"},"coordinates":[2104,6369]},{"type":"Point","properties":{"Station_ID":"HUBN3","Station_Nam":"HUBBARD BROOK","Latitude":"43.93330","Longitude":"-71.71670","Snowdepth":"14.000","Units":"in","Rept_Date":"2020-01-09 00"},"coordinates":[5837,5164]},{"type":"Point","properties":{"Station_ID":"GLLM5","Station_Nam":"GULL LAKE DAM","Latitude":"46.41190","Longitude":"-94.35000","Snowdepth":"14.000","Units":"in","Rept_Date":"2020-01-08 14"},"coordinates":[661,6701]},{"type":"Point","properties":{"Station_ID":"GDPM5","Station_Nam":"PIGEON RIVER AT MIDDLE FALLS","Latitude":"48.01220","Longitude":"-89.61610","Snowdepth":"14.000","Units":"in","Rept_Date":"2020-01-08 13"},"coordinates":[1743,7694]},{"type":"Point","properties":{"Station_ID":"EAHV1","Station_Nam":"EAST HAVEN","Latitude":"44.64250","Longitude":"-71.89120","Snowdepth":"14.000","Units":"in","Rept_Date":"2020-01-08 12"},"coordinates":[5797,5604]},{"type":"Point","properties":{"Station_ID":"BRVM5","Station_Nam":"BROWNS VALLEY,MN","Latitude":"45.61670","Longitude":"-96.83330","Snowdepth":"14.000","Units":"in","Rept_Date":"2020-01-08 11"},"coordinates":[93,6208]},{"type":"Point","properties":{"Station_ID":"AVTW3","Station_Nam":"ARBOR VITAE-JOHNSON LAKE","Latitude":"45.89940","Longitude":"-89.72670","Snowdepth":"14.000","Units":"in","Rept_Date":"2020-01-08 12"},"coordinates":[1718,6383]},{"type":"Point","properties":{"Station_ID":"AVLV1","Station_Nam":"AVERILL","Latitude":"45.00570","Longitude":"-71.69030","Snowdepth":"14.000","Units":"in","Rept_Date":"2020-01-08 13"},"coordinates":[5843,5829]},{"type":"Point","properties":{"Station_ID":"WI-AS-4","Station_Nam":"ASHLAND 0.5 WNW, WI","Latitude":"46.58240","Longitude":"-90.88390","Snowdepth":"13.500","Units":"in","Rept_Date":"2020-01-08 13"},"coordinates":[1453,6807]},{"type":"Point","properties":{"Station_ID":"MN-IT-1","Station_Nam":"GRAND RAPIDS 2.0 E, MN","Latitude":"47.22266","Longitude":"-93.49600","Snowdepth":"13.500","Units":"in","Rept_Date":"2020-01-08 12"},"coordinates":[856,7204]},{"type":"Point","properties":{"Station_ID":"MN-CW-22","Station_Nam":"FORT RIPLEY 0.8 N, MN","Latitude":"46.18089","Longitude":"-94.36510","Snowdepth":"13.500","Units":"in","Rept_Date":"2020-01-08 13"},"coordinates":[657,6558]},{"type":"Point","properties":{"Station_ID":"WI-SR-1","Station_Nam":"HAYWARD 9.2 NNE, WI","Latitude":"46.13255","Longitude":"-91.40500","Snowdepth":"13.300","Units":"in","Rept_Date":"2020-01-08 12"},"coordinates":[1334,6528]},{"type":"Point","properties":{"Station_ID":"WTNM4","Station_Nam":"WATTON 2WSW","Latitude":"46.52660","Longitude":"-88.64240","Snowdepth":"13.000","Units":"in","Rept_Date":"2020-01-08 13"},"coordinates":[1966,6773]},{"type":"Point","properties":{"Station_ID":"WILW3","Station_Nam":"RESERVOIR","Latitude":"45.70000","Longitude":"-89.83330","Snowdepth":"13.000","Units":"in","Rept_Date":"2020-01-08 12"},"coordinates":[1694,6260]},{"type":"Point","properties":{"Station_ID":"WI-PR-6","Station_Nam":"PHILLIPS 1.3 S, WI","Latitude":"45.67677","Longitude":"-90.39543","Snowdepth":"13.000","Units":"in","Rept_Date":"2020-01-08 12"},"coordinates":[1565,6245]},{"type":"Point","properties":{"Station_ID":"WI-PR-2","Station_Nam":"BUTTERNUT 5.9 SW, WI","Latitude":"45.96501","Longitude":"-90.59750","Snowdepth":"13.000","Units":"in","Rept_Date":"2020-01-08 12"},"coordinates":[1519,6424]},{"type":"Point","properties":{"Station_ID":"TOHM5","Station_Nam":"TWO HARBORS WWTP","Latitude":"47.01760","Longitude":"-91.66480","Snowdepth":"13.000","Units":"in","Rept_Date":"2020-01-08 13"},"coordinates":[1275,7077]},{"type":"Point","properties":{"Station_ID":"TAKW3","Station_Nam":"RICE RESERVOIR NO. 2","Latitude":"45.53770","Longitude":"-89.73220","Snowdepth":"13.000","Units":"in","Rept_Date":"2020-01-08 13"},"coordinates":[1717,6159]},{"type":"Point","properties":{"Station_ID":"RHLW3","Station_Nam":"RHINELANDER 4NE","Latitude":"45.65270","Longitude":"-89.30740","Snowdepth":"13.000","Units":"in","Rept_Date":"2020-01-08 12"},"coordinates":[1814,6230]},{"type":"Point","properties":{"Station_ID":"RGNM1","Station_Nam":"RANGELEY 2NW","Latitude":"44.98940","Longitude":"-70.67220","Snowdepth":"13.000","Units":"in","Rept_Date":"2020-01-08 11"},"coordinates":[6076,5819]},{"type":"Point","properties":{"Station_ID":"RDFN6","Station_Nam":"REDFIELD 8N","Latitude":"43.64130","Longitude":"-75.88400","Snowdepth":"13.000","Units":"in","Rept_Date":"2020-01-08 12"},"coordinates":[4884,4982]},{"type":"Point","properties":{"Station_ID":"MI-OT-16","Station_Nam":"GAYLORD 2.2 SSE, MI","Latitude":"44.99441","Longitude":"-84.65820","Snowdepth":"13.000","Units":"in","Rept_Date":"2020-01-08 14"},"coordinates":[2877,5822]},{"type":"Point","properties":{"Station_ID":"JCBM4","Station_Nam":"JACOBSVILLE","Latitude":"47.00830","Longitude":"-88.43180","Snowdepth":"13.000","Units":"in","Rept_Date":"2020-01-08 12"},"coordinates":[2014,7071]},{"type":"Point","properties":{"Station_ID":"INDM5","Station_Nam":"INDUS,MN","Latitude":"48.61670","Longitude":"-93.90000","Snowdepth":"13.000","Units":"in","Rept_Date":"2020-01-08 14"},"coordinates":[764,8069]},{"type":"Point","properties":{"Station_ID":"HGHN6","Station_Nam":"HIGHMARKET","Latitude":"43.57520","Longitude":"-75.52070","Snowdepth":"13.000","Units":"in","Rept_Date":"2020-01-08 10"},"coordinates":[4967,4941]},{"type":"Point","properties":{"Station_ID":"GRFN8","Station_Nam":"UNIVERSITY","Latitude":"47.93330","Longitude":"-97.08330","Snowdepth":"13.000","Units":"in","Rept_Date":"2020-01-09 06"},"coordinates":[36,7645]},{"type":"Point","properties":{"Station_ID":"ENGM4","Station_Nam":"ENGADINE MDOT","Latitude":"46.12800","Longitude":"-85.56960","Snowdepth":"13.000","Units":"in","Rept_Date":"2020-01-08 12"},"coordinates":[2669,6525]},{"type":"Point","properties":{"Station_ID":"COUW3","Station_Nam":"COUDERAY,WI","Latitude":"45.86670","Longitude":"-91.45000","Snowdepth":"13.000","Units":"in","Rept_Date":"2020-01-08 22"},"coordinates":[1324,6363]},{"type":"Point","properties":{"Station_ID":"COTM5","Station_Nam":"COTTON","Latitude":"47.16870","Longitude":"-92.46290","Snowdepth":"13.000","Units":"in","Rept_Date":"2020-01-08 12"},"coordinates":[1092,7171]},{"type":"Point","properties":{"Station_ID":"CORV1","Station_Nam":"CORINTH","Latitude":"44.00690","Longitude":"-72.31940","Snowdepth":"13.000","Units":"in","Rept_Date":"2020-01-08 12"},"coordinates":[5699,5209]},{"type":"Point","properties":{"Station_ID":"CAN-NB-105","Station_Nam":"SISSON BROOK 3.8 E, CAN","Latitude":"46.98305","Longitude":"-67.32532","Snowdepth":"13.000","Units":"in","Rept_Date":"2020-01-08 12"},"coordinates":[6841,7056]},{"type":"Point","properties":{"Station_ID":"BRDM1","Station_Nam":"BRIDGEWATER","Latitude":"46.42870","Longitude":"-67.84370","Snowdepth":"13.000","Units":"in","Rept_Date":"2020-01-08 23"},"coordinates":[6723,6712]},{"type":"Point","properties":{"Station_ID":"AWXW3","Station_Nam":"ASHLAND","Latitude":"46.58240","Longitude":"-90.88390","Snowdepth":"13.000","Units":"in","Rept_Date":"2020-01-08 13"},"coordinates":[1453,6807]},{"type":"Point","properties":{"Station_ID":"SD-RB-4","Station_Nam":"SISSETON 10.4 ENE, SD","Latitude":"45.69480","Longitude":"-96.83480","Snowdepth":"12.500","Units":"in","Rept_Date":"2020-01-08 13"},"coordinates":[92,6256]},{"type":"Point","properties":{"Station_ID":"WI-SR-5","Station_Nam":"HAYWARD 9.7 NE, WI","Latitude":"46.12030","Longitude":"-91.35370","Snowdepth":"12.000","Units":"in","Rept_Date":"2020-01-08 14"},"coordinates":[1346,6520]},{"type":"Point","properties":{"Station_ID":"WI-RS-1","Station_Nam":"LADYSMITH 2.8 WNW, WI","Latitude":"45.48180","Longitude":"-91.14680","Snowdepth":"12.000","Units":"in","Rept_Date":"2020-01-08 13"},"coordinates":[1393,6124]},{"type":"Point","properties":{"Station_ID":"WI-CH-3","Station_Nam":"CORNELL 4.1 W, WI","Latitude":"45.17024","Longitude":"-91.23610","Snowdepth":"12.000","Units":"in","Rept_Date":"2020-01-08 14"},"coordinates":[1373,5931]},{"type":"Point","properties":{"Station_ID":"WI-BY-1","Station_Nam":"BAYFIELD 8.8 N, WI","Latitude":"46.93855","Longitude":"-90.83490","Snowdepth":"12.000","Units":"in","Rept_Date":"2020-01-08 13"},"coordinates":[1465,7028]},{"type":"Point","properties":{"Station_ID":"SWTW3","Station_Nam":"SUPERIOR WWTP","Latitude":"46.72700","Longitude":"-92.07200","Snowdepth":"12.000","Units":"in","Rept_Date":"2020-01-09 06"},"coordinates":[1182,6897]},{"type":"Point","properties":{"Station_ID":"SD-CD-30","Station_Nam":"WATERTOWN 2.3 E, SD","Latitude":"44.91604","Longitude":"-97.11925","Snowdepth":"12.000","Units":"in","Rept_Date":"2020-01-08 13"},"coordinates":[27,5773]},{"type":"Point","properties":{"Station_ID":"ORAN3","Station_Nam":"ORANGE","Latitude":"43.66880","Longitude":"-71.94830","Snowdepth":"12.000","Units":"in","Rept_Date":"2020-01-08 12"},"coordinates":[5784,4999]},{"type":"Point","properties":{"Station_ID":"NUMN3","Station_Nam":"NORTHUMBERLAND","Latitude":"44.52830","Longitude":"-71.50440","Snowdepth":"12.000","Units":"in","Rept_Date":"2020-01-08 12"},"coordinates":[5886,5533]},{"type":"Point","properties":{"Station_ID":"NH-CR-26","Station_Nam":"CENTER SANDWICH 4.9 E, NH","Latitude":"43.80976","Longitude":"-71.34150","Snowdepth":"12.000","Units":"in","Rept_Date":"2020-01-08 11"},"coordinates":[5923,5087]},{"type":"Point","properties":{"Station_ID":"NCON3","Station_Nam":"NORTH CONWAY,NH","Latitude":"44.05000","Longitude":"-71.13330","Snowdepth":"12.000","Units":"in","Rept_Date":"2020-01-08 13"},"coordinates":[5971,5236]},{"type":"Point","properties":{"Station_ID":"MQRW3","Station_Nam":"MINOCQUA","Latitude":"45.88630","Longitude":"-89.73220","Snowdepth":"12.000","Units":"in","Rept_Date":"2020-01-08 12"},"coordinates":[1717,6375]},{"type":"Point","properties":{"Station_ID":"MN-BK-10","Station_Nam":"DETROIT LAKES 5.7 N, MN","Latitude":"46.88666","Longitude":"-95.84444","Snowdepth":"12.000","Units":"in","Rept_Date":"2020-01-08 14"},"coordinates":[319,6996]},{"type":"Point","properties":{"Station_ID":"MLBS2","Station_Nam":"MILBANK","Latitude":"45.22040","Longitude":"-96.62530","Snowdepth":"12.000","Units":"in","Rept_Date":"2020-01-08 13"},"coordinates":[140,5962]},{"type":"Point","properties":{"Station_ID":"ME-PN-45","Station_Nam":"MILLINOCKET 2.7 ESE, ME","Latitude":"45.65002","Longitude":"-68.64472","Snowdepth":"12.000","Units":"in","Rept_Date":"2020-01-08 12"},"coordinates":[6540,6229]},{"type":"Point","properties":{"Station_ID":"ISLV1","Station_Nam":"ISLAND POND","Latitude":"44.81280","Longitude":"-71.89020","Snowdepth":"12.000","Units":"in","Rept_Date":"2020-01-08 15"},"coordinates":[5797,5709]},{"type":"Point","properties":{"Station_ID":"GILV1","Station_Nam":"GILMAN","Latitude":"44.41120","Longitude":"-71.71860","Snowdepth":"12.000","Units":"in","Rept_Date":"2020-01-08 14"},"coordinates":[5837,5460]},{"type":"Point","properties":{"Station_ID":"FLDM5","Station_Nam":"FLOODWOOD,MN","Latitude":"47.00000","Longitude":"-92.91670","Snowdepth":"12.000","Units":"in","Rept_Date":"2020-01-08 14"},"coordinates":[988,7066]},{"type":"Point","properties":{"Station_ID":"ESDN3","Station_Nam":"EAST SANDWICH","Latitude":"43.80990","Longitude":"-71.34250","Snowdepth":"12.000","Units":"in","Rept_Date":"2020-01-08 11"},"coordinates":[5923,5087]},{"type":"Point","properties":{"Station_ID":"ESAM4","Station_Nam":"ESCANABA","Latitude":"45.74380","Longitude":"-87.04060","Snowdepth":"12.000","Units":"in","Rept_Date":"2020-01-08 12"},"coordinates":[2332,6287]},{"type":"Point","properties":{"Station_ID":"EJNM4","Station_Nam":"EAST JORDAN 2NW","Latitude":"45.18630","Longitude":"-85.14770","Snowdepth":"12.000","Units":"in","Rept_Date":"2020-01-08 13"},"coordinates":[2765,5941]},{"type":"Point","properties":{"Station_ID":"COKM5","Station_Nam":"COOK","Latitude":"47.85060","Longitude":"-92.69250","Snowdepth":"12.000","Units":"in","Rept_Date":"2020-01-08 12"},"coordinates":[1040,7594]},{"type":"Point","properties":{"Station_ID":"CLGM5","Station_Nam":"COLLEGEVILLE ST JOHN","Latitude":"45.57940","Longitude":"-94.39200","Snowdepth":"12.000","Units":"in","Rept_Date":"2020-01-09 00"},"coordinates":[651,6185]},{"type":"Point","properties":{"Station_ID":"CAN-NS-94","Station_Nam":"MARGAREE FORKS 2.6 SSE CBN, CAN","Latitude":"46.30937","Longitude":"-61.07603","Snowdepth":"12.000","Units":"in","Rept_Date":"2020-01-08 13"},"coordinates":[8271,6638]},{"type":"Point","properties":{"Station_ID":"BETM1","Station_Nam":"BETHEL 6 SSE","Latitude":"44.32000","Longitude":"-70.75680","Snowdepth":"12.000","Units":"in","Rept_Date":"2020-01-08 12"},"coordinates":[6057,5404]},{"type":"Point","properties":{"Station_ID":"BAUM5","Station_Nam":"BAUDETTE,MN","Latitude":"48.71670","Longitude":"-94.61670","Snowdepth":"12.000","Units":"in","Rept_Date":"2020-01-08 21"},"coordinates":[600,8131]},{"type":"Point","properties":{"Station_ID":"ERF21","Station_Nam":"DOTU NORTH LAKE","Latitude":"43.52000","Longitude":"-74.95000","Snowdepth":"11.830","Units":"in","Rept_Date":"2020-01-08 17"},"coordinates":[5098,4907]},{"type":"Point","properties":{"Station_ID":"FTHQ6","Station_Nam":"FORT HOPE","Latitude":"51.55820","Longitude":"-87.90510","Snowdepth":"11.610","Units":"in","Rept_Date":"2020-01-09 06"},"coordinates":[2135,9894]},{"type":"Point","properties":{"Station_ID":"WI-PR-8","Station_Nam":"PHILLIPS 0.4 SSW, WI","Latitude":"45.69086","Longitude":"-90.40200","Snowdepth":"11.500","Units":"in","Rept_Date":"2020-01-08 13"},"coordinates":[1564,6254]},{"type":"Point","properties":{"Station_ID":"WI-AS-6","Station_Nam":"ODANAH 1.6 E, WI","Latitude":"46.60462","Longitude":"-90.64920","Snowdepth":"11.500","Units":"in","Rept_Date":"2020-01-08 13"},"coordinates":[1507,6821]},{"type":"Point","properties":{"Station_ID":"VT-BN-12","Station_Nam":"STAMFORD 5.0 NNE, VT","Latitude":"42.82000","Longitude":"-73.02000","Snowdepth":"11.500","Units":"in","Rept_Date":"2020-01-08 21"},"coordinates":[5539,4473]},{"type":"Point","properties":{"Station_ID":"NY-ES-6","Station_Nam":"OLMSTEDVILLE 4.6 NNE, NY","Latitude":"43.83350","Longitude":"-73.89780","Snowdepth":"11.500","Units":"in","Rept_Date":"2020-01-08 13"},"coordinates":[5338,5102]},{"type":"Point","properties":{"Station_ID":"MI-CX-7","Station_Nam":"EAST JORDAN 2.1 NNW, MI","Latitude":"45.18639","Longitude":"-85.14750","Snowdepth":"11.500","Units":"in","Rept_Date":"2020-01-08 13"},"coordinates":[2765,5941]},{"type":"Point","properties":{"Station_ID":"MI-CP-14","Station_Nam":"SAULT STE. MARIE 2.2 E, MI","Latitude":"46.48933","Longitude":"-84.31971","Snowdepth":"11.500","Units":"in","Rept_Date":"2020-01-08 14"},"coordinates":[2955,6749]},{"type":"Point","properties":{"Station_ID":"ME-OX-28","Station_Nam":"OXFORD 2.1 W, ME","Latitude":"44.13489","Longitude":"-70.54943","Snowdepth":"11.500","Units":"in","Rept_Date":"2020-01-08 12"},"coordinates":[6104,5289]},{"type":"Point","properties":{"Station_ID":"CAN-ON-245","Station_Nam":"PHELPSTON 3.1 ESE, CAN","Latitude":"44.50564","Longitude":"-79.81035","Snowdepth":"11.500","Units":"in","Rept_Date":"2020-01-08 12"},"coordinates":[3986,5519]},{"type":"Point","properties":{"Station_ID":"WORV1","Station_Nam":"WORCESTER 2 W","Latitude":"44.37470","Longitude":"-72.58220","Snowdepth":"11.000","Units":"in","Rept_Date":"2020-01-08 12"},"coordinates":[5639,5437]},{"type":"Point","properties":{"Station_ID":"WLKM5","Station_Nam":"AH-GWAH-CHING","Latitude":"47.15000","Longitude":"-94.65000","Snowdepth":"11.000","Units":"in","Rept_Date":"2020-01-08 11"},"coordinates":[592,7159]},{"type":"Point","properties":{"Station_ID":"WI-BT-14","Station_Nam":"OAKLAND 9.0 ENE, WI","Latitude":"45.95184","Longitude":"-92.21653","Snowdepth":"11.000","Units":"in","Rept_Date":"2020-01-08 13"},"coordinates":[1149,6416]},{"type":"Point","properties":{"Station_ID":"VT-WS-30","Station_Nam":"WOODBURY 3.4 NNW, VT","Latitude":"44.48825","Longitude":"-72.43258","Snowdepth":"11.000","Units":"in","Rept_Date":"2020-01-08 12"},"coordinates":[5673,5508]},{"type":"Point","properties":{"Station_ID":"RHRW3","Station_Nam":"RHINELANDER WJFW TV-12","Latitude":"45.62220","Longitude":"-89.41000","Snowdepth":"11.000","Units":"in","Rept_Date":"2020-01-09 04"},"coordinates":[1790,6211]},{"type":"Point","properties":{"Station_ID":"PKFW3","Station_Nam":"PARK FALLS,WI","Latitude":"45.93360","Longitude":"-90.45060","Snowdepth":"11.000","Units":"in","Rept_Date":"2020-01-08 14"},"coordinates":[1552,6405]},{"type":"Point","properties":{"Station_ID":"NPTV1","Station_Nam":"NEWPORT","Latitude":"44.94900","Longitude":"-72.19120","Snowdepth":"11.000","Units":"in","Rept_Date":"2020-01-08 12"},"coordinates":[5729,5794]},{"type":"Point","properties":{"Station_ID":"NH-GR-47","Station_Nam":"LITTLETON 7.3 W, NH","Latitude":"44.31847","Longitude":"-71.91086","Snowdepth":"11.000","Units":"in","Rept_Date":"2020-01-08 13"},"coordinates":[5793,5403]},{"type":"Point","properties":{"Station_ID":"NH-CR-11","Station_Nam":"NORTH CONWAY 1.4 SSW, NH","Latitude":"44.03556","Longitude":"-71.14010","Snowdepth":"11.000","Units":"in","Rept_Date":"2020-01-08 12"},"coordinates":[5969,5227]},{"type":"Point","properties":{"Station_ID":"NFLM1","Station_Nam":"NEWFIELD","Latitude":"43.63060","Longitude":"-70.89810","Snowdepth":"11.000","Units":"in","Rept_Date":"2020-01-08 23"},"coordinates":[6024,4976]},{"type":"Point","properties":{"Station_ID":"MN-CK-6","Station_Nam":"GRAND MARAIS 4.4 W, MN","Latitude":"47.74865","Longitude":"-90.43760","Snowdepth":"11.000","Units":"in","Rept_Date":"2020-01-08 13"},"coordinates":[1555,7531]},{"type":"Point","properties":{"Station_ID":"MI-OT-4","Station_Nam":"GAYLORD 1.7 WNW, MI","Latitude":"45.03280","Longitude":"-84.71090","Snowdepth":"11.000","Units":"in","Rept_Date":"2020-01-08 13"},"coordinates":[2865,5846]},{"type":"Point","properties":{"Station_ID":"ME-CM-125","Station_Nam":"CUMBERLAND CENTER 4.4 NW, ME","Latitude":"43.84640","Longitude":"-70.31340","Snowdepth":"11.000","Units":"in","Rept_Date":"2020-01-08 12"},"coordinates":[6158,5110]},{"type":"Point","properties":{"Station_ID":"LUCW3","Station_Nam":"LUCK","Latitude":"45.57330","Longitude":"-92.48520","Snowdepth":"11.000","Units":"in","Rept_Date":"2020-01-08 21"},"coordinates":[1087,6181]},{"type":"Point","properties":{"Station_ID":"LNGM5","Station_Nam":"LONG PRAIRIE","Latitude":"45.96460","Longitude":"-94.88920","Snowdepth":"11.000","Units":"in","Rept_Date":"2020-01-08 12"},"coordinates":[537,6424]},{"type":"Point","properties":{"Station_ID":"LGRN8","Station_Nam":"LIDGERWOOD,ND","Latitude":"46.06670","Longitude":"-97.16670","Snowdepth":"11.000","Units":"in","Rept_Date":"2020-01-08 13"},"coordinates":[16,6487]},{"type":"Point","properties":{"Station_ID":"KGFK","Station_Nam":"GRAND FORKS INTERNATIONAL","Latitude":"47.95000","Longitude":"-97.18333","Snowdepth":"11.000","Units":"in","Rept_Date":"2020-01-09 06"},"coordinates":[13,7656]},{"type":"Point","properties":{"Station_ID":"GFK","Station_Nam":"GRAND FORKS INTERNATIONAL AIRPORT","Latitude":"47.94920","Longitude":"-97.17610","Snowdepth":"11.000","Units":"in","Rept_Date":"2020-01-09 00"},"coordinates":[14,7655]},{"type":"Point","properties":{"Station_ID":"GAYM4","Station_Nam":"GAYLORD","Latitude":"45.03320","Longitude":"-84.71130","Snowdepth":"11.000","Units":"in","Rept_Date":"2020-01-08 13"},"coordinates":[2865,5846]},{"type":"Point","properties":{"Station_ID":"DFXM1","Station_Nam":"DOVER-FOXCROFT","Latitude":"45.18720","Longitude":"-69.18350","Snowdepth":"11.000","Units":"in","Rept_Date":"2020-01-08 12"},"coordinates":[6416,5942]},{"type":"Point","properties":{"Station_ID":"CAN-NB-11","Station_Nam":"MIRAMICHI 3.3 S, CAN","Latitude":"46.99343","Longitude":"-65.50690","Snowdepth":"11.000","Units":"in","Rept_Date":"2020-01-08 10"},"coordinates":[7257,7062]},{"type":"Point","properties":{"Station_ID":"BTLN3","Station_Nam":"BARTLETT","Latitude":"44.08380","Longitude":"-71.29340","Snowdepth":"11.000","Units":"in","Rept_Date":"2020-01-08 12"},"coordinates":[5934,5257]},{"type":"Point","properties":{"Station_ID":"BKEM5","Station_Nam":"BRECKENRIDGE 4NE","Latitude":"46.30470","Longitude":"-96.52170","Snowdepth":"11.000","Units":"in","Rept_Date":"2020-01-08 13"},"coordinates":[164,6635]},{"type":"Point","properties":{"Station_ID":"ASXW3","Station_Nam":"ASHLAND,WI","Latitude":"46.55220","Longitude":"-90.91610","Snowdepth":"11.000","Units":"in","Rept_Date":"2020-01-08 14"},"coordinates":[1446,6788]},{"type":"Point","properties":{"Station_ID":"VT-WS-15","Station_Nam":"EAST CALAIS 1.5 SW, VT","Latitude":"44.35523","Longitude":"-72.45540","Snowdepth":"10.500","Units":"in","Rept_Date":"2020-01-08 12"},"coordinates":[5668,5425]},{"type":"Point","properties":{"Station_ID":"VT-OG-11","Station_Nam":"VERSHIRE 1.5 ESE, VT","Latitude":"43.96138","Longitude":"-72.29777","Snowdepth":"10.500","Units":"in","Rept_Date":"2020-01-08 13"},"coordinates":[5704,5181]},{"type":"Point","properties":{"Station_ID":"NH-CR-41","Station_Nam":"ALBANY 2.8 SW, NH","Latitude":"43.92648","Longitude":"-71.21556","Snowdepth":"10.500","Units":"in","Rept_Date":"2020-01-08 13"},"coordinates":[5952,5159]},{"type":"Point","properties":{"Station_ID":"QGT","Station_Nam":"QGT","Latitude":"49.64720","Longitude":"-67.62640","Snowdepth":"10.276","Units":"in","Rept_Date":"2020-01-08 12"},"coordinates":[6773,8709]},{"type":"Point","properties":{"Station_ID":"ZNOM4","Station_Nam":"NORWAY","Latitude":"45.77810","Longitude":"-87.89560","Snowdepth":"10.000","Units":"in","Rept_Date":"2020-01-09 01"},"coordinates":[2137,6308]},{"type":"Point","properties":{"Station_ID":"WLKW3","Station_Nam":"WHITE LAKE 1 SE","Latitude":"45.14520","Longitude":"-88.74160","Snowdepth":"10.000","Units":"in","Rept_Date":"2020-01-08 14"},"coordinates":[1943,5915]},{"type":"Point","properties":{"Station_ID":"WI-LN-2","Station_Nam":"MERRILL 7.0 W, WI","Latitude":"45.17746","Longitude":"-89.84820","Snowdepth":"10.000","Units":"in","Rept_Date":"2020-01-08 12"},"coordinates":[1690,5936]},{"type":"Point","properties":{"Station_ID":"WI-DN-1","Station_Nam":"BOYCEVILLE 3.3 N, WI","Latitude":"45.08913","Longitude":"-92.02760","Snowdepth":"10.000","Units":"in","Rept_Date":"2020-01-08 13"},"coordinates":[1192,5881]},{"type":"Point","properties":{"Station_ID":"VT-LM-7","Station_Nam":"HYDE PARK 2.9 NE, VT","Latitude":"44.62080","Longitude":"-72.57250","Snowdepth":"10.000","Units":"in","Rept_Date":"2020-01-08 13"},"coordinates":[5641,5590]},{"type":"Point","properties":{"Station_ID":"SULW3","Station_Nam":"SUMMIT LAKE","Latitude":"45.37880","Longitude":"-89.19410","Snowdepth":"10.000","Units":"in","Rept_Date":"2020-01-08 11"},"coordinates":[1840,6060]},{"type":"Point","properties":{"Station_ID":"RRVM4","Station_Nam":"RAPID RIVER 9S","Latitude":"45.78750","Longitude":"-86.93920","Snowdepth":"10.000","Units":"in","Rept_Date":"2020-01-08 15"},"coordinates":[2356,6314]},{"type":"Point","properties":{"Station_ID":"NH-MR-6","Station_Nam":"DANBURY 2.2 ESE, NH","Latitude":"43.52000","Longitude":"-71.81900","Snowdepth":"10.000","Units":"in","Rept_Date":"2020-01-08 13"},"coordinates":[5814,4907]},{"type":"Point","properties":{"Station_ID":"NH-MR-41","Station_Nam":"NEWBURY 1.6 NW, NH","Latitude":"43.33667","Longitude":"-72.06060","Snowdepth":"10.000","Units":"in","Rept_Date":"2020-01-08 11"},"coordinates":[5758,4793]},{"type":"Point","properties":{"Station_ID":"MTQM4","Station_Nam":"MANISTIQUE WWTP","Latitude":"45.95120","Longitude":"-86.25130","Snowdepth":"10.000","Units":"in","Rept_Date":"2020-01-08 12"},"coordinates":[2513,6416]},{"type":"Point","properties":{"Station_ID":"MLLW3","Station_Nam":"MERRILL 8W","Latitude":"45.17810","Longitude":"-89.84810","Snowdepth":"10.000","Units":"in","Rept_Date":"2020-01-08 12"},"coordinates":[1690,5936]},{"type":"Point","properties":{"Station_ID":"ME-SG-1","Station_Nam":"BATH 1.1 WSW, ME","Latitude":"43.93063","Longitude":"-69.85730","Snowdepth":"10.000","Units":"in","Rept_Date":"2020-01-08 12"},"coordinates":[6262,5162]},{"type":"Point","properties":{"Station_ID":"ME-OX-29","Station_Nam":"SUMNER 1.1 N, ME","Latitude":"44.40840","Longitude":"-70.44010","Snowdepth":"10.000","Units":"in","Rept_Date":"2020-01-08 14"},"coordinates":[6129,5458]},{"type":"Point","properties":{"Station_ID":"ME-FR-4","Station_Nam":"NEW SHARON 2.0 NW, ME","Latitude":"44.66582","Longitude":"-70.02720","Snowdepth":"10.000","Units":"in","Rept_Date":"2020-01-08 12"},"coordinates":[6224,5618]},{"type":"Point","properties":{"Station_ID":"LPLN6","Station_Nam":"LAKE PLACID 2 S","Latitude":"44.30420","Longitude":"-73.98390","Snowdepth":"10.000","Units":"in","Rept_Date":"2020-01-08 13"},"coordinates":[5319,5394]},{"type":"Point","properties":{"Station_ID":"LEWM4","Station_Nam":"LEWISTON 3W","Latitude":"44.88210","Longitude":"-84.36540","Snowdepth":"10.000","Units":"in","Rept_Date":"2020-01-08 13"},"coordinates":[2944,5752]},{"type":"Point","properties":{"Station_ID":"LBKV1","Station_Nam":"LYE BROOK","Latitude":"43.05000","Longitude":"-73.03330","Snowdepth":"10.000","Units":"in","Rept_Date":"2020-01-09 06"},"coordinates":[5536,4616]},{"type":"Point","properties":{"Station_ID":"LADW3","Station_Nam":"LADYSMITH WTP","Latitude":"45.44290","Longitude":"-91.08970","Snowdepth":"10.000","Units":"in","Rept_Date":"2020-01-08 13"},"coordinates":[1406,6100]},{"type":"Point","properties":{"Station_ID":"KINM1","Station_Nam":"KINGFIELD","Latitude":"44.95950","Longitude":"-70.17530","Snowdepth":"10.000","Units":"in","Rept_Date":"2020-01-08 12"},"coordinates":[6190,5800]},{"type":"Point","properties":{"Station_ID":"INDN6","Station_Nam":"INDIAN LAKE","Latitude":"43.75500","Longitude":"-74.27560","Snowdepth":"10.000","Units":"in","Rept_Date":"2020-01-08 13"},"coordinates":[5252,5053]},{"type":"Point","properties":{"Station_ID":"HANN3","Station_Nam":"HANOVER","Latitude":"43.70520","Longitude":"-72.28550","Snowdepth":"10.000","Units":"in","Rept_Date":"2020-01-08 21"},"coordinates":[5707,5022]},{"type":"Point","properties":{"Station_ID":"GRBM5","Station_Nam":"GRAND RAPIDS 12N","Latitude":"47.39800","Longitude":"-93.51330","Snowdepth":"10.000","Units":"in","Rept_Date":"2020-01-08 16"},"coordinates":[852,7313]},{"type":"Point","properties":{"Station_ID":"GLWM5","Station_Nam":"GLENWOOD 1N","Latitude":"45.66580","Longitude":"-95.38690","Snowdepth":"10.000","Units":"in","Rept_Date":"2020-01-08 13"},"coordinates":[424,6238]},{"type":"Point","properties":{"Station_ID":"DURM1","Station_Nam":"DURHAM","Latitude":"43.99960","Longitude":"-70.09630","Snowdepth":"10.000","Units":"in","Rept_Date":"2020-01-08 12"},"coordinates":[6208,5205]},{"type":"Point","properties":{"Station_ID":"CHRM4","Station_Nam":"CHARLEVOIX","Latitude":"45.31720","Longitude":"-85.26720","Snowdepth":"10.000","Units":"in","Rept_Date":"2020-01-08 13"},"coordinates":[2738,6022]},{"type":"Point","properties":{"Station_ID":"CANM5","Station_Nam":"CANBY","Latitude":"44.71840","Longitude":"-96.26960","Snowdepth":"10.000","Units":"in","Rept_Date":"2020-01-08 14"},"coordinates":[222,5651]},{"type":"Point","properties":{"Station_ID":"BTHM1","Station_Nam":"BATH","Latitude":"43.93160","Longitude":"-69.85640","Snowdepth":"10.000","Units":"in","Rept_Date":"2020-01-08 12"},"coordinates":[6263,5163]},{"type":"Point","properties":{"Station_ID":"BRLN3","Station_Nam":"BERLIN","Latitude":"44.45350","Longitude":"-71.18540","Snowdepth":"10.000","Units":"in","Rept_Date":"2020-01-08 12"},"coordinates":[5959,5486]},{"type":"Point","properties":{"Station_ID":"ARTM5","Station_Nam":"ARTICHOKE LAKE 1 E","Latitude":"45.38560","Longitude":"-96.12570","Snowdepth":"10.000","Units":"in","Rept_Date":"2020-01-09 02"},"coordinates":[255,6065]},{"type":"Point","properties":{"Station_ID":"APXM4","Station_Nam":"GAYLORD 9SSW","Latitude":"44.90720","Longitude":"-84.71880","Snowdepth":"10.000","Units":"in","Rept_Date":"2020-01-09 06"},"coordinates":[2863,5768]},{"type":"Point","properties":{"Station_ID":"NH-ST-31","Station_Nam":"STRAFFORD 2.9 N, NH","Latitude":"43.31175","Longitude":"-71.13510","Snowdepth":"9.500","Units":"in","Rept_Date":"2020-01-08 13"},"coordinates":[5970,4778]},{"type":"Point","properties":{"Station_ID":"NH-CR-16","Station_Nam":"WOLFEBORO 0.6 SW, NH","Latitude":"43.58464","Longitude":"-71.21760","Snowdepth":"9.500","Units":"in","Rept_Date":"2020-01-08 12"},"coordinates":[5951,4947]},{"type":"Point","properties":{"Station_ID":"NH-CR-15","Station_Nam":"JACKSON 3.7 NW, NH","Latitude":"44.19069","Longitude":"-71.22598","Snowdepth":"9.500","Units":"in","Rept_Date":"2020-01-08 12"},"coordinates":[5949,5323]},{"type":"Point","properties":{"Station_ID":"NH-BK-9","Station_Nam":"MEREDITH 2.9 SSW, NH","Latitude":"43.62245","Longitude":"-71.53510","Snowdepth":"9.500","Units":"in","Rept_Date":"2020-01-08 11"},"coordinates":[5879,4971]},{"type":"Point","properties":{"Station_ID":"MN-MR-13","Station_Nam":"LITTLE FALLS 8.0 NE, MN","Latitude":"46.06785","Longitude":"-94.24789","Snowdepth":"9.500","Units":"in","Rept_Date":"2020-01-08 13"},"coordinates":[684,6488]},{"type":"Point","properties":{"Station_ID":"ME-CM-3","Station_Nam":"NEW GLOUCESTER 3.0 SE, ME","Latitude":"43.92372","Longitude":"-70.25790","Snowdepth":"9.500","Units":"in","Rept_Date":"2020-01-08 12"},"coordinates":[6171,5158]},{"type":"Point","properties":{"Station_ID":"CAN-NS-60","Station_Nam":"SYDNEY FORKS, CAN","Latitude":"46.05645","Longitude":"-60.31510","Snowdepth":"9.500","Units":"in","Rept_Date":"2020-01-08 12"},"coordinates":[8445,6481]},{"type":"Point","properties":{"Station_ID":"CAN-PE-19","Station_Nam":"CHARLOTTETOWN 6.5 NNW, CAN","Latitude":"46.29235","Longitude":"-63.17271","Snowdepth":"9.400","Units":"in","Rept_Date":"2020-01-08 12"},"coordinates":[7791,6627]},{"type":"Point","properties":{"Station_ID":"ME-AN-32","Station_Nam":"WINTHROP 9.4 W, ME","Latitude":"44.30476","Longitude":"-70.15835","Snowdepth":"9.200","Units":"in","Rept_Date":"2020-01-08 11"},"coordinates":[6194,5394]},{"type":"Point","properties":{"Station_ID":"WRUM5","Station_Nam":"WARROAD 4W","Latitude":"48.89600","Longitude":"-95.40700","Snowdepth":"9.000","Units":"in","Rept_Date":"2020-01-09 04"},"coordinates":[419,8243]},{"type":"Point","properties":{"Station_ID":"WLDM5","Station_Nam":"WILD RIVER STATE PARK","Latitude":"45.52310","Longitude":"-92.74890","Snowdepth":"9.000","Units":"in","Rept_Date":"2020-01-08 14"},"coordinates":[1027,6150]},{"type":"Point","properties":{"Station_ID":"WI-MT-14","Station_Nam":"MOSINEE 2.7 WSW, WI","Latitude":"44.77240","Longitude":"-89.73441","Snowdepth":"9.000","Units":"in","Rept_Date":"2020-01-08 13"},"coordinates":[1716,5684]},{"type":"Point","properties":{"Station_ID":"WI-EC-23","Station_Nam":"EAU CLAIRE 3.7 S, WI","Latitude":"44.76858","Longitude":"-91.49898","Snowdepth":"9.000","Units":"in","Rept_Date":"2020-01-08 14"},"coordinates":[1313,5682]},{"type":"Point","properties":{"Station_ID":"WI-BR-2","Station_Nam":"CHETEK 2.0 SE, WI","Latitude":"45.29427","Longitude":"-91.62470","Snowdepth":"9.000","Units":"in","Rept_Date":"2020-01-08 13"},"coordinates":[1284,6008]},{"type":"Point","properties":{"Station_ID":"VT-WS-10","Station_Nam":"NORTHFIELD 1.5 N, VT","Latitude":"44.16986","Longitude":"-72.65200","Snowdepth":"9.000","Units":"in","Rept_Date":"2020-01-08 12"},"coordinates":[5623,5310]},{"type":"Point","properties":{"Station_ID":"SJBV1","Station_Nam":"SAINT JOHNSBURY","Latitude":"44.42000","Longitude":"-72.01940","Snowdepth":"9.000","Units":"in","Rept_Date":"2020-01-08 21"},"coordinates":[5768,5466]},{"type":"Point","properties":{"Station_ID":"RANM1","Station_Nam":"RANGELEY,ME","Latitude":"44.96670","Longitude":"-70.65000","Snowdepth":"9.000","Units":"in","Rept_Date":"2020-01-08 11"},"coordinates":[6081,5805]},{"type":"Point","properties":{"Station_ID":"POLM1","Station_Nam":"POLAND,ME","Latitude":"44.00750","Longitude":"-70.36190","Snowdepth":"9.000","Units":"in","Rept_Date":"2020-01-08 12"},"coordinates":[6147,5210]},{"type":"Point","properties":{"Station_ID":"PLFV1","Station_Nam":"PLAINFIELD","Latitude":"44.27610","Longitude":"-72.41500","Snowdepth":"9.000","Units":"in","Rept_Date":"2020-01-08 12"},"coordinates":[5677,5376]},{"type":"Point","properties":{"Station_ID":"MRQM4","Station_Nam":"MARQUETTE WFP","Latitude":"46.54580","Longitude":"-87.37950","Snowdepth":"9.000","Units":"in","Rept_Date":"2020-01-08 13"},"coordinates":[2255,6784]},{"type":"Point","properties":{"Station_ID":"MN-SH-10","Station_Nam":"BIG LAKE 5.6 NNE, MN","Latitude":"45.41409","Longitude":"-93.69190","Snowdepth":"9.000","Units":"in","Rept_Date":"2020-01-08 13"},"coordinates":[811,6082]},{"type":"Point","properties":{"Station_ID":"MN-MR-4","Station_Nam":"LITTLE FALLS 1.2 SW, MN","Latitude":"45.96886","Longitude":"-94.37720","Snowdepth":"9.000","Units":"in","Rept_Date":"2020-01-08 13"},"coordinates":[654,6427]},{"type":"Point","properties":{"Station_ID":"MEDW3","Station_Nam":"MEDFORD","Latitude":"45.13080","Longitude":"-90.34390","Snowdepth":"9.000","Units":"in","Rept_Date":"2020-01-08 14"},"coordinates":[1577,5907]},{"type":"Point","properties":{"Station_ID":"ME-FR-22","Station_Nam":"FARMINGTON 4.8 NNW, ME","Latitude":"44.73396","Longitude":"-70.18007","Snowdepth":"9.000","Units":"in","Rept_Date":"2020-01-08 14"},"coordinates":[6189,5660]},{"type":"Point","properties":{"Station_ID":"ME-CM-86","Station_Nam":"POWNAL 4.1 S, ME","Latitude":"43.85370","Longitude":"-70.17210","Snowdepth":"9.000","Units":"in","Rept_Date":"2020-01-08 13"},"coordinates":[6190,5114]},{"type":"Point","properties":{"Station_ID":"ME-CM-18","Station_Nam":"PORTLAND 5.5 WNW, ME","Latitude":"43.70288","Longitude":"-70.30550","Snowdepth":"9.000","Units":"in","Rept_Date":"2020-01-08 14"},"coordinates":[6160,5021]},{"type":"Point","properties":{"Station_ID":"ME-AR-15","Station_Nam":"PRESQUE ISLE 1.3 WSW, ME","Latitude":"46.67960","Longitude":"-68.01270","Snowdepth":"9.000","Units":"in","Rept_Date":"2020-01-08 12"},"coordinates":[6684,6867]},{"type":"Point","properties":{"Station_ID":"MA-HS-7","Station_Nam":"PLAINFIELD 2.2 SW, MA","Latitude":"42.49272","Longitude":"-72.94540","Snowdepth":"9.000","Units":"in","Rept_Date":"2020-01-08 13"},"coordinates":[5556,4270]},{"type":"Point","properties":{"Station_ID":"LBRM5","Station_Nam":"LAKE BRONSON DAM","Latitude":"48.72410","Longitude":"-96.62180","Snowdepth":"9.000","Units":"in","Rept_Date":"2020-01-08 14"},"coordinates":[141,8136]},{"type":"Point","properties":{"Station_ID":"HYTS2","Station_Nam":"HAYTI 1W","Latitude":"44.66330","Longitude":"-97.22670","Snowdepth":"9.000","Units":"in","Rept_Date":"2020-01-08 14"},"coordinates":[3,5616]},{"type":"Point","properties":{"Station_ID":"HRTM1","Station_Nam":"HARTFORD","Latitude":"44.37440","Longitude":"-70.31620","Snowdepth":"9.000","Units":"in","Rept_Date":"2020-01-08 12"},"coordinates":[6157,5437]},{"type":"Point","properties":{"Station_ID":"GFDN6","Station_Nam":"CHASES LAKE","Latitude":"43.75920","Longitude":"-75.29980","Snowdepth":"9.000","Units":"in","Rept_Date":"2020-01-08 11"},"coordinates":[5018,5056]},{"type":"Point","properties":{"Station_ID":"ESGM1","Station_Nam":"EAST SANGERVILLE","Latitude":"45.13690","Longitude":"-69.28060","Snowdepth":"9.000","Units":"in","Rept_Date":"2020-01-08 12"},"coordinates":[6394,5910]},{"type":"Point","properties":{"Station_ID":"EPTW3","Station_Nam":"EAU PLEINE TENDER","Latitude":"44.77220","Longitude":"-89.76720","Snowdepth":"9.000","Units":"in","Rept_Date":"2020-01-08 13"},"coordinates":[1709,5684]},{"type":"Point","properties":{"Station_ID":"COLN3","Station_Nam":"COLEBROOK 3SW","Latitude":"44.86100","Longitude":"-71.53920","Snowdepth":"9.000","Units":"in","Rept_Date":"2020-01-08 12"},"coordinates":[5878,5739]},{"type":"Point","properties":{"Station_ID":"CARM1","Station_Nam":"CARIBOU WFO","Latitude":"46.86810","Longitude":"-68.01250","Snowdepth":"9.000","Units":"in","Rept_Date":"2020-01-09 05"},"coordinates":[6684,6984]},{"type":"Point","properties":{"Station_ID":"CAR","Station_Nam":"CARIBOU, ME","Latitude":"46.86830","Longitude":"-68.01360","Snowdepth":"9.000","Units":"in","Rept_Date":"2020-01-08 12"},"coordinates":[6684,6985]},{"type":"Point","properties":{"Station_ID":"CAN-NS-103","Station_Nam":"TRAFALGAR 4.9 WSW, CAN","Latitude":"45.26217","Longitude":"-62.72285","Snowdepth":"9.000","Units":"in","Rept_Date":"2020-01-08 12"},"coordinates":[7894,5988]},{"type":"Point","properties":{"Station_ID":"CAN-NB-13","Station_Nam":"BATHURST 3.8 NW, CAN","Latitude":"47.64212","Longitude":"-65.68756","Snowdepth":"9.000","Units":"in","Rept_Date":"2020-01-08 11"},"coordinates":[7216,7465]},{"type":"Point","properties":{"Station_ID":"BKBW2","Station_Nam":"DAVIS.","Latitude":"39.09830","Longitude":"-79.43190","Snowdepth":"9.000","Units":"in","Rept_Date":"2020-01-08 12"},"coordinates":[4073,2164]},{"type":"Point","properties":{"Station_ID":"8D3","Station_Nam":"SISSETON MUNICIPAL AP","Latitude":"45.67080","Longitude":"-96.99610","Snowdepth":"9.000","Units":"in","Rept_Date":"2020-01-08 12"},"coordinates":[55,6242]},{"type":"Point","properties":{"Station_ID":"CAN-PE-43","Station_Nam":"GLENCOE 0.3 W, CAN","Latitude":"46.20115","Longitude":"-62.81740","Snowdepth":"8.700","Units":"in","Rept_Date":"2020-01-08 12"},"coordinates":[7872,6571]},{"type":"Point","properties":{"Station_ID":"WI-CH-7","Station_Nam":"CHIPPEWA FALLS 1.2 E, WI","Latitude":"44.92920","Longitude":"-91.36730","Snowdepth":"8.500","Units":"in","Rept_Date":"2020-01-08 13"},"coordinates":[1343,5781]},{"type":"Point","properties":{"Station_ID":"SD-BK-7","Station_Nam":"BROOKINGS 0.2 SSW, SD","Latitude":"44.30389","Longitude":"-96.78780","Snowdepth":"8.500","Units":"in","Rept_Date":"2020-01-08 13"},"coordinates":[103,5394]},{"type":"Point","properties":{"Station_ID":"PIXN6","Station_Nam":"PIXLEY FALLS","Latitude":"43.40330","Longitude":"-75.34310","Snowdepth":"8.500","Units":"in","Rept_Date":"2020-01-08 17"},"coordinates":[5008,4835]},{"type":"Point","properties":{"Station_ID":"NY-HR-18","Station_Nam":"SALISBURY CENTER 1.8 NW, NY","Latitude":"43.16260","Longitude":"-74.80880","Snowdepth":"8.500","Units":"in","Rept_Date":"2020-01-08 11"},"coordinates":[5130,4685]},{"type":"Point","properties":{"Station_ID":"NH-MR-45","Station_Nam":"NORTHFIELD 2.8 E, NH","Latitude":"43.43945","Longitude":"-71.53730","Snowdepth":"8.500","Units":"in","Rept_Date":"2020-01-08 10"},"coordinates":[5878,4857]},{"type":"Point","properties":{"Station_ID":"NH-CR-9","Station_Nam":"MADISON 1.7 SE, NH","Latitude":"43.87928","Longitude":"-71.12660","Snowdepth":"8.500","Units":"in","Rept_Date":"2020-01-08 12"},"coordinates":[5972,5130]},{"type":"Point","properties":{"Station_ID":"NH-BK-1","Station_Nam":"TILTON NORTHFIELD 3.3 NE, NH","Latitude":"43.48000","Longitude":"-71.55000","Snowdepth":"8.500","Units":"in","Rept_Date":"2020-01-08 12"},"coordinates":[5875,4882]},{"type":"Point","properties":{"Station_ID":"WBUM1","Station_Nam":"HOLLIS/NWS","Latitude":"43.64500","Longitude":"-70.67690","Snowdepth":"8.400","Units":"in","Rept_Date":"2020-01-08 23"},"coordinates":[6075,4985]},{"type":"Point","properties":{"Station_ID":"ME-CM-54","Station_Nam":"WINDHAM 3.9 NW, ME","Latitude":"43.85787","Longitude":"-70.46200","Snowdepth":"8.400","Units":"in","Rept_Date":"2020-01-08 12"},"coordinates":[6124,5117]},{"type":"Point","properties":{"Station_ID":"WKEM1","Station_Nam":"WEST KENNEBUNK","Latitude":"43.41670","Longitude":"-70.66110","Snowdepth":"8.300","Units":"in","Rept_Date":"2020-01-08 23"},"coordinates":[6079,4843]},{"type":"Point","properties":{"Station_ID":"CAN-QC-51","Station_Nam":"BELOEIL 0.7 NW, CAN","Latitude":"45.58049","Longitude":"-73.21218","Snowdepth":"8.100","Units":"in","Rept_Date":"2020-01-08 12"},"coordinates":[5495,6186]},{"type":"Point","properties":{"Station_ID":"WUNW3","Station_Nam":"WAUSAU-NORTHEAST","Latitude":"44.97310","Longitude":"-89.61690","Snowdepth":"8.000","Units":"in","Rept_Date":"2020-01-08 12"},"coordinates":[1743,5809]},{"type":"Point","properties":{"Station_ID":"WSKW3","Station_Nam":"WAUSAUKEE","Latitude":"45.38020","Longitude":"-87.95660","Snowdepth":"8.000","Units":"in","Rept_Date":"2020-01-08 14"},"coordinates":[2123,6061]},{"type":"Point","properties":{"Station_ID":"WDOM5","Station_Nam":"WINDOM","Latitude":"43.87700","Longitude":"-95.11590","Snowdepth":"8.000","Units":"in","Rept_Date":"2020-01-08 14"},"coordinates":[485,5129]},{"type":"Point","properties":{"Station_ID":"VT-WR-2","Station_Nam":"POMFRET 2.6 N, VT","Latitude":"43.74230","Longitude":"-72.52550","Snowdepth":"8.000","Units":"in","Rept_Date":"2020-01-08 12"},"coordinates":[5652,5045]},{"type":"Point","properties":{"Station_ID":"VT-WR-17","Station_Nam":"ROCHESTER 2.3 NE, VT","Latitude":"43.89418","Longitude":"-72.76992","Snowdepth":"8.000","Units":"in","Rept_Date":"2020-01-08 12"},"coordinates":[5596,5139]},{"type":"Point","properties":{"Station_ID":"VT-CL-23","Station_Nam":"RYEGATE 1.5 N, VT","Latitude":"44.23024","Longitude":"-72.10523","Snowdepth":"8.000","Units":"in","Rept_Date":"2020-01-08 12"},"coordinates":[5748,5348]},{"type":"Point","properties":{"Station_ID":"VT-CH-4","Station_Nam":"UNDERHILL 4.4 NNE, VT","Latitude":"44.58774","Longitude":"-72.92250","Snowdepth":"8.000","Units":"in","Rept_Date":"2020-01-08 12"},"coordinates":[5561,5570]},{"type":"Point","properties":{"Station_ID":"VT-AD-20","Station_Nam":"HANCOCK 0.3 S, VT","Latitude":"43.92166","Longitude":"-72.84042","Snowdepth":"8.000","Units":"in","Rept_Date":"2020-01-08 12"},"coordinates":[5580,5156]},{"type":"Point","properties":{"Station_ID":"VANM4","Station_Nam":"VANDERBILT 11ENE","Latitude":"45.17020","Longitude":"-84.43970","Snowdepth":"8.000","Units":"in","Rept_Date":"2020-01-08 13"},"coordinates":[2927,5931]},{"type":"Point","properties":{"Station_ID":"TMWN3","Station_Nam":"TAMWORTH 4","Latitude":"43.86390","Longitude":"-71.26610","Snowdepth":"8.000","Units":"in","Rept_Date":"2020-01-08 12"},"coordinates":[5940,5121]},{"type":"Point","properties":{"Station_ID":"STRW3","Station_Nam":"STRATFORD 1NW","Latitude":"44.81750","Longitude":"-90.08990","Snowdepth":"8.000","Units":"in","Rept_Date":"2020-01-08 13"},"coordinates":[1635,5712]},{"type":"Point","properties":{"Station_ID":"STC","Station_Nam":"ST. CLOUD REGIONAL AIRPORT","Latitude":"45.54330","Longitude":"-94.05140","Snowdepth":"8.000","Units":"in","Rept_Date":"2020-01-09 00"},"coordinates":[729,6162]},{"type":"Point","properties":{"Station_ID":"SCSM5","Station_Nam":"ST CLOUD STATE","Latitude":"45.55100","Longitude":"-94.14950","Snowdepth":"8.000","Units":"in","Rept_Date":"2020-01-08 12"},"coordinates":[707,6167]},{"type":"Point","properties":{"Station_ID":"RSTW3","Station_Nam":"ROSHOLT","Latitude":"44.62710","Longitude":"-89.30600","Snowdepth":"8.000","Units":"in","Rept_Date":"2020-01-08 11"},"coordinates":[1814,5594]},{"type":"Point","properties":{"Station_ID":"RRLW3","Station_Nam":"MERRILL,WI","Latitude":"45.17860","Longitude":"-89.66170","Snowdepth":"8.000","Units":"in","Rept_Date":"2020-01-08 14"},"coordinates":[1733,5936]},{"type":"Point","properties":{"Station_ID":"ROBM1","Station_Nam":"ROBBINSTON","Latitude":"45.08520","Longitude":"-67.12050","Snowdepth":"8.000","Units":"in","Rept_Date":"2020-01-09 05"},"coordinates":[6888,5878]},{"type":"Point","properties":{"Station_ID":"RFDM1","Station_Nam":"RUMFORD 7SW","Latitude":"44.49470","Longitude":"-70.65640","Snowdepth":"8.000","Units":"in","Rept_Date":"2020-01-08 16"},"coordinates":[6080,5512]},{"type":"Point","properties":{"Station_ID":"RCEM5","Station_Nam":"RICE","Latitude":"45.75760","Longitude":"-94.20720","Snowdepth":"8.000","Units":"in","Rept_Date":"2020-01-08 13"},"coordinates":[693,6295]},{"type":"Point","properties":{"Station_ID":"NUNV1","Station_Nam":"NORTH UNDERHILL","Latitude":"44.58760","Longitude":"-72.92150","Snowdepth":"8.000","Units":"in","Rept_Date":"2020-01-08 12"},"coordinates":[5562,5570]},{"type":"Point","properties":{"Station_ID":"NH-GR-1","Station_Nam":"BRISTOL 0.4 SSE, NH","Latitude":"43.59490","Longitude":"-71.74140","Snowdepth":"8.000","Units":"in","Rept_Date":"2020-01-08 12"},"coordinates":[5831,4954]},{"type":"Point","properties":{"Station_ID":"NH-CR-46","Station_Nam":"NORTH CONWAY 1.8 SSE, NH","Latitude":"44.02955","Longitude":"-71.11664","Snowdepth":"8.000","Units":"in","Rept_Date":"2020-01-08 15"},"coordinates":[5974,5223]},{"type":"Point","properties":{"Station_ID":"NH-CR-27","Station_Nam":"TAMWORTH 0.4 NNW, NH","Latitude":"43.86449","Longitude":"-71.26610","Snowdepth":"8.000","Units":"in","Rept_Date":"2020-01-08 12"},"coordinates":[5940,5121]},{"type":"Point","properties":{"Station_ID":"NH-BK-29","Station_Nam":"SANBORNTON 2.3 WNW, NH","Latitude":"43.49730","Longitude":"-71.62800","Snowdepth":"8.000","Units":"in","Rept_Date":"2020-01-08 12"},"coordinates":[5857,4893]},{"type":"Point","properties":{"Station_ID":"NCKN6","Station_Nam":"NORTH CREEK 5 SE","Latitude":"43.66110","Longitude":"-73.89690","Snowdepth":"8.000","Units":"in","Rept_Date":"2020-01-08 12"},"coordinates":[5338,4995]},{"type":"Point","properties":{"Station_ID":"MRAM4","Station_Nam":"MORAN","Latitude":"45.99030","Longitude":"-84.83610","Snowdepth":"8.000","Units":"in","Rept_Date":"2020-01-08 13"},"coordinates":[2837,6440]},{"type":"Point","properties":{"Station_ID":"MONS2","Station_Nam":"SIOUX FALLS-26MI.WNW","Latitude":"43.70190","Longitude":"-97.18330","Snowdepth":"8.000","Units":"in","Rept_Date":"2020-01-08 14"},"coordinates":[13,5020]},{"type":"Point","properties":{"Station_ID":"MLCM5","Station_Nam":"MILACA","Latitude":"45.75320","Longitude":"-93.66170","Snowdepth":"8.000","Units":"in","Rept_Date":"2020-01-08 13"},"coordinates":[818,6293]},{"type":"Point","properties":{"Station_ID":"MI-DL-1","Station_Nam":"GARDEN CORNERS 0.8 NW, MI","Latitude":"45.89815","Longitude":"-86.54850","Snowdepth":"8.000","Units":"in","Rept_Date":"2020-01-08 13"},"coordinates":[2445,6383]},{"type":"Point","properties":{"Station_ID":"ME-YK-3","Station_Nam":"HOLLIS CENTER 5.4 NW, ME","Latitude":"43.64750","Longitude":"-70.67510","Snowdepth":"8.000","Units":"in","Rept_Date":"2020-01-08 11"},"coordinates":[6075,4986]},{"type":"Point","properties":{"Station_ID":"ME-CM-98","Station_Nam":"SEBAGO 2.4 ESE, ME","Latitude":"43.88000","Longitude":"-70.63000","Snowdepth":"8.000","Units":"in","Rept_Date":"2020-01-08 14"},"coordinates":[6086,5131]},{"type":"Point","properties":{"Station_ID":"ME-CM-128","Station_Nam":"SOUTH PORTLAND 1.6 S, ME","Latitude":"43.60900","Longitude":"-70.28600","Snowdepth":"8.000","Units":"in","Rept_Date":"2020-01-08 13"},"coordinates":[6164,4962]},{"type":"Point","properties":{"Station_ID":"ME-AN-41","Station_Nam":"AUBURN 2.1 NNW, ME","Latitude":"44.11275","Longitude":"-70.26452","Snowdepth":"8.000","Units":"in","Rept_Date":"2020-01-08 13"},"coordinates":[6169,5275]},{"type":"Point","properties":{"Station_ID":"LVRM1","Station_Nam":"LIVERMORE FALLS 1 E","Latitude":"44.47160","Longitude":"-70.15940","Snowdepth":"8.000","Units":"in","Rept_Date":"2020-01-08 12"},"coordinates":[6193,5498]},{"type":"Point","properties":{"Station_ID":"LNCM1","Station_Nam":"LINCOLN WATER DISTRICT","Latitude":"45.32410","Longitude":"-68.58300","Snowdepth":"8.000","Units":"in","Rept_Date":"2020-01-08 13"},"coordinates":[6554,6026]},{"type":"Point","properties":{"Station_ID":"LKPN3","Station_Nam":"LAKEPORT 2","Latitude":"43.54910","Longitude":"-71.46450","Snowdepth":"8.000","Units":"in","Rept_Date":"2020-01-08 13"},"coordinates":[5895,4925]},{"type":"Point","properties":{"Station_ID":"IRBP1","Station_Nam":"GLENVILLE 1 E SNOW","Latitude":"39.76670","Longitude":"-76.80000","Snowdepth":"8.000","Units":"in","Rept_Date":"2020-01-08 19"},"coordinates":[4675,2578]},{"type":"Point","properties":{"Station_ID":"HOLM1","Station_Nam":"HOLLIS","Latitude":"43.64750","Longitude":"-70.67490","Snowdepth":"8.000","Units":"in","Rept_Date":"2020-01-08 11"},"coordinates":[6075,4986]},{"type":"Point","properties":{"Station_ID":"GYX","Station_Nam":"PORTLAND, ME","Latitude":"43.89250","Longitude":"-70.25500","Snowdepth":"8.000","Units":"in","Rept_Date":"2020-01-08 12"},"coordinates":[6171,5138]},{"type":"Point","properties":{"Station_ID":"GDCM4","Station_Nam":"GARDEN CORNERS","Latitude":"45.89830","Longitude":"-86.54850","Snowdepth":"8.000","Units":"in","Rept_Date":"2020-01-08 13"},"coordinates":[2445,6383]},{"type":"Point","properties":{"Station_ID":"FFLN3","Station_Nam":"FRANKLIN FALLS DAM","Latitude":"43.47030","Longitude":"-71.65370","Snowdepth":"8.000","Units":"in","Rept_Date":"2020-01-08 12"},"coordinates":[5852,4876]},{"type":"Point","properties":{"Station_ID":"ELRW3","Station_Nam":"EAU CLAIRE 3SW","Latitude":"44.78780","Longitude":"-91.51650","Snowdepth":"8.000","Units":"in","Rept_Date":"2020-01-09 06"},"coordinates":[1309,5694]},{"type":"Point","properties":{"Station_ID":"EJDM4","Station_Nam":"EAST JORDAN","Latitude":"45.15190","Longitude":"-85.13220","Snowdepth":"8.000","Units":"in","Rept_Date":"2020-01-08 12"},"coordinates":[2769,5920]},{"type":"Point","properties":{"Station_ID":"BRAM1","Station_Nam":"BRASSUA DAM","Latitude":"45.66020","Longitude":"-69.81190","Snowdepth":"8.000","Units":"in","Rept_Date":"2020-01-08 12"},"coordinates":[6273,6235]},{"type":"Point","properties":{"Station_ID":"CRNM1","Station_Nam":"CORNISH","Latitude":"43.81670","Longitude":"-70.77060","Snowdepth":"7.800","Units":"in","Rept_Date":"2020-01-08 23"},"coordinates":[6054,5091]},{"type":"Point","properties":{"Station_ID":"ME-YK-65","Station_Nam":"NORTH BERWICK 5.3 W, ME","Latitude":"43.29801","Longitude":"-70.83956","Snowdepth":"7.500","Units":"in","Rept_Date":"2020-01-08 12"},"coordinates":[6038,4769]},{"type":"Point","properties":{"Station_ID":"ME-YK-5","Station_Nam":"KENNEBUNK 1.8 WNW, ME","Latitude":"43.39320","Longitude":"-70.58060","Snowdepth":"7.500","Units":"in","Rept_Date":"2020-01-08 12"},"coordinates":[6097,4828]},{"type":"Point","properties":{"Station_ID":"GNWM1","Station_Nam":"GRAY/NWS","Latitude":"43.88330","Longitude":"-70.25000","Snowdepth":"7.500","Units":"in","Rept_Date":"2020-01-08 23"},"coordinates":[6173,5133]},{"type":"Point","properties":{"Station_ID":"CAN-NB-18","Station_Nam":"MCLEOD HILL 1.1 ENE, CA","Latitude":"46.02725","Longitude":"-66.67460","Snowdepth":"7.500","Units":"in","Rept_Date":"2020-01-08 12"},"coordinates":[6990,6463]},{"type":"Point","properties":{"Station_ID":"CAN-NB-89","Station_Nam":"MEMRAMCOOK 4.0 W, CAN","Latitude":"46.01133","Longitude":"-64.60244","Snowdepth":"7.100","Units":"in","Rept_Date":"2020-01-08 15"},"coordinates":[7464,6453]},{"type":"Point","properties":{"Station_ID":"WMRM5","Station_Nam":"WILLMAR 5N","Latitude":"45.19010","Longitude":"-95.05860","Snowdepth":"7.000","Units":"in","Rept_Date":"2020-01-08 12"},"coordinates":[499,5943]},{"type":"Point","properties":{"Station_ID":"WHTM5","Station_Nam":"WHEATON,MN","Latitude":"45.80000","Longitude":"-96.48330","Snowdepth":"7.000","Units":"in","Rept_Date":"2020-01-08 14"},"coordinates":[173,6322]},{"type":"Point","properties":{"Station_ID":"WENN3","Station_Nam":"P.O. BOX 197 WENTWORTH, NH","Latitude":"43.95190","Longitude":"-71.91560","Snowdepth":"7.000","Units":"in","Rept_Date":"2020-01-08 12"},"coordinates":[5792,5175]},{"type":"Point","properties":{"Station_ID":"WAIV1","Station_Nam":"WAITSFIELD","Latitude":"44.17560","Longitude":"-72.79610","Snowdepth":"7.000","Units":"in","Rept_Date":"2020-01-08 12"},"coordinates":[5590,5314]},{"type":"Point","properties":{"Station_ID":"VT-WS-33","Station_Nam":"WAITSFIELD 3.5 WNW, VT","Latitude":"44.20052","Longitude":"-72.89421","Snowdepth":"7.000","Units":"in","Rept_Date":"2020-01-08 13"},"coordinates":[5568,5329]},{"type":"Point","properties":{"Station_ID":"VT-WS-19","Station_Nam":"WATERBURY 3.0 NW, VT","Latitude":"44.36060","Longitude":"-72.80770","Snowdepth":"7.000","Units":"in","Rept_Date":"2020-01-08 11"},"coordinates":[5588,5429]},{"type":"Point","properties":{"Station_ID":"VT-WS-11","Station_Nam":"WAITSFIELD 1.8 SE, VT","Latitude":"44.17551","Longitude":"-72.79540","Snowdepth":"7.000","Units":"in","Rept_Date":"2020-01-08 12"},"coordinates":[5590,5314]},{"type":"Point","properties":{"Station_ID":"VT-BN-3","Station_Nam":"LANDGROVE 1.1 NNE, VT","Latitude":"43.29092","Longitude":"-72.83260","Snowdepth":"7.000","Units":"in","Rept_Date":"2020-01-08 12"},"coordinates":[5582,4765]},{"type":"Point","properties":{"Station_ID":"VANM1","Station_Nam":"VAN BUREN","Latitude":"47.16600","Longitude":"-67.93900","Snowdepth":"7.000","Units":"in","Rept_Date":"2020-01-08 12"},"coordinates":[6701,7169]},{"type":"Point","properties":{"Station_ID":"TURM1","Station_Nam":"TURNER","Latitude":"44.28220","Longitude":"-70.25610","Snowdepth":"7.000","Units":"in","Rept_Date":"2020-01-08 12"},"coordinates":[6171,5380]},{"type":"Point","properties":{"Station_ID":"TOPN6","Station_Nam":"TUPPER LAKE SUNMOUNT","Latitude":"44.23070","Longitude":"-74.43820","Snowdepth":"7.000","Units":"in","Rept_Date":"2020-01-08 12"},"coordinates":[5215,5348]},{"type":"Point","properties":{"Station_ID":"TOPM1","Station_Nam":"TOPSFIELD","Latitude":"45.43470","Longitude":"-67.72020","Snowdepth":"7.000","Units":"in","Rept_Date":"2020-01-08 11"},"coordinates":[6751,6095]},{"type":"Point","properties":{"Station_ID":"TETM5","Station_Nam":"TETTEGOUCHE STATE PARK","Latitude":"47.33900","Longitude":"-91.19590","Snowdepth":"7.000","Units":"in","Rept_Date":"2020-01-08 14"},"coordinates":[1382,7277]},{"type":"Point","properties":{"Station_ID":"SIBI4","Station_Nam":"SIBLEY","Latitude":"43.40470","Longitude":"-95.74830","Snowdepth":"7.000","Units":"in","Rept_Date":"2020-01-08 13"},"coordinates":[341,4836]},{"type":"Point","properties":{"Station_ID":"SD-BK-2","Station_Nam":"ASTORIA 2.2 SSE, SD","Latitude":"44.53093","Longitude":"-96.52270","Snowdepth":"7.000","Units":"in","Rept_Date":"2020-01-08 13"},"coordinates":[164,5534]},{"type":"Point","properties":{"Station_ID":"RKWM1","Station_Nam":"MOOSEHEAD LAKE","Latitude":"45.58330","Longitude":"-69.71670","Snowdepth":"7.000","Units":"in","Rept_Date":"2020-01-08 12"},"coordinates":[6295,6187]},{"type":"Point","properties":{"Station_ID":"RFDM5","Station_Nam":"ROCKFORD","Latitude":"45.08960","Longitude":"-93.73990","Snowdepth":"7.000","Units":"in","Rept_Date":"2020-01-08 13"},"coordinates":[800,5881]},{"type":"Point","properties":{"Station_ID":"OWEW3","Station_Nam":"OWEN 1E","Latitude":"44.94610","Longitude":"-90.55170","Snowdepth":"7.000","Units":"in","Rept_Date":"2020-01-08 13"},"coordinates":[1529,5792]},{"type":"Point","properties":{"Station_ID":"OCON6","Station_Nam":"OSCEOLA","Latitude":"43.49910","Longitude":"-75.71210","Snowdepth":"7.000","Units":"in","Rept_Date":"2020-01-08 12"},"coordinates":[4923,4894]},{"type":"Point","properties":{"Station_ID":"NY-FK-9","Station_Nam":"GABRIELS 1.3 SE, NY","Latitude":"44.41934","Longitude":"-74.16194","Snowdepth":"7.000","Units":"in","Rept_Date":"2020-01-08 12"},"coordinates":[5278,5465]},{"type":"Point","properties":{"Station_ID":"NVLV1","Station_Nam":"NASHVILLE","Latitude":"44.44970","Longitude":"-72.92640","Snowdepth":"7.000","Units":"in","Rept_Date":"2020-01-08 12"},"coordinates":[5560,5484]},{"type":"Point","properties":{"Station_ID":"NOHV1","Station_Nam":"NORTH HARTLAND LAKE","Latitude":"43.60270","Longitude":"-72.36210","Snowdepth":"7.000","Units":"in","Rept_Date":"2020-01-08 12"},"coordinates":[5690,4958]},{"type":"Point","properties":{"Station_ID":"NH-MR-60","Station_Nam":"SOUTH SUTTON 1.3 SE, NH","Latitude":"43.29531","Longitude":"-71.90238","Snowdepth":"7.000","Units":"in","Rept_Date":"2020-01-08 13"},"coordinates":[5795,4768]},{"type":"Point","properties":{"Station_ID":"NH-CS-7","Station_Nam":"LANCASTER 0.5 N, NH","Latitude":"44.49611","Longitude":"-71.57640","Snowdepth":"7.000","Units":"in","Rept_Date":"2020-01-08 11"},"coordinates":[5869,5513]},{"type":"Point","properties":{"Station_ID":"MWTM1","Station_Nam":"MILLINOCKET WWTP","Latitude":"45.64030","Longitude":"-68.67480","Snowdepth":"7.000","Units":"in","Rept_Date":"2020-01-08 12"},"coordinates":[6533,6223]},{"type":"Point","properties":{"Station_ID":"MRLV1","Station_Nam":"MARLBORO","Latitude":"42.86000","Longitude":"-72.72000","Snowdepth":"7.000","Units":"in","Rept_Date":"2020-01-08 12"},"coordinates":[5608,4498]},{"type":"Point","properties":{"Station_ID":"MRAM5","Station_Nam":"MORA","Latitude":"45.87760","Longitude":"-93.31470","Snowdepth":"7.000","Units":"in","Rept_Date":"2020-01-08 13"},"coordinates":[897,6370]},{"type":"Point","properties":{"Station_ID":"MN-SR-29","Station_Nam":"ALBANY 3.8 S, MN","Latitude":"45.57441","Longitude":"-94.55543","Snowdepth":"7.000","Units":"in","Rept_Date":"2020-01-08 13"},"coordinates":[614,6182]},{"type":"Point","properties":{"Station_ID":"MN-SH-985","Station_Nam":"PRINCETON 3.3 WSW, MN","Latitude":"45.55211","Longitude":"-93.64481","Snowdepth":"7.000","Units":"in","Rept_Date":"2020-01-08 10"},"coordinates":[822,6168]},{"type":"Point","properties":{"Station_ID":"MIAM5","Station_Nam":"MILAN 1NW","Latitude":"45.12190","Longitude":"-95.92690","Snowdepth":"7.000","Units":"in","Rept_Date":"2020-01-09 00"},"coordinates":[300,5901]},{"type":"Point","properties":{"Station_ID":"LOWN6","Station_Nam":"LOWVILLE","Latitude":"43.79280","Longitude":"-75.48290","Snowdepth":"7.000","Units":"in","Rept_Date":"2020-01-08 12"},"coordinates":[4976,5076]},{"type":"Point","properties":{"Station_ID":"JKMM1","Station_Nam":"JACKMAN","Latitude":"45.62600","Longitude":"-70.24600","Snowdepth":"7.000","Units":"in","Rept_Date":"2020-01-08 12"},"coordinates":[6173,6214]},{"type":"Point","properties":{"Station_ID":"JEFV1","Station_Nam":"JEFFERSONVILLE","Latitude":"44.58430","Longitude":"-72.78700","Snowdepth":"7.000","Units":"in","Rept_Date":"2020-01-08 12"},"coordinates":[5592,5567]},{"type":"Point","properties":{"Station_ID":"HTLM4","Station_Nam":"SNOW PAID OBSERVER FOR KHTL","Latitude":"44.34470","Longitude":"-84.67730","Snowdepth":"7.000","Units":"in","Rept_Date":"2020-01-08 18"},"coordinates":[2873,5419]},{"type":"Point","properties":{"Station_ID":"HTL","Station_Nam":"ROSCOMMON COUNTY AIRPORT","Latitude":"44.35000","Longitude":"-84.66670","Snowdepth":"7.000","Units":"in","Rept_Date":"2020-01-09 00"},"coordinates":[2875,5422]},{"type":"Point","properties":{"Station_ID":"FORM5","Station_Nam":"FOREST LAKE 5NE","Latitude":"45.33170","Longitude":"-92.89820","Snowdepth":"7.000","Units":"in","Rept_Date":"2020-01-08 13"},"coordinates":[993,6031]},{"type":"Point","properties":{"Station_ID":"EAU","Station_Nam":"CHIPPEWA VALLEY REGIONAL AIRPORT","Latitude":"44.86650","Longitude":"-91.48790","Snowdepth":"7.000","Units":"in","Rept_Date":"2020-01-09 00"},"coordinates":[1315,5743]},{"type":"Point","properties":{"Station_ID":"CVWP1","Station_Nam":"CHANDLER VALLEY 1SE","Latitude":"41.93010","Longitude":"-79.29700","Snowdepth":"7.000","Units":"in","Rept_Date":"2020-01-08 12"},"coordinates":[4103,3921]},{"type":"Point","properties":{"Station_ID":"CBLW3","Station_Nam":"CUMBERLAND","Latitude":"45.53310","Longitude":"-92.02260","Snowdepth":"7.000","Units":"in","Rept_Date":"2020-01-08 13"},"coordinates":[1193,6156]},{"type":"Point","properties":{"Station_ID":"CAN-ON-491","Station_Nam":"MILVERTON 1.1 ESE- CANWARN, CAN","Latitude":"43.56074","Longitude":"-80.90887","Snowdepth":"7.000","Units":"in","Rept_Date":"2020-01-08 12"},"coordinates":[3735,4932]},{"type":"Point","properties":{"Station_ID":"CAN-ON-118","Station_Nam":"DURHAM 1.4 S, CAN","Latitude":"44.16525","Longitude":"-80.82064","Snowdepth":"7.000","Units":"in","Rept_Date":"2020-01-08 12"},"coordinates":[3755,5307]},{"type":"Point","properties":{"Station_ID":"CAAW2","Station_Nam":"CANAAN VALLEY","Latitude":"39.05890","Longitude":"-79.44030","Snowdepth":"7.000","Units":"in","Rept_Date":"2020-01-08 14"},"coordinates":[4071,2139]},{"type":"Point","properties":{"Station_ID":"BALW3","Station_Nam":"BALDWIN","Latitude":"44.96330","Longitude":"-92.39050","Snowdepth":"7.000","Units":"in","Rept_Date":"2020-01-08 13"},"coordinates":[1109,5803]},{"type":"Point","properties":{"Station_ID":"ASTW3","Station_Nam":"ATHELSTANE","Latitude":"45.42500","Longitude":"-88.05750","Snowdepth":"7.000","Units":"in","Rept_Date":"2020-01-08 12"},"coordinates":[2100,6089]},{"type":"Point","properties":{"Station_ID":"41.9034_079.6523","Station_Nam":"CORRY (CLE0230)","Latitude":"41.90340","Longitude":"-79.65230","Snowdepth":"7.000","Units":"in","Rept_Date":"2020-01-08 14"},"coordinates":[4022,3904]},{"type":"Point","properties":{"Station_ID":"VT-LM-1","Station_Nam":"STOWE 0.2 SW, VT","Latitude":"44.46399","Longitude":"-72.69070","Snowdepth":"6.500","Units":"in","Rept_Date":"2020-01-08 12"},"coordinates":[5614,5493]},{"type":"Point","properties":{"Station_ID":"NH-RC-18","Station_Nam":"DEERFIELD 3.2 WSW, NH","Latitude":"43.13350","Longitude":"-71.27940","Snowdepth":"6.500","Units":"in","Rept_Date":"2020-01-08 12"},"coordinates":[5937,4667]},{"type":"Point","properties":{"Station_ID":"NH-MR-4","Station_Nam":"BOW 1.6 NW, NH","Latitude":"43.14994","Longitude":"-71.55650","Snowdepth":"6.500","Units":"in","Rept_Date":"2020-01-08 12"},"coordinates":[5874,4678]},{"type":"Point","properties":{"Station_ID":"NH-BK-2","Station_Nam":"BELMONT 1.7 SW, NH","Latitude":"43.43556","Longitude":"-71.50690","Snowdepth":"6.500","Units":"in","Rept_Date":"2020-01-08 12"},"coordinates":[5885,4855]},{"type":"Point","properties":{"Station_ID":"MN-MC-16","Station_Nam":"HUTCHINSON 0.1 ENE, MN","Latitude":"44.88633","Longitude":"-94.37503","Snowdepth":"6.500","Units":"in","Rept_Date":"2020-01-08 13"},"coordinates":[655,5755]},{"type":"Point","properties":{"Station_ID":"MI-DL-4","Station_Nam":"GLADSTONE 2.1 SW, MI","Latitude":"45.83218","Longitude":"-87.05727","Snowdepth":"6.500","Units":"in","Rept_Date":"2020-01-08 12"},"coordinates":[2329,6342]},{"type":"Point","properties":{"Station_ID":"ME-LN-21","Station_Nam":"WESTPORT ISLAND 2.2 SSW, ME","Latitude":"43.88806","Longitude":"-69.70890","Snowdepth":"6.500","Units":"in","Rept_Date":"2020-01-08 13"},"coordinates":[6296,5136]},{"type":"Point","properties":{"Station_ID":"FOTN6","Station_Nam":"FOOTES - CONCORD SNOW","Latitude":"42.57950","Longitude":"-78.64480","Snowdepth":"6.500","Units":"in","Rept_Date":"2020-01-08 18"},"coordinates":[4253,4324]},{"type":"Point","properties":{"Station_ID":"ERB12","Station_Nam":"CEBF FOOTES","Latitude":"42.60000","Longitude":"-78.65000","Snowdepth":"6.500","Units":"in","Rept_Date":"2020-01-08 17"},"coordinates":[4251,4336]},{"type":"Point","properties":{"Station_ID":"CAN-QC-47","Station_Nam":"SAINTE-FOY 1.8 ENE, CAN","Latitude":"46.76934","Longitude":"-71.27124","Snowdepth":"6.300","Units":"in","Rept_Date":"2020-01-08 12"},"coordinates":[5939,6923]},{"type":"Point","properties":{"Station_ID":"CAN-NS-163","Station_Nam":"SYDNEY MINES 2.2 WNW, CAN","Latitude":"46.24851","Longitude":"-60.25161","Snowdepth":"6.300","Units":"in","Rept_Date":"2020-01-08 12"},"coordinates":[8459,6600]},{"type":"Point","properties":{"Station_ID":"CAN-NB-97","Station_Nam":"NEW MARYLAND 0.6 NW, CAN","Latitude":"45.90112","Longitude":"-66.68739","Snowdepth":"6.300","Units":"in","Rept_Date":"2020-01-08 11"},"coordinates":[6987,6384]},{"type":"Point","properties":{"Station_ID":"ERJ23","Station_Nam":"DOTU HILLSIDE","Latitude":"43.37000","Longitude":"-75.38000","Snowdepth":"6.080","Units":"in","Rept_Date":"2020-01-08 17"},"coordinates":[4999,4814]},{"type":"Point","properties":{"Station_ID":"EHLN6","Station_Nam":"HILLSIDE","Latitude":"43.36170","Longitude":"-75.39000","Snowdepth":"6.080","Units":"in","Rept_Date":"2020-01-08 17"},"coordinates":[4997,4809]},{"type":"Point","properties":{"Station_ID":"WV-PR-11","Station_Nam":"THOMAS 7.4 N, WV","Latitude":"39.25361","Longitude":"-79.51055","Snowdepth":"6.000","Units":"in","Rept_Date":"2020-01-08 12"},"coordinates":[4055,2260]},{"type":"Point","properties":{"Station_ID":"WTHM1","Station_Nam":"WINTHROP","Latitude":"44.30640","Longitude":"-69.97020","Snowdepth":"6.000","Units":"in","Rept_Date":"2020-01-08 13"},"coordinates":[6237,5395]},{"type":"Point","properties":{"Station_ID":"WI-DN-15","Station_Nam":"MENOMONIE 0.9 NW, WI","Latitude":"44.89832","Longitude":"-91.92398","Snowdepth":"6.000","Units":"in","Rept_Date":"2020-01-08 13"},"coordinates":[1216,5762]},{"type":"Point","properties":{"Station_ID":"WDSV1","Station_Nam":"WOODSTOCK","Latitude":"43.63030","Longitude":"-72.50720","Snowdepth":"6.000","Units":"in","Rept_Date":"2020-01-08 13"},"coordinates":[5656,4976]},{"type":"Point","properties":{"Station_ID":"TLLM3","Station_Nam":"TULLY LAKE","Latitude":"42.63940","Longitude":"-72.22440","Snowdepth":"6.000","Units":"in","Rept_Date":"2020-01-08 12"},"coordinates":[5721,4361]},{"type":"Point","properties":{"Station_ID":"SPCW3","Station_Nam":"SPENCER-WWTP","Latitude":"44.75390","Longitude":"-90.28920","Snowdepth":"6.000","Units":"in","Rept_Date":"2020-01-08 13"},"coordinates":[1589,5673]},{"type":"Point","properties":{"Station_ID":"SNOW2","Station_Nam":"SNOWSHOE","Latitude":"38.39900","Longitude":"-79.99490","Snowdepth":"6.000","Units":"in","Rept_Date":"2020-01-08 11"},"coordinates":[3944,1730]},{"type":"Point","properties":{"Station_ID":"SGVN6","Station_Nam":"SPRINGVILLE","Latitude":"42.54970","Longitude":"-78.57670","Snowdepth":"6.000","Units":"in","Rept_Date":"2020-01-08 22"},"coordinates":[4268,4305]},{"type":"Point","properties":{"Station_ID":"PRGN6","Station_Nam":"PERRYSBURG","Latitude":"42.46470","Longitude":"-79.00310","Snowdepth":"6.000","Units":"in","Rept_Date":"2020-01-08 12"},"coordinates":[4171,4252]},{"type":"Point","properties":{"Station_ID":"PEKN6","Station_Nam":"PECK LAKE","Latitude":"43.11500","Longitude":"-74.42360","Snowdepth":"6.000","Units":"in","Rept_Date":"2020-01-08 12"},