{"type":"Topology","objects":{"snowdepth_geo":{"type":"GeometryCollection","name":"snowdepth","crs":{"type":"name","properties":{"name":"urn:ogc:def:crs:OGC:1.3:CRS84"}},"geometries":[{"type":"Point","properties":{"Station_ID":"PRKM4","Station_Nam":"MUNISING EAST","Latitude":"46.42580","Longitude":"-86.62000","Snowdepth":"76.500","Units":"in","Rept_Date":"2019-12-10 06"},"coordinates":[2492,6022]},{"type":"Point","properties":{"Station_ID":"MMSV1","Station_Nam":"MOUNT MANSFIELD","Latitude":"44.53330","Longitude":"-72.83330","Snowdepth":"76.000","Units":"in","Rept_Date":"2019-12-10 05"},"coordinates":[5728,4602]},{"type":"Point","properties":{"Station_ID":"OGIQ6","Station_Nam":"OGOKI CAMP","Latitude":"50.76680","Longitude":"-87.85820","Snowdepth":"61.100","Units":"in","Rept_Date":"2019-12-10 06"},"coordinates":[2202,9279]},{"type":"Point","properties":{"Station_ID":"AUDQ6","Station_Nam":"AUDEN","Latitude":"48.52600","Longitude":"-82.57570","Snowdepth":"47.640","Units":"in","Rept_Date":"2019-12-10 06"},"coordinates":[3441,7598]},{"type":"Point","properties":{"Station_ID":"DVLQ6","Station_Nam":"DEVIOUS LAKE","Latitude":"49.19890","Longitude":"-87.76440","Snowdepth":"43.460","Units":"in","Rept_Date":"2019-12-10 06"},"coordinates":[2224,8102]},{"type":"Point","properties":{"Station_ID":"UPSW3","Station_Nam":"UPSON,WI","Latitude":"46.36780","Longitude":"-90.41220","Snowdepth":"31.000","Units":"in","Rept_Date":"2019-12-10 00"},"coordinates":[1602,5978]},{"type":"Point","properties":{"Station_ID":"SWTW3","Station_Nam":"SUPERIOR WWTP","Latitude":"46.72700","Longitude":"-92.07200","Snowdepth":"30.000","Units":"in","Rept_Date":"2019-12-10 06"},"coordinates":[1213,6248]},{"type":"Point","properties":{"Station_ID":"HURW3","Station_Nam":"HURLEY","Latitude":"46.46250","Longitude":"-90.19550","Snowdepth":"30.000","Units":"in","Rept_Date":"2019-12-09 14"},"coordinates":[1653,6049]},{"type":"Point","properties":{"Station_ID":"HTLN3","Station_Nam":"HERMIT LAKE SNOWPLOT","Latitude":"44.26130","Longitude":"-71.28330","Snowdepth":"28.000","Units":"in","Rept_Date":"2019-12-09 10"},"coordinates":[6092,4398]},{"type":"Point","properties":{"Station_ID":"MQT","Station_Nam":"MARQUETTE, MI","Latitude":"46.53140","Longitude":"-87.54920","Snowdepth":"26.000","Units":"in","Rept_Date":"2019-12-10 06"},"coordinates":[2274,6101]},{"type":"Point","properties":{"Station_ID":"WRSM5","Station_Nam":"WRENSHALL","Latitude":"46.61550","Longitude":"-92.38380","Snowdepth":"25.000","Units":"in","Rept_Date":"2019-12-09 14"},"coordinates":[1139,6164]},{"type":"Point","properties":{"Station_ID":"QOU","Station_Nam":"QOU","Latitude":"50.79250","Longitude":"-69.67470","Snowdepth":"24.173","Units":"in","Rept_Date":"2019-12-09 12"},"coordinates":[6469,9298]},{"type":"Point","properties":{"Station_ID":"WLFM5","Station_Nam":"WOLF RIDGE ENVIRON LEARNING CENTER","Latitude":"47.38240","Longitude":"-91.19730","Snowdepth":"24.000","Units":"in","Rept_Date":"2019-12-09 13"},"coordinates":[1418,6740]},{"type":"Point","properties":{"Station_ID":"PDLM4","Station_Nam":"PAINESDALE","Latitude":"47.04160","Longitude":"-88.67170","Snowdepth":"24.000","Units":"in","Rept_Date":"2019-12-09 13"},"coordinates":[2011,6484]},{"type":"Point","properties":{"Station_ID":"WI-IR-3","Station_Nam":"PENCE 0.1 E, WI","Latitude":"46.41555","Longitude":"-90.27013","Snowdepth":"23.000","Units":"in","Rept_Date":"2019-12-09 13"},"coordinates":[1635,6014]},{"type":"Point","properties":{"Station_ID":"MMNV1","Station_Nam":"MT. MANSFIELD","Latitude":"44.52480","Longitude":"-72.81540","Snowdepth":"23.000","Units":"in","Rept_Date":"2019-12-09 21"},"coordinates":[5732,4596]},{"type":"Point","properties":{"Station_ID":"ILIM5","Station_Nam":"ISLAND LAKE","Latitude":"47.02400","Longitude":"-92.07000","Snowdepth":"23.000","Units":"in","Rept_Date":"2019-12-09 15"},"coordinates":[1213,6471]},{"type":"Point","properties":{"Station_ID":"IBLM5","Station_Nam":"ISABELLA 14W","Latitude":"47.59360","Longitude":"-91.65140","Snowdepth":"23.000","Units":"in","Rept_Date":"2019-12-09 15"},"coordinates":[1311,6898]},{"type":"Point","properties":{"Station_ID":"CLQM5","Station_Nam":"CLOQUET","Latitude":"46.70470","Longitude":"-92.52530","Snowdepth":"23.000","Units":"in","Rept_Date":"2019-12-09 14"},"coordinates":[1106,6231]},{"type":"Point","properties":{"Station_ID":"ABNM3","Station_Nam":"ASHBURNHAM NORTH","Latitude":"42.66170","Longitude":"-71.93590","Snowdepth":"23.000","Units":"in","Rept_Date":"2019-12-09 12"},"coordinates":[5938,3198]},{"type":"Point","properties":{"Station_ID":"NY-SC-2","Station_Nam":"SCOTIA 1.1 NW, NY","Latitude":"42.84473","Longitude":"-73.97480","Snowdepth":"22.500","Units":"in","Rept_Date":"2019-12-09 11"},"coordinates":[5460,3335]},{"type":"Point","properties":{"Station_ID":"BRSW3","Station_Nam":"BRULE,WI","Latitude":"46.53780","Longitude":"-91.59190","Snowdepth":"22.000","Units":"in","Rept_Date":"2019-12-09 16"},"coordinates":[1325,6106]},{"type":"Point","properties":{"Station_ID":"BERM4","Station_Nam":"BERGLAND DAM","Latitude":"46.58690","Longitude":"-89.54750","Snowdepth":"22.000","Units":"in","Rept_Date":"2019-12-09 13"},"coordinates":[1805,6143]},{"type":"Point","properties":{"Station_ID":"MAIW3","Station_Nam":"MADELINE ISLAND","Latitude":"46.78330","Longitude":"-90.76670","Snowdepth":"21.000","Units":"in","Rept_Date":"2019-12-09 13"},"coordinates":[1519,6290]},{"type":"Point","properties":{"Station_ID":"DLHM5","Station_Nam":"DULUTH NWS","Latitude":"46.83680","Longitude":"-92.21080","Snowdepth":"21.000","Units":"in","Rept_Date":"2019-12-10 06"},"coordinates":[1180,6330]},{"type":"Point","properties":{"Station_ID":"DLH","Station_Nam":"DULUTH, MN","Latitude":"46.83690","Longitude":"-92.21030","Snowdepth":"21.000","Units":"in","Rept_Date":"2019-12-10 00"},"coordinates":[1180,6330]},{"type":"Point","properties":{"Station_ID":"WI-DG-16","Station_Nam":"POPLAR 2.0 E, WI","Latitude":"46.58390","Longitude":"-91.74620","Snowdepth":"19.500","Units":"in","Rept_Date":"2019-12-09 13"},"coordinates":[1289,6141]},{"type":"Point","properties":{"Station_ID":"QGD","Station_Nam":"QGD","Latitude":"51.11140","Longitude":"-67.13940","Snowdepth":"19.134","Units":"in","Rept_Date":"2019-12-09 12"},"coordinates":[7064,9537]},{"type":"Point","properties":{"Station_ID":"WI-DG-20","Station_Nam":"SOLON SPRINGS 1.2 W, WI","Latitude":"46.35217","Longitude":"-91.84405","Snowdepth":"19.000","Units":"in","Rept_Date":"2019-12-09 13"},"coordinates":[1266,5967]},{"type":"Point","properties":{"Station_ID":"MN-SL-15","Station_Nam":"CHISHOLM 0.4 WSW, MN","Latitude":"47.48557","Longitude":"-92.88690","Snowdepth":"19.000","Units":"in","Rept_Date":"2019-12-09 13"},"coordinates":[1021,6817]},{"type":"Point","properties":{"Station_ID":"MN-SL-105","Station_Nam":"DULUTH 11.8 NNE, MN","Latitude":"46.94680","Longitude":"-92.03925","Snowdepth":"19.000","Units":"in","Rept_Date":"2019-12-09 13"},"coordinates":[1220,6413]},{"type":"Point","properties":{"Station_ID":"MI-HG-18","Station_Nam":"CALUMET 0.7 W (TAMARACK), MI","Latitude":"47.24560","Longitude":"-88.46791","Snowdepth":"19.000","Units":"in","Rept_Date":"2019-12-09 13"},"coordinates":[2058,6637]},{"type":"Point","properties":{"Station_ID":"MI-BG-3","Station_Nam":"L'ANSE 17.8 SE, MI","Latitude":"46.55730","Longitude":"-88.20770","Snowdepth":"19.000","Units":"in","Rept_Date":"2019-12-09 13"},"coordinates":[2119,6121]},{"type":"Point","properties":{"Station_ID":"BFHW3","Station_Nam":"BAYFIELD FISH HATCHERY","Latitude":"46.78670","Longitude":"-90.86420","Snowdepth":"19.000","Units":"in","Rept_Date":"2019-12-09 14"},"coordinates":[1496,6293]},{"type":"Point","properties":{"Station_ID":"WI-FL-3","Station_Nam":"FLORENCE 0.7 ESE, WI","Latitude":"45.91760","Longitude":"-88.23900","Snowdepth":"18.500","Units":"in","Rept_Date":"2019-12-09 11"},"coordinates":[2112,5641]},{"type":"Point","properties":{"Station_ID":"WI-BY-14","Station_Nam":"ASHLAND 9.8 W, WI","Latitude":"46.59742","Longitude":"-91.07856","Snowdepth":"18.500","Units":"in","Rept_Date":"2019-12-09 12"},"coordinates":[1446,6151]},{"type":"Point","properties":{"Station_ID":"QGO","Station_Nam":"QGO","Latitude":"48.85500","Longitude":"-74.20640","Snowdepth":"18.189","Units":"in","Rept_Date":"2019-12-09 12"},"coordinates":[5405,7844]},{"type":"Point","properties":{"Station_ID":"NH-CS-10","Station_Nam":"RANDOLPH 1.4 NE, NH","Latitude":"44.38824","Longitude":"-71.26950","Snowdepth":"18.000","Units":"in","Rept_Date":"2019-12-09 12"},"coordinates":[6095,4493]},{"type":"Point","properties":{"Station_ID":"LVDW3","Station_Nam":"LAC VIEUX DESERT","Latitude":"46.12110","Longitude":"-89.07580","Snowdepth":"18.000","Units":"in","Rept_Date":"2019-12-09 15"},"coordinates":[1916,5793]},{"type":"Point","properties":{"Station_ID":"JWTN6","Station_Nam":"EAST JEWETT","Latitude":"42.23430","Longitude":"-74.14430","Snowdepth":"18.000","Units":"in","Rept_Date":"2019-12-09 12"},"coordinates":[5420,2877]},{"type":"Point","properties":{"Station_ID":"ISPM4","Station_Nam":"WWTP","Latitude":"46.50000","Longitude":"-87.68330","Snowdepth":"18.000","Units":"in","Rept_Date":"2019-12-09 13"},"coordinates":[2243,6078]},{"type":"Point","properties":{"Station_ID":"COUW3","Station_Nam":"COUDERAY,WI","Latitude":"45.86670","Longitude":"-91.45000","Snowdepth":"18.000","Units":"in","Rept_Date":"2019-12-09 22"},"coordinates":[1359,5603]},{"type":"Point","properties":{"Station_ID":"BABM5","Station_Nam":"BABBITT","Latitude":"47.71210","Longitude":"-91.95330","Snowdepth":"18.000","Units":"in","Rept_Date":"2019-12-09 13"},"coordinates":[1240,6987]},{"type":"Point","properties":{"Station_ID":"ASXW3","Station_Nam":"ASHLAND,WI","Latitude":"46.55220","Longitude":"-90.91610","Snowdepth":"18.000","Units":"in","Rept_Date":"2019-12-09 14"},"coordinates":[1484,6117]},{"type":"Point","properties":{"Station_ID":"WI-WB-2","Station_Nam":"STONE LAKE 2.0 NW, WI","Latitude":"45.85960","Longitude":"-91.57710","Snowdepth":"17.000","Units":"in","Rept_Date":"2019-12-09 13"},"coordinates":[1329,5597]},{"type":"Point","properties":{"Station_ID":"WI-BY-1","Station_Nam":"BAYFIELD 8.8 N, WI","Latitude":"46.93855","Longitude":"-90.83490","Snowdepth":"17.000","Units":"in","Rept_Date":"2019-12-09 13"},"coordinates":[1503,6407]},{"type":"Point","properties":{"Station_ID":"WI-AS-4","Station_Nam":"ASHLAND 0.5 WNW, WI","Latitude":"46.58240","Longitude":"-90.88390","Snowdepth":"17.000","Units":"in","Rept_Date":"2019-12-09 13"},"coordinates":[1491,6139]},{"type":"Point","properties":{"Station_ID":"PHEW3","Station_Nam":"PHELPS","Latitude":"46.06630","Longitude":"-89.07520","Snowdepth":"17.000","Units":"in","Rept_Date":"2019-12-09 13"},"coordinates":[1916,5752]},{"type":"Point","properties":{"Station_ID":"ME-AR-18","Station_Nam":"NEW SWEDEN 4.9 NNW, ME","Latitude":"47.01080","Longitude":"-68.14390","Snowdepth":"17.000","Units":"in","Rept_Date":"2019-12-09 12"},"coordinates":[6828,6461]},{"type":"Point","properties":{"Station_ID":"GREN3","Station_Nam":"GREENVILLE 1 NNE","Latitude":"42.78270","Longitude":"-71.79850","Snowdepth":"17.000","Units":"in","Rept_Date":"2019-12-09 12"},"coordinates":[5971,3289]},{"type":"Point","properties":{"Station_ID":"GLDM4","Station_Nam":"GLADSTONE NO. 2","Latitude":"45.84330","Longitude":"-87.03910","Snowdepth":"17.000","Units":"in","Rept_Date":"2019-12-09 12"},"coordinates":[2394,5585]},{"type":"Point","properties":{"Station_ID":"BRUM5","Station_Nam":"BRUNO,MN","Latitude":"46.28330","Longitude":"-92.50000","Snowdepth":"17.000","Units":"in","Rept_Date":"2019-12-09 14"},"coordinates":[1112,5915]},{"type":"Point","properties":{"Station_ID":"BBEM4","Station_Nam":"BIG BAY 9SW","Latitude":"46.74620","Longitude":"-87.88160","Snowdepth":"17.000","Units":"in","Rept_Date":"2019-12-09 13"},"coordinates":[2196,6262]},{"type":"Point","properties":{"Station_ID":"AWXW3","Station_Nam":"ASHLAND","Latitude":"46.58240","Longitude":"-90.88390","Snowdepth":"17.000","Units":"in","Rept_Date":"2019-12-09 13"},"coordinates":[1491,6139]},{"type":"Point","properties":{"Station_ID":"MLZ","Station_Nam":"MLZ","Latitude":"50.66170","Longitude":"-68.82360","Snowdepth":"16.693","Units":"in","Rept_Date":"2019-12-09 12"},"coordinates":[6669,9200]},{"type":"Point","properties":{"Station_ID":"ME-AR-23","Station_Nam":"MADAWASKA 2.5 E, ME","Latitude":"47.34933","Longitude":"-68.28141","Snowdepth":"16.500","Units":"in","Rept_Date":"2019-12-09 12"},"coordinates":[6796,6715]},{"type":"Point","properties":{"Station_ID":"WRPW3","Station_Nam":"WATER PURIFICATION PLANT","Latitude":"44.38800","Longitude":"-89.80550","Snowdepth":"16.000","Units":"in","Rept_Date":"2019-12-09 12"},"coordinates":[1744,4493]},{"type":"Point","properties":{"Station_ID":"QNCM4","Station_Nam":"QUINCY HILL","Latitude":"47.13640","Longitude":"-88.57950","Snowdepth":"16.000","Units":"in","Rept_Date":"2019-12-09 12"},"coordinates":[2032,6555]},{"type":"Point","properties":{"Station_ID":"PDGM4","Station_Nam":"PAULDING","Latitude":"46.39760","Longitude":"-89.17940","Snowdepth":"16.000","Units":"in","Rept_Date":"2019-12-09 13"},"coordinates":[1891,6001]},{"type":"Point","properties":{"Station_ID":"NH-HL-48","Station_Nam":"GREENVILLE 1.1 ENE, NH","Latitude":"42.77674","Longitude":"-71.77990","Snowdepth":"16.000","Units":"in","Rept_Date":"2019-12-09 13"},"coordinates":[5975,3284]},{"type":"Point","properties":{"Station_ID":"MI-MQ-19","Station_Nam":"ISHPEMING 7.2 SW, MI","Latitude":"46.40550","Longitude":"-87.75670","Snowdepth":"16.000","Units":"in","Rept_Date":"2019-12-09 11"},"coordinates":[2225,6007]},{"type":"Point","properties":{"Station_ID":"ESAM4","Station_Nam":"ESCANABA","Latitude":"45.74380","Longitude":"-87.04060","Snowdepth":"16.000","Units":"in","Rept_Date":"2019-12-09 12"},"coordinates":[2393,5510]},{"type":"Point","properties":{"Station_ID":"DLSN6","Station_Nam":"DELANSON 2NE","Latitude":"42.76720","Longitude":"-74.17110","Snowdepth":"16.000","Units":"in","Rept_Date":"2019-12-09 12"},"coordinates":[5414,3277]},{"type":"Point","properties":{"Station_ID":"CLGM5","Station_Nam":"COLLEGEVILLE ST JOHN","Latitude":"45.57940","Longitude":"-94.39200","Snowdepth":"16.000","Units":"in","Rept_Date":"2019-12-10 00"},"coordinates":[668,5387]},{"type":"Point","properties":{"Station_ID":"NY-SR-39","Station_Nam":"ROUND LAKE 2.2 NNE, NY","Latitude":"42.96653","Longitude":"-73.77770","Snowdepth":"15.500","Units":"in","Rept_Date":"2019-12-09 12"},"coordinates":[5506,3427]},{"type":"Point","properties":{"Station_ID":"MA-WR-54","Station_Nam":"BARRE 1.4 NNE, MA","Latitude":"42.44082","Longitude":"-72.09591","Snowdepth":"15.500","Units":"in","Rept_Date":"2019-12-09 12"},"coordinates":[5901,3032]},{"type":"Point","properties":{"Station_ID":"MA-MD-47","Station_Nam":"WEST TOWNSEND 0.5 W, MA","Latitude":"42.67623","Longitude":"-71.74983","Snowdepth":"15.500","Units":"in","Rept_Date":"2019-12-09 11"},"coordinates":[5982,3209]},{"type":"Point","properties":{"Station_ID":"WI-BY-2","Station_Nam":"MELLEN 18.6 SW, WI","Latitude":"46.16937","Longitude":"-90.98090","Snowdepth":"15.000","Units":"in","Rept_Date":"2019-12-09 13"},"coordinates":[1469,5830]},{"type":"Point","properties":{"Station_ID":"SUAW3","Station_Nam":"SUAMICO","Latitude":"44.60190","Longitude":"-88.09780","Snowdepth":"15.000","Units":"in","Rept_Date":"2019-12-09 12"},"coordinates":[2145,4654]},{"type":"Point","properties":{"Station_ID":"MN-AT-5","Station_Nam":"TAMARACK 1.4 SW, MN","Latitude":"46.63760","Longitude":"-93.14554","Snowdepth":"15.000","Units":"in","Rept_Date":"2019-12-09 13"},"coordinates":[961,6181]},{"type":"Point","properties":{"Station_ID":"MI-HG-17","Station_Nam":"CALUMET 0.5 NE (CALUMET LAKE), MI","Latitude":"47.25300","Longitude":"-88.44652","Snowdepth":"15.000","Units":"in","Rept_Date":"2019-12-09 13"},"coordinates":[2063,6643]},{"type":"Point","properties":{"Station_ID":"MI-HG-11","Station_Nam":"HOUGHTON 3.0 SSW, MI","Latitude":"47.07704","Longitude":"-88.59680","Snowdepth":"15.000","Units":"in","Rept_Date":"2019-12-09 13"},"coordinates":[2028,6511]},{"type":"Point","properties":{"Station_ID":"ME-PN-45","Station_Nam":"MILLINOCKET 2.7 ESE, ME","Latitude":"45.65002","Longitude":"-68.64472","Snowdepth":"15.000","Units":"in","Rept_Date":"2019-12-09 13"},"coordinates":[6711,5440]},{"type":"Point","properties":{"Station_ID":"FLNW3","Station_Nam":"FLORENCE","Latitude":"45.93360","Longitude":"-88.25830","Snowdepth":"15.000","Units":"in","Rept_Date":"2019-12-09 13"},"coordinates":[2108,5653]},{"type":"Point","properties":{"Station_ID":"ESGM1","Station_Nam":"EAST SANGERVILLE","Latitude":"45.13690","Longitude":"-69.28060","Snowdepth":"15.000","Units":"in","Rept_Date":"2019-12-09 12"},"coordinates":[6562,5055]},{"type":"Point","properties":{"Station_ID":"EMBM5","Station_Nam":"EMBARASS,MN","Latitude":"47.65810","Longitude":"-92.19580","Snowdepth":"15.000","Units":"in","Rept_Date":"2019-12-09 12"},"coordinates":[1184,6946]},{"type":"Point","properties":{"Station_ID":"CRVW3","Station_Nam":"CRIVITZ HIGH FALLS","Latitude":"45.35750","Longitude":"-88.19190","Snowdepth":"15.000","Units":"in","Rept_Date":"2019-12-09 13"},"coordinates":[2123,5220]},{"type":"Point","properties":{"Station_ID":"CMKW3","Station_Nam":"CLAM LAKE 4W","Latitude":"46.16940","Longitude":"-90.98080","Snowdepth":"15.000","Units":"in","Rept_Date":"2019-12-09 13"},"coordinates":[1469,5830]},{"type":"Point","properties":{"Station_ID":"BNDM5","Station_Nam":"ELY 25E","Latitude":"47.97190","Longitude":"-91.44860","Snowdepth":"15.000","Units":"in","Rept_Date":"2019-12-09 13"},"coordinates":[1359,7182]},{"type":"Point","properties":{"Station_ID":"BARM3","Station_Nam":"BARRE FALLS DAM","Latitude":"42.42800","Longitude":"-72.02750","Snowdepth":"15.000","Units":"in","Rept_Date":"2019-12-09 12"},"coordinates":[5917,3023]},{"type":"Point","properties":{"Station_ID":"ASBM3","Station_Nam":"ASHBURNHAM","Latitude":"42.61780","Longitude":"-71.91590","Snowdepth":"15.000","Units":"in","Rept_Date":"2019-12-09 12"},"coordinates":[5943,3165]},{"type":"Point","properties":{"Station_ID":"QLB","Station_Nam":"QLB","Latitude":"50.72360","Longitude":"-75.10000","Snowdepth":"14.803","Units":"in","Rept_Date":"2019-12-09 12"},"coordinates":[5196,9246]},{"type":"Point","properties":{"Station_ID":"CAN-NB-105","Station_Nam":"SISSON BROOK 3.8 E, CAN","Latitude":"46.98305","Longitude":"-67.32532","Snowdepth":"14.800","Units":"in","Rept_Date":"2019-12-09 12"},"coordinates":[7020,6440]},{"type":"Point","properties":{"Station_ID":"WI-BY-6","Station_Nam":"BARNES 2.2 S, WI","Latitude":"46.30264","Longitude":"-91.50320","Snowdepth":"14.500","Units":"in","Rept_Date":"2019-12-09 13"},"coordinates":[1346,5930]},{"type":"Point","properties":{"Station_ID":"MN-SL-143","Station_Nam":"CANYON 4.6 NNE, MN","Latitude":"47.09800","Longitude":"-92.42170","Snowdepth":"14.500","Units":"in","Rept_Date":"2019-12-09 13"},"coordinates":[1130,6526]},{"type":"Point","properties":{"Station_ID":"MN-IT-23","Station_Nam":"BOVEY 13.4 N, MN","Latitude":"47.48855","Longitude":"-93.43497","Snowdepth":"14.500","Units":"in","Rept_Date":"2019-12-09 13"},"coordinates":[893,6819]},{"type":"Point","properties":{"Station_ID":"MA-HS-7","Station_Nam":"PLAINFIELD 2.2 SW, MA","Latitude":"42.49272","Longitude":"-72.94540","Snowdepth":"14.500","Units":"in","Rept_Date":"2019-12-09 13"},"coordinates":[5701,3071]},{"type":"Point","properties":{"Station_ID":"QFT","Station_Nam":"QFT","Latitude":"50.83280","Longitude":"-74.40390","Snowdepth":"14.488","Units":"in","Rept_Date":"2019-12-09 12"},"coordinates":[5359,9328]},{"type":"Point","properties":{"Station_ID":"MN-CW-16","Station_Nam":"TROMMALD 6.1 NW, MN","Latitude":"46.55849","Longitude":"-94.11723","Snowdepth":"14.300","Units":"in","Rept_Date":"2019-12-09 16"},"coordinates":[733,6122]},{"type":"Point","properties":{"Station_ID":"MA-BE-20","Station_Nam":"LEE 3.7 SE, MA","Latitude":"42.27242","Longitude":"-73.19763","Snowdepth":"14.200","Units":"in","Rept_Date":"2019-12-09 13"},"coordinates":[5642,2906]},{"type":"Point","properties":{"Station_ID":"WI-VL-9","Station_Nam":"LAND O' LAKES 11.7 W, WI","Latitude":"46.19023","Longitude":"-89.45790","Snowdepth":"14.000","Units":"in","Rept_Date":"2019-12-09 13"},"coordinates":[1826,5845]},{"type":"Point","properties":{"Station_ID":"WI-VL-10","Station_Nam":"LAND O LAKES 4.3 WNW, WI","Latitude":"46.17440","Longitude":"-89.30380","Snowdepth":"14.000","Units":"in","Rept_Date":"2019-12-09 13"},"coordinates":[1862,5833]},{"type":"Point","properties":{"Station_ID":"VT-WH-16","Station_Nam":"WILMINGTON 0.6 WNW, VT","Latitude":"42.87064","Longitude":"-72.88180","Snowdepth":"14.000","Units":"in","Rept_Date":"2019-12-09 11"},"coordinates":[5716,3355]},{"type":"Point","properties":{"Station_ID":"SDYM5","Station_Nam":"DAM","Latitude":"46.81670","Longitude":"-93.36670","Snowdepth":"14.000","Units":"in","Rept_Date":"2019-12-09 14"},"coordinates":[909,6315]},{"type":"Point","properties":{"Station_ID":"SDLM3","Station_Nam":"SUNDERLAND","Latitude":"42.44480","Longitude":"-72.55290","Snowdepth":"14.000","Units":"in","Rept_Date":"2019-12-09 12"},"coordinates":[5794,3035]},{"type":"Point","properties":{"Station_ID":"RPDM4","Station_Nam":"RAPID RIVER 4SSE","Latitude":"45.87270","Longitude":"-86.94960","Snowdepth":"14.000","Units":"in","Rept_Date":"2019-12-09 14"},"coordinates":[2415,5607]},{"type":"Point","properties":{"Station_ID":"ROWM3","Station_Nam":"ROWE 3NE","Latitude":"42.73500","Longitude":"-72.86920","Snowdepth":"14.000","Units":"in","Rept_Date":"2019-12-09 12"},"coordinates":[5719,3253]},{"type":"Point","properties":{"Station_ID":"RGNM1","Station_Nam":"RANGELEY 2NW","Latitude":"44.98940","Longitude":"-70.67220","Snowdepth":"14.000","Units":"in","Rept_Date":"2019-12-09 11"},"coordinates":[6235,4944]},{"type":"Point","properties":{"Station_ID":"PRNW3","Station_Nam":"PRENTICE,WI","Latitude":"45.54780","Longitude":"-90.30000","Snowdepth":"14.000","Units":"in","Rept_Date":"2019-12-09 14"},"coordinates":[1628,5363]},{"type":"Point","properties":{"Station_ID":"PHON6","Station_Nam":"PHOENICIA 2SW","Latitude":"42.06420","Longitude":"-74.34080","Snowdepth":"14.000","Units":"in","Rept_Date":"2019-12-09 11"},"coordinates":[5374,2750]},{"type":"Point","properties":{"Station_ID":"NY-SC-16","Station_Nam":"NISKAYUNA 2.0 N, NY","Latitude":"42.84645","Longitude":"-73.89920","Snowdepth":"14.000","Units":"in","Rept_Date":"2019-12-09 12"},"coordinates":[5478,3337]},{"type":"Point","properties":{"Station_ID":"NY-AB-54","Station_Nam":"ALTAMONT 2.9 SW, NY","Latitude":"42.68182","Longitude":"-74.08326","Snowdepth":"14.000","Units":"in","Rept_Date":"2019-12-09 12"},"coordinates":[5434,3213]},{"type":"Point","properties":{"Station_ID":"MNSM4","Station_Nam":"MUNISING","Latitude":"46.41210","Longitude":"-86.66250","Snowdepth":"14.000","Units":"in","Rept_Date":"2019-12-09 11"},"coordinates":[2482,6012]},{"type":"Point","properties":{"Station_ID":"MN4R4TSR","Station_Nam":"KNIFE RIVER 0.8 NNW","Latitude":"46.96007","Longitude":"-91.78365","Snowdepth":"14.000","Units":"in","Rept_Date":"2019-12-09 12"},"coordinates":[1280,6423]},{"type":"Point","properties":{"Station_ID":"MN-IT-11","Station_Nam":"NASHWAUK 11.5 N, MN","Latitude":"47.54496","Longitude":"-93.19420","Snowdepth":"14.000","Units":"in","Rept_Date":"2019-12-09 10"},"coordinates":[949,6862]},{"type":"Point","properties":{"Station_ID":"MI-GG-4","Station_Nam":"WATERSMEET 5.0 SE, MI","Latitude":"46.20333","Longitude":"-89.13170","Snowdepth":"14.000","Units":"in","Rept_Date":"2019-12-09 14"},"coordinates":[1903,5855]},{"type":"Point","properties":{"Station_ID":"ME-AR-15","Station_Nam":"PRESQUE ISLE 1.3 WSW, ME","Latitude":"46.67960","Longitude":"-68.01270","Snowdepth":"14.000","Units":"in","Rept_Date":"2019-12-09 12"},"coordinates":[6859,6212]},{"type":"Point","properties":{"Station_ID":"LNOW3","Station_Nam":"LAND O LAKES","Latitude":"46.19000","Longitude":"-89.45700","Snowdepth":"14.000","Units":"in","Rept_Date":"2019-12-09 13"},"coordinates":[1826,5845]},{"type":"Point","properties":{"Station_ID":"IRMM4","Station_Nam":"WWTP","Latitude":"46.46670","Longitude":"-90.18330","Snowdepth":"14.000","Units":"in","Rept_Date":"2019-12-09 13"},"coordinates":[1656,6053]},{"type":"Point","properties":{"Station_ID":"HYRW3","Station_Nam":"RANGER STATION","Latitude":"46.00750","Longitude":"-91.46670","Snowdepth":"14.000","Units":"in","Rept_Date":"2019-12-09 19"},"coordinates":[1355,5708]},{"type":"Point","properties":{"Station_ID":"GHMN3","Station_Nam":"PINKHAM NOTCH","Latitude":"44.25800","Longitude":"-71.25250","Snowdepth":"14.000","Units":"in","Rept_Date":"2019-12-09 11"},"coordinates":[6099,4396]},{"type":"Point","properties":{"Station_ID":"GGRM4","Station_Nam":"GREEN GARDEN NO.2","Latitude":"46.45330","Longitude":"-87.30380","Snowdepth":"14.000","Units":"in","Rept_Date":"2019-12-09 12"},"coordinates":[2332,6043]},{"type":"Point","properties":{"Station_ID":"ELYM5","Station_Nam":"ELY","Latitude":"47.90560","Longitude":"-91.82830","Snowdepth":"14.000","Units":"in","Rept_Date":"2019-12-09 17"},"coordinates":[1270,7132]},{"type":"Point","properties":{"Station_ID":"CEFM4","Station_Nam":"EXPERIMENT FARM #2","Latitude":"46.33330","Longitude":"-86.91670","Snowdepth":"14.000","Units":"in","Rept_Date":"2019-12-09 13"},"coordinates":[2422,5953]},{"type":"Point","properties":{"Station_ID":"CARM1","Station_Nam":"CARIBOU WFO","Latitude":"46.86810","Longitude":"-68.01250","Snowdepth":"14.000","Units":"in","Rept_Date":"2019-12-10 05"},"coordinates":[6859,6354]},{"type":"Point","properties":{"Station_ID":"CAR","Station_Nam":"CARIBOU, ME","Latitude":"46.86830","Longitude":"-68.01360","Snowdepth":"14.000","Units":"in","Rept_Date":"2019-12-09 12"},"coordinates":[6859,6354]},{"type":"Point","properties":{"Station_ID":"CAN-NB-2","Station_Nam":"GRAFTON 2.7 NNE, CA","Latitude":"46.17062","Longitude":"-67.55330","Snowdepth":"14.000","Units":"in","Rept_Date":"2019-12-09 11"},"coordinates":[6967,5831]},{"type":"Point","properties":{"Station_ID":"BRDM1","Station_Nam":"BRIDGEWATER","Latitude":"46.42870","Longitude":"-67.84370","Snowdepth":"14.000","Units":"in","Rept_Date":"2019-12-09 23"},"coordinates":[6899,6024]},{"type":"Point","properties":{"Station_ID":"BRAM5","Station_Nam":"BRAINERD","Latitude":"46.34320","Longitude":"-94.20900","Snowdepth":"14.000","Units":"in","Rept_Date":"2019-12-09 13"},"coordinates":[711,5960]},{"type":"Point","properties":{"Station_ID":"AURW3","Station_Nam":"AURORA","Latitude":"45.77000","Longitude":"-88.11810","Snowdepth":"14.000","Units":"in","Rept_Date":"2019-12-09 13"},"coordinates":[2141,5530]},{"type":"Point","properties":{"Station_ID":"ASTW3","Station_Nam":"ATHELSTANE","Latitude":"45.42500","Longitude":"-88.05750","Snowdepth":"14.000","Units":"in","Rept_Date":"2019-12-09 12"},"coordinates":[2155,5271]},{"type":"Point","properties":{"Station_ID":"ACVN6","Station_Nam":"ALCOVE DAM","Latitude":"42.46970","Longitude":"-73.92670","Snowdepth":"14.000","Units":"in","Rept_Date":"2019-12-09 12"},"coordinates":[5471,3054]},{"type":"Point","properties":{"Station_ID":"PTLQ6","Station_Nam":"PORTAGE LAKE","Latitude":"49.06950","Longitude":"-86.65940","Snowdepth":"13.940","Units":"in","Rept_Date":"2019-12-10 06"},"coordinates":[2483,8005]},{"type":"Point","properties":{"Station_ID":"QCU","Station_Nam":"QCU","Latitude":"47.82750","Longitude":"-76.59830","Snowdepth":"13.779","Units":"in","Rept_Date":"2019-12-09 12"},"coordinates":[4844,7074]},{"type":"Point","properties":{"Station_ID":"MFU","Station_Nam":"MFU","Latitude":"51.52170","Longitude":"-66.91110","Snowdepth":"13.701","Units":"in","Rept_Date":"2019-12-09 12"},"coordinates":[7118,9845]},{"type":"Point","properties":{"Station_ID":"NY-SR-35","Station_Nam":"ROUND LAKE 4.1 NE, NY","Latitude":"42.97760","Longitude":"-73.73750","Snowdepth":"13.500","Units":"in","Rept_Date":"2019-12-09 12"},"coordinates":[5516,3435]},{"type":"Point","properties":{"Station_ID":"NY-SR-29","Station_Nam":"CLIFTON PARK 2.7 S, NY","Latitude":"42.82126","Longitude":"-73.78545","Snowdepth":"13.500","Units":"in","Rept_Date":"2019-12-09 11"},"coordinates":[5504,3318]},{"type":"Point","properties":{"Station_ID":"NY-AB-10","Station_Nam":"RENSSELAERVILLE 2.1 NNW, NY","Latitude":"42.54548","Longitude":"-74.14750","Snowdepth":"13.500","Units":"in","Rept_Date":"2019-12-09 12"},"coordinates":[5419,3111]},{"type":"Point","properties":{"Station_ID":"MA-WR-44","Station_Nam":"WESTMINSTER 0.6 WSW, MA","Latitude":"42.54505","Longitude":"-71.91032","Snowdepth":"13.500","Units":"in","Rept_Date":"2019-12-09 12"},"coordinates":[5944,3110]},{"type":"Point","properties":{"Station_ID":"MA-HS-14","Station_Nam":"PLAINFIELD 2.4 ESE, MA","Latitude":"42.49792","Longitude":"-72.87769","Snowdepth":"13.500","Units":"in","Rept_Date":"2019-12-09 12"},"coordinates":[5717,3075]},{"type":"Point","properties":{"Station_ID":"WORM3","Station_Nam":"WORTHINGTON","Latitude":"42.38690","Longitude":"-72.92100","Snowdepth":"13.000","Units":"in","Rept_Date":"2019-12-09 12"},"coordinates":[5707,2992]},{"type":"Point","properties":{"Station_ID":"WI-PR-2","Station_Nam":"BUTTERNUT 5.9 SW, WI","Latitude":"45.96501","Longitude":"-90.59750","Snowdepth":"13.000","Units":"in","Rept_Date":"2019-12-09 12"},"coordinates":[1559,5676]},{"type":"Point","properties":{"Station_ID":"VANM1","Station_Nam":"VAN BUREN","Latitude":"47.16600","Longitude":"-67.93900","Snowdepth":"13.000","Units":"in","Rept_Date":"2019-12-09 12"},"coordinates":[6876,6577]},{"type":"Point","properties":{"Station_ID":"TOHM5","Station_Nam":"TWO HARBORS WWTP","Latitude":"47.01760","Longitude":"-91.66480","Snowdepth":"13.000","Units":"in","Rept_Date":"2019-12-09 13"},"coordinates":[1308,6466]},{"type":"Point","properties":{"Station_ID":"STGW3","Station_Nam":"ST GERMAIN","Latitude":"45.91550","Longitude":"-89.48940","Snowdepth":"13.000","Units":"in","Rept_Date":"2019-12-09 12"},"coordinates":[1819,5639]},{"type":"Point","properties":{"Station_ID":"SHHN6","Station_Nam":"SCHOHARIE VILLAGE","Latitude":"42.66500","Longitude":"-74.30360","Snowdepth":"13.000","Units":"in","Rept_Date":"2019-12-09 12"},"coordinates":[5383,3200]},{"type":"Point","properties":{"Station_ID":"RLKW3","Station_Nam":"REST LAKE","Latitude":"46.12220","Longitude":"-89.87720","Snowdepth":"13.000","Units":"in","Rept_Date":"2019-12-09 13"},"coordinates":[1728,5794]},{"type":"Point","properties":{"Station_ID":"NY-SC-20","Station_Nam":"ROTTERDAM 0.9 NW, NY","Latitude":"42.78862","Longitude":"-73.96671","Snowdepth":"13.000","Units":"in","Rept_Date":"2019-12-09 13"},"coordinates":[5462,3293]},{"type":"Point","properties":{"Station_ID":"NY-HR-18","Station_Nam":"SALISBURY CENTER 1.8 NW, NY","Latitude":"43.16260","Longitude":"-74.80880","Snowdepth":"13.000","Units":"in","Rept_Date":"2019-12-09 11"},"coordinates":[5264,3574]},{"type":"Point","properties":{"Station_ID":"MRLV1","Station_Nam":"MARLBORO","Latitude":"42.86000","Longitude":"-72.72000","Snowdepth":"13.000","Units":"in","Rept_Date":"2019-12-09 12"},"coordinates":[5754,3347]},{"type":"Point","properties":{"Station_ID":"MN-SL-115","Station_Nam":"COTTON 5.7 ESE, MN","Latitude":"47.15142","Longitude":"-92.35772","Snowdepth":"13.000","Units":"in","Rept_Date":"2019-12-09 14"},"coordinates":[1146,6566]},{"type":"Point","properties":{"Station_ID":"MN-BM-15","Station_Nam":"BEMIDJI 7.8 ENE, MN","Latitude":"47.52043","Longitude":"-94.72121","Snowdepth":"13.000","Units":"in","Rept_Date":"2019-12-09 13"},"coordinates":[591,6843]},{"type":"Point","properties":{"Station_ID":"MA-WR-8","Station_Nam":"FITCHBURG 1.6 SSW, MA","Latitude":"42.56674","Longitude":"-71.82170","Snowdepth":"13.000","Units":"in","Rept_Date":"2019-12-09 11"},"coordinates":[5965,3127]},{"type":"Point","properties":{"Station_ID":"MA-WR-75","Station_Nam":"WARREN 2.4 WSW, MA","Latitude":"42.20400","Longitude":"-72.23540","Snowdepth":"13.000","Units":"in","Rept_Date":"2019-12-09 13"},"coordinates":[5868,2855]},{"type":"Point","properties":{"Station_ID":"MA-WR-58","Station_Nam":"LUNENBURG 0.6 NE, MA","Latitude":"42.60180","Longitude":"-71.71653","Snowdepth":"13.000","Units":"in","Rept_Date":"2019-12-09 13"},"coordinates":[5990,3153]},{"type":"Point","properties":{"Station_ID":"LTMW3","Station_Nam":"LAKE TOMAHAWK 2 SE","Latitude":"45.80750","Longitude":"-89.55830","Snowdepth":"13.000","Units":"in","Rept_Date":"2019-12-09 12"},"coordinates":[1803,5558]},{"type":"Point","properties":{"Station_ID":"KGFK","Station_Nam":"GRAND FORKS INTERNATIONAL","Latitude":"47.95000","Longitude":"-97.18333","Snowdepth":"13.000","Units":"in","Rept_Date":"2019-12-10 06"},"coordinates":[13,7165]},{"type":"Point","properties":{"Station_ID":"JAPN3","Station_Nam":"JAFFREY SILVER RANCH AIRPARK","Latitude":"42.80880","Longitude":"-72.00530","Snowdepth":"13.000","Units":"in","Rept_Date":"2019-12-09 12"},"coordinates":[5922,3308]},{"type":"Point","properties":{"Station_ID":"ISEM5","Station_Nam":"ISLE 12N","Latitude":"46.31970","Longitude":"-93.50140","Snowdepth":"13.000","Units":"in","Rept_Date":"2019-12-09 14"},"coordinates":[877,5942]},{"type":"Point","properties":{"Station_ID":"HRVM4","Station_Nam":"HARVEY","Latitude":"46.49080","Longitude":"-87.35470","Snowdepth":"13.000","Units":"in","Rept_Date":"2019-12-09 12"},"coordinates":[2320,6071]},{"type":"Point","properties":{"Station_ID":"GFK","Station_Nam":"GRAND FORKS INTERNATIONAL AIRPORT","Latitude":"47.94920","Longitude":"-97.17610","Snowdepth":"13.000","Units":"in","Rept_Date":"2019-12-10 00"},"coordinates":[15,7165]},{"type":"Point","properties":{"Station_ID":"EMLN3","Station_Nam":"EAST MILFORD","Latitude":"42.82660","Longitude":"-71.62600","Snowdepth":"13.000","Units":"in","Rept_Date":"2019-12-09 12"},"coordinates":[6011,3322]},{"type":"Point","properties":{"Station_ID":"EHYM3","Station_Nam":"EAST HAWLEY","Latitude":"42.57410","Longitude":"-72.86790","Snowdepth":"13.000","Units":"in","Rept_Date":"2019-12-09 12"},"coordinates":[5720,3132]},{"type":"Point","properties":{"Station_ID":"BRAM1","Station_Nam":"BRASSUA DAM","Latitude":"45.66020","Longitude":"-69.81190","Snowdepth":"13.000","Units":"in","Rept_Date":"2019-12-09 12"},"coordinates":[6437,5448]},{"type":"Point","properties":{"Station_ID":"WI-SR-5","Station_Nam":"HAYWARD 9.7 NE, WI","Latitude":"46.12030","Longitude":"-91.35370","Snowdepth":"12.500","Units":"in","Rept_Date":"2019-12-09 14"},"coordinates":[1381,5793]},{"type":"Point","properties":{"Station_ID":"WI-ON-8","Station_Nam":"HAZELHURST 2.1 SSE, WI","Latitude":"45.78186","Longitude":"-89.70330","Snowdepth":"12.500","Units":"in","Rept_Date":"2019-12-09 13"},"coordinates":[1768,5539]},{"type":"Point","properties":{"Station_ID":"WI-BT-14","Station_Nam":"OAKLAND 9.0 ENE, WI","Latitude":"45.95184","Longitude":"-92.21653","Snowdepth":"12.500","Units":"in","Rept_Date":"2019-12-09 13"},"coordinates":[1179,5666]},{"type":"Point","properties":{"Station_ID":"NY-RN-15","Station_Nam":"TROY 0.7 E, NY","Latitude":"42.73558","Longitude":"-73.66252","Snowdepth":"12.500","Units":"in","Rept_Date":"2019-12-09 12"},"coordinates":[5533,3253]},{"type":"Point","properties":{"Station_ID":"NY-CY-27","Station_Nam":"MORAVIA 5.9 ENE, NY","Latitude":"42.73491","Longitude":"-76.31137","Snowdepth":"12.500","Units":"in","Rept_Date":"2019-12-09 12"},"coordinates":[4911,3253]},{"type":"Point","properties":{"Station_ID":"NH-HL-49","Station_Nam":"MONT VERNON 1.3 SSW, NH","Latitude":"42.87616","Longitude":"-71.68280","Snowdepth":"12.500","Units":"in","Rept_Date":"2019-12-09 12"},"coordinates":[5998,3359]},{"type":"Point","properties":{"Station_ID":"MN-SL-108","Station_Nam":"IRON JUNCTION 3.4 NNW, MN","Latitude":"47.46150","Longitude":"-92.63130","Snowdepth":"12.500","Units":"in","Rept_Date":"2019-12-09 13"},"coordinates":[1081,6799]},{"type":"Point","properties":{"Station_ID":"MN-SL-139","Station_Nam":"DULUTH 1.2 SE, MN","Latitude":"46.77000","Longitude":"-92.08826","Snowdepth":"12.300","Units":"in","Rept_Date":"2019-12-09 12"},"coordinates":[1209,6280]},{"type":"Point","properties":{"Station_ID":"WTRM4","Station_Nam":"WATERSMEET 12WSW","Latitude":"46.22310","Longitude":"-89.40850","Snowdepth":"12.000","Units":"in","Rept_Date":"2019-12-09 12"},"coordinates":[1838,5870]},{"type":"Point","properties":{"Station_ID":"WI-RS-1","Station_Nam":"LADYSMITH 2.8 WNW, WI","Latitude":"45.48180","Longitude":"-91.14680","Snowdepth":"12.000","Units":"in","Rept_Date":"2019-12-09 13"},"coordinates":[1430,5314]},{"type":"Point","properties":{"Station_ID":"TLLM3","Station_Nam":"TULLY LAKE","Latitude":"42.63940","Longitude":"-72.22440","Snowdepth":"12.000","Units":"in","Rept_Date":"2019-12-09 12"},"coordinates":[5871,3181]},{"type":"Point","properties":{"Station_ID":"RKWM1","Station_Nam":"MOOSEHEAD LAKE","Latitude":"45.58330","Longitude":"-69.71670","Snowdepth":"12.000","Units":"in","Rept_Date":"2019-12-09 12"},"coordinates":[6459,5390]},{"type":"Point","properties":{"Station_ID":"RHIW3","Station_Nam":"RHINELANDER","Latitude":"45.59860","Longitude":"-89.45080","Snowdepth":"12.000","Units":"in","Rept_Date":"2019-12-09 13"},"coordinates":[1828,5401]},{"type":"Point","properties":{"Station_ID":"PEKN6","Station_Nam":"PECK LAKE","Latitude":"43.11500","Longitude":"-74.42360","Snowdepth":"12.000","Units":"in","Rept_Date":"2019-12-09 13"},"coordinates":[5355,3538]},{"type":"Point","properties":{"Station_ID":"NY-RN-20","Station_Nam":"TROY 2.1 NNE, NY","Latitude":"42.75930","Longitude":"-73.65283","Snowdepth":"12.000","Units":"in","Rept_Date":"2019-12-09 12"},"coordinates":[5535,3271]},{"type":"Point","properties":{"Station_ID":"NY-OD-2","Station_Nam":"POINT ROCK 0.6 SE, NY","Latitude":"43.37335","Longitude":"-75.53840","Snowdepth":"12.000","Units":"in","Rept_Date":"2019-12-09 13"},"coordinates":[5093,3732]},{"type":"Point","properties":{"Station_ID":"NY-GR-14","Station_Nam":"LEXINGTON 1.5 N, NY","Latitude":"42.26024","Longitude":"-74.35875","Snowdepth":"12.000","Units":"in","Rept_Date":"2019-12-09 12"},"coordinates":[5370,2897]},{"type":"Point","properties":{"Station_ID":"NY-CB-9","Station_Nam":"HILLSDALE 5.8 S, NY","Latitude":"42.26165","Longitude":"-73.54160","Snowdepth":"12.000","Units":"in","Rept_Date":"2019-12-09 13"},"coordinates":[5562,2898]},{"type":"Point","properties":{"Station_ID":"NY-AB-23","Station_Nam":"ALBANY 0.7 SW, NY","Latitude":"42.66019","Longitude":"-73.81030","Snowdepth":"12.000","Units":"in","Rept_Date":"2019-12-09 12"},"coordinates":[5498,3197]},{"type":"Point","properties":{"Station_ID":"NEDM1","Station_Nam":"CAPE NEDDICK","Latitude":"43.22410","Longitude":"-70.63880","Snowdepth":"12.000","Units":"in","Rept_Date":"2019-12-09 12"},"coordinates":[6243,3620]},{"type":"Point","properties":{"Station_ID":"MN-IT-19","Station_Nam":"COHASSET 7.6 NNW, MN","Latitude":"47.34204","Longitude":"-93.69765","Snowdepth":"12.000","Units":"in","Rept_Date":"2019-12-09 14"},"coordinates":[831,6709]},{"type":"Point","properties":{"Station_ID":"MI-MQ-2","Station_Nam":"MARQUETTE 6.5 SSE, MI","Latitude":"46.46461","Longitude":"-87.34064","Snowdepth":"12.000","Units":"in","Rept_Date":"2019-12-09 13"},"coordinates":[2323,6051]},{"type":"Point","properties":{"Station_ID":"MI-HG-14","Station_Nam":"HOUGHTON 0.6 SE, MI","Latitude":"47.10847","Longitude":"-88.55235","Snowdepth":"12.000","Units":"in","Rept_Date":"2019-12-09 13"},"coordinates":[2039,6534]},{"type":"Point","properties":{"Station_ID":"MI-HG-1","Station_Nam":"HOUGHTON 1.6 ESE, MI","Latitude":"47.10774","Longitude":"-88.52940","Snowdepth":"12.000","Units":"in","Rept_Date":"2019-12-09 13"},"coordinates":[2044,6534]},{"type":"Point","properties":{"Station_ID":"ME-YK-52","Station_Nam":"YORK 5.2 N, ME","Latitude":"43.23585","Longitude":"-70.63400","Snowdepth":"12.000","Units":"in","Rept_Date":"2019-12-09 12"},"coordinates":[6244,3629]},{"type":"Point","properties":{"Station_ID":"MCLN8","Station_Nam":"MC LEOD,ND","Latitude":"46.40250","Longitude":"-97.23810","Snowdepth":"12.000","Units":"in","Rept_Date":"2019-12-09 16"},"coordinates":[0,6004]},{"type":"Point","properties":{"Station_ID":"MA-HD-28","Station_Nam":"WESTFIELD 2.8 SE, MA","Latitude":"42.10685","Longitude":"-72.72148","Snowdepth":"12.000","Units":"in","Rept_Date":"2019-12-09 11"},"coordinates":[5754,2782]},{"type":"Point","properties":{"Station_ID":"LUCW3","Station_Nam":"LUCK","Latitude":"45.57330","Longitude":"-92.48520","Snowdepth":"12.000","Units":"in","Rept_Date":"2019-12-09 22"},"coordinates":[1116,5382]},{"type":"Point","properties":{"Station_ID":"LILM1","Station_Nam":"LILLE","Latitude":"47.27770","Longitude":"-68.10520","Snowdepth":"12.000","Units":"in","Rept_Date":"2019-12-09 12"},"coordinates":[6837,6661]},{"type":"Point","properties":{"Station_ID":"IMNM4","Station_Nam":"IRON MOUTAIN 5N","Latitude":"45.87580","Longitude":"-88.04030","Snowdepth":"12.000","Units":"in","Rept_Date":"2019-12-10 01"},"coordinates":[2159,5609]},{"type":"Point","properties":{"Station_ID":"HRKM3","Station_Nam":"HARDWICK 2 ESE","Latitude":"42.34570","Longitude":"-72.15410","Snowdepth":"12.000","Units":"in","Rept_Date":"2019-12-09 13"},"coordinates":[5887,2961]},{"type":"Point","properties":{"Station_ID":"HMYM1","Station_Nam":"HARMONY","Latitude":"44.94660","Longitude":"-69.54560","Snowdepth":"12.000","Units":"in","Rept_Date":"2019-12-09 11"},"coordinates":[6499,4912]},{"type":"Point","properties":{"Station_ID":"GRBM5","Station_Nam":"GRAND RAPIDS 12N","Latitude":"47.39800","Longitude":"-93.51330","Snowdepth":"12.000","Units":"in","Rept_Date":"2019-12-09 13"},"coordinates":[874,6751]},{"type":"Point","properties":{"Station_ID":"EGRW3","Station_Nam":"EAGLE RIVER-SOUTH","Latitude":"45.91360","Longitude":"-89.24360","Snowdepth":"12.000","Units":"in","Rept_Date":"2019-12-09 13"},"coordinates":[1876,5638]},{"type":"Point","properties":{"Station_ID":"DFXM1","Station_Nam":"DOVER-FOXCROFT","Latitude":"45.18720","Longitude":"-69.18350","Snowdepth":"12.000","Units":"in","Rept_Date":"2019-12-09 12"},"coordinates":[6584,5093]},{"type":"Point","properties":{"Station_ID":"CLKM4","Station_Nam":"CLARKSBURG","Latitude":"46.49910","Longitude":"-87.84500","Snowdepth":"12.000","Units":"in","Rept_Date":"2019-12-09 12"},"coordinates":[2205,6077]},{"type":"Point","properties":{"Station_ID":"CAN-NB-13","Station_Nam":"BATHURST 3.8 NW, CAN","Latitude":"47.64212","Longitude":"-65.68756","Snowdepth":"12.000","Units":"in","Rept_Date":"2019-12-09 11"},"coordinates":[7405,6934]},{"type":"Point","properties":{"Station_ID":"CAN-NB-11","Station_Nam":"MIRAMICHI 3.3 S, CAN","Latitude":"46.99343","Longitude":"-65.50690","Snowdepth":"12.000","Units":"in","Rept_Date":"2019-12-09 10"},"coordinates":[7447,6448]},{"type":"Point","properties":{"Station_ID":"BIRM3","Station_Nam":"BIRCH HILL DAM","Latitude":"42.63240","Longitude":"-72.12270","Snowdepth":"12.000","Units":"in","Rept_Date":"2019-12-09 12"},"coordinates":[5895,3176]},{"type":"Point","properties":{"Station_ID":"ABGW3","Station_Nam":"AMBERG 9 E","Latitude":"45.48250","Longitude":"-87.81190","Snowdepth":"12.000","Units":"in","Rept_Date":"2019-12-09 12"},"coordinates":[2212,5314]},{"type":"Point","properties":{"Station_ID":"QTV","Station_Nam":"QTV","Latitude":"49.66000","Longitude":"-69.35690","Snowdepth":"11.850","Units":"in","Rept_Date":"2019-12-09 12"},"coordinates":[6544,8448]},{"type":"Point","properties":{"Station_ID":"QLM","Station_Nam":"QLM","Latitude":"48.92030","Longitude":"-70.25280","Snowdepth":"11.850","Units":"in","Rept_Date":"2019-12-09 12"},"coordinates":[6333,7893]},{"type":"Point","properties":{"Station_ID":"WI-VL-14","Station_Nam":"BOULDER JUNCTION 1.4 NE, WI","Latitude":"46.12840","Longitude":"-89.62470","Snowdepth":"11.500","Units":"in","Rept_Date":"2019-12-09 13"},"coordinates":[1787,5799]},{"type":"Point","properties":{"Station_ID":"VT-WH-29","Station_Nam":"BRATTLEBORO 0.7 S, VT","Latitude":"42.84030","Longitude":"-72.55580","Snowdepth":"11.500","Units":"in","Rept_Date":"2019-12-09 12"},"coordinates":[5793,3332]},{"type":"Point","properties":{"Station_ID":"NY-SC-27","Station_Nam":"NISKAYUNA 2.9 SSE, NY","Latitude":"42.77911","Longitude":"-73.87242","Snowdepth":"11.500","Units":"in","Rept_Date":"2019-12-09 12"},"coordinates":[5484,3286]},{"type":"Point","properties":{"Station_ID":"MN-CY-20","Station_Nam":"HAWLEY 5.2 WNW, MN","Latitude":"46.91652","Longitude":"-96.41147","Snowdepth":"11.500","Units":"in","Rept_Date":"2019-12-09 13"},"coordinates":[194,6390]},{"type":"Point","properties":{"Station_ID":"MN-CW-8","Station_Nam":"BRAINERD 11.5 E, MN","Latitude":"46.38556","Longitude":"-93.95720","Snowdepth":"11.500","Units":"in","Rept_Date":"2019-12-09 14"},"coordinates":[770,5992]},{"type":"Point","properties":{"Station_ID":"MN-CW-22","Station_Nam":"FORT RIPLEY 0.8 N, MN","Latitude":"46.18089","Longitude":"-94.36510","Snowdepth":"11.500","Units":"in","Rept_Date":"2019-12-09 13"},"coordinates":[674,5838]},{"type":"Point","properties":{"Station_ID":"MN-BM-11","Station_Nam":"BEMIDJI 4.8 NNE, MN","Latitude":"47.54939","Longitude":"-94.85669","Snowdepth":"11.500","Units":"in","Rept_Date":"2019-12-09 13"},"coordinates":[559,6865]},{"type":"Point","properties":{"Station_ID":"MA-HS-2","Station_Nam":"WESTHAMPTON 1.8 SW, MA","Latitude":"42.27943","Longitude":"-72.78700","Snowdepth":"11.500","Units":"in","Rept_Date":"2019-12-09 12"},"coordinates":[5739,2911]},{"type":"Point","properties":{"Station_ID":"MA-FR-13","Station_Nam":"CONWAY 2.9 NW, MA","Latitude":"42.54419","Longitude":"-72.72743","Snowdepth":"11.500","Units":"in","Rept_Date":"2019-12-09 12"},"coordinates":[5753,3110]},{"type":"Point","properties":{"Station_ID":"MN-IT-7","Station_Nam":"GRAND RAPIDS 6.2 SSW, MN","Latitude":"47.13687","Longitude":"-93.56660","Snowdepth":"11.200","Units":"in","Rept_Date":"2019-12-09 12"},"coordinates":[862,6555]},{"type":"Point","properties":{"Station_ID":"QCO","Station_Nam":"QCO","Latitude":"51.45280","Longitude":"-72.20110","Snowdepth":"11.181","Units":"in","Rept_Date":"2019-12-09 12"},"coordinates":[5876,9793]},{"type":"Point","properties":{"Station_ID":"TRIQ6","Station_Nam":"TRIO LAKE","Latitude":"49.22880","Longitude":"-87.22920","Snowdepth":"11.060","Units":"in","Rept_Date":"2019-12-10 06"},"coordinates":[2349,8125]},{"type":"Point","properties":{"Station_ID":"ZBWN3","Station_Nam":"NASHUA CWSU","Latitude":"42.73440","Longitude":"-71.48030","Snowdepth":"11.000","Units":"in","Rept_Date":"2019-12-09 12"},"coordinates":[6045,3253]},{"type":"Point","properties":{"Station_ID":"WI-PR-6","Station_Nam":"PHILLIPS 1.3 S, WI","Latitude":"45.67677","Longitude":"-90.39543","Snowdepth":"11.000","Units":"in","Rept_Date":"2019-12-09 12"},"coordinates":[1606,5460]},{"type":"Point","properties":{"Station_ID":"WI-OC-1","Station_Nam":"MOUNTAIN 1.1 SW, WI","Latitude":"45.17239","Longitude":"-88.48990","Snowdepth":"11.000","Units":"in","Rept_Date":"2019-12-09 17"},"coordinates":[2053,5082]},{"type":"Point","properties":{"Station_ID":"OTTM5","Station_Nam":"OTTERTAIL,MN","Latitude":"46.41670","Longitude":"-95.56670","Snowdepth":"11.000","Units":"in","Rept_Date":"2019-12-09 14"},"coordinates":[392,6015]},{"type":"Point","properties":{"Station_ID":"NY-SR-22","Station_Nam":"GREENFIELD CENTER 1.6 W, NY","Latitude":"43.12684","Longitude":"-73.87860","Snowdepth":"11.000","Units":"in","Rept_Date":"2019-12-09 12"},"coordinates":[5482,3547]},{"type":"Point","properties":{"Station_ID":"NY-SC-11","Station_Nam":"SCHENECTADY 3.3 E, NY","Latitude":"42.79382","Longitude":"-73.86390","Snowdepth":"11.000","Units":"in","Rept_Date":"2019-12-09 14"},"coordinates":[5486,3297]},{"type":"Point","properties":{"Station_ID":"NY-RN-1","Station_Nam":"AVERILL PARK 0.9 WNW, NY","Latitude":"42.63910","Longitude":"-73.56980","Snowdepth":"11.000","Units":"in","Rept_Date":"2019-12-09 13"},"coordinates":[5555,3181]},{"type":"Point","properties":{"Station_ID":"NY-AB-21","Station_Nam":"NWS ALBANY, NY","Latitude":"42.69180","Longitude":"-73.83110","Snowdepth":"11.000","Units":"in","Rept_Date":"2019-12-09 13"},"coordinates":[5494,3221]},{"type":"Point","properties":{"Station_ID":"MRQM4","Station_Nam":"MARQUETTE WFP","Latitude":"46.54580","Longitude":"-87.37950","Snowdepth":"11.000","Units":"in","Rept_Date":"2019-12-09 13"},"coordinates":[2314,6112]},{"type":"Point","properties":{"Station_ID":"MRAM5","Station_Nam":"MORA","Latitude":"45.87760","Longitude":"-93.31470","Snowdepth":"11.000","Units":"in","Rept_Date":"2019-12-09 13"},"coordinates":[921,5611]},{"type":"Point","properties":{"Station_ID":"MN-IT-17","Station_Nam":"GRAND RAPIDS 6.1 N, MN","Latitude":"47.31165","Longitude":"-93.55036","Snowdepth":"11.000","Units":"in","Rept_Date":"2019-12-09 13"},"coordinates":[866,6687]},{"type":"Point","properties":{"Station_ID":"MI-HG-12","Station_Nam":"DOLLAR BAY 0.2 ENE, MI","Latitude":"47.12067","Longitude":"-88.49895","Snowdepth":"11.000","Units":"in","Rept_Date":"2019-12-09 13"},"coordinates":[2051,6543]},{"type":"Point","properties":{"Station_ID":"MCDN3","Station_Nam":"EDWARD MACDOWELL LAKE","Latitude":"42.89410","Longitude":"-71.98420","Snowdepth":"11.000","Units":"in","Rept_Date":"2019-12-09 12"},"coordinates":[5927,3372]},{"type":"Point","properties":{"Station_ID":"MA-MD-125","Station_Nam":"TEWKSBURY 3.6 SSE, MA","Latitude":"42.57083","Longitude":"-71.19813","Snowdepth":"11.000","Units":"in","Rept_Date":"2019-12-09 12"},"coordinates":[6112,3130]},{"type":"Point","properties":{"Station_ID":"MA-FR-12","Station_Nam":"SUNDERLAND 1.3 SE, MA","Latitude":"42.45217","Longitude":"-72.56610","Snowdepth":"11.000","Units":"in","Rept_Date":"2019-12-09 12"},"coordinates":[5790,3041]},{"type":"Point","properties":{"Station_ID":"HUDN3","Station_Nam":"HUDSON 1 SSE","Latitude":"42.78300","Longitude":"-71.41480","Snowdepth":"11.000","Units":"in","Rept_Date":"2019-12-09 12"},"coordinates":[6061,3289]},{"type":"Point","properties":{"Station_ID":"HMPN3","Station_Nam":"WEST HAMPSTEAD","Latitude":"42.91080","Longitude":"-71.20200","Snowdepth":"11.000","Units":"in","Rept_Date":"2019-12-09 12"},"coordinates":[6111,3385]},{"type":"Point","properties":{"Station_ID":"FEDM5","Station_Nam":"LEECH LAKE DAM","Latitude":"47.24670","Longitude":"-94.22280","Snowdepth":"11.000","Units":"in","Rept_Date":"2019-12-09 14"},"coordinates":[708,6638]},{"type":"Point","properties":{"Station_ID":"EPPN3","Station_Nam":"EPPING","Latitude":"43.03020","Longitude":"-71.08380","Snowdepth":"11.000","Units":"in","Rept_Date":"2019-12-09 12"},"coordinates":[6138,3474]},{"type":"Point","properties":{"Station_ID":"ENGM4","Station_Nam":"ENGADINE MDOT","Latitude":"46.12800","Longitude":"-85.56960","Snowdepth":"11.000","Units":"in","Rept_Date":"2019-12-09 12"},"coordinates":[2739,5799]},{"type":"Point","properties":{"Station_ID":"COBN6","Station_Nam":"COBLESKILL 2ESE","Latitude":"42.66710","Longitude":"-74.44230","Snowdepth":"11.000","Units":"in","Rept_Date":"2019-12-09 12"},"coordinates":[5350,3202]},{"type":"Point","properties":{"Station_ID":"CNNW3","Station_Nam":"CRANDON","Latitude":"45.55110","Longitude":"-88.89830","Snowdepth":"11.000","Units":"in","Rept_Date":"2019-12-09 12"},"coordinates":[1957,5366]},{"type":"Point","properties":{"Station_ID":"CGPM4","Station_Nam":"DOLLAR BAY","Latitude":"47.11670","Longitude":"-88.51370","Snowdepth":"11.000","Units":"in","Rept_Date":"2019-12-09 13"},"coordinates":[2048,6540]},{"type":"Point","properties":{"Station_ID":"CAN-NB-97","Station_Nam":"NEW MARYLAND 0.6 NW, CAN","Latitude":"45.90112","Longitude":"-66.68739","Snowdepth":"11.000","Units":"in","Rept_Date":"2019-12-09 11"},"coordinates":[7170,5628]},{"type":"Point","properties":{"Station_ID":"BSKN6","Station_Nam":"BUSKIRK","Latitude":"42.93610","Longitude":"-73.43250","Snowdepth":"11.000","Units":"in","Rept_Date":"2019-12-09 12"},"coordinates":[5587,3404]},{"type":"Point","properties":{"Station_ID":"SVBQ6","Station_Nam":"SAVANT BASE","Latitude":"50.28730","Longitude":"-90.65670","Snowdepth":"10.910","Units":"in","Rept_Date":"2019-12-10 06"},"coordinates":[1545,8919]},{"type":"Point","properties":{"Station_ID":"QTM","Station_Nam":"QTM","Latitude":"51.05780","Longitude":"-72.57190","Snowdepth":"10.866","Units":"in","Rept_Date":"2019-12-09 12"},"coordinates":[5789,9497]},{"type":"Point","properties":{"Station_ID":"QCX","Station_Nam":"QCX","Latitude":"51.32830","Longitude":"-70.08060","Snowdepth":"10.866","Units":"in","Rept_Date":"2019-12-09 12"},"coordinates":[6374,9700]},{"type":"Point","properties":{"Station_ID":"QWE","Station_Nam":"QWE","Latitude":"47.84610","Longitude":"-73.80670","Snowdepth":"10.709","Units":"in","Rept_Date":"2019-12-09 12"},"coordinates":[5499,7088]},{"type":"Point","properties":{"Station_ID":"QYR","Station_Nam":"QYR","Latitude":"48.87220","Longitude":"-75.61470","Snowdepth":"10.630","Units":"in","Rept_Date":"2019-12-09 12"},"coordinates":[5075,7857]},{"type":"Point","properties":{"Station_ID":"WI-PR-8","Station_Nam":"PHILLIPS 0.4 SSW, WI","Latitude":"45.69086","Longitude":"-90.40200","Snowdepth":"10.500","Units":"in","Rept_Date":"2019-12-09 13"},"coordinates":[1605,5471]},{"type":"Point","properties":{"Station_ID":"NY-SR-4","Station_Nam":"SARATOGA SPRINGS 0.5 S, NY","Latitude":"43.06032","Longitude":"-73.78010","Snowdepth":"10.500","Units":"in","Rept_Date":"2019-12-09 11"},"coordinates":[5506,3497]},{"type":"Point","properties":{"Station_ID":"NY-MG-1","Station_Nam":"FORT PLAIN 0.2 SE, NY","Latitude":"42.92999","Longitude":"-74.62640","Snowdepth":"10.500","Units":"in","Rept_Date":"2019-12-09 12"},"coordinates":[5307,3399]},{"type":"Point","properties":{"Station_ID":"NY-HR-12","Station_Nam":"DOLGEVILLE 1.9 NW, NY","Latitude":"43.12320","Longitude":"-74.79740","Snowdepth":"10.500","Units":"in","Rept_Date":"2019-12-09 12"},"coordinates":[5267,3544]},{"type":"Point","properties":{"Station_ID":"NY-CB-16","Station_Nam":"VALATIE 2.9 N, NY","Latitude":"42.45655","Longitude":"-73.66812","Snowdepth":"10.500","Units":"in","Rept_Date":"2019-12-09 12"},"coordinates":[5532,3044]},{"type":"Point","properties":{"Station_ID":"MN-IT-10","Station_Nam":"DEER RIVER 3.7 W, MN","Latitude":"47.33564","Longitude":"-93.87514","Snowdepth":"10.500","Units":"in","Rept_Date":"2019-12-09 14"},"coordinates":[789,6705]},{"type":"Point","properties":{"Station_ID":"MN-CW-29","Station_Nam":"BRAINERD 7.7 SSE, MN","Latitude":"46.24996","Longitude":"-94.14576","Snowdepth":"10.500","Units":"in","Rept_Date":"2019-12-09 15"},"coordinates":[726,5890]},{"type":"Point","properties":{"Station_ID":"MA-FR-17","Station_Nam":"BUCKLAND 1.8 ESE, MA","Latitude":"42.58900","Longitude":"-72.75110","Snowdepth":"10.500","Units":"in","Rept_Date":"2019-12-09 13"},"coordinates":[5747,3143]},{"type":"Point","properties":{"Station_ID":"MA-BE-21","Station_Nam":"CHESHIRE 0.5 NNW, MA","Latitude":"42.56315","Longitude":"-73.15701","Snowdepth":"10.500","Units":"in","Rept_Date":"2019-12-09 12"},"coordinates":[5652,3124]},{"type":"Point","properties":{"Station_ID":"QMA","Station_Nam":"QMA","Latitude":"50.10330","Longitude":"-70.47190","Snowdepth":"10.039","Units":"in","Rept_Date":"2019-12-09 12"},"coordinates":[6282,8781]},{"type":"Point","properties":{"Station_ID":"WILW3","Station_Nam":"RESERVOIR","Latitude":"45.70000","Longitude":"-89.83330","Snowdepth":"10.000","Units":"in","Rept_Date":"2019-12-09 12"},"coordinates":[1738,5477]},{"type":"Point","properties":{"Station_ID":"WI-CK-3","Station_Nam":"COLBY 5.9 WSW, WI","Latitude":"44.87209","Longitude":"-90.42463","Snowdepth":"10.000","Units":"in","Rept_Date":"2019-12-10 01"},"coordinates":[1599,4856]},{"type":"Point","properties":{"Station_ID":"TRYN6","Station_Nam":"TROY","Latitude":"42.75080","Longitude":"-73.68550","Snowdepth":"10.000","Units":"in","Rept_Date":"2019-12-09 11"},"coordinates":[5528,3265]},{"type":"Point","properties":{"Station_ID":"TETM5","Station_Nam":"TETTEGOUCHE STATE PARK","Latitude":"47.33900","Longitude":"-91.19590","Snowdepth":"10.000","Units":"in","Rept_Date":"2019-12-09 14"},"coordinates":[1418,6707]},{"type":"Point","properties":{"Station_ID":"TAKW3","Station_Nam":"RICE RESERVOIR NO. 2","Latitude":"45.53770","Longitude":"-89.73220","Snowdepth":"10.000","Units":"in","Rept_Date":"2019-12-09 13"},"coordinates":[1762,5356]},{"type":"Point","properties":{"Station_ID":"STC","Station_Nam":"ST. CLOUD REGIONAL AIRPORT","Latitude":"45.54330","Longitude":"-94.05140","Snowdepth":"10.000","Units":"in","Rept_Date":"2019-12-10 00"},"coordinates":[748,5360]},{"type":"Point","properties":{"Station_ID":"SPOW3","Station_Nam":"SPOONER,WI","Latitude":"45.82360","Longitude":"-91.70000","Snowdepth":"10.000","Units":"in","Rept_Date":"2019-12-09 14"},"coordinates":[1300,5570]},{"type":"Point","properties":{"Station_ID":"SCSM5","Station_Nam":"ST CLOUD STATE","Latitude":"45.55100","Longitude":"-94.14950","Snowdepth":"10.000","Units":"in","Rept_Date":"2019-12-09 13"},"coordinates":[725,5366]},{"type":"Point","properties":{"Station_ID":"RHRW3","Station_Nam":"RHINELANDER WJFW TV-12","Latitude":"45.62220","Longitude":"-89.41000","Snowdepth":"10.000","Units":"in","Rept_Date":"2019-12-10 04"},"coordinates":[1837,5419]},{"type":"Point","properties":{"Station_ID":"RHLW3","Station_Nam":"RHINELANDER 4NE","Latitude":"45.65270","Longitude":"-89.30740","Snowdepth":"10.000","Units":"in","Rept_Date":"2019-12-09 12"},"coordinates":[1861,5442]},{"type":"Point","properties":{"Station_ID":"ONMM5","Station_Nam":"ONAMIA RANGER STATION","Latitude":"46.06770","Longitude":"-93.66660","Snowdepth":"10.000","Units":"in","Rept_Date":"2019-12-09 14"},"coordinates":[838,5753]},{"type":"Point","properties":{"Station_ID":"NYMM5","Station_Nam":"NEW YORK MILLS","Latitude":"46.50920","Longitude":"-95.37990","Snowdepth":"10.000","Units":"in","Rept_Date":"2019-12-09 13"},"coordinates":[436,6085]},{"type":"Point","properties":{"Station_ID":"NY-GR-13","Station_Nam":"TANNERSVILLE 4.5 SSE, NY","Latitude":"42.13884","Longitude":"-74.08697","Snowdepth":"10.000","Units":"in","Rept_Date":"2019-12-09 12"},"coordinates":[5434,2806]},{"type":"Point","properties":{"Station_ID":"NY-DL-28","Station_Nam":"FLEISCHMANNS 5.7 N, NY","Latitude":"42.23779","Longitude":"-74.52335","Snowdepth":"10.000","Units":"in","Rept_Date":"2019-12-09 12"},"coordinates":[5331,2880]},{"type":"Point","properties":{"Station_ID":"NH-MR-41","Station_Nam":"NEWBURY 1.6 NW, NH","Latitude":"43.33667","Longitude":"-72.06060","Snowdepth":"10.000","Units":"in","Rept_Date":"2019-12-09 12"},"coordinates":[5909,3704]},{"type":"Point","properties":{"Station_ID":"NH-CS-4","Station_Nam":"PITTSBURG 6.1 NE, NH","Latitude":"45.11060","Longitude":"-71.29760","Snowdepth":"10.000","Units":"in","Rept_Date":"2019-12-09 12"},"coordinates":[6088,5035]},{"type":"Point","properties":{"Station_ID":"MWTM1","Station_Nam":"MILLINOCKET WWTP","Latitude":"45.64030","Longitude":"-68.67480","Snowdepth":"10.000","Units":"in","Rept_Date":"2019-12-09 12"},"coordinates":[6704,5433]},{"type":"Point","properties":{"Station_ID":"MN-WK-5","Station_Nam":"WOLVERTON 1.1 ENE, MN","Latitude":"46.56920","Longitude":"-96.71540","Snowdepth":"10.000","Units":"in","Rept_Date":"2019-12-09 13"},"coordinates":[123,6130]},{"type":"Point","properties":{"Station_ID":"MN-SR-29","Station_Nam":"ALBANY 3.8 S, MN","Latitude":"45.57441","Longitude":"-94.55543","Snowdepth":"10.000","Units":"in","Rept_Date":"2019-12-09 13"},"coordinates":[630,5383]},{"type":"Point","properties":{"Station_ID":"MN-MR-4","Station_Nam":"LITTLE FALLS 1.2 SW, MN","Latitude":"45.96886","Longitude":"-94.37720","Snowdepth":"10.000","Units":"in","Rept_Date":"2019-12-09 13"},"coordinates":[672,5679]},{"type":"Point","properties":{"Station_ID":"MN-IT-1","Station_Nam":"GRAND RAPIDS 2.0 E, MN","Latitude":"47.22266","Longitude":"-93.49600","Snowdepth":"10.000","Units":"in","Rept_Date":"2019-12-09 11"},"coordinates":[878,6620]},{"type":"Point","properties":{"Station_ID":"MLLW3","Station_Nam":"MERRILL 8W","Latitude":"45.17810","Longitude":"-89.84810","Snowdepth":"10.000","Units":"in","Rept_Date":"2019-12-09 12"},"coordinates":[1735,5086]},{"type":"Point","properties":{"Station_ID":"MLCM5","Station_Nam":"MILACA","Latitude":"45.75320","Longitude":"-93.66170","Snowdepth":"10.000","Units":"in","Rept_Date":"2019-12-09 13"},"coordinates":[839,5517]},{"type":"Point","properties":{"Station_ID":"MI-HG-6","Station_Nam":"CALUMET 5.8 ENE, MI","Latitude":"47.27200","Longitude":"-88.33400","Snowdepth":"10.000","Units":"in","Rept_Date":"2019-12-09 11"},"coordinates":[2090,6657]},{"type":"Point","properties":{"Station_ID":"MHT","Station_Nam":"MANCHESTER AIRPORT GRENIER INDSTRL ARPK","Latitude":"42.93440","Longitude":"-71.43690","Snowdepth":"10.000","Units":"in","Rept_Date":"2019-12-09 12"},"coordinates":[6055,3403]},{"type":"Point","properties":{"Station_ID":"ME-SM-17","Station_Nam":"HARMONY 3.0 SSE, ME","Latitude":"44.93256","Longitude":"-69.56080","Snowdepth":"10.000","Units":"in","Rept_Date":"2019-12-09 14"},"coordinates":[6496,4902]},{"type":"Point","properties":{"Station_ID":"MA-MD-104","Station_Nam":"LITTLETON 2.8 NNW, MA","Latitude":"42.57170","Longitude":"-71.49910","Snowdepth":"10.000","Units":"in","Rept_Date":"2019-12-09 12"},"coordinates":[6041,3130]},{"type":"Point","properties":{"Station_ID":"MA-HS-26","Station_Nam":"EASTHAMPTON 0.5 SW, MA","Latitude":"42.26110","Longitude":"-72.68920","Snowdepth":"10.000","Units":"in","Rept_Date":"2019-12-09 12"},"coordinates":[5762,2897]},{"type":"Point","properties":{"Station_ID":"MA-FR-10","Station_Nam":"CONWAY 0.9 SW, MA","Latitude":"42.50879","Longitude":"-72.69730","Snowdepth":"10.000","Units":"in","Rept_Date":"2019-12-09 13"},"coordinates":[5760,3083]},{"type":"Point","properties":{"Station_ID":"LEIM5","Station_Nam":"ORR 3E","Latitude":"48.05810","Longitude":"-92.75220","Snowdepth":"10.000","Units":"in","Rept_Date":"2019-12-09 12"},"coordinates":[1053,7247]},{"type":"Point","properties":{"Station_ID":"JCBM4","Station_Nam":"JACOBSVILLE","Latitude":"47.00830","Longitude":"-88.43180","Snowdepth":"10.000","Units":"in","Rept_Date":"2019-12-09 12"},"coordinates":[2067,6459]},{"type":"Point","properties":{"Station_ID":"ITAM5","Station_Nam":"UNIV. OF MINN.","Latitude":"47.21670","Longitude":"-95.20000","Snowdepth":"10.000","Units":"in","Rept_Date":"2019-12-09 13"},"coordinates":[478,6615]},{"type":"Point","properties":{"Station_ID":"HCKN3","Station_Nam":"HANCOCK","Latitude":"42.96940","Longitude":"-71.95290","Snowdepth":"10.000","Units":"in","Rept_Date":"2019-12-09 12"},"coordinates":[5934,3429]},{"type":"Point","properties":{"Station_ID":"GLLM5","Station_Nam":"GULL LAKE DAM","Latitude":"46.41190","Longitude":"-94.35000","Snowdepth":"10.000","Units":"in","Rept_Date":"2019-12-09 14"},"coordinates":[678,6012]},{"type":"Point","properties":{"Station_ID":"ELKM5","Station_Nam":"ELK RIVER","Latitude":"45.30470","Longitude":"-93.58420","Snowdepth":"10.000","Units":"in","Rept_Date":"2019-12-09 13"},"coordinates":[858,5181]},{"type":"Point","properties":{"Station_ID":"CLBW3","Station_Nam":"COLBY 6SW","Latitude":"44.87080","Longitude":"-90.42480","Snowdepth":"10.000","Units":"in","Rept_Date":"2019-12-10 03"},"coordinates":[1599,4855]},{"type":"Point","properties":{"Station_ID":"BCNM3","Station_Nam":"BELCHERTOWN","Latitude":"42.27960","Longitude":"-72.34820","Snowdepth":"10.000","Units":"in","Rept_Date":"2019-12-09 12"},"coordinates":[5842,2911]},{"type":"Point","properties":{"Station_ID":"AVTW3","Station_Nam":"ARBOR VITAE-JOHNSON LAKE","Latitude":"45.89940","Longitude":"-89.72670","Snowdepth":"10.000","Units":"in","Rept_Date":"2019-12-09 12"},"coordinates":[1763,5627]},{"type":"Point","properties":{"Station_ID":"NY-RN-13","Station_Nam":"TROY 6.9 NE, NY","Latitude":"42.79035","Longitude":"-73.56226","Snowdepth":"9.900","Units":"in","Rept_Date":"2019-12-09 12"},"coordinates":[5557,3295]},{"type":"Point","properties":{"Station_ID":"QMD","Station_Nam":"QMD","Latitude":"49.29060","Longitude":"-75.84500","Snowdepth":"9.724","Units":"in","Rept_Date":"2019-12-09 12"},"coordinates":[5021,8171]},{"type":"Point","properties":{"Station_ID":"WI-SR-1","Station_Nam":"HAYWARD 9.2 NNE, WI","Latitude":"46.13255","Longitude":"-91.40500","Snowdepth":"9.500","Units":"in","Rept_Date":"2019-12-09 12"},"coordinates":[1369,5802]},{"type":"Point","properties":{"Station_ID":"WI-LN-2","Station_Nam":"MERRILL 7.0 W, WI","Latitude":"45.17746","Longitude":"-89.84820","Snowdepth":"9.500","Units":"in","Rept_Date":"2019-12-09 12"},"coordinates":[1734,5085]},{"type":"Point","properties":{"Station_ID":"NY-DL-32","Station_Nam":"DELHI 6.6 WNW, NY","Latitude":"42.32118","Longitude":"-75.02991","Snowdepth":"9.500","Units":"in","Rept_Date":"2019-12-09 12"},"coordinates":[5212,2943]},{"type":"Point","properties":{"Station_ID":"NH-RC-33","Station_Nam":"HAMPSTEAD 1.6 NNE, NH","Latitude":"42.89614","Longitude":"-71.16850","Snowdepth":"9.500","Units":"in","Rept_Date":"2019-12-09 12"},"coordinates":[6118,3374]},{"type":"Point","properties":{"Station_ID":"NH-RC-18","Station_Nam":"DEERFIELD 3.2 WSW, NH","Latitude":"43.13350","Longitude":"-71.27940","Snowdepth":"9.500","Units":"in","Rept_Date":"2019-12-09 12"},"coordinates":[6092,3552]},{"type":"Point","properties":{"Station_ID":"MN-MR-13","Station_Nam":"LITTLE FALLS 8.0 NE, MN","Latitude":"46.06785","Longitude":"-94.24789","Snowdepth":"9.500","Units":"in","Rept_Date":"2019-12-09 13"},"coordinates":[702,5753]},{"type":"Point","properties":{"Station_ID":"MA-WR-76","Station_Nam":"WORCESTER 1.7 N, MA","Latitude":"42.29380","Longitude":"-71.80516","Snowdepth":"9.500","Units":"in","Rept_Date":"2019-12-09 11"},"coordinates":[5969,2922]},{"type":"Point","properties":{"Station_ID":"MA-HD-25","Station_Nam":"LUDLOW 2.3 SW, MA","Latitude":"42.14523","Longitude":"-72.51650","Snowdepth":"9.500","Units":"in","Rept_Date":"2019-12-09 13"},"coordinates":[5802,2811]},{"type":"Point","properties":{"Station_ID":"CT-HR-8","Station_Nam":"NORTH GRANBY 1.3 ENE, CT","Latitude":"42.02440","Longitude":"-72.82070","Snowdepth":"9.500","Units":"in","Rept_Date":"2019-12-09 12"},"coordinates":[5731,2720]},{"type":"Point","properties":{"Station_ID":"SOCQ6","Station_Nam":"SOCKET LAKE","Latitude":"50.77870","Longitude":"-91.79300","Snowdepth":"9.330","Units":"in","Rept_Date":"2019-12-10 06"},"coordinates":[1278,9288]},{"type":"Point","properties":{"Station_ID":"QGA","Station_Nam":"QGA","Latitude":"47.25640","Longitude":"-73.73810","Snowdepth":"9.252","Units":"in","Rept_Date":"2019-12-09 12"},"coordinates":[5515,6645]},{"type":"Point","properties":{"Station_ID":"QLP","Station_Nam":"QLP","Latitude":"48.13920","Longitude":"-72.63830","Snowdepth":"9.094","Units":"in","Rept_Date":"2019-12-09 12"},"coordinates":[5774,7307]},{"type":"Point","properties":{"Station_ID":"WTNM4","Station_Nam":"WATTON 2WSW","Latitude":"46.52660","Longitude":"-88.64240","Snowdepth":"9.000","Units":"in","Rept_Date":"2019-12-09 13"},"coordinates":[2017,6098]},{"type":"Point","properties":{"Station_ID":"WLKW3","Station_Nam":"WHITE LAKE 1 SE","Latitude":"45.14520","Longitude":"-88.74160","Snowdepth":"9.000","Units":"in","Rept_Date":"2019-12-09 14"},"coordinates":[1994,5061]},{"type":"Point","properties":{"Station_ID":"WLKM5","Station_Nam":"AH-GWAH-CHING","Latitude":"47.15000","Longitude":"-94.65000","Snowdepth":"9.000","Units":"in","Rept_Date":"2019-12-09 13"},"coordinates":[608,6565]},{"type":"Point","properties":{"Station_ID":"WI-ON-6","Station_Nam":"RHINELANDER 5.2 N, WI","Latitude":"45.71388","Longitude":"-89.42150","Snowdepth":"9.000","Units":"in","Rept_Date":"2019-12-09 14"},"coordinates":[1835,5488]},{"type":"Point","properties":{"Station_ID":"SULW3","Station_Nam":"SUMMIT LAKE","Latitude":"45.37880","Longitude":"-89.19410","Snowdepth":"9.000","Units":"in","Rept_Date":"2019-12-09 11"},"coordinates":[1888,5236]},{"type":"Point","properties":{"Station_ID":"STMM4","Station_Nam":"STAMBAUGH 2SSE","Latitude":"46.05550","Longitude":"-88.62780","Snowdepth":"9.000","Units":"in","Rept_Date":"2019-12-09 13"},"coordinates":[2021,5744]},{"type":"Point","properties":{"Station_ID":"SAUW3","Station_Nam":"WAUSAU WSAW TV","Latitude":"44.94630","Longitude":"-89.62220","Snowdepth":"9.000","Units":"in","Rept_Date":"2019-12-10 04"},"coordinates":[1788,4912]},{"type":"Point","properties":{"Station_ID":"RANM1","Station_Nam":"RANGELEY,ME","Latitude":"44.96670","Longitude":"-70.65000","Snowdepth":"9.000","Units":"in","Rept_Date":"2019-12-09 11"},"coordinates":[6240,4927]},{"type":"Point","properties":{"Station_ID":"PKFW3","Station_Nam":"PARK FALLS,WI","Latitude":"45.93360","Longitude":"-90.45060","Snowdepth":"9.000","Units":"in","Rept_Date":"2019-12-09 14"},"coordinates":[1593,5653]},{"type":"Point","properties":{"Station_ID":"PERV1","Station_Nam":"PERU","Latitude":"43.26670","Longitude":"-72.90000","Snowdepth":"9.000","Units":"in","Rept_Date":"2019-12-09 12"},"coordinates":[5712,3652]},{"type":"Point","properties":{"Station_ID":"OCON6","Station_Nam":"OSCEOLA","Latitude":"43.49910","Longitude":"-75.71210","Snowdepth":"9.000","Units":"in","Rept_Date":"2019-12-09 12"},"coordinates":[5052,3826]},{"type":"Point","properties":{"Station_ID":"NY-OT-29","Station_Nam":"NEW BERLIN 1.5 NE, NY","Latitude":"42.63689","Longitude":"-75.31090","Snowdepth":"9.000","Units":"in","Rept_Date":"2019-12-09 13"},"coordinates":[5146,3179]},{"type":"Point","properties":{"Station_ID":"NY-CR-1","Station_Nam":"FREETOWN 1.0 NE, NY","Latitude":"42.53299","Longitude":"-76.02111","Snowdepth":"9.000","Units":"in","Rept_Date":"2019-12-09 12"},"coordinates":[4980,3101]},{"type":"Point","properties":{"Station_ID":"NY-CB-1","Station_Nam":"HUDSON 8.2 S, NY","Latitude":"42.13349","Longitude":"-73.76790","Snowdepth":"9.000","Units":"in","Rept_Date":"2019-12-09 12"},"coordinates":[5508,2802]},{"type":"Point","properties":{"Station_ID":"NVLN6","Station_Nam":"NORTHVILLE","Latitude":"43.23330","Longitude":"-74.16670","Snowdepth":"9.000","Units":"in","Rept_Date":"2019-12-09 13"},"coordinates":[5415,3627]},{"type":"Point","properties":{"Station_ID":"NH-RC-48","Station_Nam":"NORTHWOOD 2.9 WSW, NH","Latitude":"43.20114","Longitude":"-71.25750","Snowdepth":"9.000","Units":"in","Rept_Date":"2019-12-09 12"},"coordinates":[6098,3603]},{"type":"Point","properties":{"Station_ID":"MN-SH-985","Station_Nam":"PRINCETON 3.3 WSW, MN","Latitude":"45.55211","Longitude":"-93.64481","Snowdepth":"9.000","Units":"in","Rept_Date":"2019-12-09 23"},"coordinates":[843,5366]},{"type":"Point","properties":{"Station_ID":"MN-SH-10","Station_Nam":"BIG LAKE 5.6 NNE, MN","Latitude":"45.41409","Longitude":"-93.69190","Snowdepth":"9.000","Units":"in","Rept_Date":"2019-12-09 13"},"coordinates":[832,5263]},{"type":"Point","properties":{"Station_ID":"MN-CV-40","Station_Nam":"EXCELSIOR 0.8 S, MN","Latitude":"44.88996","Longitude":"-93.56646","Snowdepth":"9.000","Units":"in","Rept_Date":"2019-12-09 13"},"coordinates":[862,4870]},{"type":"Point","properties":{"Station_ID":"MECN6","Station_Nam":"MECKLENBURG 4 SW","Latitude":"42.44220","Longitude":"-76.75740","Snowdepth":"9.000","Units":"in","Rept_Date":"2019-12-09 12"},"coordinates":[4807,3033]},{"type":"Point","properties":{"Station_ID":"MA-WR-41","Station_Nam":"AUBURN 2.6 SW, MA","Latitude":"42.17336","Longitude":"-71.86869","Snowdepth":"9.000","Units":"in","Rept_Date":"2019-12-09 13"},"coordinates":[5954,2832]},{"type":"Point","properties":{"Station_ID":"MA-MD-45","Station_Nam":"WILMINGTON 1.5 NE, MA","Latitude":"42.57302","Longitude":"-71.14417","Snowdepth":"9.000","Units":"in","Rept_Date":"2019-12-09 12"},"coordinates":[6124,3131]},{"type":"Point","properties":{"Station_ID":"MA-MD-156","Station_Nam":"MARLBOROUGH 2.8 ENE, MA","Latitude":"42.37021","Longitude":"-71.50011","Snowdepth":"9.000","Units":"in","Rept_Date":"2019-12-09 10"},"coordinates":[6041,2979]},{"type":"Point","properties":{"Station_ID":"MA-ES-48","Station_Nam":"ANDOVER 0.6 E, MA","Latitude":"42.65659","Longitude":"-71.13048","Snowdepth":"9.000","Units":"in","Rept_Date":"2019-12-09 09"},"coordinates":[6127,3194]},{"type":"Point","properties":{"Station_ID":"LNGM5","Station_Nam":"LONG PRAIRIE","Latitude":"45.96460","Longitude":"-94.88920","Snowdepth":"9.000","Units":"in","Rept_Date":"2019-12-09 12"},"coordinates":[551,5676]},{"type":"Point","properties":{"Station_ID":"LLLM3","Station_Nam":"LOWELL","Latitude":"42.64090","Longitude":"-71.36370","Snowdepth":"9.000","Units":"in","Rept_Date":"2019-12-09 11"},"coordinates":[6073,3182]},{"type":"Point","properties":{"Station_ID":"LEVM3","Station_Nam":"LEVERETT NO.2","Latitude":"42.44680","Longitude":"-72.53000","Snowdepth":"9.000","Units":"in","Rept_Date":"2019-12-09 12"},"coordinates":[5799,3037]},{"type":"Point","properties":{"Station_ID":"LBKV1","Station_Nam":"LYE BROOK","Latitude":"43.05000","Longitude":"-73.03330","Snowdepth":"9.000","Units":"in","Rept_Date":"2019-12-10 06"},"coordinates":[5681,3489]},{"type":"Point","properties":{"Station_ID":"HGHN6","Station_Nam":"HIGHMARKET","Latitude":"43.57520","Longitude":"-75.52070","Snowdepth":"9.000","Units":"in","Rept_Date":"2019-12-09 10"},"coordinates":[5097,3883]},{"type":"Point","properties":{"Station_ID":"GRFN8","Station_Nam":"UNIVERSITY","Latitude":"47.93330","Longitude":"-97.08330","Snowdepth":"9.000","Units":"in","Rept_Date":"2019-12-10 06"},"coordinates":[36,7153]},{"type":"Point","properties":{"Station_ID":"FISM1","Station_Nam":"FORT KENT COOP","Latitude":"47.23850","Longitude":"-68.61240","Snowdepth":"9.000","Units":"in","Rept_Date":"2019-12-09 12"},"coordinates":[6718,6632]},{"type":"Point","properties":{"Station_ID":"CMBM5","Station_Nam":"CAMBRIDGE","Latitude":"45.55640","Longitude":"-93.23480","Snowdepth":"9.000","Units":"in","Rept_Date":"2019-12-09 14"},"coordinates":[940,5370]},{"type":"Point","properties":{"Station_ID":"AUBN6","Station_Nam":"AUBURN","Latitude":"42.93270","Longitude":"-76.54470","Snowdepth":"9.000","Units":"in","Rept_Date":"2019-12-09 12"},"coordinates":[4857,3401]},{"type":"Point","properties":{"Station_ID":"ALB","Station_Nam":"ALBANY INTL AP","Latitude":"42.74810","Longitude":"-73.80330","Snowdepth":"9.000","Units":"in","Rept_Date":"2019-12-09 12"},"coordinates":[5500,3263]},{"type":"Point","properties":{"Station_ID":"AGNW3","Station_Nam":"ARGONNE-1.5 NW","Latitude":"45.67360","Longitude":"-88.90380","Snowdepth":"9.000","Units":"in","Rept_Date":"2019-12-09 13"},"coordinates":[1956,5458]},{"type":"Point","properties":{"Station_ID":"QIQ","Station_Nam":"QIQ","Latitude":"49.82390","Longitude":"-68.54310","Snowdepth":"8.543","Units":"in","Rept_Date":"2019-12-09 12"},"coordinates":[6735,8571]},{"type":"Point","properties":{"Station_ID":"VT-WH-25","Station_Nam":"PUTNEY 0.7 NE, VT","Latitude":"42.98326","Longitude":"-72.51215","Snowdepth":"8.500","Units":"in","Rept_Date":"2019-12-09 13"},"coordinates":[5803,3439]},{"type":"Point","properties":{"Station_ID":"VT-OL-12","Station_Nam":"GREENSBORO 3.9 NNE, VT","Latitude":"44.63100","Longitude":"-72.28000","Snowdepth":"8.500","Units":"in","Rept_Date":"2019-12-09 11"},"coordinates":[5858,4675]},{"type":"Point","properties":{"Station_ID":"NY-OD-19","Station_Nam":"NEW HARTFORD 0.8 S, NY","Latitude":"43.06182","Longitude":"-75.28990","Snowdepth":"8.500","Units":"in","Rept_Date":"2019-12-09 12"},"coordinates":[5151,3498]},{"type":"Point","properties":{"Station_ID":"NY-DT-24","Station_Nam":"RED HOOK 1.2 NNE, NY","Latitude":"42.00967","Longitude":"-73.86419","Snowdepth":"8.500","Units":"in","Rept_Date":"2019-12-09 12"},"coordinates":[5486,2709]},{"type":"Point","properties":{"Station_ID":"MN-OT-3","Station_Nam":"BATTLE LAKE 2S, MN","Latitude":"46.25833","Longitude":"-95.71470","Snowdepth":"8.500","Units":"in","Rept_Date":"2019-12-09 13"},"coordinates":[358,5896]},{"type":"Point","properties":{"Station_ID":"MN-BK-10","Station_Nam":"DETROIT LAKES 5.7 N, MN","Latitude":"46.88666","Longitude":"-95.84444","Snowdepth":"8.500","Units":"in","Rept_Date":"2019-12-09 10"},"coordinates":[327,6368]},{"type":"Point","properties":{"Station_ID":"MA-MD-107","Station_Nam":"FRAMINGHAM 1.7 E, MA","Latitude":"42.30516","Longitude":"-71.40471","Snowdepth":"8.500","Units":"in","Rept_Date":"2019-12-09 13"},"coordinates":[6063,2931]},{"type":"Point","properties":{"Station_ID":"MA-BE-3","Station_Nam":"STOCKBRIDGE .2 NNE, MA","Latitude":"42.28983","Longitude":"-73.31950","Snowdepth":"8.500","Units":"in","Rept_Date":"2019-12-09 11"},"coordinates":[5614,2919]},{"type":"Point","properties":{"Station_ID":"CT-LT-15","Station_Nam":"COLEBROOK 1.0 NE, CT","Latitude":"42.00200","Longitude":"-73.08250","Snowdepth":"8.500","Units":"in","Rept_Date":"2019-12-09 12"},"coordinates":[5669,2703]},{"type":"Point","properties":{"Station_ID":"NY-AB-47","Station_Nam":"DELMAR 1.0 S, NY","Latitude":"42.61013","Longitude":"-73.83172","Snowdepth":"8.400","Units":"in","Rept_Date":"2019-12-09 12"},"coordinates":[5493,3159]},{"type":"Point","properties":{"Station_ID":"MA-MD-42","Station_Nam":"HOLLISTON 0.8 S, MA","Latitude":"42.18820","Longitude":"-71.43390","Snowdepth":"8.200","Units":"in","Rept_Date":"2019-12-09 12"},"coordinates":[6056,2843]},{"type":"Point","properties":{"Station_ID":"ZNOM4","Station_Nam":"NORWAY","Latitude":"45.77810","Longitude":"-87.89560","Snowdepth":"8.000","Units":"in","Rept_Date":"2019-12-09 13"},"coordinates":[2193,5536]},{"type":"Point","properties":{"Station_ID":"WLDM5","Station_Nam":"WILD RIVER STATE PARK","Latitude":"45.52310","Longitude":"-92.74890","Snowdepth":"8.000","Units":"in","Rept_Date":"2019-12-09 14"},"coordinates":[1054,5345]},{"type":"Point","properties":{"Station_ID":"WI-DN-1","Station_Nam":"BOYCEVILLE 3.3 N, WI","Latitude":"45.08913","Longitude":"-92.02760","Snowdepth":"8.000","Units":"in","Rept_Date":"2019-12-09 13"},"coordinates":[1223,5019]},{"type":"Point","properties":{"Station_ID":"VT-WR-17","Station_Nam":"ROCHESTER 2.3 NE, VT","Latitude":"43.89418","Longitude":"-72.76992","Snowdepth":"8.000","Units":"in","Rept_Date":"2019-12-09 12"},"coordinates":[5743,4123]},{"type":"Point","properties":{"Station_ID":"SURN3","Station_Nam":"SURRY MOUNTAIN LAKE","Latitude":"42.99630","Longitude":"-72.31310","Snowdepth":"8.000","Units":"in","Rept_Date":"2019-12-09 12"},"coordinates":[5850,3449]},{"type":"Point","properties":{"Station_ID":"PTBN3","Station_Nam":"DAM WITHIN","Latitude":"45.05000","Longitude":"-71.38330","Snowdepth":"8.000","Units":"in","Rept_Date":"2019-12-09 12"},"coordinates":[6068,4990]},{"type":"Point","properties":{"Station_ID":"PSM","Station_Nam":"PEASE INTL TRADEPORT AP","Latitude":"43.07810","Longitude":"-70.82330","Snowdepth":"8.000","Units":"in","Rept_Date":"2019-12-09 12"},"coordinates":[6199,3510]},{"type":"Point","properties":{"Station_ID":"OTTN3","Station_Nam":"OTTER BROOK LAKE","Latitude":"42.95000","Longitude":"-72.23330","Snowdepth":"8.000","Units":"in","Rept_Date":"2019-12-09 12"},"coordinates":[5869,3414]},{"type":"Point","properties":{"Station_ID":"ORAN3","Station_Nam":"ORANGE","Latitude":"43.66880","Longitude":"-71.94830","Snowdepth":"8.000","Units":"in","Rept_Date":"2019-12-09 12"},"coordinates":[5935,3954]},{"type":"Point","properties":{"Station_ID":"NY-OT-4","Station_Nam":"BRIDGEWATER 4.3 SSE, NY","Latitude":"42.81667","Longitude":"-75.23330","Snowdepth":"8.000","Units":"in","Rept_Date":"2019-12-09 12"},"coordinates":[5164,3314]},{"type":"Point","properties":{"Station_ID":"NY-CN-9","Station_Nam":"NORWICH 5.4 W, NY","Latitude":"42.53356","Longitude":"-75.63060","Snowdepth":"8.000","Units":"in","Rept_Date":"2019-12-09 12"},"coordinates":[5071,3102]},{"type":"Point","properties":{"Station_ID":"NH-MR-60","Station_Nam":"SOUTH SUTTON 1.3 SE, NH","Latitude":"43.29531","Longitude":"-71.90238","Snowdepth":"8.000","Units":"in","Rept_Date":"2019-12-09 13"},"coordinates":[5946,3673]},{"type":"Point","properties":{"Station_ID":"MTQM4","Station_Nam":"MANISTIQUE WWTP","Latitude":"45.95120","Longitude":"-86.25130","Snowdepth":"8.000","Units":"in","Rept_Date":"2019-12-09 12"},"coordinates":[2579,5666]},{"type":"Point","properties":{"Station_ID":"MRAM4","Station_Nam":"MORAN","Latitude":"45.99030","Longitude":"-84.83610","Snowdepth":"8.000","Units":"in","Rept_Date":"2019-12-09 13"},"coordinates":[2911,5695]},{"type":"Point","properties":{"Station_ID":"MN7M8EBJ","Station_Nam":"LUTSEN 15.7 NNW","Latitude":"47.85324","Longitude":"-89.92908","Snowdepth":"8.000","Units":"in","Rept_Date":"2019-12-09 14"},"coordinates":[1715,7093]},{"type":"Point","properties":{"Station_ID":"MN-PK-2","Station_Nam":"ERSKINE 7.6 SW, MN","Latitude":"47.58559","Longitude":"-96.12790","Snowdepth":"8.000","Units":"in","Rept_Date":"2019-12-09 14"},"coordinates":[261,6892]},{"type":"Point","properties":{"Station_ID":"MN-ML-1","Station_Nam":"ONAMIA 4.3 NW, MN","Latitude":"46.10883","Longitude":"-93.73890","Snowdepth":"8.000","Units":"in","Rept_Date":"2019-12-09 13"},"coordinates":[821,5784]},{"type":"Point","properties":{"Station_ID":"MN-DS-9","Station_Nam":"ALEXANDRIA 0.5 W, MN","Latitude":"45.87828","Longitude":"-95.38273","Snowdepth":"8.000","Units":"in","Rept_Date":"2019-12-09 12"},"coordinates":[436,5611]},{"type":"Point","properties":{"Station_ID":"MN-CK-18","Station_Nam":"GRAND MARAIS 4.4 WSW, MN","Latitude":"47.74462","Longitude":"-90.43796","Snowdepth":"8.000","Units":"in","Rept_Date":"2019-12-09 13"},"coordinates":[1596,7011]},{"type":"Point","properties":{"Station_ID":"MIEM4","Station_Nam":"MICHIGAMME 3WNW","Latitude":"46.54530","Longitude":"-88.18000","Snowdepth":"8.000","Units":"in","Rept_Date":"2019-12-09 13"},"coordinates":[2126,6112]},{"type":"Point","properties":{"Station_ID":"MI-HG-13","Station_Nam":"HOUGHTON 1.2 WNW, MI","Latitude":"47.12035","Longitude":"-88.58525","Snowdepth":"8.000","Units":"in","Rept_Date":"2019-12-09 13"},"coordinates":[2031,6543]},{"type":"Point","properties":{"Station_ID":"MI-DL-4","Station_Nam":"GLADSTONE 2.1 SW, MI","Latitude":"45.83218","Longitude":"-87.05727","Snowdepth":"8.000","Units":"in","Rept_Date":"2019-12-09 12"},"coordinates":[2389,5577]},{"type":"Point","properties":{"Station_ID":"MA-MD-51","Station_Nam":"MAYNARD 0.7 ESE, MA","Latitude":"42.42027","Longitude":"-71.44484","Snowdepth":"8.000","Units":"in","Rept_Date":"2019-12-09 12"},"coordinates":[6054,3017]},{"type":"Point","properties":{"Station_ID":"MA-MD-12","Station_Nam":"ACTON 1.3 SW, MA","Latitude":"42.46746","Longitude":"-71.48200","Snowdepth":"8.000","Units":"in","Rept_Date":"2019-12-09 12"},"coordinates":[6045,3052]},{"type":"Point","properties":{"Station_ID":"MA-BE-11","Station_Nam":"GREAT BARRINGTON 3.0 N, MA","Latitude":"42.23790","Longitude":"-73.35030","Snowdepth":"8.000","Units":"in","Rept_Date":"2019-12-09 12"},"coordinates":[5606,2880]},{"type":"Point","properties":{"Station_ID":"LPLN6","Station_Nam":"LAKE PLACID 2 S","Latitude":"44.30420","Longitude":"-73.98390","Snowdepth":"8.000","Units":"in","Rept_Date":"2019-12-09 11"},"coordinates":[5458,4430]},{"type":"Point","properties":{"Station_ID":"LGRN8","Station_Nam":"LIDGERWOOD,ND","Latitude":"46.06670","Longitude":"-97.16670","Snowdepth":"8.000","Units":"in","Rept_Date":"2019-12-09 13"},"coordinates":[17,5753]},{"type":"Point","properties":{"Station_ID":"LADW3","Station_Nam":"LADYSMITH WTP","Latitude":"45.44290","Longitude":"-91.08970","Snowdepth":"8.000","Units":"in","Rept_Date":"2019-12-09 13"},"coordinates":[1443,5285]},{"type":"Point","properties":{"Station_ID":"KEEN3","Station_Nam":"KEENE","Latitude":"42.93900","Longitude":"-72.32470","Snowdepth":"8.000","Units":"in","Rept_Date":"2019-12-09 11"},"coordinates":[5847,3406]},{"type":"Point","properties":{"Station_ID":"KALB","Station_Nam":"ALBANY INTERNATIONAL AIRPORT","Latitude":"42.75000","Longitude":"-73.80000","Snowdepth":"8.000","Units":"in","Rept_Date":"2019-12-10 00"},"coordinates":[5501,3264]},{"type":"Point","properties":{"Station_ID":"JOHV1","Station_Nam":"JOHNSON 2 N","Latitude":"44.65790","Longitude":"-72.67850","Snowdepth":"8.000","Units":"in","Rept_Date":"2019-12-09 12"},"coordinates":[5764,4696]},{"type":"Point","properties":{"Station_ID":"JKMM1","Station_Nam":"JACKMAN","Latitude":"45.62600","Longitude":"-70.24600","Snowdepth":"8.000","Units":"in","Rept_Date":"2019-12-09 12"},"coordinates":[6335,5422]},{"type":"Point","properties":{"Station_ID":"JEFN3","Station_Nam":"JEFFERSON","Latitude":"44.41690","Longitude":"-71.50080","Snowdepth":"8.000","Units":"in","Rept_Date":"2019-12-09 12"},"coordinates":[6040,4515]},{"type":"Point","properties":{"Station_ID":"GRFM3","Station_Nam":"GREENFIELD NO. 3","Latitude":"42.57190","Longitude":"-72.59750","Snowdepth":"8.000","Units":"in","Rept_Date":"2019-12-09 12"},"coordinates":[5783,3131]},{"type":"Point","properties":{"Station_ID":"GFDN6","Station_Nam":"CHASES LAKE","Latitude":"43.75920","Longitude":"-75.29980","Snowdepth":"8.000","Units":"in","Rept_Date":"2019-12-09 11"},"coordinates":[5149,4021]},{"type":"Point","properties":{"Station_ID":"FDRN8","Station_Nam":"FARGO 3S","Latitude":"46.82930","Longitude":"-96.79620","Snowdepth":"8.000","Units":"in","Rept_Date":"2019-12-10 06"},"coordinates":[104,6325]},{"type":"Point","properties":{"Station_ID":"FAR","Station_Nam":"HECTOR INTERNATIONAL ARPT","Latitude":"46.91560","Longitude":"-96.81440","Snowdepth":"8.000","Units":"in","Rept_Date":"2019-12-10 00"},"coordinates":[100,6389]},{"type":"Point","properties":{"Station_ID":"CT-LT-9","Station_Nam":"NEW HARTFORD CENTER 3.2 SW, CT","Latitude":"41.84170","Longitude":"-73.00920","Snowdepth":"8.000","Units":"in","Rept_Date":"2019-12-09 12"},"coordinates":[5686,2583]},{"type":"Point","properties":{"Station_ID":"CRNM5","Station_Nam":"NW EXPERIMENT STN","Latitude":"47.80360","Longitude":"-96.61670","Snowdepth":"8.000","Units":"in","Rept_Date":"2019-12-09 14"},"coordinates":[146,7056]},{"type":"Point","properties":{"Station_ID":"COKM5","Station_Nam":"COOK","Latitude":"47.85060","Longitude":"-92.69250","Snowdepth":"8.000","Units":"in","Rept_Date":"2019-12-09 12"},"coordinates":[1067,7091]},{"type":"Point","properties":{"Station_ID":"BOON6","Station_Nam":"BOONVILLE 4 SSW","Latitude":"43.43610","Longitude":"-75.36970","Snowdepth":"8.000","Units":"in","Rept_Date":"2019-12-09 12"},"coordinates":[5132,3779]},{"type":"Point","properties":{"Station_ID":"BALW3","Station_Nam":"BALDWIN","Latitude":"44.96330","Longitude":"-92.39050","Snowdepth":"8.000","Units":"in","Rept_Date":"2019-12-09 13"},"coordinates":[1138,4925]},{"type":"Point","properties":{"Station_ID":"BAKC3","Station_Nam":"BAKERSVILLE","Latitude":"41.84180","Longitude":"-73.00850","Snowdepth":"8.000","Units":"in","Rept_Date":"2019-12-09 12"},"coordinates":[5687,2583]},{"type":"Point","properties":{"Station_ID":"ANTW3","Station_Nam":"ANTIGO,WI","Latitude":"45.13330","Longitude":"-89.15000","Snowdepth":"8.000","Units":"in","Rept_Date":"2019-12-09 14"},"coordinates":[1898,5052]},{"type":"Point","properties":{"Station_ID":"ANDM1","Station_Nam":"ANDOVER 2","Latitude":"44.65300","Longitude":"-70.79410","Snowdepth":"8.000","Units":"in","Rept_Date":"2019-12-09 11"},"coordinates":[6206,4692]},{"type":"Point","properties":{"Station_ID":"KABQ6","Station_Nam":"CAB LAKE","Latitude":"49.59950","Longitude":"-89.17990","Snowdepth":"7.950","Units":"in","Rept_Date":"2019-12-10 06"},"coordinates":[1891,8403]},{"type":"Point","properties":{"Station_ID":"FTHQ6","Station_Nam":"FORT HOPE","Latitude":"51.55820","Longitude":"-87.90510","Snowdepth":"7.720","Units":"in","Rept_Date":"2019-12-10 06"},"coordinates":[2191,9872]},{"type":"Point","properties":{"Station_ID":"WI-CH-8","Station_Nam":"CHIPPEWA FALLS 4.4 NE, WI","Latitude":"44.98480","Longitude":"-91.33910","Snowdepth":"7.500","Units":"in","Rept_Date":"2019-12-09 14"},"coordinates":[1385,4941]},{"type":"Point","properties":{"Station_ID":"NY-TG-15","Station_Nam":"BERKSHIRE 1.9 ENE, NY","Latitude":"42.31910","Longitude":"-76.21940","Snowdepth":"7.500","Units":"in","Rept_Date":"2019-12-09 13"},"coordinates":[4933,2941]},{"type":"Point","properties":{"Station_ID":"NY-RN-24","Station_Nam":"NASSAU 4.2 ESE, NY","Latitude":"42.49091","Longitude":"-73.53462","Snowdepth":"7.500","Units":"in","Rept_Date":"2019-12-09 12"},"coordinates":[5563,3070]},{"type":"Point","properties":{"Station_ID":"NY-OT-11","Station_Nam":"HARTWICK, NY","Latitude":"42.65990","Longitude":"-75.05000","Snowdepth":"7.500","Units":"in","Rept_Date":"2019-12-09 12"},"coordinates":[5208,3197]},{"type":"Point","properties":{"Station_ID":"NY-OD-63","Station_Nam":"UTICA 2.6 ENE, NY","Latitude":"43.11209","Longitude":"-75.18019","Snowdepth":"7.500","Units":"in","Rept_Date":"2019-12-09 13"},"coordinates":[5177,3536]},{"type":"Point","properties":{"Station_ID":"NY-DT-37","Station_Nam":"RHINEBECK 3.4 N, NY","Latitude":"41.97735","Longitude":"-73.90559","Snowdepth":"7.500","Units":"in","Rept_Date":"2019-12-09 11"},"coordinates":[5476,2685]},{"type":"Point","properties":{"Station_ID":"NY-BM-34","Station_Nam":"VESTAL 3.2 E, NY","Latitude":"42.08258","Longitude":"-75.99120","Snowdepth":"7.500","Units":"in","Rept_Date":"2019-12-09 12"},"coordinates":[4987,2764]},{"type":"Point","properties":{"Station_ID":"NY-BM-14","Station_Nam":"WHITNEY POINT 1.7 SSE, NY","Latitude":"42.30837","Longitude":"-75.95690","Snowdepth":"7.500","Units":"in","Rept_Date":"2019-12-09 12"},"coordinates":[4995,2933]},{"type":"Point","properties":{"Station_ID":"NH-MR-6","Station_Nam":"DANBURY 2.2 ESE, NH","Latitude":"43.52000","Longitude":"-71.81900","Snowdepth":"7.500","Units":"in","Rept_Date":"2019-12-09 13"},"coordinates":[5966,3842]},{"type":"Point","properties":{"Station_ID":"NH-MR-4","Station_Nam":"BOW 1.6 NW, NH","Latitude":"43.14994","Longitude":"-71.55650","Snowdepth":"7.500","Units":"in","Rept_Date":"2019-12-09 12"},"coordinates":[6027,3564]},{"type":"Point","properties":{"Station_ID":"MN-WR-40","Station_Nam":"CLEARWATER 5.4 SSE, MN","Latitude":"45.34795","Longitude":"-94.03374","Snowdepth":"7.500","Units":"in","Rept_Date":"2019-12-09 14"},"coordinates":[752,5213]},{"type":"Point","properties":{"Station_ID":"MN-RM-56","Station_Nam":"ROSEVILLE 1.6 NW, MN","Latitude":"45.03303","Longitude":"-93.17523","Snowdepth":"7.500","Units":"in","Rept_Date":"2019-12-09 15"},"coordinates":[954,4977]},{"type":"Point","properties":{"Station_ID":"MN-MC-16","Station_Nam":"HUTCHINSON 0.1 ENE, MN","Latitude":"44.88633","Longitude":"-94.37503","Snowdepth":"7.500","Units":"in","Rept_Date":"2019-12-09 13"},"coordinates":[672,4867]},{"type":"Point","properties":{"Station_ID":"MN-AA-54","Station_Nam":"ANOKA 1.3 SSE, MN","Latitude":"45.19465","Longitude":"-93.37489","Snowdepth":"7.500","Units":"in","Rept_Date":"2019-12-09 13"},"coordinates":[907,5098]},{"type":"Point","properties":{"Station_ID":"ME-YK-28","Station_Nam":"BIDDEFORD 1.5 NNE, ME","Latitude":"43.48679","Longitude":"-70.43470","Snowdepth":"7.500","Units":"in","Rept_Date":"2019-12-09 12"},"coordinates":[6291,3817]},{"type":"Point","properties":{"Station_ID":"ME-SM-3","Station_Nam":"PALMYRA 3.5 NW, ME","Latitude":"44.87180","Longitude":"-69.41952","Snowdepth":"7.500","Units":"in","Rept_Date":"2019-12-09 12"},"coordinates":[6529,4856]},{"type":"Point","properties":{"Station_ID":"ME-FR-22","Station_Nam":"FARMINGTON 4.8 NNW, ME","Latitude":"44.73396","Longitude":"-70.18007","Snowdepth":"7.500","Units":"in","Rept_Date":"2019-12-09 14"},"coordinates":[6350,4753]},{"type":"Point","properties":{"Station_ID":"MA-WR-28","Station_Nam":"BERLIN 1.3 WSW, MA","Latitude":"42.37750","Longitude":"-71.65830","Snowdepth":"7.500","Units":"in","Rept_Date":"2019-12-09 13"},"coordinates":[6004,2985]},{"type":"Point","properties":{"Station_ID":"MA-MD-158","Station_Nam":"SHERBORN 1.1 NW, MA","Latitude":"42.24460","Longitude":"-71.38130","Snowdepth":"7.500","Units":"in","Rept_Date":"2019-12-09 10"},"coordinates":[6069,2885]},{"type":"Point","properties":{"Station_ID":"CATQ6","Station_Nam":"CAT LAKE","Latitude":"51.72690","Longitude":"-91.82210","Snowdepth":"7.130","Units":"in","Rept_Date":"2019-12-10 06"},"coordinates":[1271,9999]},{"type":"Point","properties":{"Station_ID":"WMRM5","Station_Nam":"WILLMAR 5N","Latitude":"45.19010","Longitude":"-95.05860","Snowdepth":"7.000","Units":"in","Rept_Date":"2019-12-09 12"},"coordinates":[512,5095]},{"type":"Point","properties":{"Station_ID":"VT-WS-10","Station_Nam":"NORTHFIELD 1.5 N, VT","Latitude":"44.16986","Longitude":"-72.65200","Snowdepth":"7.000","Units":"in","Rept_Date":"2019-12-09 12"},"coordinates":[5770,4329]},{"type":"Point","properties":{"Station_ID":"VT-WR-2","Station_Nam":"POMFRET 2.6 N, VT","Latitude":"43.74230","Longitude":"-72.52550","Snowdepth":"7.000","Units":"in","Rept_Date":"2019-12-09 12"},"coordinates":[5800,4009]},{"type":"Point","properties":{"Station_ID":"VT-WH-17","Station_Nam":"ROCKINGHAM 1.1 NNE, VT","Latitude":"43.20388","Longitude":"-72.48222","Snowdepth":"7.000","Units":"in","Rept_Date":"2019-12-09 13"},"coordinates":[5810,3605]},{"type":"Point","properties":{"Station_ID":"TOPM1","Station_Nam":"TOPSFIELD","Latitude":"45.43470","Longitude":"-67.72020","Snowdepth":"7.000","Units":"in","Rept_Date":"2019-12-09 12"},"coordinates":[6928,5278]},{"type":"Point","properties":{"Station_ID":"STIM4","Station_Nam":"ST IGNACE","Latitude":"45.86080","Longitude":"-84.71960","Snowdepth":"7.000","Units":"in","Rept_Date":"2019-12-09 12"},"coordinates":[2938,5598]},{"type":"Point","properties":{"Station_ID":"SIBI4","Station_Nam":"SIBLEY","Latitude":"43.40470","Longitude":"-95.74830","Snowdepth":"7.000","Units":"in","Rept_Date":"2019-12-09 13"},"coordinates":[350,3755]},{"type":"Point","properties":{"Station_ID":"SCRW3","Station_Nam":"ST CROIX FALLS","Latitude":"45.41170","Longitude":"-92.64660","Snowdepth":"7.000","Units":"in","Rept_Date":"2019-12-09 13"},"coordinates":[1078,5261]},{"type":"Point","properties":{"Station_ID":"SBRM3","Station_Nam":"SOUTHBRIDGE","Latitude":"42.05830","Longitude":"-72.07210","Snowdepth":"7.000","Units":"in","Rept_Date":"2019-12-09 12"},"coordinates":[5906,2745]},{"type":"Point","properties":{"Station_ID":"RHI","Station_Nam":"RHINELANDER-ONEIDA COUNTY AIRPORT","Latitude":"45.63080","Longitude":"-89.46530","Snowdepth":"7.000","Units":"in","Rept_Date":"2019-12-09 12"},"coordinates":[1824,5426]},{"type":"Point","properties":{"Station_ID":"REAM3","Station_Nam":"READING","Latitude":"42.52400","Longitude":"-71.12490","Snowdepth":"7.000","Units":"in","Rept_Date":"2019-12-09 12"},"coordinates":[6129,3095]},{"type":"Point","properties":{"Station_ID":"RCEM5","Station_Nam":"RICE","Latitude":"45.75760","Longitude":"-94.20720","Snowdepth":"7.000","Units":"in","Rept_Date":"2019-12-09 13"},"coordinates":[711,5521]},{"type":"Point","properties":{"Station_ID":"PLEP1","Station_Nam":"PLEASANT MOUNT 1 W","Latitude":"41.73940","Longitude":"-75.44650","Snowdepth":"7.000","Units":"in","Rept_Date":"2019-12-09 19"},"coordinates":[5114,2506]},{"type":"Point","properties":{"Station_ID":"OXFM3","Station_Nam":"BUFFUMVILLE LAKE","Latitude":"42.11630","Longitude":"-71.90740","Snowdepth":"7.000","Units":"in","Rept_Date":"2019-12-09 12"},"coordinates":[5945,2789]},{"type":"Point","properties":{"Station_ID":"NY-WS-8","Station_Nam":"GRANVILLE 9.5 SW, NY","Latitude":"43.31163","Longitude":"-73.39613","Snowdepth":"7.000","Units":"in","Rept_Date":"2019-12-09 12"},"coordinates":[5596,3686]},{"type":"Point","properties":{"Station_ID":"NY-OG-61","Station_Nam":"SKANEATELES 0.8 NNW, NY","Latitude":"42.95538","Longitude":"-76.43362","Snowdepth":"7.000","Units":"in","Rept_Date":"2019-12-09 12"},"coordinates":[4883,3418]},{"type":"Point","properties":{"Station_ID":"NY-HR-16","Station_Nam":"ILION 0.7 WSW, NY","Latitude":"43.00880","Longitude":"-75.05390","Snowdepth":"7.000","Units":"in","Rept_Date":"2019-12-09 12"},"coordinates":[5207,3458]},{"type":"Point","properties":{"Station_ID":"NY-FK-7","Station_Nam":"SARANAC LAKE 6.2 N, NY","Latitude":"44.41359","Longitude":"-74.15211","Snowdepth":"7.000","Units":"in","Rept_Date":"2019-12-09 12"},"coordinates":[5418,4512]},{"type":"Point","properties":{"Station_ID":"NY-ES-6","Station_Nam":"OLMSTEDVILLE 4.6 NNE, NY","Latitude":"43.83350","Longitude":"-73.89780","Snowdepth":"7.000","Units":"in","Rept_Date":"2019-12-09 13"},"coordinates":[5478,4077]},{"type":"Point","properties":{"Station_ID":"NY-DL-25","Station_Nam":"HOBART 4.8 ESE, NY","Latitude":"42.35230","Longitude":"-74.57830","Snowdepth":"7.000","Units":"in","Rept_Date":"2019-12-09 12"},"coordinates":[5318,2966]},{"type":"Point","properties":{"Station_ID":"NY-CR-5","Station_Nam":"MARATHON 1.0 NW, NY","Latitude":"42.45161","Longitude":"-76.04370","Snowdepth":"7.000","Units":"in","Rept_Date":"2019-12-09 12"},"coordinates":[4974,3040]},{"type":"Point","properties":{"Station_ID":"NRWN6","Station_Nam":"NORWICH","Latitude":"42.51170","Longitude":"-75.51970","Snowdepth":"7.000","Units":"in","Rept_Date":"2019-12-09 12"},"coordinates":[5097,3085]},{"type":"Point","properties":{"Station_ID":"NH-MR-25","Station_Nam":"CHICHESTER 2.7 SSW, NH","Latitude":"43.21150","Longitude":"-71.41430","Snowdepth":"7.000","Units":"in","Rept_Date":"2019-12-09 12"},"coordinates":[6061,3610]},{"type":"Point","properties":{"Station_ID":"NFKC3","Station_Nam":"NORFOLK","Latitude":"41.97250","Longitude":"-73.22080","Snowdepth":"7.000","Units":"in","Rept_Date":"2019-12-09 13"},"coordinates":[5637,2681]},{"type":"Point","properties":{"Station_ID":"NCBN6","Station_Nam":"NEWCOMB","Latitude":"43.97070","Longitude":"-74.22200","Snowdepth":"7.000","Units":"in","Rept_Date":"2019-12-09 12"},"coordinates":[5402,4180]},{"type":"Point","properties":{"Station_ID":"MXON6","Station_Nam":"MEXICO","Latitude":"43.43830","Longitude":"-76.26560","Snowdepth":"7.000","Units":"in","Rept_Date":"2019-12-09 12"},"coordinates":[4922,3781]},{"type":"Point","properties":{"Station_ID":"MSP","Station_Nam":"MINNEAPOLIS-ST PAUL INTL AP","Latitude":"44.88310","Longitude":"-93.22890","Snowdepth":"7.000","Units":"in","Rept_Date":"2019-12-10 00"},"coordinates":[941,4865]},{"type":"Point","properties":{"Station_ID":"MN-MC-5","Station_Nam":"GLENCOE 0.3 WSW, MN","Latitude":"44.76834","Longitude":"-94.15580","Snowdepth":"7.000","Units":"in","Rept_Date":"2019-12-09 14"},"coordinates":[724,4778]},{"type":"Point","properties":{"Station_ID":"MN-HN-181","Station_Nam":"MINNEAPOLIS 0.4 NE, MN","Latitude":"44.96708","Longitude":"-93.26222","Snowdepth":"7.000","Units":"in","Rept_Date":"2019-12-09 13"},"coordinates":[933,4928]},{"type":"Point","properties":{"Station_ID":"MN-HB-7","Station_Nam":"LAPORTE 3.7 WNW, MN","Latitude":"47.23770","Longitude":"-94.82758","Snowdepth":"7.000","Units":"in","Rept_Date":"2019-12-09 14"},"coordinates":[566,6631]},{"type":"Point","properties":{"Station_ID":"MN-CK-6","Station_Nam":"GRAND MARAIS 4.4 W, MN","Latitude":"47.74865","Longitude":"-90.43760","Snowdepth":"7.000","Units":"in","Rept_Date":"2019-12-09 13"},"coordinates":[1596,7014]},{"type":"Point","properties":{"Station_ID":"MI-OT-17","Station_Nam":"GAYLORD 4.1 S, MI","Latitude":"44.96388","Longitude":"-84.68467","Snowdepth":"7.000","Units":"in","Rept_Date":"2019-12-09 12"},"coordinates":[2946,4925]},{"type":"Point","properties":{"Station_ID":"MI-MC-4","Station_Nam":"ST. IGNACE 0.5SE, MI","Latitude":"45.86057","Longitude":"-84.71980","Snowdepth":"7.000","Units":"in","Rept_Date":"2019-12-09 12"},"coordinates":[2938,5598]},{"type":"Point","properties":{"Station_ID":"MA-WR-42","Station_Nam":"NORTHBOROUGH 2.3 N, MA","Latitude":"42.34535","Longitude":"-71.64390","Snowdepth":"7.000","Units":"in","Rept_Date":"2019-12-09 12"},"coordinates":[6007,2961]},{"type":"Point","properties":{"Station_ID":"MA-MD-89","Station_Nam":"SUDBURY 3.6 W, MA","Latitude":"42.36394","Longitude":"-71.47012","Snowdepth":"7.000","Units":"in","Rept_Date":"2019-12-09 12"},"coordinates":[6048,2975]},{"type":"Point","properties":{"Station_ID":"MA-MD-52","Station_Nam":"LEXINGTON 0.6 SW, MA","Latitude":"42.43983","Longitude":"-71.24047","Snowdepth":"7.000","Units":"in","Rept_Date":"2019-12-09 12"},"coordinates":[6102,3032]},{"type":"Point","properties":{"Station_ID":"LOWN6","Station_Nam":"LOWVILLE","Latitude":"43.79280","Longitude":"-75.48290","Snowdepth":"7.000","Units":"in","Rept_Date":"2019-12-09 12"},"coordinates":[5106,4047]},{"type":"Point","properties":{"Station_ID":"KMSP","Station_Nam":"MINNEAPOLIS-ST PAUL INTERNATIONAL","Latitude":"44.86666","Longitude":"-93.21666","Snowdepth":"7.000","Units":"in","Rept_Date":"2019-12-10 00"},"coordinates":[944,4852]},{"type":"Point","properties":{"Station_ID":"KIMM5","Station_Nam":"KIMBALL 3N","Latitude":"45.35330","Longitude":"-94.30560","Snowdepth":"7.000","Units":"in","Rept_Date":"2019-12-09 12"},"coordinates":[688,5217]},