{"type":"Topology","objects":{"snowdepth_geo":{"type":"GeometryCollection","geometries":[{"type":"Point","coordinates":[-72.8154,44.5248],"properties":{"Station_ID":"MMNV1","Station_Nam":"MT. MANSFIELD","Latitude":"44.52480","Longitude":"-72.81540","Snowdepth":"80.000","Units":"in","Rept_Date":"2025-03-17 20"}},{"type":"Point","coordinates":[-86.62,46.4258],"properties":{"Station_ID":"PRKM4","Station_Nam":"MUNISING EAST","Latitude":"46.42580","Longitude":"-86.62000","Snowdepth":"76.500","Units":"in","Rept_Date":"2025-03-18 06"}},{"type":"Point","coordinates":[-71.2779,44.2663],"properties":{"Station_ID":"HVCN3","Station_Nam":"HARVARD CABIN SNOWPLOT","Latitude":"44.26630","Longitude":"-71.27790","Snowdepth":"41.000","Units":"in","Rept_Date":"2025-03-17 09"}},{"type":"Point","coordinates":[-71.2833,44.2613],"properties":{"Station_ID":"HTLN3","Station_Nam":"HERMIT LAKE SNOWPLOT","Latitude":"44.26130","Longitude":"-71.28330","Snowdepth":"37.000","Units":"in","Rept_Date":"2025-03-17 09"}},{"type":"Point","coordinates":[-69.6747,50.7925],"properties":{"Station_ID":"CQOU","Station_Nam":"CQOU","Latitude":"50.79250","Longitude":"-69.67470","Snowdepth":"36.772","Units":"in","Rept_Date":"2025-03-17 12"}},{"type":"Point","coordinates":[-68.8236,50.6617],"properties":{"Station_ID":"CMLZ","Station_Nam":"CMLZ","Latitude":"50.66170","Longitude":"-68.82360","Snowdepth":"34.134","Units":"in","Rept_Date":"2025-03-17 12"}},{"type":"Point","coordinates":[-86.6625,46.4121],"properties":{"Station_ID":"MNSM4","Station_Nam":"MUNISING","Latitude":"46.41210","Longitude":"-86.66250","Snowdepth":"34.000","Units":"in","Rept_Date":"2025-03-17 11"}},{"type":"Point","coordinates":[-67.1394,51.1114],"properties":{"Station_ID":"CQGD","Station_Nam":"CQGD","Latitude":"51.11140","Longitude":"-67.13940","Snowdepth":"32.441","Units":"in","Rept_Date":"2025-03-17 12"}},{"type":"Point","coordinates":[-88.6717,47.0416],"properties":{"Station_ID":"PDLM4","Station_Nam":"PAINESDALE","Latitude":"47.04160","Longitude":"-88.67170","Snowdepth":"32.000","Units":"in","Rept_Date":"2025-03-17 12"}},{"type":"Point","coordinates":[-69.3569,49.66],"properties":{"Station_ID":"CQTV","Station_Nam":"CQTV","Latitude":"49.66000","Longitude":"-69.35690","Snowdepth":"27.716","Units":"in","Rept_Date":"2025-03-17 12"}},{"type":"Point","coordinates":[-71.7031,44.1382],"properties":{"Station_ID":"LLHN3","Station_Nam":"LONESOME LAKE HUT","Latitude":"44.13820","Longitude":"-71.70310","Snowdepth":"27.000","Units":"in","Rept_Date":"2025-03-17 11"}},{"type":"Point","coordinates":[-71.1955,44.2594],"properties":{"Station_ID":"CRNN3","Station_Nam":"CARTER NOTCH","Latitude":"44.25940","Longitude":"-71.19550","Snowdepth":"27.000","Units":"in","Rept_Date":"2025-03-17 11"}},{"type":"Point","coordinates":[-86.6594,49.0695],"properties":{"Station_ID":"PTLQ6","Station_Nam":"PORTAGE LAKE","Latitude":"49.06950","Longitude":"-86.65940","Snowdepth":"26.650","Units":"in","Rept_Date":"2025-03-18 06"}},{"type":"Point","coordinates":[-91.793,50.7787],"properties":{"Station_ID":"SOCQ6","Station_Nam":"SOCKET LAKE","Latitude":"50.77870","Longitude":"-91.79300","Snowdepth":"26.100","Units":"in","Rept_Date":"2025-03-18 06"}},{"type":"Point","coordinates":[-74.2064,48.855],"properties":{"Station_ID":"CQGO","Station_Nam":"CQGO","Latitude":"48.85500","Longitude":"-74.20640","Snowdepth":"26.063","Units":"in","Rept_Date":"2025-03-17 12"}},{"type":"Point","coordinates":[-71.4944,44.1959],"properties":{"Station_ID":"ZFHN3","Station_Nam":"ZEALAND FALLS HUT","Latitude":"44.19590","Longitude":"-71.49440","Snowdepth":"26.000","Units":"in","Rept_Date":"2025-03-17 11"}},{"type":"Point","coordinates":[-75.1,50.7236],"properties":{"Station_ID":"CQLB","Station_Nam":"CQLB","Latitude":"50.72360","Longitude":"-75.10000","Snowdepth":"25.433","Units":"in","Rept_Date":"2025-03-17 12"}},{"type":"Point","coordinates":[-75.5543,43.6051],"properties":{"Station_ID":"HGHN6","Station_Nam":"HIGHMARKET","Latitude":"43.60510","Longitude":"-75.55430","Snowdepth":"25.000","Units":"in","Rept_Date":"2025-03-17 12"}},{"type":"Point","coordinates":[-67.6264,49.6472],"properties":{"Station_ID":"CQGT","Station_Nam":"CQGT","Latitude":"49.64720","Longitude":"-67.62640","Snowdepth":"24.685","Units":"in","Rept_Date":"2025-03-17 12"}},{"type":"Point","coordinates":[-70.0806,51.3283],"properties":{"Station_ID":"CQCX","Station_Nam":"CQCX","Latitude":"51.32830","Longitude":"-70.08060","Snowdepth":"24.213","Units":"in","Rept_Date":"2025-03-17 12"}},{"type":"Point","coordinates":[-87.7644,49.1989],"properties":{"Station_ID":"DVLQ6","Station_Nam":"DEVIOUS LAKE","Latitude":"49.19890","Longitude":"-87.76440","Snowdepth":"23.540","Units":"in","Rept_Date":"2025-03-18 06"}},{"type":"Point","coordinates":[-74.8088,43.1626],"properties":{"Station_ID":"NY-HR-18","Station_Nam":"SALISBURY CENTER 1.8 NW, NY","Latitude":"43.16260","Longitude":"-74.80880","Snowdepth":"23.500","Units":"in","Rept_Date":"2025-03-17 11"}},{"type":"Point","coordinates":[-87.2292,49.2288],"properties":{"Station_ID":"TRIQ6","Station_Nam":"TRIO LAKE","Latitude":"49.22880","Longitude":"-87.22920","Snowdepth":"23.460","Units":"in","Rept_Date":"2025-03-18 06"}},{"type":"Point","coordinates":[-88.5795,47.1364],"properties":{"Station_ID":"QNCM4","Station_Nam":"QUINCY HILL","Latitude":"47.13640","Longitude":"-88.57950","Snowdepth":"23.000","Units":"in","Rept_Date":"2025-03-17 12"}},{"type":"Point","coordinates":[-82.5757,48.526],"properties":{"Station_ID":"AUDQ6","Station_Nam":"AUDEN","Latitude":"48.52600","Longitude":"-82.57570","Snowdepth":"22.910","Units":"in","Rept_Date":"2025-03-18 06"}},{"type":"Point","coordinates":[-66.13279,47.90803],"properties":{"Station_ID":"CAN-NB-50","Station_Nam":"DOYLEVILLE 2.4 WNW, CAN","Latitude":"47.90803","Longitude":"-66.13279","Snowdepth":"22.800","Units":"in","Rept_Date":"2025-03-17 11"}},{"type":"Point","coordinates":[-74.4039,50.8328],"properties":{"Station_ID":"CQFT","Station_Nam":"CQFT","Latitude":"50.83280","Longitude":"-74.40390","Snowdepth":"22.441","Units":"in","Rept_Date":"2025-03-17 12"}},{"type":"Point","coordinates":[-88.2077,46.5573],"properties":{"Station_ID":"MI-BG-3","Station_Nam":"THREE LAKES, MI","Latitude":"46.55730","Longitude":"-88.20770","Snowdepth":"22.000","Units":"in","Rept_Date":"2025-03-17 12"}},{"type":"Point","coordinates":[-87.8582,50.7668],"properties":{"Station_ID":"OGIQ6","Station_Nam":"OGOKI CAMP","Latitude":"50.76680","Longitude":"-87.85820","Snowdepth":"21.180","Units":"in","Rept_Date":"2025-03-18 06"}},{"type":"Point","coordinates":[-91.8221,51.7269],"properties":{"Station_ID":"CATQ6","Station_Nam":"CAT LAKE","Latitude":"51.72690","Longitude":"-91.82210","Snowdepth":"21.180","Units":"in","Rept_Date":"2025-03-18 06"}},{"type":"Point","coordinates":[-69.8119,45.6602],"properties":{"Station_ID":"BRAM1","Station_Nam":"BRASSUA DAM","Latitude":"45.66020","Longitude":"-69.81190","Snowdepth":"21.000","Units":"in","Rept_Date":"2025-03-17 11"}},{"type":"Point","coordinates":[-68.2314,47.0836],"properties":{"Station_ID":"GURM1","Station_Nam":"GUERETTE SNOW COURSE","Latitude":"47.08360","Longitude":"-68.23140","Snowdepth":"20.600","Units":"in","Rept_Date":"2025-03-17 20"}},{"type":"Point","coordinates":[-70.2528,48.9203],"properties":{"Station_ID":"CQLM","Station_Nam":"CQLM","Latitude":"48.92030","Longitude":"-70.25280","Snowdepth":"20.197","Units":"in","Rept_Date":"2025-03-17 12"}},{"type":"Point","coordinates":[-90.6567,50.2873],"properties":{"Station_ID":"SVBQ6","Station_Nam":"SAVANT BASE","Latitude":"50.28730","Longitude":"-90.65670","Snowdepth":"19.920","Units":"in","Rept_Date":"2025-03-18 06"}},{"type":"Point","coordinates":[-84.28515,46.50299],"properties":{"Station_ID":"CAN-ON-915","Station_Nam":"SAULT STE. MARIE 3.9 ESE, CAN","Latitude":"46.50299","Longitude":"-84.28515","Snowdepth":"19.700","Units":"in","Rept_Date":"2025-03-17 12"}},{"type":"Point","coordinates":[-68.5272,46.9317],"properties":{"Station_ID":"WNTM1","Station_Nam":"WINTERVILLE SNOW COURSE","Latitude":"46.93170","Longitude":"-68.52720","Snowdepth":"19.600","Units":"in","Rept_Date":"2025-03-17 21"}},{"type":"Point","coordinates":[-72.5719,51.0578],"properties":{"Station_ID":"CQTM","Station_Nam":"CQTM","Latitude":"51.05780","Longitude":"-72.57190","Snowdepth":"19.370","Units":"in","Rept_Date":"2025-03-17 12"}},{"type":"Point","coordinates":[-70.4719,50.1033],"properties":{"Station_ID":"CQMA","Station_Nam":"CQMA","Latitude":"50.10330","Longitude":"-70.47190","Snowdepth":"19.016","Units":"in","Rept_Date":"2025-03-17 12"}},{"type":"Point","coordinates":[-88.6926,47.13156],"properties":{"Station_ID":"MI-HG-21","Station_Nam":"ATLANTIC MINE 3.9 NW, MI","Latitude":"47.13156","Longitude":"-88.69260","Snowdepth":"19.000","Units":"in","Rept_Date":"2025-03-17 11"}},{"type":"Point","coordinates":[-88.3333,46.65],"properties":{"Station_ID":"HERM4","Station_Nam":"HERMAN,MI","Latitude":"46.65000","Longitude":"-88.33330","Snowdepth":"19.000","Units":"in","Rept_Date":"2025-03-17 12"}},{"type":"Point","coordinates":[-72.2824,44.1944],"properties":{"Station_ID":"VT-CL-3","Station_Nam":"GROTON 4.4 WSW, VT","Latitude":"44.19440","Longitude":"-72.28240","Snowdepth":"18.900","Units":"in","Rept_Date":"2025-03-17 10"}},{"type":"Point","coordinates":[-74.09619,45.76943],"properties":{"Station_ID":"CAN-QC-86","Station_Nam":"SAINT-COLOMBAN 4.6 NE, CAN","Latitude":"45.76943","Longitude":"-74.09619","Snowdepth":"18.500","Units":"in","Rept_Date":"2025-03-17 11"}},{"type":"Point","coordinates":[-94.2577,52.1145],"properties":{"Station_ID":"POPQ6","Station_Nam":"POPLAR HILL","Latitude":"52.11450","Longitude":"-94.25770","Snowdepth":"18.350","Units":"in","Rept_Date":"2025-03-18 06"}},{"type":"Point","coordinates":[-71.27124,46.76934],"properties":{"Station_ID":"CAN-QC-47","Station_Nam":"SAINTE-FOY 1.8 ENE, CAN","Latitude":"46.76934","Longitude":"-71.27124","Snowdepth":"18.100","Units":"in","Rept_Date":"2025-03-17 11"}},{"type":"Point","coordinates":[-69.7167,45.5833],"properties":{"Station_ID":"RKWM1","Station_Nam":"MOOSEHEAD LAKE","Latitude":"45.58330","Longitude":"-69.71670","Snowdepth":"18.000","Units":"in","Rept_Date":"2025-03-17 11"}},{"type":"Point","coordinates":[-73.8067,47.8461],"properties":{"Station_ID":"CQWE","Station_Nam":"CQWE","Latitude":"47.84610","Longitude":"-73.80670","Snowdepth":"17.008","Units":"in","Rept_Date":"2025-03-17 12"}},{"type":"Point","coordinates":[-84.4025,46.4866],"properties":{"Station_ID":"SSMM4","Station_Nam":"SAULT STE MARIE","Latitude":"46.48660","Longitude":"-84.40250","Snowdepth":"17.000","Units":"in","Rept_Date":"2025-03-17 11"}},{"type":"Point","coordinates":[-84.31971,46.48933],"properties":{"Station_ID":"MI-CP-14","Station_Nam":"SAULT STE. MARIE 2.2 E, MI","Latitude":"46.48933","Longitude":"-84.31971","Snowdepth":"17.000","Units":"in","Rept_Date":"2025-03-17 11"}},{"type":"Point","coordinates":[-86.95857,46.5029],"properties":{"Station_ID":"MI-AG-8","Station_Nam":"AU TRAIN 7.8 NW, MI","Latitude":"46.50290","Longitude":"-86.95857","Snowdepth":"17.000","Units":"in","Rept_Date":"2025-03-17 21"}},{"type":"Point","coordinates":[-84.4026,46.4867],"properties":{"Station_ID":"ANJM4","Station_Nam":"SNOW PAID OBSERVER FOR KANJ","Latitude":"46.48670","Longitude":"-84.40260","Snowdepth":"17.000","Units":"in","Rept_Date":"2025-03-17 18"}},{"type":"Point","coordinates":[-76.5983,47.8275],"properties":{"Station_ID":"CQCU","Station_Nam":"CQCU","Latitude":"47.82750","Longitude":"-76.59830","Snowdepth":"16.693","Units":"in","Rept_Date":"2025-03-17 12"}},{"type":"Point","coordinates":[-68.8406,51.2833],"properties":{"Station_ID":"CMRL","Station_Nam":"CMRL","Latitude":"51.28330","Longitude":"-68.84060","Snowdepth":"16.535","Units":"in","Rept_Date":"2025-03-17 12"}},{"type":"Point","coordinates":[-69.0772,47.0711],"properties":{"Station_ID":"ALSM1","Station_Nam":"ALLAGASH SNOW COURSE","Latitude":"47.07110","Longitude":"-69.07720","Snowdepth":"16.500","Units":"in","Rept_Date":"2025-03-17 18"}},{"type":"Point","coordinates":[-72.8333,44.5333],"properties":{"Station_ID":"MMSV1","Station_Nam":"MOUNT MANSFIELD","Latitude":"44.53330","Longitude":"-72.83330","Snowdepth":"16.000","Units":"in","Rept_Date":"2025-03-18 06"}},{"type":"Point","coordinates":[-58.6185,48.55436],"properties":{"Station_ID":"CAN-NL-65","Station_Nam":"KIPPENS 0.7 NE, CA","Latitude":"48.55436","Longitude":"-58.61850","Snowdepth":"16.000","Units":"in","Rept_Date":"2025-03-17 11"}},{"type":"Point","coordinates":[-66.9111,51.5217],"properties":{"Station_ID":"CMFU","Station_Nam":"CMFU","Latitude":"51.52170","Longitude":"-66.91110","Snowdepth":"15.630","Units":"in","Rept_Date":"2025-03-17 12"}},{"type":"Point","coordinates":[-68.5431,49.8239],"properties":{"Station_ID":"CQIQ","Station_Nam":"CQIQ","Latitude":"49.82390","Longitude":"-68.54310","Snowdepth":"15.315","Units":"in","Rept_Date":"2025-03-17 12"}},{"type":"Point","coordinates":[-72.2011,51.4528],"properties":{"Station_ID":"CQCO","Station_Nam":"CQCO","Latitude":"51.45280","Longitude":"-72.20110","Snowdepth":"15.236","Units":"in","Rept_Date":"2025-03-17 12"}},{"type":"Point","coordinates":[-73.0333,43.05],"properties":{"Station_ID":"LBKV1","Station_Nam":"LYE BROOK","Latitude":"43.05000","Longitude":"-73.03330","Snowdepth":"15.000","Units":"in","Rept_Date":"2025-03-18 06"}},{"type":"Point","coordinates":[-88.854,46.8944],"properties":{"Station_ID":"57011_MADIS","Station_Nam":"TWIN LAKES 0.2 SW, MI","Latitude":"46.89440","Longitude":"-88.85400","Snowdepth":"15.000","Units":"in","Rept_Date":"2025-03-17 12"}},{"type":"Point","coordinates":[-88.5294,47.10774],"properties":{"Station_ID":"MI-HG-1","Station_Nam":"HOUGHTON 1.6 ESE, MI","Latitude":"47.10774","Longitude":"-88.52940","Snowdepth":"14.500","Units":"in","Rept_Date":"2025-03-17 12"}},{"type":"Point","coordinates":[-88.417,47.2752],"properties":{"Station_ID":"KSGM4","Station_Nam":"KEARSARGE","Latitude":"47.27520","Longitude":"-88.41700","Snowdepth":"14.000","Units":"in","Rept_Date":"2025-03-17 12"}},{"type":"Point","coordinates":[-71.3093,44.3326],"properties":{"Station_ID":"GKBN3","Station_Nam":"GRAY KNOB","Latitude":"44.33260","Longitude":"-71.30930","Snowdepth":"14.000","Units":"in","Rept_Date":"2025-03-17 11"}},{"type":"Point","coordinates":[-88.7038,49.19],"properties":{"Station_ID":"NONQ6","Station_Nam":"NONWATIN","Latitude":"49.19000","Longitude":"-88.70380","Snowdepth":"13.740","Units":"in","Rept_Date":"2025-03-18 06"}},{"type":"Point","coordinates":[-68.6119,47.2386],"properties":{"Station_ID":"FISM1","Station_Nam":"FORT KENT COOP","Latitude":"47.23860","Longitude":"-68.61190","Snowdepth":"13.500","Units":"in","Rept_Date":"2025-03-17 19"}},{"type":"Point","coordinates":[-79.81035,44.50564],"properties":{"Station_ID":"CAN-ON-245","Station_Nam":"PHELPSTON 3.1 ESE, CAN","Latitude":"44.50564","Longitude":"-79.81035","Snowdepth":"13.500","Units":"in","Rept_Date":"2025-03-17 11"}},{"type":"Point","coordinates":[-72.567,43.0603],"properties":{"Station_ID":"VT-WH-39","Station_Nam":"WESTMINSTER 5.5 W, VT","Latitude":"43.06030","Longitude":"-72.56700","Snowdepth":"13.000","Units":"in","Rept_Date":"2025-03-17 11"}},{"type":"Point","coordinates":[-72.4435,44.8916],"properties":{"Station_ID":"VT-OL-1","Station_Nam":"WESTFIELD 0.7 WNW, VT","Latitude":"44.89160","Longitude":"-72.44350","Snowdepth":"13.000","Units":"in","Rept_Date":"2025-03-17 11"}},{"type":"Point","coordinates":[-84.303,46.503],"properties":{"Station_ID":"CAN-ON-757","Station_Nam":"SAULT STE. MARIE 2.8 ESE - GLFC, CAN","Latitude":"46.50300","Longitude":"-84.30300","Snowdepth":"13.000","Units":"in","Rept_Date":"2025-03-17 12"}},{"type":"Point","coordinates":[-87.8816,46.7462],"properties":{"Station_ID":"BBEM4","Station_Nam":"BIG BAY 9SW","Latitude":"46.74620","Longitude":"-87.88160","Snowdepth":"13.000","Units":"in","Rept_Date":"2025-03-17 12"}},{"type":"Point","coordinates":[-91.4716,48.7067],"properties":{"Station_ID":"ATIQ6","Station_Nam":"ATIKOKAN","Latitude":"48.70670","Longitude":"-91.47160","Snowdepth":"12.280","Units":"in","Rept_Date":"2025-03-18 06"}},{"type":"Point","coordinates":[-72.28,44.631],"properties":{"Station_ID":"VT-OL-12","Station_Nam":"GREENSBORO 3.9 NNE, VT","Latitude":"44.63100","Longitude":"-72.28000","Snowdepth":"12.000","Units":"in","Rept_Date":"2025-03-17 12"}},{"type":"Point","coordinates":[-72.9,43.2667],"properties":{"Station_ID":"PERV1","Station_Nam":"PERU","Latitude":"43.26670","Longitude":"-72.90000","Snowdepth":"12.000","Units":"in","Rept_Date":"2025-03-17 11"}},{"type":"Point","coordinates":[-71.3415,43.80976],"properties":{"Station_ID":"NH-CR-26","Station_Nam":"CENTER SANDWICH 4.9 E, NH","Latitude":"43.80976","Longitude":"-71.34150","Snowdepth":"12.000","Units":"in","Rept_Date":"2025-03-17 11"}},{"type":"Point","coordinates":[-90.30508,47.8062],"properties":{"Station_ID":"MN-CK-29","Station_Nam":"GRAND MARAIS 3.8 NNE, MN","Latitude":"47.80620","Longitude":"-90.30508","Snowdepth":"12.000","Units":"in","Rept_Date":"2025-03-17 12"}},{"type":"Point","coordinates":[-71.3425,43.8099],"properties":{"Station_ID":"ESDN3","Station_Nam":"EAST SANDWICH","Latitude":"43.80990","Longitude":"-71.34250","Snowdepth":"12.000","Units":"in","Rept_Date":"2025-03-17 12"}},{"type":"Point","coordinates":[-71.4127,44.2196],"properties":{"Station_ID":"CAWN3","Station_Nam":"CRAWFORD NOTCH","Latitude":"44.21960","Longitude":"-71.41270","Snowdepth":"12.000","Units":"in","Rept_Date":"2025-03-17 11"}},{"type":"Point","coordinates":[-68.3142,46.2078],"properties":{"Station_ID":"KNCM1","Station_Nam":"KNOWLES CORNER - MCOOP","Latitude":"46.20780","Longitude":"-68.31420","Snowdepth":"11.900","Units":"in","Rept_Date":"2025-03-17 23"}},{"type":"Point","coordinates":[-73.9228,50.2708],"properties":{"Station_ID":"CQLI","Station_Nam":"CQLI","Latitude":"50.27080","Longitude":"-73.92280","Snowdepth":"11.732","Units":"in","Rept_Date":"2025-03-17 12"}},{"type":"Point","coordinates":[-87.9051,51.5582],"properties":{"Station_ID":"FTHQ6","Station_Nam":"FORT HOPE","Latitude":"51.55820","Longitude":"-87.90510","Snowdepth":"11.730","Units":"in","Rept_Date":"2025-03-18 06"}},{"type":"Point","coordinates":[-68.4584,46.7127],"properties":{"Station_ID":"PNKM1","Station_Nam":"PINKHAM MILL SNOW CORE","Latitude":"46.71270","Longitude":"-68.45840","Snowdepth":"11.200","Units":"in","Rept_Date":"2025-03-17 21"}},{"type":"Point","coordinates":[-74.45287,43.4549],"properties":{"Station_ID":"NY-HM-10","Station_Nam":"LAKE PLEASANT 2.3 WSW, NY","Latitude":"43.45490","Longitude":"-74.45287","Snowdepth":"11.000","Units":"in","Rept_Date":"2025-03-17 11"}},{"type":"Point","coordinates":[-70.18007,44.73396],"properties":{"Station_ID":"ME-FR-22","Station_Nam":"FARMINGTON 4.8 NNW, ME","Latitude":"44.73396","Longitude":"-70.18007","Snowdepth":"11.000","Units":"in","Rept_Date":"2025-03-17 13"}},{"type":"Point","coordinates":[-87.4503,46.28397],"properties":{"Station_ID":"61591_MADIS","Station_Nam":"GWINN 0.7 SW, MI","Latitude":"46.28397","Longitude":"-87.45030","Snowdepth":"10.500","Units":"in","Rept_Date":"2025-03-17 13"}},{"type":"Point","coordinates":[-89.1799,49.5995],"properties":{"Station_ID":"KABQ6","Station_Nam":"CAB LAKE","Latitude":"49.59950","Longitude":"-89.17990","Snowdepth":"10.310","Units":"in","Rept_Date":"2025-03-18 06"}},{"type":"Point","coordinates":[-68.4958,46.8083],"properties":{"Station_ID":"HWRM1","Station_Nam":"HATHAWAY ROAD SNOW CORE","Latitude":"46.80830","Longitude":"-68.49580","Snowdepth":"10.200","Units":"in","Rept_Date":"2025-03-17 21"}},{"type":"Point","coordinates":[-90.85854,46.88063],"properties":{"Station_ID":"WI-BY-29","Station_Nam":"BAYFIELD 5.1 NNW, WI","Latitude":"46.88063","Longitude":"-90.85854","Snowdepth":"10.000","Units":"in","Rept_Date":"2025-03-17 13"}},{"type":"Point","coordinates":[-84.68467,44.96388],"properties":{"Station_ID":"MI-OT-17","Station_Nam":"GAYLORD 4.1 S, MI","Latitude":"44.96388","Longitude":"-84.68467","Snowdepth":"10.000","Units":"in","Rept_Date":"2025-03-17 11"}},{"type":"Point","coordinates":[-93.3964,48.5778],"properties":{"Station_ID":"IFSM5","Station_Nam":"INTL FALLS SNOW","Latitude":"48.57780","Longitude":"-93.39640","Snowdepth":"10.000","Units":"in","Rept_Date":"2025-03-18 00"}},{"type":"Point","coordinates":[-71.7167,43.9333],"properties":{"Station_ID":"HUBN3","Station_Nam":"HUBBARD BROOK","Latitude":"43.93330","Longitude":"-71.71670","Snowdepth":"10.000","Units":"in","Rept_Date":"2025-03-18 06"}},{"type":"Point","coordinates":[-71.90238,43.29531],"properties":{"Station_ID":"NH-MR-60","Station_Nam":"SOUTH SUTTON 1.3 SE, NH","Latitude":"43.29531","Longitude":"-71.90238","Snowdepth":"9.500","Units":"in","Rept_Date":"2025-03-17 12"}},{"type":"Point","coordinates":[-94.44386,49.84171],"properties":{"Station_ID":"CAN-ON-771","Station_Nam":"KENORA 8.7 NNE - CANWARN, CAN","Latitude":"49.84171","Longitude":"-94.44386","Snowdepth":"9.500","Units":"in","Rept_Date":"2025-03-17 12"}},{"type":"Point","coordinates":[-67.32532,46.98305],"properties":{"Station_ID":"CAN-NB-105","Station_Nam":"SISSON BROOK 3.8 E, CAN","Latitude":"46.98305","Longitude":"-67.32532","Snowdepth":"9.400","Units":"in","Rept_Date":"2025-03-17 11"}},{"type":"Point","coordinates":[-77.47853,46.09592],"properties":{"Station_ID":"CAN-ON-220","Station_Nam":"DEEP RIVER 1.5 SE - MNRF, CAN","Latitude":"46.09592","Longitude":"-77.47853","Snowdepth":"9.100","Units":"in","Rept_Date":"2025-03-17 11"}},{"type":"Point","coordinates":[-71.2661,43.8639],"properties":{"Station_ID":"TMWN3","Station_Nam":"TAMWORTH 4","Latitude":"43.86390","Longitude":"-71.26610","Snowdepth":"9.000","Units":"in","Rept_Date":"2025-03-17 11"}},{"type":"Point","coordinates":[-71.2661,43.86449],"properties":{"Station_ID":"NH-CR-27","Station_Nam":"TAMWORTH 0.4 NNW, NH","Latitude":"43.86449","Longitude":"-71.26610","Snowdepth":"9.000","Units":"in","Rept_Date":"2025-03-17 11"}},{"type":"Point","coordinates":[-68.21736,46.70273],"properties":{"Station_ID":"ME-AR-41","Station_Nam":"CASTLE HILL 1.0 S, ME","Latitude":"46.70273","Longitude":"-68.21736","Snowdepth":"9.000","Units":"in","Rept_Date":"2025-03-17 11"}},{"type":"Point","coordinates":[-87.845,46.4991],"properties":{"Station_ID":"CLKM4","Station_Nam":"CLARKSBURG","Latitude":"46.49910","Longitude":"-87.84500","Snowdepth":"9.000","Units":"in","Rept_Date":"2025-03-17 11"}},{"type":"Point","coordinates":[-67.9112,46.9336],"properties":{"Station_ID":"LISM1","Station_Nam":"LIMESTONE SNOW SURVEY SITE","Latitude":"46.93360","Longitude":"-67.91120","Snowdepth":"8.700","Units":"in","Rept_Date":"2025-03-17 15"}},{"type":"Point","coordinates":[-91.86862,47.88254],"properties":{"Station_ID":"MN-SL-328","Station_Nam":"ELY 1.8 SSW, MN","Latitude":"47.88254","Longitude":"-91.86862","Snowdepth":"8.500","Units":"in","Rept_Date":"2025-03-17 12"}},{"type":"Point","coordinates":[-87.5492,46.5314],"properties":{"Station_ID":"MQT","Station_Nam":"MARQUETTE, MI","Latitude":"46.53140","Longitude":"-87.54920","Snowdepth":"8.000","Units":"in","Rept_Date":"2025-03-18 06"}},{"type":"Point","coordinates":[-93.216,48.59631],"properties":{"Station_ID":"MN-KC-20","Station_Nam":"INTERNATIONAL FALLS 8.8 E, MN","Latitude":"48.59631","Longitude":"-93.21600","Snowdepth":"8.000","Units":"in","Rept_Date":"2025-03-17 12"}},{"type":"Point","coordinates":[-94.10155,47.82442],"properties":{"Station_ID":"MN-IT-80","Station_Nam":"NORTHOME 8.4 ESE, MN","Latitude":"47.82442","Longitude":"-94.10155","Snowdepth":"8.000","Units":"in","Rept_Date":"2025-03-17 12"}},{"type":"Point","coordinates":[-90.87444,48.14388],"properties":{"Station_ID":"MN-CK-56","Station_Nam":"GRAND MARAIS 36.2 NW, MN","Latitude":"48.14388","Longitude":"-90.87444","Snowdepth":"8.000","Units":"in","Rept_Date":"2025-03-17 12"}},{"type":"Point","coordinates":[-70.0272,44.66582],"properties":{"Station_ID":"ME-FR-4","Station_Nam":"NEW SHARON 2.0 NW, ME","Latitude":"44.66582","Longitude":"-70.02720","Snowdepth":"8.000","Units":"in","Rept_Date":"2025-03-17 11"}},{"type":"Point","coordinates":[-93.0484,48.4088],"properties":{"Station_ID":"KABM5","Station_Nam":"KABETOGAMA","Latitude":"48.40880","Longitude":"-93.04840","Snowdepth":"8.000","Units":"in","Rept_Date":"2025-03-17 12"}},{"type":"Point","coordinates":[-65.5069,46.99343],"properties":{"Station_ID":"CAN-NB-11","Station_Nam":"MIRAMICHI 3.3 S, CAN","Latitude":"46.99343","Longitude":"-65.50690","Snowdepth":"8.000","Units":"in","Rept_Date":"2025-03-17 10"}},{"type":"Point","coordinates":[-74.091,44.40915],"properties":{"Station_ID":"58111_MADIS","Station_Nam":"BLOOMINGDALE 0.2 NW, NY","Latitude":"44.40915","Longitude":"-74.09100","Snowdepth":"8.000","Units":"in","Rept_Date":"2025-03-17 11"}},{"type":"Point","coordinates":[-76.2657,43.4383],"properties":{"Station_ID":"NY-OS-38","Station_Nam":"MEXICO COOP, NY","Latitude":"43.43830","Longitude":"-76.26570","Snowdepth":"7.500","Units":"in","Rept_Date":"2025-03-17 11"}},{"type":"Point","coordinates":[-60.6434,46.25082],"properties":{"Station_ID":"CAN-NS-39","Station_Nam":"ST. ANNS 2.8 NW, CA","Latitude":"46.25082","Longitude":"-60.64340","Snowdepth":"7.500","Units":"in","Rept_Date":"2025-03-17 12"}},{"type":"Point","coordinates":[-91.80234,47.86804],"properties":{"Station_ID":"MN-SL-388","Station_Nam":"ELY 3.5 SE, MN","Latitude":"47.86804","Longitude":"-91.80234","Snowdepth":"7.400","Units":"in","Rept_Date":"2025-03-17 12"}},{"type":"Point","coordinates":[-76.2656,43.4383],"properties":{"Station_ID":"MXON6","Station_Nam":"MEXICO","Latitude":"43.43830","Longitude":"-76.26560","Snowdepth":"7.000","Units":"in","Rept_Date":"2025-03-17 11"}},{"type":"Point","coordinates":[-87.61221,46.71871],"properties":{"Station_ID":"MI-MQ-32","Station_Nam":"BIG BAY 9.0 SE, MI","Latitude":"46.71871","Longitude":"-87.61221","Snowdepth":"7.000","Units":"in","Rept_Date":"2025-03-17 11"}},{"type":"Point","coordinates":[-85.051,44.89981],"properties":{"Station_ID":"MI-AT-6","Station_Nam":"MANCELONA 0.5 ESE, MI","Latitude":"44.89981","Longitude":"-85.05100","Snowdepth":"7.000","Units":"in","Rept_Date":"2025-03-17 12"}},{"type":"Point","coordinates":[-71.8912,44.6425],"properties":{"Station_ID":"EAHV1","Station_Nam":"EAST HAVEN","Latitude":"44.64250","Longitude":"-71.89120","Snowdepth":"7.000","Units":"in","Rept_Date":"2025-03-17 11"}},{"type":"Point","coordinates":[-94.6167,48.7167],"properties":{"Station_ID":"BAUM5","Station_Nam":"BAUDETTE,MN","Latitude":"48.71670","Longitude":"-94.61670","Snowdepth":"7.000","Units":"in","Rept_Date":"2025-03-17 20"}},{"type":"Point","coordinates":[-75.845,49.2906],"properties":{"Station_ID":"CQMD","Station_Nam":"CQMD","Latitude":"49.29060","Longitude":"-75.84500","Snowdepth":"6.693","Units":"in","Rept_Date":"2025-03-17 12"}},{"type":"Point","coordinates":[-71.5373,43.43945],"properties":{"Station_ID":"NH-MR-45","Station_Nam":"NORTHFIELD 2.8 E, NH","Latitude":"43.43945","Longitude":"-71.53730","Snowdepth":"6.500","Units":"in","Rept_Date":"2025-03-17 11"}},{"type":"Point","coordinates":[-70.2642,44.68329],"properties":{"Station_ID":"ME-FR-2","Station_Nam":"TEMPLE 1.8 W, ME","Latitude":"44.68329","Longitude":"-70.26420","Snowdepth":"6.500","Units":"in","Rept_Date":"2025-03-17 11"}},{"type":"Point","coordinates":[-75.48952,45.27286],"properties":{"Station_ID":"CAN-ON-791","Station_Nam":"METCALFE 4.4 NNW, CAN","Latitude":"45.27286","Longitude":"-75.48952","Snowdepth":"6.300","Units":"in","Rept_Date":"2025-03-17 12"}},{"type":"Point","coordinates":[-88.6424,46.5266],"properties":{"Station_ID":"WTNM4","Station_Nam":"WATTON 2WSW","Latitude":"46.52660","Longitude":"-88.64240","Snowdepth":"6.000","Units":"in","Rept_Date":"2025-03-17 12"}},{"type":"Point","coordinates":[-72.8326,43.29092],"properties":{"Station_ID":"VT-BN-3","Station_Nam":"LANDGROVE 1.1 NNE, VT","Latitude":"43.29092","Longitude":"-72.83260","Snowdepth":"6.000","Units":"in","Rept_Date":"2025-03-17 12"}},{"type":"Point","coordinates":[-73.02,42.82],"properties":{"Station_ID":"VT-BN-12","Station_Nam":"STAMFORD 5.0 NNE, VT","Latitude":"42.82000","Longitude":"-73.02000","Snowdepth":"6.000","Units":"in","Rept_Date":"2025-03-17 20"}},{"type":"Point","coordinates":[-84.4397,45.1702],"properties":{"Station_ID":"VANM4","Station_Nam":"VANDERBILT 11ENE","Latitude":"45.17020","Longitude":"-84.43970","Snowdepth":"6.000","Units":"in","Rept_Date":"2025-03-17 12"}},{"type":"Point","coordinates":[-72.0481,44.6122],"properties":{"Station_ID":"SUTV1","Station_Nam":"SUTTON","Latitude":"44.61220","Longitude":"-72.04810","Snowdepth":"6.000","Units":"in","Rept_Date":"2025-03-17 12"}},{"type":"Point","coordinates":[-84.3239,46.1864],"properties":{"Station_ID":"PICM4","Station_Nam":"PICKFORD 3NE","Latitude":"46.18640","Longitude":"-84.32390","Snowdepth":"6.000","Units":"in","Rept_Date":"2025-03-17 22"}},{"type":"Point","coordinates":[-74.4236,43.115],"properties":{"Station_ID":"PEKN6","Station_Nam":"PECK LAKE","Latitude":"43.11500","Longitude":"-74.42360","Snowdepth":"6.000","Units":"in","Rept_Date":"2025-03-17 11"}},{"type":"Point","coordinates":[-73.8978,43.8335],"properties":{"Station_ID":"NY-ES-6","Station_Nam":"OLMSTEDVILLE 4.6 NNE, NY","Latitude":"43.83350","Longitude":"-73.89780","Snowdepth":"6.000","Units":"in","Rept_Date":"2025-03-17 12"}},{"type":"Point","coordinates":[-94.89088,48.76335],"properties":{"Station_ID":"MN-LW-5","Station_Nam":"WILLIAMS 2.9 E, MN","Latitude":"48.76335","Longitude":"-94.89088","Snowdepth":"6.000","Units":"in","Rept_Date":"2025-03-17 21"}},{"type":"Point","coordinates":[-87.3779,46.3341],"properties":{"Station_ID":"KISM4","Station_Nam":"K.I. SAWYER WWTP","Latitude":"46.33410","Longitude":"-87.37790","Snowdepth":"6.000","Units":"in","Rept_Date":"2025-03-17 12"}},{"type":"Point","coordinates":[-72.787,44.5843],"properties":{"Station_ID":"JEFV1","Station_Nam":"JEFFERSONVILLE","Latitude":"44.58430","Longitude":"-72.78700","Snowdepth":"6.000","Units":"in","Rept_Date":"2025-03-17 11"}},{"type":"Point","coordinates":[-94.2228,47.2467],"properties":{"Station_ID":"FEDM5","Station_Nam":"LEECH LAKE DAM","Latitude":"47.24670","Longitude":"-94.22280","Snowdepth":"6.000","Units":"in","Rept_Date":"2025-03-17 13"}},{"type":"Point","coordinates":[-94.6147,47.3847],"properties":{"Station_ID":"CSLM5","Station_Nam":"CASS LAKE,MN","Latitude":"47.38470","Longitude":"-94.61470","Snowdepth":"6.000","Units":"in","Rept_Date":"2025-03-17 13"}},{"type":"Point","coordinates":[-72.3194,44.0069],"properties":{"Station_ID":"CORV1","Station_Nam":"CORINTH","Latitude":"44.00690","Longitude":"-72.31940","Snowdepth":"6.000","Units":"in","Rept_Date":"2025-03-17 11"}},{"type":"Point","coordinates":[-88.5137,47.1167],"properties":{"Station_ID":"CGPM4","Station_Nam":"DOLLAR BAY","Latitude":"47.11670","Longitude":"-88.51370","Snowdepth":"6.000","Units":"in","Rept_Date":"2025-03-17 12"}},{"type":"Point","coordinates":[-73.7381,47.2564],"properties":{"Station_ID":"CQGA","Station_Nam":"CQGA","Latitude":"47.25640","Longitude":"-73.73810","Snowdepth":"5.866","Units":"in","Rept_Date":"2025-03-17 12"}},{"type":"Point","coordinates":[-71.11664,44.02955],"properties":{"Station_ID":"NH-CR-46","Station_Nam":"NORTH CONWAY 1.8 SSE, NH","Latitude":"44.02955","Longitude":"-71.11664","Snowdepth":"5.500","Units":"in","Rept_Date":"2025-03-17 14"}},{"type":"Point","coordinates":[-73.76976,45.55358],"properties":{"Station_ID":"CAN-QC-37","Station_Nam":"LAVAL 3.8 SSW, CAN","Latitude":"45.55358","Longitude":"-73.76976","Snowdepth":"5.500","Units":"in","Rept_Date":"2025-03-17 12"}},{"type":"Point","coordinates":[-88.0297,42.9375],"properties":{"Station_ID":"WPKW3","Station_Nam":"HALES CORNERS/WHITNALL PARK/BOERNER BOTANICAL GARDENS","Latitude":"42.93750","Longitude":"-88.02970","Snowdepth":"5.000","Units":"in","Rept_Date":"2025-03-17 12"}},{"type":"Point","coordinates":[-73.8589,44.3931],"properties":{"Station_ID":"WHFN6","Station_Nam":"WILMINGTON 2W","Latitude":"44.39310","Longitude":"-73.85890","Snowdepth":"5.000","Units":"in","Rept_Date":"2025-03-17 12"}},{"type":"Point","coordinates":[-89.0752,46.0663],"properties":{"Station_ID":"PHEW3","Station_Nam":"PHELPS","Latitude":"46.06630","Longitude":"-89.07520","Snowdepth":"5.000","Units":"in","Rept_Date":"2025-03-17 12"}},{"type":"Point","coordinates":[-74.15211,44.41359],"properties":{"Station_ID":"NY-FK-7","Station_Nam":"SARANAC LAKE 6.2 N, NY","Latitude":"44.41359","Longitude":"-74.15211","Snowdepth":"5.000","Units":"in","Rept_Date":"2025-03-17 10"}},{"type":"Point","coordinates":[-91.87967,47.8151],"properties":{"Station_ID":"MN-SL-198","Station_Nam":"ELY 6.4 SSW, MN","Latitude":"47.81510","Longitude":"-91.87967","Snowdepth":"5.000","Units":"in","Rept_Date":"2025-03-17 13"}},{"type":"Point","coordinates":[-68.1439,47.0108],"properties":{"Station_ID":"ME-AR-18","Station_Nam":"NEW SWEDEN 4.9 NNW, ME","Latitude":"47.01080","Longitude":"-68.14390","Snowdepth":"5.000","Units":"in","Rept_Date":"2025-03-17 11"}},{"type":"Point","coordinates":[-94.8892,45.9646],"properties":{"Station_ID":"LNGM5","Station_Nam":"LONG PRAIRIE","Latitude":"45.96460","Longitude":"-94.88920","Snowdepth":"5.000","Units":"in","Rept_Date":"2025-03-17 11"}},{"type":"Point","coordinates":[-71.6555,43.7738],"properties":{"Station_ID":"HDEN3","Station_Nam":"HOLDERNESS 4.6 NW","Latitude":"43.77380","Longitude":"-71.65550","Snowdepth":"5.000","Units":"in","Rept_Date":"2025-03-17 12"}},{"type":"Point","coordinates":[-70.1564,44.6893],"properties":{"Station_ID":"FARM1","Station_Nam":"FARMINGTON","Latitude":"44.68930","Longitude":"-70.15640","Snowdepth":"5.000","Units":"in","Rept_Date":"2025-03-17 11"}},{"type":"Point","coordinates":[-69.1841,45.1872],"properties":{"Station_ID":"DFXM1","Station_Nam":"DOVER-FOXCROFT","Latitude":"45.18720","Longitude":"-69.18410","Snowdepth":"5.000","Units":"in","Rept_Date":"2025-03-17 11"}},{"type":"Point","coordinates":[-68.0125,46.8681],"properties":{"Station_ID":"CARM1","Station_Nam":"CARIBOU WFO","Latitude":"46.86810","Longitude":"-68.01250","Snowdepth":"5.000","Units":"in","Rept_Date":"2025-03-18 04"}},{"type":"Point","coordinates":[-68.0136,46.8683],"properties":{"Station_ID":"CAR","Station_Nam":"CARIBOU, ME","Latitude":"46.86830","Longitude":"-68.01360","Snowdepth":"5.000","Units":"in","Rept_Date":"2025-03-17 12"}},{"type":"Point","coordinates":[-91.4486,47.9719],"properties":{"Station_ID":"BNDM5","Station_Nam":"ELY 25E","Latitude":"47.97190","Longitude":"-91.44860","Snowdepth":"5.000","Units":"in","Rept_Date":"2025-03-17 13"}},{"type":"Point","coordinates":[-71.7098,44.9988],"properties":{"Station_ID":"AVLV1","Station_Nam":"AVERILL","Latitude":"44.99880","Longitude":"-71.70980","Snowdepth":"5.000","Units":"in","Rept_Date":"2025-03-17 22"}},{"type":"Point","coordinates":[-72.56234,44.87663],"properties":{"Station_ID":"VT-FR-30","Station_Nam":"MONTGOMERY 4.1 ESE, VT","Latitude":"44.87663","Longitude":"-72.56234","Snowdepth":"4.500","Units":"in","Rept_Date":"2025-03-17 11"}},{"type":"Point","coordinates":[-94.21266,46.91588],"properties":{"Station_ID":"MN-CS-81","Station_Nam":"LONGVILLE 4.9 S, MN","Latitude":"46.91588","Longitude":"-94.21266","Snowdepth":"4.500","Units":"in","Rept_Date":"2025-03-17 12"}},{"type":"Point","coordinates":[-72.6383,48.1392],"properties":{"Station_ID":"CQLP","Station_Nam":"CQLP","Latitude":"48.13920","Longitude":"-72.63830","Snowdepth":"4.173","Units":"in","Rept_Date":"2025-03-17 12"}},{"type":"Point","coordinates":[-68.3255,46.5561],"properties":{"Station_ID":"SQPM1","Station_Nam":"SCOPAN DAM","Latitude":"46.55610","Longitude":"-68.32550","Snowdepth":"4.100","Units":"in","Rept_Date":"2025-03-17 22"}},{"type":"Point","coordinates":[-88.56306,42.54156],"properties":{"Station_ID":"WI-WW-38","Station_Nam":"FONTANA 0.3 SSE, WI","Latitude":"42.54156","Longitude":"-88.56306","Snowdepth":"4.000","Units":"in","Rept_Date":"2025-03-17 12"}},{"type":"Point","coordinates":[-88.31068,42.7162],"properties":{"Station_ID":"WI-WW-37","Station_Nam":"BURLINGTON 3.1 NNW, WI","Latitude":"42.71620","Longitude":"-88.31068","Snowdepth":"4.000","Units":"in","Rept_Date":"2025-03-17 12"}},{"type":"Point","coordinates":[-88.02524,42.94845],"properties":{"Station_ID":"WI-MW-77","Station_Nam":"GREENDALE 1.5 NW, WI","Latitude":"42.94845","Longitude":"-88.02524","Snowdepth":"4.000","Units":"in","Rept_Date":"2025-03-17 12"}},{"type":"Point","coordinates":[-90.27013,46.41555],"properties":{"Station_ID":"WI-IR-3","Station_Nam":"PENCE 0.1 E, WI","Latitude":"46.41555","Longitude":"-90.27013","Snowdepth":"4.000","Units":"in","Rept_Date":"2025-03-17 12"}},{"type":"Point","coordinates":[-72.8077,44.3606],"properties":{"Station_ID":"VT-WS-19","Station_Nam":"WATERBURY 3.0 NW, VT","Latitude":"44.36060","Longitude":"-72.80770","Snowdepth":"4.000","Units":"in","Rept_Date":"2025-03-17 10"}},{"type":"Point","coordinates":[-72.70935,42.88484],"properties":{"Station_ID":"VT-WH-30","Station_Nam":"MARLBORO 2.0 NNE, VT","Latitude":"42.88484","Longitude":"-72.70935","Snowdepth":"4.000","Units":"in","Rept_Date":"2025-03-17 12"}},{"type":"Point","coordinates":[-72.3297,44.65023],"properties":{"Station_ID":"VT-OL-11","Station_Nam":"EAST CRAFTSBURY 0.8 NE, VT","Latitude":"44.65023","Longitude":"-72.32970","Snowdepth":"4.000","Units":"in","Rept_Date":"2025-03-17 12"}},{"type":"Point","coordinates":[-72.6907,44.46399],"properties":{"Station_ID":"VT-LM-1","Station_Nam":"STOWE 0.2 SW, VT","Latitude":"44.46399","Longitude":"-72.69070","Snowdepth":"4.000","Units":"in","Rept_Date":"2025-03-17 11"}},{"type":"Point","coordinates":[-95.3799,46.5092],"properties":{"Station_ID":"NYMM5","Station_Nam":"NEW YORK MILLS","Latitude":"46.50920","Longitude":"-95.37990","Snowdepth":"4.000","Units":"in","Rept_Date":"2025-03-17 12"}},{"type":"Point","coordinates":[-71.819,43.52],"properties":{"Station_ID":"NH-MR-6","Station_Nam":"DANBURY 2.2 ESE, NH","Latitude":"43.52000","Longitude":"-71.81900","Snowdepth":"4.000","Units":"in","Rept_Date":"2025-03-17 12"}},{"type":"Point","coordinates":[-71.46461,44.33765],"properties":{"Station_ID":"NH-CS-19","Station_Nam":"CARROLL 4.6 NE, NH","Latitude":"44.33765","Longitude":"-71.46461","Snowdepth":"4.000","Units":"in","Rept_Date":"2025-03-17 11"}},{"type":"Point","coordinates":[-71.3,44.2667],"properties":{"Station_ID":"MWN","Station_Nam":"MOUNT WASHINGTON","Latitude":"44.26670","Longitude":"-71.30000","Snowdepth":"4.000","Units":"in","Rept_Date":"2025-03-17 12"}},{"type":"Point","coordinates":[-72.7093,42.8846],"properties":{"Station_ID":"MRLV1","Station_Nam":"MARLBORO","Latitude":"42.88460","Longitude":"-72.70930","Snowdepth":"4.000","Units":"in","Rept_Date":"2025-03-17 12"}},{"type":"Point","coordinates":[-91.955,47.875],"properties":{"Station_ID":"MN-SL-323","Station_Nam":"ELY 5.2 WSW, MN","Latitude":"47.87500","Longitude":"-91.95500","Snowdepth":"4.000","Units":"in","Rept_Date":"2025-03-17 12"}},{"type":"Point","coordinates":[-70.3476,44.39318],"properties":{"Station_ID":"ME-OX-2","Station_Nam":"HARTFORD 1.4 N, ME","Latitude":"44.39318","Longitude":"-70.34760","Snowdepth":"4.000","Units":"in","Rept_Date":"2025-03-17 13"}},{"type":"Point","coordinates":[-95.3152,44.2395],"properties":{"Station_ID":"LAMM5","Station_Nam":"LAMBERTON SW RESEARCH AND OUTREACH CENTER","Latitude":"44.23950","Longitude":"-95.31520","Snowdepth":"4.000","Units":"in","Rept_Date":"2025-03-17 13"}},{"type":"Point","coordinates":[-70.246,45.626],"properties":{"Station_ID":"JKMM1","Station_Nam":"JACKMAN","Latitude":"45.62600","Longitude":"-70.24600","Snowdepth":"4.000","Units":"in","Rept_Date":"2025-03-17 11"}},{"type":"Point","coordinates":[-87.3547,46.4908],"properties":{"Station_ID":"HRVM4","Station_Nam":"HARVEY","Latitude":"46.49080","Longitude":"-87.35470","Snowdepth":"4.000","Units":"in","Rept_Date":"2025-03-17 11"}},{"type":"Point","coordinates":[-83.2958,44.6497],"properties":{"Station_ID":"HRSM4","Station_Nam":"HARRISVILLE STATE PARK","Latitude":"44.64970","Longitude":"-83.29580","Snowdepth":"4.000","Units":"in","Rept_Date":"2025-03-17 12"}},{"type":"Point","coordinates":[-71.2525,44.258],"properties":{"Station_ID":"GHMN3","Station_Nam":"PINKHAM NOTCH","Latitude":"44.25800","Longitude":"-71.25250","Snowdepth":"4.000","Units":"in","Rept_Date":"2025-03-17 09"}},{"type":"Point","coordinates":[-89.6161,48.0122],"properties":{"Station_ID":"GDPM5","Station_Nam":"PIGEON RIVER AT MIDDLE FALLS","Latitude":"48.01220","Longitude":"-89.61610","Snowdepth":"4.000","Units":"in","Rept_Date":"2025-03-17 12"}},{"type":"Point","coordinates":[-85.3653,44.5848],"properties":{"Station_ID":"FLAM4","Station_Nam":"FIFE LAKE 2WNW","Latitude":"44.58480","Longitude":"-85.36530","Snowdepth":"4.000","Units":"in","Rept_Date":"2025-03-17 11"}},{"type":"Point","coordinates":[-83.9013,45.9983],"properties":{"Station_ID":"DTVM4","Station_Nam":"DETOUR VILLAGE","Latitude":"45.99830","Longitude":"-83.90130","Snowdepth":"4.000","Units":"in","Rept_Date":"2025-03-17 12"}},{"type":"Point","coordinates":[-92.6925,47.8506],"properties":{"Station_ID":"COKM5","Station_Nam":"COOK","Latitude":"47.85060","Longitude":"-92.69250","Snowdepth":"4.000","Units":"in","Rept_Date":"2025-03-17 11"}},{"type":"Point","coordinates":[-84.4725,45.6527],"properties":{"Station_ID":"CHBM4","Station_Nam":"CHEBOYGAN","Latitude":"45.65270","Longitude":"-84.47250","Snowdepth":"4.000","Units":"in","Rept_Date":"2025-03-17 12"}},{"type":"Point","coordinates":[-63.50039,46.25244],"properties":{"Station_ID":"CAN-PE-79","Station_Nam":"CRAPAUD 1.3 N, CAN","Latitude":"46.25244","Longitude":"-63.50039","Snowdepth":"3.900","Units":"in","Rept_Date":"2025-03-17 10"}},{"type":"Point","coordinates":[-79.48559,43.97005],"properties":{"Station_ID":"CAN-ON-552","Station_Nam":"AURORA 3.3 SSW, CAN","Latitude":"43.97005","Longitude":"-79.48559","Snowdepth":"3.900","Units":"in","Rept_Date":"2025-03-17 10"}},{"type":"Point","coordinates":[-84.46313,44.80464],"properties":{"Station_ID":"MI-CF-9","Station_Nam":"GRAYLING 15.8 NE, MI","Latitude":"44.80464","Longitude":"-84.46313","Snowdepth":"3.700","Units":"in","Rept_Date":"2025-03-17 11"}},{"type":"Point","coordinates":[-73.4594,48.4889],"properties":{"Station_ID":"CQWG","Station_Nam":"CQWG","Latitude":"48.48890","Longitude":"-73.45940","Snowdepth":"3.504","Units":"in","Rept_Date":"2025-03-17 12"}},{"type":"Point","coordinates":[-94.72121,47.52043],"properties":{"Station_ID":"MN-BM-15","Station_Nam":"BEMIDJI 7.8 ENE, MN","Latitude":"47.52043","Longitude":"-94.72121","Snowdepth":"3.500","Units":"in","Rept_Date":"2025-03-17 12"}},{"type":"Point","coordinates":[-85.51189,44.7337],"properties":{"Station_ID":"MI-GT-25","Station_Nam":"TRAVERSE CITY 4.7 ESE, MI","Latitude":"44.73370","Longitude":"-85.51189","Snowdepth":"3.500","Units":"in","Rept_Date":"2025-03-17 11"}},{"type":"Point","coordinates":[-74.6457,45.48987],"properties":{"Station_ID":"CAN-ON-42","Station_Nam":"VANKLEEK HILL 3.4 S, CA","Latitude":"45.48987","Longitude":"-74.64570","Snowdepth":"3.500","Units":"in","Rept_Date":"2025-03-17 11"}},{"type":"Point","coordinates":[-87.87902,42.9323],"properties":{"Station_ID":"WI-MW-108","Station_Nam":"CUDAHY 1.2 SW, WI","Latitude":"42.93230","Longitude":"-87.87902","Snowdepth":"3.400","Units":"in","Rept_Date":"2025-03-17 12"}},{"type":"Point","coordinates":[-76.04525,45.42318],"properties":{"Station_ID":"CAN-ON-92","Station_Nam":"DUNROBIN 1.9 W - MVCA, CAN","Latitude":"45.42318","Longitude":"-76.04525","Snowdepth":"3.400","Units":"in","Rept_Date":"2025-03-17 11"}},{"type":"Point","coordinates":[-68.5531,46.4269],"properties":{"Station_ID":"OXBM1","Station_Nam":"OXBOW - MCOOP","Latitude":"46.42690","Longitude":"-68.55310","Snowdepth":"3.200","Units":"in","Rept_Date":"2025-03-17 23"}},{"type":"Point","coordinates":[-91.1973,47.3824],"properties":{"Station_ID":"WLFM5","Station_Nam":"WOLF RIDGE ENVIRON LEARNING CENTER","Latitude":"47.38240","Longitude":"-91.19730","Snowdepth":"3.000","Units":"in","Rept_Date":"2025-03-17 12"}},{"type":"Point","coordinates":[-89.4579,46.19023],"properties":{"Station_ID":"WI-VL-9","Station_Nam":"LAND O' LAKES 11.7 W, WI","Latitude":"46.19023","Longitude":"-89.45790","Snowdepth":"3.000","Units":"in","Rept_Date":"2025-03-17 12"}},{"type":"Point","coordinates":[-85.512,44.7338],"properties":{"Station_ID":"TCEM4","Station_Nam":"TRAVERSE CITY 4.7ESE","Latitude":"44.73380","Longitude":"-85.51200","Snowdepth":"3.000","Units":"in","Rept_Date":"2025-03-17 11"}},{"type":"Point","coordinates":[-84.9511,45.3612],"properties":{"Station_ID":"PTYM4","Station_Nam":"PETOSKEY NCMC","Latitude":"45.36120","Longitude":"-84.95110","Snowdepth":"3.000","Units":"in","Rept_Date":"2025-03-17 12"}},{"type":"Point","coordinates":[-95.081,46.9415],"properties":{"Station_ID":"PRPM5","Station_Nam":"PARK RAPIDS 2NW","Latitude":"46.94150","Longitude":"-95.08100","Snowdepth":"3.000","Units":"in","Rept_Date":"2025-03-17 12"}},{"type":"Point","coordinates":[-85.6472,45.1322],"properties":{"Station_ID":"NPTM4","Station_Nam":"NORTHPORT 2W","Latitude":"45.13220","Longitude":"-85.64720","Snowdepth":"3.000","Units":"in","Rept_Date":"2025-03-17 12"}},{"type":"Point","coordinates":[-72.0333,43.7833],"properties":{"Station_ID":"MSRN3","Station_Nam":"MASCOMA RIVER","Latitude":"43.78330","Longitude":"-72.03330","Snowdepth":"3.000","Units":"in","Rept_Date":"2025-03-18 06"}},{"type":"Point","coordinates":[-95.0522,46.9286],"properties":{"Station_ID":"MN-HB-40","Station_Nam":"PARK RAPIDS 1.0 NNE, MN","Latitude":"46.92860","Longitude":"-95.05220","Snowdepth":"3.000","Units":"in","Rept_Date":"2025-03-17 12"}},{"type":"Point","coordinates":[-95.08179,46.94214],"properties":{"Station_ID":"MN-HB-16","Station_Nam":"PARK RAPIDS 2.0 NNW, MN","Latitude":"46.94214","Longitude":"-95.08179","Snowdepth":"3.000","Units":"in","Rept_Date":"2025-03-17 12"}},{"type":"Point","coordinates":[-94.3706,46.843],"properties":{"Station_ID":"MN-CS-38","Station_Nam":"PINE RIVER 8.4 N, MN","Latitude":"46.84300","Longitude":"-94.37060","Snowdepth":"3.000","Units":"in","Rept_Date":"2025-03-17 12"}},{"type":"Point","coordinates":[-86.28266,45.99042],"properties":{"Station_ID":"MI-SH-1","Station_Nam":"MANISTIQUE 2.7 NW, MI","Latitude":"45.99042","Longitude":"-86.28266","Snowdepth":"3.000","Units":"in","Rept_Date":"2025-03-17 10"}},{"type":"Point","coordinates":[-89.28143,46.85396],"properties":{"Station_ID":"MI-ON-4","Station_Nam":"ONTONAGON 1.8 ESE, MI","Latitude":"46.85396","Longitude":"-89.28143","Snowdepth":"3.000","Units":"in","Rept_Date":"2025-03-17 12"}},{"type":"Point","coordinates":[-86.47,43.5],"properties":{"Station_ID":"MI-OC-2","Station_Nam":"MONTAGUE 8.1 NW, MI","Latitude":"43.50000","Longitude":"-86.47000","Snowdepth":"3.000","Units":"in","Rept_Date":"2025-03-17 12"}},{"type":"Point","coordinates":[-87.21344,46.33748],"properties":{"Station_ID":"MI-MQ-34","Station_Nam":"SKANDIA 3.0 SSE, MI","Latitude":"46.33748","Longitude":"-87.21344","Snowdepth":"3.000","Units":"in","Rept_Date":"2025-03-17 11"}},{"type":"Point","coordinates":[-84.73582,45.86422],"properties":{"Station_ID":"MI-MC-5","Station_Nam":"ST. IGNACE 0.6 WSW, MI","Latitude":"45.86422","Longitude":"-84.73582","Snowdepth":"3.000","Units":"in","Rept_Date":"2025-03-17 11"}},{"type":"Point","coordinates":[-85.48426,44.59871],"properties":{"Station_ID":"MI-GT-21","Station_Nam":"KINGSLEY 2.7 ENE, MI","Latitude":"44.59871","Longitude":"-85.48426","Snowdepth":"3.000","Units":"in","Rept_Date":"2025-03-17 10"}},{"type":"Point","coordinates":[-85.1475,45.18639],"properties":{"Station_ID":"MI-CX-7","Station_Nam":"EAST JORDAN 2.1 NNW, MI","Latitude":"45.18639","Longitude":"-85.14750","Snowdepth":"3.000","Units":"in","Rept_Date":"2025-03-17 20"}},{"type":"Point","coordinates":[-86.1065,44.53976],"properties":{"Station_ID":"MI-BZ-1","Station_Nam":"BENZONIA 5.3 S, MI","Latitude":"44.53976","Longitude":"-86.10650","Snowdepth":"3.000","Units":"in","Rept_Date":"2025-03-17 13"}},{"type":"Point","coordinates":[-68.0127,46.6796],"properties":{"Station_ID":"ME-AR-15","Station_Nam":"PRESQUE ISLE 1.3 WSW, ME","Latitude":"46.67960","Longitude":"-68.01270","Snowdepth":"3.000","Units":"in","Rept_Date":"2025-03-17 11"}},{"type":"Point","coordinates":[-89.457,46.19],"properties":{"Station_ID":"LNOW3","Station_Nam":"LAND O LAKES","Latitude":"46.19000","Longitude":"-89.45700","Snowdepth":"3.000","Units":"in","Rept_Date":"2025-03-17 12"}},{"type":"Point","coordinates":[-88.4344,42.6],"properties":{"Station_ID":"LGEW3","Station_Nam":"LAKE GENEVA, WI","Latitude":"42.60000","Longitude":"-88.43440","Snowdepth":"3.000","Units":"in","Rept_Date":"2025-03-17 12"}},{"type":"Point","coordinates":[-96.6218,48.7241],"properties":{"Station_ID":"LBRM5","Station_Nam":"LAKE BRONSON DAM","Latitude":"48.72410","Longitude":"-96.62180","Snowdepth":"3.000","Units":"in","Rept_Date":"2025-03-17 14"}},{"type":"Point","coordinates":[-71.3,44.26666],"properties":{"Station_ID":"KMWN","Station_Nam":"MOUNT WASHINGTON","Latitude":"44.26666","Longitude":"-71.30000","Snowdepth":"3.000","Units":"in","Rept_Date":"2025-03-18 06"}},{"type":"Point","coordinates":[-70.1753,44.9595],"properties":{"Station_ID":"KINM1","Station_Nam":"KINGFIELD","Latitude":"44.95950","Longitude":"-70.17530","Snowdepth":"3.000","Units":"in","Rept_Date":"2025-03-17 11"}},{"type":"Point","coordinates":[-88.7424,42.39998],"properties":{"Station_ID":"IL-BN-14","Station_Nam":"CAPRON 0.1 N, IL","Latitude":"42.39998","Longitude":"-88.74240","Snowdepth":"3.000","Units":"in","Rept_Date":"2025-03-17 12"}},{"type":"Point","coordinates":[-90.1955,46.4625],"properties":{"Station_ID":"HURW3","Station_Nam":"HURLEY","Latitude":"46.46250","Longitude":"-90.19550","Snowdepth":"3.000","Units":"in","Rept_Date":"2025-03-17 13"}},{"type":"Point","coordinates":[-85.1477,45.1863],"properties":{"Station_ID":"EJNM4","Station_Nam":"EAST JORDAN 2NW","Latitude":"45.18630","Longitude":"-85.14770","Snowdepth":"3.000","Units":"in","Rept_Date":"2025-03-17 20"}},{"type":"Point","coordinates":[-68.226,46.0482],"properties":{"Station_ID":"DYRM1","Station_Nam":"DYER BROOK SNOWCOR","Latitude":"46.04820","Longitude":"-68.22600","Snowdepth":"3.000","Units":"in","Rept_Date":"2025-03-18 00"}},{"type":"Point","coordinates":[-85.2672,45.3172],"properties":{"Station_ID":"CHRM4","Station_Nam":"CHARLEVOIX","Latitude":"45.31720","Longitude":"-85.26720","Snowdepth":"3.000","Units":"in","Rept_Date":"2025-03-17 12"}},{"type":"Point","coordinates":[-52.71336,47.56404],"properties":{"Station_ID":"CAN-NL-2","Station_Nam":"ST. JOHN'S 0.4 N, CAN","Latitude":"47.56404","Longitude":"-52.71336","Snowdepth":"3.000","Units":"in","Rept_Date":"2025-03-17 09"}},{"type":"Point","coordinates":[-94.209,46.3432],"properties":{"Station_ID":"BRAM5","Station_Nam":"BRAINERD","Latitude":"46.34320","Longitude":"-94.20900","Snowdepth":"3.000","Units":"in","Rept_Date":"2025-03-17 12"}},{"type":"Point","coordinates":[-88.2543,42.6508],"properties":{"Station_ID":"BGTW3","Station_Nam":"BURLINGTON WWTP","Latitude":"42.65080","Longitude":"-88.25430","Snowdepth":"3.000","Units":"in","Rept_Date":"2025-03-17 11"}},{"type":"Point","coordinates":[-88.4177,42.59169],"properties":{"Station_ID":"WI-WW-2","Station_Nam":"LAKE GENEVA 0.6 ENE, WI","Latitude":"42.59169","Longitude":"-88.41770","Snowdepth":"2.700","Units":"in","Rept_Date":"2025-03-17 11"}},{"type":"Point","coordinates":[-88.5317,42.6697],"properties":{"Station_ID":"WI-WW-12","Station_Nam":"ELKHORN 0.4 ESE, WI","Latitude":"42.66970","Longitude":"-88.53170","Snowdepth":"2.500","Units":"in","Rept_Date":"2025-03-17 10"}},{"type":"Point","coordinates":[-88.08316,43.00792],"properties":{"Station_ID":"WI-WK-109","Station_Nam":"NEW BERLIN 3.4 NE, WI","Latitude":"43.00792","Longitude":"-88.08316","Snowdepth":"2.500","Units":"in","Rept_Date":"2025-03-17 12"}},{"type":"Point","coordinates":[-88.0301,42.80134],"properties":{"Station_ID":"WI-RC-57","Station_Nam":"FRANKSVILLE 7.0 WNW, WI","Latitude":"42.80134","Longitude":"-88.03010","Snowdepth":"2.500","Units":"in","Rept_Date":"2025-03-17 13"}},{"type":"Point","coordinates":[-88.0488,42.7876],"properties":{"Station_ID":"WI-RC-48","Station_Nam":"WIND LAKE 6.0 ESE, WI","Latitude":"42.78760","Longitude":"-88.04880","Snowdepth":"2.500","Units":"in","Rept_Date":"2025-03-17 12"}},{"type":"Point","coordinates":[-88.0151,42.95589],"properties":{"Station_ID":"WI-MW-68","Station_Nam":"GREENFIELD 0.7 SW, WI","Latitude":"42.95589","Longitude":"-88.01510","Snowdepth":"2.500","Units":"in","Rept_Date":"2025-03-17 12"}},{"type":"Point","coordinates":[-87.88705,43.10084],"properties":{"Station_ID":"WI-MW-121","Station_Nam":"WHITEFISH BAY 1.1 SE, WI","Latitude":"43.10084","Longitude":"-87.88705","Snowdepth":"2.500","Units":"in","Rept_Date":"2025-03-17 13"}},{"type":"Point","coordinates":[-94.84649,46.00588],"properties":{"Station_ID":"MN-TD-12","Station_Nam":"LONG PRAIRIE 2.1 NNE, MN","Latitude":"46.00588","Longitude":"-94.84649","Snowdepth":"2.500","Units":"in","Rept_Date":"2025-03-17 13"}},{"type":"Point","coordinates":[-95.26951,47.08653],"properties":{"Station_ID":"MN-BK-16","Station_Nam":"PARK RAPIDS 15.3 NW, MN","Latitude":"47.08653","Longitude":"-95.26951","Snowdepth":"2.500","Units":"in","Rept_Date":"2025-03-17 13"}},{"type":"Point","coordinates":[-88.25224,42.20235],"properties":{"Station_ID":"IL-MCH-95","Station_Nam":"CARY 0.5 SSW, IL","Latitude":"42.20235","Longitude":"-88.25224","Snowdepth":"2.500","Units":"in","Rept_Date":"2025-03-17 12"}},{"type":"Point","coordinates":[-88.495,42.27554],"properties":{"Station_ID":"IL-MCH-33","Station_Nam":"WOODSTOCK 3.8 SW, IL","Latitude":"42.27554","Longitude":"-88.49500","Snowdepth":"2.500","Units":"in","Rept_Date":"2025-03-17 12"}},{"type":"Point","coordinates":[-54.63396,48.97737],"properties":{"Station_ID":"CAN-NL-82","Station_Nam":"GANDER 2.7 NW, CAN","Latitude":"48.97737","Longitude":"-54.63396","Snowdepth":"2.400","Units":"in","Rept_Date":"2025-03-17 09"}},{"type":"Point","coordinates":[-66.68739,45.90112],"properties":{"Station_ID":"CAN-NB-97","Station_Nam":"NEW MARYLAND 0.6 NW, CAN","Latitude":"45.90112","Longitude":"-66.68739","Snowdepth":"2.400","Units":"in","Rept_Date":"2025-03-17 10"}},{"type":"Point","coordinates":[-66.85538,45.97014],"properties":{"Station_ID":"CAN-NB-64","Station_Nam":"KESWICK RIDGE 4.0 SE, CAN","Latitude":"45.97014","Longitude":"-66.85538","Snowdepth":"2.400","Units":"in","Rept_Date":"2025-03-17 11"}},{"type":"Point","coordinates":[-87.81724,42.74699],"properties":{"Station_ID":"WI-RC-26","Station_Nam":"RACINE 1.4 NNW, WI","Latitude":"42.74699","Longitude":"-87.81724","Snowdepth":"2.200","Units":"in","Rept_Date":"2025-03-17 10"}},{"type":"Point","coordinates":[-72.5822,44.3747],"properties":{"Station_ID":"WORV1","Station_Nam":"WORCESTER 2 W","Latitude":"44.37470","Longitude":"-72.58220","Snowdepth":"2.000","Units":"in","Rept_Date":"2025-03-17 11"}},{"type":"Point","coordinates":[-88.5315,42.3629],"properties":{"Station_ID":"WODI2","Station_Nam":"WOODSTOCK 5NW","Latitude":"42.36290","Longitude":"-88.53150","Snowdepth":"2.000","Units":"in","Rept_Date":"2025-03-17 12"}},{"type":"Point","coordinates":[-88.384,42.836],"properties":{"Station_ID":"WI-WW-13","Station_Nam":"MUKWONAGO 3.4 SW, WI","Latitude":"42.83600","Longitude":"-88.38400","Snowdepth":"2.000","Units":"in","Rept_Date":"2025-03-17 11"}},{"type":"Point","coordinates":[-87.80024,42.79688],"properties":{"Station_ID":"WI-RC-61","Station_Nam":"WIND POINT 1.7 NW, WI","Latitude":"42.79688","Longitude":"-87.80024","Snowdepth":"2.000","Units":"in","Rept_Date":"2025-03-17 13"}},{"type":"Point","coordinates":[-87.8076,42.80376],"properties":{"Station_ID":"WI-RC-41","Station_Nam":"RACINE 5.2 N, WI","Latitude":"42.80376","Longitude":"-87.80760","Snowdepth":"2.000","Units":"in","Rept_Date":"2025-03-17 12"}},{"type":"Point","coordinates":[-88.0238,42.99802],"properties":{"Station_ID":"WI-MW-18","Station_Nam":"WEST ALLIS 0.7 SSE, WI","Latitude":"42.99802","Longitude":"-88.02380","Snowdepth":"2.000","Units":"in","Rept_Date":"2025-03-17 13"}},{"type":"Point","coordinates":[-87.9873,43.113],"properties":{"Station_ID":"WI-MW-14","Station_Nam":"MILWAUKEE 3.6 NNW, WI","Latitude":"43.11300","Longitude":"-87.98730","Snowdepth":"2.000","Units":"in","Rept_Date":"2025-03-17 12"}},{"type":"Point","coordinates":[-87.82025,42.66701],"properties":{"Station_ID":"WI-KN-42","Station_Nam":"KENOSHA 6.0 NNE, WI","Latitude":"42.66701","Longitude":"-87.82025","Snowdepth":"2.000","Units":"in","Rept_Date":"2025-03-17 12"}},{"type":"Point","coordinates":[-88.0017,43.0172],"properties":{"Station_ID":"WETW3","Station_Nam":"WEST ALLIS","Latitude":"43.01720","Longitude":"-88.00170","Snowdepth":"2.000","Units":"in","Rept_Date":"2025-03-17 13"}},{"type":"Point","coordinates":[-72.23051,43.92138],"properties":{"Station_ID":"VT-OG-13","Station_Nam":"WEST FAIRLEE 1.8 ENE, VT","Latitude":"43.92138","Longitude":"-72.23051","Snowdepth":"2.000","Units":"in","Rept_Date":"2025-03-17 11"}},{"type":"Point","coordinates":[-71.70446,44.49324],"properties":{"Station_ID":"VT-ES-3","Station_Nam":"LUNENBURG 2.3 NNW, VT","Latitude":"44.49324","Longitude":"-71.70446","Snowdepth":"2.000","Units":"in","Rept_Date":"2025-03-17 10"}},{"type":"Point","coordinates":[-87.8496,42.9011],"properties":{"Station_ID":"SEEW3","Station_Nam":"SOUTH MILWAUKEE WWTP","Latitude":"42.90110","Longitude":"-87.84960","Snowdepth":"2.000","Units":"in","Rept_Date":"2025-03-17 12"}},{"type":"Point","coordinates":[-88.2266,42.7264],"properties":{"Station_ID":"ROCW3","Station_Nam":"ROCHESTER WWTP","Latitude":"42.72640","Longitude":"-88.22660","Snowdepth":"2.000","Units":"in","Rept_Date":"2025-03-17 11"}},{"type":"Point","coordinates":[-88.3328,42.5323],"properties":{"Station_ID":"PLLW3","Station_Nam":"PELL LAKE WWTP","Latitude":"42.53230","Longitude":"-88.33280","Snowdepth":"2.000","Units":"in","Rept_Date":"2025-03-17 13"}},{"type":"Point","coordinates":[-97.2386,48.9742],"properties":{"Station_ID":"PBAN8","Station_Nam":"SITE 1-3MI.N","Latitude":"48.97420","Longitude":"-97.23860","Snowdepth":"2.000","Units":"in","Rept_Date":"2025-03-17 11"}},{"type":"Point","coordinates":[-74.4188,43.9907],"properties":{"Station_ID":"NY-HM-8","Station_Nam":"LONG LAKE 1.2 N, NY","Latitude":"43.99070","Longitude":"-74.41880","Snowdepth":"2.000","Units":"in","Rept_Date":"2025-03-17 11"}},{"type":"Point","coordinates":[-73.73848,44.6398],"properties":{"Station_ID":"NY-CL-12","Station_Nam":"SARANAC 0.8 SSE, NY","Latitude":"44.63980","Longitude":"-73.73848","Snowdepth":"2.000","Units":"in","Rept_Date":"2025-03-17 11"}},{"type":"Point","coordinates":[-85.6752,44.883],"properties":{"Station_ID":"NWFM4","Station_Nam":"NW MICHIGAN RESEARCH FARM","Latitude":"44.88300","Longitude":"-85.67520","Snowdepth":"2.000","Units":"in","Rept_Date":"2025-03-17 12"}},{"type":"Point","coordinates":[-72.00019,43.07635],"properties":{"Station_ID":"NH-HL-108","Station_Nam":"ANTRIM 4.1 NW, NH","Latitude":"43.07635","Longitude":"-72.00019","Snowdepth":"2.000","Units":"in","Rept_Date":"2025-03-17 11"}},{"type":"Point","coordinates":[-91.86887,47.91158],"properties":{"Station_ID":"MN-SL-276","Station_Nam":"ELY 0.9 WNW, MN","Latitude":"47.91158","Longitude":"-91.86887","Snowdepth":"2.000","Units":"in","Rept_Date":"2025-03-17 13"}},{"type":"Point","coordinates":[-94.50714,46.30496],"properties":{"Station_ID":"MN-MR-21","Station_Nam":"PILLAGER 2.2 SW, MN","Latitude":"46.30496","Longitude":"-94.50714","Snowdepth":"2.000","Units":"in","Rept_Date":"2025-03-17 12"}},{"type":"Point","coordinates":[-90.4376,47.74865],"properties":{"Station_ID":"MN-CK-6","Station_Nam":"GRAND MARAIS 4.4 W, MN","Latitude":"47.74865","Longitude":"-90.43760","Snowdepth":"2.000","Units":"in","Rept_Date":"2025-03-17 12"}},{"type":"Point","coordinates":[-95.84444,46.88666],"properties":{"Station_ID":"MN-BK-10","Station_Nam":"DETROIT LAKES 5.7 N, MN","Latitude":"46.88666","Longitude":"-95.84444","Snowdepth":"2.000","Units":"in","Rept_Date":"2025-03-17 09"}},{"type":"Point","coordinates":[-86.4225,43.6747],"properties":{"Station_ID":"MI-OC-3","Station_Nam":"HART 3 WSW, MI","Latitude":"43.67470","Longitude":"-86.42250","Snowdepth":"2.000","Units":"in","Rept_Date":"2025-03-17 11"}},{"type":"Point","coordinates":[-87.7567,46.4055],"properties":{"Station_ID":"MI-MQ-19","Station_Nam":"ISHPEMING 7.2 SW, MI","Latitude":"46.40550","Longitude":"-87.75670","Snowdepth":"2.000","Units":"in","Rept_Date":"2025-03-17 10"}},{"type":"Point","coordinates":[-85.95783,44.22875],"properties":{"Station_ID":"MI-MN-1","Station_Nam":"WELLSTON 0.8 N, MI","Latitude":"44.22875","Longitude":"-85.95783","Snowdepth":"2.000","Units":"in","Rept_Date":"2025-03-17 14"}},{"type":"Point","coordinates":[-88.18,46.5453],"properties":{"Station_ID":"MIEM4","Station_Nam":"MICHIGAMME 3WNW","Latitude":"46.54530","Longitude":"-88.18000","Snowdepth":"2.000","Units":"in","Rept_Date":"2025-03-17 12"}},{"type":"Point","coordinates":[-70.3134,43.8464],"properties":{"Station_ID":"ME-CM-125","Station_Nam":"GRAY 2.9 SSE, ME","Latitude":"43.84640","Longitude":"-70.31340","Snowdepth":"2.000","Units":"in","Rept_Date":"2025-03-17 11"}},{"type":"Point","coordinates":[-71.7046,44.4933],"properties":{"Station_ID":"LUNV1","Station_Nam":"LUNENBURG 2 NNW","Latitude":"44.49330","Longitude":"-71.70460","Snowdepth":"2.000","Units":"in","Rept_Date":"2025-03-17 10"}},{"type":"Point","coordinates":[-85.205,44.3088],"properties":{"Station_ID":"LKCM4","Station_Nam":"LAKE CITY EXP FARM","Latitude":"44.30880","Longitude":"-85.20500","Snowdepth":"2.000","Units":"in","Rept_Date":"2025-03-17 12"}},{"type":"Point","coordinates":[-88.3946,42.32455],"properties":{"Station_ID":"IL-MCH-13","Station_Nam":"BULL VALLEY 2.5 WNW, IL","Latitude":"42.32455","Longitude":"-88.39460","Snowdepth":"2.000","Units":"in","Rept_Date":"2025-03-17 13"}},{"type":"Point","coordinates":[-88.36107,41.83007],"properties":{"Station_ID":"IL-KN-128","Station_Nam":"BATAVIA 3.4 WSW, IL","Latitude":"41.83007","Longitude":"-88.36107","Snowdepth":"2.000","Units":"in","Rept_Date":"2025-03-17 11"}},{"type":"Point","coordinates":[-88.3279,42.095],"properties":{"Station_ID":"IL-KN-118","Station_Nam":"SLEEPY HOLLOW 0.7 W, IL","Latitude":"42.09500","Longitude":"-88.32790","Snowdepth":"2.000","Units":"in","Rept_Date":"2025-03-17 12"}},{"type":"Point","coordinates":[-86.3667,43.7],"properties":{"Station_ID":"HRTM4","Station_Nam":"HART,MI","Latitude":"43.70000","Longitude":"-86.36670","Snowdepth":"2.000","Units":"in","Rept_Date":"2025-03-17 11"}},{"type":"Point","coordinates":[-88.4795,42.4671],"properties":{"Station_ID":"HEBI2","Station_Nam":"HEBRON (HYDRO)","Latitude":"42.46710","Longitude":"-88.47950","Snowdepth":"2.000","Units":"in","Rept_Date":"2025-03-17 12"}},{"type":"Point","coordinates":[-88.1221,43.2388],"properties":{"Station_ID":"GERW3","Station_Nam":"GERMANTOWN WASTEWATER UTILITY","Latitude":"43.23880","Longitude":"-88.12210","Snowdepth":"2.000","Units":"in","Rept_Date":"2025-03-17 12"}},{"type":"Point","coordinates":[-88.7076,42.0742],"properties":{"Station_ID":"GEOI2","Station_Nam":"GENOA 2SW","Latitude":"42.07420","Longitude":"-88.70760","Snowdepth":"2.000","Units":"in","Rept_Date":"2025-03-17 12"}},{"type":"Point","coordinates":[-72.8679,42.5741],"properties":{"Station_ID":"EHYM3","Station_Nam":"EAST HAWLEY","Latitude":"42.57410","Longitude":"-72.86790","Snowdepth":"2.000","Units":"in","Rept_Date":"2025-03-17 12"}},{"type":"Point","coordinates":[-91.8624,47.2472],"properties":{"Station_ID":"BRMM5","Station_Nam":"BRIMSON 2S","Latitude":"47.24720","Longitude":"-91.86240","Snowdepth":"2.000","Units":"in","Rept_Date":"2025-03-17 12"}},{"type":"Point","coordinates":[-70.7568,44.32],"properties":{"Station_ID":"BETM1","Station_Nam":"BETHEL 6 SSE","Latitude":"44.32000","Longitude":"-70.75680","Snowdepth":"2.000","Units":"in","Rept_Date":"2025-03-17 11"}},{"type":"Point","coordinates":[-88.3263,41.8334],"properties":{"Station_ID":"BATI2","Station_Nam":"BATAVIA (HYDRO)","Latitude":"41.83340","Longitude":"-88.32630","Snowdepth":"2.000","Units":"in","Rept_Date":"2025-03-17 11"}},{"type":"Point","coordinates":[-84.7188,44.9072],"properties":{"Station_ID":"APXM4","Station_Nam":"GAYLORD 9SSW","Latitude":"44.90720","Longitude":"-84.71880","Snowdepth":"2.000","Units":"in","Rept_Date":"2025-03-18 04"}},{"type":"Point","coordinates":[-84.9754,45.4345],"properties":{"Station_ID":"MI-EM-5","Station_Nam":"HARBOR SPRINGS 0.7 ENE, MI","Latitude":"45.43450","Longitude":"-84.97540","Snowdepth":"1.800","Units":"in","Rept_Date":"2025-03-17 11"}},{"type":"Point","coordinates":[-75.6992,38.17779],"properties":{"Station_ID":"011MD_MADIS","Station_Nam":"PRINCESS ANNE 2 S","Latitude":"38.17779","Longitude":"-75.69920","Snowdepth":"1.540","Units":"in","Rept_Date":"2025-03-18 06"}},{"type":"Point","coordinates":[-87.7349,43.7356],"properties":{"Station_ID":"WI-SB-19","Station_Nam":"SHEBOYGAN 0.7 SSW, WI","Latitude":"43.73560","Longitude":"-87.73490","Snowdepth":"1.500","Units":"in","Rept_Date":"2025-03-17 13"}},{"type":"Point","coordinates":[-88.00935,43.07991],"properties":{"Station_ID":"WI-MW-82","Station_Nam":"MILWAUKEE 2.4 WNW, WI","Latitude":"43.07991","Longitude":"-88.00935","Snowdepth":"1.500","Units":"in","Rept_Date":"2025-03-17 12"}},{"type":"Point","coordinates":[-87.98401,43.18438],"properties":{"Station_ID":"WI-MW-43","Station_Nam":"BROWN DEER 0.8 NW, WI","Latitude":"43.18438","Longitude":"-87.98401","Snowdepth":"1.500","Units":"in","Rept_Date":"2025-03-17 11"}},{"type":"Point","coordinates":[-96.06043,45.71649],"properties":{"Station_ID":"MN-SV-4","Station_Nam":"DONNELLY 2.9 NW, MN","Latitude":"45.71649","Longitude":"-96.06043","Snowdepth":"1.500","Units":"in","Rept_Date":"2025-03-17 12"}},{"type":"Point","coordinates":[-95.47814,45.59198],"properties":{"Station_ID":"MN-PP-22","Station_Nam":"STARBUCK 3.0 ESE, MN","Latitude":"45.59198","Longitude":"-95.47814","Snowdepth":"1.500","Units":"in","Rept_Date":"2025-03-17 13"}},{"type":"Point","coordinates":[-90.761,47.62394],"properties":{"Station_ID":"MN-CK-3","Station_Nam":"TOFTE 4.9 NE, MN","Latitude":"47.62394","Longitude":"-90.76100","Snowdepth":"1.500","Units":"in","Rept_Date":"2025-03-17 12"}},{"type":"Point","coordinates":[-90.43796,47.74462],"properties":{"Station_ID":"MN-CK-18","Station_Nam":"GRAND MARAIS 4.4 WSW, MN","Latitude":"47.74462","Longitude":"-90.43796","Snowdepth":"1.500","Units":"in","Rept_Date":"2025-03-17 12"}},{"type":"Point","coordinates":[-87.433,46.56288],"properties":{"Station_ID":"MI-MQ-33","Station_Nam":"MARQUETTE 2.0 WNW, MI","Latitude":"46.56288","Longitude":"-87.43300","Snowdepth":"1.500","Units":"in","Rept_Date":"2025-03-17 11"}},{"type":"Point","coordinates":[-88.0905,42.40305],"properties":{"Station_ID":"IL-LK-9","Station_Nam":"LAKE VILLA 1.1 SSW, IL","Latitude":"42.40305","Longitude":"-88.09050","Snowdepth":"1.500","Units":"in","Rept_Date":"2025-03-17 11"}},{"type":"Point","coordinates":[-87.9674,42.37776],"properties":{"Station_ID":"IL-LK-42","Station_Nam":"GURNEE 1.6 W, IL","Latitude":"42.37776","Longitude":"-87.96740","Snowdepth":"1.500","Units":"in","Rept_Date":"2025-03-17 12"}},{"type":"Point","coordinates":[-88.0578,42.12619],"properties":{"Station_ID":"IL-CK-346","Station_Nam":"PALATINE 1.2 NW, IL","Latitude":"42.12619","Longitude":"-88.05780","Snowdepth":"1.500","Units":"in","Rept_Date":"2025-03-17 12"}},{"type":"Point","coordinates":[-88.88282,42.32071],"properties":{"Station_ID":"IL-BN-19","Station_Nam":"BELVIDERE 5.0 NNW, IL","Latitude":"42.32071","Longitude":"-88.88282","Snowdepth":"1.500","Units":"in","Rept_Date":"2025-03-17 12"}},{"type":"Point","coordinates":[-86.245,43.9336],"properties":{"Station_ID":"MI-MS-10","Station_Nam":"SCOTTVILLE 2.1 ESE, MI","Latitude":"43.93360","Longitude":"-86.24500","Snowdepth":"1.300","Units":"in","Rept_Date":"2025-03-17 11"}},{"type":"Point","coordinates":[-88.22614,42.36632],"properties":{"Station_ID":"IL-MCH-115","Station_Nam":"MCHENRY 3.8 ENE, IL","Latitude":"42.36632","Longitude":"-88.22614","Snowdepth":"1.300","Units":"in","Rept_Date":"2025-03-17 12"}},{"type":"Point","coordinates":[-76.6234,39.39474],"properties":{"Station_ID":"013MD_MADIS","Station_Nam":"TOWSON 1 WSW","Latitude":"39.39474","Longitude":"-76.62340","Snowdepth":"1.220","Units":"in","Rept_Date":"2025-03-18 06"}},{"type":"Point","coordinates":[-88.2204,43.33391],"properties":{"Station_ID":"WI-WS-50","Station_Nam":"JACKSON 3.0 WNW, WI","Latitude":"43.33391","Longitude":"-88.22040","Snowdepth":"1.000","Units":"in","Rept_Date":"2025-03-17 12"}},{"type":"Point","coordinates":[-88.10234,43.23127],"properties":{"Station_ID":"WI-WS-16","Station_Nam":"GERMANTOWN 1.2 NE, WI","Latitude":"43.23127","Longitude":"-88.10234","Snowdepth":"1.000","Units":"in","Rept_Date":"2025-03-17 11"}},{"type":"Point","coordinates":[-88.10323,43.15672],"properties":{"Station_ID":"WI-WK-146","Station_Nam":"MENOMONEE FALLS 1.3 ENE, WI","Latitude":"43.15672","Longitude":"-88.10323","Snowdepth":"1.000","Units":"in","Rept_Date":"2025-03-17 15"}},{"type":"Point","coordinates":[-89.6247,46.1284],"properties":{"Station_ID":"WI-VL-14","Station_Nam":"BOULDER JUNCTION 1.4 NE, WI","Latitude":"46.12840","Longitude":"-89.62470","Snowdepth":"1.000","Units":"in","Rept_Date":"2025-03-17 12"}},{"type":"Point","coordinates":[-87.90563,43.10597],"properties":{"Station_ID":"WI-MW-123","Station_Nam":"WHITEFISH BAY 0.5 SSW, WI","Latitude":"43.10597","Longitude":"-87.90563","Snowdepth":"1.000","Units":"in","Rept_Date":"2025-03-17 12"}},{"type":"Point","coordinates":[-87.8566,42.5597],"properties":{"Station_ID":"WI-KN-6","Station_Nam":"KENOSHA 1.7 S, WI","Latitude":"42.55970","Longitude":"-87.85660","Snowdepth":"1.000","Units":"in","Rept_Date":"2025-03-17 11"}},{"type":"Point","coordinates":[-87.85804,42.51503],"properties":{"Station_ID":"WI-KN-28","Station_Nam":"PLEASANT PRAIRIE 1.4 ESE, WI","Latitude":"42.51503","Longitude":"-87.85804","Snowdepth":"1.000","Units":"in","Rept_Date":"2025-03-17 12"}},{"type":"Point","coordinates":[-90.1696,46.388],"properties":{"Station_ID":"WI-IR-6","Station_Nam":"HURLEY 4.1 SSE, WI","Latitude":"46.38800","Longitude":"-90.16960","Snowdepth":"1.000","Units":"in","Rept_Date":"2025-03-17 12"}},{"type":"Point","coordinates":[-85.9394,44.2586],"properties":{"Station_ID":"WELM4","Station_Nam":"WELLSTON TIPPY DAM","Latitude":"44.25860","Longitude":"-85.93940","Snowdepth":"1.000","Units":"in","Rept_Date":"2025-03-17 12"}},{"type":"Point","coordinates":[-72.43258,44.48825],"properties":{"Station_ID":"VT-WS-30","Station_Nam":"WOODBURY 3.4 NNW, VT","Latitude":"44.48825","Longitude":"-72.43258","Snowdepth":"1.000","Units":"in","Rept_Date":"2025-03-17 11"}},{"type":"Point","coordinates":[-72.2657,44.39807],"properties":{"Station_ID":"VT-WS-23","Station_Nam":"CABOT 2.3 E, VT","Latitude":"44.39807","Longitude":"-72.26570","Snowdepth":"1.000","Units":"in","Rept_Date":"2025-03-17 12"}},{"type":"Point","coordinates":[-72.652,44.16986],"properties":{"Station_ID":"VT-WS-10","Station_Nam":"NORTHFIELD 1.5 N, VT","Latitude":"44.16986","Longitude":"-72.65200","Snowdepth":"1.000","Units":"in","Rept_Date":"2025-03-17 11"}},{"type":"Point","coordinates":[-88.0363,42.6905],"properties":{"Station_ID":"UGRW3","Station_Nam":"UNION GROVE WWTP","Latitude":"42.69050","Longitude":"-88.03630","Snowdepth":"1.000","Units":"in","Rept_Date":"2025-03-17 12"}},{"type":"Point","coordinates":[-74.4382,44.2307],"properties":{"Station_ID":"TOPN6","Station_Nam":"TUPPER LAKE SUNMOUNT","Latitude":"44.23070","Longitude":"-74.43820","Snowdepth":"1.000","Units":"in","Rept_Date":"2025-03-17 11"}},{"type":"Point","coordinates":[-79.9952,38.4013],"properties":{"Station_ID":"SNOW2","Station_Nam":"SNOWSHOE","Latitude":"38.40130","Longitude":"-79.99520","Snowdepth":"1.000","Units":"in","Rept_Date":"2025-03-17 10"}},{"type":"Point","coordinates":[-86.2453,43.9331],"properties":{"Station_ID":"SCOM4","Station_Nam":"SCOTTVILLE 2 SE","Latitude":"43.93310","Longitude":"-86.24530","Snowdepth":"1.000","Units":"in","Rept_Date":"2025-03-17 11"}},{"type":"Point","coordinates":[-88.295,43.0617],"properties":{"Station_ID":"PWKW3","Station_Nam":"PEWAUKEE WWTP","Latitude":"43.06170","Longitude":"-88.29500","Snowdepth":"1.000","Units":"in","Rept_Date":"2025-03-17 12"}},{"type":"Point","coordinates":[-84.5281,43.6114],"properties":{"Station_ID":"OILM4","Station_Nam":"OIL CITY 3E","Latitude":"43.61140","Longitude":"-84.52810","Snowdepth":"1.000","Units":"in","Rept_Date":"2025-03-17 11"}},{"type":"Point","coordinates":[-71.1351,43.31175],"properties":{"Station_ID":"NH-ST-31","Station_Nam":"STRAFFORD 2.9 N, NH","Latitude":"43.31175","Longitude":"-71.13510","Snowdepth":"1.000","Units":"in","Rept_Date":"2025-03-17 11"}},{"type":"Point","coordinates":[-71.5565,43.14994],"properties":{"Station_ID":"NH-MR-4","Station_Nam":"BOW 1.6 NW, NH","Latitude":"43.14994","Longitude":"-71.55650","Snowdepth":"1.000","Units":"in","Rept_Date":"2025-03-17 11"}},{"type":"Point","coordinates":[-84.1158,44.6466],"properties":{"Station_ID":"MYOM4","Station_Nam":"MIO WWTP","Latitude":"44.64660","Longitude":"-84.11580","Snowdepth":"1.000","Units":"in","Rept_Date":"2025-03-17 12"}},{"type":"Point","coordinates":[-86.2745,43.197],"properties":{"Station_ID":"MSNM4","Station_Nam":"MUSKEGON SNOW PAID","Latitude":"43.19700","Longitude":"-86.27450","Snowdepth":"1.000","Units":"in","Rept_Date":"2025-03-17 12"}},{"type":"Point","coordinates":[-95.13102,46.44368],"properties":{"Station_ID":"MN-WD-18","Station_Nam":"WADENA 0.3 ENE, MN","Latitude":"46.44368","Longitude":"-95.13102","Snowdepth":"1.000","Units":"in","Rept_Date":"2025-03-17 13"}},{"type":"Point","coordinates":[-93.5666,47.13687],"properties":{"Station_ID":"MN-IT-7","Station_Nam":"GRAND RAPIDS 6.2 SSW, MN","Latitude":"47.13687","Longitude":"-93.56660","Snowdepth":"1.000","Units":"in","Rept_Date":"2025-03-17 11"}},{"type":"Point","coordinates":[-94.29969,46.63421],"properties":{"Station_ID":"MN-CW-77","Station_Nam":"PEQUOT LAKES 3.2 N, MN","Latitude":"46.63421","Longitude":"-94.29969","Snowdepth":"1.000","Units":"in","Rept_Date":"2025-03-17 12"}},{"type":"Point","coordinates":[-94.25352,46.35655],"properties":{"Station_ID":"MN-CW-113","Station_Nam":"BAXTER 1.6 NE, MN","Latitude":"46.35655","Longitude":"-94.25352","Snowdepth":"1.000","Units":"in","Rept_Date":"2025-03-17 13"}},{"type":"Point","coordinates":[-84.25089,44.24814],"properties":{"Station_ID":"MI-OG-6","Station_Nam":"WEST BRANCH 2.1 SSW, MI","Latitude":"44.24814","Longitude":"-84.25089","Snowdepth":"1.000","Units":"in","Rept_Date":"2025-03-17 11"}},{"type":"Point","coordinates":[-84.1028,44.7476],"properties":{"Station_ID":"MI-OD-4","Station_Nam":"MIO 6.2 NNE, MI","Latitude":"44.74760","Longitude":"-84.10280","Snowdepth":"1.000","Units":"in","Rept_Date":"2025-03-17 11"}},{"type":"Point","coordinates":[-85.6419,43.6063],"properties":{"Station_ID":"MI-NW-8","Station_Nam":"WHITE CLOUD 7.5 ENE, MI","Latitude":"43.60630","Longitude":"-85.64190","Snowdepth":"1.000","Units":"in","Rept_Date":"2025-03-17 11"}},{"type":"Point","coordinates":[-84.5847,44.11865],"properties":{"Station_ID":"MI-GL-4","Station_Nam":"GLADWIN 10.4 NNW, MI","Latitude":"44.11865","Longitude":"-84.58470","Snowdepth":"1.000","Units":"in","Rept_Date":"2025-03-17 13"}},{"type":"Point","coordinates":[-70.59612,44.09787],"properties":{"Station_ID":"ME-OX-26","Station_Nam":"OXFORD 5.3 SW, ME","Latitude":"44.09787","Longitude":"-70.59612","Snowdepth":"1.000","Units":"in","Rept_Date":"2025-03-17 12"}},{"type":"Point","coordinates":[-92.7522,48.0581],"properties":{"Station_ID":"LEIM5","Station_Nam":"ORR 3E","Latitude":"48.05810","Longitude":"-92.75220","Snowdepth":"1.000","Units":"in","Rept_Date":"2025-03-17 11"}},{"type":"Point","coordinates":[-85.56666,44.73333],"properties":{"Station_ID":"KTVC","Station_Nam":"CHERRY CAPITAL AIRPORT","Latitude":"44.73333","Longitude":"-85.56666","Snowdepth":"1.000","Units":"in","Rept_Date":"2025-03-18 00"}},{"type":"Point","coordinates":[-97.18333,47.95],"properties":{"Station_ID":"KGFK","Station_Nam":"GRAND FORKS INTERNATIONAL","Latitude":"47.95000","Longitude":"-97.18333","Snowdepth":"1.000","Units":"in","Rept_Date":"2025-03-18 00"}},{"type":"Point","coordinates":[-71.8902,44.8128],"properties":{"Station_ID":"ISLV1","Station_Nam":"ISLAND POND","Latitude":"44.81280","Longitude":"-71.89020","Snowdepth":"1.000","Units":"in","Rept_Date":"2025-03-17 13"}},{"type":"Point","coordinates":[-89.16014,41.93484],"properties":{"Station_ID":"IL-OG-16","Station_Nam":"ROCHELLE 5.1 WNW, IL","Latitude":"41.93484","Longitude":"-89.16014","Snowdepth":"1.000","Units":"in","Rept_Date":"2025-03-17 13"}},{"type":"Point","coordinates":[-88.2444,42.21215],"properties":{"Station_ID":"IL-MCH-49","Station_Nam":"CARY 0.3 NE, IL","Latitude":"42.21215","Longitude":"-88.24440","Snowdepth":"1.000","Units":"in","Rept_Date":"2025-03-17 12"}},{"type":"Point","coordinates":[-88.32787,42.15947],"properties":{"Station_ID":"IL-MCH-110","Station_Nam":"ALGONQUIN 1.4 WSW, IL","Latitude":"42.15947","Longitude":"-88.32787","Snowdepth":"1.000","Units":"in","Rept_Date":"2025-03-17 11"}},{"type":"Point","coordinates":[-88.3366,42.04041],"properties":{"Station_ID":"IL-KN-95","Station_Nam":"ELGIN 2.5 W, IL","Latitude":"42.04041","Longitude":"-88.33660","Snowdepth":"1.000","Units":"in","Rept_Date":"2025-03-17 12"}},{"type":"Point","coordinates":[-88.3232,41.86442],"properties":{"Station_ID":"IL-KN-78","Station_Nam":"GENEVA 1.3 SSW, IL","Latitude":"41.86442","Longitude":"-88.32320","Snowdepth":"1.000","Units":"in","Rept_Date":"2025-03-17 12"}},{"type":"Point","coordinates":[-88.3803,41.98401],"properties":{"Station_ID":"IL-KN-67","Station_Nam":"ST. CHARLES 6.0 NW, IL","Latitude":"41.98401","Longitude":"-88.38030","Snowdepth":"1.000","Units":"in","Rept_Date":"2025-03-17 12"}},{"type":"Point","coordinates":[-88.3068,41.81629],"properties":{"Station_ID":"IL-KN-33","Station_Nam":"NORTH AURORA 1.5 NE, IL","Latitude":"41.81629","Longitude":"-88.30680","Snowdepth":"1.000","Units":"in","Rept_Date":"2025-03-17 12"}},{"type":"Point","coordinates":[-88.3275,41.85937],"properties":{"Station_ID":"IL-KN-23","Station_Nam":"BATAVIA 1.5 WNW, IL","Latitude":"41.85937","Longitude":"-88.32750","Snowdepth":"1.000","Units":"in","Rept_Date":"2025-03-17 12"}},{"type":"Point","coordinates":[-88.32032,41.86823],"properties":{"Station_ID":"IL-KN-22","Station_Nam":"GENEVA 1.0 SSW, IL","Latitude":"41.86823","Longitude":"-88.32032","Snowdepth":"1.000","Units":"in","Rept_Date":"2025-03-17 13"}},{"type":"Point","coordinates":[-88.3053,42.0355],"properties":{"Station_ID":"IL-KN-143","Station_Nam":"ELGIN 0.9 WSW, IL","Latitude":"42.03550","Longitude":"-88.30530","Snowdepth":"1.000","Units":"in","Rept_Date":"2025-03-17 15"}},{"type":"Point","coordinates":[-70.3162,44.3744],"properties":{"Station_ID":"HRTM1","Station_Nam":"HARTFORD","Latitude":"44.37440","Longitude":"-70.31620","Snowdepth":"1.000","Units":"in","Rept_Date":"2025-03-17 11"}},{"type":"Point","coordinates":[-70.255,43.8925],"properties":{"Station_ID":"GYX","Station_Nam":"PORTLAND, ME","Latitude":"43.89250","Longitude":"-70.25500","Snowdepth":"1.000","Units":"in","Rept_Date":"2025-03-17 12"}},{"type":"Point","coordinates":[-95.3869,45.6658],"properties":{"Station_ID":"GLWM5","Station_Nam":"GLENWOOD 1N","Latitude":"45.66580","Longitude":"-95.38690","Snowdepth":"1.000","Units":"in","Rept_Date":"2025-03-17 12"}},{"type":"Point","coordinates":[-94.35,46.4119],"properties":{"Station_ID":"GLLM5","Station_Nam":"GULL LAKE DAM","Latitude":"46.41190","Longitude":"-94.35000","Snowdepth":"1.000","Units":"in","Rept_Date":"2025-03-17 13"}},{"type":"Point","coordinates":[-84.4908,43.9758],"properties":{"Station_ID":"GLAM4","Station_Nam":"GLADWIN","Latitude":"43.97580","Longitude":"-84.49080","Snowdepth":"1.000","Units":"in","Rept_Date":"2025-03-17 11"}},{"type":"Point","coordinates":[-97.1761,47.9492],"properties":{"Station_ID":"GFK","Station_Nam":"GRAND FORKS INTL ARPT","Latitude":"47.94920","Longitude":"-97.17610","Snowdepth":"1.000","Units":"in","Rept_Date":"2025-03-18 04"}},{"type":"Point","coordinates":[-86.0333,43.45],"properties":{"Station_ID":"FREM4","Station_Nam":"FREMONT,MI","Latitude":"43.45000","Longitude":"-86.03330","Snowdepth":"1.000","Units":"in","Rept_Date":"2025-03-17 11"}},{"type":"Point","coordinates":[-88.9147,41.5513],"properties":{"Station_ID":"ERVI2","Station_Nam":"EARLVILLE 3S","Latitude":"41.55130","Longitude":"-88.91470","Snowdepth":"1.000","Units":"in","Rept_Date":"2025-03-17 11"}},{"type":"Point","coordinates":[-85.5696,46.128],"properties":{"Station_ID":"ENGM4","Station_Nam":"ENGADINE MDOT","Latitude":"46.12800","Longitude":"-85.56960","Snowdepth":"1.000","Units":"in","Rept_Date":"2025-03-17 11"}},{"type":"Point","coordinates":[-91.8283,47.9056],"properties":{"Station_ID":"ELYM5","Station_Nam":"ELY","Latitude":"47.90560","Longitude":"-91.82830","Snowdepth":"1.000","Units":"in","Rept_Date":"2025-03-17 13"}},{"type":"Point","coordinates":[-85.1322,45.1519],"properties":{"Station_ID":"EJDM4","Station_Nam":"EAST JORDAN","Latitude":"45.15190","Longitude":"-85.13220","Snowdepth":"1.000","Units":"in","Rept_Date":"2025-03-17 12"}},{"type":"Point","coordinates":[-88.2886,42.0259],"properties":{"Station_ID":"EGNI2","Station_Nam":"ELGIN","Latitude":"42.02590","Longitude":"-88.28860","Snowdepth":"1.000","Units":"in","Rept_Date":"2025-03-17 13"}},{"type":"Point","coordinates":[-88.7747,41.9339],"properties":{"Station_ID":"DKAI2","Station_Nam":"DE KALB","Latitude":"41.93390","Longitude":"-88.77470","Snowdepth":"1.000","Units":"in","Rept_Date":"2025-03-17 12"}},{"type":"Point","coordinates":[-70.4078,44.5187],"properties":{"Station_ID":"DIFM1","Station_Nam":"DIXIFIELD","Latitude":"44.51870","Longitude":"-70.40780","Snowdepth":"1.000","Units":"in","Rept_Date":"2025-03-17 11"}},{"type":"Point","coordinates":[-94.1106,46.6693],"properties":{"Station_ID":"CRLM5","Station_Nam":"CROSS LAKE DAM","Latitude":"46.66930","Longitude":"-94.11060","Snowdepth":"1.000","Units":"in","Rept_Date":"2025-03-17 13"}},{"type":"Point","coordinates":[-81.1833,41.5833],"properties":{"Station_ID":"CHRO1","Station_Nam":"CHARDON,OH","Latitude":"41.58330","Longitude":"-81.18330","Snowdepth":"1.000","Units":"in","Rept_Date":"2025-03-17 12"}},{"type":"Point","coordinates":[-80.92735,44.71013],"properties":{"Station_ID":"CAN-ON-804","Station_Nam":"KEMBLE 1.6 S - GSCA, CAN","Latitude":"44.71013","Longitude":"-80.92735","Snowdepth":"1.000","Units":"in","Rept_Date":"2025-03-17 12"}},{"type":"Point","coordinates":[-81.50764,43.9735],"properties":{"Station_ID":"CAN-ON-203","Station_Nam":"LUCKNOW 1.5 NNE - MVCA, CAN","Latitude":"43.97350","Longitude":"-81.50764","Snowdepth":"1.000","Units":"in","Rept_Date":"2025-03-17 12"}},{"type":"Point","coordinates":[-85.4833,43.7],"properties":{"Station_ID":"BGRM4","Station_Nam":"WATER WORKS","Latitude":"43.70000","Longitude":"-85.48330","Snowdepth":"1.000","Units":"in","Rept_Date":"2025-03-17 11"}},{"type":"Point","coordinates":[-88.1774,43.052],"properties":{"Station_ID":"BFDW3","Station_Nam":"BROOKFIELD WWTP","Latitude":"43.05200","Longitude":"-88.17740","Snowdepth":"1.000","Units":"in","Rept_Date":"2025-03-17 13"}},{"type":"Point","coordinates":[-86.1311,44.5316],"properties":{"Station_ID":"BEUM4","Station_Nam":"BEULAH 7SSW","Latitude":"44.53160","Longitude":"-86.13110","Snowdepth":"1.000","Units":"in","Rept_Date":"2025-03-17 12"}},{"type":"Point","coordinates":[-88.1639,42.1153],"properties":{"Station_ID":"BARI2","Station_Nam":"BARRINGTON 3SW","Latitude":"42.11530","Longitude":"-88.16390","Snowdepth":"1.000","Units":"in","Rept_Date":"2025-03-17 13"}},{"type":"Point","coordinates":[-84.1404,45.0047],"properties":{"Station_ID":"ATLM4","Station_Nam":"ATLANTA","Latitude":"45.00470","Longitude":"-84.14040","Snowdepth":"1.000","Units":"in","Rept_Date":"2025-03-17 11"}},{"type":"Point","coordinates":[-83.5597,45.0311],"properties":{"Station_ID":"ALPM4","Station_Nam":"SNOW PAID OBSERVER FOR KAPN","Latitude":"45.03110","Longitude":"-83.55970","Snowdepth":"1.000","Units":"in","Rept_Date":"2025-03-17 12"}},{"type":"Point","coordinates":[-80.0143,42.0801],"properties":{"Station_ID":"42.0801_080.0143","Station_Nam":"4 S Wesleyville  Trained Spotter (X4210800)","Latitude":"42.08010","Longitude":"-80.01430","Snowdepth":"1.000","Units":"in","Rept_Date":"2025-03-17 12"}},{"type":"Point","coordinates":[-81.4989,41.5709],"properties":{"Station_ID":"41.5709_081.4989","Station_Nam":"1 NNE Richmond Heights  Trained Spotter (X4160815)","Latitude":"41.57090","Longitude":"-81.49890","Snowdepth":"1.000","Units":"in","Rept_Date":"2025-03-17 10"}},{"type":"Point","coordinates":[-81.373,41.4589],"properties":{"Station_ID":"41.4589_081.3730","Station_Nam":"2 W Russell Center  Trained Spotter (X4150814)","Latitude":"41.45890","Longitude":"-81.37300","Snowdepth":"1.000","Units":"in","Rept_Date":"2025-03-17 11"}}]}},"arcs":[],"bbox":[-97.2386,38.17779,-52.71336,52.1145]}
