{"type":"Topology","objects":{"snowdepth_geo":{"type":"GeometryCollection","name":"snowdepth","crs":{"type":"name","properties":{"name":"urn:ogc:def:crs:OGC:1.3:CRS84"}},"geometries":[{"type":"Point","properties":{"Station_ID":"PRKM4","Station_Nam":"MUNISING EAST","Latitude":"46.42580","Longitude":"-86.62000","Snowdepth":"76.500","Units":"in","Rept_Date":"2020-04-16 06"},"coordinates":[2491,6396]},{"type":"Point","properties":{"Station_ID":"OGIQ6","Station_Nam":"OGOKI CAMP","Latitude":"50.76680","Longitude":"-87.85820","Snowdepth":"61.100","Units":"in","Rept_Date":"2020-04-16 06"},"coordinates":[2201,9346]},{"type":"Point","properties":{"Station_ID":"AUDQ6","Station_Nam":"AUDEN","Latitude":"48.52600","Longitude":"-82.57570","Snowdepth":"47.640","Units":"in","Rept_Date":"2020-04-16 06"},"coordinates":[3440,7823]},{"type":"Point","properties":{"Station_ID":"DVLQ6","Station_Nam":"DEVIOUS LAKE","Latitude":"49.19890","Longitude":"-87.76440","Snowdepth":"43.460","Units":"in","Rept_Date":"2020-04-16 06"},"coordinates":[2223,8281]},{"type":"Point","properties":{"Station_ID":"CLUM4","Station_Nam":"CALUMET-TAMARACK","Latitude":"47.24550","Longitude":"-88.46790","Snowdepth":"38.000","Units":"in","Rept_Date":"2020-04-15 13"},"coordinates":[2057,6953]},{"type":"Point","properties":{"Station_ID":"PDLM4","Station_Nam":"PAINESDALE","Latitude":"47.04160","Longitude":"-88.67170","Snowdepth":"33.000","Units":"in","Rept_Date":"2020-04-15 12"},"coordinates":[2010,6814]},{"type":"Point","properties":{"Station_ID":"MNSM4","Station_Nam":"MUNISING","Latitude":"46.41210","Longitude":"-86.66250","Snowdepth":"32.000","Units":"in","Rept_Date":"2020-04-15 10"},"coordinates":[2481,6387]},{"type":"Point","properties":{"Station_ID":"MI-BG-3","Station_Nam":"L'ANSE 17.8 SE, MI","Latitude":"46.55730","Longitude":"-88.20770","Snowdepth":"26.000","Units":"in","Rept_Date":"2020-04-15 12"},"coordinates":[2119,6485]},{"type":"Point","properties":{"Station_ID":"MQT","Station_Nam":"MARQUETTE, MI","Latitude":"46.53140","Longitude":"-87.54920","Snowdepth":"25.000","Units":"in","Rept_Date":"2020-04-16 06"},"coordinates":[2273,6468]},{"type":"Point","properties":{"Station_ID":"HERM4","Station_Nam":"HERMAN,MI","Latitude":"46.65000","Longitude":"-88.33330","Snowdepth":"25.000","Units":"in","Rept_Date":"2020-04-15 12"},"coordinates":[2089,6548]},{"type":"Point","properties":{"Station_ID":"KSGM4","Station_Nam":"KEARSARGE","Latitude":"47.27520","Longitude":"-88.41700","Snowdepth":"22.000","Units":"in","Rept_Date":"2020-04-15 12"},"coordinates":[2069,6973]},{"type":"Point","properties":{"Station_ID":"QNCM4","Station_Nam":"QUINCY HILL","Latitude":"47.13640","Longitude":"-88.57950","Snowdepth":"20.000","Units":"in","Rept_Date":"2020-04-15 11"},"coordinates":[2031,6879]},{"type":"Point","properties":{"Station_ID":"PTLQ6","Station_Nam":"PORTAGE LAKE","Latitude":"49.06950","Longitude":"-86.65940","Snowdepth":"16.220","Units":"in","Rept_Date":"2020-04-16 06"},"coordinates":[2482,8193]},{"type":"Point","properties":{"Station_ID":"TRIQ6","Station_Nam":"TRIO LAKE","Latitude":"49.22880","Longitude":"-87.22920","Snowdepth":"15.240","Units":"in","Rept_Date":"2020-04-16 06"},"coordinates":[2348,8301]},{"type":"Point","properties":{"Station_ID":"CAN-NB-13","Station_Nam":"BATHURST 3.8 NW, CAN","Latitude":"47.64212","Longitude":"-65.68756","Snowdepth":"15.000","Units":"in","Rept_Date":"2020-04-15 10"},"coordinates":[7404,7223]},{"type":"Point","properties":{"Station_ID":"SVBQ6","Station_Nam":"SAVANT BASE","Latitude":"50.28730","Longitude":"-90.65670","Snowdepth":"14.330","Units":"in","Rept_Date":"2020-04-16 06"},"coordinates":[1544,9021]},{"type":"Point","properties":{"Station_ID":"WLFM5","Station_Nam":"WOLF RIDGE ENVIRON LEARNING CENTER","Latitude":"47.38240","Longitude":"-91.19730","Snowdepth":"14.000","Units":"in","Rept_Date":"2020-04-15 12"},"coordinates":[1417,7046]},{"type":"Point","properties":{"Station_ID":"NH-CS-10","Station_Nam":"RANDOLPH 1.4 NE, NH","Latitude":"44.38824","Longitude":"-71.26950","Snowdepth":"14.000","Units":"in","Rept_Date":"2020-04-15 11"},"coordinates":[6094,5011]},{"type":"Point","properties":{"Station_ID":"STEM4","Station_Nam":"STEUBEN","Latitude":"46.18530","Longitude":"-86.46410","Snowdepth":"13.000","Units":"in","Rept_Date":"2020-04-15 13"},"coordinates":[2528,6232]},{"type":"Point","properties":{"Station_ID":"CAN-NL-82","Station_Nam":"GANDER 2.7 NW, CAN","Latitude":"48.97737","Longitude":"-54.63396","Snowdepth":"12.200","Units":"in","Rept_Date":"2020-04-15 09"},"coordinates":[9999,8130]},{"type":"Point","properties":{"Station_ID":"ME-AR-18","Station_Nam":"NEW SWEDEN 4.9 NNW, ME","Latitude":"47.01080","Longitude":"-68.14390","Snowdepth":"12.000","Units":"in","Rept_Date":"2020-04-15 11"},"coordinates":[6828,6794]},{"type":"Point","properties":{"Station_ID":"GGRM4","Station_Nam":"GREEN GARDEN NO.2","Latitude":"46.45330","Longitude":"-87.30380","Snowdepth":"12.000","Units":"in","Rept_Date":"2020-04-15 11"},"coordinates":[2331,6415]},{"type":"Point","properties":{"Station_ID":"CAN-NB-11","Station_Nam":"MIRAMICHI 3.3 S, CAN","Latitude":"46.99343","Longitude":"-65.50690","Snowdepth":"11.000","Units":"in","Rept_Date":"2020-04-15 10"},"coordinates":[7447,6782]},{"type":"Point","properties":{"Station_ID":"WI-VL-9","Station_Nam":"LAND O' LAKES 11.7 W, WI","Latitude":"46.19023","Longitude":"-89.45790","Snowdepth":"10.000","Units":"in","Rept_Date":"2020-04-15 12"},"coordinates":[1825,6236]},{"type":"Point","properties":{"Station_ID":"LNOW3","Station_Nam":"LAND O LAKES","Latitude":"46.19000","Longitude":"-89.45700","Snowdepth":"10.000","Units":"in","Rept_Date":"2020-04-15 12"},"coordinates":[1825,6236]},{"type":"Point","properties":{"Station_ID":"CAN-NL-65","Station_Nam":"KIPPENS 0.7 NE, CA","Latitude":"48.55436","Longitude":"-58.61850","Snowdepth":"10.000","Units":"in","Rept_Date":"2020-04-15 11"},"coordinates":[9064,7843]},{"type":"Point","properties":{"Station_ID":"WI-LN-2","Station_Nam":"MERRILL 7.0 W, WI","Latitude":"45.17746","Longitude":"-89.84820","Snowdepth":"9.000","Units":"in","Rept_Date":"2020-04-15 11"},"coordinates":[1733,5547]},{"type":"Point","properties":{"Station_ID":"WI-IR-3","Station_Nam":"PENCE 0.1 E, WI","Latitude":"46.41555","Longitude":"-90.27013","Snowdepth":"9.000","Units":"in","Rept_Date":"2020-04-15 12"},"coordinates":[1634,6389]},{"type":"Point","properties":{"Station_ID":"TAKW3","Station_Nam":"RICE RESERVOIR NO. 2","Latitude":"45.53770","Longitude":"-89.73220","Snowdepth":"9.000","Units":"in","Rept_Date":"2020-04-15 12"},"coordinates":[1761,5792]},{"type":"Point","properties":{"Station_ID":"MRQM4","Station_Nam":"MARQUETTE WFP","Latitude":"46.54580","Longitude":"-87.37950","Snowdepth":"9.000","Units":"in","Rept_Date":"2020-04-15 12"},"coordinates":[2313,6478]},{"type":"Point","properties":{"Station_ID":"MLLW3","Station_Nam":"MERRILL 8W","Latitude":"45.17810","Longitude":"-89.84810","Snowdepth":"9.000","Units":"in","Rept_Date":"2020-04-15 11"},"coordinates":[1733,5548]},{"type":"Point","properties":{"Station_ID":"IBLM5","Station_Nam":"ISABELLA 14W","Latitude":"47.59360","Longitude":"-91.65140","Snowdepth":"9.000","Units":"in","Rept_Date":"2020-04-15 14"},"coordinates":[1310,7190]},{"type":"Point","properties":{"Station_ID":"FISM1","Station_Nam":"FORT KENT COOP","Latitude":"47.23850","Longitude":"-68.61240","Snowdepth":"9.000","Units":"in","Rept_Date":"2020-04-15 11"},"coordinates":[6718,6948]},{"type":"Point","properties":{"Station_ID":"AROM4","Station_Nam":"ARNOLD,MI","Latitude":"46.06670","Longitude":"-87.48330","Snowdepth":"9.000","Units":"in","Rept_Date":"2020-04-15 12"},"coordinates":[2289,6152]},{"type":"Point","properties":{"Station_ID":"ABGW3","Station_Nam":"AMBERG 9 E","Latitude":"45.48250","Longitude":"-87.81190","Snowdepth":"9.000","Units":"in","Rept_Date":"2020-04-15 11"},"coordinates":[2211,5755]},{"type":"Point","properties":{"Station_ID":"WI-VL-10","Station_Nam":"LAND O LAKES 4.3 WNW, WI","Latitude":"46.17440","Longitude":"-89.30380","Snowdepth":"8.500","Units":"in","Rept_Date":"2020-04-15 12"},"coordinates":[1861,6225]},{"type":"Point","properties":{"Station_ID":"MI-HG-1","Station_Nam":"HOUGHTON 1.6 ESE, MI","Latitude":"47.10774","Longitude":"-88.52940","Snowdepth":"8.500","Units":"in","Rept_Date":"2020-04-15 12"},"coordinates":[2043,6859]},{"type":"Point","properties":{"Station_ID":"STGW3","Station_Nam":"ST GERMAIN","Latitude":"45.91550","Longitude":"-89.48940","Snowdepth":"8.000","Units":"in","Rept_Date":"2020-04-15 11"},"coordinates":[1818,6049]},{"type":"Point","properties":{"Station_ID":"PDGM4","Station_Nam":"PAULDING","Latitude":"46.39760","Longitude":"-89.17940","Snowdepth":"8.000","Units":"in","Rept_Date":"2020-04-15 12"},"coordinates":[1890,6377]},{"type":"Point","properties":{"Station_ID":"COVM4","Station_Nam":"COVINGTON","Latitude":"46.55880","Longitude":"-88.54190","Snowdepth":"8.000","Units":"in","Rept_Date":"2020-04-15 12"},"coordinates":[2040,6486]},{"type":"Point","properties":{"Station_ID":"ZNOM4","Station_Nam":"NORWAY","Latitude":"45.77810","Longitude":"-87.89560","Snowdepth":"7.000","Units":"in","Rept_Date":"2020-04-16 00"},"coordinates":[2192,5956]},{"type":"Point","properties":{"Station_ID":"WI-ON-6","Station_Nam":"RHINELANDER 5.2 N, WI","Latitude":"45.71388","Longitude":"-89.42150","Snowdepth":"7.000","Units":"in","Rept_Date":"2020-04-15 14"},"coordinates":[1834,5912]},{"type":"Point","properties":{"Station_ID":"RHIW3","Station_Nam":"RHINELANDER","Latitude":"45.59860","Longitude":"-89.45080","Snowdepth":"7.000","Units":"in","Rept_Date":"2020-04-15 12"},"coordinates":[1827,5834]},{"type":"Point","properties":{"Station_ID":"RGNM1","Station_Nam":"RANGELEY 2NW","Latitude":"44.98940","Longitude":"-70.67220","Snowdepth":"7.000","Units":"in","Rept_Date":"2020-04-15 10"},"coordinates":[6234,5420]},{"type":"Point","properties":{"Station_ID":"LVDW3","Station_Nam":"LAC VIEUX DESERT","Latitude":"46.12110","Longitude":"-89.07580","Snowdepth":"7.000","Units":"in","Rept_Date":"2020-04-15 14"},"coordinates":[1915,6189]},{"type":"Point","properties":{"Station_ID":"IWOM4","Station_Nam":"IRONWOOD#2","Latitude":"46.46520","Longitude":"-90.13820","Snowdepth":"7.000","Units":"in","Rept_Date":"2020-04-15 12"},"coordinates":[1665,6423]},{"type":"Point","properties":{"Station_ID":"FLNW3","Station_Nam":"FLORENCE","Latitude":"45.93360","Longitude":"-88.25830","Snowdepth":"7.000","Units":"in","Rept_Date":"2020-04-15 12"},"coordinates":[2107,6061]},{"type":"Point","properties":{"Station_ID":"BRAM1","Station_Nam":"BRASSUA DAM","Latitude":"45.66020","Longitude":"-69.81190","Snowdepth":"7.000","Units":"in","Rept_Date":"2020-04-15 11"},"coordinates":[6436,5876]},{"type":"Point","properties":{"Station_ID":"WI-CK-3","Station_Nam":"COLBY 5.9 WSW, WI","Latitude":"44.87209","Longitude":"-90.42463","Snowdepth":"6.500","Units":"in","Rept_Date":"2020-04-16 00"},"coordinates":[1598,5340]},{"type":"Point","properties":{"Station_ID":"SOCQ6","Station_Nam":"SOCKET LAKE","Latitude":"50.77870","Longitude":"-91.79300","Snowdepth":"6.220","Units":"in","Rept_Date":"2020-04-16 06"},"coordinates":[1277,9355]},{"type":"Point","properties":{"Station_ID":"KABQ6","Station_Nam":"CAB LAKE","Latitude":"49.59950","Longitude":"-89.17990","Snowdepth":"6.220","Units":"in","Rept_Date":"2020-04-16 06"},"coordinates":[1890,8553]},{"type":"Point","properties":{"Station_ID":"WTNM4","Station_Nam":"WATTON 2WSW","Latitude":"46.52660","Longitude":"-88.64240","Snowdepth":"6.000","Units":"in","Rept_Date":"2020-04-15 12"},"coordinates":[2016,6464]},{"type":"Point","properties":{"Station_ID":"WRPW3","Station_Nam":"WATER PURIFICATION PLANT","Latitude":"44.38800","Longitude":"-89.80550","Snowdepth":"6.000","Units":"in","Rept_Date":"2020-04-15 11"},"coordinates":[1743,5011]},{"type":"Point","properties":{"Station_ID":"RLKW3","Station_Nam":"REST LAKE","Latitude":"46.12220","Longitude":"-89.87720","Snowdepth":"6.000","Units":"in","Rept_Date":"2020-04-15 13"},"coordinates":[1727,6190]},{"type":"Point","properties":{"Station_ID":"RHLW3","Station_Nam":"RHINELANDER 4NE","Latitude":"45.65270","Longitude":"-89.30740","Snowdepth":"6.000","Units":"in","Rept_Date":"2020-04-15 11"},"coordinates":[1860,5870]},{"type":"Point","properties":{"Station_ID":"MEDW3","Station_Nam":"MEDFORD","Latitude":"45.13080","Longitude":"-90.34390","Snowdepth":"6.000","Units":"in","Rept_Date":"2020-04-15 13"},"coordinates":[1617,5516]},{"type":"Point","properties":{"Station_ID":"EVRW3","Station_Nam":"EAGLE RIVER-4 E","Latitude":"45.91890","Longitude":"-89.15280","Snowdepth":"6.000","Units":"in","Rept_Date":"2020-04-15 11"},"coordinates":[1897,6051]},{"type":"Point","properties":{"Station_ID":"CLKM4","Station_Nam":"CLARKSBURG","Latitude":"46.49910","Longitude":"-87.84500","Snowdepth":"6.000","Units":"in","Rept_Date":"2020-04-15 11"},"coordinates":[2204,6446]},{"type":"Point","properties":{"Station_ID":"AURW3","Station_Nam":"AURORA","Latitude":"45.77000","Longitude":"-88.11810","Snowdepth":"6.000","Units":"in","Rept_Date":"2020-04-15 12"},"coordinates":[2140,5950]},{"type":"Point","properties":{"Station_ID":"AMAM4","Station_Nam":"AMASA 1W","Latitude":"46.23470","Longitude":"-88.45440","Snowdepth":"6.000","Units":"in","Rept_Date":"2020-04-15 13"},"coordinates":[2061,6266]},{"type":"Point","properties":{"Station_ID":"AGNW3","Station_Nam":"ARGONNE-1.5 NW","Latitude":"45.67360","Longitude":"-88.90380","Snowdepth":"6.000","Units":"in","Rept_Date":"2020-04-15 12"},"coordinates":[1955,5885]},{"type":"Point","properties":{"Station_ID":"CAN-QC-47","Station_Nam":"SAINTE-FOY 1.8 ENE, CAN","Latitude":"46.76934","Longitude":"-71.27124","Snowdepth":"5.100","Units":"in","Rept_Date":"2020-04-15 11"},"coordinates":[6094,6629]},{"type":"Point","properties":{"Station_ID":"WTRM4","Station_Nam":"WATERSMEET 12WSW","Latitude":"46.22310","Longitude":"-89.40850","Snowdepth":"5.000","Units":"in","Rept_Date":"2020-04-15 11"},"coordinates":[1837,6258]},{"type":"Point","properties":{"Station_ID":"WSKW3","Station_Nam":"WAUSAUKEE","Latitude":"45.38020","Longitude":"-87.95660","Snowdepth":"5.000","Units":"in","Rept_Date":"2020-04-15 13"},"coordinates":[2177,5685]},{"type":"Point","properties":{"Station_ID":"WI-VL-14","Station_Nam":"BOULDER JUNCTION 1.4 NE, WI","Latitude":"46.12840","Longitude":"-89.62470","Snowdepth":"5.000","Units":"in","Rept_Date":"2020-04-15 12"},"coordinates":[1786,6194]},{"type":"Point","properties":{"Station_ID":"WI-TY-2","Station_Nam":"SHELDON 8.1 ENE, WI","Latitude":"45.35598","Longitude":"-90.80296","Snowdepth":"5.000","Units":"in","Rept_Date":"2020-04-15 12"},"coordinates":[1509,5669]},{"type":"Point","properties":{"Station_ID":"SULW3","Station_Nam":"SUMMIT LAKE","Latitude":"45.37880","Longitude":"-89.19410","Snowdepth":"5.000","Units":"in","Rept_Date":"2020-04-15 10"},"coordinates":[1887,5684]},{"type":"Point","properties":{"Station_ID":"SUAW3","Station_Nam":"SUAMICO","Latitude":"44.60190","Longitude":"-88.09780","Snowdepth":"5.000","Units":"in","Rept_Date":"2020-04-15 11"},"coordinates":[2144,5156]},{"type":"Point","properties":{"Station_ID":"SSMM4","Station_Nam":"SAULT STE MARIE","Latitude":"46.48660","Longitude":"-84.40250","Snowdepth":"5.000","Units":"in","Rept_Date":"2020-04-15 12"},"coordinates":[3012,6437]},{"type":"Point","properties":{"Station_ID":"SPCW3","Station_Nam":"SPENCER-WWTP","Latitude":"44.75390","Longitude":"-90.28920","Snowdepth":"5.000","Units":"in","Rept_Date":"2020-04-15 12"},"coordinates":[1630,5260]},{"type":"Point","properties":{"Station_ID":"RST","Station_Nam":"ROCHESTER INTERNATIONAL ARPT","Latitude":"43.90890","Longitude":"-92.49780","Snowdepth":"5.000","Units":"in","Rept_Date":"2020-04-16 00"},"coordinates":[1112,4685]},{"type":"Point","properties":{"Station_ID":"RSRM5","Station_Nam":"ROCHESTER AP 2NE","Latitude":"43.92810","Longitude":"-92.47580","Snowdepth":"5.000","Units":"in","Rept_Date":"2020-04-15 17"},"coordinates":[1117,4698]},{"type":"Point","properties":{"Station_ID":"RKWM1","Station_Nam":"MOOSEHEAD LAKE","Latitude":"45.58330","Longitude":"-69.71670","Snowdepth":"5.000","Units":"in","Rept_Date":"2020-04-15 11"},"coordinates":[6459,5823]},{"type":"Point","properties":{"Station_ID":"RHI","Station_Nam":"RHINELANDER-ONEIDA COUNTY AIRPORT","Latitude":"45.63080","Longitude":"-89.46530","Snowdepth":"5.000","Units":"in","Rept_Date":"2020-04-15 12"},"coordinates":[1823,5856]},{"type":"Point","properties":{"Station_ID":"MWN","Station_Nam":"MOUNT WASHINGTON","Latitude":"44.26670","Longitude":"-71.30000","Snowdepth":"5.000","Units":"in","Rept_Date":"2020-04-15 12"},"coordinates":[6087,4928]},{"type":"Point","properties":{"Station_ID":"MN-CK-6","Station_Nam":"GRAND MARAIS 4.4 W, MN","Latitude":"47.74865","Longitude":"-90.43760","Snowdepth":"5.000","Units":"in","Rept_Date":"2020-04-15 12"},"coordinates":[1595,7295]},{"type":"Point","properties":{"Station_ID":"MN-CK-18","Station_Nam":"GRAND MARAIS 4.4 WSW, MN","Latitude":"47.74462","Longitude":"-90.43796","Snowdepth":"5.000","Units":"in","Rept_Date":"2020-04-15 12"},"coordinates":[1595,7292]},{"type":"Point","properties":{"Station_ID":"MIEM4","Station_Nam":"MICHIGAMME 3WNW","Latitude":"46.54530","Longitude":"-88.18000","Snowdepth":"5.000","Units":"in","Rept_Date":"2020-04-15 12"},"coordinates":[2125,6477]},{"type":"Point","properties":{"Station_ID":"KMWN","Station_Nam":"MOUNT WASHINGTON","Latitude":"44.26666","Longitude":"-71.30000","Snowdepth":"5.000","Units":"in","Rept_Date":"2020-04-16 06"},"coordinates":[6087,4928]},{"type":"Point","properties":{"Station_ID":"JCBM4","Station_Nam":"JACOBSVILLE","Latitude":"47.00830","Longitude":"-88.43180","Snowdepth":"5.000","Units":"in","Rept_Date":"2020-04-15 11"},"coordinates":[2066,6792]},{"type":"Point","properties":{"Station_ID":"HURW3","Station_Nam":"HURLEY","Latitude":"46.46250","Longitude":"-90.19550","Snowdepth":"5.000","Units":"in","Rept_Date":"2020-04-15 13"},"coordinates":[1652,6421]},{"type":"Point","properties":{"Station_ID":"EGRW3","Station_Nam":"EAGLE RIVER-SOUTH","Latitude":"45.91360","Longitude":"-89.24360","Snowdepth":"5.000","Units":"in","Rept_Date":"2020-04-15 12"},"coordinates":[1875,6048]},{"type":"Point","properties":{"Station_ID":"AVTW3","Station_Nam":"ARBOR VITAE-JOHNSON LAKE","Latitude":"45.89940","Longitude":"-89.72670","Snowdepth":"5.000","Units":"in","Rept_Date":"2020-04-15 11"},"coordinates":[1762,6038]},{"type":"Point","properties":{"Station_ID":"AGSW3","Station_Nam":"AUGUSTA RANGER STATION","Latitude":"44.68250","Longitude":"-91.13570","Snowdepth":"5.000","Units":"in","Rept_Date":"2020-04-15 13"},"coordinates":[1431,5211]},{"type":"Point","properties":{"Station_ID":"WI-PR-6","Station_Nam":"PHILLIPS 1.3 S, WI","Latitude":"45.67677","Longitude":"-90.39543","Snowdepth":"4.500","Units":"in","Rept_Date":"2020-04-15 11"},"coordinates":[1605,5887]},{"type":"Point","properties":{"Station_ID":"MN-OL-18","Station_Nam":"ROCHESTER 2.6 NE, MN","Latitude":"44.03975","Longitude":"-92.43750","Snowdepth":"4.500","Units":"in","Rept_Date":"2020-04-15 11"},"coordinates":[1126,4774]},{"type":"Point","properties":{"Station_ID":"WI-ON-11","Station_Nam":"MINOCQUA 6.0 W, WI","Latitude":"45.88660","Longitude":"-89.83084","Snowdepth":"4.400","Units":"in","Rept_Date":"2020-04-15 12"},"coordinates":[1738,6029]},{"type":"Point","properties":{"Station_ID":"WI-DN-1","Station_Nam":"BOYCEVILLE 3.3 N, WI","Latitude":"45.08913","Longitude":"-92.02760","Snowdepth":"4.000","Units":"in","Rept_Date":"2020-04-15 12"},"coordinates":[1222,5487]},{"type":"Point","properties":{"Station_ID":"SPRI4","Station_Nam":"SPIRIT LAKE","Latitude":"43.42310","Longitude":"-95.10000","Snowdepth":"4.000","Units":"in","Rept_Date":"2020-04-15 12"},"coordinates":[501,4355]},{"type":"Point","properties":{"Station_ID":"RRLW3","Station_Nam":"MERRILL,WI","Latitude":"45.17860","Longitude":"-89.66170","Snowdepth":"4.000","Units":"in","Rept_Date":"2020-04-15 13"},"coordinates":[1777,5548]},{"type":"Point","properties":{"Station_ID":"RHRW3","Station_Nam":"RHINELANDER WJFW TV-12","Latitude":"45.62220","Longitude":"-89.41000","Snowdepth":"4.000","Units":"in","Rept_Date":"2020-04-16 03"},"coordinates":[1836,5850]},{"type":"Point","properties":{"Station_ID":"MI-CP-14","Station_Nam":"SAULT STE. MARIE 2.2 E, MI","Latitude":"46.48933","Longitude":"-84.31971","Snowdepth":"4.000","Units":"in","Rept_Date":"2020-04-15 13"},"coordinates":[3031,6439]},{"type":"Point","properties":{"Station_ID":"IRMM4","Station_Nam":"WWTP","Latitude":"46.46670","Longitude":"-90.18330","Snowdepth":"4.000","Units":"in","Rept_Date":"2020-04-15 12"},"coordinates":[1655,6424]},{"type":"Point","properties":{"Station_ID":"ERRW3","Station_Nam":"MERRILL-4 W","Latitude":"45.17360","Longitude":"-89.77580","Snowdepth":"4.000","Units":"in","Rept_Date":"2020-04-15 21"},"coordinates":[1750,5545]},{"type":"Point","properties":{"Station_ID":"EPTW3","Station_Nam":"EAU PLEINE TENDER","Latitude":"44.77220","Longitude":"-89.76720","Snowdepth":"4.000","Units":"in","Rept_Date":"2020-04-15 12"},"coordinates":[1752,5272]},{"type":"Point","properties":{"Station_ID":"ELRW3","Station_Nam":"EAU CLAIRE 3SW","Latitude":"44.78780","Longitude":"-91.51650","Snowdepth":"4.000","Units":"in","Rept_Date":"2020-04-16 05"},"coordinates":[1342,5283]},{"type":"Point","properties":{"Station_ID":"EGNM5","Station_Nam":"ELGIN 2SSW","Latitude":"44.09700","Longitude":"-92.27010","Snowdepth":"4.000","Units":"in","Rept_Date":"2020-04-15 12"},"coordinates":[1165,4813]},{"type":"Point","properties":{"Station_ID":"BREW3","Station_Nam":"SURING","Latitude":"44.99580","Longitude":"-88.37860","Snowdepth":"4.000","Units":"in","Rept_Date":"2020-04-15 12"},"coordinates":[2078,5424]},{"type":"Point","properties":{"Station_ID":"ASTW3","Station_Nam":"ATHELSTANE","Latitude":"45.42500","Longitude":"-88.05750","Snowdepth":"4.000","Units":"in","Rept_Date":"2020-04-15 11"},"coordinates":[2154,5716]},{"type":"Point","properties":{"Station_ID":"CAN-NL-81","Station_Nam":"GRAND FALLS-WINDSOR 1.2 S, CAN","Latitude":"48.93123","Longitude":"-55.65333","Snowdepth":"3.900","Units":"in","Rept_Date":"2020-04-15 09"},"coordinates":[9760,8099]},{"type":"Point","properties":{"Station_ID":"WI-PR-8","Station_Nam":"PHILLIPS 0.4 SSW, WI","Latitude":"45.69086","Longitude":"-90.40200","Snowdepth":"3.500","Units":"in","Rept_Date":"2020-04-15 12"},"coordinates":[1603,5896]},{"type":"Point","properties":{"Station_ID":"WI-EC-25","Station_Nam":"EAU CLAIRE 5.4 SSE, WI","Latitude":"44.75300","Longitude":"-91.43830","Snowdepth":"3.500","Units":"in","Rept_Date":"2020-04-15 13"},"coordinates":[1360,5259]},{"type":"Point","properties":{"Station_ID":"WI-CH-7","Station_Nam":"CHIPPEWA FALLS 1.2 E, WI","Latitude":"44.92920","Longitude":"-91.36730","Snowdepth":"3.500","Units":"in","Rept_Date":"2020-04-15 12"},"coordinates":[1377,5379]},{"type":"Point","properties":{"Station_ID":"VT-OL-12","Station_Nam":"GREENSBORO 3.9 NNE, VT","Latitude":"44.63100","Longitude":"-72.28000","Snowdepth":"3.500","Units":"in","Rept_Date":"2020-04-15 12"},"coordinates":[5857,5176]},{"type":"Point","properties":{"Station_ID":"VT-CL-3","Station_Nam":"GROTON 4.4 WSW, VT","Latitude":"44.19440","Longitude":"-72.28240","Snowdepth":"3.500","Units":"in","Rept_Date":"2020-04-15 10"},"coordinates":[5857,4879]},{"type":"Point","properties":{"Station_ID":"MI-CX-7","Station_Nam":"EAST JORDAN 2.1 NNW, MI","Latitude":"45.18639","Longitude":"-85.14750","Snowdepth":"3.500","Units":"in","Rept_Date":"2020-04-15 12"},"coordinates":[2837,5554]},{"type":"Point","properties":{"Station_ID":"IL-LE-23","Station_Nam":"SUBLETTE 3.1 WNW, IL","Latitude":"41.65939","Longitude":"-89.28867","Snowdepth":"3.500","Units":"in","Rept_Date":"2020-04-15 12"},"coordinates":[1865,3156]},{"type":"Point","properties":{"Station_ID":"CATQ6","Station_Nam":"CAT LAKE","Latitude":"51.72690","Longitude":"-91.82210","Snowdepth":"3.310","Units":"in","Rept_Date":"2020-04-16 06"},"coordinates":[1270,9999]},{"type":"Point","properties":{"Station_ID":"CAN-ON-526","Station_Nam":"HILTON BEACH 0.7 SW - MNRF, CAN","Latitude":"46.25357","Longitude":"-83.90014","Snowdepth":"3.100","Units":"in","Rept_Date":"2020-04-15 11"},"coordinates":[3130,6279]},{"type":"Point","properties":{"Station_ID":"WSHI4","Station_Nam":"WASHINGTON","Latitude":"41.28240","Longitude":"-91.70780","Snowdepth":"3.000","Units":"in","Rept_Date":"2020-04-15 12"},"coordinates":[1297,2900]},{"type":"Point","properties":{"Station_ID":"WRNM5","Station_Nam":"WORTHINGTON,MN","Latitude":"43.65440","Longitude":"-95.57920","Snowdepth":"3.000","Units":"in","Rept_Date":"2020-04-15 12"},"coordinates":[388,4512]},{"type":"Point","properties":{"Station_ID":"WLKW3","Station_Nam":"WHITE LAKE 1 SE","Latitude":"45.14520","Longitude":"-88.74160","Snowdepth":"3.000","Units":"in","Rept_Date":"2020-04-15 13"},"coordinates":[1993,5526]},{"type":"Point","properties":{"Station_ID":"WILW3","Station_Nam":"RESERVOIR","Latitude":"45.70000","Longitude":"-89.83330","Snowdepth":"3.000","Units":"in","Rept_Date":"2020-04-15 11"},"coordinates":[1737,5903]},{"type":"Point","properties":{"Station_ID":"WI-RS-1","Station_Nam":"LADYSMITH 2.8 WNW, WI","Latitude":"45.48180","Longitude":"-91.14680","Snowdepth":"3.000","Units":"in","Rept_Date":"2020-04-15 12"},"coordinates":[1429,5754]},{"type":"Point","properties":{"Station_ID":"WI-EC-23","Station_Nam":"EAU CLAIRE 3.7 S, WI","Latitude":"44.76858","Longitude":"-91.49898","Snowdepth":"3.000","Units":"in","Rept_Date":"2020-04-15 13"},"coordinates":[1346,5270]},{"type":"Point","properties":{"Station_ID":"WELM5","Station_Nam":"WELLS","Latitude":"43.74680","Longitude":"-93.73680","Snowdepth":"3.000","Units":"in","Rept_Date":"2020-04-15 13"},"coordinates":[821,4575]},{"type":"Point","properties":{"Station_ID":"WABM5","Station_Nam":"WABASHA","Latitude":"44.38500","Longitude":"-92.04860","Snowdepth":"3.000","Units":"in","Rept_Date":"2020-04-15 12"},"coordinates":[1217,5009]},{"type":"Point","properties":{"Station_ID":"THLM5","Station_Nam":"THEILMAN 1SSW","Latitude":"44.28130","Longitude":"-92.19430","Snowdepth":"3.000","Units":"in","Rept_Date":"2020-04-15 12"},"coordinates":[1183,4938]},{"type":"Point","properties":{"Station_ID":"STRW3","Station_Nam":"STRATFORD 1NW","Latitude":"44.81750","Longitude":"-90.08990","Snowdepth":"3.000","Units":"in","Rept_Date":"2020-04-15 11"},"coordinates":[1677,5303]},{"type":"Point","properties":{"Station_ID":"STMM4","Station_Nam":"STAMBAUGH 2SSE","Latitude":"46.05550","Longitude":"-88.62780","Snowdepth":"3.000","Units":"in","Rept_Date":"2020-04-15 12"},"coordinates":[2020,6144]},{"type":"Point","properties":{"Station_ID":"SGYI4","Station_Nam":"SIGOURNEY","Latitude":"41.33280","Longitude":"-92.19750","Snowdepth":"3.000","Units":"in","Rept_Date":"2020-04-15 13"},"coordinates":[1182,2934]},{"type":"Point","properties":{"Station_ID":"SD-MH-1","Station_Nam":"SIOUX FALLS 5.0 SE ARPT, SD","Latitude":"43.52360","Longitude":"-96.66780","Snowdepth":"3.000","Units":"in","Rept_Date":"2020-04-15 12"},"coordinates":[133,4423]},{"type":"Point","properties":{"Station_ID":"OSKI4","Station_Nam":"OSKALOOSA,IA","Latitude":"41.31670","Longitude":"-92.65000","Snowdepth":"3.000","Units":"in","Rept_Date":"2020-04-15 12"},"coordinates":[1076,2923]},{"type":"Point","properties":{"Station_ID":"OSEI4","Station_Nam":"OSCEOLA,IA","Latitude":"41.01670","Longitude":"-93.81670","Snowdepth":"3.000","Units":"in","Rept_Date":"2020-04-15 12"},"coordinates":[802,2719]},{"type":"Point","properties":{"Station_ID":"MSTI4","Station_Nam":"MUSCATINE 2N","Latitude":"41.47130","Longitude":"-91.04630","Snowdepth":"3.000","Units":"in","Rept_Date":"2020-04-15 12"},"coordinates":[1452,3028]},{"type":"Point","properties":{"Station_ID":"MQRW3","Station_Nam":"MINOCQUA","Latitude":"45.88630","Longitude":"-89.73220","Snowdepth":"3.000","Units":"in","Rept_Date":"2020-04-15 11"},"coordinates":[1761,6029]},{"type":"Point","properties":{"Station_ID":"MNOW3","Station_Nam":"CEDAR FALLS HYDRO PLANT","Latitude":"44.93550","Longitude":"-91.88850","Snowdepth":"3.000","Units":"in","Rept_Date":"2020-04-15 12"},"coordinates":[1255,5383]},{"type":"Point","properties":{"Station_ID":"MN-GH-3","Station_Nam":"LAKE CITY 1.2 NNW, MN","Latitude":"44.45597","Longitude":"-92.29070","Snowdepth":"3.000","Units":"in","Rept_Date":"2020-04-15 12"},"coordinates":[1160,5057]},{"type":"Point","properties":{"Station_ID":"MN-CV-22","Station_Nam":"VICTORIA 1.6 WSW, MN","Latitude":"44.85670","Longitude":"-93.68640","Snowdepth":"3.000","Units":"in","Rept_Date":"2020-04-15 12"},"coordinates":[833,5329]},{"type":"Point","properties":{"Station_ID":"MFDW3","Station_Nam":"MARSHFIELD EXP FARM","Latitude":"44.64110","Longitude":"-90.13330","Snowdepth":"3.000","Units":"in","Rept_Date":"2020-04-15 12"},"coordinates":[1667,5183]},{"type":"Point","properties":{"Station_ID":"MCTI4","Station_Nam":"MUSCATINE","Latitude":"41.40760","Longitude":"-91.07270","Snowdepth":"3.000","Units":"in","Rept_Date":"2020-04-15 12"},"coordinates":[1446,2985]},{"type":"Point","properties":{"Station_ID":"IL-KN-96","Station_Nam":"ELBURN 0.3 NW, IL","Latitude":"41.89390","Longitude":"-88.47610","Snowdepth":"3.000","Units":"in","Rept_Date":"2020-04-15 12"},"coordinates":[2056,3316]},{"type":"Point","properties":{"Station_ID":"IL-HY-8","Station_Nam":"GENESEO 2.0 NW, IL","Latitude":"41.46726","Longitude":"-90.18180","Snowdepth":"3.000","Units":"in","Rept_Date":"2020-04-15 12"},"coordinates":[1655,3026]},{"type":"Point","properties":{"Station_ID":"IL-HY-5","Station_Nam":"COAL VALLEY 1.9 SE, IL","Latitude":"41.43339","Longitude":"-90.41750","Snowdepth":"3.000","Units":"in","Rept_Date":"2020-04-15 12"},"coordinates":[1600,3003]},{"type":"Point","properties":{"Station_ID":"IL-DP-57","Station_Nam":"AURORA 3.5 NE, IL","Latitude":"41.80891","Longitude":"-88.25280","Snowdepth":"3.000","Units":"in","Rept_Date":"2020-04-15 13"},"coordinates":[2108,3258]},{"type":"Point","properties":{"Station_ID":"IL-DK-24","Station_Nam":"SOMONAUK 1.9 NE, IL","Latitude":"41.65063","Longitude":"-88.65663","Snowdepth":"3.000","Units":"in","Rept_Date":"2020-04-15 12"},"coordinates":[2013,3150]},{"type":"Point","properties":{"Station_ID":"IDAI4","Station_Nam":"INDIANOLA,IA","Latitude":"41.36670","Longitude":"-93.55000","Snowdepth":"3.000","Units":"in","Rept_Date":"2020-04-15 12"},"coordinates":[865,2957]},{"type":"Point","properties":{"Station_ID":"IA-WS-7","Station_Nam":"WELLMAN 4.0 E, IA","Latitude":"41.45810","Longitude":"-91.76073","Snowdepth":"3.000","Units":"in","Rept_Date":"2020-04-15 12"},"coordinates":[1285,3019]},{"type":"Point","properties":{"Station_ID":"IA-WR-7","Station_Nam":"INDIANOLA 0.8 SSW, IA","Latitude":"41.35047","Longitude":"-93.57290","Snowdepth":"3.000","Units":"in","Rept_Date":"2020-04-15 12"},"coordinates":[859,2946]},{"type":"Point","properties":{"Station_ID":"IA-ST-42","Station_Nam":"RIVERDALE 0.5 N, IA","Latitude":"41.54319","Longitude":"-90.46752","Snowdepth":"3.000","Units":"in","Rept_Date":"2020-04-15 12"},"coordinates":[1588,3077]},{"type":"Point","properties":{"Station_ID":"IA-ST-4","Station_Nam":"DAVENPORT 0.9 SSW, IA","Latitude":"41.52643","Longitude":"-90.58580","Snowdepth":"3.000","Units":"in","Rept_Date":"2020-04-15 12"},"coordinates":[1560,3066]},{"type":"Point","properties":{"Station_ID":"IA-ST-37","Station_Nam":"DAVENPORT 0.9 WNW, IA","Latitude":"41.54450","Longitude":"-90.59100","Snowdepth":"3.000","Units":"in","Rept_Date":"2020-04-15 12"},"coordinates":[1559,3078]},{"type":"Point","properties":{"Station_ID":"IA-MC-13","Station_Nam":"MUSCATINE 2.1 N, IA","Latitude":"41.44808","Longitude":"-91.07428","Snowdepth":"3.000","Units":"in","Rept_Date":"2020-04-15 12"},"coordinates":[1446,3013]},{"type":"Point","properties":{"Station_ID":"HOLW3","Station_Nam":"HOLCOMBE","Latitude":"45.22370","Longitude":"-91.12700","Snowdepth":"3.000","Units":"in","Rept_Date":"2020-04-15 12"},"coordinates":[1433,5579]},{"type":"Point","properties":{"Station_ID":"GHMN3","Station_Nam":"PINKHAM NOTCH","Latitude":"44.25800","Longitude":"-71.25250","Snowdepth":"3.000","Units":"in","Rept_Date":"2020-04-15 10"},"coordinates":[6098,4923]},{"type":"Point","properties":{"Station_ID":"EJNM4","Station_Nam":"EAST JORDAN 2NW","Latitude":"45.18630","Longitude":"-85.14770","Snowdepth":"3.000","Units":"in","Rept_Date":"2020-04-15 12"},"coordinates":[2837,5553]},{"type":"Point","properties":{"Station_ID":"EAU","Station_Nam":"CHIPPEWA VALLEY REGIONAL AIRPORT","Latitude":"44.86650","Longitude":"-91.48790","Snowdepth":"3.000","Units":"in","Rept_Date":"2020-04-16 00"},"coordinates":[1349,5336]},{"type":"Point","properties":{"Station_ID":"CVZW3","Station_Nam":"WISCONSIN PUBLIC SERVICE","Latitude":"45.23530","Longitude":"-88.01360","Snowdepth":"3.000","Units":"in","Rept_Date":"2020-04-15 14"},"coordinates":[2164,5587]},{"type":"Point","properties":{"Station_ID":"CHES2","Station_Nam":"CHESTER 2N","Latitude":"43.92830","Longitude":"-96.93160","Snowdepth":"3.000","Units":"in","Rept_Date":"2020-04-15 12"},"coordinates":[71,4698]},{"type":"Point","properties":{"Station_ID":"ALBM5","Station_Nam":"ALBERT LEA 3 SE","Latitude":"43.60640","Longitude":"-93.30190","Snowdepth":"3.000","Units":"in","Rept_Date":"2020-04-15 13"},"coordinates":[923,4480]},{"type":"Point","properties":{"Station_ID":"38.9098_079.6512","Station_Nam":"Alpena  Social Media (X3890797)","Latitude":"38.90983","Longitude":"-79.65117","Snowdepth":"3.000","Units":"in","Rept_Date":"2020-04-15 12"},"coordinates":[4127,1287]},{"type":"Point","properties":{"Station_ID":"HPN04_MADIS","Station_Nam":"HANOVER","Latitude":"45.16770","Longitude":"-93.63430","Snowdepth":"2.920","Units":"in","Rept_Date":"2020-04-16 06"},"coordinates":[845,5541]},{"type":"Point","properties":{"Station_ID":"CAN-NB-105","Station_Nam":"SISSON BROOK 3.8 E, CAN","Latitude":"46.98305","Longitude":"-67.32532","Snowdepth":"2.800","Units":"in","Rept_Date":"2020-04-15 11"},"coordinates":[7020,6775]},{"type":"Point","properties":{"Station_ID":"IL-KN-78","Station_Nam":"GENEVA 1.3 SSW, IL","Latitude":"41.86442","Longitude":"-88.32320","Snowdepth":"2.600","Units":"in","Rept_Date":"2020-04-15 12"},"coordinates":[2091,3296]},{"type":"Point","properties":{"Station_ID":"IL-BU-11","Station_Nam":"WALNUT 5.3 ENE, IL","Latitude":"41.58440","Longitude":"-89.49509","Snowdepth":"2.600","Units":"in","Rept_Date":"2020-04-15 12"},"coordinates":[1816,3105]},{"type":"Point","properties":{"Station_ID":"WI-MT-19","Station_Nam":"EVERGREEN 1.5 WSW, WI","Latitude":"44.83512","Longitude":"-89.66528","Snowdepth":"2.500","Units":"in","Rept_Date":"2020-04-15 12"},"coordinates":[1776,5315]},{"type":"Point","properties":{"Station_ID":"NY-CQ-39","Station_Nam":"GERRY 0.8 N, NY","Latitude":"42.20500","Longitude":"-79.24700","Snowdepth":"2.500","Units":"in","Rept_Date":"2020-04-15 11"},"coordinates":[4222,3527]},{"type":"Point","properties":{"Station_ID":"NY-CQ-34","Station_Nam":"KENNEDY 2.6 SE, NY","Latitude":"42.12567","Longitude":"-79.07235","Snowdepth":"2.500","Units":"in","Rept_Date":"2020-04-15 12"},"coordinates":[4263,3473]},{"type":"Point","properties":{"Station_ID":"IL-KN-4","Station_Nam":"SUGAR GROVE 0.7 NE, IL","Latitude":"41.77622","Longitude":"-88.44780","Snowdepth":"2.500","Units":"in","Rept_Date":"2020-04-15 12"},"coordinates":[2062,3236]},{"type":"Point","properties":{"Station_ID":"IL-KN-33","Station_Nam":"NORTH AURORA 1.5 NE, IL","Latitude":"41.81629","Longitude":"-88.30680","Snowdepth":"2.500","Units":"in","Rept_Date":"2020-04-15 12"},"coordinates":[2095,3263]},{"type":"Point","properties":{"Station_ID":"IL-KN-23","Station_Nam":"BATAVIA 1.5 WNW, IL","Latitude":"41.85937","Longitude":"-88.32750","Snowdepth":"2.500","Units":"in","Rept_Date":"2020-04-15 12"},"coordinates":[2090,3292]},{"type":"Point","properties":{"Station_ID":"IL-DP-78","Station_Nam":"NAPERVILLE 2.4 SE, IL","Latitude":"41.74184","Longitude":"-88.11620","Snowdepth":"2.500","Units":"in","Rept_Date":"2020-04-15 12"},"coordinates":[2140,3212]},{"type":"Point","properties":{"Station_ID":"IA-CL-3","Station_Nam":"MURRAY 0.5 N, IA","Latitude":"41.04831","Longitude":"-93.94960","Snowdepth":"2.500","Units":"in","Rept_Date":"2020-04-15 12"},"coordinates":[771,2741]},{"type":"Point","properties":{"Station_ID":"IL-WL-16","Station_Nam":"HOMER GLEN 0.8 ENE, IL","Latitude":"41.62737","Longitude":"-87.92810","Snowdepth":"2.300","Units":"in","Rept_Date":"2020-04-15 12"},"coordinates":[2184,3135]},{"type":"Point","properties":{"Station_ID":"IA-CL-4","Station_Nam":"MURRAY 1.7 W, IA","Latitude":"41.04128","Longitude":"-93.98046","Snowdepth":"2.300","Units":"in","Rept_Date":"2020-04-15 12"},"coordinates":[764,2736]},{"type":"Point","properties":{"Station_ID":"WV-LW-4","Station_Nam":"CRAWFORD 2.9 SE, WV","Latitude":"38.83940","Longitude":"-80.39630","Snowdepth":"2.000","Units":"in","Rept_Date":"2020-04-15 11"},"coordinates":[3952,1240]},{"type":"Point","properties":{"Station_ID":"WUNW3","Station_Nam":"WAUSAU-NORTHEAST","Latitude":"44.97310","Longitude":"-89.61690","Snowdepth":"2.000","Units":"in","Rept_Date":"2020-04-15 11"},"coordinates":[1788,5409]},{"type":"Point","properties":{"Station_ID":"WI-TR-8","Station_Nam":"ETTRICK 4.0 WNW, WI","Latitude":"44.19004","Longitude":"-91.34249","Snowdepth":"2.000","Units":"in","Rept_Date":"2020-04-15 12"},"coordinates":[1383,4876]},{"type":"Point","properties":{"Station_ID":"WI-PR-2","Station_Nam":"BUTTERNUT 5.9 SW, WI","Latitude":"45.96501","Longitude":"-90.59750","Snowdepth":"2.000","Units":"in","Rept_Date":"2020-04-15 11"},"coordinates":[1558,6083]},{"type":"Point","properties":{"Station_ID":"WI-PC-25","Station_Nam":"ELLSWORTH 2.6 SW, WI","Latitude":"44.71119","Longitude":"-92.51849","Snowdepth":"2.000","Units":"in","Rept_Date":"2020-04-15 12"},"coordinates":[1107,5231]},{"type":"Point","properties":{"Station_ID":"WI-MT-14","Station_Nam":"MOSINEE 2.7 WSW, WI","Latitude":"44.77240","Longitude":"-89.73441","Snowdepth":"2.000","Units":"in","Rept_Date":"2020-04-15 12"},"coordinates":[1760,5272]},{"type":"Point","properties":{"Station_ID":"WI-BY-2","Station_Nam":"MELLEN 18.6 SW, WI","Latitude":"46.16937","Longitude":"-90.98090","Snowdepth":"2.000","Units":"in","Rept_Date":"2020-04-15 12"},"coordinates":[1468,6222]},{"type":"Point","properties":{"Station_ID":"WI-BY-14","Station_Nam":"ASHLAND 9.8 W, WI","Latitude":"46.59742","Longitude":"-91.07856","Snowdepth":"2.000","Units":"in","Rept_Date":"2020-04-15 11"},"coordinates":[1445,6513]},{"type":"Point","properties":{"Station_ID":"WDOM5","Station_Nam":"WINDOM","Latitude":"43.87700","Longitude":"-95.11590","Snowdepth":"2.000","Units":"in","Rept_Date":"2020-04-15 13"},"coordinates":[497,4664]},{"type":"Point","properties":{"Station_ID":"STWI2","Station_Nam":"STEWARD","Latitude":"41.81110","Longitude":"-89.02330","Snowdepth":"2.000","Units":"in","Rept_Date":"2020-04-15 12"},"coordinates":[1927,3259]},{"type":"Point","properties":{"Station_ID":"SNOW2","Station_Nam":"SNOWSHOE","Latitude":"38.39900","Longitude":"-79.99490","Snowdepth":"2.000","Units":"in","Rept_Date":"2020-04-15 10"},"coordinates":[4046,940]},{"type":"Point","properties":{"Station_ID":"SHDI4","Station_Nam":"SHELDON,IA","Latitude":"43.18080","Longitude":"-95.85280","Snowdepth":"2.000","Units":"in","Rept_Date":"2020-04-15 12"},"coordinates":[324,4190]},{"type":"Point","properties":{"Station_ID":"SAUW3","Station_Nam":"WAUSAU WSAW TV","Latitude":"44.94630","Longitude":"-89.62220","Snowdepth":"2.000","Units":"in","Rept_Date":"2020-04-16 03"},"coordinates":[1786,5390]},{"type":"Point","properties":{"Station_ID":"RWGM5","Station_Nam":"RED WING","Latitude":"44.57120","Longitude":"-92.52830","Snowdepth":"2.000","Units":"in","Rept_Date":"2020-04-15 13"},"coordinates":[1104,5135]},{"type":"Point","properties":{"Station_ID":"RSTW3","Station_Nam":"ROSHOLT","Latitude":"44.62710","Longitude":"-89.30600","Snowdepth":"2.000","Units":"in","Rept_Date":"2020-04-15 13"},"coordinates":[1861,5173]},{"type":"Point","properties":{"Station_ID":"PTYM4","Station_Nam":"PETOSKEY NCMC","Latitude":"45.36120","Longitude":"-84.95110","Snowdepth":"2.000","Units":"in","Rept_Date":"2020-04-15 12"},"coordinates":[2883,5672]},{"type":"Point","properties":{"Station_ID":"PTNI2","Station_Nam":"PRINCETON","Latitude":"41.37610","Longitude":"-89.46420","Snowdepth":"2.000","Units":"in","Rept_Date":"2020-04-15 12"},"coordinates":[1824,2964]},{"type":"Point","properties":{"Station_ID":"NPTM4","Station_Nam":"NORTHPORT 2W","Latitude":"45.13220","Longitude":"-85.64720","Snowdepth":"2.000","Units":"in","Rept_Date":"2020-04-15 12"},"coordinates":[2720,5517]},{"type":"Point","properties":{"Station_ID":"NENI4","Station_Nam":"NORTH ENGLISH","Latitude":"41.51190","Longitude":"-92.07240","Snowdepth":"2.000","Units":"in","Rept_Date":"2020-04-15 12"},"coordinates":[1211,3056]},{"type":"Point","properties":{"Station_ID":"MONS2","Station_Nam":"MONTROSE","Latitude":"43.70500","Longitude":"-97.18780","Snowdepth":"2.000","Units":"in","Rept_Date":"2020-04-15 13"},"coordinates":[11,4547]},{"type":"Point","properties":{"Station_ID":"MN-SE-2","Station_Nam":"OWATONNA 0.8 E, MN","Latitude":"44.09170","Longitude":"-93.21380","Snowdepth":"2.000","Units":"in","Rept_Date":"2020-04-15 12"},"coordinates":[943,4810]},{"type":"Point","properties":{"Station_ID":"MN-RC-38","Station_Nam":"FARIBAULT 1.6 S, MN","Latitude":"44.27639","Longitude":"-93.27306","Snowdepth":"2.000","Units":"in","Rept_Date":"2020-04-15 12"},"coordinates":[930,4935]},{"type":"Point","properties":{"Station_ID":"MN-GH-4","Station_Nam":"NERSTRAND 4.2 E, MN","Latitude":"44.34247","Longitude":"-92.97920","Snowdepth":"2.000","Units":"in","Rept_Date":"2020-04-15 12"},"coordinates":[999,4980]},{"type":"Point","properties":{"Station_ID":"MN-DK-73","Station_Nam":"LAKEVILLE 2.6 NNE, MN","Latitude":"44.71250","Longitude":"-93.23043","Snowdepth":"2.000","Units":"in","Rept_Date":"2020-04-15 12"},"coordinates":[940,5231]},{"type":"Point","properties":{"Station_ID":"MI-OT-17","Station_Nam":"GAYLORD 4.1 S, MI","Latitude":"44.96388","Longitude":"-84.68467","Snowdepth":"2.000","Units":"in","Rept_Date":"2020-04-15 11"},"coordinates":[2945,5402]},{"type":"Point","properties":{"Station_ID":"LTVN6","Station_Nam":"LITTLE VALLEY","Latitude":"42.24730","Longitude":"-78.81250","Snowdepth":"2.000","Units":"in","Rept_Date":"2020-04-15 11"},"coordinates":[4324,3556]},{"type":"Point","properties":{"Station_ID":"LMLI4","Station_Nam":"LAKE MILLS,IA","Latitude":"43.40000","Longitude":"-93.53330","Snowdepth":"2.000","Units":"in","Rept_Date":"2020-04-15 12"},"coordinates":[868,4339]},{"type":"Point","properties":{"Station_ID":"LKFM5","Station_Nam":"LAKEFIELD,MN","Latitude":"43.68330","Longitude":"-95.18330","Snowdepth":"2.000","Units":"in","Rept_Date":"2020-04-15 12"},"coordinates":[481,4532]},{"type":"Point","properties":{"Station_ID":"LAMM5","Station_Nam":"LAMBERTON SW RESEARCH AND OUTREACH CENTER","Latitude":"44.23950","Longitude":"-95.31520","Snowdepth":"2.000","Units":"in","Rept_Date":"2020-04-15 13"},"coordinates":[450,4910]},{"type":"Point","properties":{"Station_ID":"KEWI2","Station_Nam":"KEWANEE 1 E","Latitude":"41.24290","Longitude":"-89.89970","Snowdepth":"2.000","Units":"in","Rept_Date":"2020-04-15 12"},"coordinates":[1721,2873]},{"type":"Point","properties":{"Station_ID":"JKJI2","Station_Nam":"JOLIET","Latitude":"41.55030","Longitude":"-88.12670","Snowdepth":"2.000","Units":"in","Rept_Date":"2020-04-15 12"},"coordinates":[2138,3082]},{"type":"Point","properties":{"Station_ID":"JIMW3","Station_Nam":"JIM FALLS 3NW","Latitude":"45.08270","Longitude":"-91.33130","Snowdepth":"2.000","Units":"in","Rept_Date":"2020-04-15 11"},"coordinates":[1385,5483]},{"type":"Point","properties":{"Station_ID":"IL-LS-60","Station_Nam":"PERU 0.7 ENE, IL","Latitude":"41.34699","Longitude":"-89.11766","Snowdepth":"2.000","Units":"in","Rept_Date":"2020-04-15 12"},"coordinates":[1905,2944]},{"type":"Point","properties":{"Station_ID":"IL-KN-64","Station_Nam":"ST. CHARLES 0.1 E, IL","Latitude":"41.92010","Longitude":"-88.29900","Snowdepth":"2.000","Units":"in","Rept_Date":"2020-04-15 13"},"coordinates":[2097,3334]},{"type":"Point","properties":{"Station_ID":"IL-KN-62","Station_Nam":"BATAVIA 1.3 WNW, IL","Latitude":"41.85917","Longitude":"-88.32210","Snowdepth":"2.000","Units":"in","Rept_Date":"2020-04-15 11"},"coordinates":[2092,3292]},{"type":"Point","properties":{"Station_ID":"IL-KN-5","Station_Nam":"BATAVIA 0.7 WSW, IL","Latitude":"41.84815","Longitude":"-88.31440","Snowdepth":"2.000","Units":"in","Rept_Date":"2020-04-15 11"},"coordinates":[2093,3285]},{"type":"Point","properties":{"Station_ID":"IL-KN-121","Station_Nam":"GENEVA 1.3 NW, IL","Latitude":"41.89380","Longitude":"-88.33500","Snowdepth":"2.000","Units":"in","Rept_Date":"2020-04-15 12"},"coordinates":[2089,3316]},{"type":"Point","properties":{"Station_ID":"IL-KD-34","Station_Nam":"PLAINFIELD 4.8 SW, IL","Latitude":"41.56779","Longitude":"-88.27010","Snowdepth":"2.000","Units":"in","Rept_Date":"2020-04-15 12"},"coordinates":[2104,3094]},{"type":"Point","properties":{"Station_ID":"IL-GY-10","Station_Nam":"MINOOKA 0.3 NE, IL","Latitude":"41.45182","Longitude":"-88.25430","Snowdepth":"2.000","Units":"in","Rept_Date":"2020-04-15 13"},"coordinates":[2108,3015]},{"type":"Point","properties":{"Station_ID":"IL-DP-75","Station_Nam":"NAPERVILLE 1.1 NW, IL","Latitude":"41.77288","Longitude":"-88.17130","Snowdepth":"2.000","Units":"in","Rept_Date":"2020-04-15 14"},"coordinates":[2127,3233]},{"type":"Point","properties":{"Station_ID":"IL-DP-163","Station_Nam":"LOMBARD 1.2 E, IL","Latitude":"41.87297","Longitude":"-87.99117","Snowdepth":"2.000","Units":"in","Rept_Date":"2020-04-15 12"},"coordinates":[2169,3301]},{"type":"Point","properties":{"Station_ID":"IL-DP-127","Station_Nam":"DOWNERS GROVE 0.4 NNE, IL","Latitude":"41.80331","Longitude":"-88.01542","Snowdepth":"2.000","Units":"in","Rept_Date":"2020-04-15 12"},"coordinates":[2164,3254]},{"type":"Point","properties":{"Station_ID":"IL-DP-101","Station_Nam":"AURORA 3.8 SE, IL","Latitude":"41.73035","Longitude":"-88.23760","Snowdepth":"2.000","Units":"in","Rept_Date":"2020-04-15 13"},"coordinates":[2111,3205]},{"type":"Point","properties":{"Station_ID":"IL-BU-5","Station_Nam":"PRINCETON 1.1 SE, IL","Latitude":"41.36713","Longitude":"-89.45190","Snowdepth":"2.000","Units":"in","Rept_Date":"2020-04-15 12"},"coordinates":[1826,2958]},{"type":"Point","properties":{"Station_ID":"IA-ST-8","Station_Nam":"BETTENDORF 2.2 SE, IA","Latitude":"41.54013","Longitude":"-90.44920","Snowdepth":"2.000","Units":"in","Rept_Date":"2020-04-15 12"},"coordinates":[1592,3075]},{"type":"Point","properties":{"Station_ID":"IA-ST-48","Station_Nam":"BETTENDORF 1.6 W, IA","Latitude":"41.56502","Longitude":"-90.50767","Snowdepth":"2.000","Units":"in","Rept_Date":"2020-04-15 12"},"coordinates":[1579,3092]},{"type":"Point","properties":{"Station_ID":"IA-ST-30","Station_Nam":"ELDRIDGE 0.7 SSW, IA","Latitude":"41.64465","Longitude":"-90.58706","Snowdepth":"2.000","Units":"in","Rept_Date":"2020-04-15 13"},"coordinates":[1560,3146]},{"type":"Point","properties":{"Station_ID":"IA-ST-3","Station_Nam":"PARK VIEW 0.2 WSW, IA","Latitude":"41.68855","Longitude":"-90.54380","Snowdepth":"2.000","Units":"in","Rept_Date":"2020-04-15 12"},"coordinates":[1570,3176]},{"type":"Point","properties":{"Station_ID":"IA-ST-1","Station_Nam":"LE CLAIRE 1.8 NNE, IA","Latitude":"41.62355","Longitude":"-90.35140","Snowdepth":"2.000","Units":"in","Rept_Date":"2020-04-15 13"},"coordinates":[1615,3132]},{"type":"Point","properties":{"Station_ID":"HRFI4","Station_Nam":"HARTFORD,IA","Latitude":"41.46670","Longitude":"-93.41670","Snowdepth":"2.000","Units":"in","Rept_Date":"2020-04-15 13"},"coordinates":[896,3025]},{"type":"Point","properties":{"Station_ID":"GLEI2","Station_Nam":"GLEN ELLYN 4S","Latitude":"41.82670","Longitude":"-88.05810","Snowdepth":"2.000","Units":"in","Rept_Date":"2020-04-15 14"},"coordinates":[2154,3270]},{"type":"Point","properties":{"Station_ID":"GLDM4","Station_Nam":"GLADSTONE NO. 2","Latitude":"45.84330","Longitude":"-87.03910","Snowdepth":"2.000","Units":"in","Rept_Date":"2020-04-15 11"},"coordinates":[2393,6000]},{"type":"Point","properties":{"Station_ID":"GINI2","Station_Nam":"GENESEO","Latitude":"41.45110","Longitude":"-90.14870","Snowdepth":"2.000","Units":"in","Rept_Date":"2020-04-16 05"},"coordinates":[1663,3015]},{"type":"Point","properties":{"Station_ID":"FSD","Station_Nam":"SIOUX FALLS, SD","Latitude":"43.58750","Longitude":"-96.72940","Snowdepth":"2.000","Units":"in","Rept_Date":"2020-04-15 12"},"coordinates":[118,4467]},{"type":"Point","properties":{"Station_ID":"EVYI4","Station_Nam":"EVERLY,IA","Latitude":"43.18330","Longitude":"-95.36670","Snowdepth":"2.000","Units":"in","Rept_Date":"2020-04-15 12"},"coordinates":[438,4192]},{"type":"Point","properties":{"Station_ID":"CMKW3","Station_Nam":"CLAM LAKE 4W","Latitude":"46.16940","Longitude":"-90.98080","Snowdepth":"2.000","Units":"in","Rept_Date":"2020-04-15 12"},"coordinates":[1468,6222]},{"type":"Point","properties":{"Station_ID":"CAN-NB-96","Station_Nam":"SAINT-IGNACE 2.6 NE, CAN","Latitude":"46.71424","Longitude":"-65.05609","Snowdepth":"2.000","Units":"in","Rept_Date":"2020-04-15 10"},"coordinates":[7553,6592]},{"type":"Point","properties":{"Station_ID":"CAAW2","Station_Nam":"CANAAN VALLEY","Latitude":"39.05890","Longitude":"-79.44030","Snowdepth":"2.000","Units":"in","Rept_Date":"2020-04-15 13"},"coordinates":[4176,1389]},{"type":"Point","properties":{"Station_ID":"BOWW3","Station_Nam":"STOCKBRIDGE-MUNSEE RESERVATION","Latitude":"44.87000","Longitude":"-88.90440","Snowdepth":"2.000","Units":"in","Rept_Date":"2020-04-15 12"},"coordinates":[1955,5338]},{"type":"Point","properties":{"Station_ID":"BMRW3","Station_Nam":"BLOOMER","Latitude":"45.09070","Longitude":"-91.48640","Snowdepth":"2.000","Units":"in","Rept_Date":"2020-04-15 13"},"coordinates":[1349,5489]},{"type":"Point","properties":{"Station_ID":"BKBW2","Station_Nam":"DAVIS.","Latitude":"39.09830","Longitude":"-79.43190","Snowdepth":"2.000","Units":"in","Rept_Date":"2020-04-15 11"},"coordinates":[4178,1416]},{"type":"Point","properties":{"Station_ID":"BAGM4","Station_Nam":"BARAGA 7NW","Latitude":"46.82100","Longitude":"-88.60590","Snowdepth":"2.000","Units":"in","Rept_Date":"2020-04-15 12"},"coordinates":[2025,6665]},{"type":"Point","properties":{"Station_ID":"AUW","Station_Nam":"WAUSAU MUNICIPAL AIRPORT","Latitude":"44.92580","Longitude":"-89.62560","Snowdepth":"2.000","Units":"in","Rept_Date":"2020-04-15 12"},"coordinates":[1786,5376]},{"type":"Point","properties":{"Station_ID":"ASTM5","Station_Nam":"AUSTIN WASTE WATER TREATMENT FACILITY","Latitude":"43.65420","Longitude":"-92.97390","Snowdepth":"2.000","Units":"in","Rept_Date":"2020-04-15 12"},"coordinates":[1000,4512]},{"type":"Point","properties":{"Station_ID":"ANJM4","Station_Nam":"SNOW PAID OBSERVER FOR KANJ","Latitude":"46.48670","Longitude":"-84.40260","Snowdepth":"2.000","Units":"in","Rept_Date":"2020-04-16 00"},"coordinates":[3012,6437]},{"type":"Point","properties":{"Station_ID":"ANJ","Station_Nam":"SAULT STE MARIE","Latitude":"46.46670","Longitude":"-84.36670","Snowdepth":"2.000","Units":"in","Rept_Date":"2020-04-16 00"},"coordinates":[3020,6424]},{"type":"Point","properties":{"Station_ID":"AMBI2","Station_Nam":"AMBOY,IL","Latitude":"41.72720","Longitude":"-89.33940","Snowdepth":"2.000","Units":"in","Rept_Date":"2020-04-15 13"},"coordinates":[1853,3202]},{"type":"Point","properties":{"Station_ID":"ALTM5","Station_Nam":"ALTURA 5W","Latitude":"44.06330","Longitude":"-92.03970","Snowdepth":"2.000","Units":"in","Rept_Date":"2020-04-15 12"},"coordinates":[1219,4790]},{"type":"Point","properties":{"Station_ID":"ALBI4","Station_Nam":"ALBIA,IA","Latitude":"41.06670","Longitude":"-92.78330","Snowdepth":"2.000","Units":"in","Rept_Date":"2020-04-15 12"},"coordinates":[1045,2753]},{"type":"Point","properties":{"Station_ID":"42.2168_079.8473","Station_Nam":"NORTH EAST  SNOW SPOTTER (X4220798)","Latitude":"42.21680","Longitude":"-79.84730","Snowdepth":"2.000","Units":"in","Rept_Date":"2020-04-16 00"},"coordinates":[4081,3535]},{"type":"Point","properties":{"Station_ID":"38.8394_080.3963","Station_Nam":"3 SE Crawford  CoCoRaHS (WV-LW-4)","Latitude":"38.83940","Longitude":"-80.39630","Snowdepth":"2.000","Units":"in","Rept_Date":"2020-04-15 11"},"coordinates":[3952,1240]},{"type":"Point","properties":{"Station_ID":"IL-KN-124","Station_Nam":"AURORA 3.1 WSW, IL","Latitude":"41.75647","Longitude":"-88.35182","Snowdepth":"1.900","Units":"in","Rept_Date":"2020-04-15 12"},"coordinates":[2085,3222]},{"type":"Point","properties":{"Station_ID":"WV-PR-10","Station_Nam":"TERRA ALTA 4.9 NNE, WV","Latitude":"39.51024","Longitude":"-79.51024","Snowdepth":"1.800","Units":"in","Rept_Date":"2020-04-15 12"},"coordinates":[4160,1696]},{"type":"Point","properties":{"Station_ID":"IN-PT-63","Station_Nam":"VALPARAISO 1.8 NW, IN","Latitude":"41.49775","Longitude":"-87.07300","Snowdepth":"1.800","Units":"in","Rept_Date":"2020-04-15 14"},"coordinates":[2385,3046]},{"type":"Point","properties":{"Station_ID":"IL-DP-32","Station_Nam":"LISLE 1.3 SE, IL","Latitude":"41.78143","Longitude":"-88.06740","Snowdepth":"1.800","Units":"in","Rept_Date":"2020-04-15 12"},"coordinates":[2151,3239]},{"type":"Point","properties":{"Station_ID":"NY-LW-10","Station_Nam":"CROGHAN 6.2 N, NY","Latitude":"43.98311","Longitude":"-75.36750","Snowdepth":"1.600","Units":"in","Rept_Date":"2020-04-15 11"},"coordinates":[5132,4736]},{"type":"Point","properties":{"Station_ID":"IL-DP-16","Station_Nam":"AURORA 3.6 SE, IL","Latitude":"41.73455","Longitude":"-88.23910","Snowdepth":"1.600","Units":"in","Rept_Date":"2020-04-15 12"},"coordinates":[2111,3207]},{"type":"Point","properties":{"Station_ID":"WV-NC-4","Station_Nam":"CRAIGSVILLE 0.6 NE, WV","Latitude":"38.33698","Longitude":"-80.64520","Snowdepth":"1.500","Units":"in","Rept_Date":"2020-04-15 11"},"coordinates":[3894,898]},{"type":"Point","properties":{"Station_ID":"NY-CT-2","Station_Nam":"RANDOLPH 1.1 ENE, NY","Latitude":"42.17056","Longitude":"-78.96120","Snowdepth":"1.500","Units":"in","Rept_Date":"2020-04-15 11"},"coordinates":[4289,3504]},{"type":"Point","properties":{"Station_ID":"NY-CQ-35","Station_Nam":"FALCONER 0.3 WSW, NY","Latitude":"42.11766","Longitude":"-79.20278","Snowdepth":"1.500","Units":"in","Rept_Date":"2020-04-15 11"},"coordinates":[4232,3468]},{"type":"Point","properties":{"Station_ID":"NH-CR-15","Station_Nam":"JACKSON 3.7 NW, NH","Latitude":"44.19069","Longitude":"-71.22598","Snowdepth":"1.500","Units":"in","Rept_Date":"2020-04-15 11"},"coordinates":[6104,4877]},{"type":"Point","properties":{"Station_ID":"MI-OT-16","Station_Nam":"GAYLORD 2.2 SSE, MI","Latitude":"44.99441","Longitude":"-84.65820","Snowdepth":"1.500","Units":"in","Rept_Date":"2020-04-15 12"},"coordinates":[2952,5423]},{"type":"Point","properties":{"Station_ID":"MI-KN-14","Station_Nam":"GRANDVILLE 1.3 WSW, MI","Latitude":"42.89716","Longitude":"-85.77910","Snowdepth":"1.500","Units":"in","Rept_Date":"2020-04-15 11"},"coordinates":[2689,3998]},{"type":"Point","properties":{"Station_ID":"IL-WL-20","Station_Nam":"MANHATTAN 4.7 ENE, IL","Latitude":"41.45845","Longitude":"-87.90980","Snowdepth":"1.500","Units":"in","Rept_Date":"2020-04-15 13"},"coordinates":[2188,3020]},{"type":"Point","properties":{"Station_ID":"IL-LS-57","Station_Nam":"MENDOTA 0.4 ENE, IL","Latitude":"41.55336","Longitude":"-89.11380","Snowdepth":"1.500","Units":"in","Rept_Date":"2020-04-15 13"},"coordinates":[1906,3084]},{"type":"Point","properties":{"Station_ID":"IL-LS-34","Station_Nam":"LA SALLE 0.1 W, IL","Latitude":"41.34015","Longitude":"-89.09590","Snowdepth":"1.500","Units":"in","Rept_Date":"2020-04-15 12"},"coordinates":[1910,2939]},{"type":"Point","properties":{"Station_ID":"IL-KN-67","Station_Nam":"ST. CHARLES 6.0 NW, IL","Latitude":"41.98401","Longitude":"-88.38030","Snowdepth":"1.500","Units":"in","Rept_Date":"2020-04-15 12"},"coordinates":[2078,3377]},{"type":"Point","properties":{"Station_ID":"IL-KD-24","Station_Nam":"OSWEGO 5.0 SSE, IL","Latitude":"41.62933","Longitude":"-88.29910","Snowdepth":"1.500","Units":"in","Rept_Date":"2020-04-15 12"},"coordinates":[2097,3136]},{"type":"Point","properties":{"Station_ID":"IL-DP-79","Station_Nam":"BURR RIDGE 1.9 SW, IL","Latitude":"41.73194","Longitude":"-87.94860","Snowdepth":"1.500","Units":"in","Rept_Date":"2020-04-15 12"},"coordinates":[2179,3206]},{"type":"Point","properties":{"Station_ID":"IL-DP-155","Station_Nam":"MEDINAH 1.0 SSW, IL","Latitude":"41.96360","Longitude":"-88.06590","Snowdepth":"1.500","Units":"in","Rept_Date":"2020-04-15 13"},"coordinates":[2152,3363]},{"type":"Point","properties":{"Station_ID":"IL-DP-118","Station_Nam":"DARIEN 0.4 SSE, IL","Latitude":"41.74312","Longitude":"-87.97462","Snowdepth":"1.500","Units":"in","Rept_Date":"2020-04-15 13"},"coordinates":[2173,3213]},{"type":"Point","properties":{"Station_ID":"IL-CK-61","Station_Nam":"OAK PARK 1.0 SW, IL","Latitude":"41.87558","Longitude":"-87.80110","Snowdepth":"1.500","Units":"in","Rept_Date":"2020-04-15 12"},"coordinates":[2214,3303]},{"type":"Point","properties":{"Station_ID":"IL-CK-285","Station_Nam":"HARWOOD HEIGHTS 0.4 NNE, IL","Latitude":"41.97154","Longitude":"-87.80325","Snowdepth":"1.500","Units":"in","Rept_Date":"2020-04-15 12"},"coordinates":[2213,3368]},{"type":"Point","properties":{"Station_ID":"IL-CK-149","Station_Nam":"OAK LAWN 0.5 SSW, IL","Latitude":"41.70845","Longitude":"-87.75390","Snowdepth":"1.500","Units":"in","Rept_Date":"2020-04-15 13"},"coordinates":[2225,3190]},{"type":"Point","properties":{"Station_ID":"IL-CK-145","Station_Nam":"OAK PARK 1.5 S, IL","Latitude":"41.86592","Longitude":"-87.79280","Snowdepth":"1.500","Units":"in","Rept_Date":"2020-04-15 11"},"coordinates":[2216,3297]},{"type":"Point","properties":{"Station_ID":"IL-BU-9","Station_Nam":"LA MOILLE 0.2 NNE, IL","Latitude":"41.53266","Longitude":"-89.27880","Snowdepth":"1.500","Units":"in","Rept_Date":"2020-04-15 13"},"coordinates":[1867,3070]},{"type":"Point","properties":{"Station_ID":"IA-WS-8","Station_Nam":"WASHINGTON 5.8 SW, IA","Latitude":"41.24109","Longitude":"-91.77151","Snowdepth":"1.500","Units":"in","Rept_Date":"2020-04-15 12"},"coordinates":[1282,2872]},{"type":"Point","properties":{"Station_ID":"IA-WR-5","Station_Nam":"HARTFORD 1.0 ENE, IA","Latitude":"41.46110","Longitude":"-93.38590","Snowdepth":"1.500","Units":"in","Rept_Date":"2020-04-15 13"},"coordinates":[903,3022]},{"type":"Point","properties":{"Station_ID":"IA-JH-22","Station_Nam":"CORALVILLE 1.3 SE, IA","Latitude":"41.68066","Longitude":"-91.58000","Snowdepth":"1.500","Units":"in","Rept_Date":"2020-04-15 12"},"coordinates":[1327,3171]},{"type":"Point","properties":{"Station_ID":"IA-JH-20","Station_Nam":"CORALVILLE 1.4 S, IA","Latitude":"41.67016","Longitude":"-91.60296","Snowdepth":"1.500","Units":"in","Rept_Date":"2020-04-15 13"},"coordinates":[1322,3164]},{"type":"Point","properties":{"Station_ID":"IA-DV-10","Station_Nam":"BLOOMFIELD 8.4 NNE, IA","Latitude":"40.85602","Longitude":"-92.34318","Snowdepth":"1.500","Units":"in","Rept_Date":"2020-04-15 12"},"coordinates":[1148,2610]},{"type":"Point","properties":{"Station_ID":"CAN-ON-620","Station_Nam":"GOODERHAM 3.4 SSW, CAN","Latitude":"44.87690","Longitude":"-78.39265","Snowdepth":"1.500","Units":"in","Rept_Date":"2020-04-15 11"},"coordinates":[4422,5343]},{"type":"Point","properties":{"Station_ID":"CAN-ON-5","Station_Nam":"OWEN SOUND 1.5 NW - GSCA, CAN","Latitude":"44.57837","Longitude":"-80.95461","Snowdepth":"1.500","Units":"in","Rept_Date":"2020-04-15 12"},"coordinates":[3821,5140]},{"type":"Point","properties":{"Station_ID":"38.3370_080.6452","Station_Nam":"1 NE Craigsville  CoCoRaHS (WV-NC-4)","Latitude":"38.33700","Longitude":"-80.64520","Snowdepth":"1.500","Units":"in","Rept_Date":"2020-04-15 11"},"coordinates":[3894,898]},{"type":"Point","properties":{"Station_ID":"IL-LS-1","Station_Nam":"OTTAWA 1.3 NW, IL","Latitude":"41.36330","Longitude":"-88.85660","Snowdepth":"1.400","Units":"in","Rept_Date":"2020-04-15 13"},"coordinates":[1966,2955]},{"type":"Point","properties":{"Station_ID":"IL-DK-28","Station_Nam":"DE KALB 0.7 SW, IL","Latitude":"41.92269","Longitude":"-88.76072","Snowdepth":"1.400","Units":"in","Rept_Date":"2020-04-15 12"},"coordinates":[1989,3335]},{"type":"Point","properties":{"Station_ID":"NY-AL-11","Station_Nam":"WELLSVILLE 2.4 ENE, NY","Latitude":"42.13750","Longitude":"-77.90550","Snowdepth":"1.200","Units":"in","Rept_Date":"2020-04-15 11"},"coordinates":[4537,3481]},{"type":"Point","properties":{"Station_ID":"IL-WL-131","Station_Nam":"HOMER GLEN 0.7 NNE, IL","Latitude":"41.60842","Longitude":"-87.93270","Snowdepth":"1.200","Units":"in","Rept_Date":"2020-04-15 12"},"coordinates":[2183,3122]},{"type":"Point","properties":{"Station_ID":"IL-KN-95","Station_Nam":"ELGIN 2.5 W, IL","Latitude":"42.04041","Longitude":"-88.33660","Snowdepth":"1.200","Units":"in","Rept_Date":"2020-04-15 12"},"coordinates":[2088,3415]},{"type":"Point","properties":{"Station_ID":"MI-AT-6","Station_Nam":"MANCELONA 0.5 ESE, MI","Latitude":"44.89981","Longitude":"-85.05100","Snowdepth":"1.100","Units":"in","Rept_Date":"2020-04-15 12"},"coordinates":[2859,5359]},{"type":"Point","properties":{"Station_ID":"IL-LE-8","Station_Nam":"ASHTON 0.4 SSW, IL","Latitude":"41.86327","Longitude":"-89.22570","Snowdepth":"1.100","Units":"in","Rept_Date":"2020-04-15 12"},"coordinates":[1880,3295]},{"type":"Point","properties":{"Station_ID":"WV-PR-11","Station_Nam":"THOMAS 7.4 N, WV","Latitude":"39.25361","Longitude":"-79.51055","Snowdepth":"1.000","Units":"in","Rept_Date":"2020-04-15 11"},"coordinates":[4160,1521]},{"type":"Point","properties":{"Station_ID":"WSUW2","Station_Nam":"WHITE SULPHUR SPRINGS","Latitude":"37.78890","Longitude":"-80.30830","Snowdepth":"1.000","Units":"in","Rept_Date":"2020-04-15 11"},"coordinates":[3973,526]},{"type":"Point","properties":{"Station_ID":"WNNM5","Station_Nam":"WINNEBAGO","Latitude":"43.76920","Longitude":"-94.18730","Snowdepth":"1.000","Units":"in","Rept_Date":"2020-04-15 13"},"coordinates":[715,4590]},{"type":"Point","properties":{"Station_ID":"WNDP1","Station_Nam":"WINDBER COUNTY CLUB","Latitude":"40.28780","Longitude":"-78.77530","Snowdepth":"1.000","Units":"in","Rept_Date":"2020-04-15 11"},"coordinates":[4333,2224]},{"type":"Point","properties":{"Station_ID":"WLNM4","Station_Nam":"WELLSTON 1N","Latitude":"44.22940","Longitude":"-85.95690","Snowdepth":"1.000","Units":"in","Rept_Date":"2020-04-15 11"},"coordinates":[2647,4903]},{"type":"Point","properties":{"Station_ID":"WJWI2","Station_Nam":"WESTMONT,IL","Latitude":"41.80000","Longitude":"-87.95000","Snowdepth":"1.000","Units":"in","Rept_Date":"2020-04-15 12"},"coordinates":[2179,3252]},{"type":"Point","properties":{"Station_ID":"WI-WD-2","Station_Nam":"WISCONSIN RAPIDS 4.6 SSE, WI","Latitude":"44.33823","Longitude":"-89.78200","Snowdepth":"1.000","Units":"in","Rept_Date":"2020-04-15 13"},"coordinates":[1749,4977]},{"type":"Point","properties":{"Station_ID":"WI-SC-24","Station_Nam":"DEER PARK 2.6 SSE, WI","Latitude":"45.15739","Longitude":"-92.35759","Snowdepth":"1.000","Units":"in","Rept_Date":"2020-04-15 12"},"coordinates":[1144,5534]},{"type":"Point","properties":{"Station_ID":"WI-PC-5","Station_Nam":"RIVER FALLS 1.2 SSW, WI","Latitude":"44.84032","Longitude":"-92.63500","Snowdepth":"1.000","Units":"in","Rept_Date":"2020-04-15 12"},"coordinates":[1079,5318]},{"type":"Point","properties":{"Station_ID":"WI-DN-15","Station_Nam":"MENOMONIE 0.9 NW, WI","Latitude":"44.89832","Longitude":"-91.92398","Snowdepth":"1.000","Units":"in","Rept_Date":"2020-04-15 12"},"coordinates":[1246,5358]},{"type":"Point","properties":{"Station_ID":"WHTI2","Station_Nam":"WHEATON,IL","Latitude":"41.81330","Longitude":"-88.07360","Snowdepth":"1.000","Units":"in","Rept_Date":"2020-04-15 12"},"coordinates":[2150,3261]},{"type":"Point","properties":{"Station_ID":"WGCI4","Station_Nam":"WAVELAND","Latitude":"41.58330","Longitude":"-93.66670","Snowdepth":"1.000","Units":"in","Rept_Date":"2020-04-15 12"},"coordinates":[837,3105]},{"type":"Point","properties":{"Station_ID":"WELN6","Station_Nam":"WELLSVILLE","Latitude":"42.11730","Longitude":"-77.94750","Snowdepth":"1.000","Units":"in","Rept_Date":"2020-04-15 09"},"coordinates":[4527,3468]},{"type":"Point","properties":{"Station_ID":"WASM5","Station_Nam":"WASECA SOUTHERN RESEARCH AND OUTREACH CENTER","Latitude":"44.07070","Longitude":"-93.52640","Snowdepth":"1.000","Units":"in","Rept_Date":"2020-04-15 13"},"coordinates":[870,4795]},{"type":"Point","properties":{"Station_ID":"WAIV1","Station_Nam":"WAITSFIELD","Latitude":"44.17560","Longitude":"-72.79610","Snowdepth":"1.000","Units":"in","Rept_Date":"2020-04-15 11"},"coordinates":[5736,4867]},{"type":"Point","properties":{"Station_ID":"VT-LM-7","Station_Nam":"HYDE PARK 2.9 NE, VT","Latitude":"44.62080","Longitude":"-72.57250","Snowdepth":"1.000","Units":"in","Rept_Date":"2020-04-15 11"},"coordinates":[5788,5169]},{"type":"Point","properties":{"Station_ID":"SWEI4","Station_Nam":"SWEA CITY,IA","Latitude":"43.38530","Longitude":"-94.25000","Snowdepth":"1.000","Units":"in","Rept_Date":"2020-04-15 11"},"coordinates":[700,4329]},{"type":"Point","properties":{"Station_ID":"SPGM5","Station_Nam":"SPRING VALLEY","Latitude":"43.69330","Longitude":"-92.39260","Snowdepth":"1.000","Units":"in","Rept_Date":"2020-04-15 12"},"coordinates":[1136,4539]},{"type":"Point","properties":{"Station_ID":"SD-UN-2","Station_Nam":"ELK POINT 5.6 NNE, SD","Latitude":"42.76126","Longitude":"-96.65320","Snowdepth":"1.000","Units":"in","Rept_Date":"2020-04-15 14"},"coordinates":[136,3905]},{"type":"Point","properties":{"Station_ID":"SD-MH-41","Station_Nam":"SIOUX FALLS 3.9 SW, SD","Latitude":"43.50475","Longitude":"-96.78660","Snowdepth":"1.000","Units":"in","Rept_Date":"2020-04-15 12"},"coordinates":[105,4411]},{"type":"Point","properties":{"Station_ID":"RUHN6","Station_Nam":"RUSHFORD","Latitude":"42.42610","Longitude":"-78.19220","Snowdepth":"1.000","Units":"in","Rept_Date":"2020-04-15 12"},"coordinates":[4469,3677]},{"type":"Point","properties":{"Station_ID":"ROBW3","Station_Nam":"ROBERTS WWTP","Latitude":"44.97070","Longitude":"-92.56200","Snowdepth":"1.000","Units":"in","Rept_Date":"2020-04-15 13"},"coordinates":[1096,5407]},{"type":"Point","properties":{"Station_ID":"RMSI4","Station_Nam":"REMSEN NO. 2","Latitude":"42.81050","Longitude":"-95.97530","Snowdepth":"1.000","Units":"in","Rept_Date":"2020-04-15 15"},"coordinates":[295,3939]},{"type":"Point","properties":{"Station_ID":"RLWM5","Station_Nam":"CAMP NORRIS DNR","Latitude":"48.61000","Longitude":"-95.18170","Snowdepth":"1.000","Units":"in","Rept_Date":"2020-04-15 12"},"coordinates":[482,7881]},{"type":"Point","properties":{"Station_ID":"RHAN6","Station_Nam":"ALLEGANY STATE PARK","Latitude":"42.10030","Longitude":"-78.74970","Snowdepth":"1.000","Units":"in","Rept_Date":"2020-04-15 11"},"coordinates":[4339,3456]},{"type":"Point","properties":{"Station_ID":"RFDM4","Station_Nam":"ROCKFORD","Latitude":"43.11580","Longitude":"-85.56410","Snowdepth":"1.000","Units":"in","Rept_Date":"2020-04-15 11"},"coordinates":[2739,4146]},{"type":"Point","properties":{"Station_ID":"RCVW2","Station_Nam":"ROCK CAVE 2NE","Latitude":"38.85610","Longitude":"-80.30740","Snowdepth":"1.000","Units":"in","Rept_Date":"2020-04-15 12"},"coordinates":[3973,1251]},{"type":"Point","properties":{"Station_ID":"PRWI2","Station_Nam":"PEORIA 5NW","Latitude":"40.74930","Longitude":"-89.62030","Snowdepth":"1.000","Units":"in","Rept_Date":"2020-04-15 13"},"coordinates":[1787,2538]},{"type":"Point","properties":{"Station_ID":"PIPM5","Station_Nam":"PIPESTONE,MN","Latitude":"44.01390","Longitude":"-96.32580","Snowdepth":"1.000","Units":"in","Rept_Date":"2020-04-15 13"},"coordinates":[213,4757]},{"type":"Point","properties":{"Station_ID":"PAWI2","Station_Nam":"PAW PAW,IL","Latitude":"41.70000","Longitude":"-88.96670","Snowdepth":"1.000","Units":"in","Rept_Date":"2020-04-15 12"},"coordinates":[1940,3184]},{"type":"Point","properties":{"Station_ID":"PA-FY-16","Station_Nam":"FARMINGTON 0.5 ENE, PA","Latitude":"39.81000","Longitude":"-79.55760","Snowdepth":"1.000","Units":"in","Rept_Date":"2020-04-15 11"},"coordinates":[4149,1899]},{"type":"Point","properties":{"Station_ID":"OTTI2","Station_Nam":"OTTAWA,IL","Latitude":"41.32830","Longitude":"-88.91060","Snowdepth":"1.000","Units":"in","Rept_Date":"2020-04-15 13"},"coordinates":[1954,2931]},{"type":"Point","properties":{"Station_ID":"ORCI4","Station_Nam":"ORANGE CITY","Latitude":"43.00080","Longitude":"-96.05390","Snowdepth":"1.000","Units":"in","Rept_Date":"2020-04-15 12"},"coordinates":[277,4068]},{"type":"Point","properties":{"Station_ID":"OLNN6","Station_Nam":"OLEAN","Latitude":"42.07370","Longitude":"-78.45180","Snowdepth":"1.000","Units":"in","Rept_Date":"2020-04-15 11"},"coordinates":[4408,3438]},{"type":"Point","properties":{"Station_ID":"OH-GG-7","Station_Nam":"MIDDLEFIELD 0.6 NE, OH","Latitude":"41.46438","Longitude":"-81.06520","Snowdepth":"1.000","Units":"in","Rept_Date":"2020-04-15 12"},"coordinates":[3795,3024]},{"type":"Point","properties":{"Station_ID":"OCON6","Station_Nam":"OSCEOLA","Latitude":"43.49910","Longitude":"-75.71210","Snowdepth":"1.000","Units":"in","Rept_Date":"2020-04-15 11"},"coordinates":[5052,4407]},{"type":"Point","properties":{"Station_ID":"NY-OT-11","Station_Nam":"HARTWICK, NY","Latitude":"42.65990","Longitude":"-75.05000","Snowdepth":"1.000","Units":"in","Rept_Date":"2020-04-15 14"},"coordinates":[5207,3836]},{"type":"Point","properties":{"Station_ID":"NY-OG-61","Station_Nam":"SKANEATELES 0.8 NNW, NY","Latitude":"42.95538","Longitude":"-76.43362","Snowdepth":"1.000","Units":"in","Rept_Date":"2020-04-15 11"},"coordinates":[4882,4037]},{"type":"Point","properties":{"Station_ID":"NY-LV-5","Station_Nam":"DANSVILLE 1.0 ENE, NY","Latitude":"42.56802","Longitude":"-77.67900","Snowdepth":"1.000","Units":"in","Rept_Date":"2020-04-15 12"},"coordinates":[4590,3774]},{"type":"Point","properties":{"Station_ID":"NY-JF-30","Station_Nam":"WEST CARTHAGE 0.3 ENE, NY","Latitude":"43.97493","Longitude":"-75.61640","Snowdepth":"1.000","Units":"in","Rept_Date":"2020-04-15 11"},"coordinates":[5074,4730]},{"type":"Point","properties":{"Station_ID":"NY-DL-28","Station_Nam":"FLEISCHMANNS 5.7 N, NY","Latitude":"42.23779","Longitude":"-74.52335","Snowdepth":"1.000","Units":"in","Rept_Date":"2020-04-15 11"},"coordinates":[5331,3549]},{"type":"Point","properties":{"Station_ID":"NY-CT-22","Station_Nam":"FRANKLINVILLE 0.5 NNE, NY","Latitude":"42.34166","Longitude":"-78.45280","Snowdepth":"1.000","Units":"in","Rept_Date":"2020-04-15 11"},"coordinates":[4408,3620]},{"type":"Point","properties":{"Station_ID":"NUMM5","Station_Nam":"NEW ULM 3SE","Latitude":"44.29450","Longitude":"-94.40840","Snowdepth":"1.000","Units":"in","Rept_Date":"2020-04-15 11"},"coordinates":[663,4947]},{"type":"Point","properties":{"Station_ID":"NORV2","Station_Nam":"NORA 4 SSE","Latitude":"37.01560","Longitude":"-82.32140","Snowdepth":"1.000","Units":"in","Rept_Date":"2020-04-15 11"},"coordinates":[3500,0]},{"type":"Point","properties":{"Station_ID":"NALN6","Station_Nam":"CATTARAUGUS","Latitude":"42.32450","Longitude":"-78.86700","Snowdepth":"1.000","Units":"in","Rept_Date":"2020-04-15 12"},"coordinates":[4311,3608]},{"type":"Point","properties":{"Station_ID":"MZUI4","Station_Nam":"MONTEZUMA,IA","Latitude":"41.58330","Longitude":"-92.53330","Snowdepth":"1.000","Units":"in","Rept_Date":"2020-04-15 12"},"coordinates":[1103,3105]},{"type":"Point","properties":{"Station_ID":"MYVM7","Station_Nam":"MARYVILLE","Latitude":"40.34580","Longitude":"-94.83410","Snowdepth":"1.000","Units":"in","Rept_Date":"2020-04-15 12"},"coordinates":[563,2263]},{"type":"Point","properties":{"Station_ID":"MWRV2","Station_Nam":"MOUNT WEATHER 3 COOP","Latitude":"39.06550","Longitude":"-77.89500","Snowdepth":"1.000","Units":"in","Rept_Date":"2020-04-15 11"},"coordinates":[4539,1393]},{"type":"Point","properties":{"Station_ID":"MTAI4","Station_Nam":"MOUNT AYR,IA","Latitude":"40.68280","Longitude":"-94.29440","Snowdepth":"1.000","Units":"in","Rept_Date":"2020-04-15 12"},"coordinates":[690,2493]},{"type":"Point","properties":{"Station_ID":"MSHI4","Station_Nam":"MARSHALLTOWN,IA","Latitude":"42.06670","Longitude":"-92.93330","Snowdepth":"1.000","Units":"in","Rept_Date":"2020-04-15 12"},"coordinates":[1009,3433]},{"type":"Point","properties":{"Station_ID":"MRTI2","Station_Nam":"MORTON","Latitude":"40.60050","Longitude":"-89.46540","Snowdepth":"1.000","Units":"in","Rept_Date":"2020-04-15 12"},"coordinates":[1823,2437]},{"type":"Point","properties":{"Station_ID":"MROI4","Station_Nam":"IOWA RIVER","Latitude":"41.79670","Longitude":"-92.07060","Snowdepth":"1.000","Units":"in","Rept_Date":"2020-04-15 12"},"coordinates":[1212,3250]},{"type":"Point","properties":{"Station_ID":"MRFS2","Station_Nam":"MADISON,SD","Latitude":"44.00000","Longitude":"-97.23330","Snowdepth":"1.000","Units":"in","Rept_Date":"2020-04-15 14"},"coordinates":[0,4747]},{"type":"Point","properties":{"Station_ID":"MOSI2","Station_Nam":"MORRIS,IL","Latitude":"41.37390","Longitude":"-88.43360","Snowdepth":"1.000","Units":"in","Rept_Date":"2020-04-15 13"},"coordinates":[2065,2962]},{"type":"Point","properties":{"Station_ID":"MO-ND-2","Station_Nam":"CONCEPTION JUNCTION 0.3 SE, MO","Latitude":"40.26575","Longitude":"-94.68720","Snowdepth":"1.000","Units":"in","Rept_Date":"2020-04-15 13"},"coordinates":[598,2209]},{"type":"Point","properties":{"Station_ID":"MNE9SLWI","Station_Nam":"LEAVENWORTH 5.4 S","Latitude":"44.14481","Longitude":"-94.78882","Snowdepth":"1.000","Units":"in","Rept_Date":"2020-04-15 12"},"coordinates":[574,4846]},{"type":"Point","properties":{"Station_ID":"MNDMBBNN","Station_Nam":"OWATONNA 3.5 W","Latitude":"44.08801","Longitude":"-93.29623","Snowdepth":"1.000","Units":"in","Rept_Date":"2020-04-15 12"},"coordinates":[924,4807]},{"type":"Point","properties":{"Station_ID":"MNBW2","Station_Nam":"MT. NEBO 1S","Latitude":"38.18790","Longitude":"-80.84840","Snowdepth":"1.000","Units":"in","Rept_Date":"2020-04-15 11"},"coordinates":[3846,797]},{"type":"Point","properties":{"Station_ID":"MN7M8EBJ","Station_Nam":"LUTSEN 15.7 NNW","Latitude":"47.85324","Longitude":"-89.92908","Snowdepth":"1.000","Units":"in","Rept_Date":"2020-04-15 13"},"coordinates":[1714,7366]},{"type":"Point","properties":{"Station_ID":"MN-WG-16","Station_Nam":"WOODBURY 1.7 N, MN","Latitude":"44.93054","Longitude":"-92.92490","Snowdepth":"1.000","Units":"in","Rept_Date":"2020-04-15 12"},"coordinates":[1011,5380]},{"type":"Point","properties":{"Station_ID":"MN-RM-15","Station_Nam":"ROSEVILLE 2.1 NW, MN","Latitude":"45.03502","Longitude":"-93.18620","Snowdepth":"1.000","Units":"in","Rept_Date":"2020-04-15 11"},"coordinates":[950,5451]},{"type":"Point","properties":{"Station_ID":"MN-MW-8","Station_Nam":"AUSTIN 2.4 W, MN","Latitude":"43.67190","Longitude":"-93.02280","Snowdepth":"1.000","Units":"in","Rept_Date":"2020-04-15 12"},"coordinates":[988,4524]},{"type":"Point","properties":{"Station_ID":"MN-MT-6","Station_Nam":"FAIRMONT 0.7 E, MN","Latitude":"43.64501","Longitude":"-94.44860","Snowdepth":"1.000","Units":"in","Rept_Date":"2020-04-15 12"},"coordinates":[654,4506]},{"type":"Point","properties":{"Station_ID":"MN-HN-110","Station_Nam":"EDINA 1.9 SSE, MN","Latitude":"44.86875","Longitude":"-93.33940","Snowdepth":"1.000","Units":"in","Rept_Date":"2020-04-15 12"},"coordinates":[914,5338]},{"type":"Point","properties":{"Station_ID":"MN-GH-28","Station_Nam":"CANNON FALLS 0.5 SE, MN","Latitude":"44.50866","Longitude":"-92.89526","Snowdepth":"1.000","Units":"in","Rept_Date":"2020-04-15 13"},"coordinates":[1018,5093]},{"type":"Point","properties":{"Station_ID":"MN-DK-70","Station_Nam":"EAGAN 2.0 NNW, MN","Latitude":"44.84322","Longitude":"-93.17899","Snowdepth":"1.000","Units":"in","Rept_Date":"2020-04-15 12"},"coordinates":[952,5320]},{"type":"Point","properties":{"Station_ID":"MMLM5","Station_Nam":"DIVERSION","Latitude":"44.47060","Longitude":"-95.80000","Snowdepth":"1.000","Units":"in","Rept_Date":"2020-04-15 13"},"coordinates":[336,5067]},{"type":"Point","properties":{"Station_ID":"MMCI2","Station_Nam":"MOMENCE 5ENE","Latitude":"41.18110","Longitude":"-87.57250","Snowdepth":"1.000","Units":"in","Rept_Date":"2020-04-15 13"},"coordinates":[2268,2831]},{"type":"Point","properties":{"Station_ID":"MILV2","Station_Nam":"MILL GAP COOP","Latitude":"38.30640","Longitude":"-79.71970","Snowdepth":"1.000","Units":"in","Rept_Date":"2020-04-15 10"},"coordinates":[4111,877]},{"type":"Point","properties":{"Station_ID":"MI-OT-4","Station_Nam":"GAYLORD 1.7 WNW, MI","Latitude":"45.03280","Longitude":"-84.71090","Snowdepth":"1.000","Units":"in","Rept_Date":"2020-04-15 12"},"coordinates":[2939,5449]},{"type":"Point","properties":{"Station_ID":"MI-KN-93","Station_Nam":"GRANDVILLE 0.6 SSW, MI","Latitude":"42.89531","Longitude":"-85.76006","Snowdepth":"1.000","Units":"in","Rept_Date":"2020-04-15 11"},"coordinates":[2693,3996]},{"type":"Point","properties":{"Station_ID":"MI-KN-7","Station_Nam":"EAST GRAND RAPIDS 0.7 SSW, MI","Latitude":"42.93801","Longitude":"-85.61340","Snowdepth":"1.000","Units":"in","Rept_Date":"2020-04-15 11"},"coordinates":[2727,4025]},{"type":"Point","properties":{"Station_ID":"MI-KN-16","Station_Nam":"GRAND RAPIDS 2.5 ENE, MI","Latitude":"42.96970","Longitude":"-85.60750","Snowdepth":"1.000","Units":"in","Rept_Date":"2020-04-15 10"},"coordinates":[2729,4047]},{"type":"Point","properties":{"Station_ID":"MI-KN-102","Station_Nam":"LOWELL 5.5 NW, MI","Latitude":"42.98760","Longitude":"-85.42403","Snowdepth":"1.000","Units":"in","Rept_Date":"2020-04-15 12"},"coordinates":[2772,4059]},{"type":"Point","properties":{"Station_ID":"MI-IN-1","Station_Nam":"SARANAC 2.6 NE, MI","Latitude":"42.95764","Longitude":"-85.17380","Snowdepth":"1.000","Units":"in","Rept_Date":"2020-04-15 10"},"coordinates":[2831,4039]},{"type":"Point","properties":{"Station_ID":"MI-IH-45","Station_Nam":"LANSING 1.0 ENE, MI","Latitude":"42.71480","Longitude":"-84.53490","Snowdepth":"1.000","Units":"in","Rept_Date":"2020-04-15 12"},"coordinates":[2981,3874]},{"type":"Point","properties":{"Station_ID":"MI-CF-9","Station_Nam":"GRAYLING 15.8 NE, MI","Latitude":"44.80464","Longitude":"-84.46313","Snowdepth":"1.000","Units":"in","Rept_Date":"2020-04-15 11"},"coordinates":[2997,5294]},{"type":"Point","properties":{"Station_ID":"MHYI2","Station_Nam":"LOCK AND DAM","Latitude":"42.28330","Longitude":"-88.23330","Snowdepth":"1.000","Units":"in","Rept_Date":"2020-04-15 13"},"coordinates":[2113,3580]},{"type":"Point","properties":{"Station_ID":"MFWI2","Station_Nam":"MIDWAY COOP","Latitude":"41.73730","Longitude":"-87.77760","Snowdepth":"1.000","Units":"in","Rept_Date":"2020-04-15 12"},"coordinates":[2219,3209]},{"type":"Point","properties":{"Station_ID":"MATI2","Station_Nam":"MANHATTAN","Latitude":"41.45840","Longitude":"-87.90980","Snowdepth":"1.000","Units":"in","Rept_Date":"2020-04-15 13"},"coordinates":[2188,3020]},{"type":"Point","properties":{"Station_ID":"MACI2","Station_Nam":"MACKINAW","Latitude":"40.52400","Longitude":"-89.42070","Snowdepth":"1.000","Units":"in","Rept_Date":"2020-04-15 12"},"coordinates":[1834,2385]},{"type":"Point","properties":{"Station_ID":"LPLN6","Station_Nam":"LAKE PLACID 2 S","Latitude":"44.30420","Longitude":"-73.98390","Snowdepth":"1.000","Units":"in","Rept_Date":"2020-04-15 12"},"coordinates":[5457,4954]},{"type":"Point","properties":{"Station_ID":"LOWN6","Station_Nam":"LOWVILLE","Latitude":"43.79280","Longitude":"-75.48290","Snowdepth":"1.000","Units":"in","Rept_Date":"2020-04-15 11"},"coordinates":[5105,4606]},{"type":"Point","properties":{"Station_ID":"LKZI2","Station_Nam":"LAKE ZURICH","Latitude":"42.19250","Longitude":"-88.06530","Snowdepth":"1.000","Units":"in","Rept_Date":"2020-04-15 12"},"coordinates":[2152,3519]},{"type":"Point","properties":{"Station_ID":"LKCM4","Station_Nam":"LAKE CITY EXP FARM","Latitude":"44.30880","Longitude":"-85.20500","Snowdepth":"1.000","Units":"in","Rept_Date":"2020-04-15 12"},"coordinates":[2823,4957]},{"type":"Point","properties":{"Station_ID":"LBKV1","Station_Nam":"LYE BROOK","Latitude":"43.05000","Longitude":"-73.03330","Snowdepth":"1.000","Units":"in","Rept_Date":"2020-04-16 05"},"coordinates":[5680,4101]},{"type":"Point","properties":{"Station_ID":"LAUP1","Station_Nam":"1.5MI S OF RT 30 ON SMIT (LAUREL RIDGE)","Latitude":"40.05000","Longitude":"-79.22060","Snowdepth":"1.000","Units":"in","Rept_Date":"2020-04-15 11"},"coordinates":[4228,2062]},{"type":"Point","properties":{"Station_ID":"LADW3","Station_Nam":"LADYSMITH WTP","Latitude":"45.44290","Longitude":"-91.08970","Snowdepth":"1.000","Units":"in","Rept_Date":"2020-04-15 12"},"coordinates":[1442,5728]},{"type":"Point","properties":{"Station_ID":"LACM7","Station_Nam":"LANCASTER 2SE","Latitude":"40.50280","Longitude":"-92.50770","Snowdepth":"1.000","Units":"in","Rept_Date":"2020-04-15 12"},"coordinates":[1109,2370]},{"type":"Point","properties":{"Station_ID":"KORD","Station_Nam":"CHICAGO OHARE INTERNATIONAL","Latitude":"41.98333","Longitude":"-87.91666","Snowdepth":"1.000","Units":"in","Rept_Date":"2020-04-15 12"},"coordinates":[2187,3376]},{"type":"Point","properties":{"Station_ID":"KMDW","Station_Nam":"CHICAGO MIDWAY AIRPORT","Latitude":"41.78333","Longitude":"-87.75000","Snowdepth":"1.000","Units":"in","Rept_Date":"2020-04-15 12"},"coordinates":[2226,3241]},{"type":"Point","properties":{"Station_ID":"KGRR","Station_Nam":"GERALD R. FORD INTERNATIONAL","Latitude":"42.88333","Longitude":"-85.51666","Snowdepth":"1.000","Units":"in","Rept_Date":"2020-04-15 12"},"coordinates":[2750,3988]},{"type":"Point","properties":{"Station_ID":"KDSM","Station_Nam":"DES MOINES INTERNATIONAL","Latitude":"41.53333","Longitude":"-93.66666","Snowdepth":"1.000","Units":"in","Rept_Date":"2020-04-15 12"},"coordinates":[837,3071]},{"type":"Point","properties":{"Station_ID":"KCLE","Station_Nam":"CLEVELAND-HOPKINS INTERNATIONAL","Latitude":"41.40000","Longitude":"-81.85000","Snowdepth":"1.000","Units":"in","Rept_Date":"2020-04-16 06"},"coordinates":[3611,2980]},{"type":"Point","properties":{"Station_ID":"KBUF","Station_Nam":"GREATER BUFFALO INTERNATIONAL  AIRPORT","Latitude":"42.93333","Longitude":"-78.73333","Snowdepth":"1.000","Units":"in","Rept_Date":"2020-04-16 00"},"coordinates":[4342,4022]},{"type":"Point","properties":{"Station_ID":"JSTN6","Station_Nam":"JAMESTOWN 4 ENE","Latitude":"42.11000","Longitude":"-79.15910","Snowdepth":"1.000","Units":"in","Rept_Date":"2020-04-15 11"},"coordinates":[4242,3463]},{"type":"Point","properties":{"Station_ID":"IN-PT-91","Station_Nam":"CHESTERTON 4.2 E, IN","Latitude":"41.59433","Longitude":"-86.97520","Snowdepth":"1.000","Units":"in","Rept_Date":"2020-04-15 12"},"coordinates":[2408,3112]},{"type":"Point","properties":{"Station_ID":"IN-LK-59","Station_Nam":"(W9MAL)MERRILLVILLE 2.0 NNW, IN","Latitude":"41.49550","Longitude":"-87.34610","Snowdepth":"1.000","Units":"in","Rept_Date":"2020-04-15 13"},"coordinates":[2321,3045]},{"type":"Point","properties":{"Station_ID":"ILNI2","Station_Nam":"MISSISSIPPI R, IL CITY LK & D 16","Latitude":"41.41670","Longitude":"-91.01670","Snowdepth":"1.000","Units":"in","Rept_Date":"2020-04-15 10"},"coordinates":[1459,2991]},{"type":"Point","properties":{"Station_ID":"IL-WL-80","Station_Nam":"LOCKPORT 1.3 SE, IL","Latitude":"41.57454","Longitude":"-88.03300","Snowdepth":"1.000","Units":"in","Rept_Date":"2020-04-15 12"},"coordinates":[2160,3099]},{"type":"Point","properties":{"Station_ID":"IL-WL-63","Station_Nam":"NEW LENOX 1.8 SE, IL","Latitude":"41.49964","Longitude":"-87.96030","Snowdepth":"1.000","Units":"in","Rept_Date":"2020-04-15 12"},"coordinates":[2177,3048]},{"type":"Point","properties":{"Station_ID":"IL-WL-153","Station_Nam":"BOLINGBROOK 3.0 WSW, IL","Latitude":"41.67888","Longitude":"-88.12666","Snowdepth":"1.000","Units":"in","Rept_Date":"2020-04-15 12"},"coordinates":[2138,3170]},{"type":"Point","properties":{"Station_ID":"IL-TZ-1","Station_Nam":"MORTON 1.0 S, IL","Latitude":"40.59743","Longitude":"-89.47060","Snowdepth":"1.000","Units":"in","Rept_Date":"2020-04-15 12"},"coordinates":[1822,2435]},{"type":"Point","properties":{"Station_ID":"IL-MCL-50","Station_Nam":"BLOOMINGTON 3.8 SW, IL","Latitude":"40.44713","Longitude":"-89.03182","Snowdepth":"1.000","Units":"in","Rept_Date":"2020-04-15 13"},"coordinates":[1925,2332]},{"type":"Point","properties":{"Station_ID":"IL-MCL-48","Station_Nam":"BLOOMINGTON 1.5 ESE, IL","Latitude":"40.47230","Longitude":"-88.94731","Snowdepth":"1.000","Units":"in","Rept_Date":"2020-04-15 12"},"coordinates":[1945,2349]},{"type":"Point","properties":{"Station_ID":"IL-MCL-17","Station_Nam":"BLOOMINGTON 2.7 NE, IL","Latitude":"40.50100","Longitude":"-88.93190","Snowdepth":"1.000","Units":"in","Rept_Date":"2020-04-15 14"},"coordinates":[1949,2369]},{"type":"Point","properties":{"Station_ID":"IL-KN-9","Station_Nam":"ELGIN 1.0 S, IL","Latitude":"42.02560","Longitude":"-88.28850","Snowdepth":"1.000","Units":"in","Rept_Date":"2020-04-15 13"},"coordinates":[2100,3405]},{"type":"Point","properties":{"Station_ID":"IL-GY-16","Station_Nam":"MORRIS 6.4 ESE, IL","Latitude":"41.33153","Longitude":"-88.31410","Snowdepth":"1.000","Units":"in","Rept_Date":"2020-04-15 12"},"coordinates":[2094,2933]},{"type":"Point","properties":{"Station_ID":"IL-GY-1","Station_Nam":"CARBON HILL 3.1 N, IL","Latitude":"41.34139","Longitude":"-88.29810","Snowdepth":"1.000","Units":"in","Rept_Date":"2020-04-15 12"},"coordinates":[2097,2940]},{"type":"Point","properties":{"Station_ID":"IL-DP-132","Station_Nam":"WHEATON 2.0 NNE, IL","Latitude":"41.87980","Longitude":"-88.08630","Snowdepth":"1.000","Units":"in","Rept_Date":"2020-04-15 12"},"coordinates":[2147,3306]},{"type":"Point","properties":{"Station_ID":"IL-DP-102","Station_Nam":"BOLINGBROOK 2.7 NE, IL","Latitude":"41.73019","Longitude":"-88.04479","Snowdepth":"1.000","Units":"in","Rept_Date":"2020-04-15 12"},"coordinates":[2157,3204]},{"type":"Point","properties":{"Station_ID":"IL-DK-6","Station_Nam":"DE KALB 0.3 ENE, IL","Latitude":"41.93238","Longitude":"-88.74700","Snowdepth":"1.000","Units":"in","Rept_Date":"2020-04-15 12"},"coordinates":[1992,3342]},{"type":"Point","properties":{"Station_ID":"IL-CK-98","Station_Nam":"LA GRANGE PARK 0.7 SSW, IL","Latitude":"41.82257","Longitude":"-87.87580","Snowdepth":"1.000","Units":"in","Rept_Date":"2020-04-15 12"},"coordinates":[2196,3267]},{"type":"Point","properties":{"Station_ID":"IL-CK-316","Station_Nam":"OAK LAWN 0.8 WSW, IL","Latitude":"41.71069","Longitude":"-87.76631","Snowdepth":"1.000","Units":"in","Rept_Date":"2020-04-15 12"},"coordinates":[2222,3191]},{"type":"Point","properties":{"Station_ID":"IL-CK-306","Station_Nam":"OAK FOREST 0.6 N, IL","Latitude":"41.61550","Longitude":"-87.75070","Snowdepth":"1.000","Units":"in","Rept_Date":"2020-04-15 12"},"coordinates":[2226,3126]},{"type":"Point","properties":{"Station_ID":"IL-CK-211","Station_Nam":"OAK LAWN 1.6 WNW, IL","Latitude":"41.72686","Longitude":"-87.77770","Snowdepth":"1.000","Units":"in","Rept_Date":"2020-04-15 13"},"coordinates":[2219,3202]},{"type":"Point","properties":{"Station_ID":"IL-CK-192","Station_Nam":"PARK RIDGE 0.7 WNW, IL","Latitude":"42.01676","Longitude":"-87.85570","Snowdepth":"1.000","Units":"in","Rept_Date":"2020-04-15 12"},"coordinates":[2201,3399]},{"type":"Point","properties":{"Station_ID":"IL-CK-180","Station_Nam":"PARK RIDGE 0.5 SSW, IL","Latitude":"42.00443","Longitude":"-87.84600","Snowdepth":"1.000","Units":"in","Rept_Date":"2020-04-15 12"},"coordinates":[2203,3391]},{"type":"Point","properties":{"Station_ID":"IL-CK-163","Station_Nam":"ARLINGTON HEIGHTS 1.2 SW, IL","Latitude":"42.08194","Longitude":"-87.99710","Snowdepth":"1.000","Units":"in","Rept_Date":"2020-04-15 12"},"coordinates":[2168,3444]},{"type":"Point","properties":{"Station_ID":"IL-CK-152","Station_Nam":"CHICAGO RIDGE 0.2 WSW, IL","Latitude":"41.70177","Longitude":"-87.78200","Snowdepth":"1.000","Units":"in","Rept_Date":"2020-04-15 12"},"coordinates":[2218,3185]},{"type":"Point","properties":{"Station_ID":"IL-CK-12","Station_Nam":"BRIDGEVIEW 1.3 NNW, IL","Latitude":"41.75502","Longitude":"-87.81730","Snowdepth":"1.000","Units":"in","Rept_Date":"2020-04-15 12"},"coordinates":[2210,3221]},{"type":"Point","properties":{"Station_ID":"ICYI4","Station_Nam":"IOWA CITY","Latitude":"41.60930","Longitude":"-91.50510","Snowdepth":"1.000","Units":"in","Rept_Date":"2020-04-15 12"},"coordinates":[1345,3122]},{"type":"Point","properties":{"Station_ID":"IA-LS-5","Station_Nam":"WAPELLO 5.4 SE, IA","Latitude":"41.11441","Longitude":"-91.13017","Snowdepth":"1.000","Units":"in","Rept_Date":"2020-04-15 12"},"coordinates":[1433,2786]},{"type":"Point","properties":{"Station_ID":"IA-HY-1","Station_Nam":"NEW LONDON 1.5 SW, IA","Latitude":"40.91415","Longitude":"-91.42930","Snowdepth":"1.000","Units":"in","Rept_Date":"2020-04-15 12"},"coordinates":[1362,2650]},{"type":"Point","properties":{"Station_ID":"IA-DV-7","Station_Nam":"BLOOMFIELD 4.2 WNW, IA","Latitude":"40.77675","Longitude":"-92.48850","Snowdepth":"1.000","Units":"in","Rept_Date":"2020-04-15 12"},"coordinates":[1114,2556]},{"type":"Point","properties":{"Station_ID":"HVJP1","Station_Nam":"HIDDEN VALLEY COOP","Latitude":"40.04200","Longitude":"-79.25660","Snowdepth":"1.000","Units":"in","Rept_Date":"2020-04-15 12"},"coordinates":[4220,2057]},{"type":"Point","properties":{"Station_ID":"HVAW2","Station_Nam":"HACKER VALLEY","Latitude":"38.61950","Longitude":"-80.38210","Snowdepth":"1.000","Units":"in","Rept_Date":"2020-04-15 11"},"coordinates":[3955,1090]},{"type":"Point","properties":{"Station_ID":"HSPV2","Station_Nam":"HOT SPRINGS","Latitude":"37.99690","Longitude":"-79.83160","Snowdepth":"1.000","Units":"in","Rept_Date":"2020-04-15 11"},"coordinates":[4085,667]},{"type":"Point","properties":{"Station_ID":"HRLN6","Station_Nam":"HORNELL ALMOND DAM","Latitude":"42.34880","Longitude":"-77.70440","Snowdepth":"1.000","Units":"in","Rept_Date":"2020-04-15 11"},"coordinates":[4584,3625]},{"type":"Point","properties":{"Station_ID":"HGHN6","Station_Nam":"HIGHMARKET","Latitude":"43.57520","Longitude":"-75.52070","Snowdepth":"1.000","Units":"in","Rept_Date":"2020-04-15 10"},"coordinates":[5096,4458]},{"type":"Point","properties":{"Station_ID":"HASM4","Station_Nam":"WWTP","Latitude":"42.65000","Longitude":"-85.30000","Snowdepth":"1.000","Units":"in","Rept_Date":"2020-04-15 11"},"coordinates":[2801,3830]},{"type":"Point","properties":{"Station_ID":"GPDM4","Station_Nam":"44TH STREET","Latitude":"42.90000","Longitude":"-85.76670","Snowdepth":"1.000","Units":"in","Rept_Date":"2020-04-15 11"},"coordinates":[2691,4000]},{"type":"Point","properties":{"Station_ID":"GFDN6","Station_Nam":"CHASES LAKE","Latitude":"43.75920","Longitude":"-75.29980","Snowdepth":"1.000","Units":"in","Rept_Date":"2020-04-15 10"},"coordinates":[5148,4584]},{"type":"Point","properties":{"Station_ID":"GEOI2","Station_Nam":"GENOA,IL","Latitude":"42.08000","Longitude":"-88.70750","Snowdepth":"1.000","Units":"in","Rept_Date":"2020-04-15 12"},"coordinates":[2001,3442]},{"type":"Point","properties":{"Station_ID":"GAYM4","Station_Nam":"GAYLORD","Latitude":"45.03320","Longitude":"-84.71130","Snowdepth":"1.000","Units":"in","Rept_Date":"2020-04-15 12"},"coordinates":[2939,5449]},{"type":"Point","properties":{"Station_ID":"FRKN6","Station_Nam":"FRANKLINVILLE","Latitude":"42.32960","Longitude":"-78.46330","Snowdepth":"1.000","Units":"in","Rept_Date":"2020-04-15 11"},"coordinates":[4406,3612]},{"type":"Point","properties":{"Station_ID":"FRFI4","Station_Nam":"FAIRFIELD","Latitude":"41.02100","Longitude":"-91.95530","Snowdepth":"1.000","Units":"in","Rept_Date":"2020-04-15 13"},"coordinates":[1239,2722]},{"type":"Point","properties":{"Station_ID":"FORM5","Station_Nam":"FOREST LAKE 5NE","Latitude":"45.33170","Longitude":"-92.89820","Snowdepth":"1.000","Units":"in","Rept_Date":"2020-04-15 12"},"coordinates":[1018,5652]},{"type":"Point","properties":{"Station_ID":"FLAM4","Station_Nam":"FIFE LAKE 2WNW","Latitude":"44.58480","Longitude":"-85.36530","Snowdepth":"1.000","Units":"in","Rept_Date":"2020-04-15 11"},"coordinates":[2786,5145]},{"type":"Point","properties":{"Station_ID":"FBTM5","Station_Nam":"FARIBAULT","Latitude":"44.30920","Longitude":"-93.26600","Snowdepth":"1.000","Units":"in","Rept_Date":"2020-04-15 12"},"coordinates":[931,4957]},{"type":"Point","properties":{"Station_ID":"ELGI2","Station_Nam":"ELGIN","Latitude":"42.06280","Longitude":"-88.28610","Snowdepth":"1.000","Units":"in","Rept_Date":"2020-04-15 12"},"coordinates":[2100,3430]},{"type":"Point","properties":{"Station_ID":"EJDM4","Station_Nam":"EAST JORDAN","Latitude":"45.15190","Longitude":"-85.13220","Snowdepth":"1.000","Units":"in","Rept_Date":"2020-04-15 12"},"coordinates":[2840,5530]},{"type":"Point","properties":{"Station_ID":"EGRM4","Station_Nam":"EAST GRAND RAPIDS","Latitude":"42.93780","Longitude":"-85.61310","Snowdepth":"1.000","Units":"in","Rept_Date":"2020-04-15 11"},"coordinates":[2728,4025]},{"type":"Point","properties":{"Station_ID":"EGNI2","Station_Nam":"ELGIN","Latitude":"42.02590","Longitude":"-88.28860","Snowdepth":"1.000","Units":"in","Rept_Date":"2020-04-15 13"},"coordinates":[2100,3405]},{"type":"Point","properties":{"Station_ID":"DTVM4","Station_Nam":"DETOUR VILLAGE","Latitude":"45.99830","Longitude":"-83.90130","Snowdepth":"1.000","Units":"in","Rept_Date":"2020-04-15 12"},"coordinates":[3129,6105]},{"type":"Point","properties":{"Station_ID":"DFXM1","Station_Nam":"DOVER-FOXCROFT","Latitude":"45.18720","Longitude":"-69.18350","Snowdepth":"1.000","Units":"in","Rept_Date":"2020-04-15 11"},"coordinates":[6584,5554]},{"type":"Point","properties":{"Station_ID":"DEKI2","Station_Nam":"SOUTH BRANCH KISHWAUKEE RIVER AT DEKALB","Latitude":"41.93110","Longitude":"-88.75970","Snowdepth":"1.000","Units":"in","Rept_Date":"2020-04-15 12"},"coordinates":[1989,3341]},{"type":"Point","properties":{"Station_ID":"CVWP1","Station_Nam":"CHANDLER VALLEY 1SE","Latitude":"41.93010","Longitude":"-79.29700","Snowdepth":"1.000","Units":"in","Rept_Date":"2020-04-15 11"},"coordinates":[4210,3340]},{"type":"Point","properties":{"Station_ID":"CTYI2","Station_Nam":"COAL CITY","Latitude":"41.34160","Longitude":"-88.29780","Snowdepth":"1.000","Units":"in","Rept_Date":"2020-04-15 12"},"coordinates":[2097,2940]},{"type":"Point","properties":{"Station_ID":"CRPI3","Station_Nam":"WASTE WATER FACILITY","Latitude":"41.43330","Longitude":"-87.35000","Snowdepth":"1.000","Units":"in","Rept_Date":"2020-04-15 12"},"coordinates":[2320,3003]},{"type":"Point","properties":{"Station_ID":"COVP1","Station_Nam":"COVINGTON 2WSW","Latitude":"41.73330","Longitude":"-77.11670","Snowdepth":"1.000","Units":"in","Rept_Date":"2020-04-15 11"},"coordinates":[4722,3207]},{"type":"Point","properties":{"Station_ID":"COKM5","Station_Nam":"COOK","Latitude":"47.85060","Longitude":"-92.69250","Snowdepth":"1.000","Units":"in","Rept_Date":"2020-04-15 11"},"coordinates":[1066,7364]},{"type":"Point","properties":{"Station_ID":"COJI4","Station_Nam":"COLUMBUS JUNCT 1 N","Latitude":"41.28640","Longitude":"-91.36100","Snowdepth":"1.000","Units":"in","Rept_Date":"2020-04-15 12"},"coordinates":[1378,2903]},{"type":"Point","properties":{"Station_ID":"CNNS2","Station_Nam":"CANTON","Latitude":"43.31120","Longitude":"-96.58770","Snowdepth":"1.000","Units":"in","Rept_Date":"2020-04-15 12"},"coordinates":[152,4279]},{"type":"Point","properties":{"Station_ID":"CHRI4","Station_Nam":"CHARITON,IA","Latitude":"41.00000","Longitude":"-93.31670","Snowdepth":"1.000","Units":"in","Rept_Date":"2020-04-15 13"},"coordinates":[919,2708]},{"type":"Point","properties":{"Station_ID":"CHOI2","Station_Nam":"CHENOA 2","Latitude":"40.74070","Longitude":"-88.71800","Snowdepth":"1.000","Units":"in","Rept_Date":"2020-04-15 12"},"coordinates":[1999,2532]},{"type":"Point","properties":{"Station_ID":"CARM1","Station_Nam":"CARIBOU WFO","Latitude":"46.86810","Longitude":"-68.01250","Snowdepth":"1.000","Units":"in","Rept_Date":"2020-04-16 04"},"coordinates":[6859,6697]},{"type":"Point","properties":{"Station_ID":"CAR","Station_Nam":"CARIBOU, ME","Latitude":"46.86830","Longitude":"-68.01360","Snowdepth":"1.000","Units":"in","Rept_Date":"2020-04-15 12"},"coordinates":[6859,6697]},{"type":"Point","properties":{"Station_ID":"CAN-ON-741","Station_Nam":"KIMBERLEY 2.7 WSW, CAN","Latitude":"44.37820","Longitude":"-80.56956","Snowdepth":"1.000","Units":"in","Rept_Date":"2020-04-15 15"},"coordinates":[3911,5004]},{"type":"Point","properties":{"Station_ID":"CAN-ON-452","Station_Nam":"CHATSWORTH 1.8 ENE - GSCA, CAN","Latitude":"44.46118","Longitude":"-80.87506","Snowdepth":"1.000","Units":"in","Rept_Date":"2020-04-15 11"},"coordinates":[3840,5061]},{"type":"Point","properties":{"Station_ID":"CAN-ON-245","Station_Nam":"PHELPSTON 3.1 ESE, CAN","Latitude":"44.50564","Longitude":"-79.81035","Snowdepth":"1.000","Units":"in","Rept_Date":"2020-04-15 13"},"coordinates":[4090,5091]},{"type":"Point","properties":{"Station_ID":"CAN-ON-109","Station_Nam":"MILDMAY 5.9 SSE, CA","Latitude":"43.98733","Longitude":"-81.10330","Snowdepth":"1.000","Units":"in","Rept_Date":"2020-04-15 12"},"coordinates":[3786,4739]},{"type":"Point","properties":{"Station_ID":"BUF","Station_Nam":"BUFFALO, NY","Latitude":"42.94140","Longitude":"-78.71920","Snowdepth":"1.000","Units":"in","Rept_Date":"2020-04-16 06"},"coordinates":[4346,4028]},{"type":"Point","properties":{"Station_ID":"BTHM5","Station_Nam":"BLUE EARTH 1S","Latitude":"43.62370","Longitude":"-94.09470","Snowdepth":"1.000","Units":"in","Rept_Date":"2020-04-15 13"},"coordinates":[737,4491]},{"type":"Point","properties":{"Station_ID":"BROS2","Station_Nam":"BROOKINGS,SD","Latitude":"44.31670","Longitude":"-96.76670","Snowdepth":"1.000","Units":"in","Rept_Date":"2020-04-15 13"},"coordinates":[110,4962]},{"type":"Point","properties":{"Station_ID":"BRCM5","Station_Nam":"BRICELYN","Latitude":"43.54400","Longitude":"-93.84230","Snowdepth":"1.000","Units":"in","Rept_Date":"2020-04-15 12"},"coordinates":[796,4437]},{"type":"Point","properties":{"Station_ID":"BNDM5","Station_Nam":"ELY 25E","Latitude":"47.97190","Longitude":"-91.44860","Snowdepth":"1.000","Units":"in","Rept_Date":"2020-04-15 12"},"coordinates":[1358,7447]},{"type":"Point","properties":{"Station_ID":"BGRM4","Station_Nam":"WATER WORKS","Latitude":"43.70000","Longitude":"-85.48330","Snowdepth":"1.000","Units":"in","Rept_Date":"2020-04-15 11"},"coordinates":[2758,4543]},{"type":"Point","properties":{"Station_ID":"BFSW3","Station_Nam":"BIG FALLS-5 NW","Latitude":"44.63980","Longitude":"-89.11330","Snowdepth":"1.000","Units":"in","Rept_Date":"2020-04-15 12"},"coordinates":[1906,5182]},{"type":"Point","properties":{"Station_ID":"BCNI4","Station_Nam":"BEACONSFIELD,IA","Latitude":"40.82360","Longitude":"-94.04390","Snowdepth":"1.000","Units":"in","Rept_Date":"2020-04-15 12"},"coordinates":[749,2588]},{"type":"Point","properties":{"Station_ID":"BCKW2","Station_Nam":"BECKLEY V.A. HOSPITAL","Latitude":"37.76470","Longitude":"-81.19400","Snowdepth":"1.000","Units":"in","Rept_Date":"2020-04-15 11"},"coordinates":[3765,509]},{"type":"Point","properties":{"Station_ID":"BATI2","Station_Nam":"BATAVIA","Latitude":"41.84830","Longitude":"-88.31190","Snowdepth":"1.000","Units":"in","Rept_Date":"2020-04-15 11"},"coordinates":[2094,3285]},{"type":"Point","properties":{"Station_ID":"BARI2","Station_Nam":"CRABTREE NATURE CENTER","Latitude":"42.11530","Longitude":"-88.16390","Snowdepth":"1.000","Units":"in","Rept_Date":"2020-04-15 13"},"coordinates":[2129,3466]},{"type":"Point","properties":{"Station_ID":"BALW3","Station_Nam":"BALDWIN","Latitude":"44.96330","Longitude":"-92.39050","Snowdepth":"1.000","Units":"in","Rept_Date":"2020-04-15 12"},"coordinates":[1137,5402]},{"type":"Point","properties":{"Station_ID":"ALRI4","Station_Nam":"ALLERTON,IA","Latitude":"40.70670","Longitude":"-93.36500","Snowdepth":"1.000","Units":"in","Rept_Date":"2020-04-15 12"},"coordinates":[908,2509]},{"type":"Point","properties":{"Station_ID":"ALEI2","Station_Nam":"ALEDO","Latitude":"41.19620","Longitude":"-90.74770","Snowdepth":"1.000","Units":"in","Rept_Date":"2020-04-15 12"},"coordinates":[1522,2841]},