{"type":"Topology","objects":{"snowdepth_geo":{"type":"GeometryCollection","name":"snowdepth","crs":{"type":"name","properties":{"name":"urn:ogc:def:crs:OGC:1.3:CRS84"}},"geometries":[{"type":"Point","properties":{"Station_ID":"MMSV1","Station_Nam":"MOUNT MANSFIELD","Latitude":"44.53330","Longitude":"-72.83330","Snowdepth":"86.000","Units":"in","Rept_Date":"2019-11-10 05"},"coordinates":[5837,4303]},{"type":"Point","properties":{"Station_ID":"PRKM4","Station_Nam":"MUNISING EAST","Latitude":"46.42580","Longitude":"-86.62000","Snowdepth":"76.500","Units":"in","Rept_Date":"2019-11-10 06"},"coordinates":[2498,5802]},{"type":"Point","properties":{"Station_ID":"OGIQ6","Station_Nam":"OGOKI CAMP","Latitude":"50.76680","Longitude":"-87.85820","Snowdepth":"61.100","Units":"in","Rept_Date":"2019-11-10 06"},"coordinates":[2198,9239]},{"type":"Point","properties":{"Station_ID":"AUDQ6","Station_Nam":"AUDEN","Latitude":"48.52600","Longitude":"-82.57570","Snowdepth":"47.640","Units":"in","Rept_Date":"2019-11-10 06"},"coordinates":[3477,7465]},{"type":"Point","properties":{"Station_ID":"DVLQ6","Station_Nam":"DEVIOUS LAKE","Latitude":"49.19890","Longitude":"-87.76440","Snowdepth":"43.460","Units":"in","Rept_Date":"2019-11-10 06"},"coordinates":[2221,7997]},{"type":"Point","properties":{"Station_ID":"GMSM4","Station_Nam":"GRAND MARAIS 10S","Latitude":"46.50940","Longitude":"-85.96310","Snowdepth":"12.000","Units":"in","Rept_Date":"2019-11-09 12"},"coordinates":[2657,5868]},{"type":"Point","properties":{"Station_ID":"MFU","Station_Nam":"MFU","Latitude":"51.52170","Longitude":"-66.91110","Snowdepth":"11.102","Units":"in","Rept_Date":"2019-11-09 12"},"coordinates":[7272,9837]},{"type":"Point","properties":{"Station_ID":"QGD","Station_Nam":"QGD","Latitude":"51.11140","Longitude":"-67.13940","Snowdepth":"10.905","Units":"in","Rept_Date":"2019-11-09 12"},"coordinates":[7217,9512]},{"type":"Point","properties":{"Station_ID":"PRDM4","Station_Nam":"PARADISE","Latitude":"46.60380","Longitude":"-85.03960","Snowdepth":"10.000","Units":"in","Rept_Date":"2019-11-09 11"},"coordinates":[2881,5943]},{"type":"Point","properties":{"Station_ID":"FLAM4","Station_Nam":"FIFE LAKE 2WNW","Latitude":"44.58480","Longitude":"-85.36530","Snowdepth":"10.000","Units":"in","Rept_Date":"2019-11-09 12"},"coordinates":[2802,4344]},{"type":"Point","properties":{"Station_ID":"QOU","Station_Nam":"QOU","Latitude":"50.79250","Longitude":"-69.67470","Snowdepth":"9.724","Units":"in","Rept_Date":"2019-11-09 12"},"coordinates":[6603,9259]},{"type":"Point","properties":{"Station_ID":"QMA","Station_Nam":"QMA","Latitude":"50.10330","Longitude":"-70.47190","Snowdepth":"9.252","Units":"in","Rept_Date":"2019-11-09 12"},"coordinates":[6409,8713]},{"type":"Point","properties":{"Station_ID":"MI-AT-6","Station_Nam":"MANCELONA 0.5 ESE, MI","Latitude":"44.89981","Longitude":"-85.05100","Snowdepth":"9.200","Units":"in","Rept_Date":"2019-11-09 13"},"coordinates":[2878,4593]},{"type":"Point","properties":{"Station_ID":"GNLM4","Station_Nam":"GREENLAND 6N","Latitude":"46.87360","Longitude":"-89.10060","Snowdepth":"9.000","Units":"in","Rept_Date":"2019-11-09 13"},"coordinates":[1897,6156]},{"type":"Point","properties":{"Station_ID":"QMD","Station_Nam":"QMD","Latitude":"49.29060","Longitude":"-75.84500","Snowdepth":"8.661","Units":"in","Rept_Date":"2019-11-09 12"},"coordinates":[5108,8070]},{"type":"Point","properties":{"Station_ID":"MI-KW-2","Station_Nam":"DELAWARE 5.2 SW, MI","Latitude":"47.36928","Longitude":"-88.17919","Snowdepth":"8.000","Units":"in","Rept_Date":"2019-11-09 09"},"coordinates":[2120,6549]},{"type":"Point","properties":{"Station_ID":"QGO","Station_Nam":"QGO","Latitude":"48.85500","Longitude":"-74.20640","Snowdepth":"7.992","Units":"in","Rept_Date":"2019-11-09 12"},"coordinates":[5505,7725]},{"type":"Point","properties":{"Station_ID":"QTM","Station_Nam":"QTM","Latitude":"51.05780","Longitude":"-72.57190","Snowdepth":"7.953","Units":"in","Rept_Date":"2019-11-09 12"},"coordinates":[5901,9469]},{"type":"Point","properties":{"Station_ID":"CAN-NB-89","Station_Nam":"MEMRAMCOOK 4.0 W, CAN","Latitude":"46.01133","Longitude":"-64.60244","Snowdepth":"7.500","Units":"in","Rept_Date":"2019-11-09 22"},"coordinates":[7831,5474]},{"type":"Point","properties":{"Station_ID":"WRRP1","Station_Nam":"ALLEGHENY RIVER AT WARREN","Latitude":"41.84380","Longitude":"-79.15000","Snowdepth":"7.000","Units":"in","Rept_Date":"2019-11-09 12"},"coordinates":[4307,2174]},{"type":"Point","properties":{"Station_ID":"PDLM4","Station_Nam":"PAINESDALE","Latitude":"47.04160","Longitude":"-88.67170","Snowdepth":"7.000","Units":"in","Rept_Date":"2019-11-09 13"},"coordinates":[2001,6289]},{"type":"Point","properties":{"Station_ID":"MRQM4","Station_Nam":"MARQUETTE WFP","Latitude":"46.54580","Longitude":"-87.37950","Snowdepth":"7.000","Units":"in","Rept_Date":"2019-11-09 13"},"coordinates":[2314,5897]},{"type":"Point","properties":{"Station_ID":"MI-GT-21","Station_Nam":"KINGSLEY 2.7 ENE, MI","Latitude":"44.59871","Longitude":"-85.48426","Snowdepth":"7.000","Units":"in","Rept_Date":"2019-11-09 11"},"coordinates":[2773,4355]},{"type":"Point","properties":{"Station_ID":"CAN-NB-98","Station_Nam":"HOYT 4.2 S, CAN","Latitude":"45.54763","Longitude":"-66.55440","Snowdepth":"6.700","Units":"in","Rept_Date":"2019-11-09 11"},"coordinates":[7358,5106]},{"type":"Point","properties":{"Station_ID":"QFT","Station_Nam":"QFT","Latitude":"50.83280","Longitude":"-74.40390","Snowdepth":"6.378","Units":"in","Rept_Date":"2019-11-09 12"},"coordinates":[5457,9291]},{"type":"Point","properties":{"Station_ID":"QCO","Station_Nam":"QCO","Latitude":"51.45280","Longitude":"-72.20110","Snowdepth":"6.339","Units":"in","Rept_Date":"2019-11-09 12"},"coordinates":[5991,9782]},{"type":"Point","properties":{"Station_ID":"QCX","Station_Nam":"QCX","Latitude":"51.32830","Longitude":"-70.08060","Snowdepth":"6.142","Units":"in","Rept_Date":"2019-11-09 12"},"coordinates":[6504,9683]},{"type":"Point","properties":{"Station_ID":"MNSM4","Station_Nam":"MUNISING","Latitude":"46.41210","Longitude":"-86.66250","Snowdepth":"6.000","Units":"in","Rept_Date":"2019-11-09 11"},"coordinates":[2488,5791]},{"type":"Point","properties":{"Station_ID":"CAN-NL-65","Station_Nam":"KIPPENS 0.7 NE, CA","Latitude":"48.55436","Longitude":"-58.61850","Snowdepth":"6.000","Units":"in","Rept_Date":"2019-11-09 11"},"coordinates":[9281,7487]},{"type":"Point","properties":{"Station_ID":"CAN-NB-16","Station_Nam":"DORCHESTER 1.0 SSE, CAN","Latitude":"45.89160","Longitude":"-64.51269","Snowdepth":"6.000","Units":"in","Rept_Date":"2019-11-09 11"},"coordinates":[7853,5379]},{"type":"Point","properties":{"Station_ID":"ANJM4","Station_Nam":"SNOW PAID OBSERVER FOR KANJ","Latitude":"46.48670","Longitude":"-84.40260","Snowdepth":"6.000","Units":"in","Rept_Date":"2019-11-10 06"},"coordinates":[3035,5850]},{"type":"Point","properties":{"Station_ID":"ANJ","Station_Nam":"SAULT STE MARIE","Latitude":"46.46670","Longitude":"-84.36670","Snowdepth":"6.000","Units":"in","Rept_Date":"2019-11-10 00"},"coordinates":[3044,5834]},{"type":"Point","properties":{"Station_ID":"CAN-NB-97","Station_Nam":"NEW MARYLAND 0.6 NW, CAN","Latitude":"45.90112","Longitude":"-66.68739","Snowdepth":"5.900","Units":"in","Rept_Date":"2019-11-09 11"},"coordinates":[7326,5386]},{"type":"Point","properties":{"Station_ID":"SVBQ6","Station_Nam":"SAVANT BASE","Latitude":"50.28730","Longitude":"-90.65670","Snowdepth":"5.630","Units":"in","Rept_Date":"2019-11-10 06"},"coordinates":[1520,8859]},{"type":"Point","properties":{"Station_ID":"VT-WS-19","Station_Nam":"WATERBURY 3.0 NW, VT","Latitude":"44.36060","Longitude":"-72.80770","Snowdepth":"5.500","Units":"in","Rept_Date":"2019-11-09 11"},"coordinates":[5844,4167]},{"type":"Point","properties":{"Station_ID":"CAN-NB-2","Station_Nam":"GRAFTON 2.7 NNE, CA","Latitude":"46.17062","Longitude":"-67.55330","Snowdepth":"5.500","Units":"in","Rept_Date":"2019-11-09 10"},"coordinates":[7116,5600]},{"type":"Point","properties":{"Station_ID":"QCU","Station_Nam":"QCU","Latitude":"47.82750","Longitude":"-76.59830","Snowdepth":"5.315","Units":"in","Rept_Date":"2019-11-09 12"},"coordinates":[4925,6912]},{"type":"Point","properties":{"Station_ID":"SOCQ6","Station_Nam":"SOCKET LAKE","Latitude":"50.77870","Longitude":"-91.79300","Snowdepth":"5.310","Units":"in","Rept_Date":"2019-11-10 06"},"coordinates":[1245,9248]},{"type":"Point","properties":{"Station_ID":"WLNM4","Station_Nam":"WELLSTON 1N","Latitude":"44.22940","Longitude":"-85.95690","Snowdepth":"5.000","Units":"in","Rept_Date":"2019-11-09 12"},"coordinates":[2658,4063]},{"type":"Point","properties":{"Station_ID":"VT-OL-5","Station_Nam":"DERBY CENTER 1.8 NW, VT","Latitude":"44.97200","Longitude":"-72.14780","Snowdepth":"5.000","Units":"in","Rept_Date":"2019-11-09 12"},"coordinates":[6003,4651]},{"type":"Point","properties":{"Station_ID":"SSMM4","Station_Nam":"SAULT STE MARIE","Latitude":"46.48660","Longitude":"-84.40250","Snowdepth":"5.000","Units":"in","Rept_Date":"2019-11-09 13"},"coordinates":[3035,5850]},{"type":"Point","properties":{"Station_ID":"QNCM4","Station_Nam":"QUINCY HILL","Latitude":"47.13640","Longitude":"-88.57950","Snowdepth":"5.000","Units":"in","Rept_Date":"2019-11-09 12"},"coordinates":[2023,6364]},{"type":"Point","properties":{"Station_ID":"MXON6","Station_Nam":"MEXICO","Latitude":"43.43830","Longitude":"-76.26560","Snowdepth":"5.000","Units":"in","Rept_Date":"2019-11-09 12"},"coordinates":[5006,3436]},{"type":"Point","properties":{"Station_ID":"MI-CP-14","Station_Nam":"SAULT STE. MARIE 2.2 E, MI","Latitude":"46.48933","Longitude":"-84.31971","Snowdepth":"5.000","Units":"in","Rept_Date":"2019-11-09 13"},"coordinates":[3055,5852]},{"type":"Point","properties":{"Station_ID":"GGRM4","Station_Nam":"GREEN GARDEN NO.2","Latitude":"46.45330","Longitude":"-87.30380","Snowdepth":"5.000","Units":"in","Rept_Date":"2019-11-09 13"},"coordinates":[2332,5824]},{"type":"Point","properties":{"Station_ID":"CAN-ON-178","Station_Nam":"GODERICH 10.2 S - MVCA, CAN","Latitude":"43.64655","Longitude":"-81.70734","Snowdepth":"5.000","Units":"in","Rept_Date":"2019-11-09 13"},"coordinates":[3688,3601]},{"type":"Point","properties":{"Station_ID":"CAN-NB-18","Station_Nam":"MCLEOD HILL 1.1 ENE, CA","Latitude":"46.02725","Longitude":"-66.67460","Snowdepth":"5.000","Units":"in","Rept_Date":"2019-11-09 12"},"coordinates":[7329,5486]},{"type":"Point","properties":{"Station_ID":"CAN-NB-96","Station_Nam":"SAINT-IGNACE 2.6 NE, CAN","Latitude":"46.71424","Longitude":"-65.05609","Snowdepth":"4.900","Units":"in","Rept_Date":"2019-11-09 11"},"coordinates":[7721,6030]},{"type":"Point","properties":{"Station_ID":"CAN-NB-64","Station_Nam":"KESWICK RIDGE 4.0 SE, CAN","Latitude":"45.97014","Longitude":"-66.85538","Snowdepth":"4.800","Units":"in","Rept_Date":"2019-11-09 12"},"coordinates":[7285,5441]},{"type":"Point","properties":{"Station_ID":"CAN-NB-57","Station_Nam":"JOLICURE 2.8 NE, CAN","Latitude":"45.96081","Longitude":"-64.18848","Snowdepth":"4.700","Units":"in","Rept_Date":"2019-11-09 13"},"coordinates":[7932,5434]},{"type":"Point","properties":{"Station_ID":"CAN-NB-28","Station_Nam":"SUSSEX CORNER 1.4 NE - KWRC, CAN","Latitude":"45.71691","Longitude":"-65.46217","Snowdepth":"4.700","Units":"in","Rept_Date":"2019-11-09 10"},"coordinates":[7623,5240]},{"type":"Point","properties":{"Station_ID":"MLZ","Station_Nam":"MLZ","Latitude":"50.66170","Longitude":"-68.82360","Snowdepth":"4.528","Units":"in","Rept_Date":"2019-11-09 12"},"coordinates":[6809,9156]},{"type":"Point","properties":{"Station_ID":"MI-OT-17","Station_Nam":"GAYLORD 4.1 S, MI","Latitude":"44.96388","Longitude":"-84.68467","Snowdepth":"4.500","Units":"in","Rept_Date":"2019-11-09 12"},"coordinates":[2967,4644]},{"type":"Point","properties":{"Station_ID":"MI-GT-25","Station_Nam":"TRAVERSE CITY 4.7 ESE, MI","Latitude":"44.73370","Longitude":"-85.51189","Snowdepth":"4.500","Units":"in","Rept_Date":"2019-11-09 12"},"coordinates":[2766,4462]},{"type":"Point","properties":{"Station_ID":"CAN-NS-86","Station_Nam":"NAPPAN 1.7 E, CA","Latitude":"45.76986","Longitude":"-64.21800","Snowdepth":"4.400","Units":"in","Rept_Date":"2019-11-09 13"},"coordinates":[7924,5282]},{"type":"Point","properties":{"Station_ID":"VT-WS-33","Station_Nam":"WAITSFIELD 3.5 WNW, VT","Latitude":"44.20052","Longitude":"-72.89421","Snowdepth":"4.300","Units":"in","Rept_Date":"2019-11-09 13"},"coordinates":[5823,4040]},{"type":"Point","properties":{"Station_ID":"MRL","Station_Nam":"MRL","Latitude":"51.28330","Longitude":"-68.84060","Snowdepth":"4.252","Units":"in","Rept_Date":"2019-11-09 12"},"coordinates":[6805,9648]},{"type":"Point","properties":{"Station_ID":"PTLQ6","Station_Nam":"PORTAGE LAKE","Latitude":"49.06950","Longitude":"-86.65940","Snowdepth":"4.210","Units":"in","Rept_Date":"2019-11-10 06"},"coordinates":[2488,7895]},{"type":"Point","properties":{"Station_ID":"FTHQ6","Station_Nam":"FORT HOPE","Latitude":"51.55820","Longitude":"-87.90510","Snowdepth":"4.210","Units":"in","Rept_Date":"2019-11-10 06"},"coordinates":[2187,9865]},{"type":"Point","properties":{"Station_ID":"VT-WR-17","Station_Nam":"ROCHESTER 2.3 NE, VT","Latitude":"43.89418","Longitude":"-72.76992","Snowdepth":"4.100","Units":"in","Rept_Date":"2019-11-09 12"},"coordinates":[5853,3797]},{"type":"Point","properties":{"Station_ID":"CATQ6","Station_Nam":"CAT LAKE","Latitude":"51.72690","Longitude":"-91.82210","Snowdepth":"4.020","Units":"in","Rept_Date":"2019-11-10 06"},"coordinates":[1238,9999]},{"type":"Point","properties":{"Station_ID":"WI-WS-1","Station_Nam":"HARTFORD 3.8 E, WI","Latitude":"43.32410","Longitude":"-88.31340","Snowdepth":"4.000","Units":"in","Rept_Date":"2019-11-09 13"},"coordinates":[2088,3346]},{"type":"Point","properties":{"Station_ID":"WAIV1","Station_Nam":"WAITSFIELD","Latitude":"44.17560","Longitude":"-72.79610","Snowdepth":"4.000","Units":"in","Rept_Date":"2019-11-09 12"},"coordinates":[5846,4020]},{"type":"Point","properties":{"Station_ID":"VT-WS-11","Station_Nam":"WAITSFIELD 1.8 SE, VT","Latitude":"44.17551","Longitude":"-72.79540","Snowdepth":"4.000","Units":"in","Rept_Date":"2019-11-09 12"},"coordinates":[5847,4020]},{"type":"Point","properties":{"Station_ID":"VT-OL-12","Station_Nam":"GREENSBORO 3.9 NNE, VT","Latitude":"44.63100","Longitude":"-72.28000","Snowdepth":"4.000","Units":"in","Rept_Date":"2019-11-09 12"},"coordinates":[5971,4381]},{"type":"Point","properties":{"Station_ID":"VQAW3","Station_Nam":"VIROQUA","Latitude":"43.55970","Longitude":"-90.87560","Snowdepth":"4.000","Units":"in","Rept_Date":"2019-11-09 13"},"coordinates":[1467,3532]},{"type":"Point","properties":{"Station_ID":"TCMM4","Station_Nam":"TRAVERSE CITY MUNSON","Latitude":"44.76070","Longitude":"-85.64430","Snowdepth":"4.000","Units":"in","Rept_Date":"2019-11-09 11"},"coordinates":[2734,4483]},{"type":"Point","properties":{"Station_ID":"TCEM4","Station_Nam":"TRAVERSE CITY 5ESE","Latitude":"44.73370","Longitude":"-85.51180","Snowdepth":"4.000","Units":"in","Rept_Date":"2019-11-09 12"},"coordinates":[2766,4462]},{"type":"Point","properties":{"Station_ID":"STIM4","Station_Nam":"ST IGNACE","Latitude":"45.86080","Longitude":"-84.71960","Snowdepth":"4.000","Units":"in","Rept_Date":"2019-11-09 12"},"coordinates":[2958,5354]},{"type":"Point","properties":{"Station_ID":"SPGM5","Station_Nam":"SPRING VALLEY","Latitude":"43.69330","Longitude":"-92.39260","Snowdepth":"4.000","Units":"in","Rept_Date":"2019-11-09 13"},"coordinates":[1100,3638]},{"type":"Point","properties":{"Station_ID":"NVLV1","Station_Nam":"NASHVILLE","Latitude":"44.44970","Longitude":"-72.92640","Snowdepth":"4.000","Units":"in","Rept_Date":"2019-11-09 12"},"coordinates":[5815,4237]},{"type":"Point","properties":{"Station_ID":"MMNV1","Station_Nam":"MT. MANSFIELD","Latitude":"44.52480","Longitude":"-72.81540","Snowdepth":"4.000","Units":"in","Rept_Date":"2019-11-09 21"},"coordinates":[5842,4297]},{"type":"Point","properties":{"Station_ID":"MI-OT-4","Station_Nam":"GAYLORD 1.7 WNW, MI","Latitude":"45.03280","Longitude":"-84.71090","Snowdepth":"4.000","Units":"in","Rept_Date":"2019-11-09 13"},"coordinates":[2960,4699]},{"type":"Point","properties":{"Station_ID":"MI-OT-16","Station_Nam":"GAYLORD 2.2 SSE, MI","Latitude":"44.99441","Longitude":"-84.65820","Snowdepth":"4.000","Units":"in","Rept_Date":"2019-11-09 11"},"coordinates":[2973,4668]},{"type":"Point","properties":{"Station_ID":"MI-OC-3","Station_Nam":"HART 3 WSW, MI","Latitude":"43.67470","Longitude":"-86.42250","Snowdepth":"4.000","Units":"in","Rept_Date":"2019-11-09 12"},"coordinates":[2546,3623]},{"type":"Point","properties":{"Station_ID":"MI-MC-4","Station_Nam":"ST. IGNACE 0.5SE, MI","Latitude":"45.86057","Longitude":"-84.71980","Snowdepth":"4.000","Units":"in","Rept_Date":"2019-11-09 12"},"coordinates":[2958,5354]},{"type":"Point","properties":{"Station_ID":"MI-CX-7","Station_Nam":"EAST JORDAN 2.1 NNW, MI","Latitude":"45.18639","Longitude":"-85.14750","Snowdepth":"4.000","Units":"in","Rept_Date":"2019-11-09 13"},"coordinates":[2855,4820]},{"type":"Point","properties":{"Station_ID":"MI-BZ-1","Station_Nam":"BENZONIA 5.3 S, MI","Latitude":"44.53976","Longitude":"-86.10650","Snowdepth":"4.000","Units":"in","Rept_Date":"2019-11-09 13"},"coordinates":[2622,4308]},{"type":"Point","properties":{"Station_ID":"MALN6","Station_Nam":"MALONE","Latitude":"44.84180","Longitude":"-74.30600","Snowdepth":"4.000","Units":"in","Rept_Date":"2019-11-09 12"},"coordinates":[5481,4548]},{"type":"Point","properties":{"Station_ID":"LAFW3","Station_Nam":"LA FARGE","Latitude":"43.57340","Longitude":"-90.63200","Snowdepth":"4.000","Units":"in","Rept_Date":"2019-11-09 13"},"coordinates":[1526,3543]},{"type":"Point","properties":{"Station_ID":"KTVC","Station_Nam":"CHERRY CAPITAL AIRPORT","Latitude":"44.73333","Longitude":"-85.56666","Snowdepth":"4.000","Units":"in","Rept_Date":"2019-11-09 18"},"coordinates":[2753,4462]},{"type":"Point","properties":{"Station_ID":"JEFV1","Station_Nam":"JEFFERSONVILLE","Latitude":"44.58430","Longitude":"-72.78700","Snowdepth":"4.000","Units":"in","Rept_Date":"2019-11-09 12"},"coordinates":[5849,4344]},{"type":"Point","properties":{"Station_ID":"HTLN3","Station_Nam":"HERMIT LAKE SNOWPLOT","Latitude":"44.26130","Longitude":"-71.28330","Snowdepth":"4.000","Units":"in","Rept_Date":"2019-11-09 21"},"coordinates":[6213,4088]},{"type":"Point","properties":{"Station_ID":"HRTM4","Station_Nam":"HART,MI","Latitude":"43.70000","Longitude":"-86.36670","Snowdepth":"4.000","Units":"in","Rept_Date":"2019-11-09 12"},"coordinates":[2559,3644]},{"type":"Point","properties":{"Station_ID":"HERM4","Station_Nam":"HERMAN,MI","Latitude":"46.65000","Longitude":"-88.33330","Snowdepth":"4.000","Units":"in","Rept_Date":"2019-11-09 13"},"coordinates":[2083,5979]},{"type":"Point","properties":{"Station_ID":"GDCM4","Station_Nam":"GARDEN CORNERS","Latitude":"45.89830","Longitude":"-86.54850","Snowdepth":"4.000","Units":"in","Rept_Date":"2019-11-09 13"},"coordinates":[2515,5384]},{"type":"Point","properties":{"Station_ID":"GAYM4","Station_Nam":"GAYLORD","Latitude":"45.03320","Longitude":"-84.71130","Snowdepth":"4.000","Units":"in","Rept_Date":"2019-11-09 13"},"coordinates":[2960,4699]},{"type":"Point","properties":{"Station_ID":"ENFV1","Station_Nam":"ENOSBURG FALLS 2","Latitude":"44.90960","Longitude":"-72.81370","Snowdepth":"4.000","Units":"in","Rept_Date":"2019-11-09 14"},"coordinates":[5842,4601]},{"type":"Point","properties":{"Station_ID":"EJNM4","Station_Nam":"EAST JORDAN 2NW","Latitude":"45.18630","Longitude":"-85.14770","Snowdepth":"4.000","Units":"in","Rept_Date":"2019-11-09 13"},"coordinates":[2854,4820]},{"type":"Point","properties":{"Station_ID":"CLDM5","Station_Nam":"CALEDONIA","Latitude":"43.63090","Longitude":"-91.50270","Snowdepth":"4.000","Units":"in","Rept_Date":"2019-11-09 13"},"coordinates":[1315,3589]},{"type":"Point","properties":{"Station_ID":"BBEM4","Station_Nam":"BIG BAY 9SW","Latitude":"46.74620","Longitude":"-87.88160","Snowdepth":"4.000","Units":"in","Rept_Date":"2019-11-09 13"},"coordinates":[2192,6055]},{"type":"Point","properties":{"Station_ID":"APXM4","Station_Nam":"GAYLORD 9SSW","Latitude":"44.90720","Longitude":"-84.71880","Snowdepth":"4.000","Units":"in","Rept_Date":"2019-11-10 06"},"coordinates":[2958,4599]},{"type":"Point","properties":{"Station_ID":"CAN-NB-1","Station_Nam":"FREDERICTON 4.0 SSE, CA","Latitude":"45.92897","Longitude":"-66.62830","Snowdepth":"3.900","Units":"in","Rept_Date":"2019-11-09 11"},"coordinates":[7340,5408]},{"type":"Point","properties":{"Station_ID":"MI-BG-3","Station_Nam":"L'ANSE 17.8 SE, MI","Latitude":"46.55730","Longitude":"-88.20770","Snowdepth":"3.800","Units":"in","Rept_Date":"2019-11-09 13"},"coordinates":[2113,5906]},{"type":"Point","properties":{"Station_ID":"WI-SK-16","Station_Nam":"LA VALLE 3.5 W, WI","Latitude":"43.58731","Longitude":"-90.20020","Snowdepth":"3.500","Units":"in","Rept_Date":"2019-11-09 13"},"coordinates":[1631,3554]},{"type":"Point","properties":{"Station_ID":"WI-OZ-12","Station_Nam":"PORT WASHINGTON 0.5 S, WI","Latitude":"43.38610","Longitude":"-87.87900","Snowdepth":"3.500","Units":"in","Rept_Date":"2019-11-09 13"},"coordinates":[2193,3395]},{"type":"Point","properties":{"Station_ID":"VT-WS-30","Station_Nam":"WOODBURY 3.4 NNW, VT","Latitude":"44.48825","Longitude":"-72.43258","Snowdepth":"3.500","Units":"in","Rept_Date":"2019-11-09 12"},"coordinates":[5935,4268]},{"type":"Point","properties":{"Station_ID":"OH-PT-13","Station_Nam":"MANTUA 1.0 NNW, OH","Latitude":"41.29421","Longitude":"-81.23160","Snowdepth":"3.500","Units":"in","Rept_Date":"2019-11-09 12"},"coordinates":[3803,1739]},{"type":"Point","properties":{"Station_ID":"NY-TG-15","Station_Nam":"BERKSHIRE 1.9 ENE, NY","Latitude":"42.31910","Longitude":"-76.21940","Snowdepth":"3.500","Units":"in","Rept_Date":"2019-11-09 13"},"coordinates":[5017,2550]},{"type":"Point","properties":{"Station_ID":"NH-CS-4","Station_Nam":"PITTSBURG 6.1 NE, NH","Latitude":"45.11060","Longitude":"-71.29760","Snowdepth":"3.500","Units":"in","Rept_Date":"2019-11-09 12"},"coordinates":[6209,4760]},{"type":"Point","properties":{"Station_ID":"MI-DL-1","Station_Nam":"GARDEN CORNERS 0.8 NW, MI","Latitude":"45.89815","Longitude":"-86.54850","Snowdepth":"3.500","Units":"in","Rept_Date":"2019-11-09 13"},"coordinates":[2515,5384]},{"type":"Point","properties":{"Station_ID":"CAN-ON-342","Station_Nam":"LURGAN BEACH 1.4 NNE - LHCC, CAN","Latitude":"44.09777","Longitude":"-81.72765","Snowdepth":"3.500","Units":"in","Rept_Date":"2019-11-09 12"},"coordinates":[3683,3958]},{"type":"Point","properties":{"Station_ID":"CAN-NS-68","Station_Nam":"RAWDON GOLD MINES 3.4 N, CA","Latitude":"45.08535","Longitude":"-63.76840","Snowdepth":"3.500","Units":"in","Rept_Date":"2019-11-09 11"},"coordinates":[8033,4740]},{"type":"Point","properties":{"Station_ID":"41.2942_081.2316","Station_Nam":"1 NNW Mantua  CoCoRaHS (OH-PT-13)","Latitude":"41.29420","Longitude":"-81.23160","Snowdepth":"3.500","Units":"in","Rept_Date":"2019-11-09 11"},"coordinates":[3803,1739]},{"type":"Point","properties":{"Station_ID":"QYR","Station_Nam":"QYR","Latitude":"48.87220","Longitude":"-75.61470","Snowdepth":"3.425","Units":"in","Rept_Date":"2019-11-09 12"},"coordinates":[5164,7739]},{"type":"Point","properties":{"Station_ID":"QLB","Station_Nam":"QLB","Latitude":"50.72360","Longitude":"-75.10000","Snowdepth":"3.307","Units":"in","Rept_Date":"2019-11-09 12"},"coordinates":[5288,9205]},{"type":"Point","properties":{"Station_ID":"VT-ES-1","Station_Nam":"GRANBY 1.4 NW, VT","Latitude":"44.58330","Longitude":"-71.77870","Snowdepth":"3.300","Units":"in","Rept_Date":"2019-11-09 12"},"coordinates":[6093,4343]},{"type":"Point","properties":{"Station_ID":"CAN-NS-159","Station_Nam":"NORTHPORT 0.1 NE, CAN","Latitude":"45.93299","Longitude":"-63.86711","Snowdepth":"3.300","Units":"in","Rept_Date":"2019-11-09 11"},"coordinates":[8009,5412]},{"type":"Point","properties":{"Station_ID":"TRIQ6","Station_Nam":"TRIO LAKE","Latitude":"49.22880","Longitude":"-87.22920","Snowdepth":"3.230","Units":"in","Rept_Date":"2019-11-10 06"},"coordinates":[2350,8021]},{"type":"Point","properties":{"Station_ID":"CAN-NS-13","Station_Nam":"TRURO 5.0 ENE, CA","Latitude":"45.38252","Longitude":"-63.22810","Snowdepth":"3.100","Units":"in","Rept_Date":"2019-11-09 11"},"coordinates":[8164,4976]},{"type":"Point","properties":{"Station_ID":"WTNM4","Station_Nam":"WATTON 2WSW","Latitude":"46.52660","Longitude":"-88.64240","Snowdepth":"3.000","Units":"in","Rept_Date":"2019-11-09 13"},"coordinates":[2008,5882]},{"type":"Point","properties":{"Station_ID":"WTBW3","Station_Nam":"WEST BEND PUBLIC WORKS","Latitude":"43.41110","Longitude":"-88.19380","Snowdepth":"3.000","Units":"in","Rept_Date":"2019-11-09 15"},"coordinates":[2117,3415]},{"type":"Point","properties":{"Station_ID":"WSTW3","Station_Nam":"WEST BEND -FIRE","Latitude":"43.43138","Longitude":"-88.16111","Snowdepth":"3.000","Units":"in","Rept_Date":"2019-11-09 13"},"coordinates":[2125,3431]},{"type":"Point","properties":{"Station_ID":"WSFW3","Station_Nam":"TOWN OF WESTFORD","Latitude":"43.47190","Longitude":"-88.88250","Snowdepth":"3.000","Units":"in","Rept_Date":"2019-11-09 13"},"coordinates":[1950,3463]},{"type":"Point","properties":{"Station_ID":"WORV1","Station_Nam":"WORCESTER 2 W","Latitude":"44.37470","Longitude":"-72.58220","Snowdepth":"3.000","Units":"in","Rept_Date":"2019-11-09 12"},"coordinates":[5898,4178]},{"type":"Point","properties":{"Station_ID":"WIDM5","Station_Nam":"WINONA DAM 5A","Latitude":"44.08750","Longitude":"-91.67030","Snowdepth":"3.000","Units":"in","Rept_Date":"2019-11-09 14"},"coordinates":[1274,3950]},{"type":"Point","properties":{"Station_ID":"WI-WS-5","Station_Nam":"JACKSON 0.2 WSW, WI","Latitude":"43.32007","Longitude":"-88.16820","Snowdepth":"3.000","Units":"in","Rept_Date":"2019-11-09 12"},"coordinates":[2123,3343]},{"type":"Point","properties":{"Station_ID":"WI-WS-28","Station_Nam":"JACKSON 0.9 SSE, WI","Latitude":"43.30781","Longitude":"-88.15942","Snowdepth":"3.000","Units":"in","Rept_Date":"2019-11-09 12"},"coordinates":[2125,3333]},{"type":"Point","properties":{"Station_ID":"WI-WS-22","Station_Nam":"JACKSON 3.2 SE, WI","Latitude":"43.29373","Longitude":"-88.11280","Snowdepth":"3.000","Units":"in","Rept_Date":"2019-11-09 11"},"coordinates":[2136,3322]},{"type":"Point","properties":{"Station_ID":"WI-WK-61","Station_Nam":"HARTLAND 5.0 NNE, WI","Latitude":"43.16351","Longitude":"-88.30400","Snowdepth":"3.000","Units":"in","Rept_Date":"2019-11-09 13"},"coordinates":[2090,3219]},{"type":"Point","properties":{"Station_ID":"WDOM5","Station_Nam":"WINDOM","Latitude":"43.87700","Longitude":"-95.11590","Snowdepth":"3.000","Units":"in","Rept_Date":"2019-11-09 14"},"coordinates":[440,3784]},{"type":"Point","properties":{"Station_ID":"WBRM4","Station_Nam":"WEST BRANCH 3SE","Latitude":"44.25410","Longitude":"-84.20110","Snowdepth":"3.000","Units":"in","Rept_Date":"2019-11-09 13"},"coordinates":[3084,4082]},{"type":"Point","properties":{"Station_ID":"WALN6","Station_Nam":"WALTON 2","Latitude":"42.18470","Longitude":"-75.14550","Snowdepth":"3.000","Units":"in","Rept_Date":"2019-11-09 10"},"coordinates":[5277,2444]},{"type":"Point","properties":{"Station_ID":"VT-LM-7","Station_Nam":"HYDE PARK 2.9 NE, VT","Latitude":"44.62080","Longitude":"-72.57250","Snowdepth":"3.000","Units":"in","Rept_Date":"2019-11-09 13"},"coordinates":[5901,4373]},{"type":"Point","properties":{"Station_ID":"VT-CH-4","Station_Nam":"UNDERHILL 4.4 NNE, VT","Latitude":"44.58774","Longitude":"-72.92250","Snowdepth":"3.000","Units":"in","Rept_Date":"2019-11-09 12"},"coordinates":[5816,4346]},{"type":"Point","properties":{"Station_ID":"VT-CH-11","Station_Nam":"UNDERHILL 5.1 NNE, VT","Latitude":"44.59811","Longitude":"-72.91880","Snowdepth":"3.000","Units":"in","Rept_Date":"2019-11-09 12"},"coordinates":[5817,4355]},{"type":"Point","properties":{"Station_ID":"TSVP1","Station_Nam":"TITUSVILLE,PA","Latitude":"41.63330","Longitude":"-79.70000","Snowdepth":"3.000","Units":"in","Rept_Date":"2019-11-09 12"},"coordinates":[4174,2007]},{"type":"Point","properties":{"Station_ID":"TAHW3","Station_Nam":"TAYCHEEDAH","Latitude":"43.83390","Longitude":"-88.34690","Snowdepth":"3.000","Units":"in","Rept_Date":"2019-11-09 13"},"coordinates":[2080,3750]},{"type":"Point","properties":{"Station_ID":"SCOM4","Station_Nam":"SCOTTVILLE 2 SE","Latitude":"43.93310","Longitude":"-86.24530","Snowdepth":"3.000","Units":"in","Rept_Date":"2019-11-09 12"},"coordinates":[2589,3828]},{"type":"Point","properties":{"Station_ID":"SAVW3","Station_Nam":"SAUKVILLE WWTP","Latitude":"43.37470","Longitude":"-87.93940","Snowdepth":"3.000","Units":"in","Rept_Date":"2019-11-09 12"},"coordinates":[2178,3386]},{"type":"Point","properties":{"Station_ID":"RFDM4","Station_Nam":"ROCKFORD","Latitude":"43.11580","Longitude":"-85.56410","Snowdepth":"3.000","Units":"in","Rept_Date":"2019-11-09 12"},"coordinates":[2754,3181]},{"type":"Point","properties":{"Station_ID":"RBGW3","Station_Nam":"REEDSBURG","Latitude":"43.52060","Longitude":"-89.99970","Snowdepth":"3.000","Units":"in","Rept_Date":"2019-11-09 14"},"coordinates":[1679,3501]},{"type":"Point","properties":{"Station_ID":"NY-TM-42","Station_Nam":"ITHACA 6.4 E, NY","Latitude":"42.43350","Longitude":"-76.37860","Snowdepth":"3.000","Units":"in","Rept_Date":"2019-11-09 12"},"coordinates":[4979,2641]},{"type":"Point","properties":{"Station_ID":"NY-MD-10","Station_Nam":"CAZENOVIA 2.9 SE, NY","Latitude":"42.90003","Longitude":"-75.81140","Snowdepth":"3.000","Units":"in","Rept_Date":"2019-11-09 12"},"coordinates":[5116,3010]},{"type":"Point","properties":{"Station_ID":"NY-CY-27","Station_Nam":"MORAVIA 5.9 ENE, NY","Latitude":"42.73491","Longitude":"-76.31137","Snowdepth":"3.000","Units":"in","Rept_Date":"2019-11-09 11"},"coordinates":[4995,2879]},{"type":"Point","properties":{"Station_ID":"NUNV1","Station_Nam":"NORTH UNDERHILL","Latitude":"44.58760","Longitude":"-72.92150","Snowdepth":"3.000","Units":"in","Rept_Date":"2019-11-09 12"},"coordinates":[5816,4346]},{"type":"Point","properties":{"Station_ID":"NPTM4","Station_Nam":"NORTHPORT 2W","Latitude":"45.13220","Longitude":"-85.64720","Snowdepth":"3.000","Units":"in","Rept_Date":"2019-11-09 13"},"coordinates":[2733,4777]},{"type":"Point","properties":{"Station_ID":"MN-SE-2","Station_Nam":"OWATONNA 0.8 E, MN","Latitude":"44.09170","Longitude":"-93.21380","Snowdepth":"3.000","Units":"in","Rept_Date":"2019-11-09 13"},"coordinates":[901,3954]},{"type":"Point","properties":{"Station_ID":"MN-OL-18","Station_Nam":"ROCHESTER 2.6 NE, MN","Latitude":"44.03975","Longitude":"-92.43750","Snowdepth":"3.000","Units":"in","Rept_Date":"2019-11-09 12"},"coordinates":[1089,3913]},{"type":"Point","properties":{"Station_ID":"MN-MW-8","Station_Nam":"AUSTIN 2.4 W, MN","Latitude":"43.67190","Longitude":"-93.02280","Snowdepth":"3.000","Units":"in","Rept_Date":"2019-11-09 13"},"coordinates":[947,3621]},{"type":"Point","properties":{"Station_ID":"MN-MT-6","Station_Nam":"FAIRMONT 0.7 E, MN","Latitude":"43.64501","Longitude":"-94.44860","Snowdepth":"3.000","Units":"in","Rept_Date":"2019-11-09 13"},"coordinates":[601,3600]},{"type":"Point","properties":{"Station_ID":"MN-FM-10","Station_Nam":"WYKOFF 3.1 NW, MN","Latitude":"43.74340","Longitude":"-92.30650","Snowdepth":"3.000","Units":"in","Rept_Date":"2019-11-09 13"},"coordinates":[1120,3678]},{"type":"Point","properties":{"Station_ID":"MI-OG-6","Station_Nam":"WEST BRANCH 2.1 SSW, MI","Latitude":"44.24814","Longitude":"-84.25089","Snowdepth":"3.000","Units":"in","Rept_Date":"2019-11-09 13"},"coordinates":[3072,4078]},{"type":"Point","properties":{"Station_ID":"MI-NW-8","Station_Nam":"WHITE CLOUD 7.5 ENE, MI","Latitude":"43.60630","Longitude":"-85.64190","Snowdepth":"3.000","Units":"in","Rept_Date":"2019-11-09 12"},"coordinates":[2735,3569]},{"type":"Point","properties":{"Station_ID":"MI-ME-10","Station_Nam":"MECOSTA 4.6 SSW, MI","Latitude":"43.56269","Longitude":"-85.28063","Snowdepth":"3.000","Units":"in","Rept_Date":"2019-11-09 13"},"coordinates":[2822,3535]},{"type":"Point","properties":{"Station_ID":"MI-CF-9","Station_Nam":"GRAYLING 15.8 NE, MI","Latitude":"44.80464","Longitude":"-84.46313","Snowdepth":"3.000","Units":"in","Rept_Date":"2019-11-09 11"},"coordinates":[3020,4518]},{"type":"Point","properties":{"Station_ID":"LSNW3","Station_Nam":"LA CROSSE SNOW","Latitude":"43.86220","Longitude":"-91.26660","Snowdepth":"3.000","Units":"in","Rept_Date":"2019-11-09 18"},"coordinates":[1372,3772]},{"type":"Point","properties":{"Station_ID":"LSE","Station_Nam":"LA CROSSE MUNICIPAL AIRPORT","Latitude":"43.87920","Longitude":"-91.25610","Snowdepth":"3.000","Units":"in","Rept_Date":"2019-11-10 00"},"coordinates":[1375,3785]},{"type":"Point","properties":{"Station_ID":"LODW3","Station_Nam":"LODI","Latitude":"43.32170","Longitude":"-89.53110","Snowdepth":"3.000","Units":"in","Rept_Date":"2019-11-09 13"},"coordinates":[1793,3344]},{"type":"Point","properties":{"Station_ID":"LBKV1","Station_Nam":"LYE BROOK","Latitude":"43.05000","Longitude":"-73.03330","Snowdepth":"3.000","Units":"in","Rept_Date":"2019-11-10 06"},"coordinates":[5789,3129]},{"type":"Point","properties":{"Station_ID":"KSEM4","Station_Nam":"KALKASKA 11SE","Latitude":"44.58970","Longitude":"-85.04860","Snowdepth":"3.000","Units":"in","Rept_Date":"2019-11-09 13"},"coordinates":[2878,4348]},{"type":"Point","properties":{"Station_ID":"KMWN","Station_Nam":"MOUNT WASHINGTON","Latitude":"44.26666","Longitude":"-71.30000","Snowdepth":"3.000","Units":"in","Rept_Date":"2019-11-10 06"},"coordinates":[6209,4092]},{"type":"Point","properties":{"Station_ID":"JEFN3","Station_Nam":"JEFFERSON","Latitude":"44.41690","Longitude":"-71.50080","Snowdepth":"3.000","Units":"in","Rept_Date":"2019-11-09 12"},"coordinates":[6160,4211]},{"type":"Point","properties":{"Station_ID":"JACW3","Station_Nam":"JACKSON","Latitude":"43.31940","Longitude":"-88.16810","Snowdepth":"3.000","Units":"in","Rept_Date":"2019-11-09 12"},"coordinates":[2123,3342]},{"type":"Point","properties":{"Station_ID":"IBLM5","Station_Nam":"ISABELLA 14W","Latitude":"47.59360","Longitude":"-91.65140","Snowdepth":"3.000","Units":"in","Rept_Date":"2019-11-09 15"},"coordinates":[1279,6726]},{"type":"Point","properties":{"Station_ID":"HARW3","Station_Nam":"HARTFORD,WI","Latitude":"43.31670","Longitude":"-88.40000","Snowdepth":"3.000","Units":"in","Rept_Date":"2019-11-09 13"},"coordinates":[2067,3340]},{"type":"Point","properties":{"Station_ID":"GENW3","Station_Nam":"GENOA DAM 8","Latitude":"43.57050","Longitude":"-91.22950","Snowdepth":"3.000","Units":"in","Rept_Date":"2019-11-09 14"},"coordinates":[1381,3541]},{"type":"Point","properties":{"Station_ID":"FRSW3","Station_Nam":"FRIENDSHIP","Latitude":"43.97500","Longitude":"-89.83080","Snowdepth":"3.000","Units":"in","Rept_Date":"2019-11-09 13"},"coordinates":[1720,3861]},{"type":"Point","properties":{"Station_ID":"FREM4","Station_Nam":"FREMONT,MI","Latitude":"43.45000","Longitude":"-86.03330","Snowdepth":"3.000","Units":"in","Rept_Date":"2019-11-09 12"},"coordinates":[2640,3446]},{"type":"Point","properties":{"Station_ID":"CVWP1","Station_Nam":"CHANDLER VALLEY 1SE","Latitude":"41.93010","Longitude":"-79.29700","Snowdepth":"3.000","Units":"in","Rept_Date":"2019-11-09 12"},"coordinates":[4272,2242]},{"type":"Point","properties":{"Station_ID":"CRCI4","Station_Nam":"CRESCO 1NE","Latitude":"43.38940","Longitude":"-92.09380","Snowdepth":"3.000","Units":"in","Rept_Date":"2019-11-09 12"},"coordinates":[1172,3398]},{"type":"Point","properties":{"Station_ID":"CAN-ON-5","Station_Nam":"OWEN SOUND 1.5 NW - GSCA, CAN","Latitude":"44.57837","Longitude":"-80.95461","Snowdepth":"3.000","Units":"in","Rept_Date":"2019-11-09 13"},"coordinates":[3870,4339]},{"type":"Point","properties":{"Station_ID":"CAN-NB-11","Station_Nam":"MIRAMICHI 3.3 S, CAN","Latitude":"46.99343","Longitude":"-65.50690","Snowdepth":"3.000","Units":"in","Rept_Date":"2019-11-09 11"},"coordinates":[7612,6251]},{"type":"Point","properties":{"Station_ID":"BTHM5","Station_Nam":"BLUE EARTH 1S","Latitude":"43.62370","Longitude":"-94.09470","Snowdepth":"3.000","Units":"in","Rept_Date":"2019-11-09 14"},"coordinates":[687,3583]},{"type":"Point","properties":{"Station_ID":"42.1284_079.8945","Station_Nam":"NORTHEAST 6SW (CLE0249)","Latitude":"42.12840","Longitude":"-79.89450","Snowdepth":"3.000","Units":"in","Rept_Date":"2019-11-09 12"},"coordinates":[4127,2399]},{"type":"Point","properties":{"Station_ID":"QLM","Station_Nam":"QLM","Latitude":"48.92030","Longitude":"-70.25280","Snowdepth":"2.756","Units":"in","Rept_Date":"2019-11-09 12"},"coordinates":[6463,7777]},{"type":"Point","properties":{"Station_ID":"QWG","Station_Nam":"QWG","Latitude":"48.48890","Longitude":"-73.45940","Snowdepth":"2.520","Units":"in","Rept_Date":"2019-11-09 12"},"coordinates":[5686,7435]},{"type":"Point","properties":{"Station_ID":"WI-WS-4","Station_Nam":"KEWASKUM 1.8 WNW, WI","Latitude":"43.52880","Longitude":"-88.26570","Snowdepth":"2.500","Units":"in","Rept_Date":"2019-11-09 13"},"coordinates":[2099,3508]},{"type":"Point","properties":{"Station_ID":"WI-WK-29","Station_Nam":"OCONOMOWOC 4.6 NE, WI","Latitude":"43.14621","Longitude":"-88.42860","Snowdepth":"2.500","Units":"in","Rept_Date":"2019-11-09 15"},"coordinates":[2060,3205]},{"type":"Point","properties":{"Station_ID":"WI-SB-14","Station_Nam":"SHEBOYGAN 2.7 N, WI","Latitude":"43.78416","Longitude":"-87.72303","Snowdepth":"2.500","Units":"in","Rept_Date":"2019-11-09 11"},"coordinates":[2231,3710]},{"type":"Point","properties":{"Station_ID":"WI-AD-10","Station_Nam":"OXFORD 4.0 W, WI","Latitude":"43.78638","Longitude":"-89.64166","Snowdepth":"2.500","Units":"in","Rept_Date":"2019-11-09 13"},"coordinates":[1766,3712]},{"type":"Point","properties":{"Station_ID":"VT-OL-9","Station_Nam":"GREENSBORO 2.1 NNW, VT","Latitude":"44.60528","Longitude":"-72.30940","Snowdepth":"2.500","Units":"in","Rept_Date":"2019-11-09 12"},"coordinates":[5964,4360]},{"type":"Point","properties":{"Station_ID":"VT-CL-18","Station_Nam":"WHEELOCK 1.6 S, VT","Latitude":"44.56491","Longitude":"-72.08830","Snowdepth":"2.500","Units":"in","Rept_Date":"2019-11-09 12"},"coordinates":[6018,4328]},{"type":"Point","properties":{"Station_ID":"VT-CH-13","Station_Nam":"RICHMOND 3.4 SSE, VT","Latitude":"44.36084","Longitude":"-72.96400","Snowdepth":"2.500","Units":"in","Rept_Date":"2019-11-09 12"},"coordinates":[5806,4167]},{"type":"Point","properties":{"Station_ID":"NY-OS-20","Station_Nam":"FULTON 0.2 W, NY","Latitude":"43.31650","Longitude":"-76.41850","Snowdepth":"2.500","Units":"in","Rept_Date":"2019-11-09 13"},"coordinates":[4969,3340]},{"type":"Point","properties":{"Station_ID":"NY-OG-12","Station_Nam":"CLAY 4.6 NW, NY","Latitude":"43.20000","Longitude":"-76.26000","Snowdepth":"2.500","Units":"in","Rept_Date":"2019-11-09 13"},"coordinates":[5007,3248]},{"type":"Point","properties":{"Station_ID":"NY-OG-10","Station_Nam":"CAMILLUS 1.0 W, NY","Latitude":"43.03962","Longitude":"-76.32830","Snowdepth":"2.500","Units":"in","Rept_Date":"2019-11-09 12"},"coordinates":[4991,3121]},{"type":"Point","properties":{"Station_ID":"NY-JF-30","Station_Nam":"WEST CARTHAGE 0.3 ENE, NY","Latitude":"43.97493","Longitude":"-75.61640","Snowdepth":"2.500","Units":"in","Rept_Date":"2019-11-09 12"},"coordinates":[5163,3861]},{"type":"Point","properties":{"Station_ID":"NY-FK-9","Station_Nam":"GABRIELS 1.3 SE, NY","Latitude":"44.41934","Longitude":"-74.16194","Snowdepth":"2.500","Units":"in","Rept_Date":"2019-11-09 12"},"coordinates":[5516,4213]},{"type":"Point","properties":{"Station_ID":"MI-HG-1","Station_Nam":"HOUGHTON 1.6 ESE, MI","Latitude":"47.10774","Longitude":"-88.52940","Snowdepth":"2.500","Units":"in","Rept_Date":"2019-11-09 13"},"coordinates":[2035,6342]},{"type":"Point","properties":{"Station_ID":"MI-EM-5","Station_Nam":"HARBOR SPRINGS 0.7 ENE, MI","Latitude":"45.43450","Longitude":"-84.97540","Snowdepth":"2.500","Units":"in","Rept_Date":"2019-11-09 12"},"coordinates":[2896,5017]},{"type":"Point","properties":{"Station_ID":"IA-WH-1","Station_Nam":"DECORAH 7.9 ENE, IA","Latitude":"43.34391","Longitude":"-91.64430","Snowdepth":"2.500","Units":"in","Rept_Date":"2019-11-09 14"},"coordinates":[1281,3362]},{"type":"Point","properties":{"Station_ID":"CAN-NS-105","Station_Nam":"SLUICE POINT 0.4 SSE, CAN","Latitude":"43.78767","Longitude":"-65.96486","Snowdepth":"2.500","Units":"in","Rept_Date":"2019-11-09 11"},"coordinates":[7501,3713]},{"type":"Point","properties":{"Station_ID":"MI-NW-10","Station_Nam":"WHITE CLOUD 9.6 E, MI","Latitude":"43.52587","Longitude":"-85.58461","Snowdepth":"2.240","Units":"in","Rept_Date":"2019-11-09 13"},"coordinates":[2749,3506]},{"type":"Point","properties":{"Station_ID":"WI-SK-2","Station_Nam":"ROCK SPRINGS 2.8 WSW, WI","Latitude":"43.45901","Longitude":"-89.96540","Snowdepth":"2.200","Units":"in","Rept_Date":"2019-11-09 13"},"coordinates":[1687,3453]},{"type":"Point","properties":{"Station_ID":"VT-ES-3","Station_Nam":"LUNENBURG 2.3 NNW, VT","Latitude":"44.49324","Longitude":"-71.70446","Snowdepth":"2.200","Units":"in","Rept_Date":"2019-11-09 12"},"coordinates":[6111,4272]},{"type":"Point","properties":{"Station_ID":"CAN-ON-452","Station_Nam":"CHATSWORTH 1.8 ENE - GSCA, CAN","Latitude":"44.46118","Longitude":"-80.87506","Snowdepth":"2.200","Units":"in","Rept_Date":"2019-11-09 12"},"coordinates":[3889,4246]},{"type":"Point","properties":{"Station_ID":"WI-CB-1","Station_Nam":"COLUMBUS 1.2 S, WI","Latitude":"43.31887","Longitude":"-89.02680","Snowdepth":"2.100","Units":"in","Rept_Date":"2019-11-09 13"},"coordinates":[1915,3342]},{"type":"Point","properties":{"Station_ID":"WSLW3","Station_Nam":"WEST SALEM","Latitude":"43.89670","Longitude":"-91.08570","Snowdepth":"2.000","Units":"in","Rept_Date":"2019-11-09 13"},"coordinates":[1416,3799]},{"type":"Point","properties":{"Station_ID":"WRUM5","Station_Nam":"WARROAD 4W","Latitude":"48.89600","Longitude":"-95.40700","Snowdepth":"2.000","Units":"in","Rept_Date":"2019-11-10 04"},"coordinates":[369,7758]},{"type":"Point","properties":{"Station_ID":"WNNM5","Station_Nam":"WINNEBAGO","Latitude":"43.76920","Longitude":"-94.18730","Snowdepth":"2.000","Units":"in","Rept_Date":"2019-11-09 14"},"coordinates":[665,3698]},{"type":"Point","properties":{"Station_ID":"WLFM5","Station_Nam":"WOLF RIDGE ENVIRON LEARNING CENTER","Latitude":"47.38240","Longitude":"-91.19730","Snowdepth":"2.000","Units":"in","Rept_Date":"2019-11-09 13"},"coordinates":[1389,6559]},{"type":"Point","properties":{"Station_ID":"WI-WS-16","Station_Nam":"GERMANTOWN 1.3 NE, WI","Latitude":"43.23127","Longitude":"-88.10234","Snowdepth":"2.000","Units":"in","Rept_Date":"2019-11-09 12"},"coordinates":[2139,3272]},{"type":"Point","properties":{"Station_ID":"WI-WN-9","Station_Nam":"NEENAH 1.1 ENE, WI","Latitude":"44.17370","Longitude":"-88.45130","Snowdepth":"2.000","Units":"in","Rept_Date":"2019-11-09 13"},"coordinates":[2054,4019]},{"type":"Point","properties":{"Station_ID":"WI-WN-15","Station_Nam":"OSHKOSH 2.0 W, WI","Latitude":"44.01962","Longitude":"-88.59359","Snowdepth":"2.000","Units":"in","Rept_Date":"2019-11-09 13"},"coordinates":[2020,3897]},{"type":"Point","properties":{"Station_ID":"WI-WK-68","Station_Nam":"OCONOMOWOC 0.9 W, WI","Latitude":"43.10089","Longitude":"-88.51441","Snowdepth":"2.000","Units":"in","Rept_Date":"2019-11-09 13"},"coordinates":[2039,3169]},{"type":"Point","properties":{"Station_ID":"WI-VR-6","Station_Nam":"STODDARD 0.1 SW, WI","Latitude":"43.66050","Longitude":"-91.21930","Snowdepth":"2.000","Units":"in","Rept_Date":"2019-11-09 13"},"coordinates":[1384,3612]},{"type":"Point","properties":{"Station_ID":"WI-SK-15","Station_Nam":"REEDSBURG 1.3 N, WI","Latitude":"43.55348","Longitude":"-89.99739","Snowdepth":"2.000","Units":"in","Rept_Date":"2019-11-09 12"},"coordinates":[1680,3528]},{"type":"Point","properties":{"Station_ID":"WI-SB-19","Station_Nam":"SHEBOYGAN 0.7 SSW, WI","Latitude":"43.73560","Longitude":"-87.73490","Snowdepth":"2.000","Units":"in","Rept_Date":"2019-11-09 14"},"coordinates":[2228,3672]},{"type":"Point","properties":{"Station_ID":"WI-OZ-17","Station_Nam":"WEST BEND 7.3 E, WI","Latitude":"43.42860","Longitude":"-88.03870","Snowdepth":"2.000","Units":"in","Rept_Date":"2019-11-09 13"},"coordinates":[2154,3429]},{"type":"Point","properties":{"Station_ID":"WI-OG-12","Station_Nam":"KAUKAUNA 1.5 SW, WI","Latitude":"44.26062","Longitude":"-88.28590","Snowdepth":"2.000","Units":"in","Rept_Date":"2019-11-09 12"},"coordinates":[2094,4087]},{"type":"Point","properties":{"Station_ID":"WI-MW-18","Station_Nam":"WEST ALLIS 0.7 SSE, WI","Latitude":"42.99802","Longitude":"-88.02380","Snowdepth":"2.000","Units":"in","Rept_Date":"2019-11-09 14"},"coordinates":[2158,3088]},{"type":"Point","properties":{"Station_ID":"WI-MW-14","Station_Nam":"MILWAUKEE 3.6 NNW, WI","Latitude":"43.11300","Longitude":"-87.98730","Snowdepth":"2.000","Units":"in","Rept_Date":"2019-11-09 13"},"coordinates":[2167,3179]},{"type":"Point","properties":{"Station_ID":"WI-GL-4","Station_Nam":"GREEN LAKE 0.8 E, WI","Latitude":"43.84369","Longitude":"-88.94066","Snowdepth":"2.000","Units":"in","Rept_Date":"2019-11-09 13"},"coordinates":[1936,3757]},{"type":"Point","properties":{"Station_ID":"WI-DD-15","Station_Nam":"COLUMBUS 4.8 ENE, WI","Latitude":"43.35742","Longitude":"-88.93819","Snowdepth":"2.000","Units":"in","Rept_Date":"2019-11-09 14"},"coordinates":[1936,3372]},{"type":"Point","properties":{"Station_ID":"WI-DA-62","Station_Nam":"WAUNAKEE 4.9 W, WI","Latitude":"43.19755","Longitude":"-89.54904","Snowdepth":"2.000","Units":"in","Rept_Date":"2019-11-09 13"},"coordinates":[1788,3246]},{"type":"Point","properties":{"Station_ID":"WATW3","Station_Nam":"WATERTOWN,WI","Latitude":"43.17500","Longitude":"-88.73530","Snowdepth":"2.000","Units":"in","Rept_Date":"2019-11-09 13"},"coordinates":[1985,3228]},{"type":"Point","properties":{"Station_ID":"WAOW3","Station_Nam":"WAUTOMA SILVER LAKE SANITARY DISTRICT","Latitude":"44.04110","Longitude":"-89.24330","Snowdepth":"2.000","Units":"in","Rept_Date":"2019-11-09 14"},"coordinates":[1862,3914]},{"type":"Point","properties":{"Station_ID":"WABM5","Station_Nam":"WABASHA","Latitude":"44.38500","Longitude":"-92.04860","Snowdepth":"2.000","Units":"in","Rept_Date":"2019-11-09 13"},"coordinates":[1183,4186]},{"type":"Point","properties":{"Station_ID":"VT-WS-15","Station_Nam":"EAST CALAIS 1.5 SW, VT","Latitude":"44.35523","Longitude":"-72.45540","Snowdepth":"2.000","Units":"in","Rept_Date":"2019-11-09 12"},"coordinates":[5929,4162]},{"type":"Point","properties":{"Station_ID":"VT-OL-2","Station_Nam":"BARTON 3.0 ENE, VT","Latitude":"44.75863","Longitude":"-72.11680","Snowdepth":"2.000","Units":"in","Rept_Date":"2019-11-09 12"},"coordinates":[6011,4482]},{"type":"Point","properties":{"Station_ID":"VT-OL-1","Station_Nam":"WESTFIELD 0.7 WNW, VT","Latitude":"44.89160","Longitude":"-72.44350","Snowdepth":"2.000","Units":"in","Rept_Date":"2019-11-09 12"},"coordinates":[5932,4587]},{"type":"Point","properties":{"Station_ID":"VT-CL-3","Station_Nam":"GROTON 4.4 WSW, VT","Latitude":"44.19440","Longitude":"-72.28240","Snowdepth":"2.000","Units":"in","Rept_Date":"2019-11-09 11"},"coordinates":[5971,4035]},{"type":"Point","properties":{"Station_ID":"VT-CL-23","Station_Nam":"RYEGATE 1.5 N, VT","Latitude":"44.23024","Longitude":"-72.10523","Snowdepth":"2.000","Units":"in","Rept_Date":"2019-11-09 11"},"coordinates":[6014,4063]},{"type":"Point","properties":{"Station_ID":"VT-AD-20","Station_Nam":"HANCOCK 0.3 S, VT","Latitude":"43.92166","Longitude":"-72.84042","Snowdepth":"2.000","Units":"in","Rept_Date":"2019-11-09 12"},"coordinates":[5836,3819]},{"type":"Point","properties":{"Station_ID":"UCTW3","Station_Nam":"UNION CENTER","Latitude":"43.68140","Longitude":"-90.26360","Snowdepth":"2.000","Units":"in","Rept_Date":"2019-11-09 12"},"coordinates":[1615,3629]},{"type":"Point","properties":{"Station_ID":"TOPM1","Station_Nam":"TOPSFIELD","Latitude":"45.43470","Longitude":"-67.72020","Snowdepth":"2.000","Units":"in","Rept_Date":"2019-11-09 12"},"coordinates":[7076,5017]},{"type":"Point","properties":{"Station_ID":"SUTV1","Station_Nam":"SUTTON","Latitude":"44.61220","Longitude":"-72.04810","Snowdepth":"2.000","Units":"in","Rept_Date":"2019-11-09 13"},"coordinates":[6028,4366]},{"type":"Point","properties":{"Station_ID":"STDW3","Station_Nam":"STODDARD","Latitude":"43.66020","Longitude":"-91.21930","Snowdepth":"2.000","Units":"in","Rept_Date":"2019-11-09 13"},"coordinates":[1384,3612]},{"type":"Point","properties":{"Station_ID":"SRTW3","Station_Nam":"SPARTA","Latitude":"43.93650","Longitude":"-90.81630","Snowdepth":"2.000","Units":"in","Rept_Date":"2019-11-09 14"},"coordinates":[1481,3831]},{"type":"Point","properties":{"Station_ID":"SLRW3","Station_Nam":"SLINGER","Latitude":"43.33390","Longitude":"-88.29780","Snowdepth":"2.000","Units":"in","Rept_Date":"2019-11-09 14"},"coordinates":[2091,3354]},{"type":"Point","properties":{"Station_ID":"SHHW3","Station_Nam":"SHAWANO 2SSW","Latitude":"44.76310","Longitude":"-88.61830","Snowdepth":"2.000","Units":"in","Rept_Date":"2019-11-09 14"},"coordinates":[2014,4485]},{"type":"Point","properties":{"Station_ID":"SANI4","Station_Nam":"ST ANSGAR","Latitude":"43.38170","Longitude":"-92.92320","Snowdepth":"2.000","Units":"in","Rept_Date":"2019-11-09 12"},"coordinates":[971,3391]},{"type":"Point","properties":{"Station_ID":"RWGM5","Station_Nam":"RED WING","Latitude":"44.57120","Longitude":"-92.52830","Snowdepth":"2.000","Units":"in","Rept_Date":"2019-11-09 14"},"coordinates":[1067,4333]},{"type":"Point","properties":{"Station_ID":"RST","Station_Nam":"ROCHESTER INTERNATIONAL ARPT","Latitude":"43.90890","Longitude":"-92.49780","Snowdepth":"2.000","Units":"in","Rept_Date":"2019-11-10 00"},"coordinates":[1074,3809]},{"type":"Point","properties":{"Station_ID":"RSRM5","Station_Nam":"ROCHESTER AP 2NE","Latitude":"43.92810","Longitude":"-92.47580","Snowdepth":"2.000","Units":"in","Rept_Date":"2019-11-09 13"},"coordinates":[1079,3824]},{"type":"Point","properties":{"Station_ID":"RCHW3","Station_Nam":"RICHRIELD,WI","Latitude":"43.21080","Longitude":"-88.20940","Snowdepth":"2.000","Units":"in","Rept_Date":"2019-11-09 12"},"coordinates":[2113,3256]},{"type":"Point","properties":{"Station_ID":"PLOW3","Station_Nam":"PLOVER","Latitude":"44.44280","Longitude":"-89.54530","Snowdepth":"2.000","Units":"in","Rept_Date":"2019-11-09 13"},"coordinates":[1789,4232]},{"type":"Point","properties":{"Station_ID":"PLFV1","Station_Nam":"PLAINFIELD","Latitude":"44.27610","Longitude":"-72.41500","Snowdepth":"2.000","Units":"in","Rept_Date":"2019-11-09 12"},"coordinates":[5939,4100]},{"type":"Point","properties":{"Station_ID":"PARM4","Station_Nam":"PARENT BAY","Latitude":"45.79610","Longitude":"-86.40110","Snowdepth":"2.000","Units":"in","Rept_Date":"2019-11-09 14"},"coordinates":[2551,5303]},{"type":"Point","properties":{"Station_ID":"OWAM5","Station_Nam":"OWATONNA","Latitude":"44.09760","Longitude":"-93.23180","Snowdepth":"2.000","Units":"in","Rept_Date":"2019-11-09 14"},"coordinates":[896,3958]},{"type":"Point","properties":{"Station_ID":"OOSW3","Station_Nam":"OSHKOSH 6 S","Latitude":"43.93750","Longitude":"-88.54250","Snowdepth":"2.000","Units":"in","Rept_Date":"2019-11-09 13"},"coordinates":[2032,3832]},{"type":"Point","properties":{"Station_ID":"ONCW3","Station_Nam":"SOUTH","Latitude":"43.11170","Longitude":"-88.49970","Snowdepth":"2.000","Units":"in","Rept_Date":"2019-11-09 13"},"coordinates":[2042,3178]},{"type":"Point","properties":{"Station_ID":"OKHW3","Station_Nam":"OSHKOSH,WI","Latitude":"44.03330","Longitude":"-88.55560","Snowdepth":"2.000","Units":"in","Rept_Date":"2019-11-09 13"},"coordinates":[2029,3907]},{"type":"Point","properties":{"Station_ID":"OILM4","Station_Nam":"OIL CITY 3E","Latitude":"43.61140","Longitude":"-84.52810","Snowdepth":"2.000","Units":"in","Rept_Date":"2019-11-09 12"},"coordinates":[3005,3573]},{"type":"Point","properties":{"Station_ID":"OH-PT-9","Station_Nam":"HIRAM 0.4 N, OH","Latitude":"41.31595","Longitude":"-81.14340","Snowdepth":"2.000","Units":"in","Rept_Date":"2019-11-09 12"},"coordinates":[3824,1756]},{"type":"Point","properties":{"Station_ID":"OH-GG-16","Station_Nam":"CHARDON 5.1 SSE, OH","Latitude":"41.50776","Longitude":"-81.18304","Snowdepth":"2.000","Units":"in","Rept_Date":"2019-11-09 12"},"coordinates":[3815,1908]},{"type":"Point","properties":{"Station_ID":"NY-WN-10","Station_Nam":"WALWORTH 1.7 SW, NY","Latitude":"43.12500","Longitude":"-77.29900","Snowdepth":"2.000","Units":"in","Rept_Date":"2019-11-09 12"},"coordinates":[4756,3188]},{"type":"Point","properties":{"Station_ID":"NY-SL-6","Station_Nam":"HANNAWA FALLS 0.1 SW, NY","Latitude":"44.61154","Longitude":"-74.97190","Snowdepth":"2.000","Units":"in","Rept_Date":"2019-11-09 12"},"coordinates":[5319,4365]},{"type":"Point","properties":{"Station_ID":"NY-OS-15","Station_Nam":"MINETTO 0.1 SE, NY","Latitude":"43.39771","Longitude":"-76.47960","Snowdepth":"2.000","Units":"in","Rept_Date":"2019-11-09 12"},"coordinates":[4954,3404]},{"type":"Point","properties":{"Station_ID":"NY-OG-71","Station_Nam":"LIVERPOOL 6.1 NNW, NY","Latitude":"43.18876","Longitude":"-76.25193","Snowdepth":"2.000","Units":"in","Rept_Date":"2019-11-09 11"},"coordinates":[5009,3239]},{"type":"Point","properties":{"Station_ID":"NY-OG-66","Station_Nam":"CLAY 2.0 SE, NY","Latitude":"43.16736","Longitude":"-76.14558","Snowdepth":"2.000","Units":"in","Rept_Date":"2019-11-09 14"},"coordinates":[5035,3222]},{"type":"Point","properties":{"Station_ID":"NY-MD-16","Station_Nam":"CHITTENANGO 2.1 ESE, NY","Latitude":"43.03297","Longitude":"-75.83480","Snowdepth":"2.000","Units":"in","Rept_Date":"2019-11-09 14"},"coordinates":[5110,3115]},{"type":"Point","properties":{"Station_ID":"NY-FK-7","Station_Nam":"SARANAC LAKE 6.2 N, NY","Latitude":"44.41359","Longitude":"-74.15211","Snowdepth":"2.000","Units":"in","Rept_Date":"2019-11-09 12"},"coordinates":[5518,4209]},{"type":"Point","properties":{"Station_ID":"NY-CY-30","Station_Nam":"AUBURN 8.1 SSE, NY","Latitude":"42.82141","Longitude":"-76.52040","Snowdepth":"2.000","Units":"in","Rept_Date":"2019-11-09 13"},"coordinates":[4944,2948]},{"type":"Point","properties":{"Station_ID":"NY-CR-1","Station_Nam":"FREETOWN 1.0 NE, NY","Latitude":"42.53299","Longitude":"-76.02111","Snowdepth":"2.000","Units":"in","Rept_Date":"2019-11-09 12"},"coordinates":[5065,2720]},{"type":"Point","properties":{"Station_ID":"NHNW3","Station_Nam":"NEW HOLSTEIN-EAST-WWTP","Latitude":"43.95310","Longitude":"-88.07720","Snowdepth":"2.000","Units":"in","Rept_Date":"2019-11-09 13"},"coordinates":[2145,3844]},{"type":"Point","properties":{"Station_ID":"NALN6","Station_Nam":"CATTARAUGUS","Latitude":"42.32450","Longitude":"-78.86700","Snowdepth":"2.000","Units":"in","Rept_Date":"2019-11-09 13"},"coordinates":[4376,2554]},{"type":"Point","properties":{"Station_ID":"MTLW3","Station_Nam":"MONTELLO,WI","Latitude":"43.78000","Longitude":"-89.30000","Snowdepth":"2.000","Units":"in","Rept_Date":"2019-11-09 13"},"coordinates":[1849,3707]},{"type":"Point","properties":{"Station_ID":"MNEY8CTB","Station_Nam":"MIDLAND JUNCTION 2.2 ENE","Latitude":"44.33041","Longitude":"-91.95891","Snowdepth":"2.000","Units":"in","Rept_Date":"2019-11-09 14"},"coordinates":[1205,4143]},{"type":"Point","properties":{"Station_ID":"MNE9SLWI","Station_Nam":"LEAVENWORTH 5.4 S","Latitude":"44.14481","Longitude":"-94.78882","Snowdepth":"2.000","Units":"in","Rept_Date":"2019-11-09 13"},"coordinates":[519,3996]},{"type":"Point","properties":{"Station_ID":"MNDMBBNN","Station_Nam":"OWATONNA 3.5 W","Latitude":"44.08801","Longitude":"-93.29623","Snowdepth":"2.000","Units":"in","Rept_Date":"2019-11-09 13"},"coordinates":[881,3951]},{"type":"Point","properties":{"Station_ID":"MNBNKQLL","Station_Nam":"LAKEFIELD 1.9 NE","Latitude":"43.69634","Longitude":"-95.14496","Snowdepth":"2.000","Units":"in","Rept_Date":"2019-11-09 11"},"coordinates":[433,3641]},{"type":"Point","properties":{"Station_ID":"MN7TCHCK","Station_Nam":"COOK 0.2 ENE","Latitude":"47.85225","Longitude":"-92.68378","Snowdepth":"2.000","Units":"in","Rept_Date":"2019-11-09 12"},"coordinates":[1029,6931]},{"type":"Point","properties":{"Station_ID":"MN-WC-5","Station_Nam":"WASECA 0.9 NNE, MN","Latitude":"44.09451","Longitude":"-93.49289","Snowdepth":"2.000","Units":"in","Rept_Date":"2019-11-09 13"},"coordinates":[833,3956]},{"type":"Point","properties":{"Station_ID":"MI-PI-1","Station_Nam":"ROGERS CITY 0.2 WSW, MI","Latitude":"45.41740","Longitude":"-83.81060","Snowdepth":"2.000","Units":"in","Rept_Date":"2019-11-09 13"},"coordinates":[3178,5003]},{"type":"Point","properties":{"Station_ID":"MI-MD-10","Station_Nam":"MIDLAND 1.5 NNE, MI","Latitude":"43.64412","Longitude":"-84.21729","Snowdepth":"2.000","Units":"in","Rept_Date":"2019-11-09 11"},"coordinates":[3080,3599]},{"type":"Point","properties":{"Station_ID":"MATW3","Station_Nam":"MATHER 3NW","Latitude":"44.17460","Longitude":"-90.34820","Snowdepth":"2.000","Units":"in","Rept_Date":"2019-11-09 13"},"coordinates":[1595,4019]},{"type":"Point","properties":{"Station_ID":"LKFM5","Station_Nam":"LAKEFIELD,MN","Latitude":"43.68330","Longitude":"-95.18330","Snowdepth":"2.000","Units":"in","Rept_Date":"2019-11-09 11"},"coordinates":[424,3630]},{"type":"Point","properties":{"Station_ID":"KZAP1","Station_Nam":"KINZUA","Latitude":"41.90060","Longitude":"-79.11860","Snowdepth":"2.000","Units":"in","Rept_Date":"2019-11-09 12"},"coordinates":[4315,2219]},{"type":"Point","properties":{"Station_ID":"KTCM4","Station_Nam":"KENT CITY,MI","Latitude":"43.20000","Longitude":"-85.76670","Snowdepth":"2.000","Units":"in","Rept_Date":"2019-11-09 13"},"coordinates":[2705,3248]},{"type":"Point","properties":{"Station_ID":"KBTV","Station_Nam":"BURLINGTON INTERNATIONAL","Latitude":"44.46666","Longitude":"-73.15000","Snowdepth":"2.000","Units":"in","Rept_Date":"2019-11-10 05"},"coordinates":[5761,4251]},{"type":"Point","properties":{"Station_ID":"KANP1","Station_Nam":"KANE,PA","Latitude":"41.68330","Longitude":"-78.80000","Snowdepth":"2.000","Units":"in","Rept_Date":"2019-11-09 12"},"coordinates":[4392,2047]},{"type":"Point","properties":{"Station_ID":"JCBM4","Station_Nam":"JACOBSVILLE","Latitude":"47.00830","Longitude":"-88.43180","Snowdepth":"2.000","Units":"in","Rept_Date":"2019-11-09 12"},"coordinates":[2059,6263]},{"type":"Point","properties":{"Station_ID":"IWOM4","Station_Nam":"IRONWOOD#2","Latitude":"46.46520","Longitude":"-90.13820","Snowdepth":"2.000","Units":"in","Rept_Date":"2019-11-09 13"},"coordinates":[1646,5833]},{"type":"Point","properties":{"Station_ID":"ISLV1","Station_Nam":"ISLAND POND","Latitude":"44.81280","Longitude":"-71.89020","Snowdepth":"2.000","Units":"in","Rept_Date":"2019-11-09 15"},"coordinates":[6066,4525]},{"type":"Point","properties":{"Station_ID":"INL","Station_Nam":"FALLS INTERNATIONAL ARPT","Latitude":"48.56640","Longitude":"-93.40310","Snowdepth":"2.000","Units":"in","Rept_Date":"2019-11-10 00"},"coordinates":[855,7497]},{"type":"Point","properties":{"Station_ID":"IFSM5","Station_Nam":"INTERNATIONAL FALLS SNOW","Latitude":"48.57780","Longitude":"-93.39640","Snowdepth":"2.000","Units":"in","Rept_Date":"2019-11-10 06"},"coordinates":[856,7506]},{"type":"Point","properties":{"Station_ID":"IA-WH-5","Station_Nam":"DECORAH 4.9SE, IA","Latitude":"43.26481","Longitude":"-91.70294","Snowdepth":"2.000","Units":"in","Rept_Date":"2019-11-09 13"},"coordinates":[1267,3299]},{"type":"Point","properties":{"Station_ID":"HTLM4","Station_Nam":"SNOW PAID OBSERVER FOR KHTL","Latitude":"44.34470","Longitude":"-84.67730","Snowdepth":"2.000","Units":"in","Rept_Date":"2019-11-09 18"},"coordinates":[2968,4154]},{"type":"Point","properties":{"Station_ID":"HTL","Station_Nam":"ROSCOMMON COUNTY AIRPORT","Latitude":"44.35000","Longitude":"-84.66670","Snowdepth":"2.000","Units":"in","Rept_Date":"2019-11-10 00"},"coordinates":[2971,4158]},{"type":"Point","properties":{"Station_ID":"HORW3","Station_Nam":"HORICON WWTP","Latitude":"43.45000","Longitude":"-88.63330","Snowdepth":"2.000","Units":"in","Rept_Date":"2019-11-09 14"},"coordinates":[2010,3446]},{"type":"Point","properties":{"Station_ID":"GNFM5","Station_Nam":"GUNFLINT LAKE","Latitude":"48.16670","Longitude":"-90.88750","Snowdepth":"2.000","Units":"in","Rept_Date":"2019-11-09 13"},"coordinates":[1464,7180]},{"type":"Point","properties":{"Station_ID":"FCDW3","Station_Nam":"FOND DU LAC-AM","Latitude":"43.76670","Longitude":"-88.46670","Snowdepth":"2.000","Units":"in","Rept_Date":"2019-11-09 13"},"coordinates":[2050,3696]},{"type":"Point","properties":{"Station_ID":"ETTW3","Station_Nam":"ETTRICK 4WNW","Latitude":"44.19000","Longitude":"-91.34240","Snowdepth":"2.000","Units":"in","Rept_Date":"2019-11-09 14"},"coordinates":[1354,4031]},{"type":"Point","properties":{"Station_ID":"ESGM1","Station_Nam":"EAST SANGERVILLE","Latitude":"45.13690","Longitude":"-69.28060","Snowdepth":"2.000","Units":"in","Rept_Date":"2019-11-09 12"},"coordinates":[6698,4781]},{"type":"Point","properties":{"Station_ID":"EMBM5","Station_Nam":"EMBARASS,MN","Latitude":"47.65810","Longitude":"-92.19580","Snowdepth":"2.000","Units":"in","Rept_Date":"2019-11-09 14"},"coordinates":[1147,6777]},{"type":"Point","properties":{"Station_ID":"EGNM5","Station_Nam":"ELGIN 2SSW","Latitude":"44.09700","Longitude":"-92.27010","Snowdepth":"2.000","Units":"in","Rept_Date":"2019-11-09 13"},"coordinates":[1129,3958]},{"type":"Point","properties":{"Station_ID":"DCRI4","Station_Nam":"DECORAH","Latitude":"43.30430","Longitude":"-91.79520","Snowdepth":"2.000","Units":"in","Rept_Date":"2019-11-10 00"},"coordinates":[1244,3330]},{"type":"Point","properties":{"Station_ID":"CUSW3","Station_Nam":"COLUMBUS","Latitude":"43.32610","Longitude":"-89.00810","Snowdepth":"2.000","Units":"in","Rept_Date":"2019-11-09 13"},"coordinates":[1919,3347]},{"type":"Point","properties":{"Station_ID":"COVP1","Station_Nam":"COVINGTON 2WSW","Latitude":"41.73330","Longitude":"-77.11670","Snowdepth":"2.000","Units":"in","Rept_Date":"2019-11-09 12"},"coordinates":[4800,2086]},{"type":"Point","properties":{"Station_ID":"CORV1","Station_Nam":"CORINTH","Latitude":"44.00690","Longitude":"-72.31940","Snowdepth":"2.000","Units":"in","Rept_Date":"2019-11-09 12"},"coordinates":[5962,3887]},{"type":"Point","properties":{"Station_ID":"COKM5","Station_Nam":"COOK","Latitude":"47.85060","Longitude":"-92.69250","Snowdepth":"2.000","Units":"in","Rept_Date":"2019-11-09 12"},"coordinates":[1027,6930]},{"type":"Point","properties":{"Station_ID":"CLKM4","Station_Nam":"CLARKSBURG","Latitude":"46.49910","Longitude":"-87.84500","Snowdepth":"2.000","Units":"in","Rept_Date":"2019-11-09 12"},"coordinates":[2201,5860]},{"type":"Point","properties":{"Station_ID":"CHMW3","Station_Nam":"MADISON,WI","Latitude":"43.06030","Longitude":"-89.47810","Snowdepth":"2.000","Units":"in","Rept_Date":"2019-11-09 13"},"coordinates":[1805,3137]},{"type":"Point","properties":{"Station_ID":"CGPM4","Station_Nam":"DOLLAR BAY","Latitude":"47.11670","Longitude":"-88.51370","Snowdepth":"2.000","Units":"in","Rept_Date":"2019-11-09 13"},"coordinates":[2039,6349]},{"type":"Point","properties":{"Station_ID":"CAN-NS-83","Station_Nam":"CENTRELEA 1.2 NNW, CAN","Latitude":"44.83073","Longitude":"-65.32664","Snowdepth":"2.000","Units":"in","Rept_Date":"2019-11-09 12"},"coordinates":[7656,4539]},{"type":"Point","properties":{"Station_ID":"CAN-NB-84","Station_Nam":"NORTON 7.1 WNW - KWRC, CAN","Latitude":"45.66195","Longitude":"-65.78279","Snowdepth":"2.000","Units":"in","Rept_Date":"2019-11-09 12"},"coordinates":[7545,5197]},{"type":"Point","properties":{"Station_ID":"CAN-NB-5","Station_Nam":"OAK POINT 0.9 SSW, CA","Latitude":"45.50752","Longitude":"-66.09860","Snowdepth":"2.000","Units":"in","Rept_Date":"2019-11-09 12"},"coordinates":[7469,5075]},{"type":"Point","properties":{"Station_ID":"BTV","Station_Nam":"BURLINGTON, VT","Latitude":"44.47140","Longitude":"-73.15330","Snowdepth":"2.000","Units":"in","Rept_Date":"2019-11-10 01"},"coordinates":[5760,4254]},{"type":"Point","properties":{"Station_ID":"BROS2","Station_Nam":"BROOKINGS,SD","Latitude":"44.31670","Longitude":"-96.76670","Snowdepth":"2.000","Units":"in","Rept_Date":"2019-11-09 14"},"coordinates":[40,4132]},{"type":"Point","properties":{"Station_ID":"BRCM5","Station_Nam":"BRICELYN","Latitude":"43.54400","Longitude":"-93.84230","Snowdepth":"2.000","Units":"in","Rept_Date":"2019-11-09 13"},"coordinates":[748,3520]},{"type":"Point","properties":{"Station_ID":"BNDM5","Station_Nam":"ELY 25E","Latitude":"47.97190","Longitude":"-91.44860","Snowdepth":"2.000","Units":"in","Rept_Date":"2019-11-09 13"},"coordinates":[1328,7026]},{"type":"Point","properties":{"Station_ID":"BGRM4","Station_Nam":"WATER WORKS","Latitude":"43.70000","Longitude":"-85.48330","Snowdepth":"2.000","Units":"in","Rept_Date":"2019-11-09 12"},"coordinates":[2773,3644]},{"type":"Point","properties":{"Station_ID":"BFDW3","Station_Nam":"BROOKFIELD","Latitude":"43.05390","Longitude":"-88.17640","Snowdepth":"2.000","Units":"in","Rept_Date":"2019-11-09 13"},"coordinates":[2121,3132]},{"type":"Point","properties":{"Station_ID":"BEUM4","Station_Nam":"BEULAH 7SSW","Latitude":"44.53160","Longitude":"-86.13110","Snowdepth":"2.000","Units":"in","Rept_Date":"2019-11-09 13"},"coordinates":[2616,4302]},{"type":"Point","properties":{"Station_ID":"BEAW3","Station_Nam":"BEAVER DAM,WI","Latitude":"43.45000","Longitude":"-88.85000","Snowdepth":"2.000","Units":"in","Rept_Date":"2019-11-09 13"},"coordinates":[1958,3446]},{"type":"Point","properties":{"Station_ID":"BDMW3","Station_Nam":"BEAVER DAM 1 N","Latitude":"43.46860","Longitude":"-88.83970","Snowdepth":"2.000","Units":"in","Rept_Date":"2019-11-09 13"},"coordinates":[1960,3460]},{"type":"Point","properties":{"Station_ID":"BABW3","Station_Nam":"BARABOO WWTP","Latitude":"43.48330","Longitude":"-89.63330","Snowdepth":"2.000","Units":"in","Rept_Date":"2019-11-09 14"},"coordinates":[1768,3472]},{"type":"Point","properties":{"Station_ID":"ANGN6","Station_Nam":"ANGELICA","Latitude":"42.31080","Longitude":"-78.02300","Snowdepth":"2.000","Units":"in","Rept_Date":"2019-11-09 12"},"coordinates":[4580,2544]},{"type":"Point","properties":{"Station_ID":"AMDW3","Station_Nam":"ALMOND-5 NE","Latitude":"44.30830","Longitude":"-89.34640","Snowdepth":"2.000","Units":"in","Rept_Date":"2019-11-09 14"},"coordinates":[1837,4125]},{"type":"Point","properties":{"Station_ID":"ALTM5","Station_Nam":"ALTURA 5W","Latitude":"44.06330","Longitude":"-92.03970","Snowdepth":"2.000","Units":"in","Rept_Date":"2019-11-09 13"},"coordinates":[1185,3931]},{"type":"Point","properties":{"Station_ID":"ALLW3","Station_Nam":"ALLENTON","Latitude":"43.42360","Longitude":"-88.35110","Snowdepth":"2.000","Units":"in","Rept_Date":"2019-11-09 13"},"coordinates":[2078,3425]},{"type":"Point","properties":{"Station_ID":"42.1154_080.1310","Station_Nam":"ERIE  SNOW SPOTTER (CLE0161)","Latitude":"42.11540","Longitude":"-80.13100","Snowdepth":"2.000","Units":"in","Rept_Date":"2019-11-09 12"},"coordinates":[4070,2389]},{"type":"Point","properties":{"Station_ID":"41.5078_081.1830","Station_Nam":"5 SSE Chardon  CoCoRaHS (OH-GG-16)","Latitude":"41.50780","Longitude":"-81.18300","Snowdepth":"2.000","Units":"in","Rept_Date":"2019-11-09 12"},"coordinates":[3815,1908]},{"type":"Point","properties":{"Station_ID":"NY-BM-34","Station_Nam":"VESTAL 3.2 E, NY","Latitude":"42.08258","Longitude":"-75.99120","Snowdepth":"1.800","Units":"in","Rept_Date":"2019-11-09 11"},"coordinates":[5072,2363]},{"type":"Point","properties":{"Station_ID":"QWE","Station_Nam":"QWE","Latitude":"47.84610","Longitude":"-73.80670","Snowdepth":"1.535","Units":"in","Rept_Date":"2019-11-09 12"},"coordinates":[5602,6926]},{"type":"Point","properties":{"Station_ID":"WI-WP-8","Station_Nam":"WAUPACA 5.7 WSW, WI","Latitude":"44.33239","Longitude":"-89.18714","Snowdepth":"1.500","Units":"in","Rept_Date":"2019-11-09 13"},"coordinates":[1876,4144]},{"type":"Point","properties":{"Station_ID":"WI-WK-65","Station_Nam":"EAGLE 3.4 SW, WI","Latitude":"42.85067","Longitude":"-88.52596","Snowdepth":"1.500","Units":"in","Rept_Date":"2019-11-09 13"},"coordinates":[2036,2971]},{"type":"Point","properties":{"Station_ID":"WI-WH-7","Station_Nam":"WILD ROSE 0.5 E, WI","Latitude":"44.17764","Longitude":"-89.23812","Snowdepth":"1.500","Units":"in","Rept_Date":"2019-11-09 13"},"coordinates":[1864,4022]},{"type":"Point","properties":{"Station_ID":"WI-WD-2","Station_Nam":"WISCONSIN RAPIDS 4.6 SSE, WI","Latitude":"44.33823","Longitude":"-89.78200","Snowdepth":"1.500","Units":"in","Rept_Date":"2019-11-09 13"},"coordinates":[1732,4149]},{"type":"Point","properties":{"Station_ID":"WI-SB-10","Station_Nam":"RANDOM LAKE 0.5 SSE, WI","Latitude":"43.54812","Longitude":"-87.95050","Snowdepth":"1.500","Units":"in","Rept_Date":"2019-11-09 13"},"coordinates":[2176,3523]},{"type":"Point","properties":{"Station_ID":"WI-MW-43","Station_Nam":"BROWN DEER 0.8 NW, WI","Latitude":"43.18438","Longitude":"-87.98401","Snowdepth":"1.500","Units":"in","Rept_Date":"2019-11-09 13"},"coordinates":[2167,3235]},{"type":"Point","properties":{"Station_ID":"VT-RT-24","Station_Nam":"MIDDLETOWN SPRINGS 0.9 WNW, VT","Latitude":"43.49194","Longitude":"-73.13350","Snowdepth":"1.500","Units":"in","Rept_Date":"2019-11-09 12"},"coordinates":[5765,3479]},{"type":"Point","properties":{"Station_ID":"OH-GG-7","Station_Nam":"MIDDLEFIELD 0.6 NE, OH","Latitude":"41.46438","Longitude":"-81.06520","Snowdepth":"1.500","Units":"in","Rept_Date":"2019-11-09 13"},"coordinates":[3843,1873]},{"type":"Point","properties":{"Station_ID":"NY-TM-27","Station_Nam":"GROTON 3.2 SSW, NY","Latitude":"42.54725","Longitude":"-76.39960","Snowdepth":"1.500","Units":"in","Rept_Date":"2019-11-09 12"},"coordinates":[4974,2731]},{"type":"Point","properties":{"Station_ID":"NY-TG-5","Station_Nam":"BERKSHIRE 2.0 N, NY","Latitude":"42.33463","Longitude":"-76.18990","Snowdepth":"1.500","Units":"in","Rept_Date":"2019-11-09 13"},"coordinates":[5024,2562]},{"type":"Point","properties":{"Station_ID":"NY-SY-11","Station_Nam":"DUNDEE 6.2 E, NY","Latitude":"42.52210","Longitude":"-76.85580","Snowdepth":"1.500","Units":"in","Rept_Date":"2019-11-09 12"},"coordinates":[4863,2711]},{"type":"Point","properties":{"Station_ID":"NY-CY-8","Station_Nam":"AUBURN 8.3 SSE, NY","Latitude":"42.82869","Longitude":"-76.48670","Snowdepth":"1.500","Units":"in","Rept_Date":"2019-11-09 11"},"coordinates":[4952,2954]},{"type":"Point","properties":{"Station_ID":"NY-CQ-39","Station_Nam":"GERRY 0.8 N, NY","Latitude":"42.20500","Longitude":"-79.24700","Snowdepth":"1.500","Units":"in","Rept_Date":"2019-11-09 13"},"coordinates":[4284,2460]},{"type":"Point","properties":{"Station_ID":"NY-BM-14","Station_Nam":"WHITNEY POINT 1.7 SSE, NY","Latitude":"42.30837","Longitude":"-75.95690","Snowdepth":"1.500","Units":"in","Rept_Date":"2019-11-09 12"},"coordinates":[5081,2542]},{"type":"Point","properties":{"Station_ID":"NH-GR-47","Station_Nam":"LITTLETON 7.3 W, NH","Latitude":"44.31847","Longitude":"-71.91086","Snowdepth":"1.500","Units":"in","Rept_Date":"2019-11-09 13"},"coordinates":[6061,4133]},{"type":"Point","properties":{"Station_ID":"NH-CS-10","Station_Nam":"RANDOLPH 1.4 NE, NH","Latitude":"44.38824","Longitude":"-71.26950","Snowdepth":"1.500","Units":"in","Rept_Date":"2019-11-09 12"},"coordinates":[6216,4188]},{"type":"Point","properties":{"Station_ID":"MN-BW-8","Station_Nam":"COMFREY 6.5 ENE, MN","Latitude":"44.15109","Longitude":"-94.78516","Snowdepth":"1.500","Units":"in","Rept_Date":"2019-11-09 12"},"coordinates":[520,4001]},{"type":"Point","properties":{"Station_ID":"MI-HR-10","Station_Nam":"BAY PORT 3.2 SSW, MI","Latitude":"43.80746","Longitude":"-83.40013","Snowdepth":"1.500","Units":"in","Rept_Date":"2019-11-09 13"},"coordinates":[3278,3729]},{"type":"Point","properties":{"Station_ID":"CAN-ON-42","Station_Nam":"VANKLEEK HILL 3.4 S, CA","Latitude":"45.48987","Longitude":"-74.64570","Snowdepth":"1.500","Units":"in","Rept_Date":"2019-11-09 12"},"coordinates":[5398,5061]},{"type":"Point","properties":{"Station_ID":"CAN-NS-81","Station_Nam":"SCOTS BAY 3.1 WNW, CA","Latitude":"45.31472","Longitude":"-64.42890","Snowdepth":"1.500","Units":"in","Rept_Date":"2019-11-09 11"},"coordinates":[7873,4922]},{"type":"Point","properties":{"Station_ID":"CAN-NS-103","Station_Nam":"TRAFALGAR 4.9 WSW, CAN","Latitude":"45.26217","Longitude":"-62.72285","Snowdepth":"1.500","Units":"in","Rept_Date":"2019-11-09 11"},"coordinates":[8287,4880]},{"type":"Point","properties":{"Station_ID":"CAN-QC-16","Station_Nam":"SAINT-ARMAND 3.6 W, CAN","Latitude":"45.02631","Longitude":"-73.08795","Snowdepth":"1.400","Units":"in","Rept_Date":"2019-11-09 12"},"coordinates":[5776,4694]},{"type":"Point","properties":{"Station_ID":"CAN-PE-20","Station_Nam":"BONSHAW 6.6 NNE, CAN","Latitude":"46.25082","Longitude":"-63.33409","Snowdepth":"1.400","Units":"in","Rept_Date":"2019-11-09 12"},"coordinates":[8138,5663]},{"type":"Point","properties":{"Station_ID":"QTV","Station_Nam":"QTV","Latitude":"49.66000","Longitude":"-69.35690","Snowdepth":"1.260","Units":"in","Rept_Date":"2019-11-09 12"},"coordinates":[6680,8362]},{"type":"Point","properties":{"Station_ID":"CAN-ON-526","Station_Nam":"HILTON BEACH 0.7 SW - MNRF, CAN","Latitude":"46.25357","Longitude":"-83.90014","Snowdepth":"1.200","Units":"in","Rept_Date":"2019-11-09 12"},"coordinates":[3157,5665]},{"type":"Point","properties":{"Station_ID":"CAN-NL-81","Station_Nam":"GRAND FALLS-WINDSOR 1.2 S, CAN","Latitude":"48.93123","Longitude":"-55.65333","Snowdepth":"1.200","Units":"in","Rept_Date":"2019-11-09 10"},"coordinates":[9999,7785]},{"type":"Point","properties":{"Station_ID":"QGA","Station_Nam":"QGA","Latitude":"47.25640","Longitude":"-73.73810","Snowdepth":"1.181","Units":"in","Rept_Date":"2019-11-09 12"},"coordinates":[5618,6459]},{"type":"Point","properties":{"Station_ID":"WI-DA-77","Station_Nam":"VERONA 3.9 WSW, WI","Latitude":"42.97286","Longitude":"-89.61041","Snowdepth":"1.100","Units":"in","Rept_Date":"2019-11-09 13"},"coordinates":[1773,3068]},{"type":"Point","properties":{"Station_ID":"NY-WN-18","Station_Nam":"MACEDON 2.6 ESE, NY","Latitude":"43.05200","Longitude":"-77.25700","Snowdepth":"1.100","Units":"in","Rept_Date":"2019-11-09 12"},"coordinates":[4766,3130]},{"type":"Point","properties":{"Station_ID":"MI-IS-7","Station_Nam":"MOUNT PLEASANT 3.8 ESE, MI","Latitude":"43.57860","Longitude":"-84.70720","Snowdepth":"1.100","Units":"in","Rept_Date":"2019-11-09 13"},"coordinates":[2961,3547]},{"type":"Point","properties":{"Station_ID":"CAN-NS-19","Station_Nam":"DARTMOUTH 5.7 E, CA","Latitude":"44.66618","Longitude":"-63.49540","Snowdepth":"1.100","Units":"in","Rept_Date":"2019-11-09 12"},"coordinates":[8099,4409]},{"type":"Point","properties":{"Station_ID":"QIQ","Station_Nam":"QIQ","Latitude":"49.82390","Longitude":"-68.54310","Snowdepth":"1.024","Units":"in","Rept_Date":"2019-11-09 12"},"coordinates":[6877,8492]},{"type":"Point","properties":{"Station_ID":"WYON6","Station_Nam":"WYOMING 3W","Latitude":"42.81750","Longitude":"-78.14810","Snowdepth":"1.000","Units":"in","Rept_Date":"2019-11-09 12"},"coordinates":[4550,2945]},{"type":"Point","properties":{"Station_ID":"WWWW3","Station_Nam":"WAUPACA","Latitude":"44.35470","Longitude":"-89.05920","Snowdepth":"1.000","Units":"in","Rept_Date":"2019-11-09 14"},"coordinates":[1907,4162]},{"type":"Point","properties":{"Station_ID":"WTRM4","Station_Nam":"WATERSMEET 12WSW","Latitude":"46.22310","Longitude":"-89.40850","Snowdepth":"1.000","Units":"in","Rept_Date":"2019-11-09 12"},"coordinates":[1822,5641]},{"type":"Point","properties":{"Station_ID":"WRNM5","Station_Nam":"WORTHINGTON,MN","Latitude":"43.65440","Longitude":"-95.57920","Snowdepth":"1.000","Units":"in","Rept_Date":"2019-11-09 13"},"coordinates":[328,3607]},{"type":"Point","properties":{"Station_ID":"WNDP1","Station_Nam":"WINDBER COUNTY CLUB","Latitude":"40.28780","Longitude":"-78.77530","Snowdepth":"1.000","Units":"in","Rept_Date":"2019-11-09 12"},"coordinates":[4398,942]},{"type":"Point","properties":{"Station_ID":"WLXP1","Station_Nam":"GLEN HAZEL,PA","Latitude":"41.56670","Longitude":"-78.60000","Snowdepth":"1.000","Units":"in","Rept_Date":"2019-11-09 12"},"coordinates":[4441,1954]},{"type":"Point","properties":{"Station_ID":"WLSN6","Station_Nam":"WALES","Latitude":"42.73920","Longitude":"-78.58780","Snowdepth":"1.000","Units":"in","Rept_Date":"2019-11-09 12"},"coordinates":[4443,2883]},{"type":"Point","properties":{"Station_ID":"WIRW3","Station_Nam":"WIS RAPIDS GRAND AV B","Latitude":"44.39940","Longitude":"-89.83050","Snowdepth":"1.000","Units":"in","Rept_Date":"2019-11-09 13"},"coordinates":[1720,4197]},{"type":"Point","properties":{"Station_ID":"WI-WW-12","Station_Nam":"ELKHORN 0.4 ESE, WI","Latitude":"42.66970","Longitude":"-88.53170","Snowdepth":"1.000","Units":"in","Rept_Date":"2019-11-09 11"},"coordinates":[2035,2828]},{"type":"Point","properties":{"Station_ID":"WI-WN-7","Station_Nam":"OMRO 2.3 WSW, WI","Latitude":"44.02074","Longitude":"-88.77970","Snowdepth":"1.000","Units":"in","Rept_Date":"2019-11-09 13"},"coordinates":[1975,3897]},{"type":"Point","properties":{"Station_ID":"WI-WK-34","Station_Nam":"MUKWONAGO 5.3 W, WI","Latitude":"42.85380","Longitude":"-88.43550","Snowdepth":"1.000","Units":"in","Rept_Date":"2019-11-09 13"},"coordinates":[2058,2974]},{"type":"Point","properties":{"Station_ID":"WI-VL-9","Station_Nam":"LAND O' LAKES 11.7 W, WI","Latitude":"46.19023","Longitude":"-89.45790","Snowdepth":"1.000","Units":"in","Rept_Date":"2019-11-09 13"},"coordinates":[1810,5615]},{"type":"Point","properties":{"Station_ID":"WI-OG-7","Station_Nam":"APPLETON 1.3 N, WI","Latitude":"44.28580","Longitude":"-88.39470","Snowdepth":"1.000","Units":"in","Rept_Date":"2019-11-09 13"},"coordinates":[2068,4107]},{"type":"Point","properties":{"Station_ID":"WI-MT-14","Station_Nam":"MOSINEE 2.7 WSW, WI","Latitude":"44.77240","Longitude":"-89.73441","Snowdepth":"1.000","Units":"in","Rept_Date":"2019-11-09 13"},"coordinates":[1743,4493]},{"type":"Point","properties":{"Station_ID":"WI-MC-4","Station_Nam":"TWO RIVERS 1.4 N, WI","Latitude":"44.17617","Longitude":"-87.58330","Snowdepth":"1.000","Units":"in","Rept_Date":"2019-11-09 11"},"coordinates":[2264,4021]},{"type":"Point","properties":{"Station_ID":"WI-JF-10","Station_Nam":"PALMYRA 1.5 N, WI","Latitude":"42.90084","Longitude":"-88.58620","Snowdepth":"1.000","Units":"in","Rept_Date":"2019-11-09 14"},"coordinates":[2022,3011]},{"type":"Point","properties":{"Station_ID":"WI-DD-4","Station_Nam":"BEAVER DAM 1.4 SSW, WI","Latitude":"43.44719","Longitude":"-88.85260","Snowdepth":"1.000","Units":"in","Rept_Date":"2019-11-09 14"},"coordinates":[1957,3443]},{"type":"Point","properties":{"Station_ID":"WI-DA-39","Station_Nam":"MADISON 4.0 W, WI","Latitude":"43.07741","Longitude":"-89.46757","Snowdepth":"1.000","Units":"in","Rept_Date":"2019-11-09 13"},"coordinates":[1808,3151]},{"type":"Point","properties":{"Station_ID":"WI-DA-33","Station_Nam":"OREGON 0.4 SSW, WI","Latitude":"42.92080","Longitude":"-89.38540","Snowdepth":"1.000","Units":"in","Rept_Date":"2019-11-09 13"},"coordinates":[1828,3027]},{"type":"Point","properties":{"Station_ID":"WI-DA-31","Station_Nam":"DEERFIELD 0.6 N, WI","Latitude":"43.05958","Longitude":"-89.07340","Snowdepth":"1.000","Units":"in","Rept_Date":"2019-11-09 14"},"coordinates":[1904,3136]},{"type":"Point","properties":{"Station_ID":"WI-DA-13","Station_Nam":"MADISON 3.7 WSW, WI","Latitude":"43.06230","Longitude":"-89.45650","Snowdepth":"1.000","Units":"in","Rept_Date":"2019-11-09 13"},"coordinates":[1811,3139]},{"type":"Point","properties":{"Station_ID":"WI-BY-1","Station_Nam":"BAYFIELD 8.8 N, WI","Latitude":"46.93855","Longitude":"-90.83490","Snowdepth":"1.000","Units":"in","Rept_Date":"2019-11-09 13"},"coordinates":[1477,6208]},{"type":"Point","properties":{"Station_ID":"WI-BN-6","Station_Nam":"SUAMICO 4.4 WNW, WI","Latitude":"44.66111","Longitude":"-88.11780","Snowdepth":"1.000","Units":"in","Rept_Date":"2019-11-09 13"},"coordinates":[2135,4404]},{"type":"Point","properties":{"Station_ID":"WI-BN-22","Station_Nam":"WRIGHTSTOWN 0.4 ENE, WI","Latitude":"44.32735","Longitude":"-88.16669","Snowdepth":"1.000","Units":"in","Rept_Date":"2019-11-09 13"},"coordinates":[2123,4140]},{"type":"Point","properties":{"Station_ID":"WI-BN-14","Station_Nam":"GREEN BAY 3.8 SSE, WI","Latitude":"44.46772","Longitude":"-87.97350","Snowdepth":"1.000","Units":"in","Rept_Date":"2019-11-09 13"},"coordinates":[2170,4251]},{"type":"Point","properties":{"Station_ID":"WHTW3","Station_Nam":"WHITEWATER,WI","Latitude":"42.85670","Longitude":"-88.72940","Snowdepth":"1.000","Units":"in","Rept_Date":"2019-11-09 14"},"coordinates":[1987,2976]},{"type":"Point","properties":{"Station_ID":"WASW3","Station_Nam":"WASHINGTON IS","Latitude":"45.35800","Longitude":"-86.89110","Snowdepth":"1.000","Units":"in","Rept_Date":"2019-11-09 13"},"coordinates":[2432,4956]},{"type":"Point","properties":{"Station_ID":"VT-WR-2","Station_Nam":"POMFRET 2.6 N, VT","Latitude":"43.74230","Longitude":"-72.52550","Snowdepth":"1.000","Units":"in","Rept_Date":"2019-11-09 12"},"coordinates":[5912,3677]},{"type":"Point","properties":{"Station_ID":"VT-RT-23","Station_Nam":"POULTNEY 3.5 E, VT","Latitude":"43.52631","Longitude":"-73.16514","Snowdepth":"1.000","Units":"in","Rept_Date":"2019-11-09 12"},"coordinates":[5757,3506]},{"type":"Point","properties":{"Station_ID":"VT-LM-1","Station_Nam":"STOWE 0.2 SW, VT","Latitude":"44.46399","Longitude":"-72.69070","Snowdepth":"1.000","Units":"in","Rept_Date":"2019-11-09 12"},"coordinates":[5872,4248]},{"type":"Point","properties":{"Station_ID":"VT-GI-3","Station_Nam":"ALBURGH 4.6 SSE, VT","Latitude":"44.91280","Longitude":"-73.26890","Snowdepth":"1.000","Units":"in","Rept_Date":"2019-11-09 14"},"coordinates":[5732,4604]},{"type":"Point","properties":{"Station_ID":"VT-BN-7","Station_Nam":"MANCHESTER 2.8 ENE, VT","Latitude":"43.17274","Longitude":"-73.01811","Snowdepth":"1.000","Units":"in","Rept_Date":"2019-11-09 12"},"coordinates":[5793,3226]},{"type":"Point","properties":{"Station_ID":"TWOW3","Station_Nam":"TWO RIVERS","Latitude":"44.14300","Longitude":"-87.56770","Snowdepth":"1.000","Units":"in","Rept_Date":"2019-11-09 13"},"coordinates":[2268,3994]},{"type":"Point","properties":{"Station_ID":"THLM5","Station_Nam":"THEILMAN 1SSW","Latitude":"44.28130","Longitude":"-92.19430","Snowdepth":"1.000","Units":"in","Rept_Date":"2019-11-09 13"},"coordinates":[1148,4104]},{"type":"Point","properties":{"Station_ID":"TAKW3","Station_Nam":"RICE RESERVOIR NO. 2","Latitude":"45.53770","Longitude":"-89.73220","Snowdepth":"1.000","Units":"in","Rept_Date":"2019-11-09 13"},"coordinates":[1744,5099]},{"type":"Point","properties":{"Station_ID":"STRW3","Station_Nam":"STRATFORD 1NW","Latitude":"44.81750","Longitude":"-90.08990","Snowdepth":"1.000","Units":"in","Rept_Date":"2019-11-09 13"},"coordinates":[1657,4528]},{"type":"Point","properties":{"Station_ID":"STAM4","Station_Nam":"STANDISH 4NE","Latitude":"44.01260","Longitude":"-83.89770","Snowdepth":"1.000","Units":"in","Rept_Date":"2019-11-09 13"},"coordinates":[3157,3891]},{"type":"Point","properties":{"Station_ID":"SPCW3","Station_Nam":"SPENCER-WWTP","Latitude":"44.75390","Longitude":"-90.28920","Snowdepth":"1.000","Units":"in","Rept_Date":"2019-11-09 13"},"coordinates":[1609,4478]},{"type":"Point","properties":{"Station_ID":"SJBV1","Station_Nam":"SAINT JOHNSBURY","Latitude":"44.42000","Longitude":"-72.01940","Snowdepth":"1.000","Units":"in","Rept_Date":"2019-11-09 21"},"coordinates":[6035,4214]},{"type":"Point","properties":{"Station_ID":"SILN6","Station_Nam":"SILVER CREEK","Latitude":"42.53800","Longitude":"-79.16990","Snowdepth":"1.000","Units":"in","Rept_Date":"2019-11-09 12"},"coordinates":[4302,2723]},{"type":"Point","properties":{"Station_ID":"SHIW3","Station_Nam":"SHIOCTON","Latitude":"44.43890","Longitude":"-88.58390","Snowdepth":"1.000","Units":"in","Rept_Date":"2019-11-09 13"},"coordinates":[2022,4229]},{"type":"Point","properties":{"Station_ID":"SBNW3","Station_Nam":"STEUBEN 4SE","Latitude":"43.13430","Longitude":"-90.83720","Snowdepth":"1.000","Units":"in","Rept_Date":"2019-11-09 13"},"coordinates":[1476,3196]},{"type":"Point","properties":{"Station_ID":"RSTW3","Station_Nam":"ROSHOLT","Latitude":"44.62710","Longitude":"-89.30600","Snowdepth":"1.000","Units":"in","Rept_Date":"2019-11-09 14"},"coordinates":[1847,4378]},{"type":"Point","properties":{"Station_ID":"RLKW3","Station_Nam":"REST LAKE","Latitude":"46.12220","Longitude":"-89.87720","Snowdepth":"1.000","Units":"in","Rept_Date":"2019-11-09 14"},"coordinates":[1709,5561]},{"type":"Point","properties":{"Station_ID":"RHIW3","Station_Nam":"RHINELANDER","Latitude":"45.59860","Longitude":"-89.45080","Snowdepth":"1.000","Units":"in","Rept_Date":"2019-11-09 13"},"coordinates":[1812,5147]},{"type":"Point","properties":{"Station_ID":"RCNW3","Station_Nam":"RACINE,WI","Latitude":"42.70390","Longitude":"-87.76670","Snowdepth":"1.000","Units":"in","Rept_Date":"2019-11-09 14"},"coordinates":[2220,2855]},{"type":"Point","properties":{"Station_ID":"PULW3","Station_Nam":"PULASKI WWTP","Latitude":"44.67830","Longitude":"-88.22750","Snowdepth":"1.000","Units":"in","Rept_Date":"2019-11-09 12"},"coordinates":[2108,4418]},{"type":"Point","properties":{"Station_ID":"PTBN3","Station_Nam":"DAM WITHIN","Latitude":"45.05000","Longitude":"-71.38330","Snowdepth":"1.000","Units":"in","Rept_Date":"2019-11-09 12"},"coordinates":[6189,4712]},{"type":"Point","properties":{"Station_ID":"POYW3","Station_Nam":"POY SIPPI - 2 SW","Latitude":"44.10810","Longitude":"-89.01610","Snowdepth":"1.000","Units":"in","Rept_Date":"2019-11-09 12"},"coordinates":[1917,3967]},{"type":"Point","properties":{"Station_ID":"PIPM5","Station_Nam":"PIPESTONE,MN","Latitude":"44.01390","Longitude":"-96.32580","Snowdepth":"1.000","Units":"in","Rept_Date":"2019-11-09 14"},"coordinates":[147,3892]},{"type":"Point","properties":{"Station_ID":"PHEW3","Station_Nam":"PHELPS","Latitude":"46.06630","Longitude":"-89.07520","Snowdepth":"1.000","Units":"in","Rept_Date":"2019-11-09 13"},"coordinates":[1903,5517]},{"type":"Point","properties":{"Station_ID":"PERV1","Station_Nam":"PERU","Latitude":"43.26670","Longitude":"-72.90000","Snowdepth":"1.000","Units":"in","Rept_Date":"2019-11-09 12"},"coordinates":[5821,3300]},{"type":"Point","properties":{"Station_ID":"PDGM4","Station_Nam":"PAULDING","Latitude":"46.39760","Longitude":"-89.17940","Snowdepth":"1.000","Units":"in","Rept_Date":"2019-11-09 13"},"coordinates":[1878,5779]},{"type":"Point","properties":{"Station_ID":"PA-VN-7","Station_Nam":"COOPERSTOWN 1.3 E, PA","Latitude":"41.50067","Longitude":"-79.84970","Snowdepth":"1.000","Units":"in","Rept_Date":"2019-11-09 12"},"coordinates":[4138,1902]},{"type":"Point","properties":{"Station_ID":"PA-PT-2","Station_Nam":"ROULETTE 1.8 NNE, PA","Latitude":"41.80759","Longitude":"-78.14140","Snowdepth":"1.000","Units":"in","Rept_Date":"2019-11-09 12"},"coordinates":[4552,2145]},{"type":"Point","properties":{"Station_ID":"PA-EL-1","Station_Nam":"ST. MARYS 1.7 SE, PA","Latitude":"41.41069","Longitude":"-78.53480","Snowdepth":"1.000","Units":"in","Rept_Date":"2019-11-09 11"},"coordinates":[4456,1831]},{"type":"Point","properties":{"Station_ID":"ONAM4","Station_Nam":"ONAWAY 4N","Latitude":"45.41080","Longitude":"-84.22330","Snowdepth":"1.000","Units":"in","Rept_Date":"2019-11-09 23"},"coordinates":[3078,4998]},{"type":"Point","properties":{"Station_ID":"OMWW3","Station_Nam":"OMRO - 2 SW","Latitude":"44.02080","Longitude":"-88.77970","Snowdepth":"1.000","Units":"in","Rept_Date":"2019-11-09 13"},"coordinates":[1975,3898]},{"type":"Point","properties":{"Station_ID":"OLNN6","Station_Nam":"OLEAN","Latitude":"42.07370","Longitude":"-78.45180","Snowdepth":"1.000","Units":"in","Rept_Date":"2019-11-09 12"},"coordinates":[4476,2356]},{"type":"Point","properties":{"Station_ID":"OCON6","Station_Nam":"OSCEOLA","Latitude":"43.49910","Longitude":"-75.71210","Snowdepth":"1.000","Units":"in","Rept_Date":"2019-11-09 12"},"coordinates":[5140,3484]},{"type":"Point","properties":{"Station_ID":"NY-YT-8","Station_Nam":"MIDDLESEX 3.5 S, NY","Latitude":"42.65390","Longitude":"-77.26600","Snowdepth":"1.000","Units":"in","Rept_Date":"2019-11-09 14"},"coordinates":[4764,2815]},{"type":"Point","properties":{"Station_ID":"NY-WY-10","Station_Nam":"WYOMING COOP, NY","Latitude":"42.82060","Longitude":"-78.14810","Snowdepth":"1.000","Units":"in","Rept_Date":"2019-11-09 12"},"coordinates":[4550,2947]},{"type":"Point","properties":{"Station_ID":"NY-TG-26","Station_Nam":"CANDOR 0.7 NW, NY","Latitude":"42.23428","Longitude":"-76.34758","Snowdepth":"1.000","Units":"in","Rept_Date":"2019-11-09 12"},"coordinates":[4986,2483]},{"type":"Point","properties":{"Station_ID":"NY-SY-1","Station_Nam":"SMITH VALLEY 1.9 SE, NY","Latitude":"42.39072","Longitude":"-76.71760","Snowdepth":"1.000","Units":"in","Rept_Date":"2019-11-09 12"},"coordinates":[4897,2607]},{"type":"Point","properties":{"Station_ID":"NY-ST-33","Station_Nam":"BATH 4.2 E, NY","Latitude":"42.33968","Longitude":"-77.23666","Snowdepth":"1.000","Units":"in","Rept_Date":"2019-11-09 12"},"coordinates":[4771,2566]},{"type":"Point","properties":{"Station_ID":"NY-ST-3","Station_Nam":"SOUTH CORNING 4.7 S, NY","Latitude":"42.05672","Longitude":"-77.04850","Snowdepth":"1.000","Units":"in","Rept_Date":"2019-11-09 14"},"coordinates":[4816,2342]},{"type":"Point","properties":{"Station_ID":"NY-OT-29","Station_Nam":"NEW BERLIN 1.5 NE, NY","Latitude":"42.63689","Longitude":"-75.31090","Snowdepth":"1.000","Units":"in","Rept_Date":"2019-11-09 12"},"coordinates":[5237,2802]},{"type":"Point","properties":{"Station_ID":"NY-ON-15","Station_Nam":"GENEVA COOP, NY","Latitude":"42.87660","Longitude":"-77.03080","Snowdepth":"1.000","Units":"in","Rept_Date":"2019-11-09 13"},"coordinates":[4821,2992]},{"type":"Point","properties":{"Station_ID":"NY-OG-46","Station_Nam":"BALDWINSVILLE 3.5 NE, NY","Latitude":"43.19506","Longitude":"-76.28830","Snowdepth":"1.000","Units":"in","Rept_Date":"2019-11-09 13"},"coordinates":[5001,3244]},{"type":"Point","properties":{"Station_ID":"NY-OG-2","Station_Nam":"DE WITT 1.4 WSW, NY","Latitude":"43.03333","Longitude":"-76.10000","Snowdepth":"1.000","Units":"in","Rept_Date":"2019-11-09 12"},"coordinates":[5046,3116]},{"type":"Point","properties":{"Station_ID":"NY-ER-77","Station_Nam":"COLDEN 2.4 ENE, NY","Latitude":"42.65088","Longitude":"-78.61060","Snowdepth":"1.000","Units":"in","Rept_Date":"2019-11-09 13"},"coordinates":[4438,2813]},{"type":"Point","properties":{"Station_ID":"NY-DL-32","Station_Nam":"DELHI 6.6 WNW, NY","Latitude":"42.32118","Longitude":"-75.02991","Snowdepth":"1.000","Units":"in","Rept_Date":"2019-11-09 12"},"coordinates":[5305,2552]},{"type":"Point","properties":{"Station_ID":"NY-DL-28","Station_Nam":"FLEISCHMANNS 5.7 N, NY","Latitude":"42.23779","Longitude":"-74.52335","Snowdepth":"1.000","Units":"in","Rept_Date":"2019-11-09 12"},"coordinates":[5428,2486]},{"type":"Point","properties":{"Station_ID":"NY-DL-25","Station_Nam":"HOBART 4.8 ESE, NY","Latitude":"42.35230","Longitude":"-74.57830","Snowdepth":"1.000","Units":"in","Rept_Date":"2019-11-09 12"},"coordinates":[5415,2576]},{"type":"Point","properties":{"Station_ID":"NY-DL-23","Station_Nam":"LONG EDDY 6.5 NNE, NY","Latitude":"41.93510","Longitude":"-75.07840","Snowdepth":"1.000","Units":"in","Rept_Date":"2019-11-09 13"},"coordinates":[5294,2246]},{"type":"Point","properties":{"Station_ID":"NY-CQ-34","Station_Nam":"KENNEDY 2.6 SE, NY","Latitude":"42.12567","Longitude":"-79.07235","Snowdepth":"1.000","Units":"in","Rept_Date":"2019-11-09 12"},"coordinates":[4326,2397]},{"type":"Point","properties":{"Station_ID":"NY-AL-2","Station_Nam":"WEST ALMOND 3.6 SW, NY","Latitude":"42.27055","Longitude":"-77.94190","Snowdepth":"1.000","Units":"in","Rept_Date":"2019-11-09 13"},"coordinates":[4600,2512]},{"type":"Point","properties":{"Station_ID":"NUMM5","Station_Nam":"NEW ULM 3SE","Latitude":"44.29450","Longitude":"-94.40840","Snowdepth":"1.000","Units":"in","Rept_Date":"2019-11-09 12"},"coordinates":[611,4114]},{"type":"Point","properties":{"Station_ID":"NTON6","Station_Nam":"NORTH TONAWANDA","Latitude":"43.05730","Longitude":"-78.86170","Snowdepth":"1.000","Units":"in","Rept_Date":"2019-11-09 12"},"coordinates":[4377,3135]},{"type":"Point","properties":{"Station_ID":"NSFN3","Station_Nam":"NORTH STRATFORD","Latitude":"44.68190","Longitude":"-71.58570","Snowdepth":"1.000","Units":"in","Rept_Date":"2019-11-09 12"},"coordinates":[6140,4421]},{"type":"Point","properties":{"Station_ID":"NPTV1","Station_Nam":"NEWPORT","Latitude":"44.94900","Longitude":"-72.19120","Snowdepth":"1.000","Units":"in","Rept_Date":"2019-11-09 12"},"coordinates":[5993,4632]},{"type":"Point","properties":{"Station_ID":"NONW3","Station_Nam":"NEW LONDON","Latitude":"44.35890","Longitude":"-88.71890","Snowdepth":"1.000","Units":"in","Rept_Date":"2019-11-09 12"},"coordinates":[1989,4165]},{"type":"Point","properties":{"Station_ID":"NOHM5","Station_Nam":"NORTHOME","Latitude":"47.83590","Longitude":"-94.25550","Snowdepth":"1.000","Units":"in","Rept_Date":"2019-11-09 13"},"coordinates":[648,6918]},{"type":"Point","properties":{"Station_ID":"MYOM4","Station_Nam":"MIO WWTP","Latitude":"44.64660","Longitude":"-84.11580","Snowdepth":"1.000","Units":"in","Rept_Date":"2019-11-09 13"},"coordinates":[3104,4393]},{"type":"Point","properties":{"Station_ID":"MWOW3","Station_Nam":"MUKWONAGO","Latitude":"42.85380","Longitude":"-88.43550","Snowdepth":"1.000","Units":"in","Rept_Date":"2019-11-09 13"},"coordinates":[2058,2974]},{"type":"Point","properties":{"Station_ID":"MTQM4","Station_Nam":"MANISTIQUE WWTP","Latitude":"45.95120","Longitude":"-86.25130","Snowdepth":"1.000","Units":"in","Rept_Date":"2019-11-09 12"},"coordinates":[2587,5426]},{"type":"Point","properties":{"Station_ID":"MSN","Station_Nam":"MADISON DANE COUNTY RGNL","Latitude":"43.13970","Longitude":"-89.33750","Snowdepth":"1.000","Units":"in","Rept_Date":"2019-11-10 00"},"coordinates":[1840,3200]},{"type":"Point","properties":{"Station_ID":"MQT","Station_Nam":"MARQUETTE, MI","Latitude":"46.53140","Longitude":"-87.54920","Snowdepth":"1.000","Units":"in","Rept_Date":"2019-11-10 06"},"coordinates":[2273,5885]},{"type":"Point","properties":{"Station_ID":"MNF74YNU","Station_Nam":"NEW ULM 3.3 ESE","Latitude":"44.29029","Longitude":"-94.40196","Snowdepth":"1.000","Units":"in","Rept_Date":"2019-11-09 11"},"coordinates":[613,4111]},{"type":"Point","properties":{"Station_ID":"MN6JKRHL","Station_Nam":"TOFTE 0.6 SSW","Latitude":"47.56557","Longitude":"-90.84117","Snowdepth":"1.000","Units":"in","Rept_Date":"2019-11-09 13"},"coordinates":[1475,6704]},{"type":"Point","properties":{"Station_ID":"MN-SL-15","Station_Nam":"CHISHOLM 0.4 WSW, MN","Latitude":"47.48557","Longitude":"-92.88690","Snowdepth":"1.000","Units":"in","Rept_Date":"2019-11-09 13"},"coordinates":[980,6641]},{"type":"Point","properties":{"Station_ID":"MN-SL-143","Station_Nam":"CANYON 4.6 NNE, MN","Latitude":"47.09800","Longitude":"-92.42170","Snowdepth":"1.000","Units":"in","Rept_Date":"2019-11-09 13"},"coordinates":[1092,6334]},{"type":"Point","properties":{"Station_ID":"MN-SL-105","Station_Nam":"DULUTH 11.8 NNE, MN","Latitude":"46.94680","Longitude":"-92.03925","Snowdepth":"1.000","Units":"in","Rept_Date":"2019-11-09 13"},"coordinates":[1185,6214]},{"type":"Point","properties":{"Station_ID":"MN-RC-11","Station_Nam":"NEW PRAGUE 4.8 ESE, MN","Latitude":"44.51999","Longitude":"-93.48470","Snowdepth":"1.000","Units":"in","Rept_Date":"2019-11-09 11"},"coordinates":[835,4293]},{"type":"Point","properties":{"Station_ID":"MN-RC-1","Station_Nam":"MONTGOMERY 3.2 ENE, MN","Latitude":"44.46400","Longitude":"-93.51980","Snowdepth":"1.000","Units":"in","Rept_Date":"2019-11-09 10"},"coordinates":[826,4248]},{"type":"Point","properties":{"Station_ID":"MN-IT-11","Station_Nam":"NASHWAUK 11.5 N, MN","Latitude":"47.54496","Longitude":"-93.19420","Snowdepth":"1.000","Units":"in","Rept_Date":"2019-11-09 13"},"coordinates":[905,6688]},{"type":"Point","properties":{"Station_ID":"MN-GH-28","Station_Nam":"CANNON FALLS 0.5 SE, MN","Latitude":"44.50866","Longitude":"-92.89526","Snowdepth":"1.000","Units":"in","Rept_Date":"2019-11-09 14"},"coordinates":[978,4284]},{"type":"Point","properties":{"Station_ID":"MIEM4","Station_Nam":"MICHIGAMME 3WNW","Latitude":"46.54530","Longitude":"-88.18000","Snowdepth":"1.000","Units":"in","Rept_Date":"2019-11-09 13"},"coordinates":[2120,5896]},{"type":"Point","properties":{"Station_ID":"MI-MQ-19","Station_Nam":"ISHPEMING 7.2 SW, MI","Latitude":"46.40550","Longitude":"-87.75670","Snowdepth":"1.000","Units":"in","Rept_Date":"2019-11-09 11"},"coordinates":[2222,5786]},{"type":"Point","properties":{"Station_ID":"MI-CP-7","Station_Nam":"DRUMMOND 2.9 NE, MI","Latitude":"46.05329","Longitude":"-83.69060","Snowdepth":"1.000","Units":"in","Rept_Date":"2019-11-09 14"},"coordinates":[3207,5507]},{"type":"Point","properties":{"Station_ID":"MECN6","Station_Nam":"MECKLENBURG 4 SW","Latitude":"42.44220","Longitude":"-76.75740","Snowdepth":"1.000","Units":"in","Rept_Date":"2019-11-09 12"},"coordinates":[4887,2648]},{"type":"Point","properties":{"Station_ID":"MDLM4","Station_Nam":"MIDLAND,MI","Latitude":"43.61670","Longitude":"-84.21670","Snowdepth":"1.000","Units":"in","Rept_Date":"2019-11-09 12"},"coordinates":[3080,3578]},{"type":"Point","properties":{"Station_ID":"MAPM4","Station_Nam":"MAPLE CITY 1E","Latitude":"44.85500","Longitude":"-85.83520","Snowdepth":"1.000","Units":"in","Rept_Date":"2019-11-10 00"},"coordinates":[2688,4558]},{"type":"Point","properties":{"Station_ID":"LUPM4","Station_Nam":"LUPTON 1S","Latitude":"44.41990","Longitude":"-84.02320","Snowdepth":"1.000","Units":"in","Rept_Date":"2019-11-09 13"},"coordinates":[3127,4214]},{"type":"Point","properties":{"Station_ID":"LTVN6","Station_Nam":"LITTLE VALLEY","Latitude":"42.24730","Longitude":"-78.81250","Snowdepth":"1.000","Units":"in","Rept_Date":"2019-11-09 12"},"coordinates":[4389,2493]},{"type":"Point","properties":{"Station_ID":"LPLN6","Station_Nam":"LAKE PLACID 2 S","Latitude":"44.30420","Longitude":"-73.98390","Snowdepth":"1.000","Units":"in","Rept_Date":"2019-11-09 13"},"coordinates":[5559,4122]},{"type":"Point","properties":{"Station_ID":"LOOW3","Station_Nam":"WATERLOO","Latitude":"43.18830","Longitude":"-88.98440","Snowdepth":"1.000","Units":"in","Rept_Date":"2019-11-09 14"},"coordinates":[1925,3238]},{"type":"Point","properties":{"Station_ID":"LNOW3","Station_Nam":"LAND O LAKES","Latitude":"46.19000","Longitude":"-89.45700","Snowdepth":"1.000","Units":"in","Rept_Date":"2019-11-09 13"},"coordinates":[1811,5615]},{"type":"Point","properties":{"Station_ID":"LKVN6","Station_Nam":"LAKE VIEW","Latitude":"42.73180","Longitude":"-78.92400","Snowdepth":"1.000","Units":"in","Rept_Date":"2019-11-09 13"},"coordinates":[4362,2877]},{"type":"Point","properties":{"Station_ID":"LEWM4","Station_Nam":"LEWISTON 3W","Latitude":"44.88210","Longitude":"-84.36540","Snowdepth":"1.000","Units":"in","Rept_Date":"2019-11-09 13"},"coordinates":[3044,4579]},{"type":"Point","properties":{"Station_ID":"LCRM5","Station_Nam":"LA CRESCENT DAM 7","Latitude":"43.86560","Longitude":"-91.31000","Snowdepth":"1.000","Units":"in","Rept_Date":"2019-11-09 14"},"coordinates":[1362,3775]},{"type":"Point","properties":{"Station_ID":"LBRM5","Station_Nam":"LAKE BRONSON DAM","Latitude":"48.72410","Longitude":"-96.62180","Snowdepth":"1.000","Units":"in","Rept_Date":"2019-11-09 14"},"coordinates":[75,7621]},{"type":"Point","properties":{"Station_ID":"KSYR","Station_Nam":"SYRACUSE HANCOCK INTERNATIONAL  AIRPORT","Latitude":"43.11666","Longitude":"-76.10000","Snowdepth":"1.000","Units":"in","Rept_Date":"2019-11-09 12"},"coordinates":[5046,3182]},{"type":"Point","properties":{"Station_ID":"KMSN","Station_Nam":"MADISON DANE COUNTY RGNL","Latitude":"43.13333","Longitude":"-89.35000","Snowdepth":"1.000","Units":"in","Rept_Date":"2019-11-10 00"},"coordinates":[1837,3195]},