{"type":"Topology","objects":{"snowdepth_geo":{"type":"GeometryCollection","name":"snowdepth","crs":{"type":"name","properties":{"name":"urn:ogc:def:crs:OGC:1.3:CRS84"}},"geometries":[{"type":"Point","properties":{"Station_ID":"MMSV1","Station_Nam":"MOUNT MANSFIELD","Latitude":"44.53330","Longitude":"-72.83330","Snowdepth":"80.000","Units":"in","Rept_Date":"2019-12-29 05"},"coordinates":[5728,2723]},{"type":"Point","properties":{"Station_ID":"PRKM4","Station_Nam":"MUNISING EAST","Latitude":"46.42580","Longitude":"-86.62000","Snowdepth":"76.500","Units":"in","Rept_Date":"2019-12-29 06"},"coordinates":[2492,4637]},{"type":"Point","properties":{"Station_ID":"OGIQ6","Station_Nam":"OGOKI CAMP","Latitude":"50.76680","Longitude":"-87.85820","Snowdepth":"61.100","Units":"in","Rept_Date":"2019-12-29 06"},"coordinates":[2202,9028]},{"type":"Point","properties":{"Station_ID":"AUDQ6","Station_Nam":"AUDEN","Latitude":"48.52600","Longitude":"-82.57570","Snowdepth":"47.640","Units":"in","Rept_Date":"2019-12-29 06"},"coordinates":[3441,6761]},{"type":"Point","properties":{"Station_ID":"QGO","Station_Nam":"QGO","Latitude":"48.85500","Longitude":"-74.20640","Snowdepth":"28.150","Units":"in","Rept_Date":"2019-12-28 12"},"coordinates":[5405,7094]},{"type":"Point","properties":{"Station_ID":"UPSW3","Station_Nam":"UPSON,WI","Latitude":"46.36780","Longitude":"-90.41220","Snowdepth":"28.000","Units":"in","Rept_Date":"2019-12-29 00"},"coordinates":[1602,4578]},{"type":"Point","properties":{"Station_ID":"QOU","Station_Nam":"QOU","Latitude":"50.79250","Longitude":"-69.67470","Snowdepth":"27.047","Units":"in","Rept_Date":"2019-12-28 12"},"coordinates":[6469,9054]},{"type":"Point","properties":{"Station_ID":"HURW3","Station_Nam":"HURLEY","Latitude":"46.46250","Longitude":"-90.19550","Snowdepth":"27.000","Units":"in","Rept_Date":"2019-12-28 14"},"coordinates":[1653,4674]},{"type":"Point","properties":{"Station_ID":"PDLM4","Station_Nam":"PAINESDALE","Latitude":"47.04160","Longitude":"-88.67170","Snowdepth":"26.000","Units":"in","Rept_Date":"2019-12-28 13"},"coordinates":[2011,5260]},{"type":"Point","properties":{"Station_ID":"QGD","Station_Nam":"QGD","Latitude":"51.11140","Longitude":"-67.13940","Snowdepth":"25.433","Units":"in","Rept_Date":"2019-12-28 12"},"coordinates":[7064,9376]},{"type":"Point","properties":{"Station_ID":"MLZ","Station_Nam":"MLZ","Latitude":"50.66170","Longitude":"-68.82360","Snowdepth":"24.882","Units":"in","Rept_Date":"2019-12-28 12"},"coordinates":[6669,8922]},{"type":"Point","properties":{"Station_ID":"IBLM5","Station_Nam":"ISABELLA 14W","Latitude":"47.59360","Longitude":"-91.65140","Snowdepth":"23.000","Units":"in","Rept_Date":"2019-12-28 15"},"coordinates":[1311,5818]},{"type":"Point","properties":{"Station_ID":"HVCN3","Station_Nam":"HARVARD CABIN SNOWPLOT","Latitude":"44.26630","Longitude":"-71.27790","Snowdepth":"23.000","Units":"in","Rept_Date":"2019-12-28 10"},"coordinates":[6093,2453]},{"type":"Point","properties":{"Station_ID":"QLB","Station_Nam":"QLB","Latitude":"50.72360","Longitude":"-75.10000","Snowdepth":"22.480","Units":"in","Rept_Date":"2019-12-28 12"},"coordinates":[5196,8984]},{"type":"Point","properties":{"Station_ID":"WLFM5","Station_Nam":"WOLF RIDGE ENVIRON LEARNING CENTER","Latitude":"47.38240","Longitude":"-91.19730","Snowdepth":"22.000","Units":"in","Rept_Date":"2019-12-28 13"},"coordinates":[1418,5604]},{"type":"Point","properties":{"Station_ID":"MI-BG-3","Station_Nam":"L'ANSE 17.8 SE, MI","Latitude":"46.55730","Longitude":"-88.20770","Snowdepth":"22.000","Units":"in","Rept_Date":"2019-12-28 13"},"coordinates":[2119,4770]},{"type":"Point","properties":{"Station_ID":"QCU","Station_Nam":"QCU","Latitude":"47.82750","Longitude":"-76.59830","Snowdepth":"21.772","Units":"in","Rept_Date":"2019-12-28 12"},"coordinates":[4844,6055]},{"type":"Point","properties":{"Station_ID":"WRSM5","Station_Nam":"WRENSHALL","Latitude":"46.61550","Longitude":"-92.38380","Snowdepth":"21.000","Units":"in","Rept_Date":"2019-12-28 14"},"coordinates":[1139,4829]},{"type":"Point","properties":{"Station_ID":"DLHM5","Station_Nam":"DULUTH NWS","Latitude":"46.83680","Longitude":"-92.21080","Snowdepth":"21.000","Units":"in","Rept_Date":"2019-12-29 06"},"coordinates":[1180,5053]},{"type":"Point","properties":{"Station_ID":"QCX","Station_Nam":"QCX","Latitude":"51.32830","Longitude":"-70.08060","Snowdepth":"20.236","Units":"in","Rept_Date":"2019-12-28 12"},"coordinates":[6374,9596]},{"type":"Point","properties":{"Station_ID":"QMD","Station_Nam":"QMD","Latitude":"49.29060","Longitude":"-75.84500","Snowdepth":"20.157","Units":"in","Rept_Date":"2019-12-28 12"},"coordinates":[5021,7535]},{"type":"Point","properties":{"Station_ID":"WI-IR-3","Station_Nam":"PENCE 0.1 E, WI","Latitude":"46.41555","Longitude":"-90.27013","Snowdepth":"20.000","Units":"in","Rept_Date":"2019-12-28 13"},"coordinates":[1635,4627]},{"type":"Point","properties":{"Station_ID":"TWOM5","Station_Nam":"TWO HARBORS,MN","Latitude":"47.12580","Longitude":"-91.70750","Snowdepth":"20.000","Units":"in","Rept_Date":"2019-12-29 01"},"coordinates":[1298,5345]},{"type":"Point","properties":{"Station_ID":"PHEW3","Station_Nam":"PHELPS","Latitude":"46.06630","Longitude":"-89.07520","Snowdepth":"20.000","Units":"in","Rept_Date":"2019-12-28 13"},"coordinates":[1916,4273]},{"type":"Point","properties":{"Station_ID":"DLH","Station_Nam":"DULUTH, MN","Latitude":"46.83690","Longitude":"-92.21030","Snowdepth":"20.000","Units":"in","Rept_Date":"2019-12-29 00"},"coordinates":[1180,5053]},{"type":"Point","properties":{"Station_ID":"NY-JF-30","Station_Nam":"WEST CARTHAGE 0.3 ENE, NY","Latitude":"43.97493","Longitude":"-75.61640","Snowdepth":"19.000","Units":"in","Rept_Date":"2019-12-28 12"},"coordinates":[5075,2158]},{"type":"Point","properties":{"Station_ID":"MQT","Station_Nam":"MARQUETTE, MI","Latitude":"46.53140","Longitude":"-87.54920","Snowdepth":"19.000","Units":"in","Rept_Date":"2019-12-29 06"},"coordinates":[2274,4744]},{"type":"Point","properties":{"Station_ID":"QFT","Station_Nam":"QFT","Latitude":"50.83280","Longitude":"-74.40390","Snowdepth":"18.779","Units":"in","Rept_Date":"2019-12-28 12"},"coordinates":[5359,9095]},{"type":"Point","properties":{"Station_ID":"QTV","Station_Nam":"QTV","Latitude":"49.66000","Longitude":"-69.35690","Snowdepth":"18.346","Units":"in","Rept_Date":"2019-12-28 12"},"coordinates":[6544,7908]},{"type":"Point","properties":{"Station_ID":"WI-WB-2","Station_Nam":"STONE LAKE 2.0 NW, WI","Latitude":"45.85960","Longitude":"-91.57710","Snowdepth":"18.000","Units":"in","Rept_Date":"2019-12-28 13"},"coordinates":[1329,4064]},{"type":"Point","properties":{"Station_ID":"QNCM4","Station_Nam":"QUINCY HILL","Latitude":"47.13640","Longitude":"-88.57950","Snowdepth":"18.000","Units":"in","Rept_Date":"2019-12-28 12"},"coordinates":[2032,5356]},{"type":"Point","properties":{"Station_ID":"KSGM4","Station_Nam":"KEARSARGE","Latitude":"47.27520","Longitude":"-88.41700","Snowdepth":"18.000","Units":"in","Rept_Date":"2019-12-28 13"},"coordinates":[2070,5496]},{"type":"Point","properties":{"Station_ID":"ILIM5","Station_Nam":"ISLAND LAKE","Latitude":"47.02400","Longitude":"-92.07000","Snowdepth":"18.000","Units":"in","Rept_Date":"2019-12-28 15"},"coordinates":[1213,5242]},{"type":"Point","properties":{"Station_ID":"MFU","Station_Nam":"MFU","Latitude":"51.52170","Longitude":"-66.91110","Snowdepth":"17.323","Units":"in","Rept_Date":"2019-12-28 12"},"coordinates":[7118,9791]},{"type":"Point","properties":{"Station_ID":"QCO","Station_Nam":"QCO","Latitude":"51.45280","Longitude":"-72.20110","Snowdepth":"17.244","Units":"in","Rept_Date":"2019-12-28 12"},"coordinates":[5876,9722]},{"type":"Point","properties":{"Station_ID":"WTRW3","Station_Nam":"WINTER","Latitude":"45.79920","Longitude":"-90.99470","Snowdepth":"17.000","Units":"in","Rept_Date":"2019-12-28 15"},"coordinates":[1465,4003]},{"type":"Point","properties":{"Station_ID":"MMNV1","Station_Nam":"MT. MANSFIELD","Latitude":"44.52480","Longitude":"-72.81540","Snowdepth":"17.000","Units":"in","Rept_Date":"2019-12-28 21"},"coordinates":[5732,2714]},{"type":"Point","properties":{"Station_ID":"QMA","Station_Nam":"QMA","Latitude":"50.10330","Longitude":"-70.47190","Snowdepth":"16.457","Units":"in","Rept_Date":"2019-12-28 12"},"coordinates":[6282,8357]},{"type":"Point","properties":{"Station_ID":"WI-VL-9","Station_Nam":"LAND O' LAKES 11.7 W, WI","Latitude":"46.19023","Longitude":"-89.45790","Snowdepth":"16.000","Units":"in","Rept_Date":"2019-12-28 13"},"coordinates":[1826,4399]},{"type":"Point","properties":{"Station_ID":"WI-VL-10","Station_Nam":"LAND O LAKES 4.3 WNW, WI","Latitude":"46.17440","Longitude":"-89.30380","Snowdepth":"16.000","Units":"in","Rept_Date":"2019-12-28 13"},"coordinates":[1862,4383]},{"type":"Point","properties":{"Station_ID":"WI-BY-2","Station_Nam":"MELLEN 18.6 SW, WI","Latitude":"46.16937","Longitude":"-90.98090","Snowdepth":"16.000","Units":"in","Rept_Date":"2019-12-28 13"},"coordinates":[1469,4377]},{"type":"Point","properties":{"Station_ID":"STGW3","Station_Nam":"ST GERMAIN","Latitude":"45.91550","Longitude":"-89.48940","Snowdepth":"16.000","Units":"in","Rept_Date":"2019-12-28 12"},"coordinates":[1819,4121]},{"type":"Point","properties":{"Station_ID":"PDGM4","Station_Nam":"PAULDING","Latitude":"46.39760","Longitude":"-89.17940","Snowdepth":"16.000","Units":"in","Rept_Date":"2019-12-28 13"},"coordinates":[1891,4608]},{"type":"Point","properties":{"Station_ID":"MN8JKXE2","Station_Nam":"PRAIRIE PORTAGE 5.2 SSW","Latitude":"47.97663","Longitude":"-91.46744","Snowdepth":"16.000","Units":"in","Rept_Date":"2019-12-28 12"},"coordinates":[1354,6206]},{"type":"Point","properties":{"Station_ID":"MAIW3","Station_Nam":"MADELINE ISLAND","Latitude":"46.78330","Longitude":"-90.76670","Snowdepth":"16.000","Units":"in","Rept_Date":"2019-12-28 14"},"coordinates":[1519,4998]},{"type":"Point","properties":{"Station_ID":"LNOW3","Station_Nam":"LAND O LAKES","Latitude":"46.19000","Longitude":"-89.45700","Snowdepth":"16.000","Units":"in","Rept_Date":"2019-12-28 13"},"coordinates":[1826,4398]},{"type":"Point","properties":{"Station_ID":"GNLM4","Station_Nam":"GREENLAND 6N","Latitude":"46.87360","Longitude":"-89.10060","Snowdepth":"16.000","Units":"in","Rept_Date":"2019-12-28 13"},"coordinates":[1910,5090]},{"type":"Point","properties":{"Station_ID":"CMKW3","Station_Nam":"CLAM LAKE 4W","Latitude":"46.16940","Longitude":"-90.98080","Snowdepth":"16.000","Units":"in","Rept_Date":"2019-12-28 13"},"coordinates":[1469,4378]},{"type":"Point","properties":{"Station_ID":"BNDM5","Station_Nam":"ELY 25E","Latitude":"47.97190","Longitude":"-91.44860","Snowdepth":"16.000","Units":"in","Rept_Date":"2019-12-28 13"},"coordinates":[1359,6201]},{"type":"Point","properties":{"Station_ID":"QYR","Station_Nam":"QYR","Latitude":"48.87220","Longitude":"-75.61470","Snowdepth":"15.945","Units":"in","Rept_Date":"2019-12-28 12"},"coordinates":[5075,7111]},{"type":"Point","properties":{"Station_ID":"SVBQ6","Station_Nam":"SAVANT BASE","Latitude":"50.28730","Longitude":"-90.65670","Snowdepth":"15.670","Units":"in","Rept_Date":"2019-12-29 06"},"coordinates":[1545,8543]},{"type":"Point","properties":{"Station_ID":"QWE","Station_Nam":"QWE","Latitude":"47.84610","Longitude":"-73.80670","Snowdepth":"15.394","Units":"in","Rept_Date":"2019-12-28 12"},"coordinates":[5499,6074]},{"type":"Point","properties":{"Station_ID":"TOGM5","Station_Nam":"CELINA 2E","Latitude":"47.86630","Longitude":"-93.02660","Snowdepth":"15.000","Units":"in","Rept_Date":"2019-12-28 14"},"coordinates":[989,6094]},{"type":"Point","properties":{"Station_ID":"KISM4","Station_Nam":"K.I. SAWYER WWTP","Latitude":"46.33410","Longitude":"-87.37790","Snowdepth":"15.000","Units":"in","Rept_Date":"2019-12-28 13"},"coordinates":[2314,4544]},{"type":"Point","properties":{"Station_ID":"EVRW3","Station_Nam":"EAGLE RIVER-4 E","Latitude":"45.91890","Longitude":"-89.15280","Snowdepth":"15.000","Units":"in","Rept_Date":"2019-12-28 13"},"coordinates":[1898,4124]},{"type":"Point","properties":{"Station_ID":"CRVW3","Station_Nam":"CRIVITZ HIGH FALLS","Latitude":"45.35750","Longitude":"-88.19190","Snowdepth":"15.000","Units":"in","Rept_Date":"2019-12-28 13"},"coordinates":[2123,3556]},{"type":"Point","properties":{"Station_ID":"QIQ","Station_Nam":"QIQ","Latitude":"49.82390","Longitude":"-68.54310","Snowdepth":"14.724","Units":"in","Rept_Date":"2019-12-28 12"},"coordinates":[6735,8074]},{"type":"Point","properties":{"Station_ID":"QLM","Station_Nam":"QLM","Latitude":"48.92030","Longitude":"-70.25280","Snowdepth":"14.370","Units":"in","Rept_Date":"2019-12-28 12"},"coordinates":[6333,7160]},{"type":"Point","properties":{"Station_ID":"WI-AS-4","Station_Nam":"ASHLAND 0.5 WNW, WI","Latitude":"46.58240","Longitude":"-90.88390","Snowdepth":"14.000","Units":"in","Rept_Date":"2019-12-28 13"},"coordinates":[1491,4795]},{"type":"Point","properties":{"Station_ID":"SUAW3","Station_Nam":"SUAMICO","Latitude":"44.60190","Longitude":"-88.09780","Snowdepth":"14.000","Units":"in","Rept_Date":"2019-12-28 12"},"coordinates":[2145,2792]},{"type":"Point","properties":{"Station_ID":"MNSM4","Station_Nam":"MUNISING","Latitude":"46.41210","Longitude":"-86.66250","Snowdepth":"14.000","Units":"in","Rept_Date":"2019-12-28 11"},"coordinates":[2482,4623]},{"type":"Point","properties":{"Station_ID":"CLGM5","Station_Nam":"COLLEGEVILLE ST JOHN","Latitude":"45.57940","Longitude":"-94.39200","Snowdepth":"14.000","Units":"in","Rept_Date":"2019-12-29 00"},"coordinates":[668,3781]},{"type":"Point","properties":{"Station_ID":"CGPM4","Station_Nam":"DOLLAR BAY","Latitude":"47.11670","Longitude":"-88.51370","Snowdepth":"14.000","Units":"in","Rept_Date":"2019-12-28 13"},"coordinates":[2048,5336]},{"type":"Point","properties":{"Station_ID":"AWXW3","Station_Nam":"ASHLAND","Latitude":"46.58240","Longitude":"-90.88390","Snowdepth":"14.000","Units":"in","Rept_Date":"2019-12-28 13"},"coordinates":[1491,4795]},{"type":"Point","properties":{"Station_ID":"PTLQ6","Station_Nam":"PORTAGE LAKE","Latitude":"49.06950","Longitude":"-86.65940","Snowdepth":"13.820","Units":"in","Rept_Date":"2019-12-29 06"},"coordinates":[2483,7311]},{"type":"Point","properties":{"Station_ID":"QTM","Station_Nam":"QTM","Latitude":"51.05780","Longitude":"-72.57190","Snowdepth":"13.819","Units":"in","Rept_Date":"2019-12-28 12"},"coordinates":[5789,9322]},{"type":"Point","properties":{"Station_ID":"MRL","Station_Nam":"MRL","Latitude":"51.28330","Longitude":"-68.84060","Snowdepth":"13.622","Units":"in","Rept_Date":"2019-12-28 12"},"coordinates":[6665,9550]},{"type":"Point","properties":{"Station_ID":"WI-BY-1","Station_Nam":"BAYFIELD 8.8 N, WI","Latitude":"46.93855","Longitude":"-90.83490","Snowdepth":"13.500","Units":"in","Rept_Date":"2019-12-28 13"},"coordinates":[1503,5156]},{"type":"Point","properties":{"Station_ID":"QLI","Station_Nam":"QLI","Latitude":"50.27080","Longitude":"-73.92280","Snowdepth":"13.386","Units":"in","Rept_Date":"2019-12-28 12"},"coordinates":[5472,8526]},{"type":"Point","properties":{"Station_ID":"RLKW3","Station_Nam":"REST LAKE","Latitude":"46.12220","Longitude":"-89.87720","Snowdepth":"13.000","Units":"in","Rept_Date":"2019-12-28 14"},"coordinates":[1728,4330]},{"type":"Point","properties":{"Station_ID":"NOHM5","Station_Nam":"NORTHOME","Latitude":"47.83590","Longitude":"-94.25550","Snowdepth":"13.000","Units":"in","Rept_Date":"2019-12-28 13"},"coordinates":[700,6063]},{"type":"Point","properties":{"Station_ID":"MNRG04NE","Station_Nam":"NORTHOME 2.5 SSE","Latitude":"47.83898","Longitude":"-94.25738","Snowdepth":"13.000","Units":"in","Rept_Date":"2019-12-28 13"},"coordinates":[700,6066]},{"type":"Point","properties":{"Station_ID":"MN-IT-23","Station_Nam":"BOVEY 13.4 N, MN","Latitude":"47.48855","Longitude":"-93.43497","Snowdepth":"13.000","Units":"in","Rept_Date":"2019-12-28 13"},"coordinates":[893,5712]},{"type":"Point","properties":{"Station_ID":"MN-BK-6","Station_Nam":"LAKE PARK 6.0 S, MN","Latitude":"46.79850","Longitude":"-96.12180","Snowdepth":"13.000","Units":"in","Rept_Date":"2019-12-28 13"},"coordinates":[262,5014]},{"type":"Point","properties":{"Station_ID":"MI-MQ-19","Station_Nam":"ISHPEMING 7.2 SW, MI","Latitude":"46.40550","Longitude":"-87.75670","Snowdepth":"13.000","Units":"in","Rept_Date":"2019-12-28 11"},"coordinates":[2225,4616]},{"type":"Point","properties":{"Station_ID":"LEIM5","Station_Nam":"ORR 3E","Latitude":"48.05810","Longitude":"-92.75220","Snowdepth":"13.000","Units":"in","Rept_Date":"2019-12-28 12"},"coordinates":[1053,6288]},{"type":"Point","properties":{"Station_ID":"HERM4","Station_Nam":"HERMAN,MI","Latitude":"46.65000","Longitude":"-88.33330","Snowdepth":"13.000","Units":"in","Rept_Date":"2019-12-28 13"},"coordinates":[2090,4864]},{"type":"Point","properties":{"Station_ID":"GLDM4","Station_Nam":"GLADSTONE NO. 2","Latitude":"45.84330","Longitude":"-87.03910","Snowdepth":"13.000","Units":"in","Rept_Date":"2019-12-28 12"},"coordinates":[2394,4048]},{"type":"Point","properties":{"Station_ID":"TRIQ6","Station_Nam":"TRIO LAKE","Latitude":"49.22880","Longitude":"-87.22920","Snowdepth":"12.950","Units":"in","Rept_Date":"2019-12-29 06"},"coordinates":[2349,7472]},{"type":"Point","properties":{"Station_ID":"DVLQ6","Station_Nam":"DEVIOUS LAKE","Latitude":"49.19890","Longitude":"-87.76440","Snowdepth":"12.830","Units":"in","Rept_Date":"2019-12-29 06"},"coordinates":[2224,7442]},{"type":"Point","properties":{"Station_ID":"CAN-NB-50","Station_Nam":"DOYLEVILLE 2.4 WNW, CAN","Latitude":"47.90803","Longitude":"-66.13279","Snowdepth":"12.800","Units":"in","Rept_Date":"2019-12-28 13"},"coordinates":[7300,6136]},{"type":"Point","properties":{"Station_ID":"KABQ6","Station_Nam":"CAB LAKE","Latitude":"49.59950","Longitude":"-89.17990","Snowdepth":"12.090","Units":"in","Rept_Date":"2019-12-29 06"},"coordinates":[1891,7847]},{"type":"Point","properties":{"Station_ID":"WTRM4","Station_Nam":"WATERSMEET 12WSW","Latitude":"46.22310","Longitude":"-89.40850","Snowdepth":"12.000","Units":"in","Rept_Date":"2019-12-28 12"},"coordinates":[1838,4432]},{"type":"Point","properties":{"Station_ID":"WRIM5","Station_Nam":"WRIGHT 3E","Latitude":"46.68040","Longitude":"-92.95420","Snowdepth":"12.000","Units":"in","Rept_Date":"2019-12-28 12"},"coordinates":[1006,4894]},{"type":"Point","properties":{"Station_ID":"WILW3","Station_Nam":"RESERVOIR","Latitude":"45.70000","Longitude":"-89.83330","Snowdepth":"12.000","Units":"in","Rept_Date":"2019-12-28 12"},"coordinates":[1738,3903]},{"type":"Point","properties":{"Station_ID":"WI-SR-5","Station_Nam":"HAYWARD 9.7 NE, WI","Latitude":"46.12030","Longitude":"-91.35370","Snowdepth":"12.000","Units":"in","Rept_Date":"2019-12-28 14"},"coordinates":[1381,4328]},{"type":"Point","properties":{"Station_ID":"WI-RS-1","Station_Nam":"LADYSMITH 2.8 WNW, WI","Latitude":"45.48180","Longitude":"-91.14680","Snowdepth":"12.000","Units":"in","Rept_Date":"2019-12-28 13"},"coordinates":[1430,3682]},{"type":"Point","properties":{"Station_ID":"WI-PR-2","Station_Nam":"BUTTERNUT 5.9 SW, WI","Latitude":"45.96501","Longitude":"-90.59750","Snowdepth":"12.000","Units":"in","Rept_Date":"2019-12-28 12"},"coordinates":[1559,4171]},{"type":"Point","properties":{"Station_ID":"MN9UO3KA","Station_Nam":"GAPPAS LANDING CG 3.8 N","Latitude":"48.49307","Longitude":"-93.03634","Snowdepth":"12.000","Units":"in","Rept_Date":"2019-12-28 13"},"coordinates":[986,6728]},{"type":"Point","properties":{"Station_ID":"MN49YOQ4","Station_Nam":"WRIGHT 3.9 NW","Latitude":"46.70182","Longitude":"-93.07461","Snowdepth":"12.000","Units":"in","Rept_Date":"2019-12-28 12"},"coordinates":[977,4916]},{"type":"Point","properties":{"Station_ID":"MN-BM-14","Station_Nam":"SOLWAY 2.1 S, MN","Latitude":"47.49069","Longitude":"-95.12177","Snowdepth":"12.000","Units":"in","Rept_Date":"2019-12-28 14"},"coordinates":[497,5714]},{"type":"Point","properties":{"Station_ID":"MN-AT-5","Station_Nam":"TAMARACK 1.4 SW, MN","Latitude":"46.63760","Longitude":"-93.14554","Snowdepth":"12.000","Units":"in","Rept_Date":"2019-12-28 11"},"coordinates":[961,4851]},{"type":"Point","properties":{"Station_ID":"KABM5","Station_Nam":"KABETOGAMA LAKE VISITOR CTR","Latitude":"48.40880","Longitude":"-93.04840","Snowdepth":"12.000","Units":"in","Rept_Date":"2019-12-28 13"},"coordinates":[983,6643]},{"type":"Point","properties":{"Station_ID":"GGRM4","Station_Nam":"GREEN GARDEN NO.2","Latitude":"46.45330","Longitude":"-87.30380","Snowdepth":"12.000","Units":"in","Rept_Date":"2019-12-28 14"},"coordinates":[2332,4665]},{"type":"Point","properties":{"Station_ID":"EGRW3","Station_Nam":"EAGLE RIVER-SOUTH","Latitude":"45.91360","Longitude":"-89.24360","Snowdepth":"12.000","Units":"in","Rept_Date":"2019-12-28 13"},"coordinates":[1876,4119]},{"type":"Point","properties":{"Station_ID":"CSLM5","Station_Nam":"CASS LAKE,MN","Latitude":"47.38470","Longitude":"-94.61470","Snowdepth":"12.000","Units":"in","Rept_Date":"2019-12-28 14"},"coordinates":[616,5607]},{"type":"Point","properties":{"Station_ID":"BFHW3","Station_Nam":"BAYFIELD FISH HATCHERY","Latitude":"46.78670","Longitude":"-90.86420","Snowdepth":"12.000","Units":"in","Rept_Date":"2019-12-28 14"},"coordinates":[1496,5002]},{"type":"Point","properties":{"Station_ID":"AURW3","Station_Nam":"AURORA","Latitude":"45.77000","Longitude":"-88.11810","Snowdepth":"12.000","Units":"in","Rept_Date":"2019-12-28 13"},"coordinates":[2141,3974]},{"type":"Point","properties":{"Station_ID":"ASTW3","Station_Nam":"ATHELSTANE","Latitude":"45.42500","Longitude":"-88.05750","Snowdepth":"12.000","Units":"in","Rept_Date":"2019-12-28 12"},"coordinates":[2155,3625]},{"type":"Point","properties":{"Station_ID":"WI-SR-1","Station_Nam":"HAYWARD 9.2 NNE, WI","Latitude":"46.13255","Longitude":"-91.40500","Snowdepth":"11.800","Units":"in","Rept_Date":"2019-12-28 12"},"coordinates":[1369,4340]},{"type":"Point","properties":{"Station_ID":"SOCQ6","Station_Nam":"SOCKET LAKE","Latitude":"50.77870","Longitude":"-91.79300","Snowdepth":"11.610","Units":"in","Rept_Date":"2019-12-29 06"},"coordinates":[1278,9040]},{"type":"Point","properties":{"Station_ID":"WI-ON-8","Station_Nam":"HAZELHURST 2.1 SSE, WI","Latitude":"45.78186","Longitude":"-89.70330","Snowdepth":"11.500","Units":"in","Rept_Date":"2019-12-28 13"},"coordinates":[1768,3986]},{"type":"Point","properties":{"Station_ID":"WI-BY-6","Station_Nam":"BARNES 2.2 S, WI","Latitude":"46.30264","Longitude":"-91.50320","Snowdepth":"11.500","Units":"in","Rept_Date":"2019-12-28 13"},"coordinates":[1346,4512]},{"type":"Point","properties":{"Station_ID":"ME-AR-23","Station_Nam":"MADAWASKA 2.5 E, ME","Latitude":"47.34933","Longitude":"-68.28141","Snowdepth":"11.500","Units":"in","Rept_Date":"2019-12-28 12"},"coordinates":[6796,5571]},{"type":"Point","properties":{"Station_ID":"QGA","Station_Nam":"QGA","Latitude":"47.25640","Longitude":"-73.73810","Snowdepth":"11.181","Units":"in","Rept_Date":"2019-12-28 12"},"coordinates":[5515,5477]},{"type":"Point","properties":{"Station_ID":"QLP","Station_Nam":"QLP","Latitude":"48.13920","Longitude":"-72.63830","Snowdepth":"11.024","Units":"in","Rept_Date":"2019-12-28 12"},"coordinates":[5774,6370]},{"type":"Point","properties":{"Station_ID":"WI-PR-8","Station_Nam":"PHILLIPS 0.4 SSW, WI","Latitude":"45.69086","Longitude":"-90.40200","Snowdepth":"11.000","Units":"in","Rept_Date":"2019-12-28 13"},"coordinates":[1605,3893]},{"type":"Point","properties":{"Station_ID":"WI-PR-6","Station_Nam":"PHILLIPS 1.3 S, WI","Latitude":"45.67677","Longitude":"-90.39543","Snowdepth":"11.000","Units":"in","Rept_Date":"2019-12-28 12"},"coordinates":[1606,3879]},{"type":"Point","properties":{"Station_ID":"SRAW3","Station_Nam":"SARONA","Latitude":"45.80250","Longitude":"-91.86700","Snowdepth":"11.000","Units":"in","Rept_Date":"2019-12-28 14"},"coordinates":[1261,4006]},{"type":"Point","properties":{"Station_ID":"ND-CS-25","Station_Nam":"FARGO 2.1 N, ND","Latitude":"46.90816","Longitude":"-96.77937","Snowdepth":"11.000","Units":"in","Rept_Date":"2019-12-28 14"},"coordinates":[108,5125]},{"type":"Point","properties":{"Station_ID":"MN3LTZND","Station_Nam":"BRAINERD 1.4 S","Latitude":"46.33224","Longitude":"-94.20905","Snowdepth":"11.000","Units":"in","Rept_Date":"2019-12-28 13"},"coordinates":[711,4542]},{"type":"Point","properties":{"Station_ID":"MN-SL-108","Station_Nam":"IRON JUNCTION 3.4 NNW, MN","Latitude":"47.46150","Longitude":"-92.63130","Snowdepth":"11.000","Units":"in","Rept_Date":"2019-12-28 14"},"coordinates":[1081,5685]},{"type":"Point","properties":{"Station_ID":"MN-IT-11","Station_Nam":"NASHWAUK 11.5 N, MN","Latitude":"47.54496","Longitude":"-93.19420","Snowdepth":"11.000","Units":"in","Rept_Date":"2019-12-28 13"},"coordinates":[949,5769]},{"type":"Point","properties":{"Station_ID":"MI-HG-6","Station_Nam":"CALUMET 5.8 ENE, MI","Latitude":"47.27200","Longitude":"-88.33400","Snowdepth":"11.000","Units":"in","Rept_Date":"2019-12-28 11"},"coordinates":[2090,5493]},{"type":"Point","properties":{"Station_ID":"MI-HG-1","Station_Nam":"HOUGHTON 1.6 ESE, MI","Latitude":"47.10774","Longitude":"-88.52940","Snowdepth":"11.000","Units":"in","Rept_Date":"2019-12-28 13"},"coordinates":[2044,5327]},{"type":"Point","properties":{"Station_ID":"KGFK","Station_Nam":"GRAND FORKS INTERNATIONAL","Latitude":"47.95000","Longitude":"-97.18333","Snowdepth":"11.000","Units":"in","Rept_Date":"2019-12-29 00"},"coordinates":[13,6179]},{"type":"Point","properties":{"Station_ID":"GNFM5","Station_Nam":"GUNFLINT LAKE","Latitude":"48.16670","Longitude":"-90.88750","Snowdepth":"11.000","Units":"in","Rept_Date":"2019-12-28 13"},"coordinates":[1491,6398]},{"type":"Point","properties":{"Station_ID":"GFK","Station_Nam":"GRAND FORKS INTERNATIONAL AIRPORT","Latitude":"47.94920","Longitude":"-97.17610","Snowdepth":"11.000","Units":"in","Rept_Date":"2019-12-29 00"},"coordinates":[15,6178]},{"type":"Point","properties":{"Station_ID":"ELYM5","Station_Nam":"ELY","Latitude":"47.90560","Longitude":"-91.82830","Snowdepth":"11.000","Units":"in","Rept_Date":"2019-12-28 14"},"coordinates":[1270,6134]},{"type":"Point","properties":{"Station_ID":"CNNW3","Station_Nam":"CRANDON","Latitude":"45.55110","Longitude":"-88.89830","Snowdepth":"11.000","Units":"in","Rept_Date":"2019-12-28 12"},"coordinates":[1957,3752]},{"type":"Point","properties":{"Station_ID":"BRAM5","Station_Nam":"BRAINERD","Latitude":"46.34320","Longitude":"-94.20900","Snowdepth":"11.000","Units":"in","Rept_Date":"2019-12-28 13"},"coordinates":[711,4553]},{"type":"Point","properties":{"Station_ID":"AVTW3","Station_Nam":"ARBOR VITAE-JOHNSON LAKE","Latitude":"45.89940","Longitude":"-89.72670","Snowdepth":"11.000","Units":"in","Rept_Date":"2019-12-28 12"},"coordinates":[1763,4104]},{"type":"Point","properties":{"Station_ID":"AGNW3","Station_Nam":"ARGONNE-1.5 NW","Latitude":"45.67360","Longitude":"-88.90380","Snowdepth":"11.000","Units":"in","Rept_Date":"2019-12-28 13"},"coordinates":[1956,3876]},{"type":"Point","properties":{"Station_ID":"WI-ON-6","Station_Nam":"RHINELANDER 5.2 N, WI","Latitude":"45.71388","Longitude":"-89.42150","Snowdepth":"10.000","Units":"in","Rept_Date":"2019-12-28 14"},"coordinates":[1835,3917]},{"type":"Point","properties":{"Station_ID":"TOHM5","Station_Nam":"TWO HARBORS WWTP","Latitude":"47.01760","Longitude":"-91.66480","Snowdepth":"10.000","Units":"in","Rept_Date":"2019-12-28 13"},"coordinates":[1308,5235]},{"type":"Point","properties":{"Station_ID":"TAKW3","Station_Nam":"RICE RESERVOIR NO. 2","Latitude":"45.53770","Longitude":"-89.73220","Snowdepth":"10.000","Units":"in","Rept_Date":"2019-12-28 13"},"coordinates":[1762,3739]},{"type":"Point","properties":{"Station_ID":"STMM4","Station_Nam":"STAMBAUGH 2SSE","Latitude":"46.05550","Longitude":"-88.62780","Snowdepth":"10.000","Units":"in","Rept_Date":"2019-12-28 13"},"coordinates":[2021,4262]},{"type":"Point","properties":{"Station_ID":"RARM4","Station_Nam":"RAPID RIVER 1 SW","Latitude":"45.91500","Longitude":"-86.98800","Snowdepth":"10.000","Units":"in","Rept_Date":"2019-12-28 12"},"coordinates":[2406,4120]},{"type":"Point","properties":{"Station_ID":"MN-CW-22","Station_Nam":"FORT RIPLEY 0.8 N, MN","Latitude":"46.18089","Longitude":"-94.36510","Snowdepth":"10.000","Units":"in","Rept_Date":"2019-12-28 13"},"coordinates":[674,4389]},{"type":"Point","properties":{"Station_ID":"MN-CK-3","Station_Nam":"TOFTE 4.9 NE, MN","Latitude":"47.62394","Longitude":"-90.76100","Snowdepth":"10.000","Units":"in","Rept_Date":"2019-12-28 13"},"coordinates":[1520,5849]},{"type":"Point","properties":{"Station_ID":"MN-BM-15","Station_Nam":"BEMIDJI 7.8 ENE, MN","Latitude":"47.52043","Longitude":"-94.72121","Snowdepth":"10.000","Units":"in","Rept_Date":"2019-12-28 13"},"coordinates":[591,5744]},{"type":"Point","properties":{"Station_ID":"INL","Station_Nam":"FALLS INTERNATIONAL ARPT","Latitude":"48.56640","Longitude":"-93.40310","Snowdepth":"10.000","Units":"in","Rept_Date":"2019-12-29 00"},"coordinates":[900,6802]},{"type":"Point","properties":{"Station_ID":"IFSM5","Station_Nam":"INTERNATIONAL FALLS SNOW","Latitude":"48.57780","Longitude":"-93.39640","Snowdepth":"10.000","Units":"in","Rept_Date":"2019-12-29 06"},"coordinates":[902,6814]},{"type":"Point","properties":{"Station_ID":"GRFN8","Station_Nam":"UNIVERSITY","Latitude":"47.93330","Longitude":"-97.08330","Snowdepth":"10.000","Units":"in","Rept_Date":"2019-12-29 06"},"coordinates":[36,6162]},{"type":"Point","properties":{"Station_ID":"COUW3","Station_Nam":"COUDERAY,WI","Latitude":"45.86670","Longitude":"-91.45000","Snowdepth":"10.000","Units":"in","Rept_Date":"2019-12-28 22"},"coordinates":[1359,4071]},{"type":"Point","properties":{"Station_ID":"CLKM4","Station_Nam":"CLARKSBURG","Latitude":"46.49910","Longitude":"-87.84500","Snowdepth":"10.000","Units":"in","Rept_Date":"2019-12-28 12"},"coordinates":[2205,4711]},{"type":"Point","properties":{"Station_ID":"QWG","Station_Nam":"QWG","Latitude":"48.48890","Longitude":"-73.45940","Snowdepth":"9.528","Units":"in","Rept_Date":"2019-12-28 12"},"coordinates":[5581,6724]},{"type":"Point","properties":{"Station_ID":"MN-IT-17","Station_Nam":"GRAND RAPIDS 6.1 N, MN","Latitude":"47.31165","Longitude":"-93.55036","Snowdepth":"9.500","Units":"in","Rept_Date":"2019-12-28 13"},"coordinates":[866,5533]},{"type":"Point","properties":{"Station_ID":"CATQ6","Station_Nam":"CAT LAKE","Latitude":"51.72690","Longitude":"-91.82210","Snowdepth":"9.410","Units":"in","Rept_Date":"2019-12-29 06"},"coordinates":[1271,9999]},{"type":"Point","properties":{"Station_ID":"WLKW3","Station_Nam":"WHITE LAKE 1 SE","Latitude":"45.14520","Longitude":"-88.74160","Snowdepth":"9.000","Units":"in","Rept_Date":"2019-12-28 14"},"coordinates":[1994,3342]},{"type":"Point","properties":{"Station_ID":"OTTM5","Station_Nam":"OTTERTAIL,MN","Latitude":"46.41670","Longitude":"-95.56670","Snowdepth":"9.000","Units":"in","Rept_Date":"2019-12-28 11"},"coordinates":[392,4628]},{"type":"Point","properties":{"Station_ID":"NCFM4","Station_Nam":"NEWBERRY CORRECTIONAL FACILITY","Latitude":"46.32850","Longitude":"-85.50360","Snowdepth":"9.000","Units":"in","Rept_Date":"2019-12-28 14"},"coordinates":[2754,4538]},{"type":"Point","properties":{"Station_ID":"MQRW3","Station_Nam":"MINOCQUA","Latitude":"45.88630","Longitude":"-89.73220","Snowdepth":"9.000","Units":"in","Rept_Date":"2019-12-28 12"},"coordinates":[1762,4091]},{"type":"Point","properties":{"Station_ID":"MNMQO9OI","Station_Nam":"OTTERTAIL 1.5 WNW","Latitude":"46.43378","Longitude":"-95.58416","Snowdepth":"9.000","Units":"in","Rept_Date":"2019-12-28 10"},"coordinates":[388,4645]},{"type":"Point","properties":{"Station_ID":"MN-DS-9","Station_Nam":"ALEXANDRIA 0.5 W, MN","Latitude":"45.87828","Longitude":"-95.38273","Snowdepth":"9.000","Units":"in","Rept_Date":"2019-12-28 12"},"coordinates":[436,4083]},{"type":"Point","properties":{"Station_ID":"MN-BK-10","Station_Nam":"DETROIT LAKES 5.7 N, MN","Latitude":"46.88666","Longitude":"-95.84444","Snowdepth":"9.000","Units":"in","Rept_Date":"2019-12-28 10"},"coordinates":[327,5103]},{"type":"Point","properties":{"Station_ID":"MA-MD-47","Station_Nam":"WEST TOWNSEND 0.5 W, MA","Latitude":"42.67623","Longitude":"-71.74983","Snowdepth":"9.000","Units":"in","Rept_Date":"2019-12-28 11"},"coordinates":[5982,844]},{"type":"Point","properties":{"Station_ID":"ESAM4","Station_Nam":"ESCANABA","Latitude":"45.74380","Longitude":"-87.04060","Snowdepth":"9.000","Units":"in","Rept_Date":"2019-12-28 12"},"coordinates":[2393,3947]},{"type":"Point","properties":{"Station_ID":"COTM5","Station_Nam":"COTTON","Latitude":"47.16870","Longitude":"-92.46290","Snowdepth":"9.000","Units":"in","Rept_Date":"2019-12-28 16"},"coordinates":[1121,5388]},{"type":"Point","properties":{"Station_ID":"COKM5","Station_Nam":"COOK","Latitude":"47.85060","Longitude":"-92.69250","Snowdepth":"9.000","Units":"in","Rept_Date":"2019-12-28 12"},"coordinates":[1067,6078]},{"type":"Point","properties":{"Station_ID":"CBVM1","Station_Nam":"CARRABASSETT VALLEY","Latitude":"45.08040","Longitude":"-70.30310","Snowdepth":"9.000","Units":"in","Rept_Date":"2019-12-28 12"},"coordinates":[6322,3276]},{"type":"Point","properties":{"Station_ID":"CAN-PE-19","Station_Nam":"CHARLOTTETOWN 6.5 NNW, CAN","Latitude":"46.29235","Longitude":"-63.17271","Snowdepth":"8.900","Units":"in","Rept_Date":"2019-12-28 12"},"coordinates":[7995,4502]},{"type":"Point","properties":{"Station_ID":"CAN-PE-25","Station_Nam":"CALEDONIA 1.8 SW, CAN","Latitude":"46.04593","Longitude":"-62.72266","Snowdepth":"8.700","Units":"in","Rept_Date":"2019-12-28 12"},"coordinates":[8101,4253]},{"type":"Point","properties":{"Station_ID":"CAN-NL-82","Station_Nam":"GANDER 2.7 NW, CAN","Latitude":"48.97737","Longitude":"-54.63396","Snowdepth":"8.700","Units":"in","Rept_Date":"2019-12-28 10"},"coordinates":[9999,7218]},{"type":"Point","properties":{"Station_ID":"WI-LN-2","Station_Nam":"MERRILL 7.0 W, WI","Latitude":"45.17746","Longitude":"-89.84820","Snowdepth":"8.500","Units":"in","Rept_Date":"2019-12-28 12"},"coordinates":[1734,3374]},{"type":"Point","properties":{"Station_ID":"MN-SL-139","Station_Nam":"DULUTH 1.2 SE, MN","Latitude":"46.77000","Longitude":"-92.08826","Snowdepth":"8.500","Units":"in","Rept_Date":"2019-12-28 12"},"coordinates":[1209,4985]},{"type":"Point","properties":{"Station_ID":"MN-PK-2","Station_Nam":"ERSKINE 7.6 SW, MN","Latitude":"47.58559","Longitude":"-96.12790","Snowdepth":"8.500","Units":"in","Rept_Date":"2019-12-28 14"},"coordinates":[261,5810]},{"type":"Point","properties":{"Station_ID":"MN-CW-29","Station_Nam":"BRAINERD 7.7 SSE, MN","Latitude":"46.24996","Longitude":"-94.14576","Snowdepth":"8.500","Units":"in","Rept_Date":"2019-12-28 13"},"coordinates":[726,4459]},{"type":"Point","properties":{"Station_ID":"CAN-NS-39","Station_Nam":"ST. ANNS 2.8 NW, CA","Latitude":"46.25082","Longitude":"-60.64340","Snowdepth":"8.500","Units":"in","Rept_Date":"2019-12-28 12"},"coordinates":[8589,4460]},{"type":"Point","properties":{"Station_ID":"FTHQ6","Station_Nam":"FORT HOPE","Latitude":"51.55820","Longitude":"-87.90510","Snowdepth":"8.310","Units":"in","Rept_Date":"2019-12-29 06"},"coordinates":[2191,9828]},{"type":"Point","properties":{"Station_ID":"MN-IT-7","Station_Nam":"GRAND RAPIDS 6.2 SSW, MN","Latitude":"47.13687","Longitude":"-93.56660","Snowdepth":"8.100","Units":"in","Rept_Date":"2019-12-28 12"},"coordinates":[862,5356]},{"type":"Point","properties":{"Station_ID":"ZNOM4","Station_Nam":"NORWAY","Latitude":"45.77810","Longitude":"-87.89560","Snowdepth":"8.000","Units":"in","Rept_Date":"2019-12-29 01"},"coordinates":[2193,3982]},{"type":"Point","properties":{"Station_ID":"WTNM4","Station_Nam":"WATTON 2WSW","Latitude":"46.52660","Longitude":"-88.64240","Snowdepth":"8.000","Units":"in","Rept_Date":"2019-12-28 13"},"coordinates":[2017,4739]},{"type":"Point","properties":{"Station_ID":"WLKM5","Station_Nam":"AH-GWAH-CHING","Latitude":"47.15000","Longitude":"-94.65000","Snowdepth":"8.000","Units":"in","Rept_Date":"2019-12-28 14"},"coordinates":[608,5369]},{"type":"Point","properties":{"Station_ID":"WI-MT-14","Station_Nam":"MOSINEE 2.7 WSW, WI","Latitude":"44.77240","Longitude":"-89.73441","Snowdepth":"8.000","Units":"in","Rept_Date":"2019-12-28 13"},"coordinates":[1761,2964]},{"type":"Point","properties":{"Station_ID":"WI-BR-2","Station_Nam":"CHETEK 2.0 SE, WI","Latitude":"45.29427","Longitude":"-91.62470","Snowdepth":"8.000","Units":"in","Rept_Date":"2019-12-28 13"},"coordinates":[1318,3492]},{"type":"Point","properties":{"Station_ID":"SSMM4","Station_Nam":"SAULT STE MARIE","Latitude":"46.48660","Longitude":"-84.40250","Snowdepth":"8.000","Units":"in","Rept_Date":"2019-12-28 13"},"coordinates":[3013,4698]},{"type":"Point","properties":{"Station_ID":"RHLW3","Station_Nam":"RHINELANDER 4NE","Latitude":"45.65270","Longitude":"-89.30740","Snowdepth":"8.000","Units":"in","Rept_Date":"2019-12-28 12"},"coordinates":[1861,3855]},{"type":"Point","properties":{"Station_ID":"MNP0GYWA","Station_Nam":"WALKER 2.0 SSE","Latitude":"47.07505","Longitude":"-94.56757","Snowdepth":"8.000","Units":"in","Rept_Date":"2019-12-28 14"},"coordinates":[627,5294]},{"type":"Point","properties":{"Station_ID":"MNLGGILP","Station_Nam":"LONG PRAIRIE 1.1 WSW","Latitude":"45.96913","Longitude":"-94.88686","Snowdepth":"8.000","Units":"in","Rept_Date":"2019-12-28 12"},"coordinates":[552,4175]},{"type":"Point","properties":{"Station_ID":"MN-SR-29","Station_Nam":"ALBANY 3.8 S, MN","Latitude":"45.57441","Longitude":"-94.55543","Snowdepth":"8.000","Units":"in","Rept_Date":"2019-12-28 13"},"coordinates":[630,3776]},{"type":"Point","properties":{"Station_ID":"MN-MR-13","Station_Nam":"LITTLE FALLS 8.0 NE, MN","Latitude":"46.06785","Longitude":"-94.24789","Snowdepth":"8.000","Units":"in","Rept_Date":"2019-12-28 13"},"coordinates":[702,4275]},{"type":"Point","properties":{"Station_ID":"MN-CK-18","Station_Nam":"GRAND MARAIS 4.4 WSW, MN","Latitude":"47.74462","Longitude":"-90.43796","Snowdepth":"8.000","Units":"in","Rept_Date":"2019-12-28 13"},"coordinates":[1596,5971]},{"type":"Point","properties":{"Station_ID":"MLLW3","Station_Nam":"MERRILL 8W","Latitude":"45.17810","Longitude":"-89.84810","Snowdepth":"8.000","Units":"in","Rept_Date":"2019-12-28 12"},"coordinates":[1735,3375]},{"type":"Point","properties":{"Station_ID":"MIEM4","Station_Nam":"MICHIGAMME 3WNW","Latitude":"46.54530","Longitude":"-88.18000","Snowdepth":"8.000","Units":"in","Rept_Date":"2019-12-28 13"},"coordinates":[2126,4758]},{"type":"Point","properties":{"Station_ID":"ME-AR-18","Station_Nam":"NEW SWEDEN 4.9 NNW, ME","Latitude":"47.01080","Longitude":"-68.14390","Snowdepth":"8.000","Units":"in","Rept_Date":"2019-12-28 12"},"coordinates":[6828,5229]},{"type":"Point","properties":{"Station_ID":"MCLN8","Station_Nam":"MC LEOD,ND","Latitude":"46.40250","Longitude":"-97.23810","Snowdepth":"8.000","Units":"in","Rept_Date":"2019-12-28 13"},"coordinates":[0,4613]},{"type":"Point","properties":{"Station_ID":"LNGM5","Station_Nam":"LONG PRAIRIE","Latitude":"45.96460","Longitude":"-94.88920","Snowdepth":"8.000","Units":"in","Rept_Date":"2019-12-28 12"},"coordinates":[551,4170]},{"type":"Point","properties":{"Station_ID":"JCBM4","Station_Nam":"JACOBSVILLE","Latitude":"47.00830","Longitude":"-88.43180","Snowdepth":"8.000","Units":"in","Rept_Date":"2019-12-28 12"},"coordinates":[2067,5226]},{"type":"Point","properties":{"Station_ID":"ISEM5","Station_Nam":"ISLE 12N","Latitude":"46.31970","Longitude":"-93.50140","Snowdepth":"8.000","Units":"in","Rept_Date":"2019-12-28 14"},"coordinates":[877,4530]},{"type":"Point","properties":{"Station_ID":"CAN-ON-245","Station_Nam":"PHELPSTON 3.1 ESE, CAN","Latitude":"44.50564","Longitude":"-79.81035","Snowdepth":"8.000","Units":"in","Rept_Date":"2019-12-28 12"},"coordinates":[4090,2695]},{"type":"Point","properties":{"Station_ID":"BAGM4","Station_Nam":"BARAGA 7NW","Latitude":"46.82100","Longitude":"-88.60590","Snowdepth":"8.000","Units":"in","Rept_Date":"2019-12-28 13"},"coordinates":[2026,5037]},{"type":"Point","properties":{"Station_ID":"ANJM4","Station_Nam":"SNOW PAID OBSERVER FOR KANJ","Latitude":"46.48670","Longitude":"-84.40260","Snowdepth":"8.000","Units":"in","Rept_Date":"2019-12-29 06"},"coordinates":[3013,4698]},{"type":"Point","properties":{"Station_ID":"ANJ","Station_Nam":"SAULT STE MARIE","Latitude":"46.46670","Longitude":"-84.36670","Snowdepth":"8.000","Units":"in","Rept_Date":"2019-12-29 00"},"coordinates":[3021,4678]},{"type":"Point","properties":{"Station_ID":"QGT","Station_Nam":"QGT","Latitude":"49.64720","Longitude":"-67.62640","Snowdepth":"7.677","Units":"in","Rept_Date":"2019-12-28 12"},"coordinates":[6950,7895]},{"type":"Point","properties":{"Station_ID":"MN-PK-15","Station_Nam":"MENTOR 2.5 SSW, MN","Latitude":"47.66625","Longitude":"-96.17328","Snowdepth":"7.500","Units":"in","Rept_Date":"2019-12-28 14"},"coordinates":[250,5892]},{"type":"Point","properties":{"Station_ID":"WI-EC-23","Station_Nam":"EAU CLAIRE 3.7 S, WI","Latitude":"44.76858","Longitude":"-91.49898","Snowdepth":"7.000","Units":"in","Rept_Date":"2019-12-28 14"},"coordinates":[1347,2961]},{"type":"Point","properties":{"Station_ID":"WI-CH-7","Station_Nam":"CHIPPEWA FALLS 1.2 E, WI","Latitude":"44.92920","Longitude":"-91.36730","Snowdepth":"7.000","Units":"in","Rept_Date":"2019-12-28 13"},"coordinates":[1378,3123]},{"type":"Point","properties":{"Station_ID":"SIBI4","Station_Nam":"SIBLEY","Latitude":"43.40470","Longitude":"-95.74830","Snowdepth":"7.000","Units":"in","Rept_Date":"2019-12-28 13"},"coordinates":[350,1581]},{"type":"Point","properties":{"Station_ID":"RHRW3","Station_Nam":"RHINELANDER WJFW TV-12","Latitude":"45.62220","Longitude":"-89.41000","Snowdepth":"7.000","Units":"in","Rept_Date":"2019-12-29 04"},"coordinates":[1837,3824]},{"type":"Point","properties":{"Station_ID":"RHI","Station_Nam":"RHINELANDER-ONEIDA COUNTY AIRPORT","Latitude":"45.63080","Longitude":"-89.46530","Snowdepth":"7.000","Units":"in","Rept_Date":"2019-12-28 12"},"coordinates":[1824,3833]},{"type":"Point","properties":{"Station_ID":"NY-HR-18","Station_Nam":"SALISBURY CENTER 1.8 NW, NY","Latitude":"43.16260","Longitude":"-74.80880","Snowdepth":"7.000","Units":"in","Rept_Date":"2019-12-28 11"},"coordinates":[5264,1336]},{"type":"Point","properties":{"Station_ID":"NH-CS-10","Station_Nam":"RANDOLPH 1.4 NE, NH","Latitude":"44.38824","Longitude":"-71.26950","Snowdepth":"7.000","Units":"in","Rept_Date":"2019-12-28 12"},"coordinates":[6095,2576]},{"type":"Point","properties":{"Station_ID":"MN-SH-10","Station_Nam":"BIG LAKE 5.6 NNE, MN","Latitude":"45.41409","Longitude":"-93.69190","Snowdepth":"7.000","Units":"in","Rept_Date":"2019-12-28 13"},"coordinates":[832,3614]},{"type":"Point","properties":{"Station_ID":"MN-MR-4","Station_Nam":"LITTLE FALLS 1.2 SW, MN","Latitude":"45.96886","Longitude":"-94.37720","Snowdepth":"7.000","Units":"in","Rept_Date":"2019-12-28 13"},"coordinates":[672,4175]},{"type":"Point","properties":{"Station_ID":"MN-IT-1","Station_Nam":"GRAND RAPIDS 2.0 E, MN","Latitude":"47.22266","Longitude":"-93.49600","Snowdepth":"7.000","Units":"in","Rept_Date":"2019-12-28 14"},"coordinates":[878,5443]},{"type":"Point","properties":{"Station_ID":"MN-CY-1","Station_Nam":"MOORHEAD 2.0 N, MN","Latitude":"46.88766","Longitude":"-96.74800","Snowdepth":"7.000","Units":"in","Rept_Date":"2019-12-28 13"},"coordinates":[115,5104]},{"type":"Point","properties":{"Station_ID":"MLCM5","Station_Nam":"MILACA","Latitude":"45.75320","Longitude":"-93.66170","Snowdepth":"7.000","Units":"in","Rept_Date":"2019-12-28 13"},"coordinates":[839,3957]},{"type":"Point","properties":{"Station_ID":"LBRM5","Station_Nam":"LAKE BRONSON DAM","Latitude":"48.72410","Longitude":"-96.62180","Snowdepth":"7.000","Units":"in","Rept_Date":"2019-12-28 14"},"coordinates":[145,6962]},{"type":"Point","properties":{"Station_ID":"GRBM5","Station_Nam":"GRAND RAPIDS 12N","Latitude":"47.39800","Longitude":"-93.51330","Snowdepth":"7.000","Units":"in","Rept_Date":"2019-12-28 13"},"coordinates":[874,5620]},{"type":"Point","properties":{"Station_ID":"FDRN8","Station_Nam":"FARGO 3S","Latitude":"46.82930","Longitude":"-96.79620","Snowdepth":"7.000","Units":"in","Rept_Date":"2019-12-29 06"},"coordinates":[104,5045]},{"type":"Point","properties":{"Station_ID":"FAR","Station_Nam":"HECTOR INTERNATIONAL ARPT","Latitude":"46.91560","Longitude":"-96.81440","Snowdepth":"7.000","Units":"in","Rept_Date":"2019-12-28 13"},"coordinates":[100,5132]},{"type":"Point","properties":{"Station_ID":"ABGW3","Station_Nam":"AMBERG 9 E","Latitude":"45.48250","Longitude":"-87.81190","Snowdepth":"7.000","Units":"in","Rept_Date":"2019-12-28 13"},"coordinates":[2212,3683]},{"type":"Point","properties":{"Station_ID":"WI-DN-15","Station_Nam":"MENOMONIE 0.9 NW, WI","Latitude":"44.89832","Longitude":"-91.92398","Snowdepth":"6.500","Units":"in","Rept_Date":"2019-12-28 13"},"coordinates":[1247,3092]},{"type":"Point","properties":{"Station_ID":"SD-CD-8","Station_Nam":"WATERTOWN 2.7 E, SD","Latitude":"44.90740","Longitude":"-97.11160","Snowdepth":"6.500","Units":"in","Rept_Date":"2019-12-28 16"},"coordinates":[30,3101]},{"type":"Point","properties":{"Station_ID":"MN-SH-985","Station_Nam":"PRINCETON 3.3 WSW, MN","Latitude":"45.55211","Longitude":"-93.64481","Snowdepth":"6.500","Units":"in","Rept_Date":"2019-12-28 11"},"coordinates":[843,3753]},{"type":"Point","properties":{"Station_ID":"CAN-PE-50","Station_Nam":"BEDFORD CORNER 3.9 WNW, CAN","Latitude":"46.34628","Longitude":"-63.06157","Snowdepth":"6.300","Units":"in","Rept_Date":"2019-12-28 11"},"coordinates":[8021,4556]},{"type":"Point","properties":{"Station_ID":"CAN-PE-20","Station_Nam":"BONSHAW 6.6 NNE, CAN","Latitude":"46.25082","Longitude":"-63.33409","Snowdepth":"6.300","Units":"in","Rept_Date":"2019-12-28 12"},"coordinates":[7957,4460]},{"type":"Point","properties":{"Station_ID":"CAN-PE-7","Station_Nam":"MORELL 1.4 NNW, CA","Latitude":"46.42741","Longitude":"-62.70870","Snowdepth":"6.200","Units":"in","Rept_Date":"2019-12-28 12"},"coordinates":[8104,4639]},{"type":"Point","properties":{"Station_ID":"WUNW3","Station_Nam":"WAUSAU-NORTHEAST","Latitude":"44.97310","Longitude":"-89.61690","Snowdepth":"6.000","Units":"in","Rept_Date":"2019-12-28 12"},"coordinates":[1789,3167]},{"type":"Point","properties":{"Station_ID":"WRTS2","Station_Nam":"WATERTOWN,SD","Latitude":"44.90280","Longitude":"-97.11360","Snowdepth":"6.000","Units":"in","Rept_Date":"2019-12-28 15"},"coordinates":[29,3096]},{"type":"Point","properties":{"Station_ID":"WMRM5","Station_Nam":"WILLMAR 5N","Latitude":"45.19010","Longitude":"-95.05860","Snowdepth":"6.000","Units":"in","Rept_Date":"2019-12-28 12"},"coordinates":[512,3387]},{"type":"Point","properties":{"Station_ID":"WLDM5","Station_Nam":"WILD RIVER STATE PARK","Latitude":"45.52310","Longitude":"-92.74890","Snowdepth":"6.000","Units":"in","Rept_Date":"2019-12-28 14"},"coordinates":[1054,3724]},{"type":"Point","properties":{"Station_ID":"WI-EC-5","Station_Nam":"ALTOONA 0.4 SW, WI","Latitude":"44.80128","Longitude":"-91.44819","Snowdepth":"6.000","Units":"in","Rept_Date":"2019-12-28 12"},"coordinates":[1359,2994]},{"type":"Point","properties":{"Station_ID":"WI-CH-3","Station_Nam":"CORNELL 4.1 W, WI","Latitude":"45.17024","Longitude":"-91.23610","Snowdepth":"6.000","Units":"in","Rept_Date":"2019-12-28 14"},"coordinates":[1409,3367]},{"type":"Point","properties":{"Station_ID":"VT-CL-3","Station_Nam":"GROTON 4.4 WSW, VT","Latitude":"44.19440","Longitude":"-72.28240","Snowdepth":"6.000","Units":"in","Rept_Date":"2019-12-28 11"},"coordinates":[5857,2380]},{"type":"Point","properties":{"Station_ID":"VANM1","Station_Nam":"VAN BUREN","Latitude":"47.16600","Longitude":"-67.93900","Snowdepth":"6.000","Units":"in","Rept_Date":"2019-12-28 12"},"coordinates":[6876,5386]},{"type":"Point","properties":{"Station_ID":"STRW3","Station_Nam":"STRATFORD 1NW","Latitude":"44.81750","Longitude":"-90.08990","Snowdepth":"6.000","Units":"in","Rept_Date":"2019-12-28 13"},"coordinates":[1678,3010]},{"type":"Point","properties":{"Station_ID":"SAUW3","Station_Nam":"WAUSAU WSAW TV","Latitude":"44.94630","Longitude":"-89.62220","Snowdepth":"6.000","Units":"in","Rept_Date":"2019-12-29 05"},"coordinates":[1788,3140]},{"type":"Point","properties":{"Station_ID":"RSTW3","Station_Nam":"ROSHOLT","Latitude":"44.62710","Longitude":"-89.30600","Snowdepth":"6.000","Units":"in","Rept_Date":"2019-12-28 13"},"coordinates":[1862,2817]},{"type":"Point","properties":{"Station_ID":"RRLW3","Station_Nam":"MERRILL,WI","Latitude":"45.17860","Longitude":"-89.66170","Snowdepth":"6.000","Units":"in","Rept_Date":"2019-12-28 14"},"coordinates":[1778,3375]},{"type":"Point","properties":{"Station_ID":"RCEM5","Station_Nam":"RICE","Latitude":"45.75760","Longitude":"-94.20720","Snowdepth":"6.000","Units":"in","Rept_Date":"2019-12-28 13"},"coordinates":[711,3961]},{"type":"Point","properties":{"Station_ID":"MRAM5","Station_Nam":"MORA","Latitude":"45.87760","Longitude":"-93.31470","Snowdepth":"6.000","Units":"in","Rept_Date":"2019-12-28 13"},"coordinates":[921,4082]},{"type":"Point","properties":{"Station_ID":"MNMC0BBE","Station_Nam":"BRECKENRIDGE 3.1 E","Latitude":"46.25468","Longitude":"-96.52093","Snowdepth":"6.000","Units":"in","Rept_Date":"2019-12-28 11"},"coordinates":[168,4464]},{"type":"Point","properties":{"Station_ID":"MNJLCQKL","Station_Nam":"KIMBALL 2.6 NNW","Latitude":"45.34917","Longitude":"-94.31303","Snowdepth":"6.000","Units":"in","Rept_Date":"2019-12-28 12"},"coordinates":[687,3548]},{"type":"Point","properties":{"Station_ID":"MNEY8CTB","Station_Nam":"MIDLAND JUNCTION 2.2 ENE","Latitude":"44.33041","Longitude":"-91.95891","Snowdepth":"6.000","Units":"in","Rept_Date":"2019-12-28 14"},"coordinates":[1239,2517]},{"type":"Point","properties":{"Station_ID":"MN228RRE","Station_Nam":"RICE 0.8 ENE","Latitude":"45.75724","Longitude":"-94.20638","Snowdepth":"6.000","Units":"in","Rept_Date":"2019-12-28 13"},"coordinates":[712,3961]},{"type":"Point","properties":{"Station_ID":"MN-HN-6","Station_Nam":"LONG LAKE 0.2 WSW, MN","Latitude":"44.98290","Longitude":"-93.57360","Snowdepth":"6.000","Units":"in","Rept_Date":"2019-12-28 13"},"coordinates":[860,3177]},{"type":"Point","properties":{"Station_ID":"MN-CK-6","Station_Nam":"GRAND MARAIS 4.4 W, MN","Latitude":"47.74865","Longitude":"-90.43760","Snowdepth":"6.000","Units":"in","Rept_Date":"2019-12-28 13"},"coordinates":[1596,5975]},{"type":"Point","properties":{"Station_ID":"MI-DL-4","Station_Nam":"GLADSTONE 2.1 SW, MI","Latitude":"45.83218","Longitude":"-87.05727","Snowdepth":"6.000","Units":"in","Rept_Date":"2019-12-28 12"},"coordinates":[2389,4036]},{"type":"Point","properties":{"Station_ID":"KIMM5","Station_Nam":"KIMBALL 3N","Latitude":"45.35330","Longitude":"-94.30560","Snowdepth":"6.000","Units":"in","Rept_Date":"2019-12-28 12"},"coordinates":[688,3552]},{"type":"Point","properties":{"Station_ID":"HOLW3","Station_Nam":"HOLCOMBE","Latitude":"45.22370","Longitude":"-91.12700","Snowdepth":"6.000","Units":"in","Rept_Date":"2019-12-28 13"},"coordinates":[1434,3421]},{"type":"Point","properties":{"Station_ID":"EPTW3","Station_Nam":"EAU PLEINE TENDER","Latitude":"44.77220","Longitude":"-89.76720","Snowdepth":"6.000","Units":"in","Rept_Date":"2019-12-28 13"},"coordinates":[1753,2964]},{"type":"Point","properties":{"Station_ID":"DTVM4","Station_Nam":"DETOUR VILLAGE","Latitude":"45.99830","Longitude":"-83.90130","Snowdepth":"6.000","Units":"in","Rept_Date":"2019-12-28 13"},"coordinates":[3130,4204]},{"type":"Point","properties":{"Station_ID":"BKEM5","Station_Nam":"BRECKENRIDGE 4NE","Latitude":"46.30470","Longitude":"-96.52170","Snowdepth":"6.000","Units":"in","Rept_Date":"2019-12-28 11"},"coordinates":[168,4514]},{"type":"Point","properties":{"Station_ID":"AVLV1","Station_Nam":"AVERILL","Latitude":"45.00570","Longitude":"-71.69030","Snowdepth":"6.000","Units":"in","Rept_Date":"2019-12-28 13"},"coordinates":[5996,3200]},{"type":"Point","properties":{"Station_ID":"ATY","Station_Nam":"WATERTOWN MUNICIPAL AIRPORT","Latitude":"44.91420","Longitude":"-97.15440","Snowdepth":"6.000","Units":"in","Rept_Date":"2019-12-28 12"},"coordinates":[20,3108]},{"type":"Point","properties":{"Station_ID":"CAN-PE-43","Station_Nam":"GLENCOE 0.3 W, CAN","Latitude":"46.20115","Longitude":"-62.81740","Snowdepth":"5.900","Units":"in","Rept_Date":"2019-12-28 12"},"coordinates":[8078,4410]},{"type":"Point","properties":{"Station_ID":"SD-CD-30","Station_Nam":"WATERTOWN 2.3 E, SD","Latitude":"44.91604","Longitude":"-97.11925","Snowdepth":"5.500","Units":"in","Rept_Date":"2019-12-28 14"},"coordinates":[28,3110]},{"type":"Point","properties":{"Station_ID":"CAN-NB-105","Station_Nam":"SISSON BROOK 3.8 E, CAN","Latitude":"46.98305","Longitude":"-67.32532","Snowdepth":"5.500","Units":"in","Rept_Date":"2019-12-28 12"},"coordinates":[7020,5201]},{"type":"Point","properties":{"Station_ID":"WRUM5","Station_Nam":"WARROAD 4W","Latitude":"48.89600","Longitude":"-95.40700","Snowdepth":"5.000","Units":"in","Rept_Date":"2019-12-29 04"},"coordinates":[430,7136]},{"type":"Point","properties":{"Station_ID":"WHTM5","Station_Nam":"WHEATON,MN","Latitude":"45.80000","Longitude":"-96.48330","Snowdepth":"5.000","Units":"in","Rept_Date":"2019-12-28 14"},"coordinates":[177,4004]},{"type":"Point","properties":{"Station_ID":"WDOM5","Station_Nam":"WINDOM","Latitude":"43.87700","Longitude":"-95.11590","Snowdepth":"5.000","Units":"in","Rept_Date":"2019-12-28 14"},"coordinates":[498,2059]},{"type":"Point","properties":{"Station_ID":"VT-OL-1","Station_Nam":"WESTFIELD 0.7 WNW, VT","Latitude":"44.89160","Longitude":"-72.44350","Snowdepth":"5.000","Units":"in","Rept_Date":"2019-12-28 12"},"coordinates":[5819,3085]},{"type":"Point","properties":{"Station_ID":"STC","Station_Nam":"ST. CLOUD REGIONAL AIRPORT","Latitude":"45.54330","Longitude":"-94.05140","Snowdepth":"5.000","Units":"in","Rept_Date":"2019-12-28 12"},"coordinates":[748,3744]},{"type":"Point","properties":{"Station_ID":"SCSM5","Station_Nam":"ST CLOUD STATE","Latitude":"45.55100","Longitude":"-94.14950","Snowdepth":"5.000","Units":"in","Rept_Date":"2019-12-28 12"},"coordinates":[725,3752]},{"type":"Point","properties":{"Station_ID":"RRVM4","Station_Nam":"RAPID RIVER 9S","Latitude":"45.78750","Longitude":"-86.93920","Snowdepth":"5.000","Units":"in","Rept_Date":"2019-12-28 16"},"coordinates":[2417,3991]},{"type":"Point","properties":{"Station_ID":"RGNM1","Station_Nam":"RANGELEY 2NW","Latitude":"44.98940","Longitude":"-70.67220","Snowdepth":"5.000","Units":"in","Rept_Date":"2019-12-28 15"},"coordinates":[6235,3184]},{"type":"Point","properties":{"Station_ID":"RFDM5","Station_Nam":"ROCKFORD","Latitude":"45.08960","Longitude":"-93.73990","Snowdepth":"5.000","Units":"in","Rept_Date":"2019-12-28 13"},"coordinates":[821,3285]},{"type":"Point","properties":{"Station_ID":"RANM1","Station_Nam":"RANGELEY,ME","Latitude":"44.96670","Longitude":"-70.65000","Snowdepth":"5.000","Units":"in","Rept_Date":"2019-12-28 15"},"coordinates":[6240,3161]},{"type":"Point","properties":{"Station_ID":"MRAM4","Station_Nam":"MORAN","Latitude":"45.99030","Longitude":"-84.83610","Snowdepth":"5.000","Units":"in","Rept_Date":"2019-12-28 13"},"coordinates":[2911,4196]},{"type":"Point","properties":{"Station_ID":"MN228YHJ","Station_Nam":"RICE 2.8 ESE","Latitude":"45.73609","Longitude":"-94.17230","Snowdepth":"5.000","Units":"in","Rept_Date":"2019-12-28 13"},"coordinates":[720,3939]},{"type":"Point","properties":{"Station_ID":"MN-WR-40","Station_Nam":"CLEARWATER 5.4 SSE, MN","Latitude":"45.34795","Longitude":"-94.03374","Snowdepth":"5.000","Units":"in","Rept_Date":"2019-12-28 14"},"coordinates":[752,3547]},{"type":"Point","properties":{"Station_ID":"MLRM5","Station_Nam":"MELROSE","Latitude":"45.67710","Longitude":"-94.80200","Snowdepth":"5.000","Units":"in","Rept_Date":"2019-12-28 13"},"coordinates":[572,3880]},{"type":"Point","properties":{"Station_ID":"MI-AT-6","Station_Nam":"MANCELONA 0.5 ESE, MI","Latitude":"44.89981","Longitude":"-85.05100","Snowdepth":"5.000","Units":"in","Rept_Date":"2019-12-28 13"},"coordinates":[2860,3093]},{"type":"Point","properties":{"Station_ID":"ME-FR-4","Station_Nam":"NEW SHARON 2.0 NW, ME","Latitude":"44.66582","Longitude":"-70.02720","Snowdepth":"5.000","Units":"in","Rept_Date":"2019-12-28 12"},"coordinates":[6386,2857]},{"type":"Point","properties":{"Station_ID":"LPLN6","Station_Nam":"LAKE PLACID 2 S","Latitude":"44.30420","Longitude":"-73.98390","Snowdepth":"5.000","Units":"in","Rept_Date":"2019-12-28 13"},"coordinates":[5458,2491]},{"type":"Point","properties":{"Station_ID":"LGRN8","Station_Nam":"LIDGERWOOD,ND","Latitude":"46.06670","Longitude":"-97.16670","Snowdepth":"5.000","Units":"in","Rept_Date":"2019-12-28 13"},"coordinates":[17,4274]},{"type":"Point","properties":{"Station_ID":"LBKV1","Station_Nam":"LYE BROOK","Latitude":"43.05000","Longitude":"-73.03330","Snowdepth":"5.000","Units":"in","Rept_Date":"2019-12-29 06"},"coordinates":[5681,1222]},{"type":"Point","properties":{"Station_ID":"HUBN3","Station_Nam":"HUBBARD BROOK","Latitude":"43.93330","Longitude":"-71.71670","Snowdepth":"5.000","Units":"in","Rept_Date":"2019-12-29 06"},"coordinates":[5990,2116]},{"type":"Point","properties":{"Station_ID":"FORM5","Station_Nam":"FOREST LAKE 5NE","Latitude":"45.33170","Longitude":"-92.89820","Snowdepth":"5.000","Units":"in","Rept_Date":"2019-12-28 13"},"coordinates":[1019,3530]},{"type":"Point","properties":{"Station_ID":"ETTW3","Station_Nam":"ETTRICK 4WNW","Latitude":"44.19000","Longitude":"-91.34240","Snowdepth":"5.000","Units":"in","Rept_Date":"2019-12-28 14"},"coordinates":[1384,2375]},{"type":"Point","properties":{"Station_ID":"EJNM4","Station_Nam":"EAST JORDAN 2NW","Latitude":"45.18630","Longitude":"-85.14770","Snowdepth":"5.000","Units":"in","Rept_Date":"2019-12-28 13"},"coordinates":[2838,3383]},{"type":"Point","properties":{"Station_ID":"EAU","Station_Nam":"CHIPPEWA VALLEY REGIONAL AIRPORT","Latitude":"44.86650","Longitude":"-91.48790","Snowdepth":"5.000","Units":"in","Rept_Date":"2019-12-29 00"},"coordinates":[1350,3060]},{"type":"Point","properties":{"Station_ID":"CORV1","Station_Nam":"CORINTH","Latitude":"44.00690","Longitude":"-72.31940","Snowdepth":"5.000","Units":"in","Rept_Date":"2019-12-28 12"},"coordinates":[5848,2190]},{"type":"Point","properties":{"Station_ID":"CAN-NS-74","Station_Nam":"BADDECK FORKS 2.5 E, CAN","Latitude":"46.18550","Longitude":"-60.73426","Snowdepth":"5.000","Units":"in","Rept_Date":"2019-12-28 12"},"coordinates":[8567,4394]},{"type":"Point","properties":{"Station_ID":"BREW3","Station_Nam":"SURING","Latitude":"44.99580","Longitude":"-88.37860","Snowdepth":"5.000","Units":"in","Rept_Date":"2019-12-28 13"},"coordinates":[2079,3190]},{"type":"Point","properties":{"Station_ID":"BRDM1","Station_Nam":"BRIDGEWATER","Latitude":"46.42870","Longitude":"-67.84370","Snowdepth":"5.000","Units":"in","Rept_Date":"2019-12-28 23"},"coordinates":[6899,4640]},{"type":"Point","properties":{"Station_ID":"BMRW3","Station_Nam":"BLOOMER","Latitude":"45.09070","Longitude":"-91.48640","Snowdepth":"5.000","Units":"in","Rept_Date":"2019-12-28 14"},"coordinates":[1350,3286]},{"type":"Point","properties":{"Station_ID":"CAN-PE-47","Station_Nam":"LONG CREEK 0.3 NNW, CAN","Latitude":"46.17420","Longitude":"-63.27320","Snowdepth":"4.700","Units":"in","Rept_Date":"2019-12-28 12"},"coordinates":[7971,4382]},{"type":"Point","properties":{"Station_ID":"WI-PT-8","Station_Nam":"RUDOLPH 2.1 NNE, WI","Latitude":"44.52553","Longitude":"-89.78677","Snowdepth":"4.500","Units":"in","Rept_Date":"2019-12-28 11"},"coordinates":[1749,2715]},{"type":"Point","properties":{"Station_ID":"NY-SR-22","Station_Nam":"GREENFIELD CENTER 1.6 W, NY","Latitude":"43.12684","Longitude":"-73.87860","Snowdepth":"4.500","Units":"in","Rept_Date":"2019-12-28 13"},"coordinates":[5482,1300]},{"type":"Point","properties":{"Station_ID":"NY-AB-1","Station_Nam":"ALTAMONT 2.7 SSW, NY","Latitude":"42.66696","Longitude":"-74.05090","Snowdepth":"4.500","Units":"in","Rept_Date":"2019-12-28 12"},"coordinates":[5442,835]},{"type":"Point","properties":{"Station_ID":"MN-DK-73","Station_Nam":"LAKEVILLE 2.6 NNE, MN","Latitude":"44.71250","Longitude":"-93.23043","Snowdepth":"4.500","Units":"in","Rept_Date":"2019-12-28 13"},"coordinates":[941,2904]},{"type":"Point","properties":{"Station_ID":"MN-AA-56","Station_Nam":"BLAINE 2.2 NNW, MN","Latitude":"45.19838","Longitude":"-93.22812","Snowdepth":"4.500","Units":"in","Rept_Date":"2019-12-28 13"},"coordinates":[941,3395]},{"type":"Point","properties":{"Station_ID":"MI-CX-7","Station_Nam":"EAST JORDAN 2.1 NNW, MI","Latitude":"45.18639","Longitude":"-85.14750","Snowdepth":"4.500","Units":"in","Rept_Date":"2019-12-28 13"},"coordinates":[2838,3383]},{"type":"Point","properties":{"Station_ID":"MI-CP-14","Station_Nam":"SAULT STE. MARIE 2.2 E, MI","Latitude":"46.48933","Longitude":"-84.31971","Snowdepth":"4.500","Units":"in","Rept_Date":"2019-12-28 13"},"coordinates":[3032,4701]},{"type":"Point","properties":{"Station_ID":"ME-PN-45","Station_Nam":"MILLINOCKET 2.7 ESE, ME","Latitude":"45.65002","Longitude":"-68.64472","Snowdepth":"4.500","Units":"in","Rept_Date":"2019-12-28 13"},"coordinates":[6711,3852]},{"type":"Point","properties":{"Station_ID":"CAN-PE-3","Station_Nam":"WELLINGTON 1.6 NE, CA","Latitude":"46.46672","Longitude":"-63.98920","Snowdepth":"4.500","Units":"in","Rept_Date":"2019-12-28 11"},"coordinates":[7803,4678]},{"type":"Point","properties":{"Station_ID":"CAN-MB-32","Station_Nam":"PINAWA 1.0 SW, CA","Latitude":"50.14747","Longitude":"-95.89020","Snowdepth":"4.500","Units":"in","Rept_Date":"2019-12-28 13"},"coordinates":[316,8401]},{"type":"Point","properties":{"Station_ID":"CAN-ON-757","Station_Nam":"SAULT STE. MARIE 2.8 ESE - GLFC, CAN","Latitude":"46.50300","Longitude":"-84.30300","Snowdepth":"4.100","Units":"in","Rept_Date":"2019-12-28 13"},"coordinates":[3036,4715]},{"type":"Point","properties":{"Station_ID":"WNNM5","Station_Nam":"WINNEBAGO","Latitude":"43.76920","Longitude":"-94.18730","Snowdepth":"4.000","Units":"in","Rept_Date":"2019-12-28 13"},"coordinates":[716,1950]},{"type":"Point","properties":{"Station_ID":"WI-PC-5","Station_Nam":"RIVER FALLS 1.2 SSW, WI","Latitude":"44.84032","Longitude":"-92.63500","Snowdepth":"4.000","Units":"in","Rept_Date":"2019-12-28 13"},"coordinates":[1080,3033]},{"type":"Point","properties":{"Station_ID":"WI-PC-25","Station_Nam":"ELLSWORTH 2.6 SW, WI","Latitude":"44.71119","Longitude":"-92.51849","Snowdepth":"4.000","Units":"in","Rept_Date":"2019-12-28 13"},"coordinates":[1108,2903]},{"type":"Point","properties":{"Station_ID":"WABM5","Station_Nam":"WABASHA","Latitude":"44.38500","Longitude":"-92.04860","Snowdepth":"4.000","Units":"in","Rept_Date":"2019-12-28 13"},"coordinates":[1218,2573]},{"type":"Point","properties":{"Station_ID":"VT-WS-10","Station_Nam":"NORTHFIELD 1.5 N, VT","Latitude":"44.16986","Longitude":"-72.65200","Snowdepth":"4.000","Units":"in","Rept_Date":"2019-12-28 12"},"coordinates":[5770,2355]},{"type":"Point","properties":{"Station_ID":"VT-WH-29","Station_Nam":"BRATTLEBORO 0.7 S, VT","Latitude":"42.84030","Longitude":"-72.55580","Snowdepth":"4.000","Units":"in","Rept_Date":"2019-12-28 12"},"coordinates":[5793,1010]},{"type":"Point","properties":{"Station_ID":"VT-OG-11","Station_Nam":"VERSHIRE 1.5 ESE, VT","Latitude":"43.96138","Longitude":"-72.29777","Snowdepth":"4.000","Units":"in","Rept_Date":"2019-12-28 11"},"coordinates":[5853,2144]},{"type":"Point","properties":{"Station_ID":"SUTV1","Station_Nam":"SUTTON","Latitude":"44.61220","Longitude":"-72.04810","Snowdepth":"4.000","Units":"in","Rept_Date":"2019-12-28 13"},"coordinates":[5912,2802]},{"type":"Point","properties":{"Station_ID":"STIM5","Station_Nam":"STILLWATER 2SW","Latitude":"45.04540","Longitude":"-92.85220","Snowdepth":"4.000","Units":"in","Rept_Date":"2019-12-28 14"},"coordinates":[1029,3241]},{"type":"Point","properties":{"Station_ID":"SHHW3","Station_Nam":"SHAWANO 2SSW","Latitude":"44.76310","Longitude":"-88.61830","Snowdepth":"4.000","Units":"in","Rept_Date":"2019-12-28 14"},"coordinates":[2023,2955]},{"type":"Point","properties":{"Station_ID":"ROWM3","Station_Nam":"ROWE 3NE","Latitude":"42.73500","Longitude":"-72.86920","Snowdepth":"4.000","Units":"in","Rept_Date":"2019-12-28 12"},"coordinates":[5719,904]},{"type":"Point","properties":{"Station_ID":"ROBW3","Station_Nam":"ROBERTS WWTP","Latitude":"44.97070","Longitude":"-92.56200","Snowdepth":"4.000","Units":"in","Rept_Date":"2019-12-28 16"},"coordinates":[1098,3165]},{"type":"Point","properties":{"Station_ID":"PELW3","Station_Nam":"PELLA 3SE","Latitude":"44.73580","Longitude":"-88.73780","Snowdepth":"4.000","Units":"in","Rept_Date":"2019-12-28 11"},"coordinates":[1995,2927]},{"type":"Point","properties":{"Station_ID":"PBAN8","Station_Nam":"SITE 1-3MI.N","Latitude":"48.97420","Longitude":"-97.23860","Snowdepth":"4.000","Units":"in","Rept_Date":"2019-12-28 13"},"coordinates":[0,7215]},{"type":"Point","properties":{"Station_ID":"NY-OD-2","Station_Nam":"POINT ROCK 0.6 SE, NY","Latitude":"43.37335","Longitude":"-75.53840","Snowdepth":"4.000","Units":"in","Rept_Date":"2019-12-28 13"},"coordinates":[5093,1549]},{"type":"Point","properties":{"Station_ID":"NH-CS-4","Station_Nam":"PITTSBURG 6.1 NE, NH","Latitude":"45.11060","Longitude":"-71.29760","Snowdepth":"4.000","Units":"in","Rept_Date":"2019-12-28 12"},"coordinates":[6088,3307]},{"type":"Point","properties":{"Station_ID":"MTQM4","Station_Nam":"MANISTIQUE WWTP","Latitude":"45.95120","Longitude":"-86.25130","Snowdepth":"4.000","Units":"in","Rept_Date":"2019-12-28 12"},"coordinates":[2579,4157]},{"type":"Point","properties":{"Station_ID":"MSP","Station_Nam":"MINNEAPOLIS-ST PAUL INTL AP","Latitude":"44.88310","Longitude":"-93.22890","Snowdepth":"4.000","Units":"in","Rept_Date":"2019-12-29 00"},"coordinates":[941,3076]},{"type":"Point","properties":{"Station_ID":"MPXM5","Station_Nam":"CHANHASSEN WSFO","Latitude":"44.84960","Longitude":"-93.56440","Snowdepth":"4.000","Units":"in","Rept_Date":"2019-12-29 06"},"coordinates":[862,3043]},{"type":"Point","properties":{"Station_ID":"MNHMOECS","Station_Nam":"HAZELTINE 1.9 NE","Latitude":"44.85545","Longitude":"-93.57125","Snowdepth":"4.000","Units":"in","Rept_Date":"2019-12-28 12"},"coordinates":[861,3048]},{"type":"Point","properties":{"Station_ID":"MNG0GYSN","Station_Nam":"LONSDALE 1.1 SSW","Latitude":"44.46445","Longitude":"-93.43293","Snowdepth":"4.000","Units":"in","Rept_Date":"2019-12-28 12"},"coordinates":[893,2653]},{"type":"Point","properties":{"Station_ID":"MNE9SLWI","Station_Nam":"LEAVENWORTH 5.4 S","Latitude":"44.14481","Longitude":"-94.78882","Snowdepth":"4.000","Units":"in","Rept_Date":"2019-12-28 13"},"coordinates":[575,2330]},{"type":"Point","properties":{"Station_ID":"MNC40YWG","Station_Nam":"WINNEBAGO 0.4 E","Latitude":"43.77370","Longitude":"-94.16484","Snowdepth":"4.000","Units":"in","Rept_Date":"2019-12-28 13"},"coordinates":[721,1954]},{"type":"Point","properties":{"Station_ID":"MN-WR-25","Station_Nam":"SAINT MICHAEL 2.0 ENE, MN","Latitude":"45.20820","Longitude":"-93.65280","Snowdepth":"4.000","Units":"in","Rept_Date":"2019-12-28 12"},"coordinates":[842,3405]},{"type":"Point","properties":{"Station_ID":"MN-SR-24","Station_Nam":"PAYNESVILLE 1.9 SSW, MN","Latitude":"45.35170","Longitude":"-94.73120","Snowdepth":"4.000","Units":"in","Rept_Date":"2019-12-28 13"},"coordinates":[588,3550]},{"type":"Point","properties":{"Station_ID":"MN-SC-2","Station_Nam":"PRIOR LAKE 2.0 W, MN","Latitude":"44.71250","Longitude":"-93.46360","Snowdepth":"4.000","Units":"in","Rept_Date":"2019-12-28 12"},"coordinates":[886,2904]},{"type":"Point","properties":{"Station_ID":"MN-RM-2","Station_Nam":"NORTH SAINT PAUL 1.0 NNW, MN","Latitude":"45.02629","Longitude":"-93.00790","Snowdepth":"4.000","Units":"in","Rept_Date":"2019-12-28 12"},"coordinates":[993,3221]},{"type":"Point","properties":{"Station_ID":"MN-RC-1","Station_Nam":"MONTGOMERY 3.2 ENE, MN","Latitude":"44.46400","Longitude":"-93.51980","Snowdepth":"4.000","Units":"in","Rept_Date":"2019-12-28 12"},"coordinates":[873,2652]},{"type":"Point","properties":{"Station_ID":"MN-HN-78","Station_Nam":"RICHFIELD 1.9 WNW, MN","Latitude":"44.89129","Longitude":"-93.31410","Snowdepth":"4.000","Units":"in","Rept_Date":"2019-12-28 11"},"coordinates":[921,3085]},{"type":"Point","properties":{"Station_ID":"MN-GH-28","Station_Nam":"CANNON FALLS 0.5 SE, MN","Latitude":"44.50866","Longitude":"-92.89526","Snowdepth":"4.000","Units":"in","Rept_Date":"2019-12-28 14"},"coordinates":[1019,2698]},{"type":"Point","properties":{"Station_ID":"MN-DK-70","Station_Nam":"EAGAN 2.0 NNW, MN","Latitude":"44.84322","Longitude":"-93.17899","Snowdepth":"4.000","Units":"in","Rept_Date":"2019-12-28 16"},"coordinates":[953,3036]},{"type":"Point","properties":{"Station_ID":"MN-CV-40","Station_Nam":"EXCELSIOR 0.8 S, MN","Latitude":"44.88996","Longitude":"-93.56646","Snowdepth":"4.000","Units":"in","Rept_Date":"2019-12-28 13"},"coordinates":[862,3083]},{"type":"Point","properties":{"Station_ID":"MN-CG-16","Station_Nam":"NORTH BRANCH 1.3 NNW, MN","Latitude":"45.53121","Longitude":"-92.97110","Snowdepth":"4.000","Units":"in","Rept_Date":"2019-12-28 12"},"coordinates":[1002,3732]},{"type":"Point","properties":{"Station_ID":"MLBS2","Station_Nam":"MILBANK","Latitude":"45.22040","Longitude":"-96.62530","Snowdepth":"4.000","Units":"in","Rept_Date":"2019-12-28 13"},"coordinates":[144,3418]},{"type":"Point","properties":{"Station_ID":"MI-DL-1","Station_Nam":"GARDEN CORNERS 0.8 NW, MI","Latitude":"45.89815","Longitude":"-86.54850","Snowdepth":"4.000","Units":"in","Rept_Date":"2019-12-28 13"},"coordinates":[2509,4103]},{"type":"Point","properties":{"Station_ID":"ME-AR-15","Station_Nam":"PRESQUE ISLE 1.3 WSW, ME","Latitude":"46.67960","Longitude":"-68.01270","Snowdepth":"4.000","Units":"in","Rept_Date":"2019-12-28 12"},"coordinates":[6859,4894]},{"type":"Point","properties":{"Station_ID":"LKFM5","Station_Nam":"LAKEFIELD,MN","Latitude":"43.68330","Longitude":"-95.18330","Snowdepth":"4.000","Units":"in","Rept_Date":"2019-12-28 13"},"coordinates":[482,1863]},{"type":"Point","properties":{"Station_ID":"LILM1","Station_Nam":"LILLE","Latitude":"47.27770","Longitude":"-68.10520","Snowdepth":"4.000","Units":"in","Rept_Date":"2019-12-28 12"},"coordinates":[6837,5499]},{"type":"Point","properties":{"Station_ID":"JIMW3","Station_Nam":"JIM FALLS 3NW","Latitude":"45.08270","Longitude":"-91.33130","Snowdepth":"4.000","Units":"in","Rept_Date":"2019-12-28 12"},"coordinates":[1386,3278]},{"type":"Point","properties":{"Station_ID":"GDCM4","Station_Nam":"GARDEN CORNERS","Latitude":"45.89830","Longitude":"-86.54850","Snowdepth":"4.000","Units":"in","Rept_Date":"2019-12-28 13"},"coordinates":[2509,4103]},{"type":"Point","properties":{"Station_ID":"CLKS2","Station_Nam":"WATERTOWN-23MI.ESE","Latitude":"44.75000","Longitude":"-96.68330","Snowdepth":"4.000","Units":"in","Rept_Date":"2019-12-28 15"},"coordinates":[130,2942]},{"type":"Point","properties":{"Station_ID":"CARM1","Station_Nam":"CARIBOU WFO","Latitude":"46.86810","Longitude":"-68.01250","Snowdepth":"4.000","Units":"in","Rept_Date":"2019-12-29 05"},"coordinates":[6859,5084]},{"type":"Point","properties":{"Station_ID":"CAN-PE-10","Station_Nam":"NEW LONDON 1.6 ENE, CA","Latitude":"46.46985","Longitude":"-63.49200","Snowdepth":"4.000","Units":"in","Rept_Date":"2019-12-28 12"},"coordinates":[7920,4681]},{"type":"Point","properties":{"Station_ID":"BALW3","Station_Nam":"BALDWIN","Latitude":"44.96330","Longitude":"-92.39050","Snowdepth":"4.000","Units":"in","Rept_Date":"2019-12-28 13"},"coordinates":[1138,3158]},{"type":"Point","properties":{"Station_ID":"CAN-PE-36","Station_Nam":"SPRING VALLEY 1.5 SE - MCPEI, CAN","Latitude":"46.48997","Longitude":"-63.61226","Snowdepth":"3.900","Units":"in","Rept_Date":"2019-12-28 12"},"coordinates":[7892,4702]},{"type":"Point","properties":{"Station_ID":"CAN-NS-103","Station_Nam":"TRAFALGAR 4.9 WSW, CAN","Latitude":"45.26217","Longitude":"-62.72285","Snowdepth":"3.900","Units":"in","Rept_Date":"2019-12-28 12"},"coordinates":[8101,3460]},{"type":"Point","properties":{"Station_ID":"VT-OL-12","Station_Nam":"GREENSBORO 3.9 NNE, VT","Latitude":"44.63100","Longitude":"-72.28000","Snowdepth":"3.500","Units":"in","Rept_Date":"2019-12-28 13"},"coordinates":[5858,2821]},{"type":"Point","properties":{"Station_ID":"VT-ES-1","Station_Nam":"GRANBY 1.4 NW, VT","Latitude":"44.58330","Longitude":"-71.77870","Snowdepth":"3.500","Units":"in","Rept_Date":"2019-12-28 12"},"coordinates":[5975,2773]},{"type":"Point","properties":{"Station_ID":"MN-RM-54","Station_Nam":"SAINT PAUL 5.1 SW, MN","Latitude":"44.90390","Longitude":"-93.18820","Snowdepth":"3.500","Units":"in","Rept_Date":"2019-12-28 13"},"coordinates":[951,3097]},{"type":"Point","properties":{"Station_ID":"MN-MW-8","Station_Nam":"AUSTIN 2.4 W, MN","Latitude":"43.67190","Longitude":"-93.02280","Snowdepth":"3.500","Units":"in","Rept_Date":"2019-12-28 13"},"coordinates":[989,1851]},{"type":"Point","properties":{"Station_ID":"MN-GH-4","Station_Nam":"NERSTRAND 4.2 E, MN","Latitude":"44.34247","Longitude":"-92.97920","Snowdepth":"3.500","Units":"in","Rept_Date":"2019-12-28 13"},"coordinates":[1000,2530]},{"type":"Point","properties":{"Station_ID":"MN-BW-8","Station_Nam":"COMFREY 6.5 ENE, MN","Latitude":"44.15109","Longitude":"-94.78516","Snowdepth":"3.500","Units":"in","Rept_Date":"2019-12-28 13"},"coordinates":[576,2336]},{"type":"Point","properties":{"Station_ID":"MI-OT-16","Station_Nam":"GAYLORD 2.2 SSE, MI","Latitude":"44.99441","Longitude":"-84.65820","Snowdepth":"3.500","Units":"in","Rept_Date":"2019-12-28 13"},"coordinates":[2953,3189]},{"type":"Point","properties":{"Station_ID":"MI-CP-7","Station_Nam":"DRUMMOND 2.9 NE, MI","Latitude":"46.05329","Longitude":"-83.69060","Snowdepth":"3.500","Units":"in","Rept_Date":"2019-12-28 14"},"coordinates":[3180,4260]},{"type":"Point","properties":{"Station_ID":"ME-OX-2","Station_Nam":"HARTFORD 1.4 N, ME","Latitude":"44.39318","Longitude":"-70.34760","Snowdepth":"3.500","Units":"in","Rept_Date":"2019-12-28 12"},"coordinates":[6311,2581]},{"type":"Point","properties":{"Station_ID":"ME-FR-22","Station_Nam":"FARMINGTON 4.8 NNW, ME","Latitude":"44.73396","Longitude":"-70.18007","Snowdepth":"3.500","Units":"in","Rept_Date":"2019-12-28 14"},"coordinates":[6350,2926]},{"type":"Point","properties":{"Station_ID":"MA-FR-13","Station_Nam":"CONWAY 2.9 NW, MA","Latitude":"42.54419","Longitude":"-72.72743","Snowdepth":"3.500","Units":"in","Rept_Date":"2019-12-28 13"},"coordinates":[5753,711]},{"type":"Point","properties":{"Station_ID":"CAN-PE-1","Station_Nam":"STRATFORD 2.3 NNE, CAN","Latitude":"46.23576","Longitude":"-63.08208","Snowdepth":"3.100","Units":"in","Rept_Date":"2019-12-28 11"},"coordinates":[8016,4445]},{"type":"Point","properties":{"Station_ID":"CAN-NB-89","Station_Nam":"MEMRAMCOOK 4.0 W, CAN","Latitude":"46.01133","Longitude":"-64.60244","Snowdepth":"3.100","Units":"in","Rept_Date":"2019-12-28 14"},"coordinates":[7659,4218]},{"type":"Point","properties":{"Station_ID":"WI-PC-10","Station_Nam":"RIVER FALLS 1.4 S, WI","Latitude":"44.83580","Longitude":"-92.62100","Snowdepth":"3.000","Units":"in","Rept_Date":"2019-12-28 13"},"coordinates":[1084,3029]},{"type":"Point","properties":{"Station_ID":"WDSV1","Station_Nam":"WOODSTOCK","Latitude":"43.63030","Longitude":"-72.50720","Snowdepth":"3.000","Units":"in","Rept_Date":"2019-12-28 13"},"coordinates":[5804,1809]},{"type":"Point","properties":{"Station_ID":"WACM5","Station_Nam":"WACONIA","Latitude":"44.85330","Longitude":"-93.80260","Snowdepth":"3.000","Units":"in","Rept_Date":"2019-12-28 13"},"coordinates":[806,3046]},{"type":"Point","properties":{"Station_ID":"VT-WR-2","Station_Nam":"POMFRET 2.6 N, VT","Latitude":"43.74230","Longitude":"-72.52550","Snowdepth":"3.000","Units":"in","Rept_Date":"2019-12-28 12"},"coordinates":[5800,1922]},{"type":"Point","properties":{"Station_ID":"VT-OL-9","Station_Nam":"GREENSBORO 2.1 NNW, VT","Latitude":"44.60528","Longitude":"-72.30940","Snowdepth":"3.000","Units":"in","Rept_Date":"2019-12-28 12"},"coordinates":[5851,2795]},{"type":"Point","properties":{"Station_ID":"THLM5","Station_Nam":"THEILMAN 1SSW","Latitude":"44.28130","Longitude":"-92.19430","Snowdepth":"3.000","Units":"in","Rept_Date":"2019-12-28 13"},"coordinates":[1184,2468]},{"type":"Point","properties":{"Station_ID":"STPW3","Station_Nam":"STEVENS POINT","Latitude":"44.51130","Longitude":"-89.58550","Snowdepth":"3.000","Units":"in","Rept_Date":"2019-12-28 12"},"coordinates":[1796,2700]},{"type":"Point","properties":{"Station_ID":"SSSS2","Station_Nam":"MILBANK-36MI.NW","Latitude":"45.66670","Longitude":"-97.00000","Snowdepth":"3.000","Units":"in","Rept_Date":"2019-12-29 04"},"coordinates":[56,3869]},{"type":"Point","properties":{"Station_ID":"SHHN6","Station_Nam":"SCHOHARIE VILLAGE","Latitude":"42.66500","Longitude":"-74.30360","Snowdepth":"3.000","Units":"in","Rept_Date":"2019-12-28 12"},"coordinates":[5383,833]},{"type":"Point","properties":{"Station_ID":"SANI4","Station_Nam":"ST ANSGAR","Latitude":"43.38170","Longitude":"-92.92320","Snowdepth":"3.000","Units":"in","Rept_Date":"2019-12-28 12"},"coordinates":[1013,1558]},{"type":"Point","properties":{"Station_ID":"RWGM5","Station_Nam":"RED WING","Latitude":"44.57120","Longitude":"-92.52830","Snowdepth":"3.000","Units":"in","Rept_Date":"2019-12-28 14"},"coordinates":[1105,2761]},{"type":"Point","properties":{"Station_ID":"RVFW3","Station_Nam":"RIVER FALLS","Latitude":"44.85440","Longitude":"-92.61220","Snowdepth":"3.000","Units":"in","Rept_Date":"2019-12-28 11"},"coordinates":[1086,3047]},{"type":"Point","properties":{"Station_ID":"PTBN3","Station_Nam":"DAM WITHIN","Latitude":"45.05000","Longitude":"-71.38330","Snowdepth":"3.000","Units":"in","Rept_Date":"2019-12-28 12"},"coordinates":[6068,3245]},{"type":"Point","properties":{"Station_ID":"PIPM5","Station_Nam":"PIPESTONE,MN","Latitude":"44.01390","Longitude":"-96.32580","Snowdepth":"3.000","Units":"in","Rept_Date":"2019-12-28 14"},"coordinates":[214,2197]},{"type":"Point","properties":{"Station_ID":"PEKN6","Station_Nam":"PECK LAKE","Latitude":"43.11500","Longitude":"-74.42360","Snowdepth":"3.000","Units":"in","Rept_Date":"2019-12-28 12"},"coordinates":[5355,1288]},{"type":"Point","properties":{"Station_ID":"OCON6","Station_Nam":"OSCEOLA","Latitude":"43.49910","Longitude":"-75.71210","Snowdepth":"3.000","Units":"in","Rept_Date":"2019-12-28 12"},"coordinates":[5052,1676]},{"type":"Point","properties":{"Station_ID":"NY-WR-10","Station_Nam":"WARRENSBURG 2.1 WNW, NY","Latitude":"43.51784","Longitude":"-73.81069","Snowdepth":"3.000","Units":"in","Rept_Date":"2019-12-28 13"},"coordinates":[5498,1695]},{"type":"Point","properties":{"Station_ID":"NY-CR-5","Station_Nam":"MARATHON 1.0 NW, NY","Latitude":"42.45161","Longitude":"-76.04370","Snowdepth":"3.000","Units":"in","Rept_Date":"2019-12-28 12"},"coordinates":[4974,617]},{"type":"Point","properties":{"Station_ID":"NUMN3","Station_Nam":"NORTHUMBERLAND","Latitude":"44.52830","Longitude":"-71.50440","Snowdepth":"3.000","Units":"in","Rept_Date":"2019-12-28 13"},"coordinates":[6040,2718]},{"type":"Point","properties":{"Station_ID":"NUMM5","Station_Nam":"NEW ULM 3SE","Latitude":"44.29450","Longitude":"-94.40840","Snowdepth":"3.000","Units":"in","Rept_Date":"2019-12-28 12"},"coordinates":[664,2481]},{"type":"Point","properties":{"Station_ID":"NH-MR-60","Station_Nam":"SOUTH SUTTON 1.3 SE, NH","Latitude":"43.29531","Longitude":"-71.90238","Snowdepth":"3.000","Units":"in","Rept_Date":"2019-12-28 13"},"coordinates":[5946,1470]},{"type":"Point","properties":{"Station_ID":"NH-MR-45","Station_Nam":"NORTHFIELD 2.8 E, NH","Latitude":"43.43945","Longitude":"-71.53730","Snowdepth":"3.000","Units":"in","Rept_Date":"2019-12-28 12"},"coordinates":[6032,1616]},{"type":"Point","properties":{"Station_ID":"NH-MR-4","Station_Nam":"BOW 1.6 NW, NH","Latitude":"43.14994","Longitude":"-71.55650","Snowdepth":"3.000","Units":"in","Rept_Date":"2019-12-28 12"},"coordinates":[6027,1323]},{"type":"Point","properties":{"Station_ID":"NH-HL-48","Station_Nam":"GREENVILLE 1.1 ENE, NH","Latitude":"42.77674","Longitude":"-71.77990","Snowdepth":"3.000","Units":"in","Rept_Date":"2019-12-28 13"},"coordinates":[5975,946]},{"type":"Point","properties":{"Station_ID":"NH-GR-49","Station_Nam":"PLYMOUTH 3.7 N, NH","Latitude":"43.79048","Longitude":"-71.68413","Snowdepth":"3.000","Units":"in","Rept_Date":"2019-12-28 12"},"coordinates":[5997,1971]},{"type":"Point","properties":{"Station_ID":"NCKN6","Station_Nam":"NORTH CREEK 5 SE","Latitude":"43.66110","Longitude":"-73.89690","Snowdepth":"3.000","Units":"in","Rept_Date":"2019-12-28 12"},"coordinates":[5478,1840]},{"type":"Point","properties":{"Station_ID":"MWN","Station_Nam":"MOUNT WASHINGTON","Latitude":"44.26670","Longitude":"-71.30000","Snowdepth":"3.000","Units":"in","Rept_Date":"2019-12-29 05"},"coordinates":[6088,2453]},{"type":"Point","properties":{"Station_ID":"MRLV1","Station_Nam":"MARLBORO","Latitude":"42.86000","Longitude":"-72.72000","Snowdepth":"3.000","Units":"in","Rept_Date":"2019-12-28 14"},"coordinates":[5754,1030]},{"type":"Point","properties":{"Station_ID":"MNF74YNU","Station_Nam":"NEW ULM 3.3 ESE","Latitude":"44.29029","Longitude":"-94.40196","Snowdepth":"3.000","Units":"in","Rept_Date":"2019-12-28 11"},"coordinates":[666,2477]},{"type":"Point","properties":{"Station_ID":"MN-SE-2","Station_Nam":"OWATONNA 0.8 E, MN","Latitude":"44.09170","Longitude":"-93.21380","Snowdepth":"3.000","Units":"in","Rept_Date":"2019-12-28 13"},"coordinates":[945,2276]},{"type":"Point","properties":{"Station_ID":"MN-DK-44","Station_Nam":"ROSEMOUNT 4.5 WSW, MN","Latitude":"44.72079","Longitude":"-93.14970","Snowdepth":"3.000","Units":"in","Rept_Date":"2019-12-28 13"},"coordinates":[960,2912]},{"type":"Point","properties":{"Station_ID":"MIAM5","Station_Nam":"MILAN 1NW","Latitude":"45.12190","Longitude":"-95.92690","Snowdepth":"3.000","Units":"in","Rept_Date":"2019-12-29 00"},"coordinates":[308,3318]},{"type":"Point","properties":{"Station_ID":"MI-OT-4","Station_Nam":"GAYLORD 1.7 WNW, MI","Latitude":"45.03280","Longitude":"-84.71090","Snowdepth":"3.000","Units":"in","Rept_Date":"2019-12-28 13"},"coordinates":[2940,3228]},{"type":"Point","properties":{"Station_ID":"MA-WR-22","Station_Nam":"FITCHBURG 2.0 NNE, MA","Latitude":"42.61671","Longitude":"-71.80100","Snowdepth":"3.000","Units":"in","Rept_Date":"2019-12-28 13"},"coordinates":[5970,784]},{"type":"Point","properties":{"Station_ID":"KMWN","Station_Nam":"MOUNT WASHINGTON","Latitude":"44.26666","Longitude":"-71.30000","Snowdepth":"3.000","Units":"in","Rept_Date":"2019-12-29 06"},"coordinates":[6088,2453]},{"type":"Point","properties":{"Station_ID":"KMSP","Station_Nam":"MINNEAPOLIS-ST PAUL INTERNATIONAL","Latitude":"44.86666","Longitude":"-93.21666","Snowdepth":"3.000","Units":"in","Rept_Date":"2019-12-29 06"},"coordinates":[944,3060]},{"type":"Point","properties":{"Station_ID":"KINM1","Station_Nam":"KINGFIELD","Latitude":"44.95950","Longitude":"-70.17530","Snowdepth":"3.000","Units":"in","Rept_Date":"2019-12-28 15"},"coordinates":[6352,3154]},{"type":"Point","properties":{"Station_ID":"JEFN3","Station_Nam":"JEFFERSON","Latitude":"44.41690","Longitude":"-71.50080","Snowdepth":"3.000","Units":"in","Rept_Date":"2019-12-28 12"},"coordinates":[6040,2605]},{"type":"Point","properties":{"Station_ID":"GAYM4","Station_Nam":"GAYLORD","Latitude":"45.03320","Longitude":"-84.71130","Snowdepth":"3.000","Units":"in","Rept_Date":"2019-12-28 13"},"coordinates":[2940,3228]},{"type":"Point","properties":{"Station_ID":"FCHM3","Station_Nam":"FITCHBURG COOP","Latitude":"42.61680","Longitude":"-71.80170","Snowdepth":"3.000","Units":"in","Rept_Date":"2019-12-28 13"},"coordinates":[5970,784]},{"type":"Point","properties":{"Station_ID":"CON","Station_Nam":"CONCORD MUNI ARPT","Latitude":"43.20280","Longitude":"-71.50220","Snowdepth":"3.000","Units":"in","Rept_Date":"2019-12-28 12"},"coordinates":[6040,1377]},{"type":"Point","properties":{"Station_ID":"CAN-NB-57","Station_Nam":"JOLICURE 2.8 NE, CAN","Latitude":"45.96081","Longitude":"-64.18848","Snowdepth":"3.000","Units":"in","Rept_Date":"2019-12-28 13"},"coordinates":[7757,4167]},{"type":"Point","properties":{"Station_ID":"BRVM5","Station_Nam":"BROWNS VALLEY,MN","Latitude":"45.61670","Longitude":"-96.83330","Snowdepth":"3.000","Units":"in","Rept_Date":"2019-12-28 11"},"coordinates":[95,3818]},{"type":"Point","properties":{"Station_ID":"BRAM1","Station_Nam":"BRASSUA DAM","Latitude":"45.66020","Longitude":"-69.81190","Snowdepth":"3.000","Units":"in","Rept_Date":"2019-12-28 12"},"coordinates":[6437,3862]},{"type":"Point","properties":{"Station_ID":"ALTM5","Station_Nam":"ALTURA 5W","Latitude":"44.06330","Longitude":"-92.03970","Snowdepth":"3.000","Units":"in","Rept_Date":"2019-12-28 13"},"coordinates":[1220,2247]},{"type":"Point","properties":{"Station_ID":"CAN-NS-111","Station_Nam":"ANTIGONISH 0.6 WSW, CAN","Latitude":"45.62286","Longitude":"-62.00174","Snowdepth":"2.800","Units":"in","Rept_Date":"2019-12-28 11"},"coordinates":[8270,3825]},{"type":"Point","properties":{"Station_ID":"CAN-ON-92","Station_Nam":"DUNROBIN 1.9 W - MVCA, CAN","Latitude":"45.42318","Longitude":"-76.04525","Snowdepth":"2.600","Units":"in","Rept_Date":"2019-12-28 12"},"coordinates":[4974,3623]},{"type":"Point","properties":{"Station_ID":"WI-BN-6","Station_Nam":"SUAMICO 4.4 WNW, WI","Latitude":"44.66111","Longitude":"-88.11780","Snowdepth":"2.500","Units":"in","Rept_Date":"2019-12-28 13"},"coordinates":[2141,2852]},{"type":"Point","properties":{"Station_ID":"VT-WS-30","Station_Nam":"WOODBURY 3.4 NNW, VT","Latitude":"44.48825","Longitude":"-72.43258","Snowdepth":"2.500","Units":"in","Rept_Date":"2019-12-28 12"},"coordinates":[5822,2677]},{"type":"Point","properties":{"Station_ID":"VT-WS-15","Station_Nam":"EAST CALAIS 1.5 SW, VT","Latitude":"44.35523","Longitude":"-72.45540","Snowdepth":"2.500","Units":"in","Rept_Date":"2019-12-28 12"},"coordinates":[5816,2542]},{"type":"Point","properties":{"Station_ID":"VT-CL-23","Station_Nam":"RYEGATE 1.5 N, VT","Latitude":"44.23024","Longitude":"-72.10523","Snowdepth":"2.500","Units":"in","Rept_Date":"2019-12-28 12"},"coordinates":[5899,2416]},{"type":"Point","properties":{"Station_ID":"NH-BK-7","Station_Nam":"LACONIA 7.9 E, NH","Latitude":"43.55415","Longitude":"-71.32310","Snowdepth":"2.500","Units":"in","Rept_Date":"2019-12-28 12"},"coordinates":[6082,1732]},{"type":"Point","properties":{"Station_ID":"MA-FR-17","Station_Nam":"BUCKLAND 1.8 ESE, MA","Latitude":"42.58900","Longitude":"-72.75110","Snowdepth":"2.500","Units":"in","Rept_Date":"2019-12-28 13"},"coordinates":[5747,756]},{"type":"Point","properties":{"Station_ID":"CAN-NB-11","Station_Nam":"MIRAMICHI 3.3 S, CAN","Latitude":"46.99343","Longitude":"-65.50690","Snowdepth":"2.500","Units":"in","Rept_Date":"2019-12-28 12"},"coordinates":[7447,5211]},{"type":"Point","properties":{"Station_ID":"CAN-NS-13","Station_Nam":"TRURO 5.0 ENE, CA","Latitude":"45.38252","Longitude":"-63.22810","Snowdepth":"2.400","Units":"in","Rept_Date":"2019-12-28 11"},"coordinates":[7982,3582]},{"type":"Point","properties":{"Station_ID":"CAN-NS-159","Station_Nam":"NORTHPORT 0.1 NE, CAN","Latitude":"45.93299","Longitude":"-63.86711","Snowdepth":"2.200","Units":"in","Rept_Date":"2019-12-28 11"},"coordinates":[7832,4138]},{"type":"Point","properties":{"Station_ID":"NH-MR-55","Station_Nam":"CANTERBURY 2.5 SSW, NH","Latitude":"43.30277","Longitude":"-71.57893","Snowdepth":"2.100","Units":"in","Rept_Date":"2019-12-28 13"},"coordinates":[6022,1478]},{"type":"Point","properties":{"Station_ID":"VT-OL-2","Station_Nam":"BARTON 3.0 ENE, VT","Latitude":"44.75863","Longitude":"-72.11680","Snowdepth":"2.000","Units":"in","Rept_Date":"2019-12-28 12"},"coordinates":[5896,2951]},{"type":"Point","properties":{"Station_ID":"VT-CL-18","Station_Nam":"WHEELOCK 1.6 S, VT","Latitude":"44.56491","Longitude":"-72.08830","Snowdepth":"2.000","Units":"in","Rept_Date":"2019-12-28 12"},"coordinates":[5903,2755]},{"type":"Point","properties":{"Station_ID":"VT-BN-3","Station_Nam":"LANDGROVE 1.1 NNE, VT","Latitude":"43.29092","Longitude":"-72.83260","Snowdepth":"2.000","Units":"in","Rept_Date":"2019-12-28 12"},"coordinates":[5728,1466]},{"type":"Point","properties":{"Station_ID":"VADM5","Station_Nam":"VADNAIS LAKE","Latitude":"45.04820","Longitude":"-93.09590","Snowdepth":"2.000","Units":"in","Rept_Date":"2019-12-28 20"},"coordinates":[972,3243]},{"type":"Point","properties":{"Station_ID":"SPGM5","Station_Nam":"SPRING VALLEY","Latitude":"43.69330","Longitude":"-92.39260","Snowdepth":"2.000","Units":"in","Rept_Date":"2019-12-28 13"},"coordinates":[1137,1873]},{"type":"Point","properties":{"Station_ID":"SIWS2","Station_Nam":"SISSETON 3W","Latitude":"45.65870","Longitude":"-97.12450","Snowdepth":"2.000","Units":"in","Rept_Date":"2019-12-28 13"},"coordinates":[27,3861]},{"type":"Point","properties":{"Station_ID":"SD-RB-1","Station_Nam":"SISSETON 3.8 W, SD","Latitude":"45.65865","Longitude":"-97.12370","Snowdepth":"2.000","Units":"in","Rept_Date":"2019-12-28 13"},"coordinates":[27,3861]},{"type":"Point","properties":{"Station_ID":"SD-BK-45","Station_Nam":"BRUCE 5.3 W, SD","Latitude":"44.43148","Longitude":"-96.99612","Snowdepth":"2.000","Units":"in","Rept_Date":"2019-12-28 14"},"coordinates":[57,2620]},{"type":"Point","properties":{"Station_ID":"SD-BK-2","Station_Nam":"ASTORIA 2.2 SSE, SD","Latitude":"44.53093","Longitude":"-96.52270","Snowdepth":"2.000","Units":"in","Rept_Date":"2019-12-28 13"},"coordinates":[168,2720]},{"type":"Point","properties":{"Station_ID":"RKWM1","Station_Nam":"MOOSEHEAD LAKE","Latitude":"45.58330","Longitude":"-69.71670","Snowdepth":"2.000","Units":"in","Rept_Date":"2019-12-28 12"},"coordinates":[6459,3785]},{"type":"Point","properties":{"Station_ID":"REWM5","Station_Nam":"REDWOOD FALLS","Latitude":"44.54850","Longitude":"-95.09980","Snowdepth":"2.000","Units":"in","Rept_Date":"2019-12-28 13"},"coordinates":[502,2738]},{"type":"Point","properties":{"Station_ID":"PSHW3","Station_Nam":"PESHTIGO","Latitude":"45.02810","Longitude":"-87.73560","Snowdepth":"2.000","Units":"in","Rept_Date":"2019-12-28 13"},"coordinates":[2230,3223]},{"type":"Point","properties":{"Station_ID":"PLOW3","Station_Nam":"PLOVER","Latitude":"44.44280","Longitude":"-89.54530","Snowdepth":"2.000","Units":"in","Rept_Date":"2019-12-28 13"},"coordinates":[1806,2631]},{"type":"Point","properties":{"Station_ID":"PLFV1","Station_Nam":"PLAINFIELD","Latitude":"44.27610","Longitude":"-72.41500","Snowdepth":"2.000","Units":"in","Rept_Date":"2019-12-28 12"},"coordinates":[5826,2462]},{"type":"Point","properties":{"Station_ID":"NY-ES-6","Station_Nam":"OLMSTEDVILLE 4.6 NNE, NY","Latitude":"43.83350","Longitude":"-73.89780","Snowdepth":"2.000","Units":"in","Rept_Date":"2019-12-28 13"},"coordinates":[5478,2015]},{"type":"Point","properties":{"Station_ID":"NWSM1","Station_Nam":"NEW SHARON","Latitude":"44.63520","Longitude":"-70.00020","Snowdepth":"2.000","Units":"in","Rept_Date":"2019-12-28 12"},"coordinates":[6393,2826]},{"type":"Point","properties":{"Station_ID":"NH-RC-48","Station_Nam":"NORTHWOOD 2.9 WSW, NH","Latitude":"43.20114","Longitude":"-71.25750","Snowdepth":"2.000","Units":"in","Rept_Date":"2019-12-28 12"},"coordinates":[6098,1375]},{"type":"Point","properties":{"Station_ID":"NH-GR-47","Station_Nam":"LITTLETON 7.3 W, NH","Latitude":"44.31847","Longitude":"-71.91086","Snowdepth":"2.000","Units":"in","Rept_Date":"2019-12-28 13"},"coordinates":[5944,2505]},{"type":"Point","properties":{"Station_ID":"NH-CR-41","Station_Nam":"ALBANY 2.8 SW, NH","Latitude":"43.92648","Longitude":"-71.21556","Snowdepth":"2.000","Units":"in","Rept_Date":"2019-12-28 13"},"coordinates":[6107,2109]},{"type":"Point","properties":{"Station_ID":"NH-CR-26","Station_Nam":"CENTER SANDWICH 4.9 E, NH","Latitude":"43.80976","Longitude":"-71.34150","Snowdepth":"2.000","Units":"in","Rept_Date":"2019-12-28 12"},"coordinates":[6078,1991]},{"type":"Point","properties":{"Station_ID":"NH-BK-9","Station_Nam":"MEREDITH 2.9 SSW, NH","Latitude":"43.62245","Longitude":"-71.53510","Snowdepth":"2.000","Units":"in","Rept_Date":"2019-12-28 13"},"coordinates":[6032,1801]},{"type":"Point","properties":{"Station_ID":"NH-BK-1","Station_Nam":"TILTON NORTHFIELD 3.3 NE, NH","Latitude":"43.48000","Longitude":"-71.55000","Snowdepth":"2.000","Units":"in","Rept_Date":"2019-12-28 12"},"coordinates":[6029,1657]},{"type":"Point","properties":{"Station_ID":"MSCM5","Station_Nam":"MINNESOTA CITY","Latitude":"44.16000","Longitude":"-91.81220","Snowdepth":"2.000","Units":"in","Rept_Date":"2019-12-28 14"},"coordinates":[1274,2345]},{"type":"Point","properties":{"Station_ID":"MRFS2","Station_Nam":"MADISON,SD","Latitude":"44.00000","Longitude":"-97.23330","Snowdepth":"2.000","Units":"in","Rept_Date":"2019-12-28 15"},"coordinates":[1,2183]},{"type":"Point","properties":{"Station_ID":"MNGLSURF","Station_Nam":"REDWOOD FALLS 0.8 NE","Latitude":"44.54864","Longitude":"-95.10639","Snowdepth":"2.000","Units":"in","Rept_Date":"2019-12-28 13"},"coordinates":[500,2738]},{"type":"Point","properties":{"Station_ID":"MNDYOGMC","Station_Nam":"WHITMAN 0.3 NW","Latitude":"44.15041","Longitude":"-91.81632","Snowdepth":"2.000","Units":"in","Rept_Date":"2019-12-28 14"},"coordinates":[1273,2335]},{"type":"Point","properties":{"Station_ID":"MN0HS1SL","Station_Nam":"NORTH SAINT PAUL 1.6 NW","Latitude":"45.02800","Longitude":"-93.01506","Snowdepth":"2.000","Units":"in","Rept_Date":"2019-12-28 13"},"coordinates":[991,3223]},{"type":"Point","properties":{"Station_ID":"MN-RM-63","Station_Nam":"NORTH SAINT PAUL 1.0 NW, MN","Latitude":"45.02410","Longitude":"-93.01400","Snowdepth":"2.000","Units":"in","Rept_Date":"2019-12-28 13"},"coordinates":[991,3219]},{"type":"Point","properties":{"Station_ID":"MN-RC-11","Station_Nam":"NEW PRAGUE 4.8 ESE, MN","Latitude":"44.51999","Longitude":"-93.48470","Snowdepth":"2.000","Units":"in","Rept_Date":"2019-12-28 11"},"coordinates":[881,2709]},{"type":"Point","properties":{"Station_ID":"ME-OX-29","Station_Nam":"SUMNER 1.1 N, ME","Latitude":"44.40840","Longitude":"-70.44010","Snowdepth":"2.000","Units":"in","Rept_Date":"2019-12-28 14"},"coordinates":[6289,2596]},{"type":"Point","properties":{"Station_ID":"LMLI4","Station_Nam":"LAKE MILLS,IA","Latitude":"43.40000","Longitude":"-93.53330","Snowdepth":"2.000","Units":"in","Rept_Date":"2019-12-28 13"},"coordinates":[870,1576]},{"type":"Point","properties":{"Station_ID":"LAKM5","Station_Nam":"LAKE CITY","Latitude":"44.43630","Longitude":"-92.27930","Snowdepth":"2.000","Units":"in","Rept_Date":"2019-12-28 13"},"coordinates":[1164,2624]},{"type":"Point","properties":{"Station_ID":"KEEN3","Station_Nam":"KEENE","Latitude":"42.93900","Longitude":"-72.32470","Snowdepth":"2.000","Units":"in","Rept_Date":"2019-12-28 11"},"coordinates":[5847,1110]},{"type":"Point","properties":{"Station_ID":"JAPN3","Station_Nam":"JAFFREY SILVER RANCH AIRPARK","Latitude":"42.80880","Longitude":"-72.00530","Snowdepth":"2.000","Units":"in","Rept_Date":"2019-12-28 12"},"coordinates":[5922,978]},{"type":"Point","properties":{"Station_ID":"INDN6","Station_Nam":"INDIAN LAKE","Latitude":"43.75500","Longitude":"-74.27560","Snowdepth":"2.000","Units":"in","Rept_Date":"2019-12-28 14"},"coordinates":[5389,1935]},{"type":"Point","properties":{"Station_ID":"HYTS2","Station_Nam":"HAYTI 1W","Latitude":"44.66330","Longitude":"-97.22670","Snowdepth":"2.000","Units":"in","Rept_Date":"2019-12-28 14"},"coordinates":[3,2854]},{"type":"Point","properties":{"Station_ID":"HOLM1","Station_Nam":"HOLLIS","Latitude":"43.64750","Longitude":"-70.67490","Snowdepth":"2.000","Units":"in","Rept_Date":"2019-12-28 12"},"coordinates":[6234,1827]},{"type":"Point","properties":{"Station_ID":"HGHN6","Station_Nam":"HIGHMARKET","Latitude":"43.57520","Longitude":"-75.52070","Snowdepth":"2.000","Units":"in","Rept_Date":"2019-12-28 10"},"coordinates":[5097,1753]},{"type":"Point","properties":{"Station_ID":"GRFM3","Station_Nam":"GREENFIELD NO. 3","Latitude":"42.57190","Longitude":"-72.59750","Snowdepth":"2.000","Units":"in","Rept_Date":"2019-12-28 11"},"coordinates":[5783,739]},{"type":"Point","properties":{"Station_ID":"GILV1","Station_Nam":"GILMAN","Latitude":"44.41120","Longitude":"-71.71860","Snowdepth":"2.000","Units":"in","Rept_Date":"2019-12-28 12"},"coordinates":[5989,2599]},{"type":"Point","properties":{"Station_ID":"ESGM1","Station_Nam":"EAST SANGERVILLE","Latitude":"45.13690","Longitude":"-69.28060","Snowdepth":"2.000","Units":"in","Rept_Date":"2019-12-28 12"},"coordinates":[6562,3333]},{"type":"Point","properties":{"Station_ID":"ESDN3","Station_Nam":"EAST SANDWICH","Latitude":"43.80990","Longitude":"-71.34250","Snowdepth":"2.000","Units":"in","Rept_Date":"2019-12-28 11"},"coordinates":[6078,1991]},{"type":"Point","properties":{"Station_ID":"EGNM5","Station_Nam":"ELGIN 2SSW","Latitude":"44.09700","Longitude":"-92.27010","Snowdepth":"2.000","Units":"in","Rept_Date":"2019-12-28 13"},"coordinates":[1166,2281]},{"type":"Point","properties":{"Station_ID":"DLSN6","Station_Nam":"DELANSON 2NE","Latitude":"42.76720","Longitude":"-74.17110","Snowdepth":"2.000","Units":"in","Rept_Date":"2019-12-28 12"},"coordinates":[5414,936]},{"type":"Point","properties":{"Station_ID":"DHMM1","Station_Nam":"DEDHAM","Latitude":"44.67880","Longitude":"-68.63560","Snowdepth":"2.000","Units":"in","Rept_Date":"2019-12-28 12"},"coordinates":[6713,2870]},{"type":"Point","properties":{"Station_ID":"CORM1","Station_Nam":"CORINNA","Latitude":"44.91980","Longitude":"-69.24180","Snowdepth":"2.000","Units":"in","Rept_Date":"2019-12-28 13"},"coordinates":[6571,3114]},{"type":"Point","properties":{"Station_ID":"CHES2","Station_Nam":"CHESTER 2N","Latitude":"43.92830","Longitude":"-96.93160","Snowdepth":"2.000","Units":"in","Rept_Date":"2019-12-28 13"},"coordinates":[72,2111]},{"type":"Point","properties":{"Station_ID":"CAN-NS-163","Station_Nam":"SYDNEY MINES 2.2 WNW, CAN","Latitude":"46.24851","Longitude":"-60.25161","Snowdepth":"2.000","Units":"in","Rept_Date":"2019-12-28 12"},"coordinates":[8681,4458]},{"type":"Point","properties":{"Station_ID":"CAN-NB-96","Station_Nam":"SAINT-IGNACE 2.6 NE, CAN","Latitude":"46.71424","Longitude":"-65.05609","Snowdepth":"2.000","Units":"in","Rept_Date":"2019-12-28 11"},"coordinates":[7553,4929]},{"type":"Point","properties":{"Station_ID":"BROS2","Station_Nam":"BROOKINGS,SD","Latitude":"44.31670","Longitude":"-96.76670","Snowdepth":"2.000","Units":"in","Rept_Date":"2019-12-28 14"},"coordinates":[111,2503]},{"type":"Point","properties":{"Station_ID":"BFSW3","Station_Nam":"BIG FALLS-5 NW","Latitude":"44.63980","Longitude":"-89.11330","Snowdepth":"2.000","Units":"in","Rept_Date":"2019-12-28 13"},"coordinates":[1907,2830]},{"type":"Point","properties":{"Station_ID":"CAN-NB-76","Station_Nam":"GRANDE-DIGUE 5.1 N, CAN","Latitude":"46.34183","Longitude":"-64.57198","Snowdepth":"1.600","Units":"in","Rept_Date":"2019-12-28 11"},"coordinates":[7667,4552]},{"type":"Point","properties":{"Station_ID":"WI-WH-7","Station_Nam":"WILD ROSE 0.5 E, WI","Latitude":"44.17764","Longitude":"-89.23812","Snowdepth":"1.500","Units":"in","Rept_Date":"2019-12-28 13"},"coordinates":[1878,2363]},{"type":"Point","properties":{"Station_ID":"VT-AD-20","Station_Nam":"HANCOCK 0.3 S, VT","Latitude":"43.92166","Longitude":"-72.84042","Snowdepth":"1.500","Units":"in","Rept_Date":"2019-12-28 12"},"coordinates":[5726,2104]},{"type":"Point","properties":{"Station_ID":"SD-RB-4","Station_Nam":"SISSETON 10.4 ENE, SD","Latitude":"45.69480","Longitude":"-96.83480","Snowdepth":"1.500","Units":"in","Rept_Date":"2019-12-28 13"},"coordinates":[95,3897]},{"type":"Point","properties":{"Station_ID":"SD-BK-7","Station_Nam":"BROOKINGS 0.2 SSW, SD","Latitude":"44.30389","Longitude":"-96.78780","Snowdepth":"1.500","Units":"in","Rept_Date":"2019-12-28 13"},"coordinates":[106,2491]},{"type":"Point","properties":{"Station_ID":"NH-CR-11","Station_Nam":"NORTH CONWAY 1.4 SSW, NH","Latitude":"44.03556","Longitude":"-71.14010","Snowdepth":"1.500","Units":"in","Rept_Date":"2019-12-28 12"},"coordinates":[6125,2219]},{"type":"Point","properties":{"Station_ID":"NH-BK-29","Station_Nam":"SANBORNTON 2.3 WNW, NH","Latitude":"43.49730","Longitude":"-71.62800","Snowdepth":"1.500","Units":"in","Rept_Date":"2019-12-28 14"},