{"type":"Topology","objects":{"snowdepth_geo":{"type":"GeometryCollection","geometries":[{"type":"Point","coordinates":[-86.62,46.4258],"properties":{"Station_ID":"PRKM4","Station_Nam":"MUNISING EAST","Latitude":"46.42580","Longitude":"-86.62000","Snowdepth":"76.500","Units":"in","Rept_Date":"2025-04-22 06"}},{"type":"Point","coordinates":[-72.8154,44.5248],"properties":{"Station_ID":"MMNV1","Station_Nam":"MT. MANSFIELD","Latitude":"44.52480","Longitude":"-72.81540","Snowdepth":"75.000","Units":"in","Rept_Date":"2025-04-21 20"}},{"type":"Point","coordinates":[-90.6567,50.2873],"properties":{"Station_ID":"SVBQ6","Station_Nam":"SAVANT BASE","Latitude":"50.28730","Longitude":"-90.65670","Snowdepth":"44.840","Units":"in","Rept_Date":"2025-04-22 06"}},{"type":"Point","coordinates":[-69.6747,50.7925],"properties":{"Station_ID":"CQOU","Station_Nam":"CQOU","Latitude":"50.79250","Longitude":"-69.67470","Snowdepth":"35.551","Units":"in","Rept_Date":"2025-04-21 12"}},{"type":"Point","coordinates":[-67.1394,51.1114],"properties":{"Station_ID":"CQGD","Station_Nam":"CQGD","Latitude":"51.11140","Longitude":"-67.13940","Snowdepth":"34.764","Units":"in","Rept_Date":"2025-04-21 12"}},{"type":"Point","coordinates":[-68.8236,50.6617],"properties":{"Station_ID":"CMLZ","Station_Nam":"CMLZ","Latitude":"50.66170","Longitude":"-68.82360","Snowdepth":"28.307","Units":"in","Rept_Date":"2025-04-21 12"}},{"type":"Point","coordinates":[-86.6625,46.4121],"properties":{"Station_ID":"MNSM4","Station_Nam":"MUNISING","Latitude":"46.41210","Longitude":"-86.66250","Snowdepth":"26.000","Units":"in","Rept_Date":"2025-04-21 11"}},{"type":"Point","coordinates":[-69.3569,49.66],"properties":{"Station_ID":"CQTV","Station_Nam":"CQTV","Latitude":"49.66000","Longitude":"-69.35690","Snowdepth":"22.835","Units":"in","Rept_Date":"2025-04-21 12"}},{"type":"Point","coordinates":[-88.6717,47.0416],"properties":{"Station_ID":"PDLM4","Station_Nam":"PAINESDALE","Latitude":"47.04160","Longitude":"-88.67170","Snowdepth":"22.000","Units":"in","Rept_Date":"2025-04-21 12"}},{"type":"Point","coordinates":[-67.6264,49.6472],"properties":{"Station_ID":"CQGT","Station_Nam":"CQGT","Latitude":"49.64720","Longitude":"-67.62640","Snowdepth":"21.142","Units":"in","Rept_Date":"2025-04-21 12"}},{"type":"Point","coordinates":[-70.0806,51.3283],"properties":{"Station_ID":"CQCX","Station_Nam":"CQCX","Latitude":"51.32830","Longitude":"-70.08060","Snowdepth":"20.787","Units":"in","Rept_Date":"2025-04-21 12"}},{"type":"Point","coordinates":[-87.2292,49.2288],"properties":{"Station_ID":"TRIQ6","Station_Nam":"TRIO LAKE","Latitude":"49.22880","Longitude":"-87.22920","Snowdepth":"20.120","Units":"in","Rept_Date":"2025-04-22 06"}},{"type":"Point","coordinates":[-75.1,50.7236],"properties":{"Station_ID":"CQLB","Station_Nam":"CQLB","Latitude":"50.72360","Longitude":"-75.10000","Snowdepth":"18.622","Units":"in","Rept_Date":"2025-04-21 12"}},{"type":"Point","coordinates":[-74.2064,48.855],"properties":{"Station_ID":"CQGO","Station_Nam":"CQGO","Latitude":"48.85500","Longitude":"-74.20640","Snowdepth":"18.504","Units":"in","Rept_Date":"2025-04-21 12"}},{"type":"Point","coordinates":[-66.9111,51.5217],"properties":{"Station_ID":"CMFU","Station_Nam":"CMFU","Latitude":"51.52170","Longitude":"-66.91110","Snowdepth":"17.716","Units":"in","Rept_Date":"2025-04-21 12"}},{"type":"Point","coordinates":[-70.4719,50.1033],"properties":{"Station_ID":"CQMA","Station_Nam":"CQMA","Latitude":"50.10330","Longitude":"-70.47190","Snowdepth":"17.283","Units":"in","Rept_Date":"2025-04-21 12"}},{"type":"Point","coordinates":[-82.5757,48.526],"properties":{"Station_ID":"AUDQ6","Station_Nam":"AUDEN","Latitude":"48.52600","Longitude":"-82.57570","Snowdepth":"16.730","Units":"in","Rept_Date":"2025-04-22 06"}},{"type":"Point","coordinates":[-87.7644,49.1989],"properties":{"Station_ID":"DVLQ6","Station_Nam":"DEVIOUS LAKE","Latitude":"49.19890","Longitude":"-87.76440","Snowdepth":"16.020","Units":"in","Rept_Date":"2025-04-22 06"}},{"type":"Point","coordinates":[-70.2528,48.9203],"properties":{"Station_ID":"CQLM","Station_Nam":"CQLM","Latitude":"48.92030","Longitude":"-70.25280","Snowdepth":"15.905","Units":"in","Rept_Date":"2025-04-21 12"}},{"type":"Point","coordinates":[-66.13279,47.90803],"properties":{"Station_ID":"CAN-NB-50","Station_Nam":"DOYLEVILLE 2.4 WNW, CAN","Latitude":"47.90803","Longitude":"-66.13279","Snowdepth":"15.200","Units":"in","Rept_Date":"2025-04-21 12"}},{"type":"Point","coordinates":[-68.8406,51.2833],"properties":{"Station_ID":"CMRL","Station_Nam":"CMRL","Latitude":"51.28330","Longitude":"-68.84060","Snowdepth":"15.039","Units":"in","Rept_Date":"2025-04-21 12"}},{"type":"Point","coordinates":[-76.6234,39.39474],"properties":{"Station_ID":"013MD_MADIS","Station_Nam":"TOWSON 1 WSW","Latitude":"39.39474","Longitude":"-76.62340","Snowdepth":"14.570","Units":"in","Rept_Date":"2025-04-22 06"}},{"type":"Point","coordinates":[-86.6594,49.0695],"properties":{"Station_ID":"PTLQ6","Station_Nam":"PORTAGE LAKE","Latitude":"49.06950","Longitude":"-86.65940","Snowdepth":"13.980","Units":"in","Rept_Date":"2025-04-22 06"}},{"type":"Point","coordinates":[-74.4039,50.8328],"properties":{"Station_ID":"CQFT","Station_Nam":"CQFT","Latitude":"50.83280","Longitude":"-74.40390","Snowdepth":"13.031","Units":"in","Rept_Date":"2025-04-21 12"}},{"type":"Point","coordinates":[-88.5795,47.1364],"properties":{"Station_ID":"QNCM4","Station_Nam":"QUINCY HILL","Latitude":"47.13640","Longitude":"-88.57950","Snowdepth":"13.000","Units":"in","Rept_Date":"2025-04-21 11"}},{"type":"Point","coordinates":[-88.2077,46.5573],"properties":{"Station_ID":"MI-BG-3","Station_Nam":"THREE LAKES, MI","Latitude":"46.55730","Longitude":"-88.20770","Snowdepth":"12.500","Units":"in","Rept_Date":"2025-04-21 12"}},{"type":"Point","coordinates":[-76.9411,39.00999],"properties":{"Station_ID":"006MD_MADIS","Station_Nam":"COLLEGE PARK 2 N","Latitude":"39.00999","Longitude":"-76.94110","Snowdepth":"12.240","Units":"in","Rept_Date":"2025-04-22 06"}},{"type":"Point","coordinates":[-72.5719,51.0578],"properties":{"Station_ID":"CQTM","Station_Nam":"CQTM","Latitude":"51.05780","Longitude":"-72.57190","Snowdepth":"12.205","Units":"in","Rept_Date":"2025-04-21 12"}},{"type":"Point","coordinates":[-76.5983,47.8275],"properties":{"Station_ID":"CQCU","Station_Nam":"CQCU","Latitude":"47.82750","Longitude":"-76.59830","Snowdepth":"11.772","Units":"in","Rept_Date":"2025-04-21 12"}},{"type":"Point","coordinates":[-87.8582,50.7668],"properties":{"Station_ID":"OGIQ6","Station_Nam":"OGOKI CAMP","Latitude":"50.76680","Longitude":"-87.85820","Snowdepth":"11.300","Units":"in","Rept_Date":"2025-04-22 06"}},{"type":"Point","coordinates":[-68.5431,49.8239],"properties":{"Station_ID":"CQIQ","Station_Nam":"CQIQ","Latitude":"49.82390","Longitude":"-68.54310","Snowdepth":"9.173","Units":"in","Rept_Date":"2025-04-21 12"}},{"type":"Point","coordinates":[-72.2824,44.1944],"properties":{"Station_ID":"VT-CL-3","Station_Nam":"GROTON 4.4 WSW, VT","Latitude":"44.19440","Longitude":"-72.28240","Snowdepth":"9.000","Units":"in","Rept_Date":"2025-04-21 10"}},{"type":"Point","coordinates":[-75.7861,39.62494],"properties":{"Station_ID":"DE-NC-2","Station_Nam":"NEWARK 3.9 SSW, DE","Latitude":"39.62494","Longitude":"-75.78610","Snowdepth":"9.000","Units":"in","Rept_Date":"2025-04-21 11"}},{"type":"Point","coordinates":[-91.45,45.8667],"properties":{"Station_ID":"COUW3","Station_Nam":"COUDERAY,WI","Latitude":"45.86670","Longitude":"-91.45000","Snowdepth":"9.000","Units":"in","Rept_Date":"2025-04-21 21"}},{"type":"Point","coordinates":[-75.6992,38.17779],"properties":{"Station_ID":"011MD_MADIS","Station_Nam":"PRINCESS ANNE 2 S","Latitude":"38.17779","Longitude":"-75.69920","Snowdepth":"8.620","Units":"in","Rept_Date":"2025-04-22 06"}},{"type":"Point","coordinates":[-88.3333,46.65],"properties":{"Station_ID":"HERM4","Station_Nam":"HERMAN,MI","Latitude":"46.65000","Longitude":"-88.33330","Snowdepth":"8.000","Units":"in","Rept_Date":"2025-04-21 13"}},{"type":"Point","coordinates":[-73.8067,47.8461],"properties":{"Station_ID":"CQWE","Station_Nam":"CQWE","Latitude":"47.84610","Longitude":"-73.80670","Snowdepth":"7.716","Units":"in","Rept_Date":"2025-04-21 12"}},{"type":"Point","coordinates":[-91.793,50.7787],"properties":{"Station_ID":"SOCQ6","Station_Nam":"SOCKET LAKE","Latitude":"50.77870","Longitude":"-91.79300","Snowdepth":"7.130","Units":"in","Rept_Date":"2025-04-22 06"}},{"type":"Point","coordinates":[-72.2011,51.4528],"properties":{"Station_ID":"CQCO","Station_Nam":"CQCO","Latitude":"51.45280","Longitude":"-72.20110","Snowdepth":"6.693","Units":"in","Rept_Date":"2025-04-21 12"}},{"type":"Point","coordinates":[-73.7381,47.2564],"properties":{"Station_ID":"CQGA","Station_Nam":"CQGA","Latitude":"47.25640","Longitude":"-73.73810","Snowdepth":"6.614","Units":"in","Rept_Date":"2025-04-21 12"}},{"type":"Point","coordinates":[-88.7038,49.19],"properties":{"Station_ID":"NONQ6","Station_Nam":"NONWATIN","Latitude":"49.19000","Longitude":"-88.70380","Snowdepth":"5.670","Units":"in","Rept_Date":"2025-04-22 06"}},{"type":"Point","coordinates":[-86.9375,50.6386],"properties":{"Station_ID":"ANAQ6","Station_Nam":"ANACONDA","Latitude":"50.63860","Longitude":"-86.93750","Snowdepth":"5.470","Units":"in","Rept_Date":"2025-04-22 06"}},{"type":"Point","coordinates":[-88.5294,47.10774],"properties":{"Station_ID":"MI-HG-1","Station_Nam":"HOUGHTON 1.6 ESE, MI","Latitude":"47.10774","Longitude":"-88.52940","Snowdepth":"5.000","Units":"in","Rept_Date":"2025-04-21 12"}},{"type":"Point","coordinates":[-89.1799,49.5995],"properties":{"Station_ID":"KABQ6","Station_Nam":"CAB LAKE","Latitude":"49.59950","Longitude":"-89.17990","Snowdepth":"4.720","Units":"in","Rept_Date":"2025-04-22 06"}},{"type":"Point","coordinates":[-88.6926,47.13156],"properties":{"Station_ID":"MI-HG-21","Station_Nam":"ATLANTIC MINE 3.9 NW, MI","Latitude":"47.13156","Longitude":"-88.69260","Snowdepth":"4.500","Units":"in","Rept_Date":"2025-04-21 11"}},{"type":"Point","coordinates":[-86.95857,46.5029],"properties":{"Station_ID":"MI-AG-8","Station_Nam":"AU TRAIN 7.8 NW, MI","Latitude":"46.50290","Longitude":"-86.95857","Snowdepth":"4.500","Units":"in","Rept_Date":"2025-04-21 12"}},{"type":"Point","coordinates":[-75.845,49.2906],"properties":{"Station_ID":"CQMD","Station_Nam":"CQMD","Latitude":"49.29060","Longitude":"-75.84500","Snowdepth":"4.449","Units":"in","Rept_Date":"2025-04-21 12"}},{"type":"Point","coordinates":[-91.8659,46.55521],"properties":{"Station_ID":"WI-DG-31","Station_Nam":"POPLAR 4.1 WSW, WI","Latitude":"46.55521","Longitude":"-91.86590","Snowdepth":"4.100","Units":"in","Rept_Date":"2025-04-21 12"}},{"type":"Point","coordinates":[-86.70099,50.21269],"properties":{"Station_ID":"CAN-ON-224","Station_Nam":"NAKINA 3.8 N - MNRF, CAN","Latitude":"50.21269","Longitude":"-86.70099","Snowdepth":"3.900","Units":"in","Rept_Date":"2025-04-21 13"}},{"type":"Point","coordinates":[-90.87444,48.14388],"properties":{"Station_ID":"MN-CK-56","Station_Nam":"GRAND MARAIS 36.2 NW, MN","Latitude":"48.14388","Longitude":"-90.87444","Snowdepth":"3.500","Units":"in","Rept_Date":"2025-04-21 12"}},{"type":"Point","coordinates":[-86.72684,50.1891],"properties":{"Station_ID":"CAN-ON-335","Station_Nam":"NAKINA 1.6 NW - MNRF, CAN","Latitude":"50.18910","Longitude":"-86.72684","Snowdepth":"3.500","Units":"in","Rept_Date":"2025-04-21 12"}},{"type":"Point","coordinates":[-91.1973,47.3824],"properties":{"Station_ID":"WLFM5","Station_Nam":"WOLF RIDGE ENVIRON LEARNING CENTER","Latitude":"47.38240","Longitude":"-91.19730","Snowdepth":"3.000","Units":"in","Rept_Date":"2025-04-21 12"}},{"type":"Point","coordinates":[-73.4594,48.4889],"properties":{"Station_ID":"CQWG","Station_Nam":"CQWG","Latitude":"48.48890","Longitude":"-73.45940","Snowdepth":"2.874","Units":"in","Rept_Date":"2025-04-21 12"}},{"type":"Point","coordinates":[-73.9228,50.2708],"properties":{"Station_ID":"CQLI","Station_Nam":"CQLI","Latitude":"50.27080","Longitude":"-73.92280","Snowdepth":"2.205","Units":"in","Rept_Date":"2025-04-21 12"}},{"type":"Point","coordinates":[-76.8431,38.59709],"properties":{"Station_ID":"010MD_MADIS","Station_Nam":"WALDORF 4 ESE","Latitude":"38.59709","Longitude":"-76.84310","Snowdepth":"2.170","Units":"in","Rept_Date":"2025-04-22 06"}},{"type":"Point","coordinates":[-76.7767,38.86236],"properties":{"Station_ID":"009MD_MADIS","Station_Nam":"UPPER MARLBORO 3 NNW","Latitude":"38.86236","Longitude":"-76.77670","Snowdepth":"2.170","Units":"in","Rept_Date":"2025-04-22 06"}},{"type":"Point","coordinates":[-88.417,47.2752],"properties":{"Station_ID":"KSGM4","Station_Nam":"KEARSARGE","Latitude":"47.27520","Longitude":"-88.41700","Snowdepth":"2.000","Units":"in","Rept_Date":"2025-04-21 11"}},{"type":"Point","coordinates":[-92.1659,46.40955],"properties":{"Station_ID":"76881_MADIS","Station_Nam":"FOXBORO 8.5 SE, WI","Latitude":"46.40955","Longitude":"-92.16590","Snowdepth":"2.000","Units":"in","Rept_Date":"2025-04-21 12"}},{"type":"Point","coordinates":[-76.9258,39.26249],"properties":{"Station_ID":"001MD_MADIS","Station_Nam":"CLARKSVILLE 4 NNE","Latitude":"39.26249","Longitude":"-76.92580","Snowdepth":"1.570","Units":"in","Rept_Date":"2025-04-22 06"}},{"type":"Point","coordinates":[-91.96437,45.69577],"properties":{"Station_ID":"WI-WB-19","Station_Nam":"SHELL LAKE 4.3 SW, WI","Latitude":"45.69577","Longitude":"-91.96437","Snowdepth":"1.500","Units":"in","Rept_Date":"2025-04-21 13"}},{"type":"Point","coordinates":[-90.1696,46.388],"properties":{"Station_ID":"WI-IR-6","Station_Nam":"HURLEY 4.1 SSE, WI","Latitude":"46.38800","Longitude":"-90.16960","Snowdepth":"1.500","Units":"in","Rept_Date":"2025-04-21 12"}},{"type":"Point","coordinates":[-77.9385,39.69766],"properties":{"Station_ID":"015MD_MADIS","Station_Nam":"CLEAR SPRING 3 N","Latitude":"39.69766","Longitude":"-77.93850","Snowdepth":"1.340","Units":"in","Rept_Date":"2025-04-22 06"}},{"type":"Point","coordinates":[-54.63396,48.97737],"properties":{"Station_ID":"CAN-NL-82","Station_Nam":"GANDER 2.7 NW, CAN","Latitude":"48.97737","Longitude":"-54.63396","Snowdepth":"1.200","Units":"in","Rept_Date":"2025-04-21 09"}},{"type":"Point","coordinates":[-91.75905,45.69597],"properties":{"Station_ID":"WI-WB-32","Station_Nam":"SARONA 2.5 ESE, WI","Latitude":"45.69597","Longitude":"-91.75905","Snowdepth":"1.000","Units":"in","Rept_Date":"2025-04-21 12"}},{"type":"Point","coordinates":[-91.67867,45.75095],"properties":{"Station_ID":"WI-WB-20","Station_Nam":"SARONA 6.8 ENE, WI","Latitude":"45.75095","Longitude":"-91.67867","Snowdepth":"1.000","Units":"in","Rept_Date":"2025-04-21 13"}},{"type":"Point","coordinates":[-91.5771,45.8596],"properties":{"Station_ID":"WI-WB-2","Station_Nam":"STONE LAKE 2.0 NW, WI","Latitude":"45.85960","Longitude":"-91.57710","Snowdepth":"1.000","Units":"in","Rept_Date":"2025-04-21 12"}},{"type":"Point","coordinates":[-91.405,46.13255],"properties":{"Station_ID":"WI-SR-1","Station_Nam":"HAYWARD 9.2 NNE, WI","Latitude":"46.13255","Longitude":"-91.40500","Snowdepth":"1.000","Units":"in","Rept_Date":"2025-04-21 11"}},{"type":"Point","coordinates":[-90.4122,46.3678],"properties":{"Station_ID":"UPSW3","Station_Nam":"UPSON,WI","Latitude":"46.36780","Longitude":"-90.41220","Snowdepth":"1.000","Units":"in","Rept_Date":"2025-04-21 23"}},{"type":"Point","coordinates":[-91.1959,47.339],"properties":{"Station_ID":"TETM5","Station_Nam":"TETTEGOUCHE STATE PARK","Latitude":"47.33900","Longitude":"-91.19590","Snowdepth":"1.000","Units":"in","Rept_Date":"2025-04-21 13"}},{"type":"Point","coordinates":[-91.86862,47.88254],"properties":{"Station_ID":"MN-SL-328","Station_Nam":"ELY 1.8 SSW, MN","Latitude":"47.88254","Longitude":"-91.86862","Snowdepth":"1.000","Units":"in","Rept_Date":"2025-04-21 12"}},{"type":"Point","coordinates":[-92.59335,46.39529],"properties":{"Station_ID":"MN-PN-64","Station_Nam":"KERRICK 3.9 N, MN","Latitude":"46.39529","Longitude":"-92.59335","Snowdepth":"1.000","Units":"in","Rept_Date":"2025-04-21 12"}},{"type":"Point","coordinates":[-72.8333,44.5333],"properties":{"Station_ID":"MMSV1","Station_Nam":"MOUNT MANSFIELD","Latitude":"44.53330","Longitude":"-72.83330","Snowdepth":"1.000","Units":"in","Rept_Date":"2025-04-22 06"}},{"type":"Point","coordinates":[-90.1382,46.4652],"properties":{"Station_ID":"IWOM4","Station_Nam":"IRONWOOD#2","Latitude":"46.46520","Longitude":"-90.13820","Snowdepth":"1.000","Units":"in","Rept_Date":"2025-04-21 12"}},{"type":"Point","coordinates":[-90.1833,46.4667],"properties":{"Station_ID":"IRMM4","Station_Nam":"WWTP","Latitude":"46.46670","Longitude":"-90.18330","Snowdepth":"1.000","Units":"in","Rept_Date":"2025-04-21 12"}},{"type":"Point","coordinates":[-92.2108,46.8368],"properties":{"Station_ID":"DLHM5","Station_Nam":"DULUTH NWS","Latitude":"46.83680","Longitude":"-92.21080","Snowdepth":"1.000","Units":"in","Rept_Date":"2025-04-22 05"}},{"type":"Point","coordinates":[-90.9808,46.1694],"properties":{"Station_ID":"CMKW3","Station_Nam":"CLAM LAKE 4W","Latitude":"46.16940","Longitude":"-90.98080","Snowdepth":"1.000","Units":"in","Rept_Date":"2025-04-21 12"}},{"type":"Point","coordinates":[-91.5919,46.5378],"properties":{"Station_ID":"BRSW3","Station_Nam":"BRULE RANGER STATION","Latitude":"46.53780","Longitude":"-91.59190","Snowdepth":"1.000","Units":"in","Rept_Date":"2025-04-21 15"}}]}},"arcs":[],"bbox":[-92.59335,38.17779,-54.63396,51.5217]}
