{"type":"Topology","objects":{"snowdepth_geo":{"type":"GeometryCollection","name":"snowdepth","crs":{"type":"name","properties":{"name":"urn:ogc:def:crs:OGC:1.3:CRS84"}},"geometries":[{"type":"Point","properties":{"Station_ID":"MMSV1","Station_Nam":"MOUNT MANSFIELD","Latitude":"44.53330","Longitude":"-72.83330","Snowdepth":"83.000","Units":"in","Rept_Date":"2019-12-03 05"},"coordinates":[5728,5640]},{"type":"Point","properties":{"Station_ID":"PRKM4","Station_Nam":"MUNISING EAST","Latitude":"46.42580","Longitude":"-86.62000","Snowdepth":"76.500","Units":"in","Rept_Date":"2019-12-03 06"},"coordinates":[2492,6787]},{"type":"Point","properties":{"Station_ID":"MN-RM-63","Station_Nam":"NORTH SAINT PAUL 1.0 NW, MN","Latitude":"45.02410","Longitude":"-93.01400","Snowdepth":"65.000","Units":"in","Rept_Date":"2019-12-02 13"},"coordinates":[991,5938]},{"type":"Point","properties":{"Station_ID":"OGIQ6","Station_Nam":"OGOKI CAMP","Latitude":"50.76680","Longitude":"-87.85820","Snowdepth":"61.100","Units":"in","Rept_Date":"2019-12-03 06"},"coordinates":[2202,9417]},{"type":"Point","properties":{"Station_ID":"AUDQ6","Station_Nam":"AUDEN","Latitude":"48.52600","Longitude":"-82.57570","Snowdepth":"47.640","Units":"in","Rept_Date":"2019-12-03 06"},"coordinates":[3441,8060]},{"type":"Point","properties":{"Station_ID":"DVLQ6","Station_Nam":"DEVIOUS LAKE","Latitude":"49.19890","Longitude":"-87.76440","Snowdepth":"43.460","Units":"in","Rept_Date":"2019-12-03 06"},"coordinates":[2224,8467]},{"type":"Point","properties":{"Station_ID":"IWOM4","Station_Nam":"IRONWOOD#2","Latitude":"46.46520","Longitude":"-90.13820","Snowdepth":"31.000","Units":"in","Rept_Date":"2019-12-02 13"},"coordinates":[1666,6811]},{"type":"Point","properties":{"Station_ID":"HURW3","Station_Nam":"HURLEY","Latitude":"46.46250","Longitude":"-90.19550","Snowdepth":"31.000","Units":"in","Rept_Date":"2019-12-02 14"},"coordinates":[1653,6809]},{"type":"Point","properties":{"Station_ID":"GMSM4","Station_Nam":"GRAND MARAIS 10S","Latitude":"46.50940","Longitude":"-85.96310","Snowdepth":"30.000","Units":"in","Rept_Date":"2019-12-02 12"},"coordinates":[2646,6838]},{"type":"Point","properties":{"Station_ID":"MAIW3","Station_Nam":"MADELINE ISLAND","Latitude":"46.78330","Longitude":"-90.76670","Snowdepth":"28.000","Units":"in","Rept_Date":"2019-12-02 14"},"coordinates":[1519,7004]},{"type":"Point","properties":{"Station_ID":"SWTW3","Station_Nam":"SUPERIOR WWTP","Latitude":"46.72700","Longitude":"-92.07200","Snowdepth":"27.000","Units":"in","Rept_Date":"2019-12-03 06"},"coordinates":[1213,6970]},{"type":"Point","properties":{"Station_ID":"WRSM5","Station_Nam":"WRENSHALL","Latitude":"46.61550","Longitude":"-92.38380","Snowdepth":"26.000","Units":"in","Rept_Date":"2019-12-02 14"},"coordinates":[1139,6902]},{"type":"Point","properties":{"Station_ID":"IRMM4","Station_Nam":"WWTP","Latitude":"46.46670","Longitude":"-90.18330","Snowdepth":"26.000","Units":"in","Rept_Date":"2019-12-02 13"},"coordinates":[1656,6812]},{"type":"Point","properties":{"Station_ID":"WI-DG-16","Station_Nam":"POPLAR 2.0 E, WI","Latitude":"46.58390","Longitude":"-91.74620","Snowdepth":"25.500","Units":"in","Rept_Date":"2019-12-02 13"},"coordinates":[1289,6883]},{"type":"Point","properties":{"Station_ID":"MQT","Station_Nam":"MARQUETTE, MI","Latitude":"46.53140","Longitude":"-87.54920","Snowdepth":"25.000","Units":"in","Rept_Date":"2019-12-03 06"},"coordinates":[2274,6851]},{"type":"Point","properties":{"Station_ID":"WI-IR-3","Station_Nam":"PENCE 0.1 E, WI","Latitude":"46.41555","Longitude":"-90.27013","Snowdepth":"24.000","Units":"in","Rept_Date":"2019-12-02 13"},"coordinates":[1635,6781]},{"type":"Point","properties":{"Station_ID":"HTLN3","Station_Nam":"HERMIT LAKE SNOWPLOT","Latitude":"44.26130","Longitude":"-71.28330","Snowdepth":"24.000","Units":"in","Rept_Date":"2019-12-02 11"},"coordinates":[6092,5476]},{"type":"Point","properties":{"Station_ID":"BRKM4","Station_Nam":"BARK RIVER","Latitude":"45.70940","Longitude":"-87.31310","Snowdepth":"24.000","Units":"in","Rept_Date":"2019-12-02 13"},"coordinates":[2329,6353]},{"type":"Point","properties":{"Station_ID":"BFHW3","Station_Nam":"BAYFIELD FISH HATCHERY","Latitude":"46.78670","Longitude":"-90.86420","Snowdepth":"24.000","Units":"in","Rept_Date":"2019-12-02 14"},"coordinates":[1496,7006]},{"type":"Point","properties":{"Station_ID":"WI-DG-20","Station_Nam":"SOLON SPRINGS 1.2 W, WI","Latitude":"46.35217","Longitude":"-91.84405","Snowdepth":"23.000","Units":"in","Rept_Date":"2019-12-02 13"},"coordinates":[1266,6742]},{"type":"Point","properties":{"Station_ID":"MI-MQ-19","Station_Nam":"ISHPEMING 7.2 SW, MI","Latitude":"46.40550","Longitude":"-87.75670","Snowdepth":"23.000","Units":"in","Rept_Date":"2019-12-02 11"},"coordinates":[2225,6775]},{"type":"Point","properties":{"Station_ID":"KISM4","Station_Nam":"K.I. SAWYER WWTP","Latitude":"46.33410","Longitude":"-87.37790","Snowdepth":"23.000","Units":"in","Rept_Date":"2019-12-02 13"},"coordinates":[2314,6731]},{"type":"Point","properties":{"Station_ID":"WI-BY-14","Station_Nam":"ASHLAND 9.8 W, WI","Latitude":"46.59742","Longitude":"-91.07856","Snowdepth":"22.000","Units":"in","Rept_Date":"2019-12-02 12"},"coordinates":[1446,6891]},{"type":"Point","properties":{"Station_ID":"PDLM4","Station_Nam":"PAINESDALE","Latitude":"47.04160","Longitude":"-88.67170","Snowdepth":"22.000","Units":"in","Rept_Date":"2019-12-02 13"},"coordinates":[2011,7160]},{"type":"Point","properties":{"Station_ID":"PDGM4","Station_Nam":"PAULDING","Latitude":"46.39760","Longitude":"-89.17940","Snowdepth":"22.000","Units":"in","Rept_Date":"2019-12-02 13"},"coordinates":[1891,6770]},{"type":"Point","properties":{"Station_ID":"ESAM4","Station_Nam":"ESCANABA","Latitude":"45.74380","Longitude":"-87.04060","Snowdepth":"22.000","Units":"in","Rept_Date":"2019-12-02 12"},"coordinates":[2393,6374]},{"type":"Point","properties":{"Station_ID":"DLH","Station_Nam":"DULUTH, MN","Latitude":"46.83690","Longitude":"-92.21030","Snowdepth":"22.000","Units":"in","Rept_Date":"2019-12-03 00"},"coordinates":[1180,7036]},{"type":"Point","properties":{"Station_ID":"BRSW3","Station_Nam":"BRULE,WI","Latitude":"46.53780","Longitude":"-91.59190","Snowdepth":"22.000","Units":"in","Rept_Date":"2019-12-02 16"},"coordinates":[1325,6855]},{"type":"Point","properties":{"Station_ID":"AWXW3","Station_Nam":"ASHLAND","Latitude":"46.58240","Longitude":"-90.88390","Snowdepth":"22.000","Units":"in","Rept_Date":"2019-12-02 13"},"coordinates":[1491,6882]},{"type":"Point","properties":{"Station_ID":"MI-MM-1","Station_Nam":"SPALDING 0.5 NW, MI","Latitude":"45.69894","Longitude":"-87.51530","Snowdepth":"21.700","Units":"in","Rept_Date":"2019-12-02 14"},"coordinates":[2282,6347]},{"type":"Point","properties":{"Station_ID":"WI-AS-4","Station_Nam":"ASHLAND 0.5 WNW, WI","Latitude":"46.58240","Longitude":"-90.88390","Snowdepth":"21.500","Units":"in","Rept_Date":"2019-12-02 13"},"coordinates":[1491,6882]},{"type":"Point","properties":{"Station_ID":"WLFM5","Station_Nam":"WOLF RIDGE ENVIRON LEARNING CENTER","Latitude":"47.38240","Longitude":"-91.19730","Snowdepth":"21.000","Units":"in","Rept_Date":"2019-12-02 13"},"coordinates":[1418,7367]},{"type":"Point","properties":{"Station_ID":"VT-BN-12","Station_Nam":"STAMFORD 5.0 NNE, VT","Latitude":"42.82000","Longitude":"-73.02000","Snowdepth":"21.000","Units":"in","Rept_Date":"2019-12-02 21"},"coordinates":[5684,4602]},{"type":"Point","properties":{"Station_ID":"RPDM4","Station_Nam":"RAPID RIVER 4SSE","Latitude":"45.87270","Longitude":"-86.94960","Snowdepth":"21.000","Units":"in","Rept_Date":"2019-12-02 14"},"coordinates":[2415,6452]},{"type":"Point","properties":{"Station_ID":"LVDW3","Station_Nam":"LAC VIEUX DESERT","Latitude":"46.12110","Longitude":"-89.07580","Snowdepth":"21.000","Units":"in","Rept_Date":"2019-12-02 14"},"coordinates":[1916,6602]},{"type":"Point","properties":{"Station_ID":"ILIM5","Station_Nam":"ISLAND LAKE","Latitude":"47.02400","Longitude":"-92.07000","Snowdepth":"21.000","Units":"in","Rept_Date":"2019-12-02 15"},"coordinates":[1213,7149]},{"type":"Point","properties":{"Station_ID":"GLDM4","Station_Nam":"GLADSTONE NO. 2","Latitude":"45.84330","Longitude":"-87.03910","Snowdepth":"21.000","Units":"in","Rept_Date":"2019-12-02 12"},"coordinates":[2394,6434]},{"type":"Point","properties":{"Station_ID":"MI-BG-3","Station_Nam":"L'ANSE 17.8 SE, MI","Latitude":"46.55730","Longitude":"-88.20770","Snowdepth":"20.700","Units":"in","Rept_Date":"2019-12-02 13"},"coordinates":[2119,6867]},{"type":"Point","properties":{"Station_ID":"WI-WB-2","Station_Nam":"STONE LAKE 2.0 NW, WI","Latitude":"45.85960","Longitude":"-91.57710","Snowdepth":"20.000","Units":"in","Rept_Date":"2019-12-02 13"},"coordinates":[1329,6444]},{"type":"Point","properties":{"Station_ID":"WI-BY-2","Station_Nam":"MELLEN 18.6 SW, WI","Latitude":"46.16937","Longitude":"-90.98090","Snowdepth":"20.000","Units":"in","Rept_Date":"2019-12-02 13"},"coordinates":[1469,6632]},{"type":"Point","properties":{"Station_ID":"SUAW3","Station_Nam":"SUAMICO","Latitude":"44.60190","Longitude":"-88.09780","Snowdepth":"20.000","Units":"in","Rept_Date":"2019-12-02 12"},"coordinates":[2145,5682]},{"type":"Point","properties":{"Station_ID":"NY-SC-2","Station_Nam":"SCOTIA 1.1 NW, NY","Latitude":"42.84473","Longitude":"-73.97480","Snowdepth":"20.000","Units":"in","Rept_Date":"2019-12-02 11"},"coordinates":[5460,4617]},{"type":"Point","properties":{"Station_ID":"LNOW3","Station_Nam":"LAND O LAKES","Latitude":"46.19000","Longitude":"-89.45700","Snowdepth":"20.000","Units":"in","Rept_Date":"2019-12-02 13"},"coordinates":[1826,6644]},{"type":"Point","properties":{"Station_ID":"ENGM4","Station_Nam":"ENGADINE MDOT","Latitude":"46.12800","Longitude":"-85.56960","Snowdepth":"20.000","Units":"in","Rept_Date":"2019-12-02 12"},"coordinates":[2739,6607]},{"type":"Point","properties":{"Station_ID":"DLHM5","Station_Nam":"DULUTH NWS","Latitude":"46.83680","Longitude":"-92.21080","Snowdepth":"20.000","Units":"in","Rept_Date":"2019-12-03 06"},"coordinates":[1180,7036]},{"type":"Point","properties":{"Station_ID":"CMKW3","Station_Nam":"CLAM LAKE 4W","Latitude":"46.16940","Longitude":"-90.98080","Snowdepth":"20.000","Units":"in","Rept_Date":"2019-12-02 13"},"coordinates":[1469,6632]},{"type":"Point","properties":{"Station_ID":"WI-VL-9","Station_Nam":"LAND O' LAKES 11.7 W, WI","Latitude":"46.19023","Longitude":"-89.45790","Snowdepth":"19.500","Units":"in","Rept_Date":"2019-12-02 13"},"coordinates":[1826,6644]},{"type":"Point","properties":{"Station_ID":"WTRM4","Station_Nam":"WATERSMEET 12WSW","Latitude":"46.22310","Longitude":"-89.40850","Snowdepth":"19.000","Units":"in","Rept_Date":"2019-12-02 12"},"coordinates":[1838,6664]},{"type":"Point","properties":{"Station_ID":"GGRM4","Station_Nam":"GREEN GARDEN NO.2","Latitude":"46.45330","Longitude":"-87.30380","Snowdepth":"19.000","Units":"in","Rept_Date":"2019-12-02 11"},"coordinates":[2332,6804]},{"type":"Point","properties":{"Station_ID":"WI-WB-16","Station_Nam":"SARONA 4.5 NNE, WI","Latitude":"45.77030","Longitude":"-91.76890","Snowdepth":"18.500","Units":"in","Rept_Date":"2019-12-02 13"},"coordinates":[1284,6390]},{"type":"Point","properties":{"Station_ID":"WI-PR-6","Station_Nam":"PHILLIPS 1.3 S, WI","Latitude":"45.67677","Longitude":"-90.39543","Snowdepth":"18.500","Units":"in","Rept_Date":"2019-12-02 12"},"coordinates":[1606,6333]},{"type":"Point","properties":{"Station_ID":"CAN-NB-50","Station_Nam":"DOYLEVILLE 2.4 WNW, CAN","Latitude":"47.90803","Longitude":"-66.13279","Snowdepth":"18.500","Units":"in","Rept_Date":"2019-12-02 13"},"coordinates":[7300,7685]},{"type":"Point","properties":{"Station_ID":"WRPW3","Station_Nam":"WATER PURIFICATION PLANT","Latitude":"44.38800","Longitude":"-89.80550","Snowdepth":"18.000","Units":"in","Rept_Date":"2019-12-02 12"},"coordinates":[1744,5552]},{"type":"Point","properties":{"Station_ID":"WI-VL-10","Station_Nam":"LAND O LAKES 4.3 WNW, WI","Latitude":"46.17440","Longitude":"-89.30380","Snowdepth":"18.000","Units":"in","Rept_Date":"2019-12-02 13"},"coordinates":[1862,6635]},{"type":"Point","properties":{"Station_ID":"QNCM4","Station_Nam":"QUINCY HILL","Latitude":"47.13640","Longitude":"-88.57950","Snowdepth":"18.000","Units":"in","Rept_Date":"2019-12-02 12"},"coordinates":[2032,7218]},{"type":"Point","properties":{"Station_ID":"NY-SC-25","Station_Nam":"SCHENECTADY 2.7 SSW, NY","Latitude":"42.76502","Longitude":"-73.94293","Snowdepth":"18.000","Units":"in","Rept_Date":"2019-12-02 12"},"coordinates":[5467,4569]},{"type":"Point","properties":{"Station_ID":"NWCM4","Station_Nam":"NEWBERRY CITY","Latitude":"46.35720","Longitude":"-85.51780","Snowdepth":"18.000","Units":"in","Rept_Date":"2019-12-02 12"},"coordinates":[2751,6745]},{"type":"Point","properties":{"Station_ID":"MTQM4","Station_Nam":"MANISTIQUE WWTP","Latitude":"45.95120","Longitude":"-86.25130","Snowdepth":"18.000","Units":"in","Rept_Date":"2019-12-02 12"},"coordinates":[2579,6499]},{"type":"Point","properties":{"Station_ID":"MNSM4","Station_Nam":"MUNISING","Latitude":"46.41210","Longitude":"-86.66250","Snowdepth":"18.000","Units":"in","Rept_Date":"2019-12-02 11"},"coordinates":[2482,6779]},{"type":"Point","properties":{"Station_ID":"MI-DL-1","Station_Nam":"GARDEN CORNERS 0.8 NW, MI","Latitude":"45.89815","Longitude":"-86.54850","Snowdepth":"18.000","Units":"in","Rept_Date":"2019-12-02 13"},"coordinates":[2509,6467]},{"type":"Point","properties":{"Station_ID":"KALB","Station_Nam":"ALBANY INTERNATIONAL AIRPORT","Latitude":"42.75000","Longitude":"-73.80000","Snowdepth":"18.000","Units":"in","Rept_Date":"2019-12-03 06"},"coordinates":[5501,4560]},{"type":"Point","properties":{"Station_ID":"IBLM5","Station_Nam":"ISABELLA 14W","Latitude":"47.59360","Longitude":"-91.65140","Snowdepth":"18.000","Units":"in","Rept_Date":"2019-12-02 15"},"coordinates":[1311,7495]},{"type":"Point","properties":{"Station_ID":"HWLM4","Station_Nam":"HALFWAY LAKE","Latitude":"46.47480","Longitude":"-85.59250","Snowdepth":"18.000","Units":"in","Rept_Date":"2019-12-02 14"},"coordinates":[2733,6817]},{"type":"Point","properties":{"Station_ID":"GDCM4","Station_Nam":"GARDEN CORNERS","Latitude":"45.89830","Longitude":"-86.54850","Snowdepth":"18.000","Units":"in","Rept_Date":"2019-12-02 13"},"coordinates":[2509,6467]},{"type":"Point","properties":{"Station_ID":"CRVW3","Station_Nam":"CRIVITZ HIGH FALLS","Latitude":"45.35750","Longitude":"-88.19190","Snowdepth":"18.000","Units":"in","Rept_Date":"2019-12-02 13"},"coordinates":[2123,6140]},{"type":"Point","properties":{"Station_ID":"CEFM4","Station_Nam":"EXPERIMENT FARM #2","Latitude":"46.33330","Longitude":"-86.91670","Snowdepth":"18.000","Units":"in","Rept_Date":"2019-12-02 13"},"coordinates":[2422,6731]},{"type":"Point","properties":{"Station_ID":"BRUM5","Station_Nam":"BRUNO,MN","Latitude":"46.28330","Longitude":"-92.50000","Snowdepth":"18.000","Units":"in","Rept_Date":"2019-12-02 14"},"coordinates":[1112,6701]},{"type":"Point","properties":{"Station_ID":"ASTW3","Station_Nam":"ATHELSTANE","Latitude":"45.42500","Longitude":"-88.05750","Snowdepth":"18.000","Units":"in","Rept_Date":"2019-12-02 12"},"coordinates":[2155,6181]},{"type":"Point","properties":{"Station_ID":"WI-BT-14","Station_Nam":"OAKLAND 9.0 ENE, WI","Latitude":"45.95184","Longitude":"-92.21653","Snowdepth":"17.500","Units":"in","Rept_Date":"2019-12-02 13"},"coordinates":[1179,6500]},{"type":"Point","properties":{"Station_ID":"WI-RS-1","Station_Nam":"LADYSMITH 2.8 WNW, WI","Latitude":"45.48180","Longitude":"-91.14680","Snowdepth":"17.000","Units":"in","Rept_Date":"2019-12-02 13"},"coordinates":[1430,6215]},{"type":"Point","properties":{"Station_ID":"WI-ON-8","Station_Nam":"HAZELHURST 2.1 SSE, WI","Latitude":"45.78186","Longitude":"-89.70330","Snowdepth":"17.000","Units":"in","Rept_Date":"2019-12-02 13"},"coordinates":[1768,6397]},{"type":"Point","properties":{"Station_ID":"WI-BY-6","Station_Nam":"BARNES 2.2 S, WI","Latitude":"46.30264","Longitude":"-91.50320","Snowdepth":"17.000","Units":"in","Rept_Date":"2019-12-02 13"},"coordinates":[1346,6712]},{"type":"Point","properties":{"Station_ID":"VT-WH-9","Station_Nam":"WEST HALIFAX 0.2 SE, VT","Latitude":"42.78561","Longitude":"-72.76950","Snowdepth":"17.000","Units":"in","Rept_Date":"2019-12-02 13"},"coordinates":[5743,4581]},{"type":"Point","properties":{"Station_ID":"STGW3","Station_Nam":"ST GERMAIN","Latitude":"45.91550","Longitude":"-89.48940","Snowdepth":"17.000","Units":"in","Rept_Date":"2019-12-02 12"},"coordinates":[1819,6478]},{"type":"Point","properties":{"Station_ID":"NY-SC-16","Station_Nam":"NISKAYUNA 2.0 N, NY","Latitude":"42.84645","Longitude":"-73.89920","Snowdepth":"17.000","Units":"in","Rept_Date":"2019-12-02 12"},"coordinates":[5478,4618]},{"type":"Point","properties":{"Station_ID":"EVRW3","Station_Nam":"EAGLE RIVER-4 E","Latitude":"45.91890","Longitude":"-89.15280","Snowdepth":"17.000","Units":"in","Rept_Date":"2019-12-02 13"},"coordinates":[1898,6480]},{"type":"Point","properties":{"Station_ID":"AURW3","Station_Nam":"AURORA","Latitude":"45.77000","Longitude":"-88.11810","Snowdepth":"17.000","Units":"in","Rept_Date":"2019-12-02 13"},"coordinates":[2141,6390]},{"type":"Point","properties":{"Station_ID":"NY-AB-54","Station_Nam":"ALTAMONT 2.9 SW, NY","Latitude":"42.68182","Longitude":"-74.08326","Snowdepth":"16.500","Units":"in","Rept_Date":"2019-12-02 12"},"coordinates":[5434,4519]},{"type":"Point","properties":{"Station_ID":"QGD","Station_Nam":"QGD","Latitude":"51.11140","Longitude":"-67.13940","Snowdepth":"16.417","Units":"in","Rept_Date":"2019-12-02 12"},"coordinates":[7064,9626]},{"type":"Point","properties":{"Station_ID":"WI-PR-8","Station_Nam":"PHILLIPS 0.4 SSW, WI","Latitude":"45.69086","Longitude":"-90.40200","Snowdepth":"16.000","Units":"in","Rept_Date":"2019-12-02 13"},"coordinates":[1605,6342]},{"type":"Point","properties":{"Station_ID":"WI-PR-2","Station_Nam":"BUTTERNUT 5.9 SW, WI","Latitude":"45.96501","Longitude":"-90.59750","Snowdepth":"16.000","Units":"in","Rept_Date":"2019-12-02 12"},"coordinates":[1559,6508]},{"type":"Point","properties":{"Station_ID":"TOHM5","Station_Nam":"TWO HARBORS WWTP","Latitude":"47.01760","Longitude":"-91.66480","Snowdepth":"16.000","Units":"in","Rept_Date":"2019-12-02 13"},"coordinates":[1308,7146]},{"type":"Point","properties":{"Station_ID":"SRAW3","Station_Nam":"SARONA","Latitude":"45.80250","Longitude":"-91.86700","Snowdepth":"16.000","Units":"in","Rept_Date":"2019-12-02 14"},"coordinates":[1261,6409]},{"type":"Point","properties":{"Station_ID":"ROWM3","Station_Nam":"ROWE 3NE","Latitude":"42.73500","Longitude":"-72.86920","Snowdepth":"16.000","Units":"in","Rept_Date":"2019-12-02 12"},"coordinates":[5719,4551]},{"type":"Point","properties":{"Station_ID":"PRNW3","Station_Nam":"PRENTICE,WI","Latitude":"45.54780","Longitude":"-90.30000","Snowdepth":"16.000","Units":"in","Rept_Date":"2019-12-02 14"},"coordinates":[1628,6255]},{"type":"Point","properties":{"Station_ID":"NY-SC-20","Station_Nam":"ROTTERDAM 0.9 NW, NY","Latitude":"42.78862","Longitude":"-73.96671","Snowdepth":"16.000","Units":"in","Rept_Date":"2019-12-02 10"},"coordinates":[5462,4583]},{"type":"Point","properties":{"Station_ID":"NY-AB-32","Station_Nam":"GLENMONT 2.5 SW, NY","Latitude":"42.57539","Longitude":"-73.79950","Snowdepth":"16.000","Units":"in","Rept_Date":"2019-12-02 12"},"coordinates":[5501,4454]},{"type":"Point","properties":{"Station_ID":"MI-GG-4","Station_Nam":"WATERSMEET 5.0 SE, MI","Latitude":"46.20333","Longitude":"-89.13170","Snowdepth":"16.000","Units":"in","Rept_Date":"2019-12-02 14"},"coordinates":[1903,6652]},{"type":"Point","properties":{"Station_ID":"LTMW3","Station_Nam":"LAKE TOMAHAWK 2 SE","Latitude":"45.80750","Longitude":"-89.55830","Snowdepth":"16.000","Units":"in","Rept_Date":"2019-12-02 12"},"coordinates":[1803,6412]},{"type":"Point","properties":{"Station_ID":"LBKV1","Station_Nam":"LYE BROOK","Latitude":"43.05000","Longitude":"-73.03330","Snowdepth":"16.000","Units":"in","Rept_Date":"2019-12-03 06"},"coordinates":[5681,4742]},{"type":"Point","properties":{"Station_ID":"HRVM4","Station_Nam":"HARVEY","Latitude":"46.49080","Longitude":"-87.35470","Snowdepth":"16.000","Units":"in","Rept_Date":"2019-12-02 12"},"coordinates":[2320,6826]},{"type":"Point","properties":{"Station_ID":"HERM4","Station_Nam":"HERMAN,MI","Latitude":"46.65000","Longitude":"-88.33330","Snowdepth":"16.000","Units":"in","Rept_Date":"2019-12-02 13"},"coordinates":[2090,6923]},{"type":"Point","properties":{"Station_ID":"DLSN6","Station_Nam":"DELANSON 2NE","Latitude":"42.76720","Longitude":"-74.17110","Snowdepth":"16.000","Units":"in","Rept_Date":"2019-12-02 13"},"coordinates":[5414,4570]},{"type":"Point","properties":{"Station_ID":"CBVM1","Station_Nam":"CARRABASSETT VALLEY","Latitude":"45.08040","Longitude":"-70.30310","Snowdepth":"16.000","Units":"in","Rept_Date":"2019-12-02 12"},"coordinates":[6322,5972]},{"type":"Point","properties":{"Station_ID":"BSKN6","Station_Nam":"BUSKIRK","Latitude":"42.93610","Longitude":"-73.43250","Snowdepth":"16.000","Units":"in","Rept_Date":"2019-12-02 12"},"coordinates":[5587,4673]},{"type":"Point","properties":{"Station_ID":"WI-SR-5","Station_Nam":"HAYWARD 9.7 NE, WI","Latitude":"46.12030","Longitude":"-91.35370","Snowdepth":"15.500","Units":"in","Rept_Date":"2019-12-02 14"},"coordinates":[1381,6602]},{"type":"Point","properties":{"Station_ID":"WILW3","Station_Nam":"RESERVOIR","Latitude":"45.70000","Longitude":"-89.83330","Snowdepth":"15.000","Units":"in","Rept_Date":"2019-12-02 12"},"coordinates":[1738,6347]},{"type":"Point","properties":{"Station_ID":"NY-SC-11","Station_Nam":"SCHENECTADY 3.3 E, NY","Latitude":"42.79382","Longitude":"-73.86390","Snowdepth":"15.000","Units":"in","Rept_Date":"2019-12-02 14"},"coordinates":[5486,4586]},{"type":"Point","properties":{"Station_ID":"MRLV1","Station_Nam":"MARLBORO","Latitude":"42.86000","Longitude":"-72.72000","Snowdepth":"15.000","Units":"in","Rept_Date":"2019-12-02 13"},"coordinates":[5754,4626]},{"type":"Point","properties":{"Station_ID":"MRAM4","Station_Nam":"MORAN","Latitude":"45.99030","Longitude":"-84.83610","Snowdepth":"15.000","Units":"in","Rept_Date":"2019-12-02 13"},"coordinates":[2911,6523]},{"type":"Point","properties":{"Station_ID":"MN-SL-139","Station_Nam":"DULUTH 1.2 SE, MN","Latitude":"46.77000","Longitude":"-92.08826","Snowdepth":"15.000","Units":"in","Rept_Date":"2019-12-02 12"},"coordinates":[1209,6996]},{"type":"Point","properties":{"Station_ID":"MMNV1","Station_Nam":"MT. MANSFIELD","Latitude":"44.52480","Longitude":"-72.81540","Snowdepth":"15.000","Units":"in","Rept_Date":"2019-12-02 21"},"coordinates":[5732,5635]},{"type":"Point","properties":{"Station_ID":"MLLW3","Station_Nam":"MERRILL 8W","Latitude":"45.17810","Longitude":"-89.84810","Snowdepth":"15.000","Units":"in","Rept_Date":"2019-12-02 12"},"coordinates":[1735,6031]},{"type":"Point","properties":{"Station_ID":"MI-HG-1","Station_Nam":"HOUGHTON 1.6 ESE, MI","Latitude":"47.10774","Longitude":"-88.52940","Snowdepth":"15.000","Units":"in","Rept_Date":"2019-12-02 13"},"coordinates":[2044,7200]},{"type":"Point","properties":{"Station_ID":"MA-BE-21","Station_Nam":"CHESHIRE 0.5 NNW, MA","Latitude":"42.56315","Longitude":"-73.15701","Snowdepth":"15.000","Units":"in","Rept_Date":"2019-12-02 12"},"coordinates":[5652,4447]},{"type":"Point","properties":{"Station_ID":"JAPN3","Station_Nam":"JAFFREY SILVER RANCH AIRPARK","Latitude":"42.80880","Longitude":"-72.00530","Snowdepth":"15.000","Units":"in","Rept_Date":"2019-12-02 12"},"coordinates":[5922,4595]},{"type":"Point","properties":{"Station_ID":"ISEM5","Station_Nam":"ISLE 12N","Latitude":"46.31970","Longitude":"-93.50140","Snowdepth":"15.000","Units":"in","Rept_Date":"2019-12-02 14"},"coordinates":[877,6723]},{"type":"Point","properties":{"Station_ID":"EHYM3","Station_Nam":"EAST HAWLEY","Latitude":"42.57410","Longitude":"-72.86790","Snowdepth":"15.000","Units":"in","Rept_Date":"2019-12-02 13"},"coordinates":[5720,4453]},{"type":"Point","properties":{"Station_ID":"CRLM5","Station_Nam":"CROSS LAKE DAM","Latitude":"46.66930","Longitude":"-94.11060","Snowdepth":"15.000","Units":"in","Rept_Date":"2019-12-02 14"},"coordinates":[734,6935]},{"type":"Point","properties":{"Station_ID":"ALB","Station_Nam":"ALBANY INTL AP","Latitude":"42.74810","Longitude":"-73.80330","Snowdepth":"15.000","Units":"in","Rept_Date":"2019-12-03 00"},"coordinates":[5500,4559]},{"type":"Point","properties":{"Station_ID":"QOU","Station_Nam":"QOU","Latitude":"50.79250","Longitude":"-69.67470","Snowdepth":"14.921","Units":"in","Rept_Date":"2019-12-02 12"},"coordinates":[6469,9433]},{"type":"Point","properties":{"Station_ID":"WI-SR-1","Station_Nam":"HAYWARD 9.2 NNE, WI","Latitude":"46.13255","Longitude":"-91.40500","Snowdepth":"14.800","Units":"in","Rept_Date":"2019-12-02 12"},"coordinates":[1369,6609]},{"type":"Point","properties":{"Station_ID":"WI-VL-14","Station_Nam":"BOULDER JUNCTION 1.4 NE, WI","Latitude":"46.12840","Longitude":"-89.62470","Snowdepth":"14.500","Units":"in","Rept_Date":"2019-12-02 13"},"coordinates":[1787,6607]},{"type":"Point","properties":{"Station_ID":"WI-LN-2","Station_Nam":"MERRILL 7.0 W, WI","Latitude":"45.17746","Longitude":"-89.84820","Snowdepth":"14.500","Units":"in","Rept_Date":"2019-12-02 12"},"coordinates":[1734,6031]},{"type":"Point","properties":{"Station_ID":"WSKW3","Station_Nam":"WAUSAUKEE","Latitude":"45.38020","Longitude":"-87.95660","Snowdepth":"14.000","Units":"in","Rept_Date":"2019-12-02 14"},"coordinates":[2178,6153]},{"type":"Point","properties":{"Station_ID":"WLKW3","Station_Nam":"WHITE LAKE 1 SE","Latitude":"45.14520","Longitude":"-88.74160","Snowdepth":"14.000","Units":"in","Rept_Date":"2019-12-02 14"},"coordinates":[1994,6011]},{"type":"Point","properties":{"Station_ID":"WI-PR-4","Station_Nam":"PARK FALLS 1.3 N, WI","Latitude":"45.95250","Longitude":"-90.44720","Snowdepth":"14.000","Units":"in","Rept_Date":"2019-12-02 13"},"coordinates":[1594,6500]},{"type":"Point","properties":{"Station_ID":"WI-OC-1","Station_Nam":"MOUNTAIN 1.1 SW, WI","Latitude":"45.17239","Longitude":"-88.48990","Snowdepth":"14.000","Units":"in","Rept_Date":"2019-12-02 13"},"coordinates":[2053,6028]},{"type":"Point","properties":{"Station_ID":"VT-BN-11","Station_Nam":"BENNINGTON 3.4 W, VT","Latitude":"42.88500","Longitude":"-73.26191","Snowdepth":"14.000","Units":"in","Rept_Date":"2019-12-02 12"},"coordinates":[5627,4642]},{"type":"Point","properties":{"Station_ID":"TRYN6","Station_Nam":"TROY","Latitude":"42.75080","Longitude":"-73.68550","Snowdepth":"14.000","Units":"in","Rept_Date":"2019-12-02 16"},"coordinates":[5528,4560]},{"type":"Point","properties":{"Station_ID":"TAKW3","Station_Nam":"RICE RESERVOIR NO. 2","Latitude":"45.53770","Longitude":"-89.73220","Snowdepth":"14.000","Units":"in","Rept_Date":"2019-12-02 13"},"coordinates":[1762,6249]},{"type":"Point","properties":{"Station_ID":"SULW3","Station_Nam":"SUMMIT LAKE","Latitude":"45.37880","Longitude":"-89.19410","Snowdepth":"14.000","Units":"in","Rept_Date":"2019-12-02 11"},"coordinates":[1888,6153]},{"type":"Point","properties":{"Station_ID":"RHLW3","Station_Nam":"RHINELANDER 4NE","Latitude":"45.65270","Longitude":"-89.30740","Snowdepth":"14.000","Units":"in","Rept_Date":"2019-12-02 12"},"coordinates":[1861,6319]},{"type":"Point","properties":{"Station_ID":"RHIW3","Station_Nam":"RHINELANDER","Latitude":"45.59860","Longitude":"-89.45080","Snowdepth":"14.000","Units":"in","Rept_Date":"2019-12-02 13"},"coordinates":[1828,6286]},{"type":"Point","properties":{"Station_ID":"RBLW3","Station_Nam":"RIB LAKE","Latitude":"45.31530","Longitude":"-90.20640","Snowdepth":"14.000","Units":"in","Rept_Date":"2019-12-02 13"},"coordinates":[1650,6114]},{"type":"Point","properties":{"Station_ID":"RANM1","Station_Nam":"RANGELEY,ME","Latitude":"44.96670","Longitude":"-70.65000","Snowdepth":"14.000","Units":"in","Rept_Date":"2019-12-02 11"},"coordinates":[6240,5903]},{"type":"Point","properties":{"Station_ID":"PKFW3","Station_Nam":"PARK FALLS,WI","Latitude":"45.93360","Longitude":"-90.45060","Snowdepth":"14.000","Units":"in","Rept_Date":"2019-12-02 14"},"coordinates":[1593,6489]},{"type":"Point","properties":{"Station_ID":"NY-RN-20","Station_Nam":"TROY 2.1 NNE, NY","Latitude":"42.75930","Longitude":"-73.65283","Snowdepth":"14.000","Units":"in","Rept_Date":"2019-12-02 12"},"coordinates":[5535,4565]},{"type":"Point","properties":{"Station_ID":"NSKN6","Station_Nam":"NISKAYUNA","Latitude":"42.79580","Longitude":"-73.87670","Snowdepth":"14.000","Units":"in","Rept_Date":"2019-12-02 12"},"coordinates":[5483,4588]},{"type":"Point","properties":{"Station_ID":"NH-CS-10","Station_Nam":"RANDOLPH 1.4 NE, NH","Latitude":"44.38824","Longitude":"-71.26950","Snowdepth":"14.000","Units":"in","Rept_Date":"2019-12-02 12"},"coordinates":[6095,5552]},{"type":"Point","properties":{"Station_ID":"MOUW3","Station_Nam":"MOUNTAIN 1 SW","Latitude":"45.17220","Longitude":"-88.49390","Snowdepth":"14.000","Units":"in","Rept_Date":"2019-12-02 13"},"coordinates":[2052,6027]},{"type":"Point","properties":{"Station_ID":"MCLN8","Station_Nam":"MC LEOD,ND","Latitude":"46.40250","Longitude":"-97.23810","Snowdepth":"14.000","Units":"in","Rept_Date":"2019-12-02 15"},"coordinates":[0,6773]},{"type":"Point","properties":{"Station_ID":"MA-HS-7","Station_Nam":"PLAINFIELD 2.2 SW, MA","Latitude":"42.49272","Longitude":"-72.94540","Snowdepth":"14.000","Units":"in","Rept_Date":"2019-12-02 13"},"coordinates":[5701,4404]},{"type":"Point","properties":{"Station_ID":"LADW3","Station_Nam":"LADYSMITH WTP","Latitude":"45.44290","Longitude":"-91.08970","Snowdepth":"14.000","Units":"in","Rept_Date":"2019-12-02 13"},"coordinates":[1443,6191]},{"type":"Point","properties":{"Station_ID":"KCEF","Station_Nam":"CHICOPEE FALLS / WESTOVER AIR FORCE BASE","Latitude":"42.20000","Longitude":"-72.53333","Snowdepth":"14.000","Units":"in","Rept_Date":"2019-12-03 06"},"coordinates":[5798,4227]},{"type":"Point","properties":{"Station_ID":"GREN3","Station_Nam":"GREENVILLE 1 NNE","Latitude":"42.78270","Longitude":"-71.79850","Snowdepth":"14.000","Units":"in","Rept_Date":"2019-12-02 14"},"coordinates":[5971,4580]},{"type":"Point","properties":{"Station_ID":"EGRW3","Station_Nam":"EAGLE RIVER-SOUTH","Latitude":"45.91360","Longitude":"-89.24360","Snowdepth":"14.000","Units":"in","Rept_Date":"2019-12-02 13"},"coordinates":[1876,6477]},{"type":"Point","properties":{"Station_ID":"CNNW3","Station_Nam":"CRANDON","Latitude":"45.55110","Longitude":"-88.89830","Snowdepth":"14.000","Units":"in","Rept_Date":"2019-12-02 12"},"coordinates":[1957,6257]},{"type":"Point","properties":{"Station_ID":"BABM5","Station_Nam":"BABBITT","Latitude":"47.71210","Longitude":"-91.95330","Snowdepth":"14.000","Units":"in","Rept_Date":"2019-12-02 13"},"coordinates":[1240,7566]},{"type":"Point","properties":{"Station_ID":"VT-WH-29","Station_Nam":"BRATTLEBORO 0.7 S, VT","Latitude":"42.84030","Longitude":"-72.55580","Snowdepth":"13.800","Units":"in","Rept_Date":"2019-12-02 12"},"coordinates":[5793,4615]},{"type":"Point","properties":{"Station_ID":"MA-FR-31","Station_Nam":"COLRAIN 3.7 WNW, MA","Latitude":"42.68716","Longitude":"-72.75112","Snowdepth":"13.700","Units":"in","Rept_Date":"2019-12-02 12"},"coordinates":[5747,4522]},{"type":"Point","properties":{"Station_ID":"NY-SC-26","Station_Nam":"NISKAYUNA 0.4 S, NY","Latitude":"42.81078","Longitude":"-73.89764","Snowdepth":"13.500","Units":"in","Rept_Date":"2019-12-02 12"},"coordinates":[5478,4597]},{"type":"Point","properties":{"Station_ID":"NY-RN-15","Station_Nam":"TROY 0.7 E, NY","Latitude":"42.73558","Longitude":"-73.66252","Snowdepth":"13.500","Units":"in","Rept_Date":"2019-12-02 12"},"coordinates":[5533,4551]},{"type":"Point","properties":{"Station_ID":"NH-HL-48","Station_Nam":"GREENVILLE 1.1 ENE, NH","Latitude":"42.77674","Longitude":"-71.77990","Snowdepth":"13.500","Units":"in","Rept_Date":"2019-12-02 13"},"coordinates":[5975,4576]},{"type":"Point","properties":{"Station_ID":"MN-WK-5","Station_Nam":"WOLVERTON 1.1 ENE, MN","Latitude":"46.56920","Longitude":"-96.71540","Snowdepth":"13.500","Units":"in","Rept_Date":"2019-12-02 13"},"coordinates":[123,6874]},{"type":"Point","properties":{"Station_ID":"MA-FR-29","Station_Nam":"COLRAIN 0.8 WNW, MA","Latitude":"42.67161","Longitude":"-72.69674","Snowdepth":"13.500","Units":"in","Rept_Date":"2019-12-02 12"},"coordinates":[5760,4512]},{"type":"Point","properties":{"Station_ID":"QCU","Station_Nam":"QCU","Latitude":"47.82750","Longitude":"-76.59830","Snowdepth":"13.465","Units":"in","Rept_Date":"2019-12-02 12"},"coordinates":[4844,7636]},{"type":"Point","properties":{"Station_ID":"MLZ","Station_Nam":"MLZ","Latitude":"50.66170","Longitude":"-68.82360","Snowdepth":"13.071","Units":"in","Rept_Date":"2019-12-02 12"},"coordinates":[6669,9354]},{"type":"Point","properties":{"Station_ID":"WTNM4","Station_Nam":"WATTON 2WSW","Latitude":"46.52660","Longitude":"-88.64240","Snowdepth":"13.000","Units":"in","Rept_Date":"2019-12-02 13"},"coordinates":[2017,6848]},{"type":"Point","properties":{"Station_ID":"WI-ON-6","Station_Nam":"RHINELANDER 5.2 N, WI","Latitude":"45.71388","Longitude":"-89.42150","Snowdepth":"13.000","Units":"in","Rept_Date":"2019-12-02 15"},"coordinates":[1835,6356]},{"type":"Point","properties":{"Station_ID":"WI-CH-3","Station_Nam":"CORNELL 4.1 W, WI","Latitude":"45.17024","Longitude":"-91.23610","Snowdepth":"13.000","Units":"in","Rept_Date":"2019-12-02 14"},"coordinates":[1409,6026]},{"type":"Point","properties":{"Station_ID":"STMM4","Station_Nam":"STAMBAUGH 2SSE","Latitude":"46.05550","Longitude":"-88.62780","Snowdepth":"13.000","Units":"in","Rept_Date":"2019-12-02 13"},"coordinates":[2021,6563]},{"type":"Point","properties":{"Station_ID":"SPOW3","Station_Nam":"SPOONER,WI","Latitude":"45.82360","Longitude":"-91.70000","Snowdepth":"13.000","Units":"in","Rept_Date":"2019-12-02 14"},"coordinates":[1300,6422]},{"type":"Point","properties":{"Station_ID":"SDYM5","Station_Nam":"DAM","Latitude":"46.81670","Longitude":"-93.36670","Snowdepth":"13.000","Units":"in","Rept_Date":"2019-12-02 14"},"coordinates":[909,7024]},{"type":"Point","properties":{"Station_ID":"NY-SR-16","Station_Nam":"BALLSTON SPA 2.9 ESE, NY","Latitude":"42.99000","Longitude":"-73.80000","Snowdepth":"13.000","Units":"in","Rept_Date":"2019-12-02 13"},"coordinates":[5501,4705]},{"type":"Point","properties":{"Station_ID":"NY-AB-1","Station_Nam":"ALTAMONT 2.7 SSW, NY","Latitude":"42.66696","Longitude":"-74.05090","Snowdepth":"13.000","Units":"in","Rept_Date":"2019-12-02 13"},"coordinates":[5442,4510]},{"type":"Point","properties":{"Station_ID":"NH-CH-20","Station_Nam":"RINDGE 3.2 ESE, NH","Latitude":"42.73100","Longitude":"-71.95200","Snowdepth":"13.000","Units":"in","Rept_Date":"2019-12-02 12"},"coordinates":[5935,4548]},{"type":"Point","properties":{"Station_ID":"MN-SL-15","Station_Nam":"CHISHOLM 0.4 WSW, MN","Latitude":"47.48557","Longitude":"-92.88690","Snowdepth":"13.000","Units":"in","Rept_Date":"2019-12-02 13"},"coordinates":[1021,7429]},{"type":"Point","properties":{"Station_ID":"ME-AR-18","Station_Nam":"NEW SWEDEN 4.9 NNW, ME","Latitude":"47.01080","Longitude":"-68.14390","Snowdepth":"13.000","Units":"in","Rept_Date":"2019-12-02 12"},"coordinates":[6828,7141]},{"type":"Point","properties":{"Station_ID":"MA-FR-17","Station_Nam":"BUCKLAND 1.8 ESE, MA","Latitude":"42.58900","Longitude":"-72.75110","Snowdepth":"13.000","Units":"in","Rept_Date":"2019-12-02 13"},"coordinates":[5747,4462]},{"type":"Point","properties":{"Station_ID":"KBDL","Station_Nam":"BRADLEY INTERNATIONAL AIRPORT","Latitude":"41.93333","Longitude":"-72.68333","Snowdepth":"13.000","Units":"in","Rept_Date":"2019-12-03 06"},"coordinates":[5763,4065]},{"type":"Point","properties":{"Station_ID":"JCBM4","Station_Nam":"JACOBSVILLE","Latitude":"47.00830","Longitude":"-88.43180","Snowdepth":"13.000","Units":"in","Rept_Date":"2019-12-02 12"},"coordinates":[2067,7140]},{"type":"Point","properties":{"Station_ID":"ELYM5","Station_Nam":"ELY","Latitude":"47.90560","Longitude":"-91.82830","Snowdepth":"13.000","Units":"in","Rept_Date":"2019-12-02 15"},"coordinates":[1270,7684]},{"type":"Point","properties":{"Station_ID":"COPN6","Station_Nam":"COOPERSTOWN","Latitude":"42.71660","Longitude":"-74.92660","Snowdepth":"13.000","Units":"in","Rept_Date":"2019-12-03 05"},"coordinates":[5236,4540]},{"type":"Point","properties":{"Station_ID":"BRAM5","Station_Nam":"BRAINERD","Latitude":"46.34320","Longitude":"-94.20900","Snowdepth":"13.000","Units":"in","Rept_Date":"2019-12-02 13"},"coordinates":[711,6737]},{"type":"Point","properties":{"Station_ID":"ABNM3","Station_Nam":"ASHBURNHAM NORTH","Latitude":"42.66170","Longitude":"-71.93590","Snowdepth":"13.000","Units":"in","Rept_Date":"2019-12-02 12"},"coordinates":[5938,4506]},{"type":"Point","properties":{"Station_ID":"NY-SR-35","Station_Nam":"ROUND LAKE 4.1 NE, NY","Latitude":"42.97760","Longitude":"-73.73750","Snowdepth":"12.500","Units":"in","Rept_Date":"2019-12-02 12"},"coordinates":[5516,4698]},{"type":"Point","properties":{"Station_ID":"NY-AB-23","Station_Nam":"ALBANY 0.7 SW, NY","Latitude":"42.66019","Longitude":"-73.81030","Snowdepth":"12.500","Units":"in","Rept_Date":"2019-12-02 12"},"coordinates":[5498,4505]},{"type":"Point","properties":{"Station_ID":"NY-AB-21","Station_Nam":"NWS ALBANY, NY","Latitude":"42.69180","Longitude":"-73.83110","Snowdepth":"12.500","Units":"in","Rept_Date":"2019-12-02 12"},"coordinates":[5494,4525]},{"type":"Point","properties":{"Station_ID":"MN-SL-115","Station_Nam":"COTTON 5.7 ESE, MN","Latitude":"47.15142","Longitude":"-92.35772","Snowdepth":"12.500","Units":"in","Rept_Date":"2019-12-02 14"},"coordinates":[1146,7227]},{"type":"Point","properties":{"Station_ID":"ME-FR-2","Station_Nam":"TEMPLE 1.8 W, ME","Latitude":"44.68329","Longitude":"-70.26420","Snowdepth":"12.500","Units":"in","Rept_Date":"2019-12-02 12"},"coordinates":[6331,5731]},{"type":"Point","properties":{"Station_ID":"MA-MD-47","Station_Nam":"WEST TOWNSEND 0.5 W, MA","Latitude":"42.67623","Longitude":"-71.74983","Snowdepth":"12.500","Units":"in","Rept_Date":"2019-12-02 11"},"coordinates":[5982,4515]},{"type":"Point","properties":{"Station_ID":"MA-HS-14","Station_Nam":"PLAINFIELD 2.4 ESE, MA","Latitude":"42.49792","Longitude":"-72.87769","Snowdepth":"12.500","Units":"in","Rept_Date":"2019-12-02 12"},"coordinates":[5717,4407]},{"type":"Point","properties":{"Station_ID":"MFU","Station_Nam":"MFU","Latitude":"51.52170","Longitude":"-66.91110","Snowdepth":"12.087","Units":"in","Rept_Date":"2019-12-02 12"},"coordinates":[7118,9875]},{"type":"Point","properties":{"Station_ID":"WORM3","Station_Nam":"WORTHINGTON","Latitude":"42.38690","Longitude":"-72.92100","Snowdepth":"12.000","Units":"in","Rept_Date":"2019-12-02 12"},"coordinates":[5707,4340]},{"type":"Point","properties":{"Station_ID":"WASW3","Station_Nam":"WASHINGTON IS","Latitude":"45.35800","Longitude":"-86.89110","Snowdepth":"12.000","Units":"in","Rept_Date":"2019-12-02 13"},"coordinates":[2428,6140]},{"type":"Point","properties":{"Station_ID":"SMTS2","Station_Nam":"WATERTOWN-28MI.N","Latitude":"45.30000","Longitude":"-97.06670","Snowdepth":"12.000","Units":"in","Rept_Date":"2019-12-02 23"},"coordinates":[40,6105]},{"type":"Point","properties":{"Station_ID":"SHHN6","Station_Nam":"SCHOHARIE VILLAGE","Latitude":"42.66500","Longitude":"-74.30360","Snowdepth":"12.000","Units":"in","Rept_Date":"2019-12-02 12"},"coordinates":[5383,4508]},{"type":"Point","properties":{"Station_ID":"SCRW3","Station_Nam":"ST CROIX FALLS","Latitude":"45.41170","Longitude":"-92.64660","Snowdepth":"12.000","Units":"in","Rept_Date":"2019-12-02 13"},"coordinates":[1078,6173]},{"type":"Point","properties":{"Station_ID":"PARM4","Station_Nam":"PARENT BAY","Latitude":"45.79610","Longitude":"-86.40110","Snowdepth":"12.000","Units":"in","Rept_Date":"2019-12-02 14"},"coordinates":[2543,6405]},{"type":"Point","properties":{"Station_ID":"NY-ST-3","Station_Nam":"SOUTH CORNING 4.7 S, NY","Latitude":"42.05672","Longitude":"-77.04850","Snowdepth":"12.000","Units":"in","Rept_Date":"2019-12-02 14"},"coordinates":[4738,4140]},{"type":"Point","properties":{"Station_ID":"NY-RN-1","Station_Nam":"AVERILL PARK 0.9 WNW, NY","Latitude":"42.63910","Longitude":"-73.56980","Snowdepth":"12.000","Units":"in","Rept_Date":"2019-12-02 13"},"coordinates":[5555,4493]},{"type":"Point","properties":{"Station_ID":"NY-GR-7","Station_Nam":"GREENVILLE 0.7 E, NY","Latitude":"42.41400","Longitude":"-74.00900","Snowdepth":"12.000","Units":"in","Rept_Date":"2019-12-02 11"},"coordinates":[5452,4356]},{"type":"Point","properties":{"Station_ID":"NY-CB-14","Station_Nam":"VALATIE 2.3 NNW, NY","Latitude":"42.44615","Longitude":"-73.68998","Snowdepth":"12.000","Units":"in","Rept_Date":"2019-12-02 12"},"coordinates":[5527,4376]},{"type":"Point","properties":{"Station_ID":"NJ-MS-59","Station_Nam":"MADISON 0.8 WSW, NJ","Latitude":"40.75239","Longitude":"-74.42972","Snowdepth":"12.000","Units":"in","Rept_Date":"2019-12-03 03"},"coordinates":[5353,3349]},{"type":"Point","properties":{"Station_ID":"MN-TD-4","Station_Nam":"HEWITT 1.1 N, MN","Latitude":"46.34065","Longitude":"-95.09450","Snowdepth":"12.000","Units":"in","Rept_Date":"2019-12-02 14"},"coordinates":[503,6735]},{"type":"Point","properties":{"Station_ID":"MN-IT-11","Station_Nam":"NASHWAUK 11.5 N, MN","Latitude":"47.54496","Longitude":"-93.19420","Snowdepth":"12.000","Units":"in","Rept_Date":"2019-12-02 12"},"coordinates":[949,7465]},{"type":"Point","properties":{"Station_ID":"MN-CW-29","Station_Nam":"BRAINERD 7.7 SSE, MN","Latitude":"46.24996","Longitude":"-94.14576","Snowdepth":"12.000","Units":"in","Rept_Date":"2019-12-02 13"},"coordinates":[726,6680]},{"type":"Point","properties":{"Station_ID":"MN-CW-22","Station_Nam":"FORT RIPLEY 0.8 N, MN","Latitude":"46.18089","Longitude":"-94.36510","Snowdepth":"12.000","Units":"in","Rept_Date":"2019-12-02 13"},"coordinates":[674,6639]},{"type":"Point","properties":{"Station_ID":"ME-PN-45","Station_Nam":"MILLINOCKET 2.7 ESE, ME","Latitude":"45.65002","Longitude":"-68.64472","Snowdepth":"12.000","Units":"in","Rept_Date":"2019-12-02 12"},"coordinates":[6711,6317]},{"type":"Point","properties":{"Station_ID":"MA-WR-22","Station_Nam":"FITCHBURG 2.0 NNE, MA","Latitude":"42.61671","Longitude":"-71.80100","Snowdepth":"12.000","Units":"in","Rept_Date":"2019-12-02 13"},"coordinates":[5970,4479]},{"type":"Point","properties":{"Station_ID":"MA-FR-13","Station_Nam":"CONWAY 2.9 NW, MA","Latitude":"42.54419","Longitude":"-72.72743","Snowdepth":"12.000","Units":"in","Rept_Date":"2019-12-02 11"},"coordinates":[5753,4435]},{"type":"Point","properties":{"Station_ID":"KMHT","Station_Nam":"MANCHESTER AIRPORT","Latitude":"42.93333","Longitude":"-71.43333","Snowdepth":"12.000","Units":"in","Rept_Date":"2019-12-03 06"},"coordinates":[6056,4671]},{"type":"Point","properties":{"Station_ID":"IMNM4","Station_Nam":"IRON MOUTAIN 5N","Latitude":"45.87580","Longitude":"-88.04030","Snowdepth":"12.000","Units":"in","Rept_Date":"2019-12-03 02"},"coordinates":[2159,6454]},{"type":"Point","properties":{"Station_ID":"FCHM3","Station_Nam":"FITCHBURG COOP","Latitude":"42.61680","Longitude":"-71.80170","Snowdepth":"12.000","Units":"in","Rept_Date":"2019-12-02 13"},"coordinates":[5970,4479]},{"type":"Point","properties":{"Station_ID":"ESGM1","Station_Nam":"EAST SANGERVILLE","Latitude":"45.13690","Longitude":"-69.28060","Snowdepth":"12.000","Units":"in","Rept_Date":"2019-12-02 12"},"coordinates":[6562,6006]},{"type":"Point","properties":{"Station_ID":"BRAM1","Station_Nam":"BRASSUA DAM","Latitude":"45.66020","Longitude":"-69.81190","Snowdepth":"12.000","Units":"in","Rept_Date":"2019-12-02 12"},"coordinates":[6437,6323]},{"type":"Point","properties":{"Station_ID":"BNDM5","Station_Nam":"ELY 25E","Latitude":"47.97190","Longitude":"-91.44860","Snowdepth":"12.000","Units":"in","Rept_Date":"2019-12-02 13"},"coordinates":[1359,7724]},{"type":"Point","properties":{"Station_ID":"AVTW3","Station_Nam":"ARBOR VITAE-JOHNSON LAKE","Latitude":"45.89940","Longitude":"-89.72670","Snowdepth":"12.000","Units":"in","Rept_Date":"2019-12-02 12"},"coordinates":[1763,6468]},{"type":"Point","properties":{"Station_ID":"AUW","Station_Nam":"WAUSAU MUNICIPAL AIRPORT","Latitude":"44.92580","Longitude":"-89.62560","Snowdepth":"12.000","Units":"in","Rept_Date":"2019-12-02 12"},"coordinates":[1787,5878]},{"type":"Point","properties":{"Station_ID":"AGNW3","Station_Nam":"ARGONNE-1.5 NW","Latitude":"45.67360","Longitude":"-88.90380","Snowdepth":"12.000","Units":"in","Rept_Date":"2019-12-02 14"},"coordinates":[1956,6331]},{"type":"Point","properties":{"Station_ID":"ACVN6","Station_Nam":"ALCOVE DAM","Latitude":"42.46970","Longitude":"-73.92670","Snowdepth":"12.000","Units":"in","Rept_Date":"2019-12-02 13"},"coordinates":[5471,4390]},{"type":"Point","properties":{"Station_ID":"QGO","Station_Nam":"QGO","Latitude":"48.85500","Longitude":"-74.20640","Snowdepth":"11.968","Units":"in","Rept_Date":"2019-12-02 12"},"coordinates":[5405,8259]},{"type":"Point","properties":{"Station_ID":"MA-ES-29","Station_Nam":"NORTH ANDOVER 1.9 SSE, MA","Latitude":"42.67305","Longitude":"-71.10916","Snowdepth":"11.700","Units":"in","Rept_Date":"2019-12-02 12"},"coordinates":[6132,4513]},{"type":"Point","properties":{"Station_ID":"VT-WH-25","Station_Nam":"PUTNEY 0.7 NE, VT","Latitude":"42.98326","Longitude":"-72.51215","Snowdepth":"11.500","Units":"in","Rept_Date":"2019-12-02 15"},"coordinates":[5803,4701]},{"type":"Point","properties":{"Station_ID":"NH-HL-19","Station_Nam":"BROOKLINE 2.1 SW, NH","Latitude":"42.71235","Longitude":"-71.69760","Snowdepth":"11.500","Units":"in","Rept_Date":"2019-12-02 13"},"coordinates":[5994,4537]},{"type":"Point","properties":{"Station_ID":"MN-CY-20","Station_Nam":"HAWLEY 5.2 WNW, MN","Latitude":"46.91652","Longitude":"-96.41147","Snowdepth":"11.500","Units":"in","Rept_Date":"2019-12-02 13"},"coordinates":[194,7084]},{"type":"Point","properties":{"Station_ID":"MN-BK-6","Station_Nam":"LAKE PARK 6.0 S, MN","Latitude":"46.79850","Longitude":"-96.12180","Snowdepth":"11.500","Units":"in","Rept_Date":"2019-12-02 13"},"coordinates":[262,7013]},{"type":"Point","properties":{"Station_ID":"QCX","Station_Nam":"QCX","Latitude":"51.32830","Longitude":"-70.08060","Snowdepth":"11.142","Units":"in","Rept_Date":"2019-12-02 12"},"coordinates":[6374,9757]},{"type":"Point","properties":{"Station_ID":"NY-GR-6","Station_Nam":"FREEHOLD 3.4 E, NY","Latitude":"42.36045","Longitude":"-73.98350","Snowdepth":"11.100","Units":"in","Rept_Date":"2019-12-02 12"},"coordinates":[5458,4324]},{"type":"Point","properties":{"Station_ID":"WI-DR-5","Station_Nam":"ELLISON BAY 2.2 E, WI","Latitude":"45.25750","Longitude":"-87.02670","Snowdepth":"11.000","Units":"in","Rept_Date":"2019-12-02 13"},"coordinates":[2397,6079]},{"type":"Point","properties":{"Station_ID":"TQFM4","Station_Nam":"TAHQUAMENON FALLS STATE PARK","Latitude":"46.60110","Longitude":"-85.22410","Snowdepth":"11.000","Units":"in","Rept_Date":"2019-12-02 13"},"coordinates":[2820,6893]},{"type":"Point","properties":{"Station_ID":"RKWM1","Station_Nam":"MOOSEHEAD LAKE","Latitude":"45.58330","Longitude":"-69.71670","Snowdepth":"11.000","Units":"in","Rept_Date":"2019-12-02 12"},"coordinates":[6459,6277]},{"type":"Point","properties":{"Station_ID":"RHI","Station_Nam":"RHINELANDER-ONEIDA COUNTY AIRPORT","Latitude":"45.63080","Longitude":"-89.46530","Snowdepth":"11.000","Units":"in","Rept_Date":"2019-12-02 12"},"coordinates":[1824,6305]},{"type":"Point","properties":{"Station_ID":"RGNM1","Station_Nam":"RANGELEY 2NW","Latitude":"44.98940","Longitude":"-70.67220","Snowdepth":"11.000","Units":"in","Rept_Date":"2019-12-02 11"},"coordinates":[6235,5917]},{"type":"Point","properties":{"Station_ID":"NY-SH-9","Station_Nam":"MIDDLEBURGH 7.9 SSE, NY","Latitude":"42.48832","Longitude":"-74.28948","Snowdepth":"11.000","Units":"in","Rept_Date":"2019-12-02 12"},"coordinates":[5386,4401]},{"type":"Point","properties":{"Station_ID":"NY-GR-13","Station_Nam":"TANNERSVILLE 4.5 SSE, NY","Latitude":"42.13884","Longitude":"-74.08697","Snowdepth":"11.000","Units":"in","Rept_Date":"2019-12-02 12"},"coordinates":[5434,4190]},{"type":"Point","properties":{"Station_ID":"MN-MR-4","Station_Nam":"LITTLE FALLS 1.2 SW, MN","Latitude":"45.96886","Longitude":"-94.37720","Snowdepth":"11.000","Units":"in","Rept_Date":"2019-12-02 13"},"coordinates":[672,6510]},{"type":"Point","properties":{"Station_ID":"MN-CS-18","Station_Nam":"HACKENSACK 7.0 ENE, MN","Latitude":"46.95580","Longitude":"-94.37270","Snowdepth":"11.000","Units":"in","Rept_Date":"2019-12-02 16"},"coordinates":[673,7108]},{"type":"Point","properties":{"Station_ID":"MI-DL-4","Station_Nam":"GLADSTONE 2.1 SW, MI","Latitude":"45.83218","Longitude":"-87.05727","Snowdepth":"11.000","Units":"in","Rept_Date":"2019-12-02 12"},"coordinates":[2389,6427]},{"type":"Point","properties":{"Station_ID":"ME-AR-15","Station_Nam":"PRESQUE ISLE 1.3 WSW, ME","Latitude":"46.67960","Longitude":"-68.01270","Snowdepth":"11.000","Units":"in","Rept_Date":"2019-12-02 12"},"coordinates":[6859,6941]},{"type":"Point","properties":{"Station_ID":"KEEN3","Station_Nam":"KEENE","Latitude":"42.93900","Longitude":"-72.32470","Snowdepth":"11.000","Units":"in","Rept_Date":"2019-12-02 11"},"coordinates":[5847,4674]},{"type":"Point","properties":{"Station_ID":"FISW3","Station_Nam":"FISH CREEK 1 E WWTP","Latitude":"45.12420","Longitude":"-87.22920","Snowdepth":"11.000","Units":"in","Rept_Date":"2019-12-02 13"},"coordinates":[2349,5998]},{"type":"Point","properties":{"Station_ID":"EMLN3","Station_Nam":"EAST MILFORD","Latitude":"42.82660","Longitude":"-71.62600","Snowdepth":"11.000","Units":"in","Rept_Date":"2019-12-02 12"},"coordinates":[6011,4606]},{"type":"Point","properties":{"Station_ID":"EMBM5","Station_Nam":"EMBARASS,MN","Latitude":"47.65810","Longitude":"-92.19580","Snowdepth":"11.000","Units":"in","Rept_Date":"2019-12-02 12"},"coordinates":[1184,7534]},{"type":"Point","properties":{"Station_ID":"CLKM4","Station_Nam":"CLARKSBURG","Latitude":"46.49910","Longitude":"-87.84500","Snowdepth":"11.000","Units":"in","Rept_Date":"2019-12-02 12"},"coordinates":[2205,6831]},{"type":"Point","properties":{"Station_ID":"CBLW3","Station_Nam":"CUMBERLAND","Latitude":"45.53310","Longitude":"-92.02260","Snowdepth":"11.000","Units":"in","Rept_Date":"2019-12-02 13"},"coordinates":[1224,6246]},{"type":"Point","properties":{"Station_ID":"CAN-NB-2","Station_Nam":"GRAFTON 2.7 NNE, CA","Latitude":"46.17062","Longitude":"-67.55330","Snowdepth":"11.000","Units":"in","Rept_Date":"2019-12-02 11"},"coordinates":[6967,6632]},{"type":"Point","properties":{"Station_ID":"CAN-NB-105","Station_Nam":"SISSON BROOK 3.8 E, CAN","Latitude":"46.98305","Longitude":"-67.32532","Snowdepth":"11.000","Units":"in","Rept_Date":"2019-12-02 12"},"coordinates":[7020,7125]},{"type":"Point","properties":{"Station_ID":"BOWW3","Station_Nam":"STOCKBRIDGE-MUNSEE RESERVATION","Latitude":"44.87000","Longitude":"-88.90440","Snowdepth":"11.000","Units":"in","Rept_Date":"2019-12-02 14"},"coordinates":[1956,5844]},{"type":"Point","properties":{"Station_ID":"BALW3","Station_Nam":"BALDWIN","Latitude":"44.96330","Longitude":"-92.39050","Snowdepth":"11.000","Units":"in","Rept_Date":"2019-12-02 13"},"coordinates":[1138,5901]},{"type":"Point","properties":{"Station_ID":"AVLV1","Station_Nam":"AVERILL","Latitude":"45.00570","Longitude":"-71.69030","Snowdepth":"11.000","Units":"in","Rept_Date":"2019-12-02 13"},"coordinates":[5996,5927]},{"type":"Point","properties":{"Station_ID":"ASBM3","Station_Nam":"ASHBURNHAM","Latitude":"42.61780","Longitude":"-71.91590","Snowdepth":"11.000","Units":"in","Rept_Date":"2019-12-02 12"},"coordinates":[5943,4480]},{"type":"Point","properties":{"Station_ID":"AMAM4","Station_Nam":"AMASA 1W","Latitude":"46.23470","Longitude":"-88.45440","Snowdepth":"11.000","Units":"in","Rept_Date":"2019-12-02 14"},"coordinates":[2062,6671]},{"type":"Point","properties":{"Station_ID":"NY-AB-47","Station_Nam":"DELMAR 1.0 S, NY","Latitude":"42.61013","Longitude":"-73.83172","Snowdepth":"10.900","Units":"in","Rept_Date":"2019-12-02 12"},"coordinates":[5493,4475]},{"type":"Point","properties":{"Station_ID":"MN-PN-17","Station_Nam":"BROOK PARK 3.9 S, MN","Latitude":"45.89189","Longitude":"-93.06306","Snowdepth":"10.900","Units":"in","Rept_Date":"2019-12-02 13"},"coordinates":[980,6464]},{"type":"Point","properties":{"Station_ID":"MN-CV-40","Station_Nam":"EXCELSIOR 0.8 S, MN","Latitude":"44.88996","Longitude":"-93.56646","Snowdepth":"10.600","Units":"in","Rept_Date":"2019-12-02 13"},"coordinates":[862,5856]},{"type":"Point","properties":{"Station_ID":"NY-SR-4","Station_Nam":"SARATOGA SPRINGS 0.5 S, NY","Latitude":"43.06032","Longitude":"-73.78010","Snowdepth":"10.500","Units":"in","Rept_Date":"2019-12-02 11"},"coordinates":[5506,4748]},{"type":"Point","properties":{"Station_ID":"NY-OG-46","Station_Nam":"BALDWINSVILLE 3.5 NE, NY","Latitude":"43.19506","Longitude":"-76.28830","Snowdepth":"10.500","Units":"in","Rept_Date":"2019-12-02 13"},"coordinates":[4917,4829]},{"type":"Point","properties":{"Station_ID":"NY-OG-10","Station_Nam":"CAMILLUS 1.0 W, NY","Latitude":"43.03962","Longitude":"-76.32830","Snowdepth":"10.500","Units":"in","Rept_Date":"2019-12-02 12"},"coordinates":[4908,4735]},{"type":"Point","properties":{"Station_ID":"MN-MR-13","Station_Nam":"LITTLE FALLS 8.0 NE, MN","Latitude":"46.06785","Longitude":"-94.24789","Snowdepth":"10.500","Units":"in","Rept_Date":"2019-12-02 13"},"coordinates":[702,6570]},{"type":"Point","properties":{"Station_ID":"MA-FR-10","Station_Nam":"CONWAY 0.9 SW, MA","Latitude":"42.50879","Longitude":"-72.69730","Snowdepth":"10.500","Units":"in","Rept_Date":"2019-12-02 13"},"coordinates":[5760,4414]},{"type":"Point","properties":{"Station_ID":"WI-CH-8","Station_Nam":"CHIPPEWA FALLS 4.4 NE, WI","Latitude":"44.98480","Longitude":"-91.33910","Snowdepth":"10.300","Units":"in","Rept_Date":"2019-12-02 14"},"coordinates":[1385,5914]},{"type":"Point","properties":{"Station_ID":"MA-BE-20","Station_Nam":"LEE 3.7 SE, MA","Latitude":"42.27242","Longitude":"-73.19763","Snowdepth":"10.300","Units":"in","Rept_Date":"2019-12-02 12"},"coordinates":[5642,4270]},{"type":"Point","properties":{"Station_ID":"NY-OG-71","Station_Nam":"LIVERPOOL 6.1 NNW, NY","Latitude":"43.18876","Longitude":"-76.25193","Snowdepth":"10.200","Units":"in","Rept_Date":"2019-12-02 11"},"coordinates":[4925,4826]},{"type":"Point","properties":{"Station_ID":"MA-MD-104","Station_Nam":"LITTLETON 2.8 NNW, MA","Latitude":"42.57170","Longitude":"-71.49910","Snowdepth":"10.200","Units":"in","Rept_Date":"2019-12-02 13"},"coordinates":[6041,4452]},{"type":"Point","properties":{"Station_ID":"CAN-NB-97","Station_Nam":"NEW MARYLAND 0.6 NW, CAN","Latitude":"45.90112","Longitude":"-66.68739","Snowdepth":"10.200","Units":"in","Rept_Date":"2019-12-02 11"},"coordinates":[7170,6469]},{"type":"Point","properties":{"Station_ID":"NY-OG-12","Station_Nam":"CLAY 4.6 NW, NY","Latitude":"43.20000","Longitude":"-76.26000","Snowdepth":"10.100","Units":"in","Rept_Date":"2019-12-02 13"},"coordinates":[4924,4832]},{"type":"Point","properties":{"Station_ID":"ZNOM4","Station_Nam":"NORWAY","Latitude":"45.77810","Longitude":"-87.89560","Snowdepth":"10.000","Units":"in","Rept_Date":"2019-12-03 01"},"coordinates":[2193,6395]},{"type":"Point","properties":{"Station_ID":"WI-MT-4","Station_Nam":"WAUSAU 1.7 ENE, WI","Latitude":"44.96943","Longitude":"-89.61090","Snowdepth":"10.000","Units":"in","Rept_Date":"2019-12-02 13"},"coordinates":[1790,5905]},{"type":"Point","properties":{"Station_ID":"WI-DR-6","Station_Nam":"SISTER BAY 1.3 NNE, WI","Latitude":"45.20296","Longitude":"-87.11326","Snowdepth":"10.000","Units":"in","Rept_Date":"2019-12-02 13"},"coordinates":[2376,6046]},{"type":"Point","properties":{"Station_ID":"WI-CH-7","Station_Nam":"CHIPPEWA FALLS 1.2 E, WI","Latitude":"44.92920","Longitude":"-91.36730","Snowdepth":"10.000","Units":"in","Rept_Date":"2019-12-02 13"},"coordinates":[1378,5880]},{"type":"Point","properties":{"Station_ID":"WI-BR-2","Station_Nam":"CHETEK 2.0 SE, WI","Latitude":"45.29427","Longitude":"-91.62470","Snowdepth":"10.000","Units":"in","Rept_Date":"2019-12-02 13"},"coordinates":[1318,6101]},{"type":"Point","properties":{"Station_ID":"SURN3","Station_Nam":"SURRY MOUNTAIN LAKE","Latitude":"42.99630","Longitude":"-72.31310","Snowdepth":"10.000","Units":"in","Rept_Date":"2019-12-02 12"},"coordinates":[5850,4709]},{"type":"Point","properties":{"Station_ID":"STIM4","Station_Nam":"ST IGNACE","Latitude":"45.86080","Longitude":"-84.71960","Snowdepth":"10.000","Units":"in","Rept_Date":"2019-12-02 12"},"coordinates":[2938,6445]},{"type":"Point","properties":{"Station_ID":"SBEW3","Station_Nam":"EXP. FARM","Latitude":"44.86670","Longitude":"-87.33330","Snowdepth":"10.000","Units":"in","Rept_Date":"2019-12-02 13"},"coordinates":[2325,5842]},{"type":"Point","properties":{"Station_ID":"SAUW3","Station_Nam":"WAUSAU WSAW TV","Latitude":"44.94630","Longitude":"-89.62220","Snowdepth":"10.000","Units":"in","Rept_Date":"2019-12-03 02"},"coordinates":[1788,5891]},{"type":"Point","properties":{"Station_ID":"RRLW3","Station_Nam":"MERRILL,WI","Latitude":"45.17860","Longitude":"-89.66170","Snowdepth":"10.000","Units":"in","Rept_Date":"2019-12-02 14"},"coordinates":[1778,6031]},{"type":"Point","properties":{"Station_ID":"RHRW3","Station_Nam":"RHINELANDER WJFW TV-12","Latitude":"45.62220","Longitude":"-89.41000","Snowdepth":"10.000","Units":"in","Rept_Date":"2019-12-03 04"},"coordinates":[1837,6300]},{"type":"Point","properties":{"Station_ID":"QCO","Station_Nam":"QCO","Latitude":"51.45280","Longitude":"-72.20110","Snowdepth":"10.000","Units":"in","Rept_Date":"2019-12-02 12"},"coordinates":[5876,9833]},{"type":"Point","properties":{"Station_ID":"PHON6","Station_Nam":"PHOENICIA 2SW","Latitude":"42.06420","Longitude":"-74.34080","Snowdepth":"10.000","Units":"in","Rept_Date":"2019-12-02 12"},"coordinates":[5374,4144]},{"type":"Point","properties":{"Station_ID":"OTTN3","Station_Nam":"OTTER BROOK LAKE","Latitude":"42.95000","Longitude":"-72.23330","Snowdepth":"10.000","Units":"in","Rept_Date":"2019-12-02 12"},"coordinates":[5869,4681]},{"type":"Point","properties":{"Station_ID":"ONMM5","Station_Nam":"ONAMIA RANGER STATION","Latitude":"46.06770","Longitude":"-93.66660","Snowdepth":"10.000","Units":"in","Rept_Date":"2019-12-02 14"},"coordinates":[838,6570]},{"type":"Point","properties":{"Station_ID":"NY-SY-1","Station_Nam":"SMITH VALLEY 1.9 SE, NY","Latitude":"42.39072","Longitude":"-76.71760","Snowdepth":"10.000","Units":"in","Rept_Date":"2019-12-02 12"},"coordinates":[4816,4342]},{"type":"Point","properties":{"Station_ID":"NY-OG-2","Station_Nam":"DE WITT 1.4 WSW, NY","Latitude":"43.03333","Longitude":"-76.10000","Snowdepth":"10.000","Units":"in","Rept_Date":"2019-12-02 12"},"coordinates":[4961,4731]},{"type":"Point","properties":{"Station_ID":"NY-OD-43","Station_Nam":"HOLLAND PATENT 1.1 WNW, NY","Latitude":"43.24707","Longitude":"-75.27750","Snowdepth":"10.000","Units":"in","Rept_Date":"2019-12-02 12"},"coordinates":[5154,4861]},{"type":"Point","properties":{"Station_ID":"NY-HR-12","Station_Nam":"DOLGEVILLE 1.9 NW, NY","Latitude":"43.12320","Longitude":"-74.79740","Snowdepth":"10.000","Units":"in","Rept_Date":"2019-12-02 12"},"coordinates":[5267,4786]},{"type":"Point","properties":{"Station_ID":"NY-CB-16","Station_Nam":"VALATIE 2.9 N, NY","Latitude":"42.45655","Longitude":"-73.66812","Snowdepth":"10.000","Units":"in","Rept_Date":"2019-12-02 12"},"coordinates":[5532,4382]},{"type":"Point","properties":{"Station_ID":"NH-HL-49","Station_Nam":"MONT VERNON 1.3 SSW, NH","Latitude":"42.87616","Longitude":"-71.68280","Snowdepth":"10.000","Units":"in","Rept_Date":"2019-12-02 12"},"coordinates":[5998,4636]},{"type":"Point","properties":{"Station_ID":"NH-CH-21","Station_Nam":"KEENE 2.0 SE, NH","Latitude":"42.93133","Longitude":"-72.26822","Snowdepth":"10.000","Units":"in","Rept_Date":"2019-12-02 12"},"coordinates":[5860,4670]},{"type":"Point","properties":{"Station_ID":"MN-DK-73","Station_Nam":"LAKEVILLE 2.6 NNE, MN","Latitude":"44.71250","Longitude":"-93.23043","Snowdepth":"10.000","Units":"in","Rept_Date":"2019-12-02 13"},"coordinates":[941,5749]},{"type":"Point","properties":{"Station_ID":"MN-CK-3","Station_Nam":"TOFTE 4.9 NE, MN","Latitude":"47.62394","Longitude":"-90.76100","Snowdepth":"10.000","Units":"in","Rept_Date":"2019-12-02 13"},"coordinates":[1520,7513]},{"type":"Point","properties":{"Station_ID":"MI-MC-4","Station_Nam":"ST. IGNACE 0.5SE, MI","Latitude":"45.86057","Longitude":"-84.71980","Snowdepth":"10.000","Units":"in","Rept_Date":"2019-12-02 12"},"coordinates":[2938,6445]},{"type":"Point","properties":{"Station_ID":"MA-WR-41","Station_Nam":"AUBURN 2.6 SW, MA","Latitude":"42.17336","Longitude":"-71.86869","Snowdepth":"10.000","Units":"in","Rept_Date":"2019-12-02 13"},"coordinates":[5954,4210]},{"type":"Point","properties":{"Station_ID":"LUCW3","Station_Nam":"LUCK","Latitude":"45.57330","Longitude":"-92.48520","Snowdepth":"10.000","Units":"in","Rept_Date":"2019-12-02 19"},"coordinates":[1116,6270]},{"type":"Point","properties":{"Station_ID":"LNGM5","Station_Nam":"LONG PRAIRIE","Latitude":"45.96460","Longitude":"-94.88920","Snowdepth":"10.000","Units":"in","Rept_Date":"2019-12-02 12"},"coordinates":[551,6508]},{"type":"Point","properties":{"Station_ID":"KPSM","Station_Nam":"PEASE AIR FORCE BASE / PORTSMOUTH","Latitude":"43.08333","Longitude":"-70.81666","Snowdepth":"10.000","Units":"in","Rept_Date":"2019-12-03 06"},"coordinates":[6201,4762]},{"type":"Point","properties":{"Station_ID":"JWTN6","Station_Nam":"EAST JEWETT","Latitude":"42.23430","Longitude":"-74.14430","Snowdepth":"10.000","Units":"in","Rept_Date":"2019-12-02 12"},"coordinates":[5420,4247]},{"type":"Point","properties":{"Station_ID":"JIMW3","Station_Nam":"JIM FALLS 3NW","Latitude":"45.08270","Longitude":"-91.33130","Snowdepth":"10.000","Units":"in","Rept_Date":"2019-12-02 12"},"coordinates":[1386,5973]},{"type":"Point","properties":{"Station_ID":"HOLW3","Station_Nam":"HOLCOMBE","Latitude":"45.22370","Longitude":"-91.12700","Snowdepth":"10.000","Units":"in","Rept_Date":"2019-12-02 13"},"coordinates":[1434,6059]},{"type":"Point","properties":{"Station_ID":"HMPN3","Station_Nam":"WEST HAMPSTEAD","Latitude":"42.91080","Longitude":"-71.20200","Snowdepth":"10.000","Units":"in","Rept_Date":"2019-12-02 12"},"coordinates":[6111,4657]},{"type":"Point","properties":{"Station_ID":"GHMN3","Station_Nam":"PINKHAM NOTCH","Latitude":"44.25800","Longitude":"-71.25250","Snowdepth":"10.000","Units":"in","Rept_Date":"2019-12-02 11"},"coordinates":[6099,5474]},{"type":"Point","properties":{"Station_ID":"FLDM5","Station_Nam":"FLOODWOOD,MN","Latitude":"47.00000","Longitude":"-92.91670","Snowdepth":"10.000","Units":"in","Rept_Date":"2019-12-02 14"},"coordinates":[1014,7135]},{"type":"Point","properties":{"Station_ID":"DFXM1","Station_Nam":"DOVER-FOXCROFT","Latitude":"45.18720","Longitude":"-69.18350","Snowdepth":"10.000","Units":"in","Rept_Date":"2019-12-02 12"},"coordinates":[6584,6037]},{"type":"Point","properties":{"Station_ID":"COTM5","Station_Nam":"COTTON","Latitude":"47.16870","Longitude":"-92.46290","Snowdepth":"10.000","Units":"in","Rept_Date":"2019-12-02 12"},"coordinates":[1121,7237]},{"type":"Point","properties":{"Station_ID":"CNRM1","Station_Nam":"CONNOR TWP","Latitude":"46.95830","Longitude":"-68.03330","Snowdepth":"10.000","Units":"in","Rept_Date":"2019-12-02 12"},"coordinates":[6854,7110]},{"type":"Point","properties":{"Station_ID":"CDRN6","Station_Nam":"CANDOR 2 SE","Latitude":"42.19440","Longitude":"-76.31270","Snowdepth":"10.000","Units":"in","Rept_Date":"2019-12-02 14"},"coordinates":[4911,4223]},{"type":"Point","properties":{"Station_ID":"CAN-NS-103","Station_Nam":"TRAFALGAR 4.9 WSW, CAN","Latitude":"45.26217","Longitude":"-62.72285","Snowdepth":"10.000","Units":"in","Rept_Date":"2019-12-02 12"},"coordinates":[8101,6082]},{"type":"Point","properties":{"Station_ID":"CAN-NB-13","Station_Nam":"BATHURST 3.8 NW, CAN","Latitude":"47.64212","Longitude":"-65.68756","Snowdepth":"10.000","Units":"in","Rept_Date":"2019-12-02 11"},"coordinates":[7405,7524]},{"type":"Point","properties":{"Station_ID":"BREW3","Station_Nam":"SURING","Latitude":"44.99580","Longitude":"-88.37860","Snowdepth":"10.000","Units":"in","Rept_Date":"2019-12-02 15"},"coordinates":[2079,5921]},{"type":"Point","properties":{"Station_ID":"BGMN6","Station_Nam":"BINGHAMTON WFO","Latitude":"42.21160","Longitude":"-75.98580","Snowdepth":"10.000","Units":"in","Rept_Date":"2019-12-03 05"},"coordinates":[4988,4234]},{"type":"Point","properties":{"Station_ID":"ADDN6","Station_Nam":"ADDISON","Latitude":"42.10130","Longitude":"-77.23440","Snowdepth":"10.000","Units":"in","Rept_Date":"2019-12-02 12"},"coordinates":[4695,4167]},{"type":"Point","properties":{"Station_ID":"QFT","Station_Nam":"QFT","Latitude":"50.83280","Longitude":"-74.40390","Snowdepth":"9.724","Units":"in","Rept_Date":"2019-12-02 12"},"coordinates":[5359,9457]},{"type":"Point","properties":{"Station_ID":"PTLQ6","Station_Nam":"PORTAGE LAKE","Latitude":"49.06950","Longitude":"-86.65940","Snowdepth":"9.570","Units":"in","Rept_Date":"2019-12-03 06"},"coordinates":[2483,8389]},{"type":"Point","properties":{"Station_ID":"NY-SR-22","Station_Nam":"GREENFIELD CENTER 1.6 W, NY","Latitude":"43.12684","Longitude":"-73.87860","Snowdepth":"9.500","Units":"in","Rept_Date":"2019-12-02 13"},"coordinates":[5482,4788]},{"type":"Point","properties":{"Station_ID":"NY-OD-2","Station_Nam":"POINT ROCK 0.6 SE, NY","Latitude":"43.37335","Longitude":"-75.53840","Snowdepth":"9.500","Units":"in","Rept_Date":"2019-12-02 13"},"coordinates":[5093,4938]},{"type":"Point","properties":{"Station_ID":"NY-BM-7","Station_Nam":"VESTAL 2.8 SSE, NY","Latitude":"42.04930","Longitude":"-76.02880","Snowdepth":"9.500","Units":"in","Rept_Date":"2019-12-02 14"},"coordinates":[4978,4135]},{"type":"Point","properties":{"Station_ID":"MA-WR-55","Station_Nam":"HARVARD 2.1 S, MA","Latitude":"42.46891","Longitude":"-71.58360","Snowdepth":"9.500","Units":"in","Rept_Date":"2019-12-02 12"},"coordinates":[6021,4390]},{"type":"Point","properties":{"Station_ID":"MA-WR-28","Station_Nam":"BERLIN 1.3 WSW, MA","Latitude":"42.37750","Longitude":"-71.65830","Snowdepth":"9.500","Units":"in","Rept_Date":"2019-12-02 12"},"coordinates":[6004,4334]},{"type":"Point","properties":{"Station_ID":"MA-HS-2","Station_Nam":"WESTHAMPTON 1.8 SW, MA","Latitude":"42.27943","Longitude":"-72.78700","Snowdepth":"9.500","Units":"in","Rept_Date":"2019-12-02 13"},"coordinates":[5739,4275]},{"type":"Point","properties":{"Station_ID":"QLM","Station_Nam":"QLM","Latitude":"48.92030","Longitude":"-70.25280","Snowdepth":"9.409","Units":"in","Rept_Date":"2019-12-02 12"},"coordinates":[6333,8298]},{"type":"Point","properties":{"Station_ID":"NY-ST-41","Station_Nam":"PAINTED POST 0.7 SSE, NY","Latitude":"42.15370","Longitude":"-77.08690","Snowdepth":"9.300","Units":"in","Rept_Date":"2019-12-02 13"},"coordinates":[4729,4199]},{"type":"Point","properties":{"Station_ID":"NY-ON-16","Station_Nam":"GENEVA 0.8 W, NY","Latitude":"42.86511","Longitude":"-76.99875","Snowdepth":"9.200","Units":"in","Rept_Date":"2019-12-02 12"},"coordinates":[4750,4630]},{"type":"Point","properties":{"Station_ID":"QWE","Station_Nam":"QWE","Latitude":"47.84610","Longitude":"-73.80670","Snowdepth":"9.134","Units":"in","Rept_Date":"2019-12-02 12"},"coordinates":[5499,7648]},{"type":"Point","properties":{"Station_ID":"QTV","Station_Nam":"QTV","Latitude":"49.66000","Longitude":"-69.35690","Snowdepth":"9.134","Units":"in","Rept_Date":"2019-12-02 12"},"coordinates":[6544,8747]},{"type":"Point","properties":{"Station_ID":"NY-MG-3","Station_Nam":"HESSVILLE 1.8 WSW, NY","Latitude":"42.86430","Longitude":"-74.72140","Snowdepth":"9.100","Units":"in","Rept_Date":"2019-12-02 14"},"coordinates":[5285,4629]},{"type":"Point","properties":{"Station_ID":"MA-MD-51","Station_Nam":"MAYNARD 0.7 ESE, MA","Latitude":"42.42027","Longitude":"-71.44484","Snowdepth":"9.100","Units":"in","Rept_Date":"2019-12-02 11"},"coordinates":[6054,4360]},{"type":"Point","properties":{"Station_ID":"MA-FR-12","Station_Nam":"SUNDERLAND 1.3 SE, MA","Latitude":"42.45217","Longitude":"-72.56610","Snowdepth":"9.100","Units":"in","Rept_Date":"2019-12-02 12"},"coordinates":[5790,4379]},{"type":"Point","properties":{"Station_ID":"CAN-PE-19","Station_Nam":"CHARLOTTETOWN 6.5 NNW, CAN","Latitude":"46.29235","Longitude":"-63.17271","Snowdepth":"9.100","Units":"in","Rept_Date":"2019-12-02 12"},"coordinates":[7995,6706]},{"type":"Point","properties":{"Station_ID":"CAN-ON-232","Station_Nam":"MILFORD 0.1 NNE - QUINTE CONSERVATION, CAN","Latitude":"43.93499","Longitude":"-77.09098","Snowdepth":"9.100","Units":"in","Rept_Date":"2019-12-02 13"},"coordinates":[4729,5278]},{"type":"Point","properties":{"Station_ID":"ZBWN3","Station_Nam":"NASHUA CWSU","Latitude":"42.73440","Longitude":"-71.48030","Snowdepth":"9.000","Units":"in","Rept_Date":"2019-12-02 12"},"coordinates":[6045,4550]},{"type":"Point","properties":{"Station_ID":"WI-SC-21","Station_Nam":"CLEAR LAKE 4.0 S, WI","Latitude":"45.19250","Longitude":"-92.27860","Snowdepth":"9.000","Units":"in","Rept_Date":"2019-12-02 15"},"coordinates":[1164,6040]},{"type":"Point","properties":{"Station_ID":"WI-MT-1","Station_Nam":"SCHOFIELD 3.3 E, WI","Latitude":"44.91806","Longitude":"-89.54470","Snowdepth":"9.000","Units":"in","Rept_Date":"2019-12-02 13"},"coordinates":[1806,5873]},{"type":"Point","properties":{"Station_ID":"WI-DR-12","Station_Nam":"BAILEYS HARBOR 2.3 WNW, WI","Latitude":"45.07416","Longitude":"-87.16972","Snowdepth":"9.000","Units":"in","Rept_Date":"2019-12-02 13"},"coordinates":[2363,5968]},{"type":"Point","properties":{"Station_ID":"VANM1","Station_Nam":"VAN BUREN","Latitude":"47.16600","Longitude":"-67.93900","Snowdepth":"9.000","Units":"in","Rept_Date":"2019-12-02 12"},"coordinates":[6876,7236]},{"type":"Point","properties":{"Station_ID":"SIBI4","Station_Nam":"SIBLEY","Latitude":"43.40470","Longitude":"-95.74830","Snowdepth":"9.000","Units":"in","Rept_Date":"2019-12-02 13"},"coordinates":[350,4957]},{"type":"Point","properties":{"Station_ID":"SHHW3","Station_Nam":"SHAWANO 2SSW","Latitude":"44.76310","Longitude":"-88.61830","Snowdepth":"9.000","Units":"in","Rept_Date":"2019-12-02 14"},"coordinates":[2023,5780]},{"type":"Point","properties":{"Station_ID":"OXFM3","Station_Nam":"BUFFUMVILLE LAKE","Latitude":"42.11630","Longitude":"-71.90740","Snowdepth":"9.000","Units":"in","Rept_Date":"2019-12-02 12"},"coordinates":[5945,4176]},{"type":"Point","properties":{"Station_ID":"NY-TM-4","Station_Nam":"GROTON 0.5 NW, NY","Latitude":"42.59127","Longitude":"-76.37200","Snowdepth":"9.000","Units":"in","Rept_Date":"2019-12-02 12"},"coordinates":[4897,4464]},{"type":"Point","properties":{"Station_ID":"NY-TM-38","Station_Nam":"TRUMANSBURG 0.4 WNW, NY","Latitude":"42.54205","Longitude":"-76.66870","Snowdepth":"9.000","Units":"in","Rept_Date":"2019-12-02 12"},"coordinates":[4828,4434]},{"type":"Point","properties":{"Station_ID":"NY-CY-27","Station_Nam":"MORAVIA 5.9 ENE, NY","Latitude":"42.73491","Longitude":"-76.31137","Snowdepth":"9.000","Units":"in","Rept_Date":"2019-12-02 12"},"coordinates":[4911,4551]},{"type":"Point","properties":{"Station_ID":"NY-CB-9","Station_Nam":"HILLSDALE 5.8 S, NY","Latitude":"42.26165","Longitude":"-73.54160","Snowdepth":"9.000","Units":"in","Rept_Date":"2019-12-02 13"},"coordinates":[5562,4264]},{"type":"Point","properties":{"Station_ID":"NEDM1","Station_Nam":"CAPE NEDDICK","Latitude":"43.22410","Longitude":"-70.63880","Snowdepth":"9.000","Units":"in","Rept_Date":"2019-12-02 12"},"coordinates":[6243,4847]},{"type":"Point","properties":{"Station_ID":"MN6JKRHL","Station_Nam":"TOFTE 0.6 SSW","Latitude":"47.56557","Longitude":"-90.84117","Snowdepth":"9.000","Units":"in","Rept_Date":"2019-12-02 13"},"coordinates":[1501,7478]},{"type":"Point","properties":{"Station_ID":"MN-WR-40","Station_Nam":"CLEARWATER 5.4 SSE, MN","Latitude":"45.34795","Longitude":"-94.03374","Snowdepth":"9.000","Units":"in","Rept_Date":"2019-12-02 14"},"coordinates":[752,6134]},{"type":"Point","properties":{"Station_ID":"MN-SL-108","Station_Nam":"IRON JUNCTION 3.4 NNW, MN","Latitude":"47.46150","Longitude":"-92.63130","Snowdepth":"9.000","Units":"in","Rept_Date":"2019-12-02 13"},"coordinates":[1081,7415]},{"type":"Point","properties":{"Station_ID":"MLCM5","Station_Nam":"MILACA","Latitude":"45.75320","Longitude":"-93.66170","Snowdepth":"9.000","Units":"in","Rept_Date":"2019-12-02 13"},"coordinates":[839,6379]},{"type":"Point","properties":{"Station_ID":"MHT","Station_Nam":"MANCHESTER AIRPORT GRENIER INDSTRL ARPK","Latitude":"42.93440","Longitude":"-71.43690","Snowdepth":"9.000","Units":"in","Rept_Date":"2019-12-02 12"},"coordinates":[6055,4672]},{"type":"Point","properties":{"Station_ID":"MEDW3","Station_Nam":"MEDFORD","Latitude":"45.13080","Longitude":"-90.34390","Snowdepth":"9.000","Units":"in","Rept_Date":"2019-12-02 14"},"coordinates":[1618,6002]},{"type":"Point","properties":{"Station_ID":"MECN6","Station_Nam":"MECKLENBURG 4 SW","Latitude":"42.44220","Longitude":"-76.75740","Snowdepth":"9.000","Units":"in","Rept_Date":"2019-12-02 12"},"coordinates":[4807,4373]},{"type":"Point","properties":{"Station_ID":"ME-YK-52","Station_Nam":"YORK 5.2 N, ME","Latitude":"43.23585","Longitude":"-70.63400","Snowdepth":"9.000","Units":"in","Rept_Date":"2019-12-02 12"},"coordinates":[6244,4854]},{"type":"Point","properties":{"Station_ID":"MA-WR-8","Station_Nam":"FITCHBURG 1.6 SSW, MA","Latitude":"42.56674","Longitude":"-71.82170","Snowdepth":"9.000","Units":"in","Rept_Date":"2019-12-02 11"},"coordinates":[5965,4449]},{"type":"Point","properties":{"Station_ID":"MA-WR-63","Station_Nam":"RUTLAND 3.1 SW, MA","Latitude":"42.32888","Longitude":"-71.99175","Snowdepth":"9.000","Units":"in","Rept_Date":"2019-12-02 22"},"coordinates":[5925,4305]},{"type":"Point","properties":{"Station_ID":"MA-WR-56","Station_Nam":"STERLING 4.3 NW, MA","Latitude":"42.47540","Longitude":"-71.81140","Snowdepth":"9.000","Units":"in","Rept_Date":"2019-12-02 12"},"coordinates":[5968,4393]},{"type":"Point","properties":{"Station_ID":"MA-MD-89","Station_Nam":"SUDBURY 3.6 W, MA","Latitude":"42.36394","Longitude":"-71.47012","Snowdepth":"9.000","Units":"in","Rept_Date":"2019-12-02 12"},"coordinates":[6048,4326]},{"type":"Point","properties":{"Station_ID":"MA-MD-85","Station_Nam":"WILMINGTON 2.2 WNW, MA","Latitude":"42.56871","Longitude":"-71.20764","Snowdepth":"9.000","Units":"in","Rept_Date":"2019-12-02 13"},"coordinates":[6109,4450]},{"type":"Point","properties":{"Station_ID":"MA-MD-80","Station_Nam":"LINCOLN 1.5 SW, MA","Latitude":"42.40398","Longitude":"-71.32421","Snowdepth":"9.000","Units":"in","Rept_Date":"2019-12-02 12"},"coordinates":[6082,4350]},{"type":"Point","properties":{"Station_ID":"MA-MD-156","Station_Nam":"MARLBOROUGH 2.8 ENE, MA","Latitude":"42.37021","Longitude":"-71.50011","Snowdepth":"9.000","Units":"in","Rept_Date":"2019-12-02 10"},"coordinates":[6041,4330]},{"type":"Point","properties":{"Station_ID":"MA-MD-12","Station_Nam":"ACTON 1.3 SW, MA","Latitude":"42.46746","Longitude":"-71.48200","Snowdepth":"9.000","Units":"in","Rept_Date":"2019-12-02 12"},"coordinates":[6045,4389]},{"type":"Point","properties":{"Station_ID":"MA-MD-106","Station_Nam":"HOLLISTON 2.4 W, MA","Latitude":"42.20069","Longitude":"-71.47981","Snowdepth":"9.000","Units":"in","Rept_Date":"2019-12-02 12"},"coordinates":[6045,4227]},{"type":"Point","properties":{"Station_ID":"MA-MD-100","Station_Nam":"SUDBURY 1.6 N, MA","Latitude":"42.39038","Longitude":"-71.39853","Snowdepth":"9.000","Units":"in","Rept_Date":"2019-12-02 12"},"coordinates":[6064,4342]},{"type":"Point","properties":{"Station_ID":"MA-HS-12","Station_Nam":"NORTHAMPTON 0.4 S, MA","Latitude":"42.32072","Longitude":"-72.67383","Snowdepth":"9.000","Units":"in","Rept_Date":"2019-12-02 14"},"coordinates":[5765,4300]},{"type":"Point","properties":{"Station_ID":"LWMM3","Station_Nam":"LAWRENCE","Latitude":"42.69930","Longitude":"-71.16590","Snowdepth":"9.000","Units":"in","Rept_Date":"2019-12-02 12"},"coordinates":[6119,4529]},{"type":"Point","properties":{"Station_ID":"LGRN8","Station_Nam":"LIDGERWOOD,ND","Latitude":"46.06670","Longitude":"-97.16670","Snowdepth":"9.000","Units":"in","Rept_Date":"2019-12-02 13"},"coordinates":[17,6569]},{"type":"Point","properties":{"Station_ID":"JKMM1","Station_Nam":"JACKMAN","Latitude":"45.62600","Longitude":"-70.24600","Snowdepth":"9.000","Units":"in","Rept_Date":"2019-12-02 12"},"coordinates":[6335,6302]},{"type":"Point","properties":{"Station_ID":"HUDN3","Station_Nam":"HUDSON 1 SSE","Latitude":"42.78300","Longitude":"-71.41480","Snowdepth":"9.000","Units":"in","Rept_Date":"2019-12-02 12"},"coordinates":[6061,4580]},{"type":"Point","properties":{"Station_ID":"GRFM3","Station_Nam":"GREENFIELD NO. 3","Latitude":"42.57190","Longitude":"-72.59750","Snowdepth":"9.000","Units":"in","Rept_Date":"2019-12-02 15"},"coordinates":[5783,4452]},{"type":"Point","properties":{"Station_ID":"GLLM5","Station_Nam":"GULL LAKE DAM","Latitude":"46.41190","Longitude":"-94.35000","Snowdepth":"9.000","Units":"in","Rept_Date":"2019-12-02 14"},"coordinates":[678,6779]},{"type":"Point","properties":{"Station_ID":"GLDN3","Station_Nam":"GREENLAND","Latitude":"43.02100","Longitude":"-70.82570","Snowdepth":"9.000","Units":"in","Rept_Date":"2019-12-02 12"},"coordinates":[6199,4724]},{"type":"Point","properties":{"Station_ID":"FORM5","Station_Nam":"FOREST LAKE 5NE","Latitude":"45.33170","Longitude":"-92.89820","Snowdepth":"9.000","Units":"in","Rept_Date":"2019-12-02 13"},"coordinates":[1019,6124]},{"type":"Point","properties":{"Station_ID":"FDRN8","Station_Nam":"FARGO 3S","Latitude":"46.82930","Longitude":"-96.79620","Snowdepth":"9.000","Units":"in","Rept_Date":"2019-12-02 22"},"coordinates":[104,7032]},{"type":"Point","properties":{"Station_ID":"FAR","Station_Nam":"HECTOR INTERNATIONAL ARPT","Latitude":"46.91560","Longitude":"-96.81440","Snowdepth":"9.000","Units":"in","Rept_Date":"2019-12-03 00"},"coordinates":[100,7084]},{"type":"Point","properties":{"Station_ID":"ELKM5","Station_Nam":"ELK RIVER","Latitude":"45.30470","Longitude":"-93.58420","Snowdepth":"9.000","Units":"in","Rept_Date":"2019-12-02 13"},"coordinates":[858,6108]},{"type":"Point","properties":{"Station_ID":"CORN6","Station_Nam":"CORNING","Latitude":"42.13410","Longitude":"-77.06910","Snowdepth":"9.000","Units":"in","Rept_Date":"2019-12-02 12"},"coordinates":[4734,4187]},{"type":"Point","properties":{"Station_ID":"COKM5","Station_Nam":"COOK","Latitude":"47.85060","Longitude":"-92.69250","Snowdepth":"9.000","Units":"in","Rept_Date":"2019-12-02 12"},"coordinates":[1067,7650]},{"type":"Point","properties":{"Station_ID":"COBN6","Station_Nam":"COBLESKILL 2ESE","Latitude":"42.66710","Longitude":"-74.44230","Snowdepth":"9.000","Units":"in","Rept_Date":"2019-12-02 13"},"coordinates":[5350,4510]},{"type":"Point","properties":{"Station_ID":"CARM1","Station_Nam":"CARIBOU WFO","Latitude":"46.86810","Longitude":"-68.01250","Snowdepth":"9.000","Units":"in","Rept_Date":"2019-12-03 05"},"coordinates":[6859,7055]},{"type":"Point","properties":{"Station_ID":"CAR","Station_Nam":"CARIBOU, ME","Latitude":"46.86830","Longitude":"-68.01360","Snowdepth":"9.000","Units":"in","Rept_Date":"2019-12-02 12"},"coordinates":[6859,7055]},{"type":"Point","properties":{"Station_ID":"BRDM1","Station_Nam":"BRIDGEWATER","Latitude":"46.42870","Longitude":"-67.84370","Snowdepth":"9.000","Units":"in","Rept_Date":"2019-12-02 23"},"coordinates":[6899,6789]},{"type":"Point","properties":{"Station_ID":"QLP","Station_Nam":"QLP","Latitude":"48.13920","Longitude":"-72.63830","Snowdepth":"8.976","Units":"in","Rept_Date":"2019-12-02 12"},"coordinates":[5774,7825]},{"type":"Point","properties":{"Station_ID":"NH-MR-47","Station_Nam":"DUNBARTON 3.8 SE, NH","Latitude":"43.08532","Longitude":"-71.54419","Snowdepth":"8.800","Units":"in","Rept_Date":"2019-12-02 12"},"coordinates":[6030,4763]},{"type":"Point","properties":{"Station_ID":"NH-HL-25","Station_Nam":"AMHERST 3.7 NNE, NH","Latitude":"42.91409","Longitude":"-71.61020","Snowdepth":"8.800","Units":"in","Rept_Date":"2019-12-02 12"},"coordinates":[6015,4659]},{"type":"Point","properties":{"Station_ID":"NY-CM-24","Station_Nam":"CHEMUNG 5.7 N, NY","Latitude":"42.09130","Longitude":"-76.62810","Snowdepth":"8.700","Units":"in","Rept_Date":"2019-12-02 14"},"coordinates":[4837,4161]},{"type":"Point","properties":{"Station_ID":"CT-HR-60","Station_Nam":"NORTH GRANBY 0.7 N, CT","Latitude":"42.02874","Longitude":"-72.84325","Snowdepth":"8.700","Units":"in","Rept_Date":"2019-12-02 13"},"coordinates":[5725,4123]},{"type":"Point","properties":{"Station_ID":"CAN-PE-43","Station_Nam":"GLENCOE 0.3 W, CAN","Latitude":"46.20115","Longitude":"-62.81740","Snowdepth":"8.700","Units":"in","Rept_Date":"2019-12-02 12"},"coordinates":[8078,6651]},{"type":"Point","properties":{"Station_ID":"WI-DN-15","Station_Nam":"MENOMONIE 0.9 NW, WI","Latitude":"44.89832","Longitude":"-91.92398","Snowdepth":"8.500","Units":"in","Rept_Date":"2019-12-02 13"},"coordinates":[1247,5862]},{"type":"Point","properties":{"Station_ID":"WI-CH-10","Station_Nam":"CHIPPEWA FALLS 0.6 SSE, WI","Latitude":"44.92452","Longitude":"-91.38623","Snowdepth":"8.500","Units":"in","Rept_Date":"2019-12-02 13"},"coordinates":[1374,5877]},{"type":"Point","properties":{"Station_ID":"SD-GT-9","Station_Nam":"LABOLT 0.1 WSW, SD","Latitude":"45.04956","Longitude":"-96.67698","Snowdepth":"8.500","Units":"in","Rept_Date":"2019-12-02 12"},"coordinates":[132,5953]},{"type":"Point","properties":{"Station_ID":"NY-TM-3","Station_Nam":"ITHACA 1.1 SE, NY","Latitude":"42.43173","Longitude":"-76.48860","Snowdepth":"8.500","Units":"in","Rept_Date":"2019-12-02 13"},"coordinates":[4870,4367]},{"type":"Point","properties":{"Station_ID":"NY-ST-4","Station_Nam":"BIG FLATS 2.0 W, NY","Latitude":"42.14035","Longitude":"-76.97030","Snowdepth":"8.500","Units":"in","Rept_Date":"2019-12-02 17"},"coordinates":[4757,4190]},{"type":"Point","properties":{"Station_ID":"NY-OS-15","Station_Nam":"MINETTO 0.1 SE, NY","Latitude":"43.39771","Longitude":"-76.47960","Snowdepth":"8.500","Units":"in","Rept_Date":"2019-12-02 13"},"coordinates":[4872,4952]},{"type":"Point","properties":{"Station_ID":"NY-CY-26","Station_Nam":"AURORA 2.4 N, NY","Latitude":"42.78638","Longitude":"-76.70340","Snowdepth":"8.500","Units":"in","Rept_Date":"2019-12-02 14"},"coordinates":[4819,4582]},{"type":"Point","properties":{"Station_ID":"NY-BM-4","Station_Nam":"ENDICOTT 5.2 SSE, NY","Latitude":"42.02958","Longitude":"-76.02130","Snowdepth":"8.500","Units":"in","Rept_Date":"2019-12-02 13"},"coordinates":[4980,4123]},{"type":"Point","properties":{"Station_ID":"NH-RC-72","Station_Nam":"DERRY 5.7 N, NH","Latitude":"42.97653","Longitude":"-71.27139","Snowdepth":"8.500","Units":"in","Rept_Date":"2019-12-02 12"},"coordinates":[6094,4697]},{"type":"Point","properties":{"Station_ID":"NH-MR-15","Station_Nam":"DUNBARTON 0.3 N, NH","Latitude":"43.10698","Longitude":"-71.61710","Snowdepth":"8.500","Units":"in","Rept_Date":"2019-12-02 12"},"coordinates":[6013,4776]},{"type":"Point","properties":{"Station_ID":"MA-WR-58","Station_Nam":"LUNENBURG 0.6 NE, MA","Latitude":"42.60180","Longitude":"-71.71653","Snowdepth":"8.500","Units":"in","Rept_Date":"2019-12-02 13"},"coordinates":[5990,4470]},{"type":"Point","properties":{"Station_ID":"MA-WR-42","Station_Nam":"NORTHBOROUGH 2.3 N, MA","Latitude":"42.34535","Longitude":"-71.64390","Snowdepth":"8.500","Units":"in","Rept_Date":"2019-12-02 12"},"coordinates":[6007,4315]},{"type":"Point","properties":{"Station_ID":"MA-WR-18","Station_Nam":"NORTHBOROUGH 0.6 SSE, MA","Latitude":"42.30367","Longitude":"-71.64620","Snowdepth":"8.500","Units":"in","Rept_Date":"2019-12-02 13"},"coordinates":[6006,4289]},{"type":"Point","properties":{"Station_ID":"MA-HS-26","Station_Nam":"EASTHAMPTON 0.5 SW, MA","Latitude":"42.26110","Longitude":"-72.68920","Snowdepth":"8.500","Units":"in","Rept_Date":"2019-12-02 12"},"coordinates":[5762,4264]},{"type":"Point","properties":{"Station_ID":"NY-HR-18","Station_Nam":"SALISBURY CENTER 1.8 NW, NY","Latitude":"43.16260","Longitude":"-74.80880","Snowdepth":"8.300","Units":"in","Rept_Date":"2019-12-02 11"},"coordinates":[5264,4810]},{"type":"Point","properties":{"Station_ID":"MA-MD-55","Station_Nam":"HOLLISTON 0.7 W, MA","Latitude":"42.19946","Longitude":"-71.44789","Snowdepth":"8.300","Units":"in","Rept_Date":"2019-12-02 13"},"coordinates":[6053,4226]},{"type":"Point","properties":{"Station_ID":"CAN-NS-94","Station_Nam":"MARGAREE FORKS 2.6 SSE CBN, CAN","Latitude":"46.30937","Longitude":"-61.07603","Snowdepth":"8.300","Units":"in","Rept_Date":"2019-12-02 13"},"coordinates":[8487,6716]},{"type":"Point","properties":{"Station_ID":"MA-HD-23","Station_Nam":"SPRINGFIELD 2.5 WNW, MA","Latitude":"42.12429","Longitude":"-72.58614","Snowdepth":"8.200","Units":"in","Rept_Date":"2019-12-02 12"},"coordinates":[5786,4181]},{"type":"Point","properties":{"Station_ID":"CT-HR-8","Station_Nam":"NORTH GRANBY 1.3 ENE, CT","Latitude":"42.02440","Longitude":"-72.82070","Snowdepth":"8.200","Units":"in","Rept_Date":"2019-12-02 12"},"coordinates":[5731,4120]},{"type":"Point","properties":{"Station_ID":"QMD","Station_Nam":"QMD","Latitude":"49.29060","Longitude":"-75.84500","Snowdepth":"8.150","Units":"in","Rept_Date":"2019-12-02 12"},"coordinates":[5021,8523]},{"type":"Point","properties":{"Station_ID":"NY-OT-4","Station_Nam":"BRIDGEWATER 4.3 SSE, NY","Latitude":"42.81667","Longitude":"-75.23330","Snowdepth":"8.100","Units":"in","Rept_Date":"2019-12-02 11"},"coordinates":[5164,4600]},{"type":"Point","properties":{"Station_ID":"MA-MD-115","Station_Nam":"HUDSON 1.4 NW, MA","Latitude":"42.40372","Longitude":"-71.58680","Snowdepth":"8.100","Units":"in","Rept_Date":"2019-12-02 12"},"coordinates":[6020,4350]},{"type":"Point","properties":{"Station_ID":"WUNW3","Station_Nam":"WAUSAU-NORTHEAST","Latitude":"44.97310","Longitude":"-89.61690","Snowdepth":"8.000","Units":"in","Rept_Date":"2019-12-02 11"},"coordinates":[1789,5907]},{"type":"Point","properties":{"Station_ID":"WLNM4","Station_Nam":"WELLSTON 1N","Latitude":"44.22940","Longitude":"-85.95690","Snowdepth":"8.000","Units":"in","Rept_Date":"2019-12-02 12"},"coordinates":[2648,5456]},{"type":"Point","properties":{"Station_ID":"WLDM5","Station_Nam":"WILD RIVER STATE PARK","Latitude":"45.52310","Longitude":"-92.74890","Snowdepth":"8.000","Units":"in","Rept_Date":"2019-12-02 14"},"coordinates":[1054,6240]},{"type":"Point","properties":{"Station_ID":"WI-SC-44","Station_Nam":"NEW RICHMOND 4.4 SW, WI","Latitude":"45.08201","Longitude":"-92.60651","Snowdepth":"8.000","Units":"in","Rept_Date":"2019-12-02 14"},"coordinates":[1087,5973]},{"type":"Point","properties":{"Station_ID":"WI-MT-14","Station_Nam":"MOSINEE 2.7 WSW, WI","Latitude":"44.77240","Longitude":"-89.73441","Snowdepth":"8.000","Units":"in","Rept_Date":"2019-12-02 13"},"coordinates":[1761,5785]},{"type":"Point","properties":{"Station_ID":"WI-EC-5","Station_Nam":"ALTOONA 0.4 SW, WI","Latitude":"44.80128","Longitude":"-91.44819","Snowdepth":"8.000","Units":"in","Rept_Date":"2019-12-02 12"},"coordinates":[1359,5803]},{"type":"Point","properties":{"Station_ID":"WI-EC-23","Station_Nam":"EAU CLAIRE 3.7 S, WI","Latitude":"44.76858","Longitude":"-91.49898","Snowdepth":"8.000","Units":"in","Rept_Date":"2019-12-02 14"},"coordinates":[1347,5783]},{"type":"Point","properties":{"Station_ID":"VT-BN-7","Station_Nam":"MANCHESTER 2.8 ENE, VT","Latitude":"43.17274","Longitude":"-73.01811","Snowdepth":"8.000","Units":"in","Rept_Date":"2019-12-02 12"},"coordinates":[5684,4816]},{"type":"Point","properties":{"Station_ID":"SIWS2","Station_Nam":"SISSETON 3W","Latitude":"45.65870","Longitude":"-97.12450","Snowdepth":"8.000","Units":"in","Rept_Date":"2019-12-02 13"},"coordinates":[27,6322]},{"type":"Point","properties":{"Station_ID":"SHIW3","Station_Nam":"SHIOCTON","Latitude":"44.43890","Longitude":"-88.58390","Snowdepth":"8.000","Units":"in","Rept_Date":"2019-12-02 13"},"coordinates":[2031,5583]},{"type":"Point","properties":{"Station_ID":"SEBM5","Station_Nam":"SEBEKA","Latitude":"46.62540","Longitude":"-95.09670","Snowdepth":"8.000","Units":"in","Rept_Date":"2019-12-02 13"},"coordinates":[503,6908]},{"type":"Point","properties":{"Station_ID":"SDLM3","Station_Nam":"SUNDERLAND","Latitude":"42.44480","Longitude":"-72.55290","Snowdepth":"8.000","Units":"in","Rept_Date":"2019-12-02 12"},"coordinates":[5794,4375]},{"type":"Point","properties":{"Station_ID":"SD-RB-1","Station_Nam":"SISSETON 3.8 W, SD","Latitude":"45.65865","Longitude":"-97.12370","Snowdepth":"8.000","Units":"in","Rept_Date":"2019-12-02 13"},"coordinates":[27,6322]},{"type":"Point","properties":{"Station_ID":"RSTW3","Station_Nam":"ROSHOLT","Latitude":"44.62710","Longitude":"-89.30600","Snowdepth":"8.000","Units":"in","Rept_Date":"2019-12-02 13"},"coordinates":[1862,5697]},{"type":"Point","properties":{"Station_ID":"ROBW3","Station_Nam":"ROBERTS WWTP","Latitude":"44.97070","Longitude":"-92.56200","Snowdepth":"8.000","Units":"in","Rept_Date":"2019-12-02 14"},"coordinates":[1098,5905]},{"type":"Point","properties":{"Station_ID":"PSM","Station_Nam":"PEASE INTL TRADEPORT AP","Latitude":"43.07810","Longitude":"-70.82330","Snowdepth":"8.000","Units":"in","Rept_Date":"2019-12-02 12"},"coordinates":[6199,4759]},{"type":"Point","properties":{"Station_ID":"PSHW3","Station_Nam":"PESHTIGO","Latitude":"45.02810","Longitude":"-87.73560","Snowdepth":"8.000","Units":"in","Rept_Date":"2019-12-02 13"},"coordinates":[2230,5940]},{"type":"Point","properties":{"Station_ID":"PERV1","Station_Nam":"PERU","Latitude":"43.26670","Longitude":"-72.90000","Snowdepth":"8.000","Units":"in","Rept_Date":"2019-12-02 12"},"coordinates":[5712,4873]},{"type":"Point","properties":{"Station_ID":"PEKN6","Station_Nam":"PECK LAKE","Latitude":"43.11500","Longitude":"-74.42360","Snowdepth":"8.000","Units":"in","Rept_Date":"2019-12-02 13"},"coordinates":[5355,4781]},{"type":"Point","properties":{"Station_ID":"OTTM5","Station_Nam":"OTTERTAIL,MN","Latitude":"46.41670","Longitude":"-95.56670","Snowdepth":"8.000","Units":"in","Rept_Date":"2019-12-02 12"},"coordinates":[392,6782]},{"type":"Point","properties":{"Station_ID":"NY-TM-5","Station_Nam":"FREEVILLE 1.5 NE, NY","Latitude":"42.52530","Longitude":"-76.32180","Snowdepth":"8.000","Units":"in","Rept_Date":"2019-12-02 12"},"coordinates":[4909,4424]},{"type":"Point","properties":{"Station_ID":"NY-TG-26","Station_Nam":"CANDOR 0.7 NW, NY","Latitude":"42.23428","Longitude":"-76.34758","Snowdepth":"8.000","Units":"in","Rept_Date":"2019-12-02 13"},"coordinates":[4903,4247]},{"type":"Point","properties":{"Station_ID":"NY-ST-45","Station_Nam":"CORNING 2.9 N, NY","Latitude":"42.18841","Longitude":"-77.06478","Snowdepth":"8.000","Units":"in","Rept_Date":"2019-12-02 12"},"coordinates":[4735,4220]},{"type":"Point","properties":{"Station_ID":"NY-OG-72","Station_Nam":"LIVERPOOL 4.5 N, NY","Latitude":"43.17016","Longitude":"-76.22385","Snowdepth":"8.000","Units":"in","Rept_Date":"2019-12-02 14"},"coordinates":[4932,4814]},{"type":"Point","properties":{"Station_ID":"NY-OG-61","Station_Nam":"SKANEATELES 0.8 NNW, NY","Latitude":"42.95538","Longitude":"-76.43362","Snowdepth":"8.000","Units":"in","Rept_Date":"2019-12-02 12"},"coordinates":[4883,4684]},{"type":"Point","properties":{"Station_ID":"NY-HR-16","Station_Nam":"ILION 0.7 WSW, NY","Latitude":"43.00880","Longitude":"-75.05390","Snowdepth":"8.000","Units":"in","Rept_Date":"2019-12-02 12"},"coordinates":[5207,4717]},{"type":"Point","properties":{"Station_ID":"NY-CM-3","Station_Nam":"ELMIRA 1.3 ESE, NY","Latitude":"42.08390","Longitude":"-76.78810","Snowdepth":"8.000","Units":"in","Rept_Date":"2019-12-02 12"},"coordinates":[4800,4156]},{"type":"Point","properties":{"Station_ID":"NY-CB-8","Station_Nam":"LIVINGSTON 0.7 SSW, NY","Latitude":"42.13308","Longitude":"-73.78540","Snowdepth":"8.000","Units":"in","Rept_Date":"2019-12-02 13"},"coordinates":[5504,4186]},{"type":"Point","properties":{"Station_ID":"NH-MR-4","Station_Nam":"BOW 1.6 NW, NH","Latitude":"43.14994","Longitude":"-71.55650","Snowdepth":"8.000","Units":"in","Rept_Date":"2019-12-02 12"},"coordinates":[6027,4802]},{"type":"Point","properties":{"Station_ID":"NH-HL-96","Station_Nam":"MANCHESTER 0.6 S, NH","Latitude":"42.97444","Longitude":"-71.44472","Snowdepth":"8.000","Units":"in","Rept_Date":"2019-12-02 12"},"coordinates":[6054,4696]},{"type":"Point","properties":{"Station_ID":"ND-GF-8","Station_Nam":"GRAND FORKS 2.5 SE, ND","Latitude":"47.89136","Longitude":"-97.03386","Snowdepth":"8.000","Units":"in","Rept_Date":"2019-12-02 13"},"coordinates":[48,7675]},{"type":"Point","properties":{"Station_ID":"ND-CS-1","Station_Nam":"WEST FARGO 3.8 SSE, ND","Latitude":"46.82750","Longitude":"-96.85280","Snowdepth":"8.000","Units":"in","Rept_Date":"2019-12-02 13"},"coordinates":[91,7030]},{"type":"Point","properties":{"Station_ID":"MWTM1","Station_Nam":"MILLINOCKET WWTP","Latitude":"45.64030","Longitude":"-68.67480","Snowdepth":"8.000","Units":"in","Rept_Date":"2019-12-02 12"},"coordinates":[6704,6311]},{"type":"Point","properties":{"Station_ID":"MN0GWSNW","Station_Nam":"LAKE ELMO 2.9 SE","Latitude":"44.97220","Longitude":"-92.83065","Snowdepth":"8.000","Units":"in","Rept_Date":"2019-12-02 13"},"coordinates":[1035,5906]},{"type":"Point","properties":{"Station_ID":"MN-WR-25","Station_Nam":"SAINT MICHAEL 2.0 ENE, MN","Latitude":"45.20820","Longitude":"-93.65280","Snowdepth":"8.000","Units":"in","Rept_Date":"2019-12-02 12"},"coordinates":[842,6049]},{"type":"Point","properties":{"Station_ID":"MN-SR-29","Station_Nam":"ALBANY 3.8 S, MN","Latitude":"45.57441","Longitude":"-94.55543","Snowdepth":"8.000","Units":"in","Rept_Date":"2019-12-02 13"},"coordinates":[630,6271]},{"type":"Point","properties":{"Station_ID":"MN-SH-985","Station_Nam":"PRINCETON 3.3 WSW, MN","Latitude":"45.55211","Longitude":"-93.64481","Snowdepth":"8.000","Units":"in","Rept_Date":"2019-12-02 11"},"coordinates":[843,6258]},{"type":"Point","properties":{"Station_ID":"MN-SH-10","Station_Nam":"BIG LAKE 5.6 NNE, MN","Latitude":"45.41409","Longitude":"-93.69190","Snowdepth":"8.000","Units":"in","Rept_Date":"2019-12-02 13"},"coordinates":[832,6174]},{"type":"Point","properties":{"Station_ID":"MN-SC-2","Station_Nam":"PRIOR LAKE 2.0 W, MN","Latitude":"44.71250","Longitude":"-93.46360","Snowdepth":"8.000","Units":"in","Rept_Date":"2019-12-02 10"},"coordinates":[886,5749]},{"type":"Point","properties":{"Station_ID":"MN-CV-22","Station_Nam":"VICTORIA 1.6 WSW, MN","Latitude":"44.85670","Longitude":"-93.68640","Snowdepth":"8.000","Units":"in","Rept_Date":"2019-12-02 13"},"coordinates":[834,5836]},{"type":"Point","properties":{"Station_ID":"MN-AA-85","Station_Nam":"LINO LAKES 1.8 W, MN","Latitude":"45.16640","Longitude":"-93.12063","Snowdepth":"8.000","Units":"in","Rept_Date":"2019-12-02 13"},"coordinates":[966,6024]},{"type":"Point","properties":{"Station_ID":"MN-AA-56","Station_Nam":"BLAINE 2.2 NNW, MN","Latitude":"45.19838","Longitude":"-93.22812","Snowdepth":"8.000","Units":"in","Rept_Date":"2019-12-02 13"},"coordinates":[941,6043]},{"type":"Point","properties":{"Station_ID":"MI-OT-17","Station_Nam":"GAYLORD 4.1 S, MI","Latitude":"44.96388","Longitude":"-84.68467","Snowdepth":"8.000","Units":"in","Rept_Date":"2019-12-02 12"},"coordinates":[2946,5901]},{"type":"Point","properties":{"Station_ID":"MI-CF-9","Station_Nam":"GRAYLING 15.8 NE, MI","Latitude":"44.80464","Longitude":"-84.46313","Snowdepth":"8.000","Units":"in","Rept_Date":"2019-12-02 11"},"coordinates":[2998,5805]},{"type":"Point","properties":{"Station_ID":"MI-BZ-1","Station_Nam":"BENZONIA 5.3 S, MI","Latitude":"44.53976","Longitude":"-86.10650","Snowdepth":"8.000","Units":"in","Rept_Date":"2019-12-02 13"},"coordinates":[2613,5644]},{"type":"Point","properties":{"Station_ID":"MEMW3","Station_Nam":"MENOMONIE","Latitude":"44.87430","Longitude":"-91.93640","Snowdepth":"8.000","Units":"in","Rept_Date":"2019-12-02 13"},"coordinates":[1244,5847]},{"type":"Point","properties":{"Station_ID":"MA-WR-76","Station_Nam":"WORCESTER 1.7 N, MA","Latitude":"42.29380","Longitude":"-71.80516","Snowdepth":"8.000","Units":"in","Rept_Date":"2019-12-02 11"},"coordinates":[5969,4283]},{"type":"Point","properties":{"Station_ID":"MA-MD-52","Station_Nam":"LEXINGTON 0.6 SW, MA","Latitude":"42.43983","Longitude":"-71.24047","Snowdepth":"8.000","Units":"in","Rept_Date":"2019-12-02 12"},"coordinates":[6102,4372]},{"type":"Point","properties":{"Station_ID":"MA-MD-107","Station_Nam":"FRAMINGHAM 1.7 E, MA","Latitude":"42.30516","Longitude":"-71.40471","Snowdepth":"8.000","Units":"in","Rept_Date":"2019-12-02 13"},"coordinates":[6063,4290]},{"type":"Point","properties":{"Station_ID":"MA-HD-28","Station_Nam":"WESTFIELD 2.8 SE, MA","Latitude":"42.10685","Longitude":"-72.72148","Snowdepth":"8.000","Units":"in","Rept_Date":"2019-12-02 11"},"coordinates":[5754,4170]},{"type":"Point","properties":{"Station_ID":"MA-ES-48","Station_Nam":"ANDOVER 0.6 E, MA","Latitude":"42.65659","Longitude":"-71.13048","Snowdepth":"8.000","Units":"in","Rept_Date":"2019-12-02 10"},"coordinates":[6127,4503]},{"type":"Point","properties":{"Station_ID":"LILM1","Station_Nam":"LILLE","Latitude":"47.27770","Longitude":"-68.10520","Snowdepth":"8.000","Units":"in","Rept_Date":"2019-12-02 12"},"coordinates":[6837,7303]},{"type":"Point","properties":{"Station_ID":"LEIM5","Station_Nam":"ORR 3E","Latitude":"48.05810","Longitude":"-92.75220","Snowdepth":"8.000","Units":"in","Rept_Date":"2019-12-02 12"},"coordinates":[1053,7776]},{"type":"Point","properties":{"Station_ID":"KSYR","Station_Nam":"SYRACUSE HANCOCK INTERNATIONAL  AIRPORT","Latitude":"43.11666","Longitude":"-76.10000","Snowdepth":"8.000","Units":"in","Rept_Date":"2019-12-03 06"},"coordinates":[4961,4782]},{"type":"Point","properties":{"Station_ID":"KGFK","Station_Nam":"GRAND FORKS INTERNATIONAL","Latitude":"47.95000","Longitude":"-97.18333","Snowdepth":"8.000","Units":"in","Rept_Date":"2019-12-03 06"},"coordinates":[13,7711]},{"type":"Point","properties":{"Station_ID":"GRBM5","Station_Nam":"GRAND RAPIDS 12N","Latitude":"47.39800","Longitude":"-93.51330","Snowdepth":"8.000","Units":"in","Rept_Date":"2019-12-02 12"},"coordinates":[874,7376]},{"type":"Point","properties":{"Station_ID":"GFK","Station_Nam":"GRAND FORKS INTERNATIONAL AIRPORT","Latitude":"47.94920","Longitude":"-97.17610","Snowdepth":"8.000","Units":"in","Rept_Date":"2019-12-03 00"},"coordinates":[15,7710]},{"type":"Point","properties":{"Station_ID":"FVLN6","Station_Nam":"FREEVILLE,NY","Latitude":"42.51670","Longitude":"-76.33330","Snowdepth":"8.000","Units":"in","Rept_Date":"2019-12-02 13"},"coordinates":[4906,4418]},{"type":"Point","properties":{"Station_ID":"EPTW3","Station_Nam":"EAU PLEINE TENDER","Latitude":"44.77220","Longitude":"-89.76720","Snowdepth":"8.000","Units":"in","Rept_Date":"2019-12-02 13"},"coordinates":[1753,5785]},{"type":"Point","properties":{"Station_ID":"EMRN6","Station_Nam":"ELMIRA","Latitude":"42.09970","Longitude":"-76.83580","Snowdepth":"8.000","Units":"in","Rept_Date":"2019-12-02 12"},"coordinates":[4788,4166]},{"type":"Point","properties":{"Station_ID":"ELWW3","Station_Nam":"ELLSWORTH 1E","Latitude":"44.73030","Longitude":"-92.45860","Snowdepth":"8.000","Units":"in","Rept_Date":"2019-12-02 13"},"coordinates":[1122,5760]},{"type":"Point","properties":{"Station_ID":"CQDP1","Station_Nam":"COWANESQUE DAM","Latitude":"41.99670","Longitude":"-77.15170","Snowdepth":"8.000","Units":"in","Rept_Date":"2019-12-02 12"},"coordinates":[4714,4103]},{"type":"Point","properties":{"Station_ID":"CDLM4","Station_Nam":"CADILLAC 9&10 NEWS","Latitude":"44.21130","Longitude":"-85.40860","Snowdepth":"8.000","Units":"in","Rept_Date":"2019-12-02 12"},"coordinates":[2776,5445]},{"type":"Point","properties":{"Station_ID":"BWTN6","Station_Nam":"BREWERTON LOCK 23","Latitude":"43.23860","Longitude":"-76.19640","Snowdepth":"8.000","Units":"in","Rept_Date":"2019-12-02 12"},"coordinates":[4938,4856]},