{"type":"Topology","objects":{"snowdepth_geo":{"type":"GeometryCollection","name":"snowdepth","crs":{"type":"name","properties":{"name":"urn:ogc:def:crs:OGC:1.3:CRS84"}},"geometries":[{"type":"Point","properties":{"Station_ID":"MMSV1","Station_Nam":"MOUNT MANSFIELD","Latitude":"44.53330","Longitude":"-72.83330","Snowdepth":"80.000","Units":"in","Rept_Date":"2019-12-27 05"},"coordinates":[5582,4223]},{"type":"Point","properties":{"Station_ID":"PRKM4","Station_Nam":"MUNISING EAST","Latitude":"46.42580","Longitude":"-86.62000","Snowdepth":"76.500","Units":"in","Rept_Date":"2019-12-27 06"},"coordinates":[2429,5743]},{"type":"Point","properties":{"Station_ID":"OGIQ6","Station_Nam":"OGOKI CAMP","Latitude":"50.76680","Longitude":"-87.85820","Snowdepth":"61.100","Units":"in","Rept_Date":"2019-12-27 06"},"coordinates":[2145,9228]},{"type":"Point","properties":{"Station_ID":"AUDQ6","Station_Nam":"AUDEN","Latitude":"48.52600","Longitude":"-82.57570","Snowdepth":"47.640","Units":"in","Rept_Date":"2019-12-27 06"},"coordinates":[3354,7429]},{"type":"Point","properties":{"Station_ID":"PDLM4","Station_Nam":"PAINESDALE","Latitude":"47.04160","Longitude":"-88.67170","Snowdepth":"28.000","Units":"in","Rept_Date":"2019-12-26 13"},"coordinates":[1959,6237]},{"type":"Point","properties":{"Station_ID":"HURW3","Station_Nam":"HURLEY","Latitude":"46.46250","Longitude":"-90.19550","Snowdepth":"28.000","Units":"in","Rept_Date":"2019-12-26 14"},"coordinates":[1611,5772]},{"type":"Point","properties":{"Station_ID":"QOU","Station_Nam":"QOU","Latitude":"50.79250","Longitude":"-69.67470","Snowdepth":"27.520","Units":"in","Rept_Date":"2019-12-26 12"},"coordinates":[6304,9249]},{"type":"Point","properties":{"Station_ID":"QGD","Station_Nam":"QGD","Latitude":"51.11140","Longitude":"-67.13940","Snowdepth":"25.551","Units":"in","Rept_Date":"2019-12-26 12"},"coordinates":[6884,9505]},{"type":"Point","properties":{"Station_ID":"QGO","Station_Nam":"QGO","Latitude":"48.85500","Longitude":"-74.20640","Snowdepth":"25.394","Units":"in","Rept_Date":"2019-12-26 12"},"coordinates":[5268,7693]},{"type":"Point","properties":{"Station_ID":"MLZ","Station_Nam":"MLZ","Latitude":"50.66170","Longitude":"-68.82360","Snowdepth":"25.276","Units":"in","Rept_Date":"2019-12-26 12"},"coordinates":[6499,9144]},{"type":"Point","properties":{"Station_ID":"MI-BG-3","Station_Nam":"L'ANSE 17.8 SE, MI","Latitude":"46.55730","Longitude":"-88.20770","Snowdepth":"25.000","Units":"in","Rept_Date":"2019-12-26 13"},"coordinates":[2065,5848]},{"type":"Point","properties":{"Station_ID":"HTLN3","Station_Nam":"HERMIT LAKE SNOWPLOT","Latitude":"44.26130","Longitude":"-71.28330","Snowdepth":"25.000","Units":"in","Rept_Date":"2019-12-26 12"},"coordinates":[5936,4005]},{"type":"Point","properties":{"Station_ID":"IBLM5","Station_Nam":"ISABELLA 14W","Latitude":"47.59360","Longitude":"-91.65140","Snowdepth":"24.000","Units":"in","Rept_Date":"2019-12-26 15"},"coordinates":[1278,6681]},{"type":"Point","properties":{"Station_ID":"QLB","Station_Nam":"QLB","Latitude":"50.72360","Longitude":"-75.10000","Snowdepth":"22.283","Units":"in","Rept_Date":"2019-12-26 12"},"coordinates":[5063,9193]},{"type":"Point","properties":{"Station_ID":"WLFM5","Station_Nam":"WOLF RIDGE ENVIRON LEARNING CENTER","Latitude":"47.38240","Longitude":"-91.19730","Snowdepth":"22.000","Units":"in","Rept_Date":"2019-12-26 13"},"coordinates":[1382,6511]},{"type":"Point","properties":{"Station_ID":"MN5ZKXWG","Station_Nam":"ILLGEN CITY 2.3 NNW","Latitude":"47.37901","Longitude":"-91.20365","Snowdepth":"22.000","Units":"in","Rept_Date":"2019-12-26 13"},"coordinates":[1380,6508]},{"type":"Point","properties":{"Station_ID":"LVDW3","Station_Nam":"LAC VIEUX DESERT","Latitude":"46.12110","Longitude":"-89.07580","Snowdepth":"22.000","Units":"in","Rept_Date":"2019-12-26 15"},"coordinates":[1867,5498]},{"type":"Point","properties":{"Station_ID":"QCU","Station_Nam":"QCU","Latitude":"47.82750","Longitude":"-76.59830","Snowdepth":"21.260","Units":"in","Rept_Date":"2019-12-26 12"},"coordinates":[4721,6868]},{"type":"Point","properties":{"Station_ID":"WRSM5","Station_Nam":"WRENSHALL","Latitude":"46.61550","Longitude":"-92.38380","Snowdepth":"21.000","Units":"in","Rept_Date":"2019-12-26 14"},"coordinates":[1110,5895]},{"type":"Point","properties":{"Station_ID":"WI-IR-3","Station_Nam":"PENCE 0.1 E, WI","Latitude":"46.41555","Longitude":"-90.27013","Snowdepth":"21.000","Units":"in","Rept_Date":"2019-12-26 13"},"coordinates":[1594,5735]},{"type":"Point","properties":{"Station_ID":"IWOM4","Station_Nam":"IRONWOOD#2","Latitude":"46.46520","Longitude":"-90.13820","Snowdepth":"21.000","Units":"in","Rept_Date":"2019-12-26 13"},"coordinates":[1624,5775]},{"type":"Point","properties":{"Station_ID":"QCX","Station_Nam":"QCX","Latitude":"51.32830","Longitude":"-70.08060","Snowdepth":"20.945","Units":"in","Rept_Date":"2019-12-26 12"},"coordinates":[6211,9679]},{"type":"Point","properties":{"Station_ID":"SWTW3","Station_Nam":"SUPERIOR WWTP","Latitude":"46.72700","Longitude":"-92.07200","Snowdepth":"20.000","Units":"in","Rept_Date":"2019-12-27 06"},"coordinates":[1182,5985]},{"type":"Point","properties":{"Station_ID":"PHEW3","Station_Nam":"PHELPS","Latitude":"46.06630","Longitude":"-89.07520","Snowdepth":"20.000","Units":"in","Rept_Date":"2019-12-26 13"},"coordinates":[1867,5454]},{"type":"Point","properties":{"Station_ID":"MQT","Station_Nam":"MARQUETTE, MI","Latitude":"46.53140","Longitude":"-87.54920","Snowdepth":"20.000","Units":"in","Rept_Date":"2019-12-27 06"},"coordinates":[2216,5828]},{"type":"Point","properties":{"Station_ID":"BERM4","Station_Nam":"BERGLAND DAM","Latitude":"46.58690","Longitude":"-89.54750","Snowdepth":"20.000","Units":"in","Rept_Date":"2019-12-26 13"},"coordinates":[1759,5872]},{"type":"Point","properties":{"Station_ID":"ASXW3","Station_Nam":"ASHLAND,WI","Latitude":"46.55220","Longitude":"-90.91610","Snowdepth":"20.000","Units":"in","Rept_Date":"2019-12-26 14"},"coordinates":[1446,5844]},{"type":"Point","properties":{"Station_ID":"QMD","Station_Nam":"QMD","Latitude":"49.29060","Longitude":"-75.84500","Snowdepth":"19.331","Units":"in","Rept_Date":"2019-12-26 12"},"coordinates":[4893,8043]},{"type":"Point","properties":{"Station_ID":"QFT","Station_Nam":"QFT","Latitude":"50.83280","Longitude":"-74.40390","Snowdepth":"19.055","Units":"in","Rept_Date":"2019-12-26 12"},"coordinates":[5223,9281]},{"type":"Point","properties":{"Station_ID":"WRPW3","Station_Nam":"WATER PURIFICATION PLANT","Latitude":"44.38800","Longitude":"-89.80550","Snowdepth":"19.000","Units":"in","Rept_Date":"2019-12-26 12"},"coordinates":[1700,4107]},{"type":"Point","properties":{"Station_ID":"QNCM4","Station_Nam":"QUINCY HILL","Latitude":"47.13640","Longitude":"-88.57950","Snowdepth":"19.000","Units":"in","Rept_Date":"2019-12-26 14"},"coordinates":[1980,6313]},{"type":"Point","properties":{"Station_ID":"HVCN3","Station_Nam":"HARVARD CABIN SNOWPLOT","Latitude":"44.26630","Longitude":"-71.27790","Snowdepth":"19.000","Units":"in","Rept_Date":"2019-12-26 11"},"coordinates":[5937,4009]},{"type":"Point","properties":{"Station_ID":"WTRW3","Station_Nam":"WINTER","Latitude":"45.79920","Longitude":"-90.99470","Snowdepth":"18.000","Units":"in","Rept_Date":"2019-12-26 15"},"coordinates":[1428,5240]},{"type":"Point","properties":{"Station_ID":"WI-WB-2","Station_Nam":"STONE LAKE 2.0 NW, WI","Latitude":"45.85960","Longitude":"-91.57710","Snowdepth":"18.000","Units":"in","Rept_Date":"2019-12-26 13"},"coordinates":[1295,5288]},{"type":"Point","properties":{"Station_ID":"WI-FL-3","Station_Nam":"FLORENCE 0.7 ESE, WI","Latitude":"45.91760","Longitude":"-88.23900","Snowdepth":"18.000","Units":"in","Rept_Date":"2019-12-26 12"},"coordinates":[2058,5335]},{"type":"Point","properties":{"Station_ID":"MN4DC1DW","Station_Nam":"FOUR CORNERS 3.6 E","Latitude":"46.84373","Longitude":"-92.20633","Snowdepth":"18.000","Units":"in","Rept_Date":"2019-12-26 12"},"coordinates":[1151,6078]},{"type":"Point","properties":{"Station_ID":"MMNV1","Station_Nam":"MT. MANSFIELD","Latitude":"44.52480","Longitude":"-72.81540","Snowdepth":"18.000","Units":"in","Rept_Date":"2019-12-26 21"},"coordinates":[5586,4217]},{"type":"Point","properties":{"Station_ID":"ILIM5","Station_Nam":"ISLAND LAKE","Latitude":"47.02400","Longitude":"-92.07000","Snowdepth":"18.000","Units":"in","Rept_Date":"2019-12-26 15"},"coordinates":[1182,6223]},{"type":"Point","properties":{"Station_ID":"DLHM5","Station_Nam":"DULUTH NWS","Latitude":"46.83680","Longitude":"-92.21080","Snowdepth":"18.000","Units":"in","Rept_Date":"2019-12-27 06"},"coordinates":[1150,6073]},{"type":"Point","properties":{"Station_ID":"DLH","Station_Nam":"DULUTH, MN","Latitude":"46.83690","Longitude":"-92.21030","Snowdepth":"18.000","Units":"in","Rept_Date":"2019-12-27 00"},"coordinates":[1150,6073]},{"type":"Point","properties":{"Station_ID":"CLQM5","Station_Nam":"CLOQUET","Latitude":"46.70470","Longitude":"-92.52530","Snowdepth":"18.000","Units":"in","Rept_Date":"2019-12-26 14"},"coordinates":[1078,5967]},{"type":"Point","properties":{"Station_ID":"QCO","Station_Nam":"QCO","Latitude":"51.45280","Longitude":"-72.20110","Snowdepth":"17.795","Units":"in","Rept_Date":"2019-12-26 12"},"coordinates":[5726,9779]},{"type":"Point","properties":{"Station_ID":"MFU","Station_Nam":"MFU","Latitude":"51.52170","Longitude":"-66.91110","Snowdepth":"17.323","Units":"in","Rept_Date":"2019-12-26 12"},"coordinates":[6936,9834]},{"type":"Point","properties":{"Station_ID":"WI-VL-9","Station_Nam":"LAND O' LAKES 11.7 W, WI","Latitude":"46.19023","Longitude":"-89.45790","Snowdepth":"17.000","Units":"in","Rept_Date":"2019-12-26 13"},"coordinates":[1780,5554]},{"type":"Point","properties":{"Station_ID":"WI-VL-10","Station_Nam":"LAND O LAKES 4.3 WNW, WI","Latitude":"46.17440","Longitude":"-89.30380","Snowdepth":"17.000","Units":"in","Rept_Date":"2019-12-26 13"},"coordinates":[1815,5541]},{"type":"Point","properties":{"Station_ID":"WI-BY-14","Station_Nam":"ASHLAND 9.8 W, WI","Latitude":"46.59742","Longitude":"-91.07856","Snowdepth":"17.000","Units":"in","Rept_Date":"2019-12-26 12"},"coordinates":[1409,5881]},{"type":"Point","properties":{"Station_ID":"STGW3","Station_Nam":"ST GERMAIN","Latitude":"45.91550","Longitude":"-89.48940","Snowdepth":"17.000","Units":"in","Rept_Date":"2019-12-26 12"},"coordinates":[1772,5333]},{"type":"Point","properties":{"Station_ID":"PDGM4","Station_Nam":"PAULDING","Latitude":"46.39760","Longitude":"-89.17940","Snowdepth":"17.000","Units":"in","Rept_Date":"2019-12-26 13"},"coordinates":[1843,5720]},{"type":"Point","properties":{"Station_ID":"MAIW3","Station_Nam":"MADELINE ISLAND","Latitude":"46.78330","Longitude":"-90.76670","Snowdepth":"17.000","Units":"in","Rept_Date":"2019-12-26 14"},"coordinates":[1480,6030]},{"type":"Point","properties":{"Station_ID":"LNOW3","Station_Nam":"LAND O LAKES","Latitude":"46.19000","Longitude":"-89.45700","Snowdepth":"17.000","Units":"in","Rept_Date":"2019-12-26 13"},"coordinates":[1780,5554]},{"type":"Point","properties":{"Station_ID":"KISM4","Station_Nam":"K.I. SAWYER WWTP","Latitude":"46.33410","Longitude":"-87.37790","Snowdepth":"17.000","Units":"in","Rept_Date":"2019-12-26 13"},"coordinates":[2255,5669]},{"type":"Point","properties":{"Station_ID":"GNLM4","Station_Nam":"GREENLAND 6N","Latitude":"46.87360","Longitude":"-89.10060","Snowdepth":"17.000","Units":"in","Rept_Date":"2019-12-26 13"},"coordinates":[1861,6102]},{"type":"Point","properties":{"Station_ID":"QTV","Station_Nam":"QTV","Latitude":"49.66000","Longitude":"-69.35690","Snowdepth":"16.811","Units":"in","Rept_Date":"2019-12-26 12"},"coordinates":[6377,8340]},{"type":"Point","properties":{"Station_ID":"WI-IR-2","Station_Nam":"MERCER 2.0 SE, WI","Latitude":"46.14749","Longitude":"-90.03097","Snowdepth":"16.500","Units":"in","Rept_Date":"2019-12-26 13"},"coordinates":[1648,5519]},{"type":"Point","properties":{"Station_ID":"SVBQ6","Station_Nam":"SAVANT BASE","Latitude":"50.28730","Longitude":"-90.65670","Snowdepth":"16.300","Units":"in","Rept_Date":"2019-12-27 06"},"coordinates":[1505,8843]},{"type":"Point","properties":{"Station_ID":"QMA","Station_Nam":"QMA","Latitude":"50.10330","Longitude":"-70.47190","Snowdepth":"16.063","Units":"in","Rept_Date":"2019-12-26 12"},"coordinates":[6122,8695]},{"type":"Point","properties":{"Station_ID":"WI-BY-2","Station_Nam":"MELLEN 18.6 SW, WI","Latitude":"46.16937","Longitude":"-90.98090","Snowdepth":"16.000","Units":"in","Rept_Date":"2019-12-26 13"},"coordinates":[1431,5537]},{"type":"Point","properties":{"Station_ID":"NWCM4","Station_Nam":"NEWBERRY CITY","Latitude":"46.35720","Longitude":"-85.51780","Snowdepth":"16.000","Units":"in","Rept_Date":"2019-12-26 12"},"coordinates":[2681,5688]},{"type":"Point","properties":{"Station_ID":"MNSM4","Station_Nam":"MUNISING","Latitude":"46.41210","Longitude":"-86.66250","Snowdepth":"16.000","Units":"in","Rept_Date":"2019-12-26 11"},"coordinates":[2419,5732]},{"type":"Point","properties":{"Station_ID":"CMKW3","Station_Nam":"CLAM LAKE 4W","Latitude":"46.16940","Longitude":"-90.98080","Snowdepth":"16.000","Units":"in","Rept_Date":"2019-12-26 13"},"coordinates":[1431,5537]},{"type":"Point","properties":{"Station_ID":"BRSW3","Station_Nam":"BRULE,WI","Latitude":"46.53780","Longitude":"-91.59190","Snowdepth":"16.000","Units":"in","Rept_Date":"2019-12-26 16"},"coordinates":[1291,5833]},{"type":"Point","properties":{"Station_ID":"QYR","Station_Nam":"QYR","Latitude":"48.87220","Longitude":"-75.61470","Snowdepth":"15.827","Units":"in","Rept_Date":"2019-12-26 12"},"coordinates":[4946,7707]},{"type":"Point","properties":{"Station_ID":"WI-AS-4","Station_Nam":"ASHLAND 0.5 WNW, WI","Latitude":"46.58240","Longitude":"-90.88390","Snowdepth":"15.500","Units":"in","Rept_Date":"2019-12-26 13"},"coordinates":[1453,5869]},{"type":"Point","properties":{"Station_ID":"WI-BY-1","Station_Nam":"BAYFIELD 8.8 N, WI","Latitude":"46.93855","Longitude":"-90.83490","Snowdepth":"15.000","Units":"in","Rept_Date":"2019-12-26 13"},"coordinates":[1465,6155]},{"type":"Point","properties":{"Station_ID":"TOGM5","Station_Nam":"CELINA 2E","Latitude":"47.86630","Longitude":"-93.02660","Snowdepth":"15.000","Units":"in","Rept_Date":"2019-12-26 15"},"coordinates":[963,6899]},{"type":"Point","properties":{"Station_ID":"SUAW3","Station_Nam":"SUAMICO","Latitude":"44.60190","Longitude":"-88.09780","Snowdepth":"15.000","Units":"in","Rept_Date":"2019-12-26 12"},"coordinates":[2091,4279]},{"type":"Point","properties":{"Station_ID":"MN6ZK0BT","Station_Nam":"BABBITT 0.4 ESE","Latitude":"47.70874","Longitude":"-91.93886","Snowdepth":"15.000","Units":"in","Rept_Date":"2019-12-26 13"},"coordinates":[1212,6773]},{"type":"Point","properties":{"Station_ID":"IRMM4","Station_Nam":"WWTP","Latitude":"46.46670","Longitude":"-90.18330","Snowdepth":"15.000","Units":"in","Rept_Date":"2019-12-26 13"},"coordinates":[1614,5776]},{"type":"Point","properties":{"Station_ID":"FLNW3","Station_Nam":"FLORENCE","Latitude":"45.93360","Longitude":"-88.25830","Snowdepth":"15.000","Units":"in","Rept_Date":"2019-12-26 13"},"coordinates":[2054,5348]},{"type":"Point","properties":{"Station_ID":"EVRW3","Station_Nam":"EAGLE RIVER-4 E","Latitude":"45.91890","Longitude":"-89.15280","Snowdepth":"15.000","Units":"in","Rept_Date":"2019-12-26 13"},"coordinates":[1849,5336]},{"type":"Point","properties":{"Station_ID":"CRVW3","Station_Nam":"CRIVITZ HIGH FALLS","Latitude":"45.35750","Longitude":"-88.19190","Snowdepth":"15.000","Units":"in","Rept_Date":"2019-12-26 13"},"coordinates":[2069,4885]},{"type":"Point","properties":{"Station_ID":"CLGM5","Station_Nam":"COLLEGEVILLE ST JOHN","Latitude":"45.57940","Longitude":"-94.39200","Snowdepth":"15.000","Units":"in","Rept_Date":"2019-12-27 00"},"coordinates":[651,5063]},{"type":"Point","properties":{"Station_ID":"BABM5","Station_Nam":"BABBITT","Latitude":"47.71210","Longitude":"-91.95330","Snowdepth":"15.000","Units":"in","Rept_Date":"2019-12-26 13"},"coordinates":[1209,6776]},{"type":"Point","properties":{"Station_ID":"AWXW3","Station_Nam":"ASHLAND","Latitude":"46.58240","Longitude":"-90.88390","Snowdepth":"15.000","Units":"in","Rept_Date":"2019-12-26 13"},"coordinates":[1453,5869]},{"type":"Point","properties":{"Station_ID":"WI-VL-14","Station_Nam":"BOULDER JUNCTION 1.4 NE, WI","Latitude":"46.12840","Longitude":"-89.62470","Snowdepth":"14.500","Units":"in","Rept_Date":"2019-12-26 13"},"coordinates":[1741,5504]},{"type":"Point","properties":{"Station_ID":"QWE","Station_Nam":"QWE","Latitude":"47.84610","Longitude":"-73.80670","Snowdepth":"14.488","Units":"in","Rept_Date":"2019-12-26 12"},"coordinates":[5359,6883]},{"type":"Point","properties":{"Station_ID":"QLM","Station_Nam":"QLM","Latitude":"48.92030","Longitude":"-70.25280","Snowdepth":"14.213","Units":"in","Rept_Date":"2019-12-26 12"},"coordinates":[6172,7746]},{"type":"Point","properties":{"Station_ID":"RLKW3","Station_Nam":"REST LAKE","Latitude":"46.12220","Longitude":"-89.87720","Snowdepth":"14.000","Units":"in","Rept_Date":"2019-12-26 14"},"coordinates":[1684,5499]},{"type":"Point","properties":{"Station_ID":"RHIW3","Station_Nam":"RHINELANDER","Latitude":"45.59860","Longitude":"-89.45080","Snowdepth":"14.000","Units":"in","Rept_Date":"2019-12-26 13"},"coordinates":[1781,5079]},{"type":"Point","properties":{"Station_ID":"MN-IT-23","Station_Nam":"BOVEY 13.4 N, MN","Latitude":"47.48855","Longitude":"-93.43497","Snowdepth":"14.000","Units":"in","Rept_Date":"2019-12-26 13"},"coordinates":[870,6596]},{"type":"Point","properties":{"Station_ID":"MI-MQ-19","Station_Nam":"ISHPEMING 7.2 SW, MI","Latitude":"46.40550","Longitude":"-87.75670","Snowdepth":"14.000","Units":"in","Rept_Date":"2019-12-26 11"},"coordinates":[2169,5727]},{"type":"Point","properties":{"Station_ID":"HRVM4","Station_Nam":"HARVEY","Latitude":"46.49080","Longitude":"-87.35470","Snowdepth":"14.000","Units":"in","Rept_Date":"2019-12-26 12"},"coordinates":[2261,5795]},{"type":"Point","properties":{"Station_ID":"HERM4","Station_Nam":"HERMAN,MI","Latitude":"46.65000","Longitude":"-88.33330","Snowdepth":"14.000","Units":"in","Rept_Date":"2019-12-26 13"},"coordinates":[2037,5923]},{"type":"Point","properties":{"Station_ID":"GGRM4","Station_Nam":"GREEN GARDEN NO.2","Latitude":"46.45330","Longitude":"-87.30380","Snowdepth":"14.000","Units":"in","Rept_Date":"2019-12-26 13"},"coordinates":[2272,5765]},{"type":"Point","properties":{"Station_ID":"EGRW3","Station_Nam":"EAGLE RIVER-SOUTH","Latitude":"45.91360","Longitude":"-89.24360","Snowdepth":"14.000","Units":"in","Rept_Date":"2019-12-26 13"},"coordinates":[1829,5332]},{"type":"Point","properties":{"Station_ID":"PTLQ6","Station_Nam":"PORTAGE LAKE","Latitude":"49.06950","Longitude":"-86.65940","Snowdepth":"13.980","Units":"in","Rept_Date":"2019-12-27 06"},"coordinates":[2420,7865]},{"type":"Point","properties":{"Station_ID":"MN-BK-6","Station_Nam":"LAKE PARK 6.0 S, MN","Latitude":"46.79850","Longitude":"-96.12180","Snowdepth":"13.500","Units":"in","Rept_Date":"2019-12-26 13"},"coordinates":[255,6042]},{"type":"Point","properties":{"Station_ID":"TRIQ6","Station_Nam":"TRIO LAKE","Latitude":"49.22880","Longitude":"-87.22920","Snowdepth":"13.390","Units":"in","Rept_Date":"2019-12-27 06"},"coordinates":[2289,7993]},{"type":"Point","properties":{"Station_ID":"QIQ","Station_Nam":"QIQ","Latitude":"49.82390","Longitude":"-68.54310","Snowdepth":"13.346","Units":"in","Rept_Date":"2019-12-26 12"},"coordinates":[6563,8471]},{"type":"Point","properties":{"Station_ID":"WTRM4","Station_Nam":"WATERSMEET 12WSW","Latitude":"46.22310","Longitude":"-89.40850","Snowdepth":"13.000","Units":"in","Rept_Date":"2019-12-26 12"},"coordinates":[1791,5580]},{"type":"Point","properties":{"Station_ID":"WI-PR-2","Station_Nam":"BUTTERNUT 5.9 SW, WI","Latitude":"45.96501","Longitude":"-90.59750","Snowdepth":"13.000","Units":"in","Rept_Date":"2019-12-26 12"},"coordinates":[1519,5373]},{"type":"Point","properties":{"Station_ID":"MN8O09O3","Station_Nam":"ORR 3.6 E","Latitude":"48.04403","Longitude":"-92.75427","Snowdepth":"13.000","Units":"in","Rept_Date":"2019-12-26 12"},"coordinates":[1026,7042]},{"type":"Point","properties":{"Station_ID":"LEIM5","Station_Nam":"ORR 3E","Latitude":"48.05810","Longitude":"-92.75220","Snowdepth":"13.000","Units":"in","Rept_Date":"2019-12-26 12"},"coordinates":[1026,7053]},{"type":"Point","properties":{"Station_ID":"ELVM5","Station_Nam":"EVELETH,MN","Latitude":"47.46670","Longitude":"-92.56670","Snowdepth":"13.000","Units":"in","Rept_Date":"2019-12-26 13"},"coordinates":[1069,6579]},{"type":"Point","properties":{"Station_ID":"CSLM5","Station_Nam":"CASS LAKE,MN","Latitude":"47.38470","Longitude":"-94.61470","Snowdepth":"13.000","Units":"in","Rept_Date":"2019-12-26 14"},"coordinates":[600,6513]},{"type":"Point","properties":{"Station_ID":"CRNM5","Station_Nam":"NW EXPERIMENT STN","Latitude":"47.80360","Longitude":"-96.61670","Snowdepth":"13.000","Units":"in","Rept_Date":"2019-12-26 14"},"coordinates":[142,6849]},{"type":"Point","properties":{"Station_ID":"BFHW3","Station_Nam":"BAYFIELD FISH HATCHERY","Latitude":"46.78670","Longitude":"-90.86420","Snowdepth":"13.000","Units":"in","Rept_Date":"2019-12-26 14"},"coordinates":[1458,6033]},{"type":"Point","properties":{"Station_ID":"DVLQ6","Station_Nam":"DEVIOUS LAKE","Latitude":"49.19890","Longitude":"-87.76440","Snowdepth":"12.990","Units":"in","Rept_Date":"2019-12-27 06"},"coordinates":[2167,7969]},{"type":"Point","properties":{"Station_ID":"MI-HG-1","Station_Nam":"HOUGHTON 1.6 ESE, MI","Latitude":"47.10774","Longitude":"-88.52940","Snowdepth":"12.500","Units":"in","Rept_Date":"2019-12-26 13"},"coordinates":[1992,6290]},{"type":"Point","properties":{"Station_ID":"KABQ6","Station_Nam":"CAB LAKE","Latitude":"49.59950","Longitude":"-89.17990","Snowdepth":"12.480","Units":"in","Rept_Date":"2019-12-27 06"},"coordinates":[1843,8291]},{"type":"Point","properties":{"Station_ID":"QLI","Station_Nam":"QLI","Latitude":"50.27080","Longitude":"-73.92280","Snowdepth":"12.165","Units":"in","Rept_Date":"2019-12-26 12"},"coordinates":[5333,8830]},{"type":"Point","properties":{"Station_ID":"QTM","Station_Nam":"QTM","Latitude":"51.05780","Longitude":"-72.57190","Snowdepth":"12.008","Units":"in","Rept_Date":"2019-12-26 12"},"coordinates":[5642,9462]},{"type":"Point","properties":{"Station_ID":"WILW3","Station_Nam":"RESERVOIR","Latitude":"45.70000","Longitude":"-89.83330","Snowdepth":"12.000","Units":"in","Rept_Date":"2019-12-26 12"},"coordinates":[1694,5160]},{"type":"Point","properties":{"Station_ID":"WI-SR-5","Station_Nam":"HAYWARD 9.7 NE, WI","Latitude":"46.12030","Longitude":"-91.35370","Snowdepth":"12.000","Units":"in","Rept_Date":"2019-12-26 14"},"coordinates":[1346,5498]},{"type":"Point","properties":{"Station_ID":"WI-RS-1","Station_Nam":"LADYSMITH 2.8 WNW, WI","Latitude":"45.48180","Longitude":"-91.14680","Snowdepth":"12.000","Units":"in","Rept_Date":"2019-12-26 13"},"coordinates":[1393,4985]},{"type":"Point","properties":{"Station_ID":"WI-PR-6","Station_Nam":"PHILLIPS 1.3 S, WI","Latitude":"45.67677","Longitude":"-90.39543","Snowdepth":"12.000","Units":"in","Rept_Date":"2019-12-26 12"},"coordinates":[1565,5142]},{"type":"Point","properties":{"Station_ID":"TOHM5","Station_Nam":"TWO HARBORS WWTP","Latitude":"47.01760","Longitude":"-91.66480","Snowdepth":"12.000","Units":"in","Rept_Date":"2019-12-26 13"},"coordinates":[1275,6218]},{"type":"Point","properties":{"Station_ID":"PRNW3","Station_Nam":"PRENTICE,WI","Latitude":"45.54780","Longitude":"-90.30000","Snowdepth":"12.000","Units":"in","Rept_Date":"2019-12-26 14"},"coordinates":[1587,5038]},{"type":"Point","properties":{"Station_ID":"NYMM5","Station_Nam":"NEW YORK MILLS","Latitude":"46.50920","Longitude":"-95.37990","Snowdepth":"12.000","Units":"in","Rept_Date":"2019-12-26 13"},"coordinates":[425,5810]},{"type":"Point","properties":{"Station_ID":"MNMZK7NS","Station_Nam":"NEW YORK MILLS 0.2 NNE","Latitude":"46.52057","Longitude":"-95.37394","Snowdepth":"12.000","Units":"in","Rept_Date":"2019-12-26 13"},"coordinates":[426,5819]},{"type":"Point","properties":{"Station_ID":"MN4QO5TH","Station_Nam":"TWO HARBORS 0.7 ESE","Latitude":"47.03297","Longitude":"-91.65673","Snowdepth":"12.000","Units":"in","Rept_Date":"2019-12-26 13"},"coordinates":[1277,6230]},{"type":"Point","properties":{"Station_ID":"MI-HG-6","Station_Nam":"CALUMET 5.8 ENE, MI","Latitude":"47.27200","Longitude":"-88.33400","Snowdepth":"12.000","Units":"in","Rept_Date":"2019-12-26 11"},"coordinates":[2037,6422]},{"type":"Point","properties":{"Station_ID":"LTMW3","Station_Nam":"LAKE TOMAHAWK 2 SE","Latitude":"45.80750","Longitude":"-89.55830","Snowdepth":"12.000","Units":"in","Rept_Date":"2019-12-26 12"},"coordinates":[1757,5247]},{"type":"Point","properties":{"Station_ID":"CRLM5","Station_Nam":"CROSS LAKE DAM","Latitude":"46.66930","Longitude":"-94.11060","Snowdepth":"12.000","Units":"in","Rept_Date":"2019-12-26 14"},"coordinates":[715,5938]},{"type":"Point","properties":{"Station_ID":"CEFM4","Station_Nam":"EXPERIMENT FARM #2","Latitude":"46.33330","Longitude":"-86.91670","Snowdepth":"12.000","Units":"in","Rept_Date":"2019-12-26 13"},"coordinates":[2361,5669]},{"type":"Point","properties":{"Station_ID":"AVTW3","Station_Nam":"ARBOR VITAE-JOHNSON LAKE","Latitude":"45.89940","Longitude":"-89.72670","Snowdepth":"12.000","Units":"in","Rept_Date":"2019-12-26 12"},"coordinates":[1718,5320]},{"type":"Point","properties":{"Station_ID":"ASTW3","Station_Nam":"ATHELSTANE","Latitude":"45.42500","Longitude":"-88.05750","Snowdepth":"12.000","Units":"in","Rept_Date":"2019-12-26 12"},"coordinates":[2100,4939]},{"type":"Point","properties":{"Station_ID":"AGNW3","Station_Nam":"ARGONNE-1.5 NW","Latitude":"45.67360","Longitude":"-88.90380","Snowdepth":"12.000","Units":"in","Rept_Date":"2019-12-26 13"},"coordinates":[1906,5139]},{"type":"Point","properties":{"Station_ID":"SOCQ6","Station_Nam":"SOCKET LAKE","Latitude":"50.77870","Longitude":"-91.79300","Snowdepth":"11.890","Units":"in","Rept_Date":"2019-12-27 06"},"coordinates":[1245,9238]},{"type":"Point","properties":{"Station_ID":"MN-SL-108","Station_Nam":"IRON JUNCTION 3.4 NNW, MN","Latitude":"47.46150","Longitude":"-92.63130","Snowdepth":"11.500","Units":"in","Rept_Date":"2019-12-26 13"},"coordinates":[1054,6574]},{"type":"Point","properties":{"Station_ID":"MN-CW-16","Station_Nam":"TROMMALD 6.1 NW, MN","Latitude":"46.55849","Longitude":"-94.11723","Snowdepth":"11.500","Units":"in","Rept_Date":"2019-12-26 14"},"coordinates":[714,5849]},{"type":"Point","properties":{"Station_ID":"QGA","Station_Nam":"QGA","Latitude":"47.25640","Longitude":"-73.73810","Snowdepth":"11.024","Units":"in","Rept_Date":"2019-12-26 12"},"coordinates":[5375,6410]},{"type":"Point","properties":{"Station_ID":"WI-ON-6","Station_Nam":"RHINELANDER 5.2 N, WI","Latitude":"45.71388","Longitude":"-89.42150","Snowdepth":"11.000","Units":"in","Rept_Date":"2019-12-26 13"},"coordinates":[1788,5171]},{"type":"Point","properties":{"Station_ID":"WI-BT-14","Station_Nam":"OAKLAND 9.0 ENE, WI","Latitude":"45.95184","Longitude":"-92.21653","Snowdepth":"11.000","Units":"in","Rept_Date":"2019-12-26 13"},"coordinates":[1149,5362]},{"type":"Point","properties":{"Station_ID":"WI-BR-2","Station_Nam":"CHETEK 2.0 SE, WI","Latitude":"45.29427","Longitude":"-91.62470","Snowdepth":"11.000","Units":"in","Rept_Date":"2019-12-26 13"},"coordinates":[1284,4834]},{"type":"Point","properties":{"Station_ID":"STMM4","Station_Nam":"STAMBAUGH 2SSE","Latitude":"46.05550","Longitude":"-88.62780","Snowdepth":"11.000","Units":"in","Rept_Date":"2019-12-26 13"},"coordinates":[1969,5446]},{"type":"Point","properties":{"Station_ID":"SEBM5","Station_Nam":"SEBEKA","Latitude":"46.62540","Longitude":"-95.09670","Snowdepth":"11.000","Units":"in","Rept_Date":"2019-12-26 13"},"coordinates":[490,5903]},{"type":"Point","properties":{"Station_ID":"RARM4","Station_Nam":"RAPID RIVER 1 SW","Latitude":"45.91500","Longitude":"-86.98800","Snowdepth":"11.000","Units":"in","Rept_Date":"2019-12-26 12"},"coordinates":[2344,5333]},{"type":"Point","properties":{"Station_ID":"PKFW3","Station_Nam":"PARK FALLS,WI","Latitude":"45.93360","Longitude":"-90.45060","Snowdepth":"11.000","Units":"in","Rept_Date":"2019-12-26 14"},"coordinates":[1552,5348]},{"type":"Point","properties":{"Station_ID":"MN70GOES","Station_Nam":"EMBARRASS 0.6 SSE","Latitude":"47.65101","Longitude":"-92.19222","Snowdepth":"11.000","Units":"in","Rept_Date":"2019-12-26 12"},"coordinates":[1154,6727]},{"type":"Point","properties":{"Station_ID":"MN3LTZND","Station_Nam":"BRAINERD 1.4 S","Latitude":"46.33224","Longitude":"-94.20905","Snowdepth":"11.000","Units":"in","Rept_Date":"2019-12-26 13"},"coordinates":[693,5668]},{"type":"Point","properties":{"Station_ID":"MN2EOYHJ","Station_Nam":"OGILVIE 5.6 N","Latitude":"45.91288","Longitude":"-93.42259","Snowdepth":"11.000","Units":"in","Rept_Date":"2019-12-26 14"},"coordinates":[873,5331]},{"type":"Point","properties":{"Station_ID":"KGFK","Station_Nam":"GRAND FORKS INTERNATIONAL","Latitude":"47.95000","Longitude":"-97.18333","Snowdepth":"11.000","Units":"in","Rept_Date":"2019-12-27 06"},"coordinates":[13,6967]},{"type":"Point","properties":{"Station_ID":"GFK","Station_Nam":"GRAND FORKS INTERNATIONAL AIRPORT","Latitude":"47.94920","Longitude":"-97.17610","Snowdepth":"11.000","Units":"in","Rept_Date":"2019-12-27 00"},"coordinates":[14,6966]},{"type":"Point","properties":{"Station_ID":"EMBM5","Station_Nam":"EMBARASS,MN","Latitude":"47.65810","Longitude":"-92.19580","Snowdepth":"11.000","Units":"in","Rept_Date":"2019-12-26 12"},"coordinates":[1153,6732]},{"type":"Point","properties":{"Station_ID":"COUW3","Station_Nam":"COUDERAY,WI","Latitude":"45.86670","Longitude":"-91.45000","Snowdepth":"11.000","Units":"in","Rept_Date":"2019-12-26 22"},"coordinates":[1324,5294]},{"type":"Point","properties":{"Station_ID":"CLKM4","Station_Nam":"CLARKSBURG","Latitude":"46.49910","Longitude":"-87.84500","Snowdepth":"11.000","Units":"in","Rept_Date":"2019-12-26 12"},"coordinates":[2148,5802]},{"type":"Point","properties":{"Station_ID":"BRAM5","Station_Nam":"BRAINERD","Latitude":"46.34320","Longitude":"-94.20900","Snowdepth":"11.000","Units":"in","Rept_Date":"2019-12-26 13"},"coordinates":[693,5677]},{"type":"Point","properties":{"Station_ID":"AMAM4","Station_Nam":"AMASA 1W","Latitude":"46.23470","Longitude":"-88.45440","Snowdepth":"11.000","Units":"in","Rept_Date":"2019-12-26 14"},"coordinates":[2009,5589]},{"type":"Point","properties":{"Station_ID":"VT-BN-12","Station_Nam":"STAMFORD 5.0 NNE, VT","Latitude":"42.82000","Longitude":"-73.02000","Snowdepth":"10.500","Units":"in","Rept_Date":"2019-12-26 21"},"coordinates":[5539,2848]},{"type":"Point","properties":{"Station_ID":"ND-GF-8","Station_Nam":"GRAND FORKS 2.5 SE, ND","Latitude":"47.89136","Longitude":"-97.03386","Snowdepth":"10.500","Units":"in","Rept_Date":"2019-12-26 13"},"coordinates":[47,6920]},{"type":"Point","properties":{"Station_ID":"MN-BM-15","Station_Nam":"BEMIDJI 7.8 ENE, MN","Latitude":"47.52043","Longitude":"-94.72121","Snowdepth":"10.500","Units":"in","Rept_Date":"2019-12-26 15"},"coordinates":[576,6622]},{"type":"Point","properties":{"Station_ID":"FTHQ6","Station_Nam":"FORT HOPE","Latitude":"51.55820","Longitude":"-87.90510","Snowdepth":"10.240","Units":"in","Rept_Date":"2019-12-27 06"},"coordinates":[2135,9864]},{"type":"Point","properties":{"Station_ID":"WLKW3","Station_Nam":"WHITE LAKE 1 SE","Latitude":"45.14520","Longitude":"-88.74160","Snowdepth":"10.000","Units":"in","Rept_Date":"2019-12-26 14"},"coordinates":[1943,4715]},{"type":"Point","properties":{"Station_ID":"TAKW3","Station_Nam":"RICE RESERVOIR NO. 2","Latitude":"45.53770","Longitude":"-89.73220","Snowdepth":"10.000","Units":"in","Rept_Date":"2019-12-26 13"},"coordinates":[1717,5030]},{"type":"Point","properties":{"Station_ID":"RRVM4","Station_Nam":"RAPID RIVER 9S","Latitude":"45.78750","Longitude":"-86.93920","Snowdepth":"10.000","Units":"in","Rept_Date":"2019-12-26 14"},"coordinates":[2356,5230]},{"type":"Point","properties":{"Station_ID":"ND-CS-25","Station_Nam":"FARGO 2.1 N, ND","Latitude":"46.90816","Longitude":"-96.77937","Snowdepth":"10.000","Units":"in","Rept_Date":"2019-12-26 14"},"coordinates":[105,6130]},{"type":"Point","properties":{"Station_ID":"MQRW3","Station_Nam":"MINOCQUA","Latitude":"45.88630","Longitude":"-89.73220","Snowdepth":"10.000","Units":"in","Rept_Date":"2019-12-26 12"},"coordinates":[1717,5310]},{"type":"Point","properties":{"Station_ID":"MN9UO3KA","Station_Nam":"GAPPAS LANDING CG 3.8 N","Latitude":"48.49307","Longitude":"-93.03634","Snowdepth":"10.000","Units":"in","Rept_Date":"2019-12-26 13"},"coordinates":[961,7403]},{"type":"Point","properties":{"Station_ID":"MN-SL-139","Station_Nam":"DULUTH 1.2 SE, MN","Latitude":"46.77000","Longitude":"-92.08826","Snowdepth":"10.000","Units":"in","Rept_Date":"2019-12-26 12"},"coordinates":[1178,6019]},{"type":"Point","properties":{"Station_ID":"MN-IT-19","Station_Nam":"COHASSET 7.6 NNW, MN","Latitude":"47.34204","Longitude":"-93.69765","Snowdepth":"10.000","Units":"in","Rept_Date":"2019-12-26 13"},"coordinates":[810,6479]},{"type":"Point","properties":{"Station_ID":"MN-IT-17","Station_Nam":"GRAND RAPIDS 6.1 N, MN","Latitude":"47.31165","Longitude":"-93.55036","Snowdepth":"10.000","Units":"in","Rept_Date":"2019-12-26 13"},"coordinates":[844,6454]},{"type":"Point","properties":{"Station_ID":"MN-CW-22","Station_Nam":"FORT RIPLEY 0.8 N, MN","Latitude":"46.18089","Longitude":"-94.36510","Snowdepth":"10.000","Units":"in","Rept_Date":"2019-12-26 13"},"coordinates":[657,5546]},{"type":"Point","properties":{"Station_ID":"KABM5","Station_Nam":"KABETOGAMA LAKE VISITOR CTR","Latitude":"48.40880","Longitude":"-93.04840","Snowdepth":"10.000","Units":"in","Rept_Date":"2019-12-26 13"},"coordinates":[958,7335]},{"type":"Point","properties":{"Station_ID":"JCBM4","Station_Nam":"JACOBSVILLE","Latitude":"47.00830","Longitude":"-88.43180","Snowdepth":"10.000","Units":"in","Rept_Date":"2019-12-26 12"},"coordinates":[2014,6211]},{"type":"Point","properties":{"Station_ID":"IMNM4","Station_Nam":"IRON MOUTAIN 5N","Latitude":"45.87580","Longitude":"-88.04030","Snowdepth":"10.000","Units":"in","Rept_Date":"2019-12-27 01"},"coordinates":[2104,5301]},{"type":"Point","properties":{"Station_ID":"IFSM5","Station_Nam":"INTERNATIONAL FALLS SNOW","Latitude":"48.57780","Longitude":"-93.39640","Snowdepth":"10.000","Units":"in","Rept_Date":"2019-12-27 06"},"coordinates":[879,7471]},{"type":"Point","properties":{"Station_ID":"GRFN8","Station_Nam":"UNIVERSITY","Latitude":"47.93330","Longitude":"-97.08330","Snowdepth":"10.000","Units":"in","Rept_Date":"2019-12-27 06"},"coordinates":[36,6953]},{"type":"Point","properties":{"Station_ID":"ELYM5","Station_Nam":"ELY","Latitude":"47.90560","Longitude":"-91.82830","Snowdepth":"10.000","Units":"in","Rept_Date":"2019-12-26 14"},"coordinates":[1237,6931]},{"type":"Point","properties":{"Station_ID":"AROM4","Station_Nam":"ARNOLD,MI","Latitude":"46.06670","Longitude":"-87.48330","Snowdepth":"10.000","Units":"in","Rept_Date":"2019-12-26 14"},"coordinates":[2231,5455]},{"type":"Point","properties":{"Station_ID":"ABGW3","Station_Nam":"AMBERG 9 E","Latitude":"45.48250","Longitude":"-87.81190","Snowdepth":"10.000","Units":"in","Rept_Date":"2019-12-26 12"},"coordinates":[2156,4986]},{"type":"Point","properties":{"Station_ID":"QLP","Station_Nam":"QLP","Latitude":"48.13920","Longitude":"-72.63830","Snowdepth":"9.803","Units":"in","Rept_Date":"2019-12-26 12"},"coordinates":[5626,7119]},{"type":"Point","properties":{"Station_ID":"CATQ6","Station_Nam":"CAT LAKE","Latitude":"51.72690","Longitude":"-91.82210","Snowdepth":"9.610","Units":"in","Rept_Date":"2019-12-27 06"},"coordinates":[1239,9999]},{"type":"Point","properties":{"Station_ID":"MN-BK-10","Station_Nam":"DETROIT LAKES 5.7 N, MN","Latitude":"46.88666","Longitude":"-95.84444","Snowdepth":"9.500","Units":"in","Rept_Date":"2019-12-26 10"},"coordinates":[319,6113]},{"type":"Point","properties":{"Station_ID":"MA-MD-47","Station_Nam":"WEST TOWNSEND 0.5 W, MA","Latitude":"42.67623","Longitude":"-71.74983","Snowdepth":"9.500","Units":"in","Rept_Date":"2019-12-26 11"},"coordinates":[5830,2733]},{"type":"Point","properties":{"Station_ID":"ZNOM4","Station_Nam":"NORWAY","Latitude":"45.77810","Longitude":"-87.89560","Snowdepth":"9.000","Units":"in","Rept_Date":"2019-12-27 01"},"coordinates":[2137,5223]},{"type":"Point","properties":{"Station_ID":"WTNM4","Station_Nam":"WATTON 2WSW","Latitude":"46.52660","Longitude":"-88.64240","Snowdepth":"9.000","Units":"in","Rept_Date":"2019-12-26 13"},"coordinates":[1966,5824]},{"type":"Point","properties":{"Station_ID":"WI-LN-2","Station_Nam":"MERRILL 7.0 W, WI","Latitude":"45.17746","Longitude":"-89.84820","Snowdepth":"9.000","Units":"in","Rept_Date":"2019-12-26 12"},"coordinates":[1690,4741]},{"type":"Point","properties":{"Station_ID":"SSMM4","Station_Nam":"SAULT STE MARIE","Latitude":"46.48660","Longitude":"-84.40250","Snowdepth":"9.000","Units":"in","Rept_Date":"2019-12-26 13"},"coordinates":[2936,5792]},{"type":"Point","properties":{"Station_ID":"RHLW3","Station_Nam":"RHINELANDER 4NE","Latitude":"45.65270","Longitude":"-89.30740","Snowdepth":"9.000","Units":"in","Rept_Date":"2019-12-26 12"},"coordinates":[1814,5122]},{"type":"Point","properties":{"Station_ID":"OTTM5","Station_Nam":"OTTERTAIL,MN","Latitude":"46.41670","Longitude":"-95.56670","Snowdepth":"9.000","Units":"in","Rept_Date":"2019-12-26 12"},"coordinates":[382,5736]},{"type":"Point","properties":{"Station_ID":"MNMQO9OI","Station_Nam":"OTTERTAIL 1.5 WNW","Latitude":"46.43378","Longitude":"-95.58416","Snowdepth":"9.000","Units":"in","Rept_Date":"2019-12-26 12"},"coordinates":[378,5749]},{"type":"Point","properties":{"Station_ID":"MN1867TA","Station_Nam":"LAKE FREMONT 0.9 NW","Latitude":"45.45049","Longitude":"-93.60337","Snowdepth":"9.000","Units":"in","Rept_Date":"2019-12-26 13"},"coordinates":[831,4960]},{"type":"Point","properties":{"Station_ID":"MLLW3","Station_Nam":"MERRILL 8W","Latitude":"45.17810","Longitude":"-89.84810","Snowdepth":"9.000","Units":"in","Rept_Date":"2019-12-26 12"},"coordinates":[1690,4741]},{"type":"Point","properties":{"Station_ID":"MIEM4","Station_Nam":"MICHIGAMME 3WNW","Latitude":"46.54530","Longitude":"-88.18000","Snowdepth":"9.000","Units":"in","Rept_Date":"2019-12-26 13"},"coordinates":[2072,5839]},{"type":"Point","properties":{"Station_ID":"LADW3","Station_Nam":"LADYSMITH WTP","Latitude":"45.44290","Longitude":"-91.08970","Snowdepth":"9.000","Units":"in","Rept_Date":"2019-12-26 13"},"coordinates":[1406,4954]},{"type":"Point","properties":{"Station_ID":"INL","Station_Nam":"FALLS INTERNATIONAL ARPT","Latitude":"48.56640","Longitude":"-93.40310","Snowdepth":"9.000","Units":"in","Rept_Date":"2019-12-27 00"},"coordinates":[877,7462]},{"type":"Point","properties":{"Station_ID":"ESAM4","Station_Nam":"ESCANABA","Latitude":"45.74380","Longitude":"-87.04060","Snowdepth":"9.000","Units":"in","Rept_Date":"2019-12-26 12"},"coordinates":[2332,5195]},{"type":"Point","properties":{"Station_ID":"CBVM1","Station_Nam":"CARRABASSETT VALLEY","Latitude":"45.08040","Longitude":"-70.30310","Snowdepth":"9.000","Units":"in","Rept_Date":"2019-12-26 12"},"coordinates":[6160,4663]},{"type":"Point","properties":{"Station_ID":"CBLW3","Station_Nam":"CUMBERLAND","Latitude":"45.53310","Longitude":"-92.02260","Snowdepth":"9.000","Units":"in","Rept_Date":"2019-12-26 13"},"coordinates":[1193,5026]},{"type":"Point","properties":{"Station_ID":"AUW","Station_Nam":"WAUSAU MUNICIPAL AIRPORT","Latitude":"44.92580","Longitude":"-89.62560","Snowdepth":"9.000","Units":"in","Rept_Date":"2019-12-26 12"},"coordinates":[1741,4539]},{"type":"Point","properties":{"Station_ID":"ANTW3","Station_Nam":"ANTIGO,WI","Latitude":"45.13330","Longitude":"-89.15000","Snowdepth":"9.000","Units":"in","Rept_Date":"2019-12-26 14"},"coordinates":[1850,4705]},{"type":"Point","properties":{"Station_ID":"ANJM4","Station_Nam":"SNOW PAID OBSERVER FOR KANJ","Latitude":"46.48670","Longitude":"-84.40260","Snowdepth":"9.000","Units":"in","Rept_Date":"2019-12-26 18"},"coordinates":[2936,5792]},{"type":"Point","properties":{"Station_ID":"ANJ","Station_Nam":"SAULT STE MARIE","Latitude":"46.46670","Longitude":"-84.36670","Snowdepth":"9.000","Units":"in","Rept_Date":"2019-12-27 00"},"coordinates":[2944,5776]},{"type":"Point","properties":{"Station_ID":"QWG","Station_Nam":"QWG","Latitude":"48.48890","Longitude":"-73.45940","Snowdepth":"8.976","Units":"in","Rept_Date":"2019-12-26 12"},"coordinates":[5439,7399]},{"type":"Point","properties":{"Station_ID":"WI-MT-4","Station_Nam":"WAUSAU 1.7 ENE, WI","Latitude":"44.96943","Longitude":"-89.61090","Snowdepth":"8.500","Units":"in","Rept_Date":"2019-12-26 13"},"coordinates":[1745,4574]},{"type":"Point","properties":{"Station_ID":"WI-EC-23","Station_Nam":"EAU CLAIRE 3.7 S, WI","Latitude":"44.76858","Longitude":"-91.49898","Snowdepth":"8.500","Units":"in","Rept_Date":"2019-12-26 13"},"coordinates":[1313,4412]},{"type":"Point","properties":{"Station_ID":"MN-CK-18","Station_Nam":"GRAND MARAIS 4.4 WSW, MN","Latitude":"47.74462","Longitude":"-90.43796","Snowdepth":"8.500","Units":"in","Rept_Date":"2019-12-26 13"},"coordinates":[1555,6802]},{"type":"Point","properties":{"Station_ID":"MN-IT-7","Station_Nam":"GRAND RAPIDS 6.2 SSW, MN","Latitude":"47.13687","Longitude":"-93.56660","Snowdepth":"8.300","Units":"in","Rept_Date":"2019-12-26 12"},"coordinates":[840,6314]},{"type":"Point","properties":{"Station_ID":"WI-MT-14","Station_Nam":"MOSINEE 2.7 WSW, WI","Latitude":"44.77240","Longitude":"-89.73441","Snowdepth":"8.000","Units":"in","Rept_Date":"2019-12-26 14"},"coordinates":[1716,4415]},{"type":"Point","properties":{"Station_ID":"WI-CH-7","Station_Nam":"CHIPPEWA FALLS 1.2 E, WI","Latitude":"44.92920","Longitude":"-91.36730","Snowdepth":"8.000","Units":"in","Rept_Date":"2019-12-26 13"},"coordinates":[1343,4541]},{"type":"Point","properties":{"Station_ID":"WAAM5","Station_Nam":"WARREN WSD","Latitude":"48.19530","Longitude":"-96.77590","Snowdepth":"8.000","Units":"in","Rept_Date":"2019-12-26 14"},"coordinates":[106,7164]},{"type":"Point","properties":{"Station_ID":"THRM5","Station_Nam":"THORHULT,MN","Latitude":"48.21670","Longitude":"-95.25000","Snowdepth":"8.000","Units":"in","Rept_Date":"2019-12-26 23"},"coordinates":[455,7181]},{"type":"Point","properties":{"Station_ID":"SULW3","Station_Nam":"SUMMIT LAKE","Latitude":"45.37880","Longitude":"-89.19410","Snowdepth":"8.000","Units":"in","Rept_Date":"2019-12-26 11"},"coordinates":[1840,4902]},{"type":"Point","properties":{"Station_ID":"STRW3","Station_Nam":"STRATFORD 1NW","Latitude":"44.81750","Longitude":"-90.08990","Snowdepth":"8.000","Units":"in","Rept_Date":"2019-12-26 13"},"coordinates":[1635,4452]},{"type":"Point","properties":{"Station_ID":"RHRW3","Station_Nam":"RHINELANDER WJFW TV-12","Latitude":"45.62220","Longitude":"-89.41000","Snowdepth":"8.000","Units":"in","Rept_Date":"2019-12-27 04"},"coordinates":[1790,5098]},{"type":"Point","properties":{"Station_ID":"RHI","Station_Nam":"RHINELANDER-ONEIDA COUNTY AIRPORT","Latitude":"45.63080","Longitude":"-89.46530","Snowdepth":"8.000","Units":"in","Rept_Date":"2019-12-26 12"},"coordinates":[1778,5105]},{"type":"Point","properties":{"Station_ID":"NY-OD-2","Station_Nam":"POINT ROCK 0.6 SE, NY","Latitude":"43.37335","Longitude":"-75.53840","Snowdepth":"8.000","Units":"in","Rept_Date":"2019-12-26 13"},"coordinates":[4963,3292]},{"type":"Point","properties":{"Station_ID":"MRQM4","Station_Nam":"MARQUETTE WFP","Latitude":"46.54580","Longitude":"-87.37950","Snowdepth":"8.000","Units":"in","Rept_Date":"2019-12-26 13"},"coordinates":[2255,5839]},{"type":"Point","properties":{"Station_ID":"MNLGGILP","Station_Nam":"LONG PRAIRIE 1.1 WSW","Latitude":"45.96913","Longitude":"-94.88686","Snowdepth":"8.000","Units":"in","Rept_Date":"2019-12-26 12"},"coordinates":[538,5376]},{"type":"Point","properties":{"Station_ID":"MN7TCHCK","Station_Nam":"COOK 0.2 ENE","Latitude":"47.85225","Longitude":"-92.68378","Snowdepth":"8.000","Units":"in","Rept_Date":"2019-12-26 12"},"coordinates":[1042,6888]},{"type":"Point","properties":{"Station_ID":"MN-SR-29","Station_Nam":"ALBANY 3.8 S, MN","Latitude":"45.57441","Longitude":"-94.55543","Snowdepth":"8.000","Units":"in","Rept_Date":"2019-12-26 13"},"coordinates":[614,5059]},{"type":"Point","properties":{"Station_ID":"MN-PK-15","Station_Nam":"MENTOR 2.5 SSW, MN","Latitude":"47.66625","Longitude":"-96.17328","Snowdepth":"8.000","Units":"in","Rept_Date":"2019-12-26 13"},"coordinates":[244,6739]},{"type":"Point","properties":{"Station_ID":"MN-MR-13","Station_Nam":"LITTLE FALLS 8.0 NE, MN","Latitude":"46.06785","Longitude":"-94.24789","Snowdepth":"8.000","Units":"in","Rept_Date":"2019-12-26 13"},"coordinates":[684,5456]},{"type":"Point","properties":{"Station_ID":"MN-IT-1","Station_Nam":"GRAND RAPIDS 2.0 E, MN","Latitude":"47.22266","Longitude":"-93.49600","Snowdepth":"8.000","Units":"in","Rept_Date":"2019-12-26 12"},"coordinates":[856,6383]},{"type":"Point","properties":{"Station_ID":"MN-CY-1","Station_Nam":"MOORHEAD 2.0 N, MN","Latitude":"46.88766","Longitude":"-96.74800","Snowdepth":"8.000","Units":"in","Rept_Date":"2019-12-26 13"},"coordinates":[112,6114]},{"type":"Point","properties":{"Station_ID":"MI-DL-4","Station_Nam":"GLADSTONE 2.1 SW, MI","Latitude":"45.83218","Longitude":"-87.05727","Snowdepth":"8.000","Units":"in","Rept_Date":"2019-12-26 12"},"coordinates":[2329,5266]},{"type":"Point","properties":{"Station_ID":"MI-DL-1","Station_Nam":"GARDEN CORNERS 0.8 NW, MI","Latitude":"45.89815","Longitude":"-86.54850","Snowdepth":"8.000","Units":"in","Rept_Date":"2019-12-26 13"},"coordinates":[2445,5319]},{"type":"Point","properties":{"Station_ID":"MEDW3","Station_Nam":"MEDFORD","Latitude":"45.13080","Longitude":"-90.34390","Snowdepth":"8.000","Units":"in","Rept_Date":"2019-12-26 14"},"coordinates":[1577,4703]},{"type":"Point","properties":{"Station_ID":"MCLN8","Station_Nam":"MC LEOD,ND","Latitude":"46.40250","Longitude":"-97.23810","Snowdepth":"8.000","Units":"in","Rept_Date":"2019-12-26 14"},"coordinates":[0,5724]},{"type":"Point","properties":{"Station_ID":"LNGM5","Station_Nam":"LONG PRAIRIE","Latitude":"45.96460","Longitude":"-94.88920","Snowdepth":"8.000","Units":"in","Rept_Date":"2019-12-26 12"},"coordinates":[537,5373]},{"type":"Point","properties":{"Station_ID":"LBRM5","Station_Nam":"LAKE BRONSON DAM","Latitude":"48.72410","Longitude":"-96.62180","Snowdepth":"8.000","Units":"in","Rept_Date":"2019-12-26 14"},"coordinates":[141,7588]},{"type":"Point","properties":{"Station_ID":"ISEM5","Station_Nam":"ISLE 12N","Latitude":"46.31970","Longitude":"-93.50140","Snowdepth":"8.000","Units":"in","Rept_Date":"2019-12-26 14"},"coordinates":[855,5658]},{"type":"Point","properties":{"Station_ID":"GDCM4","Station_Nam":"GARDEN CORNERS","Latitude":"45.89830","Longitude":"-86.54850","Snowdepth":"8.000","Units":"in","Rept_Date":"2019-12-26 13"},"coordinates":[2445,5319]},{"type":"Point","properties":{"Station_ID":"FLDM5","Station_Nam":"FLOODWOOD,MN","Latitude":"47.00000","Longitude":"-92.91670","Snowdepth":"8.000","Units":"in","Rept_Date":"2019-12-26 14"},"coordinates":[988,6204]},{"type":"Point","properties":{"Station_ID":"EPTW3","Station_Nam":"EAU PLEINE TENDER","Latitude":"44.77220","Longitude":"-89.76720","Snowdepth":"8.000","Units":"in","Rept_Date":"2019-12-26 13"},"coordinates":[1709,4415]},{"type":"Point","properties":{"Station_ID":"COKM5","Station_Nam":"COOK","Latitude":"47.85060","Longitude":"-92.69250","Snowdepth":"8.000","Units":"in","Rept_Date":"2019-12-26 12"},"coordinates":[1040,6887]},{"type":"Point","properties":{"Station_ID":"CMBM5","Station_Nam":"CAMBRIDGE","Latitude":"45.55640","Longitude":"-93.23480","Snowdepth":"8.000","Units":"in","Rept_Date":"2019-12-26 14"},"coordinates":[916,5045]},{"type":"Point","properties":{"Station_ID":"BOWW3","Station_Nam":"STOCKBRIDGE-MUNSEE RESERVATION","Latitude":"44.87000","Longitude":"-88.90440","Snowdepth":"8.000","Units":"in","Rept_Date":"2019-12-26 14"},"coordinates":[1906,4494]},{"type":"Point","properties":{"Station_ID":"NY-HR-18","Station_Nam":"SALISBURY CENTER 1.8 NW, NY","Latitude":"43.16260","Longitude":"-74.80880","Snowdepth":"7.500","Units":"in","Rept_Date":"2019-12-26 12"},"coordinates":[5130,3123]},{"type":"Point","properties":{"Station_ID":"MN-SH-985","Station_Nam":"PRINCETON 3.3 WSW, MN","Latitude":"45.55211","Longitude":"-93.64481","Snowdepth":"7.500","Units":"in","Rept_Date":"2019-12-26 10"},"coordinates":[822,5041]},{"type":"Point","properties":{"Station_ID":"ME-AR-18","Station_Nam":"NEW SWEDEN 4.9 NNW, ME","Latitude":"47.01080","Longitude":"-68.14390","Snowdepth":"7.500","Units":"in","Rept_Date":"2019-12-26 12"},"coordinates":[6654,6213]},{"type":"Point","properties":{"Station_ID":"QGT","Station_Nam":"QGT","Latitude":"49.64720","Longitude":"-67.62640","Snowdepth":"7.008","Units":"in","Rept_Date":"2019-12-26 12"},"coordinates":[6773,8329]},{"type":"Point","properties":{"Station_ID":"WUNW3","Station_Nam":"WAUSAU-NORTHEAST","Latitude":"44.97310","Longitude":"-89.61690","Snowdepth":"7.000","Units":"in","Rept_Date":"2019-12-26 13"},"coordinates":[1743,4577]},{"type":"Point","properties":{"Station_ID":"WPFN6","Station_Nam":"MARIPOSA 1NNW SNOW","Latitude":"42.73330","Longitude":"-75.81670","Snowdepth":"7.000","Units":"in","Rept_Date":"2019-12-26 14"},"coordinates":[4899,2778]},{"type":"Point","properties":{"Station_ID":"WLDM5","Station_Nam":"WILD RIVER STATE PARK","Latitude":"45.52310","Longitude":"-92.74890","Snowdepth":"7.000","Units":"in","Rept_Date":"2019-12-26 14"},"coordinates":[1027,5018]},{"type":"Point","properties":{"Station_ID":"WI-DN-15","Station_Nam":"MENOMONIE 0.9 NW, WI","Latitude":"44.89832","Longitude":"-91.92398","Snowdepth":"7.000","Units":"in","Rept_Date":"2019-12-26 13"},"coordinates":[1216,4517]},{"type":"Point","properties":{"Station_ID":"SIBI4","Station_Nam":"SIBLEY","Latitude":"43.40470","Longitude":"-95.74830","Snowdepth":"7.000","Units":"in","Rept_Date":"2019-12-26 13"},"coordinates":[341,3317]},{"type":"Point","properties":{"Station_ID":"SBNM5","Station_Nam":"SABIN","Latitude":"46.77690","Longitude":"-96.65610","Snowdepth":"7.000","Units":"in","Rept_Date":"2019-12-26 16"},"coordinates":[133,6025]},{"type":"Point","properties":{"Station_ID":"RRLW3","Station_Nam":"MERRILL,WI","Latitude":"45.17860","Longitude":"-89.66170","Snowdepth":"7.000","Units":"in","Rept_Date":"2019-12-26 14"},"coordinates":[1733,4742]},{"type":"Point","properties":{"Station_ID":"RGNM1","Station_Nam":"RANGELEY 2NW","Latitude":"44.98940","Longitude":"-70.67220","Snowdepth":"7.000","Units":"in","Rept_Date":"2019-12-26 11"},"coordinates":[6076,4590]},{"type":"Point","properties":{"Station_ID":"RANM1","Station_Nam":"RANGELEY,ME","Latitude":"44.96670","Longitude":"-70.65000","Snowdepth":"7.000","Units":"in","Rept_Date":"2019-12-26 11"},"coordinates":[6081,4571]},{"type":"Point","properties":{"Station_ID":"OWEW3","Station_Nam":"OWEN 1E","Latitude":"44.94610","Longitude":"-90.55170","Snowdepth":"7.000","Units":"in","Rept_Date":"2019-12-26 13"},"coordinates":[1529,4555]},{"type":"Point","properties":{"Station_ID":"OCON6","Station_Nam":"OSCEOLA","Latitude":"43.49910","Longitude":"-75.71210","Snowdepth":"7.000","Units":"in","Rept_Date":"2019-12-26 12"},"coordinates":[4923,3393]},{"type":"Point","properties":{"Station_ID":"MRAM5","Station_Nam":"MORA","Latitude":"45.87760","Longitude":"-93.31470","Snowdepth":"7.000","Units":"in","Rept_Date":"2019-12-26 13"},"coordinates":[897,5303]},{"type":"Point","properties":{"Station_ID":"MRAM4","Station_Nam":"MORAN","Latitude":"45.99030","Longitude":"-84.83610","Snowdepth":"7.000","Units":"in","Rept_Date":"2019-12-26 13"},"coordinates":[2837,5393]},{"type":"Point","properties":{"Station_ID":"MNEY8CTB","Station_Nam":"MIDLAND JUNCTION 2.2 ENE","Latitude":"44.33041","Longitude":"-91.95891","Snowdepth":"7.000","Units":"in","Rept_Date":"2019-12-26 14"},"coordinates":[1208,4061]},{"type":"Point","properties":{"Station_ID":"MN228YHJ","Station_Nam":"RICE 2.8 ESE","Latitude":"45.73609","Longitude":"-94.17230","Snowdepth":"7.000","Units":"in","Rept_Date":"2019-12-26 13"},"coordinates":[701,5189]},{"type":"Point","properties":{"Station_ID":"MN20GPME","Station_Nam":"MILACA 0.7 W","Latitude":"45.75695","Longitude":"-93.66835","Snowdepth":"7.000","Units":"in","Rept_Date":"2019-12-26 13"},"coordinates":[817,5206]},{"type":"Point","properties":{"Station_ID":"MN-SH-10","Station_Nam":"BIG LAKE 5.6 NNE, MN","Latitude":"45.41409","Longitude":"-93.69190","Snowdepth":"7.000","Units":"in","Rept_Date":"2019-12-26 13"},"coordinates":[811,4931]},{"type":"Point","properties":{"Station_ID":"MN-MR-4","Station_Nam":"LITTLE FALLS 1.2 SW, MN","Latitude":"45.96886","Longitude":"-94.37720","Snowdepth":"7.000","Units":"in","Rept_Date":"2019-12-26 13"},"coordinates":[654,5376]},{"type":"Point","properties":{"Station_ID":"MN-CK-6","Station_Nam":"GRAND MARAIS 4.4 W, MN","Latitude":"47.74865","Longitude":"-90.43760","Snowdepth":"7.000","Units":"in","Rept_Date":"2019-12-26 13"},"coordinates":[1555,6805]},{"type":"Point","properties":{"Station_ID":"MLCM5","Station_Nam":"MILACA","Latitude":"45.75320","Longitude":"-93.66170","Snowdepth":"7.000","Units":"in","Rept_Date":"2019-12-26 13"},"coordinates":[818,5203]},{"type":"Point","properties":{"Station_ID":"MI-AT-6","Station_Nam":"MANCELONA 0.5 ESE, MI","Latitude":"44.89981","Longitude":"-85.05100","Snowdepth":"7.000","Units":"in","Rept_Date":"2019-12-26 13"},"coordinates":[2787,4518]},{"type":"Point","properties":{"Station_ID":"LUCW3","Station_Nam":"LUCK","Latitude":"45.57330","Longitude":"-92.48520","Snowdepth":"7.000","Units":"in","Rept_Date":"2019-12-26 21"},"coordinates":[1087,5058]},{"type":"Point","properties":{"Station_ID":"LPLN6","Station_Nam":"LAKE PLACID 2 S","Latitude":"44.30420","Longitude":"-73.98390","Snowdepth":"7.000","Units":"in","Rept_Date":"2019-12-26 13"},"coordinates":[5319,4040]},{"type":"Point","properties":{"Station_ID":"LBKV1","Station_Nam":"LYE BROOK","Latitude":"43.05000","Longitude":"-73.03330","Snowdepth":"7.000","Units":"in","Rept_Date":"2019-12-27 06"},"coordinates":[5536,3033]},{"type":"Point","properties":{"Station_ID":"INDM5","Station_Nam":"INDUS,MN","Latitude":"48.61670","Longitude":"-93.90000","Snowdepth":"7.000","Units":"in","Rept_Date":"2019-12-26 14"},"coordinates":[764,7502]},{"type":"Point","properties":{"Station_ID":"GRBM5","Station_Nam":"GRAND RAPIDS 12N","Latitude":"47.39800","Longitude":"-93.51330","Snowdepth":"7.000","Units":"in","Rept_Date":"2019-12-26 13"},"coordinates":[852,6523]},{"type":"Point","properties":{"Station_ID":"DTVM4","Station_Nam":"DETOUR VILLAGE","Latitude":"45.99830","Longitude":"-83.90130","Snowdepth":"7.000","Units":"in","Rept_Date":"2019-12-26 13"},"coordinates":[3050,5400]},{"type":"Point","properties":{"Station_ID":"BREW3","Station_Nam":"SURING","Latitude":"44.99580","Longitude":"-88.37860","Snowdepth":"7.000","Units":"in","Rept_Date":"2019-12-26 13"},"coordinates":[2026,4595]},{"type":"Point","properties":{"Station_ID":"BENN6","Station_Nam":"BENNETTS BRIDGE","Latitude":"43.53180","Longitude":"-75.95260","Snowdepth":"7.000","Units":"in","Rept_Date":"2019-12-26 12"},"coordinates":[4868,3419]},{"type":"Point","properties":{"Station_ID":"CAN-NL-82","Station_Nam":"GANDER 2.7 NW, CAN","Latitude":"48.97737","Longitude":"-54.63396","Snowdepth":"6.700","Units":"in","Rept_Date":"2019-12-26 10"},"coordinates":[9744,7791]},{"type":"Point","properties":{"Station_ID":"CAN-NL-81","Station_Nam":"GRAND FALLS-WINDSOR 1.2 S, CAN","Latitude":"48.93123","Longitude":"-55.65333","Snowdepth":"6.300","Units":"in","Rept_Date":"2019-12-26 10"},"coordinates":[9511,7754]},{"type":"Point","properties":{"Station_ID":"CAN-NL-14","Station_Nam":"WHITBOURNE 1.4 NE, CA","Latitude":"47.42741","Longitude":"-53.51950","Snowdepth":"6.300","Units":"in","Rept_Date":"2019-12-26 10"},"coordinates":[9999,6547]},{"type":"Point","properties":{"Station_ID":"WPEN6","Station_Nam":"SOUTH OTSELIC 2NNW SNOW","Latitude":"42.66670","Longitude":"-75.80000","Snowdepth":"6.000","Units":"in","Rept_Date":"2019-12-26 14"},"coordinates":[4903,2725]},{"type":"Point","properties":{"Station_ID":"WMRM5","Station_Nam":"WILLMAR 5N","Latitude":"45.19010","Longitude":"-95.05860","Snowdepth":"6.000","Units":"in","Rept_Date":"2019-12-26 12"},"coordinates":[499,4751]},{"type":"Point","properties":{"Station_ID":"WLKM5","Station_Nam":"AH-GWAH-CHING","Latitude":"47.15000","Longitude":"-94.65000","Snowdepth":"6.000","Units":"in","Rept_Date":"2019-12-26 14"},"coordinates":[592,6324]},{"type":"Point","properties":{"Station_ID":"WI-PC-5","Station_Nam":"RIVER FALLS 1.2 SSW, WI","Latitude":"44.84032","Longitude":"-92.63500","Snowdepth":"6.000","Units":"in","Rept_Date":"2019-12-26 13"},"coordinates":[1053,4470]},{"type":"Point","properties":{"Station_ID":"WI-CH-3","Station_Nam":"CORNELL 4.1 W, WI","Latitude":"45.17024","Longitude":"-91.23610","Snowdepth":"6.000","Units":"in","Rept_Date":"2019-12-26 14"},"coordinates":[1373,4735]},{"type":"Point","properties":{"Station_ID":"VT-OL-1","Station_Nam":"WESTFIELD 0.7 WNW, VT","Latitude":"44.89160","Longitude":"-72.44350","Snowdepth":"6.000","Units":"in","Rept_Date":"2019-12-26 13"},"coordinates":[5671,4511]},{"type":"Point","properties":{"Station_ID":"TLLM3","Station_Nam":"TULLY LAKE","Latitude":"42.63940","Longitude":"-72.22440","Snowdepth":"6.000","Units":"in","Rept_Date":"2019-12-26 12"},"coordinates":[5721,2703]},{"type":"Point","properties":{"Station_ID":"SAUW3","Station_Nam":"WAUSAU WSAW TV","Latitude":"44.94630","Longitude":"-89.62220","Snowdepth":"6.000","Units":"in","Rept_Date":"2019-12-27 03"},"coordinates":[1742,4555]},{"type":"Point","properties":{"Station_ID":"RSTW3","Station_Nam":"ROSHOLT","Latitude":"44.62710","Longitude":"-89.30600","Snowdepth":"6.000","Units":"in","Rept_Date":"2019-12-26 14"},"coordinates":[1814,4299]},{"type":"Point","properties":{"Station_ID":"RCEM5","Station_Nam":"RICE","Latitude":"45.75760","Longitude":"-94.20720","Snowdepth":"6.000","Units":"in","Rept_Date":"2019-12-26 13"},"coordinates":[693,5206]},{"type":"Point","properties":{"Station_ID":"MNP0GYWA","Station_Nam":"WALKER 2.0 SSE","Latitude":"47.07505","Longitude":"-94.56757","Snowdepth":"6.000","Units":"in","Rept_Date":"2019-12-26 13"},"coordinates":[611,6264]},{"type":"Point","properties":{"Station_ID":"MNOW3","Station_Nam":"CEDAR FALLS HYDRO PLANT","Latitude":"44.93550","Longitude":"-91.88850","Snowdepth":"6.000","Units":"in","Rept_Date":"2019-12-26 13"},"coordinates":[1224,4546]},{"type":"Point","properties":{"Station_ID":"MNJLCQKL","Station_Nam":"KIMBALL 2.6 NNW","Latitude":"45.34917","Longitude":"-94.31303","Snowdepth":"6.000","Units":"in","Rept_Date":"2019-12-26 12"},"coordinates":[669,4879]},{"type":"Point","properties":{"Station_ID":"MN228RRE","Station_Nam":"RICE 0.8 ENE","Latitude":"45.75724","Longitude":"-94.20638","Snowdepth":"6.000","Units":"in","Rept_Date":"2019-12-26 13"},"coordinates":[694,5206]},{"type":"Point","properties":{"Station_ID":"MN-SR-36","Station_Nam":"SAINT JOSEPH 6.4 N, MN","Latitude":"45.65317","Longitude":"-94.28876","Snowdepth":"6.000","Units":"in","Rept_Date":"2019-12-26 15"},"coordinates":[675,5123]},{"type":"Point","properties":{"Station_ID":"MN-HN-181","Station_Nam":"MINNEAPOLIS 0.4 NE, MN","Latitude":"44.96708","Longitude":"-93.26222","Snowdepth":"6.000","Units":"in","Rept_Date":"2019-12-26 13"},"coordinates":[909,4572]},{"type":"Point","properties":{"Station_ID":"MN-CV-40","Station_Nam":"EXCELSIOR 0.8 S, MN","Latitude":"44.88996","Longitude":"-93.56646","Snowdepth":"6.000","Units":"in","Rept_Date":"2019-12-26 13"},"coordinates":[840,4510]},{"type":"Point","properties":{"Station_ID":"MI-CX-7","Station_Nam":"EAST JORDAN 2.1 NNW, MI","Latitude":"45.18639","Longitude":"-85.14750","Snowdepth":"6.000","Units":"in","Rept_Date":"2019-12-26 13"},"coordinates":[2765,4748]},{"type":"Point","properties":{"Station_ID":"MI-CP-14","Station_Nam":"SAULT STE. MARIE 2.2 E, MI","Latitude":"46.48933","Longitude":"-84.31971","Snowdepth":"6.000","Units":"in","Rept_Date":"2019-12-26 13"},"coordinates":[2955,5794]},{"type":"Point","properties":{"Station_ID":"KIMM5","Station_Nam":"KIMBALL 3N","Latitude":"45.35330","Longitude":"-94.30560","Snowdepth":"6.000","Units":"in","Rept_Date":"2019-12-26 12"},"coordinates":[671,4882]},{"type":"Point","properties":{"Station_ID":"GHMN3","Station_Nam":"PINKHAM NOTCH","Latitude":"44.25800","Longitude":"-71.25250","Snowdepth":"6.000","Units":"in","Rept_Date":"2019-12-26 10"},"coordinates":[5943,4002]},{"type":"Point","properties":{"Station_ID":"FORM5","Station_Nam":"FOREST LAKE 5NE","Latitude":"45.33170","Longitude":"-92.89820","Snowdepth":"6.000","Units":"in","Rept_Date":"2019-12-26 13"},"coordinates":[993,4865]},{"type":"Point","properties":{"Station_ID":"FDRN8","Station_Nam":"FARGO 3S","Latitude":"46.82930","Longitude":"-96.79620","Snowdepth":"6.000","Units":"in","Rept_Date":"2019-12-27 06"},"coordinates":[101,6067]},{"type":"Point","properties":{"Station_ID":"FAR","Station_Nam":"HECTOR INTERNATIONAL ARPT","Latitude":"46.91560","Longitude":"-96.81440","Snowdepth":"6.000","Units":"in","Rept_Date":"2019-12-27 00"},"coordinates":[97,6136]},{"type":"Point","properties":{"Station_ID":"ELKM5","Station_Nam":"ELK RIVER","Latitude":"45.30470","Longitude":"-93.58420","Snowdepth":"6.000","Units":"in","Rept_Date":"2019-12-26 13"},"coordinates":[836,4843]},{"type":"Point","properties":{"Station_ID":"EJNM4","Station_Nam":"EAST JORDAN 2NW","Latitude":"45.18630","Longitude":"-85.14770","Snowdepth":"6.000","Units":"in","Rept_Date":"2019-12-26 13"},"coordinates":[2765,4748]},{"type":"Point","properties":{"Station_ID":"EAU","Station_Nam":"CHIPPEWA VALLEY REGIONAL AIRPORT","Latitude":"44.86650","Longitude":"-91.48790","Snowdepth":"6.000","Units":"in","Rept_Date":"2019-12-27 00"},"coordinates":[1315,4491]},{"type":"Point","properties":{"Station_ID":"DFXM1","Station_Nam":"DOVER-FOXCROFT","Latitude":"45.18720","Longitude":"-69.18350","Snowdepth":"6.000","Units":"in","Rept_Date":"2019-12-26 12"},"coordinates":[6416,4748]},{"type":"Point","properties":{"Station_ID":"BRDM1","Station_Nam":"BRIDGEWATER","Latitude":"46.42870","Longitude":"-67.84370","Snowdepth":"6.000","Units":"in","Rept_Date":"2019-12-26 23"},"coordinates":[6723,5745]},{"type":"Point","properties":{"Station_ID":"BALW3","Station_Nam":"BALDWIN","Latitude":"44.96330","Longitude":"-92.39050","Snowdepth":"6.000","Units":"in","Rept_Date":"2019-12-26 13"},"coordinates":[1109,4569]},{"type":"Point","properties":{"Station_ID":"AVLV1","Station_Nam":"AVERILL","Latitude":"45.00570","Longitude":"-71.69030","Snowdepth":"6.000","Units":"in","Rept_Date":"2019-12-26 13"},"coordinates":[5843,4603]},{"type":"Point","properties":{"Station_ID":"NY-ER-77","Station_Nam":"COLDEN 2.4 ENE, NY","Latitude":"42.65088","Longitude":"-78.61060","Snowdepth":"5.500","Units":"in","Rept_Date":"2019-12-26 13"},"coordinates":[4260,2712]},{"type":"Point","properties":{"Station_ID":"NH-HL-48","Station_Nam":"GREENVILLE 1.1 ENE, NH","Latitude":"42.77674","Longitude":"-71.77990","Snowdepth":"5.500","Units":"in","Rept_Date":"2019-12-26 13"},"coordinates":[5823,2813]},{"type":"Point","properties":{"Station_ID":"MN-MK-12","Station_Nam":"WATKINS 3.2 WSW, MN","Latitude":"45.30107","Longitude":"-94.47460","Snowdepth":"5.500","Units":"in","Rept_Date":"2019-12-26 15"},"coordinates":[632,4840]},{"type":"Point","properties":{"Station_ID":"WRUM5","Station_Nam":"WARROAD 4W","Latitude":"48.89600","Longitude":"-95.40700","Snowdepth":"5.000","Units":"in","Rept_Date":"2019-12-27 04"},"coordinates":[419,7726]},{"type":"Point","properties":{"Station_ID":"WPHN6","Station_Nam":"GEORGETOWN SNOW","Latitude":"42.76670","Longitude":"-75.70000","Snowdepth":"5.000","Units":"in","Rept_Date":"2019-12-26 14"},"coordinates":[4926,2805]},{"type":"Point","properties":{"Station_ID":"WPGN6","Station_Nam":"GEORGETOWN 2SE SNOW","Latitude":"42.75000","Longitude":"-75.70000","Snowdepth":"5.000","Units":"in","Rept_Date":"2019-12-26 14"},"coordinates":[4926,2792]},{"type":"Point","properties":{"Station_ID":"WPDN6","Station_Nam":"CINCINNATUS 2NW SNOW","Latitude":"42.55000","Longitude":"-75.93330","Snowdepth":"5.000","Units":"in","Rept_Date":"2019-12-26 14"},"coordinates":[4873,2631]},{"type":"Point","properties":{"Station_ID":"WI-PT-8","Station_Nam":"RUDOLPH 2.1 NNE, WI","Latitude":"44.52553","Longitude":"-89.78677","Snowdepth":"5.000","Units":"in","Rept_Date":"2019-12-26 11"},"coordinates":[1704,4217]},{"type":"Point","properties":{"Station_ID":"WDOM5","Station_Nam":"WINDOM","Latitude":"43.87700","Longitude":"-95.11590","Snowdepth":"5.000","Units":"in","Rept_Date":"2019-12-26 14"},"coordinates":[485,3697]},{"type":"Point","properties":{"Station_ID":"WASW3","Station_Nam":"WASHINGTON IS","Latitude":"45.35800","Longitude":"-86.89110","Snowdepth":"5.000","Units":"in","Rept_Date":"2019-12-26 13"},"coordinates":[2367,4886]},{"type":"Point","properties":{"Station_ID":"WABM5","Station_Nam":"WABASHA","Latitude":"44.38500","Longitude":"-92.04860","Snowdepth":"5.000","Units":"in","Rept_Date":"2019-12-26 13"},"coordinates":[1187,4104]},{"type":"Point","properties":{"Station_ID":"VT-WH-29","Station_Nam":"BRATTLEBORO 0.7 S, VT","Latitude":"42.84030","Longitude":"-72.55580","Snowdepth":"5.000","Units":"in","Rept_Date":"2019-12-26 12"},"coordinates":[5645,2864]},{"type":"Point","properties":{"Station_ID":"UMNM5","Station_Nam":"UNIVERSITY OF MN ST. PAUL","Latitude":"44.99020","Longitude":"-93.17990","Snowdepth":"5.000","Units":"in","Rept_Date":"2019-12-26 14"},"coordinates":[928,4590]},{"type":"Point","properties":{"Station_ID":"TETM5","Station_Nam":"TETTEGOUCHE STATE PARK","Latitude":"47.33900","Longitude":"-91.19590","Snowdepth":"5.000","Units":"in","Rept_Date":"2019-12-26 14"},"coordinates":[1382,6476]},{"type":"Point","properties":{"Station_ID":"SWHP1","Station_Nam":"STILLWATER DAM 2NE SNOW S SLOPE","Latitude":"41.72940","Longitude":"-75.46750","Snowdepth":"5.000","Units":"in","Rept_Date":"2019-12-26 13"},"coordinates":[4979,1972]},{"type":"Point","properties":{"Station_ID":"SWGP1","Station_Nam":"STILLWATER DAM 2NE SNOW N SLOPE","Latitude":"41.71720","Longitude":"-75.46470","Snowdepth":"5.000","Units":"in","Rept_Date":"2019-12-26 13"},"coordinates":[4980,1963]},{"type":"Point","properties":{"Station_ID":"SCSM5","Station_Nam":"ST CLOUD STATE","Latitude":"45.55100","Longitude":"-94.14950","Snowdepth":"5.000","Units":"in","Rept_Date":"2019-12-26 12"},"coordinates":[707,5041]},{"type":"Point","properties":{"Station_ID":"ROWM3","Station_Nam":"ROWE 3NE","Latitude":"42.73500","Longitude":"-72.86920","Snowdepth":"5.000","Units":"in","Rept_Date":"2019-12-26 12"},"coordinates":[5574,2780]},{"type":"Point","properties":{"Station_ID":"RFDM5","Station_Nam":"ROCKFORD","Latitude":"45.08960","Longitude":"-93.73990","Snowdepth":"5.000","Units":"in","Rept_Date":"2019-12-26 13"},"coordinates":[800,4670]},{"type":"Point","properties":{"Station_ID":"PEKN6","Station_Nam":"PECK LAKE","Latitude":"43.11500","Longitude":"-74.42360","Snowdepth":"5.000","Units":"in","Rept_Date":"2019-12-26 12"},"coordinates":[5218,3085]},{"type":"Point","properties":{"Station_ID":"NH-CS-4","Station_Nam":"PITTSBURG 6.1 NE, NH","Latitude":"45.11060","Longitude":"-71.29760","Snowdepth":"5.000","Units":"in","Rept_Date":"2019-12-26 12"},"coordinates":[5933,4687]},{"type":"Point","properties":{"Station_ID":"MTQM4","Station_Nam":"MANISTIQUE WWTP","Latitude":"45.95120","Longitude":"-86.25130","Snowdepth":"5.000","Units":"in","Rept_Date":"2019-12-26 12"},"coordinates":[2513,5362]},{"type":"Point","properties":{"Station_ID":"MOOM5","Station_Nam":"MOOSE LAKE,MN","Latitude":"46.45000","Longitude":"-92.75780","Snowdepth":"5.000","Units":"in","Rept_Date":"2019-12-27 06"},"coordinates":[1025,5762]},{"type":"Point","properties":{"Station_ID":"MNMC0BBE","Station_Nam":"BRECKENRIDGE 3.1 E","Latitude":"46.25468","Longitude":"-96.52093","Snowdepth":"5.000","Units":"in","Rept_Date":"2019-12-26 11"},"coordinates":[164,5606]},{"type":"Point","properties":{"Station_ID":"MNIMTS5D","Station_Nam":"ROCKFORD 0.2 SW","Latitude":"45.07964","Longitude":"-93.74464","Snowdepth":"5.000","Units":"in","Rept_Date":"2019-12-26 13"},"coordinates":[799,4662]},{"type":"Point","properties":{"Station_ID":"MNHZK4CP","Station_Nam":"WATERTOWN 0.8 NW","Latitude":"44.97073","Longitude":"-93.85906","Snowdepth":"5.000","Units":"in","Rept_Date":"2019-12-26 13"},"coordinates":[773,4575]},{"type":"Point","properties":{"Station_ID":"MNFF4VWA","Station_Nam":"WABASHA 0.8 SSW","Latitude":"44.37265","Longitude":"-92.04459","Snowdepth":"5.000","Units":"in","Rept_Date":"2019-12-26 13"},"coordinates":[1188,4095]},{"type":"Point","properties":{"Station_ID":"MNCR4NWM","Station_Nam":"WINDOM 1.3 NNE","Latitude":"43.87817","Longitude":"-95.12003","Snowdepth":"5.000","Units":"in","Rept_Date":"2019-12-26 14"},"coordinates":[485,3698]},{"type":"Point","properties":{"Station_ID":"MN0GWSNW","Station_Nam":"LAKE ELMO 2.9 SE","Latitude":"44.97220","Longitude":"-92.83065","Snowdepth":"5.000","Units":"in","Rept_Date":"2019-12-26 13"},"coordinates":[1008,4576]},{"type":"Point","properties":{"Station_ID":"MN-WR-25","Station_Nam":"SAINT MICHAEL 2.0 ENE, MN","Latitude":"45.20820","Longitude":"-93.65280","Snowdepth":"5.000","Units":"in","Rept_Date":"2019-12-26 12"},"coordinates":[820,4765]},{"type":"Point","properties":{"Station_ID":"MN-RM-54","Station_Nam":"SAINT PAUL 5.1 SW, MN","Latitude":"44.90390","Longitude":"-93.18820","Snowdepth":"5.000","Units":"in","Rept_Date":"2019-12-26 13"},"coordinates":[926,4521]},{"type":"Point","properties":{"Station_ID":"MN-CV-8","Station_Nam":"WATERTOWN 0.5 NNW, MN","Latitude":"44.96631","Longitude":"-93.84890","Snowdepth":"5.000","Units":"in","Rept_Date":"2019-12-26 11"},"coordinates":[775,4571]},{"type":"Point","properties":{"Station_ID":"MI-OT-16","Station_Nam":"GAYLORD 2.2 SSE, MI","Latitude":"44.99441","Longitude":"-84.65820","Snowdepth":"5.000","Units":"in","Rept_Date":"2019-12-26 12"},"coordinates":[2877,4594]},{"type":"Point","properties":{"Station_ID":"ME-PN-45","Station_Nam":"MILLINOCKET 2.7 ESE, ME","Latitude":"45.65002","Longitude":"-68.64472","Snowdepth":"5.000","Units":"in","Rept_Date":"2019-12-26 13"},"coordinates":[6540,5120]},{"type":"Point","properties":{"Station_ID":"ME-FR-4","Station_Nam":"NEW SHARON 2.0 NW, ME","Latitude":"44.66582","Longitude":"-70.02720","Snowdepth":"5.000","Units":"in","Rept_Date":"2019-12-26 12"},"coordinates":[6224,4330]},{"type":"Point","properties":{"Station_ID":"ME-AR-15","Station_Nam":"PRESQUE ISLE 1.3 WSW, ME","Latitude":"46.67960","Longitude":"-68.01270","Snowdepth":"5.000","Units":"in","Rept_Date":"2019-12-26 12"},"coordinates":[6684,5947]},{"type":"Point","properties":{"Station_ID":"LGRN8","Station_Nam":"LIDGERWOOD,ND","Latitude":"46.06670","Longitude":"-97.16670","Snowdepth":"5.000","Units":"in","Rept_Date":"2019-12-26 13"},"coordinates":[16,5455]},{"type":"Point","properties":{"Station_ID":"JIMW3","Station_Nam":"JIM FALLS 3NW","Latitude":"45.08270","Longitude":"-91.33130","Snowdepth":"5.000","Units":"in","Rept_Date":"2019-12-26 12"},"coordinates":[1351,4665]},{"type":"Point","properties":{"Station_ID":"HUBN3","Station_Nam":"HUBBARD BROOK","Latitude":"43.93330","Longitude":"-71.71670","Snowdepth":"5.000","Units":"in","Rept_Date":"2019-12-27 06"},"coordinates":[5837,3742]},{"type":"Point","properties":{"Station_ID":"ETTW3","Station_Nam":"ETTRICK 4WNW","Latitude":"44.19000","Longitude":"-91.34240","Snowdepth":"5.000","Units":"in","Rept_Date":"2019-12-26 13"},"coordinates":[1349,3948]},{"type":"Point","properties":{"Station_ID":"CORV1","Station_Nam":"CORINTH","Latitude":"44.00690","Longitude":"-72.31940","Snowdepth":"5.000","Units":"in","Rept_Date":"2019-12-26 12"},"coordinates":[5699,3801]},{"type":"Point","properties":{"Station_ID":"CHPW3","Station_Nam":"CHIPPEWA FALLS","Latitude":"44.92770","Longitude":"-91.40810","Snowdepth":"5.000","Units":"in","Rept_Date":"2019-12-26 14"},"coordinates":[1333,4540]},{"type":"Point","properties":{"Station_ID":"CAN-MB-32","Station_Nam":"PINAWA 1.0 SW, CA","Latitude":"50.14747","Longitude":"-95.89020","Snowdepth":"5.000","Units":"in","Rept_Date":"2019-12-26 13"},"coordinates":[308,8731]},{"type":"Point","properties":{"Station_ID":"BMRW3","Station_Nam":"BLOOMER","Latitude":"45.09070","Longitude":"-91.48640","Snowdepth":"5.000","Units":"in","Rept_Date":"2019-12-26 14"},"coordinates":[1316,4671]},{"type":"Point","properties":{"Station_ID":"BKEM5","Station_Nam":"BRECKENRIDGE 4NE","Latitude":"46.30470","Longitude":"-96.52170","Snowdepth":"5.000","Units":"in","Rept_Date":"2019-12-26 11"},"coordinates":[164,5646]},{"type":"Point","properties":{"Station_ID":"NY-CR-5","Station_Nam":"MARATHON 1.0 NW, NY","Latitude":"42.45161","Longitude":"-76.04370","Snowdepth":"4.800","Units":"in","Rept_Date":"2019-12-26 12"},"coordinates":[4847,2552]},{"type":"Point","properties":{"Station_ID":"CAN-MB-298","Station_Nam":"GARDENTON 4.2 W - SRRCD, CAN","Latitude":"49.09480","Longitude":"-96.75446","Snowdepth":"4.800","Units":"in","Rept_Date":"2019-12-26 14"},"coordinates":[111,7886]},{"type":"Point","properties":{"Station_ID":"VT-WS-10","Station_Nam":"NORTHFIELD 1.5 N, VT","Latitude":"44.16986","Longitude":"-72.65200","Snowdepth":"4.500","Units":"in","Rept_Date":"2019-12-26 12"},"coordinates":[5623,3932]},{"type":"Point","properties":{"Station_ID":"MN-SV-4","Station_Nam":"DONNELLY 2.9 NW, MN","Latitude":"45.71649","Longitude":"-96.06043","Snowdepth":"4.500","Units":"in","Rept_Date":"2019-12-26 14"},"coordinates":[269,5173]},{"type":"Point","properties":{"Station_ID":"MN-SR-24","Station_Nam":"PAYNESVILLE 1.9 SSW, MN","Latitude":"45.35170","Longitude":"-94.73120","Snowdepth":"4.500","Units":"in","Rept_Date":"2019-12-26 13"},"coordinates":[573,4881]},{"type":"Point","properties":{"Station_ID":"MN-GH-28","Station_Nam":"CANNON FALLS 0.5 SE, MN","Latitude":"44.50866","Longitude":"-92.89526","Snowdepth":"4.500","Units":"in","Rept_Date":"2019-12-26 14"},"coordinates":[993,4204]},{"type":"Point","properties":{"Station_ID":"CAN-NS-74","Station_Nam":"BADDECK FORKS 2.5 E, CAN","Latitude":"46.18550","Longitude":"-60.73426","Snowdepth":"4.500","Units":"in","Rept_Date":"2019-12-26 12"},"coordinates":[8349,5550]},{"type":"Point","properties":{"Station_ID":"CAN-NS-39","Station_Nam":"ST. ANNS 2.8 NW, CA","Latitude":"46.25082","Longitude":"-60.64340","Snowdepth":"4.500","Units":"in","Rept_Date":"2019-12-26 13"},"coordinates":[8370,5602]},{"type":"Point","properties":{"Station_ID":"CAN-NB-105","Station_Nam":"SISSON BROOK 3.8 E, CAN","Latitude":"46.98305","Longitude":"-67.32532","Snowdepth":"4.500","Units":"in","Rept_Date":"2019-12-26 12"},"coordinates":[6841,6190]},{"type":"Point","properties":{"Station_ID":"WTSM5","Station_Nam":"WATSON 1 NE","Latitude":"45.02270","Longitude":"-95.78960","Snowdepth":"4.000","Units":"in","Rept_Date":"2019-12-26 14"},"coordinates":[331,4616]},{"type":"Point","properties":{"Station_ID":"WPCN6","Station_Nam":"WILLET 2WNW SNOW","Latitude":"42.48330","Longitude":"-75.93330","Snowdepth":"4.000","Units":"in","Rept_Date":"2019-12-26 14"},"coordinates":[4873,2578]},{"type":"Point","properties":{"Station_ID":"WNNM5","Station_Nam":"WINNEBAGO","Latitude":"43.76920","Longitude":"-94.18730","Snowdepth":"4.000","Units":"in","Rept_Date":"2019-12-26 14"},"coordinates":[698,3610]},{"type":"Point","properties":{"Station_ID":"WI-PC-10","Station_Nam":"RIVER FALLS 1.4 S, WI","Latitude":"44.83580","Longitude":"-92.62100","Snowdepth":"4.000","Units":"in","Rept_Date":"2019-12-26 13"},"coordinates":[1056,4466]},{"type":"Point","properties":{"Station_ID":"WHTM5","Station_Nam":"WHEATON,MN","Latitude":"45.80000","Longitude":"-96.48330","Snowdepth":"4.000","Units":"in","Rept_Date":"2019-12-26 14"},"coordinates":[173,5240]},{"type":"Point","properties":{"Station_ID":"WACM5","Station_Nam":"WACONIA","Latitude":"44.85330","Longitude":"-93.80260","Snowdepth":"4.000","Units":"in","Rept_Date":"2019-12-26 13"},"coordinates":[786,4480]},{"type":"Point","properties":{"Station_ID":"VT-WS-7","Station_Nam":"MIDDLESEX 3.1 ENE, VT","Latitude":"44.31799","Longitude":"-72.62650","Snowdepth":"4.000","Units":"in","Rept_Date":"2019-12-26 13"},"coordinates":[5629,4051]},{"type":"Point","properties":{"Station_ID":"VT-WS-30","Station_Nam":"WOODBURY 3.4 NNW, VT","Latitude":"44.48825","Longitude":"-72.43258","Snowdepth":"4.000","Units":"in","Rept_Date":"2019-12-26 12"},"coordinates":[5673,4187]},{"type":"Point","properties":{"Station_ID":"VT-OG-11","Station_Nam":"VERSHIRE 1.5 ESE, VT","Latitude":"43.96138","Longitude":"-72.29777","Snowdepth":"4.000","Units":"in","Rept_Date":"2019-12-26 13"},"coordinates":[5704,3764]},{"type":"Point","properties":{"Station_ID":"VANM1","Station_Nam":"VAN BUREN","Latitude":"47.16600","Longitude":"-67.93900","Snowdepth":"4.000","Units":"in","Rept_Date":"2019-12-26 12"},"coordinates":[6701,6337]},{"type":"Point","properties":{"Station_ID":"UVDV1","Station_Nam":"NERON SITE AT UNION VILLAGE DAM","Latitude":"43.79140","Longitude":"-72.25720","Snowdepth":"4.000","Units":"in","Rept_Date":"2019-12-26 13"},"coordinates":[5714,3628]},{"type":"Point","properties":{"Station_ID":"THLM5","Station_Nam":"THEILMAN 1SSW","Latitude":"44.28130","Longitude":"-92.19430","Snowdepth":"4.000","Units":"in","Rept_Date":"2019-12-26 13"},"coordinates":[1154,4021]},{"type":"Point","properties":{"Station_ID":"SWFP1","Station_Nam":"INDEPENDENT LAKE SNOW","Latitude":"41.83330","Longitude":"-75.43330","Snowdepth":"4.000","Units":"in","Rept_Date":"2019-12-26 13"},"coordinates":[4987,2056]},{"type":"Point","properties":{"Station_ID":"SWEP1","Station_Nam":"PINE SWAMP SNOW","Latitude":"41.81670","Longitude":"-75.50000","Snowdepth":"4.000","Units":"in","Rept_Date":"2019-12-26 13"},"coordinates":[4972,2042]},{"type":"Point","properties":{"Station_ID":"SUTV1","Station_Nam":"SUTTON","Latitude":"44.61220","Longitude":"-72.04810","Snowdepth":"4.000","Units":"in","Rept_Date":"2019-12-26 12"},"coordinates":[5761,4287]},{"type":"Point","properties":{"Station_ID":"STPW3","Station_Nam":"STEVENS POINT","Latitude":"44.51130","Longitude":"-89.58550","Snowdepth":"4.000","Units":"in","Rept_Date":"2019-12-26 13"},"coordinates":[1750,4206]},{"type":"Point","properties":{"Station_ID":"STIM5","Station_Nam":"STILLWATER 2SW","Latitude":"45.04540","Longitude":"-92.85220","Snowdepth":"4.000","Units":"in","Rept_Date":"2019-12-26 14"},"coordinates":[1003,4635]},{"type":"Point","properties":{"Station_ID":"SPCW3","Station_Nam":"SPENCER-WWTP","Latitude":"44.75390","Longitude":"-90.28920","Snowdepth":"4.000","Units":"in","Rept_Date":"2019-12-26 13"},"coordinates":[1589,4401]},{"type":"Point","properties":{"Station_ID":"SHHW3","Station_Nam":"SHAWANO 2SSW","Latitude":"44.76310","Longitude":"-88.61830","Snowdepth":"4.000","Units":"in","Rept_Date":"2019-12-26 14"},"coordinates":[1972,4408]},{"type":"Point","properties":{"Station_ID":"SHHN6","Station_Nam":"SCHOHARIE VILLAGE","Latitude":"42.66500","Longitude":"-74.30360","Snowdepth":"4.000","Units":"in","Rept_Date":"2019-12-26 12"},"coordinates":[5245,2723]},{"type":"Point","properties":{"Station_ID":"ROBW3","Station_Nam":"ROBERTS WWTP","Latitude":"44.97070","Longitude":"-92.56200","Snowdepth":"4.000","Units":"in","Rept_Date":"2019-12-26 13"},"coordinates":[1070,4575]},{"type":"Point","properties":{"Station_ID":"RKWM1","Station_Nam":"MOOSEHEAD LAKE","Latitude":"45.58330","Longitude":"-69.71670","Snowdepth":"4.000","Units":"in","Rept_Date":"2019-12-26 12"},"coordinates":[6295,5067]},{"type":"Point","properties":{"Station_ID":"PELW3","Station_Nam":"PELLA 3SE","Latitude":"44.73580","Longitude":"-88.73780","Snowdepth":"4.000","Units":"in","Rept_Date":"2019-12-26 11"},"coordinates":[1944,4386]},{"type":"Point","properties":{"Station_ID":"PBAN8","Station_Nam":"SITE 1-3MI.N","Latitude":"48.97420","Longitude":"-97.23860","Snowdepth":"4.000","Units":"in","Rept_Date":"2019-12-26 13"},"coordinates":[0,7789]},{"type":"Point","properties":{"Station_ID":"NUMN3","Station_Nam":"NORTHUMBERLAND","Latitude":"44.52830","Longitude":"-71.50440","Snowdepth":"4.000","Units":"in","Rept_Date":"2019-12-26 13"},"coordinates":[5886,4219]},{"type":"Point","properties":{"Station_ID":"NUMM5","Station_Nam":"NEW ULM 3SE","Latitude":"44.29450","Longitude":"-94.40840","Snowdepth":"4.000","Units":"in","Rept_Date":"2019-12-26 11"},"coordinates":[647,4032]},{"type":"Point","properties":{"Station_ID":"NOHV1","Station_Nam":"NORTH HARTLAND LAKE","Latitude":"43.60270","Longitude":"-72.36210","Snowdepth":"4.000","Units":"in","Rept_Date":"2019-12-26 12"},"coordinates":[5690,3476]},{"type":"Point","properties":{"Station_ID":"NELW3","Station_Nam":"NEILLSVILLE 3ESE","Latitude":"44.53780","Longitude":"-90.53500","Snowdepth":"4.000","Units":"in","Rept_Date":"2019-12-26 13"},"coordinates":[1533,4227]},{"type":"Point","properties":{"Station_ID":"NCKN6","Station_Nam":"NORTH CREEK 5 SE","Latitude":"43.66110","Longitude":"-73.89690","Snowdepth":"4.000","Units":"in","Rept_Date":"2019-12-26 12"},"coordinates":[5338,3523]},{"type":"Point","properties":{"Station_ID":"NALN6","Station_Nam":"CATTARAUGUS","Latitude":"42.32450","Longitude":"-78.86700","Snowdepth":"4.000","Units":"in","Rept_Date":"2019-12-26 13"},"coordinates":[4202,2450]},{"type":"Point","properties":{"Station_ID":"MXON6","Station_Nam":"MEXICO","Latitude":"43.43830","Longitude":"-76.26560","Snowdepth":"4.000","Units":"in","Rept_Date":"2019-12-26 12"},"coordinates":[4797,3344]},{"type":"Point","properties":{"Station_ID":"MSP","Station_Nam":"MINNEAPOLIS-ST PAUL INTL AP","Latitude":"44.88310","Longitude":"-93.22890","Snowdepth":"4.000","Units":"in","Rept_Date":"2019-12-27 00"},"coordinates":[917,4504]},{"type":"Point","properties":{"Station_ID":"MRLV1","Station_Nam":"MARLBORO","Latitude":"42.86000","Longitude":"-72.72000","Snowdepth":"4.000","Units":"in","Rept_Date":"2019-12-26 13"},"coordinates":[5608,2880]},{"type":"Point","properties":{"Station_ID":"MRIW3","Station_Nam":"MARINETTE","Latitude":"45.09830","Longitude":"-87.62360","Snowdepth":"4.000","Units":"in","Rept_Date":"2019-12-26 13"},"coordinates":[2199,4677]},{"type":"Point","properties":{"Station_ID":"MPXM5","Station_Nam":"CHANHASSEN WSFO","Latitude":"44.84960","Longitude":"-93.56440","Snowdepth":"4.000","Units":"in","Rept_Date":"2019-12-27 06"},"coordinates":[840,4477]},{"type":"Point","properties":{"Station_ID":"MNKQ8XME","Station_Nam":"MELROSE 0.7 NW","Latitude":"45.68070","Longitude":"-94.82005","Snowdepth":"4.000","Units":"in","Rept_Date":"2019-12-26 13"},"coordinates":[553,5145]},{"type":"Point","properties":{"Station_ID":"MNHMOECS","Station_Nam":"HAZELTINE 1.9 NE","Latitude":"44.85545","Longitude":"-93.57125","Snowdepth":"4.000","Units":"in","Rept_Date":"2019-12-26 12"},"coordinates":[839,4482]},{"type":"Point","properties":{"Station_ID":"MNG0GYSN","Station_Nam":"LONSDALE 1.1 SSW","Latitude":"44.46445","Longitude":"-93.43293","Snowdepth":"4.000","Units":"in","Rept_Date":"2019-12-26 12"},"coordinates":[870,4168]},{"type":"Point","properties":{"Station_ID":"MNF74YNU","Station_Nam":"NEW ULM 3.3 ESE","Latitude":"44.29029","Longitude":"-94.40196","Snowdepth":"4.000","Units":"in","Rept_Date":"2019-12-26 11"},"coordinates":[649,4028]},{"type":"Point","properties":{"Station_ID":"MNE9SLWI","Station_Nam":"LEAVENWORTH 5.4 S","Latitude":"44.14481","Longitude":"-94.78882","Snowdepth":"4.000","Units":"in","Rept_Date":"2019-12-26 13"},"coordinates":[560,3912]},{"type":"Point","properties":{"Station_ID":"MN-WG-33","Station_Nam":"COTTAGE GROVE 1.6 NNW, MN","Latitude":"44.83821","Longitude":"-92.93590","Snowdepth":"4.000","Units":"in","Rept_Date":"2019-12-26 13"},"coordinates":[984,4468]},{"type":"Point","properties":{"Station_ID":"MN-SE-2","Station_Nam":"OWATONNA 0.8 E, MN","Latitude":"44.09170","Longitude":"-93.21380","Snowdepth":"4.000","Units":"in","Rept_Date":"2019-12-26 13"},"coordinates":[921,3869]},{"type":"Point","properties":{"Station_ID":"MN-SC-2","Station_Nam":"PRIOR LAKE 2.0 W, MN","Latitude":"44.71250","Longitude":"-93.46360","Snowdepth":"4.000","Units":"in","Rept_Date":"2019-12-26 13"},"coordinates":[863,4367]},{"type":"Point","properties":{"Station_ID":"MN-RM-2","Station_Nam":"NORTH SAINT PAUL 1.0 NNW, MN","Latitude":"45.02629","Longitude":"-93.00790","Snowdepth":"4.000","Units":"in","Rept_Date":"2019-12-26 12"},"coordinates":[968,4619]},{"type":"Point","properties":{"Station_ID":"MN-RC-1","Station_Nam":"MONTGOMERY 3.2 ENE, MN","Latitude":"44.46400","Longitude":"-93.51980","Snowdepth":"4.000","Units":"in","Rept_Date":"2019-12-26 11"},"coordinates":[851,4168]},{"type":"Point","properties":{"Station_ID":"MN-MW-8","Station_Nam":"AUSTIN 2.4 W, MN","Latitude":"43.67190","Longitude":"-93.02280","Snowdepth":"4.000","Units":"in","Rept_Date":"2019-12-26 13"},"coordinates":[964,3532]},{"type":"Point","properties":{"Station_ID":"MN-HN-78","Station_Nam":"RICHFIELD 1.9 WNW, MN","Latitude":"44.89129","Longitude":"-93.31410","Snowdepth":"4.000","Units":"in","Rept_Date":"2019-12-26 11"},"coordinates":[898,4511]},{"type":"Point","properties":{"Station_ID":"MN-HN-72","Station_Nam":"MAPLE GROVE 2.9 NE, MN","Latitude":"45.13953","Longitude":"-93.42070","Snowdepth":"4.000","Units":"in","Rept_Date":"2019-12-26 14"},"coordinates":[873,4710]},{"type":"Point","properties":{"Station_ID":"MN-DK-70","Station_Nam":"EAGAN 2.0 NNW, MN","Latitude":"44.84322","Longitude":"-93.17899","Snowdepth":"4.000","Units":"in","Rept_Date":"2019-12-26 15"},"coordinates":[928,4472]},{"type":"Point","properties":{"Station_ID":"MLRM5","Station_Nam":"MELROSE","Latitude":"45.67710","Longitude":"-94.80200","Snowdepth":"4.000","Units":"in","Rept_Date":"2019-12-26 13"},"coordinates":[557,5142]},{"type":"Point","properties":{"Station_ID":"MALN6","Station_Nam":"MALONE","Latitude":"44.84180","Longitude":"-74.30600","Snowdepth":"4.000","Units":"in","Rept_Date":"2019-12-26 12"},"coordinates":[5245,4471]},{"type":"Point","properties":{"Station_ID":"MA-FR-13","Station_Nam":"CONWAY 2.9 NW, MA","Latitude":"42.54419","Longitude":"-72.72743","Snowdepth":"4.000","Units":"in","Rept_Date":"2019-12-26 13"},"coordinates":[5606,2626]},{"type":"Point","properties":{"Station_ID":"KMSP","Station_Nam":"MINNEAPOLIS-ST PAUL INTERNATIONAL","Latitude":"44.86666","Longitude":"-93.21666","Snowdepth":"4.000","Units":"in","Rept_Date":"2019-12-27 06"},"coordinates":[920,4491]},{"type":"Point","properties":{"Station_ID":"JEFN3","Station_Nam":"JEFFERSON","Latitude":"44.41690","Longitude":"-71.50080","Snowdepth":"4.000","Units":"in","Rept_Date":"2019-12-26 12"},"coordinates":[5886,4130]},{"type":"Point","properties":{"Station_ID":"INDN6","Station_Nam":"INDIAN LAKE","Latitude":"43.75500","Longitude":"-74.27560","Snowdepth":"4.000","Units":"in","Rept_Date":"2019-12-26 14"},"coordinates":[5252,3599]},{"type":"Point","properties":{"Station_ID":"HGHN6","Station_Nam":"HIGHMARKET","Latitude":"43.57520","Longitude":"-75.52070","Snowdepth":"4.000","Units":"in","Rept_Date":"2019-12-26 10"},"coordinates":[4967,3454]},{"type":"Point","properties":{"Station_ID":"FCHM3","Station_Nam":"FITCHBURG COOP","Latitude":"42.61680","Longitude":"-71.80170","Snowdepth":"4.000","Units":"in","Rept_Date":"2019-12-26 13"},"coordinates":[5818,2685]},{"type":"Point","properties":{"Station_ID":"CLJP1","Station_Nam":"HARRISON VALLEY SNOW","Latitude":"41.96670","Longitude":"-77.63330","Snowdepth":"4.000","Units":"in","Rept_Date":"2019-12-26 14"},"coordinates":[4484,2163]},{"type":"Point","properties":{"Station_ID":"CARM1","Station_Nam":"CARIBOU WFO","Latitude":"46.86810","Longitude":"-68.01250","Snowdepth":"4.000","Units":"in","Rept_Date":"2019-12-27 05"},"coordinates":[6684,6098]},{"type":"Point","properties":{"Station_ID":"CAR","Station_Nam":"CARIBOU, ME","Latitude":"46.86830","Longitude":"-68.01360","Snowdepth":"4.000","Units":"in","Rept_Date":"2019-12-26 12"},"coordinates":[6684,6098]},{"type":"Point","properties":{"Station_ID":"BRAM1","Station_Nam":"BRASSUA DAM","Latitude":"45.66020","Longitude":"-69.81190","Snowdepth":"4.000","Units":"in","Rept_Date":"2019-12-26 12"},"coordinates":[6273,5128]},{"type":"Point","properties":{"Station_ID":"BAUM5","Station_Nam":"BAUDETTE,MN","Latitude":"48.71670","Longitude":"-94.61670","Snowdepth":"4.000","Units":"in","Rept_Date":"2019-12-26 21"},"coordinates":[600,7582]},{"type":"Point","properties":{"Station_ID":"ARTM5","Station_Nam":"ARTICHOKE LAKE 1 E","Latitude":"45.38560","Longitude":"-96.12570","Snowdepth":"4.000","Units":"in","Rept_Date":"2019-12-27 00"},"coordinates":[255,4908]},{"type":"Point","properties":{"Station_ID":"WI-BN-6","Station_Nam":"SUAMICO 4.4 WNW, WI","Latitude":"44.66111","Longitude":"-88.11780","Snowdepth":"3.500","Units":"in","Rept_Date":"2019-12-26 18"},"coordinates":[2086,4326]},{"type":"Point","properties":{"Station_ID":"VT-OL-9","Station_Nam":"GREENSBORO 2.1 NNW, VT","Latitude":"44.60528","Longitude":"-72.30940","Snowdepth":"3.500","Units":"in","Rept_Date":"2019-12-26 12"},"coordinates":[5702,4281]},{"type":"Point","properties":{"Station_ID":"SD-CD-30","Station_Nam":"WATERTOWN 2.3 E, SD","Latitude":"44.91604","Longitude":"-97.11925","Snowdepth":"3.500","Units":"in","Rept_Date":"2019-12-26 14"},"coordinates":[27,4531]},{"type":"Point","properties":{"Station_ID":"NY-OS-15","Station_Nam":"MINETTO 0.1 SE, NY","Latitude":"43.39771","Longitude":"-76.47960","Snowdepth":"3.500","Units":"in","Rept_Date":"2019-12-26 13"},"coordinates":[4748,3312]},{"type":"Point","properties":{"Station_ID":"NY-CT-22","Station_Nam":"FRANKLINVILLE 0.5 NNE, NY","Latitude":"42.34166","Longitude":"-78.45280","Snowdepth":"3.500","Units":"in","Rept_Date":"2019-12-26 12"},"coordinates":[4297,2464]},{"type":"Point","properties":{"Station_ID":"NH-MR-60","Station_Nam":"SOUTH SUTTON 1.3 SE, NH","Latitude":"43.29531","Longitude":"-71.90238","Snowdepth":"3.500","Units":"in","Rept_Date":"2019-12-26 13"},"coordinates":[5795,3230]},{"type":"Point","properties":{"Station_ID":"NH-MR-45","Station_Nam":"NORTHFIELD 2.8 E, NH","Latitude":"43.43945","Longitude":"-71.53730","Snowdepth":"3.500","Units":"in","Rept_Date":"2019-12-26 12"},"coordinates":[5878,3345]},{"type":"Point","properties":{"Station_ID":"NH-MR-4","Station_Nam":"BOW 1.6 NW, NH","Latitude":"43.14994","Longitude":"-71.55650","Snowdepth":"3.500","Units":"in","Rept_Date":"2019-12-26 12"},"coordinates":[5874,3113]},{"type":"Point","properties":{"Station_ID":"MN-GH-4","Station_Nam":"NERSTRAND 4.2 E, MN","Latitude":"44.34247","Longitude":"-92.97920","Snowdepth":"3.500","Units":"in","Rept_Date":"2019-12-26 13"},"coordinates":[974,4070]},{"type":"Point","properties":{"Station_ID":"MN-BW-8","Station_Nam":"COMFREY 6.5 ENE, MN","Latitude":"44.15109","Longitude":"-94.78516","Snowdepth":"3.500","Units":"in","Rept_Date":"2019-12-26 13"},"coordinates":[561,3917]},{"type":"Point","properties":{"Station_ID":"ME-PN-30","Station_Nam":"OLD TOWN 4.1 ESE, ME","Latitude":"44.93543","Longitude":"-68.65840","Snowdepth":"3.500","Units":"in","Rept_Date":"2019-12-26 15"},"coordinates":[6537,4546]},{"type":"Point","properties":{"Station_ID":"CAN-PE-25","Station_Nam":"CALEDONIA 1.8 SW, CAN","Latitude":"46.04593","Longitude":"-62.72266","Snowdepth":"3.500","Units":"in","Rept_Date":"2019-12-26 12"},"coordinates":[7894,5438]},{"type":"Point","properties":{"Station_ID":"CAN-ON-132","Station_Nam":"ORANGEVILLE 5.1 SSW - CANWARN, CAN","Latitude":"43.87372","Longitude":"-80.13428","Snowdepth":"3.500","Units":"in","Rept_Date":"2019-12-26 14"},"coordinates":[3912,3694]},{"type":"Point","properties":{"Station_ID":"WPBN6","Station_Nam":"UPPER LISLE SNOW","Latitude":"42.40000","Longitude":"-75.96670","Snowdepth":"3.000","Units":"in","Rept_Date":"2019-12-26 14"},"coordinates":[4865,2511]},{"type":"Point","properties":{"Station_ID":"WNDP1","Station_Nam":"WINDBER COUNTY CLUB","Latitude":"40.28780","Longitude":"-78.77530","Snowdepth":"3.000","Units":"in","Rept_Date":"2019-12-26 12"},"coordinates":[4223,815]},{"type":"Point","properties":{"Station_ID":"WELM5","Station_Nam":"WELLS","Latitude":"43.74680","Longitude":"-93.73680","Snowdepth":"3.000","Units":"in","Rept_Date":"2019-12-26 14"},"coordinates":[801,3592]},{"type":"Point","properties":{"Station_ID":"WDSV1","Station_Nam":"WOODSTOCK","Latitude":"43.63030","Longitude":"-72.50720","Snowdepth":"3.000","Units":"in","Rept_Date":"2019-12-26 13"},"coordinates":[5656,3499]},{"type":"Point","properties":{"Station_ID":"VT-WR-2","Station_Nam":"POMFRET 2.6 N, VT","Latitude":"43.74230","Longitude":"-72.52550","Snowdepth":"3.000","Units":"in","Rept_Date":"2019-12-26 12"},"coordinates":[5652,3588]},{"type":"Point","properties":{"Station_ID":"VT-OL-2","Station_Nam":"BARTON 3.0 ENE, VT","Latitude":"44.75863","Longitude":"-72.11680","Snowdepth":"3.000","Units":"in","Rept_Date":"2019-12-26 12"},"coordinates":[5746,4404]},{"type":"Point","properties":{"Station_ID":"VT-LM-7","Station_Nam":"HYDE PARK 2.9 NE, VT","Latitude":"44.62080","Longitude":"-72.57250","Snowdepth":"3.000","Units":"in","Rept_Date":"2019-12-26 13"},"coordinates":[5641,4294]},{"type":"Point","properties":{"Station_ID":"VT-CL-23","Station_Nam":"RYEGATE 1.5 N, VT","Latitude":"44.23024","Longitude":"-72.10523","Snowdepth":"3.000","Units":"in","Rept_Date":"2019-12-26 12"},"coordinates":[5748,3980]},{"type":"Point","properties":{"Station_ID":"VT-CH-4","Station_Nam":"UNDERHILL 4.4 NNE, VT","Latitude":"44.58774","Longitude":"-72.92250","Snowdepth":"3.000","Units":"in","Rept_Date":"2019-12-26 12"},"coordinates":[5561,4267]},{"type":"Point","properties":{"Station_ID":"VT-BN-3","Station_Nam":"LANDGROVE 1.1 NNE, VT","Latitude":"43.29092","Longitude":"-72.83260","Snowdepth":"3.000","Units":"in","Rept_Date":"2019-12-26 11"},"coordinates":[5582,3226]},{"type":"Point","properties":{"Station_ID":"SWIP1","Station_Nam":"STILLWATER DAM 2NE SNOW W SLOPE","Latitude":"41.72420","Longitude":"-75.47780","Snowdepth":"3.000","Units":"in","Rept_Date":"2019-12-26 13"},"coordinates":[4977,1968]},{"type":"Point","properties":{"Station_ID":"SWCP1","Station_Nam":"BURNWOOD SNOW","Latitude":"41.78330","Longitude":"-75.51670","Snowdepth":"3.000","Units":"in","Rept_Date":"2019-12-26 13"},"coordinates":[4968,2016]},{"type":"Point","properties":{"Station_ID":"SURN3","Station_Nam":"SURRY MOUNTAIN LAKE","Latitude":"42.99630","Longitude":"-72.31310","Snowdepth":"3.000","Units":"in","Rept_Date":"2019-12-26 12"},"coordinates":[5701,2989]},{"type":"Point","properties":{"Station_ID":"STIM4","Station_Nam":"ST IGNACE","Latitude":"45.86080","Longitude":"-84.71960","Snowdepth":"3.000","Units":"in","Rept_Date":"2019-12-26 12"},"coordinates":[2863,5289]},{"type":"Point","properties":{"Station_ID":"SNGW3","Station_Nam":"SURING-4 E-HWY. DEPT.","Latitude":"44.99310","Longitude":"-88.31170","Snowdepth":"3.000","Units":"in","Rept_Date":"2019-12-26 13"},"coordinates":[2042,4593]},{"type":"Point","properties":{"Station_ID":"SANI4","Station_Nam":"ST ANSGAR","Latitude":"43.38170","Longitude":"-92.92320","Snowdepth":"3.000","Units":"in","Rept_Date":"2019-12-26 12"},"coordinates":[987,3299]},{"type":"Point","properties":{"Station_ID":"RWGM5","Station_Nam":"RED WING","Latitude":"44.57120","Longitude":"-92.52830","Snowdepth":"3.000","Units":"in","Rept_Date":"2019-12-26 14"},"coordinates":[1077,4254]},{"type":"Point","properties":{"Station_ID":"PVRW3","Station_Nam":"PLOVER-2-E WATER TREATMENT PLANT","Latitude":"44.45920","Longitude":"-89.49530","Snowdepth":"3.000","Units":"in","Rept_Date":"2019-12-26 13"},"coordinates":[1771,4164]},{"type":"Point","properties":{"Station_ID":"PTBN3","Station_Nam":"DAM WITHIN","Latitude":"45.05000","Longitude":"-71.38330","Snowdepth":"3.000","Units":"in","Rept_Date":"2019-12-26 12"},"coordinates":[5913,4638]},{"type":"Point","properties":{"Station_ID":"PSHW3","Station_Nam":"PESHTIGO","Latitude":"45.02810","Longitude":"-87.73560","Snowdepth":"3.000","Units":"in","Rept_Date":"2019-12-26 13"},"coordinates":[2173,4621]},{"type":"Point","properties":{"Station_ID":"PLEP1","Station_Nam":"PLEASANT MOUNT 1 W","Latitude":"41.73940","Longitude":"-75.44650","Snowdepth":"3.000","Units":"in","Rept_Date":"2019-12-26 14"},"coordinates":[4984,1980]},{"type":"Point","properties":{"Station_ID":"OTTN3","Station_Nam":"OTTER BROOK LAKE","Latitude":"42.95000","Longitude":"-72.23330","Snowdepth":"3.000","Units":"in","Rept_Date":"2019-12-26 12"},"coordinates":[5719,2952]},{"type":"Point","properties":{"Station_ID":"NY-TG-15","Station_Nam":"BERKSHIRE 1.9 ENE, NY","Latitude":"42.31910","Longitude":"-76.21940","Snowdepth":"3.000","Units":"in","Rept_Date":"2019-12-26 13"},"coordinates":[4807,2446]},{"type":"Point","properties":{"Station_ID":"NY-RN-24","Station_Nam":"NASSAU 4.2 ESE, NY","Latitude":"42.49091","Longitude":"-73.53462","Snowdepth":"3.000","Units":"in","Rept_Date":"2019-12-26 13"},"coordinates":[5421,2584]},{"type":"Point","properties":{"Station_ID":"NY-FK-9","Station_Nam":"GABRIELS 1.3 SE, NY","Latitude":"44.41934","Longitude":"-74.16194","Snowdepth":"3.000","Units":"in","Rept_Date":"2019-12-26 12"},"coordinates":[5278,4132]},{"type":"Point","properties":{"Station_ID":"NY-BM-21","Station_Nam":"WINDSOR 8.0 SE, NY","Latitude":"42.00992","Longitude":"-75.51420","Snowdepth":"3.000","Units":"in","Rept_Date":"2019-12-26 12"},"coordinates":[4969,2198]},{"type":"Point","properties":{"Station_ID":"NUNV1","Station_Nam":"NORTH UNDERHILL","Latitude":"44.58760","Longitude":"-72.92150","Snowdepth":"3.000","Units":"in","Rept_Date":"2019-12-26 12"},"coordinates":[5562,4267]},{"type":"Point","properties":{"Station_ID":"NPTV1","Station_Nam":"NEWPORT","Latitude":"44.94900","Longitude":"-72.19120","Snowdepth":"3.000","Units":"in","Rept_Date":"2019-12-26 12"},"coordinates":[5729,4557]},{"type":"Point","properties":{"Station_ID":"NH-GR-49","Station_Nam":"PLYMOUTH 3.7 N, NH","Latitude":"43.79048","Longitude":"-71.68413","Snowdepth":"3.000","Units":"in","Rept_Date":"2019-12-26 12"},"coordinates":[5845,3627]},{"type":"Point","properties":{"Station_ID":"NH-GR-47","Station_Nam":"LITTLETON 7.3 W, NH","Latitude":"44.31847","Longitude":"-71.91086","Snowdepth":"3.000","Units":"in","Rept_Date":"2019-12-26 13"},"coordinates":[5793,4051]},{"type":"Point","properties":{"Station_ID":"NH-CR-1","Station_Nam":"EAST WAKEFIELD 1.2 SE, NH","Latitude":"43.60370","Longitude":"-70.98670","Snowdepth":"3.000","Units":"in","Rept_Date":"2019-12-26 13"},"coordinates":[6004,3477]},{"type":"Point","properties":{"Station_ID":"MWN","Station_Nam":"MOUNT WASHINGTON","Latitude":"44.26670","Longitude":"-71.30000","Snowdepth":"3.000","Units":"in","Rept_Date":"2019-12-27 05"},"coordinates":[5932,4009]},{"type":"Point","properties":{"Station_ID":"MNH7MKZS","Station_Nam":"HASTINGS 0.9 NW","Latitude":"44.74710","Longitude":"-92.87300","Snowdepth":"3.000","Units":"in","Rept_Date":"2019-12-26 13"},"coordinates":[998,4395]},{"type":"Point","properties":{"Station_ID":"MN-DK-104","Station_Nam":"HASTINGS 1.6 NW, MN","Latitude":"44.74458","Longitude":"-92.88035","Snowdepth":"3.000","Units":"in","Rept_Date":"2019-12-26 13"},"coordinates":[997,4393]},{"type":"Point","properties":{"Station_ID":"MLBS2","Station_Nam":"MILBANK","Latitude":"45.22040","Longitude":"-96.62530","Snowdepth":"3.000","Units":"in","Rept_Date":"2019-12-26 13"},"coordinates":[140,4775]},{"type":"Point","properties":{"Station_ID":"MI-MC-4","Station_Nam":"ST. IGNACE 0.5SE, MI","Latitude":"45.86057","Longitude":"-84.71980","Snowdepth":"3.000","Units":"in","Rept_Date":"2019-12-26 12"},"coordinates":[2863,5289]},{"type":"Point","properties":{"Station_ID":"MI-EM-5","Station_Nam":"HARBOR SPRINGS 0.7 ENE, MI","Latitude":"45.43450","Longitude":"-84.97540","Snowdepth":"3.000","Units":"in","Rept_Date":"2019-12-26 12"},"coordinates":[2805,4947]},{"type":"Point","properties":{"Station_ID":"MENM4","Station_Nam":"MENOMINEE NO.2","Latitude":"45.11100","Longitude":"-87.61170","Snowdepth":"3.000","Units":"in","Rept_Date":"2019-12-26 14"},"coordinates":[2202,4687]},{"type":"Point","properties":{"Station_ID":"MECN6","Station_Nam":"MECKLENBURG 4 SW","Latitude":"42.44220","Longitude":"-76.75740","Snowdepth":"3.000","Units":"in","Rept_Date":"2019-12-26 12"},"coordinates":[4684,2545]},