{"type":"Topology","objects":{"snowdepth_geo":{"type":"GeometryCollection","name":"snowdepth","crs":{"type":"name","properties":{"name":"urn:ogc:def:crs:OGC:1.3:CRS84"}},"geometries":[{"type":"Point","properties":{"Station_ID":"PRKM4","Station_Nam":"MUNISING EAST","Latitude":"46.42580","Longitude":"-86.62000","Snowdepth":"76.500","Units":"in","Rept_Date":"2019-11-27 06"},"coordinates":[3346,6701]},{"type":"Point","properties":{"Station_ID":"OGIQ6","Station_Nam":"OGOKI CAMP","Latitude":"50.76680","Longitude":"-87.85820","Snowdepth":"61.100","Units":"in","Rept_Date":"2019-11-27 06"},"coordinates":[2956,9402]},{"type":"Point","properties":{"Station_ID":"AUDQ6","Station_Nam":"AUDEN","Latitude":"48.52600","Longitude":"-82.57570","Snowdepth":"47.640","Units":"in","Rept_Date":"2019-11-27 06"},"coordinates":[4620,8008]},{"type":"Point","properties":{"Station_ID":"DVLQ6","Station_Nam":"DEVIOUS LAKE","Latitude":"49.19890","Longitude":"-87.76440","Snowdepth":"43.460","Units":"in","Rept_Date":"2019-11-27 06"},"coordinates":[2985,8426]},{"type":"Point","properties":{"Station_ID":"HTLN3","Station_Nam":"HERMIT LAKE SNOWPLOT","Latitude":"44.26130","Longitude":"-71.28330","Snowdepth":"21.000","Units":"in","Rept_Date":"2019-11-26 11"},"coordinates":[8179,5354]},{"type":"Point","properties":{"Station_ID":"CAN-NB-50","Station_Nam":"DOYLEVILLE 2.4 WNW, CAN","Latitude":"47.90803","Longitude":"-66.13279","Snowdepth":"19.500","Units":"in","Rept_Date":"2019-11-26 13"},"coordinates":[9802,7623]},{"type":"Point","properties":{"Station_ID":"ME-AR-18","Station_Nam":"NEW SWEDEN 4.9 NNW, ME","Latitude":"47.01080","Longitude":"-68.14390","Snowdepth":"17.000","Units":"in","Rept_Date":"2019-11-26 12"},"coordinates":[9168,7065]},{"type":"Point","properties":{"Station_ID":"ME-AR-23","Station_Nam":"MADAWASKA 2.5 E, ME","Latitude":"47.34933","Longitude":"-68.28141","Snowdepth":"15.500","Units":"in","Rept_Date":"2019-11-26 12"},"coordinates":[9125,7276]},{"type":"Point","properties":{"Station_ID":"CNRM1","Station_Nam":"CONNOR TWP","Latitude":"46.95830","Longitude":"-68.03330","Snowdepth":"14.000","Units":"in","Rept_Date":"2019-11-26 12"},"coordinates":[9203,7032]},{"type":"Point","properties":{"Station_ID":"CARM1","Station_Nam":"CARIBOU WFO","Latitude":"46.86810","Longitude":"-68.01250","Snowdepth":"14.000","Units":"in","Rept_Date":"2019-11-27 05"},"coordinates":[9209,6976]},{"type":"Point","properties":{"Station_ID":"VANM1","Station_Nam":"VAN BUREN","Latitude":"47.16600","Longitude":"-67.93900","Snowdepth":"13.000","Units":"in","Rept_Date":"2019-11-26 12"},"coordinates":[9233,7161]},{"type":"Point","properties":{"Station_ID":"LILM1","Station_Nam":"LILLE","Latitude":"47.27770","Longitude":"-68.10520","Snowdepth":"13.000","Units":"in","Rept_Date":"2019-11-26 12"},"coordinates":[9180,7231]},{"type":"Point","properties":{"Station_ID":"ME-AR-15","Station_Nam":"PRESQUE ISLE 1.3 WSW, ME","Latitude":"46.67960","Longitude":"-68.01270","Snowdepth":"12.000","Units":"in","Rept_Date":"2019-11-26 12"},"coordinates":[9209,6859]},{"type":"Point","properties":{"Station_ID":"CAN-NB-13","Station_Nam":"BATHURST 3.8 NW, CAN","Latitude":"47.64212","Longitude":"-65.68756","Snowdepth":"12.000","Units":"in","Rept_Date":"2019-11-26 11"},"coordinates":[9942,7458]},{"type":"Point","properties":{"Station_ID":"NH-CS-10","Station_Nam":"RANDOLPH 1.4 NE, NH","Latitude":"44.38824","Longitude":"-71.26950","Snowdepth":"11.000","Units":"in","Rept_Date":"2019-11-26 12"},"coordinates":[8183,5433]},{"type":"Point","properties":{"Station_ID":"GHMN3","Station_Nam":"PINKHAM NOTCH","Latitude":"44.25800","Longitude":"-71.25250","Snowdepth":"11.000","Units":"in","Rept_Date":"2019-11-26 11"},"coordinates":[8189,5352]},{"type":"Point","properties":{"Station_ID":"PTLQ6","Station_Nam":"PORTAGE LAKE","Latitude":"49.06950","Longitude":"-86.65940","Snowdepth":"10.940","Units":"in","Rept_Date":"2019-11-27 06"},"coordinates":[3334,8346]},{"type":"Point","properties":{"Station_ID":"FISM1","Station_Nam":"FORT KENT COOP","Latitude":"47.23850","Longitude":"-68.61240","Snowdepth":"10.000","Units":"in","Rept_Date":"2019-11-26 12"},"coordinates":[9020,7207]},{"type":"Point","properties":{"Station_ID":"RKWM1","Station_Nam":"MOOSEHEAD LAKE","Latitude":"45.58330","Longitude":"-69.71670","Snowdepth":"9.000","Units":"in","Rept_Date":"2019-11-26 12"},"coordinates":[8672,6177]},{"type":"Point","properties":{"Station_ID":"BRAM1","Station_Nam":"BRASSUA DAM","Latitude":"45.66020","Longitude":"-69.81190","Snowdepth":"9.000","Units":"in","Rept_Date":"2019-11-26 12"},"coordinates":[8642,6225]},{"type":"Point","properties":{"Station_ID":"TRIQ6","Station_Nam":"TRIO LAKE","Latitude":"49.22880","Longitude":"-87.22920","Snowdepth":"8.540","Units":"in","Rept_Date":"2019-11-27 06"},"coordinates":[3154,8445]},{"type":"Point","properties":{"Station_ID":"CAN-NB-11","Station_Nam":"MIRAMICHI 3.3 S, CAN","Latitude":"46.99343","Longitude":"-65.50690","Snowdepth":"8.500","Units":"in","Rept_Date":"2019-11-26 12"},"coordinates":[9999,7054]},{"type":"Point","properties":{"Station_ID":"RANM1","Station_Nam":"RANGELEY,ME","Latitude":"44.96670","Longitude":"-70.65000","Snowdepth":"8.000","Units":"in","Rept_Date":"2019-11-26 11"},"coordinates":[8378,5793]},{"type":"Point","properties":{"Station_ID":"MI-HG-18","Station_Nam":"CALUMET 0.7 W (TAMARACK), MI","Latitude":"47.24560","Longitude":"-88.46791","Snowdepth":"8.000","Units":"in","Rept_Date":"2019-11-26 13"},"coordinates":[2764,7211]},{"type":"Point","properties":{"Station_ID":"FTHQ6","Station_Nam":"FORT HOPE","Latitude":"51.55820","Longitude":"-87.90510","Snowdepth":"7.440","Units":"in","Rept_Date":"2019-11-27 06"},"coordinates":[2941,9894]},{"type":"Point","properties":{"Station_ID":"SVBQ6","Station_Nam":"SAVANT BASE","Latitude":"50.28730","Longitude":"-90.65670","Snowdepth":"7.280","Units":"in","Rept_Date":"2019-11-27 06"},"coordinates":[2074,9103]},{"type":"Point","properties":{"Station_ID":"RGNM1","Station_Nam":"RANGELEY 2NW","Latitude":"44.98940","Longitude":"-70.67220","Snowdepth":"7.000","Units":"in","Rept_Date":"2019-11-26 12"},"coordinates":[8371,5807]},{"type":"Point","properties":{"Station_ID":"MMNV1","Station_Nam":"MT. MANSFIELD","Latitude":"44.52480","Longitude":"-72.81540","Snowdepth":"7.000","Units":"in","Rept_Date":"2019-11-26 21"},"coordinates":[7696,5518]},{"type":"Point","properties":{"Station_ID":"IBLM5","Station_Nam":"ISABELLA 14W","Latitude":"47.59360","Longitude":"-91.65140","Snowdepth":"7.000","Units":"in","Rept_Date":"2019-11-26 15"},"coordinates":[1761,7428]},{"type":"Point","properties":{"Station_ID":"BRDM1","Station_Nam":"BRIDGEWATER","Latitude":"46.42870","Longitude":"-67.84370","Snowdepth":"7.000","Units":"in","Rept_Date":"2019-11-26 23"},"coordinates":[9263,6703]},{"type":"Point","properties":{"Station_ID":"BNDM5","Station_Nam":"ELY 25E","Latitude":"47.97190","Longitude":"-91.44860","Snowdepth":"7.000","Units":"in","Rept_Date":"2019-11-26 13"},"coordinates":[1824,7663]},{"type":"Point","properties":{"Station_ID":"AVLV1","Station_Nam":"AVERILL","Latitude":"45.00570","Longitude":"-71.69030","Snowdepth":"7.000","Units":"in","Rept_Date":"2019-11-26 13"},"coordinates":[8051,5817]},{"type":"Point","properties":{"Station_ID":"CAN-NB-97","Station_Nam":"NEW MARYLAND 0.6 NW, CAN","Latitude":"45.90112","Longitude":"-66.68739","Snowdepth":"6.700","Units":"in","Rept_Date":"2019-11-26 11"},"coordinates":[9627,6375]},{"type":"Point","properties":{"Station_ID":"VT-OL-12","Station_Nam":"GREENSBORO 3.9 NNE, VT","Latitude":"44.63100","Longitude":"-72.28000","Snowdepth":"6.500","Units":"in","Rept_Date":"2019-11-26 12"},"coordinates":[7865,5584]},{"type":"Point","properties":{"Station_ID":"VT-CL-3","Station_Nam":"GROTON 4.4 WSW, VT","Latitude":"44.19440","Longitude":"-72.28240","Snowdepth":"6.500","Units":"in","Rept_Date":"2019-11-26 11"},"coordinates":[7864,5313]},{"type":"Point","properties":{"Station_ID":"KABQ6","Station_Nam":"CAB LAKE","Latitude":"49.59950","Longitude":"-89.17990","Snowdepth":"6.420","Units":"in","Rept_Date":"2019-11-27 06"},"coordinates":[2539,8675]},{"type":"Point","properties":{"Station_ID":"TOGM5","Station_Nam":"CELINA 2E","Latitude":"47.86630","Longitude":"-93.02660","Snowdepth":"6.000","Units":"in","Rept_Date":"2019-11-26 14"},"coordinates":[1327,7597]},{"type":"Point","properties":{"Station_ID":"PDLM4","Station_Nam":"PAINESDALE","Latitude":"47.04160","Longitude":"-88.67170","Snowdepth":"6.000","Units":"in","Rept_Date":"2019-11-26 13"},"coordinates":[2700,7084]},{"type":"Point","properties":{"Station_ID":"LEIM5","Station_Nam":"ORR 3E","Latitude":"48.05810","Longitude":"-92.75220","Snowdepth":"6.000","Units":"in","Rept_Date":"2019-11-26 12"},"coordinates":[1414,7716]},{"type":"Point","properties":{"Station_ID":"JKMM1","Station_Nam":"JACKMAN","Latitude":"45.62600","Longitude":"-70.24600","Snowdepth":"6.000","Units":"in","Rept_Date":"2019-11-26 12"},"coordinates":[8506,6203]},{"type":"Point","properties":{"Station_ID":"ANDM1","Station_Nam":"ANDOVER 2","Latitude":"44.65300","Longitude":"-70.79410","Snowdepth":"6.000","Units":"in","Rept_Date":"2019-11-26 12"},"coordinates":[8333,5598]},{"type":"Point","properties":{"Station_ID":"CATQ6","Station_Nam":"CAT LAKE","Latitude":"51.72690","Longitude":"-91.82210","Snowdepth":"5.790","Units":"in","Rept_Date":"2019-11-27 06"},"coordinates":[1707,9999]},{"type":"Point","properties":{"Station_ID":"SOCQ6","Station_Nam":"SOCKET LAKE","Latitude":"50.77870","Longitude":"-91.79300","Snowdepth":"5.630","Units":"in","Rept_Date":"2019-11-27 06"},"coordinates":[1716,9409]},{"type":"Point","properties":{"Station_ID":"RLWM5","Station_Nam":"CAMP NORRIS DNR","Latitude":"48.61000","Longitude":"-95.18170","Snowdepth":"5.000","Units":"in","Rept_Date":"2019-11-26 14"},"coordinates":[648,8060]},{"type":"Point","properties":{"Station_ID":"QNCM4","Station_Nam":"QUINCY HILL","Latitude":"47.13640","Longitude":"-88.57950","Snowdepth":"5.000","Units":"in","Rept_Date":"2019-11-26 12"},"coordinates":[2729,7143]},{"type":"Point","properties":{"Station_ID":"PTBN3","Station_Nam":"DAM WITHIN","Latitude":"45.05000","Longitude":"-71.38330","Snowdepth":"5.000","Units":"in","Rept_Date":"2019-11-26 12"},"coordinates":[8147,5845]},{"type":"Point","properties":{"Station_ID":"PRDM4","Station_Nam":"PARADISE","Latitude":"46.60380","Longitude":"-85.03960","Snowdepth":"5.000","Units":"in","Rept_Date":"2019-11-26 11"},"coordinates":[3844,6812]},{"type":"Point","properties":{"Station_ID":"NH-CS-4","Station_Nam":"PITTSBURG 6.1 NE, NH","Latitude":"45.11060","Longitude":"-71.29760","Snowdepth":"5.000","Units":"in","Rept_Date":"2019-11-26 12"},"coordinates":[8174,5883]},{"type":"Point","properties":{"Station_ID":"MWN","Station_Nam":"MOUNT WASHINGTON","Latitude":"44.26670","Longitude":"-71.30000","Snowdepth":"5.000","Units":"in","Rept_Date":"2019-11-27 05"},"coordinates":[8174,5358]},{"type":"Point","properties":{"Station_ID":"KMWN","Station_Nam":"MOUNT WASHINGTON","Latitude":"44.26666","Longitude":"-71.30000","Snowdepth":"5.000","Units":"in","Rept_Date":"2019-11-27 06"},"coordinates":[8174,5358]},{"type":"Point","properties":{"Station_ID":"JWTN6","Station_Nam":"EAST JEWETT","Latitude":"42.23430","Longitude":"-74.14430","Snowdepth":"5.000","Units":"in","Rept_Date":"2019-11-26 12"},"coordinates":[7277,4093]},{"type":"Point","properties":{"Station_ID":"JEFN3","Station_Nam":"JEFFERSON","Latitude":"44.41690","Longitude":"-71.50080","Snowdepth":"5.000","Units":"in","Rept_Date":"2019-11-26 12"},"coordinates":[8110,5451]},{"type":"Point","properties":{"Station_ID":"IRMM4","Station_Nam":"WWTP","Latitude":"46.46670","Longitude":"-90.18330","Snowdepth":"5.000","Units":"in","Rept_Date":"2019-11-26 13"},"coordinates":[2223,6726]},{"type":"Point","properties":{"Station_ID":"HURW3","Station_Nam":"HURLEY","Latitude":"46.46250","Longitude":"-90.19550","Snowdepth":"5.000","Units":"in","Rept_Date":"2019-11-26 14"},"coordinates":[2219,6724]},{"type":"Point","properties":{"Station_ID":"ELYM5","Station_Nam":"ELY","Latitude":"47.90560","Longitude":"-91.82830","Snowdepth":"5.000","Units":"in","Rept_Date":"2019-11-26 14"},"coordinates":[1705,7622]},{"type":"Point","properties":{"Station_ID":"COLN3","Station_Nam":"COLEBROOK 3SW","Latitude":"44.86100","Longitude":"-71.53920","Snowdepth":"5.000","Units":"in","Rept_Date":"2019-11-26 12"},"coordinates":[8098,5727]},{"type":"Point","properties":{"Station_ID":"COKM5","Station_Nam":"COOK","Latitude":"47.85060","Longitude":"-92.69250","Snowdepth":"5.000","Units":"in","Rept_Date":"2019-11-26 12"},"coordinates":[1433,7587]},{"type":"Point","properties":{"Station_ID":"VT-WS-15","Station_Nam":"EAST CALAIS 1.5 SW, VT","Latitude":"44.35523","Longitude":"-72.45540","Snowdepth":"4.500","Units":"in","Rept_Date":"2019-11-26 12"},"coordinates":[7809,5413]},{"type":"Point","properties":{"Station_ID":"CAN-NB-64","Station_Nam":"KESWICK RIDGE 4.0 SE, CAN","Latitude":"45.97014","Longitude":"-66.85538","Snowdepth":"4.500","Units":"in","Rept_Date":"2019-11-26 12"},"coordinates":[9574,6417]},{"type":"Point","properties":{"Station_ID":"CAN-NB-2","Station_Nam":"GRAFTON 2.7 NNE, CA","Latitude":"46.17062","Longitude":"-67.55330","Snowdepth":"4.500","Units":"in","Rept_Date":"2019-11-26 11"},"coordinates":[9354,6542]},{"type":"Point","properties":{"Station_ID":"CAN-QC-47","Station_Nam":"SAINTE-FOY 1.8 ENE, CAN","Latitude":"46.76934","Longitude":"-71.27124","Snowdepth":"4.300","Units":"in","Rept_Date":"2019-11-26 12"},"coordinates":[8183,6915]},{"type":"Point","properties":{"Station_ID":"CAN-ON-621","Station_Nam":"THUNDER BAY 4.2 WSW - MNRF, CAN","Latitude":"48.39163","Longitude":"-89.29107","Snowdepth":"4.100","Units":"in","Rept_Date":"2019-11-26 12"},"coordinates":[2504,7924]},{"type":"Point","properties":{"Station_ID":"WI-IR-3","Station_Nam":"PENCE 0.1 E, WI","Latitude":"46.41555","Longitude":"-90.27013","Snowdepth":"4.000","Units":"in","Rept_Date":"2019-11-26 13"},"coordinates":[2196,6695]},{"type":"Point","properties":{"Station_ID":"VT-ES-3","Station_Nam":"LUNENBURG 2.3 NNW, VT","Latitude":"44.49324","Longitude":"-71.70446","Snowdepth":"4.000","Units":"in","Rept_Date":"2019-11-26 10"},"coordinates":[8046,5499]},{"type":"Point","properties":{"Station_ID":"UPSW3","Station_Nam":"UPSON,WI","Latitude":"46.36780","Longitude":"-90.41220","Snowdepth":"4.000","Units":"in","Rept_Date":"2019-11-27 00"},"coordinates":[2151,6665]},{"type":"Point","properties":{"Station_ID":"SUAW3","Station_Nam":"SUAMICO","Latitude":"44.60190","Longitude":"-88.09780","Snowdepth":"4.000","Units":"in","Rept_Date":"2019-11-26 12"},"coordinates":[2880,5566]},{"type":"Point","properties":{"Station_ID":"PDGM4","Station_Nam":"PAULDING","Latitude":"46.39760","Longitude":"-89.17940","Snowdepth":"4.000","Units":"in","Rept_Date":"2019-11-26 13"},"coordinates":[2540,6683]},{"type":"Point","properties":{"Station_ID":"NUMN3","Station_Nam":"NORTHUMBERLAND","Latitude":"44.52830","Longitude":"-71.50440","Snowdepth":"4.000","Units":"in","Rept_Date":"2019-11-26 12"},"coordinates":[8109,5520]},{"type":"Point","properties":{"Station_ID":"NH-GR-47","Station_Nam":"LITTLETON 7.3 W, NH","Latitude":"44.31847","Longitude":"-71.91086","Snowdepth":"4.000","Units":"in","Rept_Date":"2019-11-26 13"},"coordinates":[7981,5390]},{"type":"Point","properties":{"Station_ID":"MI-KW-2","Station_Nam":"DELAWARE 5.2 SW, MI","Latitude":"47.36928","Longitude":"-88.17919","Snowdepth":"4.000","Units":"in","Rept_Date":"2019-11-26 09"},"coordinates":[2855,7288]},{"type":"Point","properties":{"Station_ID":"MI-BG-3","Station_Nam":"L'ANSE 17.8 SE, MI","Latitude":"46.55730","Longitude":"-88.20770","Snowdepth":"4.000","Units":"in","Rept_Date":"2019-11-26 13"},"coordinates":[2846,6783]},{"type":"Point","properties":{"Station_ID":"LPLN6","Station_Nam":"LAKE PLACID 2 S","Latitude":"44.30420","Longitude":"-73.98390","Snowdepth":"4.000","Units":"in","Rept_Date":"2019-11-26 13"},"coordinates":[7328,5381]},{"type":"Point","properties":{"Station_ID":"KABM5","Station_Nam":"KABETOGAMA LAKE VISITOR CTR","Latitude":"48.40880","Longitude":"-93.04840","Snowdepth":"4.000","Units":"in","Rept_Date":"2019-11-26 13"},"coordinates":[1320,7935]},{"type":"Point","properties":{"Station_ID":"INL","Station_Nam":"FALLS INTERNATIONAL ARPT","Latitude":"48.56640","Longitude":"-93.40310","Snowdepth":"4.000","Units":"in","Rept_Date":"2019-11-27 00"},"coordinates":[1209,8033]},{"type":"Point","properties":{"Station_ID":"IFSM5","Station_Nam":"INTERNATIONAL FALLS SNOW","Latitude":"48.57780","Longitude":"-93.39640","Snowdepth":"4.000","Units":"in","Rept_Date":"2019-11-26 12"},"coordinates":[1211,8040]},{"type":"Point","properties":{"Station_ID":"HERM4","Station_Nam":"HERMAN,MI","Latitude":"46.65000","Longitude":"-88.33330","Snowdepth":"4.000","Units":"in","Rept_Date":"2019-11-26 13"},"coordinates":[2806,6840]},{"type":"Point","properties":{"Station_ID":"CORV1","Station_Nam":"CORINTH","Latitude":"44.00690","Longitude":"-72.31940","Snowdepth":"4.000","Units":"in","Rept_Date":"2019-11-26 12"},"coordinates":[7852,5196]},{"type":"Point","properties":{"Station_ID":"BETM1","Station_Nam":"BETHEL 6 SSE","Latitude":"44.32000","Longitude":"-70.75680","Snowdepth":"4.000","Units":"in","Rept_Date":"2019-11-26 12"},"coordinates":[8345,5391]},{"type":"Point","properties":{"Station_ID":"BABM5","Station_Nam":"BABBITT","Latitude":"47.71210","Longitude":"-91.95330","Snowdepth":"4.000","Units":"in","Rept_Date":"2019-11-26 13"},"coordinates":[1665,7501]},{"type":"Point","properties":{"Station_ID":"VT-WS-30","Station_Nam":"WOODBURY 3.4 NNW, VT","Latitude":"44.48825","Longitude":"-72.43258","Snowdepth":"3.500","Units":"in","Rept_Date":"2019-11-26 12"},"coordinates":[7817,5496]},{"type":"Point","properties":{"Station_ID":"VT-WR-17","Station_Nam":"ROCHESTER 2.3 NE, VT","Latitude":"43.89418","Longitude":"-72.76992","Snowdepth":"3.500","Units":"in","Rept_Date":"2019-11-26 12"},"coordinates":[7710,5126]},{"type":"Point","properties":{"Station_ID":"VT-OL-9","Station_Nam":"GREENSBORO 2.1 NNW, VT","Latitude":"44.60528","Longitude":"-72.30940","Snowdepth":"3.500","Units":"in","Rept_Date":"2019-11-26 12"},"coordinates":[7855,5568]},{"type":"Point","properties":{"Station_ID":"NY-GR-14","Station_Nam":"LEXINGTON 1.5 N, NY","Latitude":"42.26024","Longitude":"-74.35875","Snowdepth":"3.500","Units":"in","Rept_Date":"2019-11-26 12"},"coordinates":[7210,4109]},{"type":"Point","properties":{"Station_ID":"NY-ES-6","Station_Nam":"OLMSTEDVILLE 4.6 NNE, NY","Latitude":"43.83350","Longitude":"-73.89780","Snowdepth":"3.500","Units":"in","Rept_Date":"2019-11-26 13"},"coordinates":[7355,5088]},{"type":"Point","properties":{"Station_ID":"WRPW3","Station_Nam":"WATER PURIFICATION PLANT","Latitude":"44.38800","Longitude":"-89.80550","Snowdepth":"3.000","Units":"in","Rept_Date":"2019-11-26 12"},"coordinates":[2342,5433]},{"type":"Point","properties":{"Station_ID":"WI-VL-9","Station_Nam":"LAND O' LAKES 11.7 W, WI","Latitude":"46.19023","Longitude":"-89.45790","Snowdepth":"3.000","Units":"in","Rept_Date":"2019-11-26 13"},"coordinates":[2452,6554]},{"type":"Point","properties":{"Station_ID":"WI-VL-10","Station_Nam":"LAND O LAKES 4.3 WNW, WI","Latitude":"46.17440","Longitude":"-89.30380","Snowdepth":"3.000","Units":"in","Rept_Date":"2019-11-26 13"},"coordinates":[2500,6545]},{"type":"Point","properties":{"Station_ID":"VT-WR-2","Station_Nam":"POMFRET 2.6 N, VT","Latitude":"43.74230","Longitude":"-72.52550","Snowdepth":"3.000","Units":"in","Rept_Date":"2019-11-26 12"},"coordinates":[7787,5031]},{"type":"Point","properties":{"Station_ID":"VT-OL-2","Station_Nam":"BARTON 3.0 ENE, VT","Latitude":"44.75863","Longitude":"-72.11680","Snowdepth":"3.000","Units":"in","Rept_Date":"2019-11-26 12"},"coordinates":[7916,5664]},{"type":"Point","properties":{"Station_ID":"VT-CL-40","Station_Nam":"LYNDONVILLE 4.2 NNW, VT","Latitude":"44.59440","Longitude":"-72.02389","Snowdepth":"3.000","Units":"in","Rept_Date":"2019-11-26 13"},"coordinates":[7945,5562]},{"type":"Point","properties":{"Station_ID":"VT-CL-23","Station_Nam":"RYEGATE 1.5 N, VT","Latitude":"44.23024","Longitude":"-72.10523","Snowdepth":"3.000","Units":"in","Rept_Date":"2019-11-26 12"},"coordinates":[7920,5335]},{"type":"Point","properties":{"Station_ID":"VT-AD-20","Station_Nam":"HANCOCK 0.3 S, VT","Latitude":"43.92166","Longitude":"-72.84042","Snowdepth":"3.000","Units":"in","Rept_Date":"2019-11-26 12"},"coordinates":[7688,5143]},{"type":"Point","properties":{"Station_ID":"SUTV1","Station_Nam":"SUTTON","Latitude":"44.61220","Longitude":"-72.04810","Snowdepth":"3.000","Units":"in","Rept_Date":"2019-11-26 13"},"coordinates":[7938,5573]},{"type":"Point","properties":{"Station_ID":"SJBV1","Station_Nam":"SAINT JOHNSBURY","Latitude":"44.42000","Longitude":"-72.01940","Snowdepth":"3.000","Units":"in","Rept_Date":"2019-11-26 21"},"coordinates":[7947,5453]},{"type":"Point","properties":{"Station_ID":"RFDM1","Station_Nam":"RUMFORD 7SW","Latitude":"44.49470","Longitude":"-70.65640","Snowdepth":"3.000","Units":"in","Rept_Date":"2019-11-26 12"},"coordinates":[8376,5500]},{"type":"Point","properties":{"Station_ID":"PBAN8","Station_Nam":"SITE 1-3MI.N","Latitude":"48.97420","Longitude":"-97.23860","Snowdepth":"3.000","Units":"in","Rept_Date":"2019-11-26 13"},"coordinates":[0,8286]},{"type":"Point","properties":{"Station_ID":"ORAN3","Station_Nam":"ORANGE","Latitude":"43.66880","Longitude":"-71.94830","Snowdepth":"3.000","Units":"in","Rept_Date":"2019-11-26 12"},"coordinates":[7969,4986]},{"type":"Point","properties":{"Station_ID":"NY-SR-22","Station_Nam":"GREENFIELD CENTER 1.6 W, NY","Latitude":"43.12684","Longitude":"-73.87860","Snowdepth":"3.000","Units":"in","Rept_Date":"2019-11-26 12"},"coordinates":[7361,4649]},{"type":"Point","properties":{"Station_ID":"NOHM5","Station_Nam":"NORTHOME","Latitude":"47.83590","Longitude":"-94.25550","Snowdepth":"3.000","Units":"in","Rept_Date":"2019-11-26 13"},"coordinates":[940,7578]},{"type":"Point","properties":{"Station_ID":"MWTM1","Station_Nam":"MILLINOCKET WWTP","Latitude":"45.64030","Longitude":"-68.67480","Snowdepth":"3.000","Units":"in","Rept_Date":"2019-11-26 11"},"coordinates":[9001,6212]},{"type":"Point","properties":{"Station_ID":"MPXM5","Station_Nam":"CHANHASSEN WSFO","Latitude":"44.84960","Longitude":"-93.56440","Snowdepth":"3.000","Units":"in","Rept_Date":"2019-11-27 06"},"coordinates":[1158,5720]},{"type":"Point","properties":{"Station_ID":"MN-SL-15","Station_Nam":"CHISHOLM 0.4 WSW, MN","Latitude":"47.48557","Longitude":"-92.88690","Snowdepth":"3.000","Units":"in","Rept_Date":"2019-11-26 13"},"coordinates":[1371,7360]},{"type":"Point","properties":{"Station_ID":"ME-FR-22","Station_Nam":"FARMINGTON 4.8 NNW, ME","Latitude":"44.73396","Longitude":"-70.18007","Snowdepth":"3.000","Units":"in","Rept_Date":"2019-11-26 14"},"coordinates":[8526,5648]},{"type":"Point","properties":{"Station_ID":"LNOW3","Station_Nam":"LAND O LAKES","Latitude":"46.19000","Longitude":"-89.45700","Snowdepth":"3.000","Units":"in","Rept_Date":"2019-11-26 13"},"coordinates":[2452,6554]},{"type":"Point","properties":{"Station_ID":"LBKV1","Station_Nam":"LYE BROOK","Latitude":"43.05000","Longitude":"-73.03330","Snowdepth":"3.000","Units":"in","Rept_Date":"2019-11-26 17"},"coordinates":[7627,4601]},{"type":"Point","properties":{"Station_ID":"KINM1","Station_Nam":"KINGFIELD","Latitude":"44.95950","Longitude":"-70.17530","Snowdepth":"3.000","Units":"in","Rept_Date":"2019-11-26 12"},"coordinates":[8528,5789]},{"type":"Point","properties":{"Station_ID":"ISLV1","Station_Nam":"ISLAND POND","Latitude":"44.81280","Longitude":"-71.89020","Snowdepth":"3.000","Units":"in","Rept_Date":"2019-11-26 15"},"coordinates":[7988,5697]},{"type":"Point","properties":{"Station_ID":"INDM5","Station_Nam":"INDUS,MN","Latitude":"48.61670","Longitude":"-93.90000","Snowdepth":"3.000","Units":"in","Rept_Date":"2019-11-26 14"},"coordinates":[1052,8064]},{"type":"Point","properties":{"Station_ID":"FSDS2","Station_Nam":"SIOUX FALLS NWS WFO AP","Latitude":"43.58780","Longitude":"-96.73000","Snowdepth":"3.000","Units":"in","Rept_Date":"2019-11-27 06"},"coordinates":[160,4935]},{"type":"Point","properties":{"Station_ID":"FARM1","Station_Nam":"FARMINGTON","Latitude":"44.68930","Longitude":"-70.15640","Snowdepth":"3.000","Units":"in","Rept_Date":"2019-11-26 12"},"coordinates":[8534,5621]},{"type":"Point","properties":{"Station_ID":"EMBM5","Station_Nam":"EMBARASS,MN","Latitude":"47.65810","Longitude":"-92.19580","Snowdepth":"3.000","Units":"in","Rept_Date":"2019-11-26 12"},"coordinates":[1589,7468]},{"type":"Point","properties":{"Station_ID":"CSLM5","Station_Nam":"CASS LAKE,MN","Latitude":"47.38470","Longitude":"-94.61470","Snowdepth":"3.000","Units":"in","Rept_Date":"2019-11-26 14"},"coordinates":[827,7298]},{"type":"Point","properties":{"Station_ID":"CAN-NB-18","Station_Nam":"MCLEOD HILL 1.1 ENE, CA","Latitude":"46.02725","Longitude":"-66.67460","Snowdepth":"3.000","Units":"in","Rept_Date":"2019-11-26 12"},"coordinates":[9631,6453]},{"type":"Point","properties":{"Station_ID":"BAUM5","Station_Nam":"BAUDETTE,MN","Latitude":"48.71670","Longitude":"-94.61670","Snowdepth":"3.000","Units":"in","Rept_Date":"2019-11-26 21"},"coordinates":[826,8126]},{"type":"Point","properties":{"Station_ID":"VT-OL-5","Station_Nam":"DERBY CENTER 1.8 NW, VT","Latitude":"44.97200","Longitude":"-72.14780","Snowdepth":"2.900","Units":"in","Rept_Date":"2019-11-26 12"},"coordinates":[7906,5796]},{"type":"Point","properties":{"Station_ID":"VT-OL-1","Station_Nam":"WESTFIELD 0.7 WNW, VT","Latitude":"44.89160","Longitude":"-72.44350","Snowdepth":"2.500","Units":"in","Rept_Date":"2019-11-26 12"},"coordinates":[7813,5746]},{"type":"Point","properties":{"Station_ID":"VT-CL-18","Station_Nam":"WHEELOCK 1.6 S, VT","Latitude":"44.56491","Longitude":"-72.08830","Snowdepth":"2.500","Units":"in","Rept_Date":"2019-11-26 12"},"coordinates":[7925,5543]},{"type":"Point","properties":{"Station_ID":"NY-WR-10","Station_Nam":"WARRENSBURG 2.1 WNW, NY","Latitude":"43.51784","Longitude":"-73.81069","Snowdepth":"2.500","Units":"in","Rept_Date":"2019-11-26 13"},"coordinates":[7382,4892]},{"type":"Point","properties":{"Station_ID":"NY-FK-9","Station_Nam":"GABRIELS 1.3 SE, NY","Latitude":"44.41934","Longitude":"-74.16194","Snowdepth":"2.500","Units":"in","Rept_Date":"2019-11-26 12"},"coordinates":[7272,5453]},{"type":"Point","properties":{"Station_ID":"MN-SL-108","Station_Nam":"IRON JUNCTION 3.4 NNW, MN","Latitude":"47.46150","Longitude":"-92.63130","Snowdepth":"2.500","Units":"in","Rept_Date":"2019-11-26 13"},"coordinates":[1452,7345]},{"type":"Point","properties":{"Station_ID":"WTRM4","Station_Nam":"WATERSMEET 12WSW","Latitude":"46.22310","Longitude":"-89.40850","Snowdepth":"2.000","Units":"in","Rept_Date":"2019-11-26 12"},"coordinates":[2467,6575]},{"type":"Point","properties":{"Station_ID":"WRUM5","Station_Nam":"WARROAD 4W","Latitude":"48.89600","Longitude":"-95.40700","Snowdepth":"2.000","Units":"in","Rept_Date":"2019-11-27 04"},"coordinates":[577,8238]},{"type":"Point","properties":{"Station_ID":"VT-WS-19","Station_Nam":"WATERBURY 3.0 NW, VT","Latitude":"44.36060","Longitude":"-72.80770","Snowdepth":"2.000","Units":"in","Rept_Date":"2019-11-26 11"},"coordinates":[7698,5416]},{"type":"Point","properties":{"Station_ID":"VT-OG-11","Station_Nam":"VERSHIRE 1.5 ESE, VT","Latitude":"43.96138","Longitude":"-72.29777","Snowdepth":"2.000","Units":"in","Rept_Date":"2019-11-26 13"},"coordinates":[7859,5168]},{"type":"Point","properties":{"Station_ID":"SLNV1","Station_Nam":"SOUTH LINCOLN","Latitude":"44.07460","Longitude":"-72.97180","Snowdepth":"2.000","Units":"in","Rept_Date":"2019-11-26 12"},"coordinates":[7647,5238]},{"type":"Point","properties":{"Station_ID":"OAXN1","Station_Nam":"VALLEY 1WNW","Latitude":"41.31970","Longitude":"-96.36720","Snowdepth":"2.000","Units":"in","Rept_Date":"2019-11-27 06"},"coordinates":[275,3524]},{"type":"Point","properties":{"Station_ID":"NY-DL-24","Station_Nam":"WALTON 6.5 W, NY","Latitude":"42.16534","Longitude":"-75.25850","Snowdepth":"2.000","Units":"in","Rept_Date":"2019-11-26 12"},"coordinates":[6926,4050]},{"type":"Point","properties":{"Station_ID":"NPTV1","Station_Nam":"NEWPORT","Latitude":"44.94900","Longitude":"-72.19120","Snowdepth":"2.000","Units":"in","Rept_Date":"2019-11-26 12"},"coordinates":[7893,5782]},{"type":"Point","properties":{"Station_ID":"NH-CS-7","Station_Nam":"LANCASTER 0.5 N, NH","Latitude":"44.49611","Longitude":"-71.57640","Snowdepth":"2.000","Units":"in","Rept_Date":"2019-11-26 12"},"coordinates":[8086,5500]},{"type":"Point","properties":{"Station_ID":"NCKN6","Station_Nam":"NORTH CREEK 5 SE","Latitude":"43.66110","Longitude":"-73.89690","Snowdepth":"2.000","Units":"in","Rept_Date":"2019-11-26 12"},"coordinates":[7355,4981]},{"type":"Point","properties":{"Station_ID":"MNSM4","Station_Nam":"MUNISING","Latitude":"46.41210","Longitude":"-86.66250","Snowdepth":"2.000","Units":"in","Rept_Date":"2019-11-26 11"},"coordinates":[3333,6692]},{"type":"Point","properties":{"Station_ID":"MN-CK-6","Station_Nam":"GRAND MARAIS 4.4 W, MN","Latitude":"47.74865","Longitude":"-90.43760","Snowdepth":"2.000","Units":"in","Rept_Date":"2019-11-26 13"},"coordinates":[2143,7524]},{"type":"Point","properties":{"Station_ID":"MI-HG-6","Station_Nam":"CALUMET 5.8 ENE, MI","Latitude":"47.27200","Longitude":"-88.33400","Snowdepth":"2.000","Units":"in","Rept_Date":"2019-11-26 11"},"coordinates":[2806,7227]},{"type":"Point","properties":{"Station_ID":"ME-FR-4","Station_Nam":"NEW SHARON 2.0 NW, ME","Latitude":"44.66582","Longitude":"-70.02720","Snowdepth":"2.000","Units":"in","Rept_Date":"2019-11-26 12"},"coordinates":[8575,5606]},{"type":"Point","properties":{"Station_ID":"LBRM5","Station_Nam":"LAKE BRONSON DAM","Latitude":"48.72410","Longitude":"-96.62180","Snowdepth":"2.000","Units":"in","Rept_Date":"2019-11-26 14"},"coordinates":[194,8131]},{"type":"Point","properties":{"Station_ID":"KSGM4","Station_Nam":"KEARSARGE","Latitude":"47.27520","Longitude":"-88.41700","Snowdepth":"2.000","Units":"in","Rept_Date":"2019-11-26 13"},"coordinates":[2780,7229]},{"type":"Point","properties":{"Station_ID":"KMSP","Station_Nam":"MINNEAPOLIS-ST PAUL INTERNATIONAL","Latitude":"44.86666","Longitude":"-93.21666","Snowdepth":"2.000","Units":"in","Rept_Date":"2019-11-27 06"},"coordinates":[1267,5731]},{"type":"Point","properties":{"Station_ID":"JOHV1","Station_Nam":"JOHNSON 2 N","Latitude":"44.65790","Longitude":"-72.67850","Snowdepth":"2.000","Units":"in","Rept_Date":"2019-11-26 12"},"coordinates":[7739,5601]},{"type":"Point","properties":{"Station_ID":"JEFV1","Station_Nam":"JEFFERSONVILLE","Latitude":"44.58430","Longitude":"-72.78700","Snowdepth":"2.000","Units":"in","Rept_Date":"2019-11-26 12"},"coordinates":[7705,5555]},{"type":"Point","properties":{"Station_ID":"INDN6","Station_Nam":"INDIAN LAKE","Latitude":"43.75500","Longitude":"-74.27560","Snowdepth":"2.000","Units":"in","Rept_Date":"2019-11-26 14"},"coordinates":[7236,5039]},{"type":"Point","properties":{"Station_ID":"ESGM1","Station_Nam":"EAST SANGERVILLE","Latitude":"45.13690","Longitude":"-69.28060","Snowdepth":"2.000","Units":"in","Rept_Date":"2019-11-26 12"},"coordinates":[8810,5899]},{"type":"Point","properties":{"Station_ID":"ENFV1","Station_Nam":"ENOSBURG FALLS 2","Latitude":"44.90960","Longitude":"-72.81370","Snowdepth":"2.000","Units":"in","Rept_Date":"2019-11-26 10"},"coordinates":[7697,5758]},{"type":"Point","properties":{"Station_ID":"CAN-MB-63","Station_Nam":"STEINBACH 0.8 SSE, CA","Latitude":"49.51964","Longitude":"-96.67940","Snowdepth":"2.000","Units":"in","Rept_Date":"2019-11-26 13"},"coordinates":[176,8626]},{"type":"Point","properties":{"Station_ID":"NY-CB-9","Station_Nam":"HILLSDALE 5.8 S, NY","Latitude":"42.26165","Longitude":"-73.54160","Snowdepth":"1.700","Units":"in","Rept_Date":"2019-11-26 13"},"coordinates":[7467,4110]},{"type":"Point","properties":{"Station_ID":"CAN-QC-51","Station_Nam":"BELOEIL 0.7 NW, CAN","Latitude":"45.58049","Longitude":"-73.21218","Snowdepth":"1.700","Units":"in","Rept_Date":"2019-11-26 12"},"coordinates":[7571,6175]},{"type":"Point","properties":{"Station_ID":"CAN-NB-1","Station_Nam":"FREDERICTON 4.0 SSE, CA","Latitude":"45.92897","Longitude":"-66.62830","Snowdepth":"1.600","Units":"in","Rept_Date":"2019-11-26 11"},"coordinates":[9646,6392]},{"type":"Point","properties":{"Station_ID":"VT-LM-7","Station_Nam":"HYDE PARK 2.9 NE, VT","Latitude":"44.62080","Longitude":"-72.57250","Snowdepth":"1.500","Units":"in","Rept_Date":"2019-11-26 13"},"coordinates":[7773,5578]},{"type":"Point","properties":{"Station_ID":"NY-OT-11","Station_Nam":"HARTWICK, NY","Latitude":"42.65990","Longitude":"-75.05000","Snowdepth":"1.500","Units":"in","Rept_Date":"2019-11-26 14"},"coordinates":[6992,4358]},{"type":"Point","properties":{"Station_ID":"NY-GR-13","Station_Nam":"TANNERSVILLE 4.5 SSE, NY","Latitude":"42.13884","Longitude":"-74.08697","Snowdepth":"1.500","Units":"in","Rept_Date":"2019-11-26 12"},"coordinates":[7295,4034]},{"type":"Point","properties":{"Station_ID":"NY-DL-25","Station_Nam":"HOBART 4.8 ESE, NY","Latitude":"42.35230","Longitude":"-74.57830","Snowdepth":"1.500","Units":"in","Rept_Date":"2019-11-26 12"},"coordinates":[7141,4167]},{"type":"Point","properties":{"Station_ID":"MN-IT-23","Station_Nam":"BOVEY 13.4 N, MN","Latitude":"47.48855","Longitude":"-93.43497","Snowdepth":"1.500","Units":"in","Rept_Date":"2019-11-26 13"},"coordinates":[1199,7362]},{"type":"Point","properties":{"Station_ID":"MN-CK-18","Station_Nam":"GRAND MARAIS 4.4 WSW, MN","Latitude":"47.74462","Longitude":"-90.43796","Snowdepth":"1.500","Units":"in","Rept_Date":"2019-11-26 13"},"coordinates":[2143,7521]},{"type":"Point","properties":{"Station_ID":"MN-BM-15","Station_Nam":"BEMIDJI 7.8 ENE, MN","Latitude":"47.52043","Longitude":"-94.72121","Snowdepth":"1.500","Units":"in","Rept_Date":"2019-11-26 13"},"coordinates":[793,7382]},{"type":"Point","properties":{"Station_ID":"WTNM4","Station_Nam":"WATTON 2WSW","Latitude":"46.52660","Longitude":"-88.64240","Snowdepth":"1.000","Units":"in","Rept_Date":"2019-11-26 13"},"coordinates":[2709,6764]},{"type":"Point","properties":{"Station_ID":"WRSM5","Station_Nam":"WRENSHALL","Latitude":"46.61550","Longitude":"-92.38380","Snowdepth":"1.000","Units":"in","Rept_Date":"2019-11-26 14"},"coordinates":[1530,6819]},{"type":"Point","properties":{"Station_ID":"WORV1","Station_Nam":"WORCESTER 2 W","Latitude":"44.37470","Longitude":"-72.58220","Snowdepth":"1.000","Units":"in","Rept_Date":"2019-11-26 12"},"coordinates":[7770,5425]},{"type":"Point","properties":{"Station_ID":"WNDP1","Station_Nam":"WINDBER COUNTY CLUB","Latitude":"40.28780","Longitude":"-78.77530","Snowdepth":"1.000","Units":"in","Rept_Date":"2019-11-26 12"},"coordinates":[5818,2882]},{"type":"Point","properties":{"Station_ID":"WNBM5","Station_Nam":"DAM","Latitude":"47.43060","Longitude":"-94.05000","Snowdepth":"1.000","Units":"in","Rept_Date":"2019-11-26 14"},"coordinates":[1005,7326]},{"type":"Point","properties":{"Station_ID":"WI-BY-2","Station_Nam":"MELLEN 18.6 SW, WI","Latitude":"46.16937","Longitude":"-90.98090","Snowdepth":"1.000","Units":"in","Rept_Date":"2019-11-26 13"},"coordinates":[1972,6541]},{"type":"Point","properties":{"Station_ID":"WENN3","Station_Nam":"P.O. BOX 197 WENTWORTH, NH","Latitude":"43.95190","Longitude":"-71.91560","Snowdepth":"1.000","Units":"in","Rept_Date":"2019-11-26 12"},"coordinates":[7980,5162]},{"type":"Point","properties":{"Station_ID":"TOPM1","Station_Nam":"TOPSFIELD","Latitude":"45.43470","Longitude":"-67.72020","Snowdepth":"1.000","Units":"in","Rept_Date":"2019-11-26 12"},"coordinates":[9302,6084]},{"type":"Point","properties":{"Station_ID":"SAUW3","Station_Nam":"WAUSAU WSAW TV","Latitude":"44.94630","Longitude":"-89.62220","Snowdepth":"1.000","Units":"in","Rept_Date":"2019-11-27 06"},"coordinates":[2400,5781]},{"type":"Point","properties":{"Station_ID":"RUTV1","Station_Nam":"RUTLAND","Latitude":"43.62530","Longitude":"-72.97810","Snowdepth":"1.000","Units":"in","Rept_Date":"2019-11-26 12"},"coordinates":[7645,4959]},{"type":"Point","properties":{"Station_ID":"ROWM3","Station_Nam":"ROWE 3NE","Latitude":"42.73500","Longitude":"-72.86920","Snowdepth":"1.000","Units":"in","Rept_Date":"2019-11-26 12"},"coordinates":[7679,4405]},{"type":"Point","properties":{"Station_ID":"RLKW3","Station_Nam":"REST LAKE","Latitude":"46.12220","Longitude":"-89.87720","Snowdepth":"1.000","Units":"in","Rept_Date":"2019-11-26 14"},"coordinates":[2320,6512]},{"type":"Point","properties":{"Station_ID":"RHRW3","Station_Nam":"RHINELANDER WJFW TV-12","Latitude":"45.62220","Longitude":"-89.41000","Snowdepth":"1.000","Units":"in","Rept_Date":"2019-11-27 04"},"coordinates":[2467,6201]},{"type":"Point","properties":{"Station_ID":"PKGM5","Station_Nam":"POKEGANA LK DAM","Latitude":"47.25080","Longitude":"-93.58610","Snowdepth":"1.000","Units":"in","Rept_Date":"2019-11-26 14"},"coordinates":[1151,7214]},{"type":"Point","properties":{"Station_ID":"PERV1","Station_Nam":"PERU","Latitude":"43.26670","Longitude":"-72.90000","Snowdepth":"1.000","Units":"in","Rept_Date":"2019-11-26 12"},"coordinates":[7669,4736]},{"type":"Point","properties":{"Station_ID":"PEKN6","Station_Nam":"PECK LAKE","Latitude":"43.11500","Longitude":"-74.42360","Snowdepth":"1.000","Units":"in","Rept_Date":"2019-11-26 12"},"coordinates":[7189,4641]},{"type":"Point","properties":{"Station_ID":"NY-WS-8","Station_Nam":"GRANVILLE 9.5 SW, NY","Latitude":"43.31163","Longitude":"-73.39613","Snowdepth":"1.000","Units":"in","Rept_Date":"2019-11-26 12"},"coordinates":[7513,4764]},{"type":"Point","properties":{"Station_ID":"NY-DL-32","Station_Nam":"DELHI 6.6 WNW, NY","Latitude":"42.32118","Longitude":"-75.02991","Snowdepth":"1.000","Units":"in","Rept_Date":"2019-11-26 12"},"coordinates":[6998,4147]},{"type":"Point","properties":{"Station_ID":"NWSM1","Station_Nam":"NEW SHARON","Latitude":"44.63520","Longitude":"-70.00020","Snowdepth":"1.000","Units":"in","Rept_Date":"2019-11-26 12"},"coordinates":[8583,5587]},{"type":"Point","properties":{"Station_ID":"NH-MR-41","Station_Nam":"NEWBURY 1.6 NW, NH","Latitude":"43.33667","Longitude":"-72.06060","Snowdepth":"1.000","Units":"in","Rept_Date":"2019-11-26 12"},"coordinates":[7934,4779]},{"type":"Point","properties":{"Station_ID":"NH-CR-11","Station_Nam":"NORTH CONWAY 1.4 SSW, NH","Latitude":"44.03556","Longitude":"-71.14010","Snowdepth":"1.000","Units":"in","Rept_Date":"2019-11-26 12"},"coordinates":[8224,5214]},{"type":"Point","properties":{"Station_ID":"NESN1","Station_Nam":"CONCORD","Latitude":"42.38440","Longitude":"-96.98830","Snowdepth":"1.000","Units":"in","Rept_Date":"2019-11-26 23"},"coordinates":[79,4187]},{"type":"Point","properties":{"Station_ID":"MTLT1","Station_Nam":"GATLINBURG,TN","Latitude":"35.65500","Longitude":"-83.44110","Snowdepth":"1.000","Units":"in","Rept_Date":"2019-11-26 13"},"coordinates":[4348,0]},{"type":"Point","properties":{"Station_ID":"MQT","Station_Nam":"MARQUETTE, MI","Latitude":"46.53140","Longitude":"-87.54920","Snowdepth":"1.000","Units":"in","Rept_Date":"2019-11-27 06"},"coordinates":[3053,6767]},{"type":"Point","properties":{"Station_ID":"MOOM5","Station_Nam":"MOOSE LAKE,MN","Latitude":"46.45000","Longitude":"-92.75780","Snowdepth":"1.000","Units":"in","Rept_Date":"2019-11-27 06"},"coordinates":[1412,6716]},{"type":"Point","properties":{"Station_ID":"MN6J45LB","Station_Nam":"LUTSEN 4.1 WSW","Latitude":"47.62292","Longitude":"-90.75546","Snowdepth":"1.000","Units":"in","Rept_Date":"2019-11-26 13"},"coordinates":[2043,7446]},{"type":"Point","properties":{"Station_ID":"MN-CK-3","Station_Nam":"TOFTE 4.9 NE, MN","Latitude":"47.62394","Longitude":"-90.76100","Snowdepth":"1.000","Units":"in","Rept_Date":"2019-11-26 13"},"coordinates":[2041,7446]},{"type":"Point","properties":{"Station_ID":"MIEM4","Station_Nam":"MICHIGAMME 3WNW","Latitude":"46.54530","Longitude":"-88.18000","Snowdepth":"1.000","Units":"in","Rept_Date":"2019-11-26 13"},"coordinates":[2854,6775]},{"type":"Point","properties":{"Station_ID":"LVDW3","Station_Nam":"LAC VIEUX DESERT","Latitude":"46.12110","Longitude":"-89.07580","Snowdepth":"1.000","Units":"in","Rept_Date":"2019-11-26 15"},"coordinates":[2572,6511]},{"type":"Point","properties":{"Station_ID":"LNCM1","Station_Nam":"LINCOLN WATER DISTRICT","Latitude":"45.32410","Longitude":"-68.58300","Snowdepth":"1.000","Units":"in","Rept_Date":"2019-11-26 13"},"coordinates":[9030,6016]},{"type":"Point","properties":{"Station_ID":"HANN3","Station_Nam":"HANOVER","Latitude":"43.70520","Longitude":"-72.28550","Snowdepth":"1.000","Units":"in","Rept_Date":"2019-11-26 20"},"coordinates":[7863,5008]},{"type":"Point","properties":{"Station_ID":"GRBM5","Station_Nam":"GRAND RAPIDS 12N","Latitude":"47.39800","Longitude":"-93.51330","Snowdepth":"1.000","Units":"in","Rept_Date":"2019-11-26 13"},"coordinates":[1174,7306]},{"type":"Point","properties":{"Station_ID":"DLHM5","Station_Nam":"DULUTH NWS","Latitude":"46.83680","Longitude":"-92.21080","Snowdepth":"1.000","Units":"in","Rept_Date":"2019-11-27 06"},"coordinates":[1584,6957]},{"type":"Point","properties":{"Station_ID":"DFXM1","Station_Nam":"DOVER-FOXCROFT","Latitude":"45.18720","Longitude":"-69.18350","Snowdepth":"1.000","Units":"in","Rept_Date":"2019-11-26 12"},"coordinates":[8840,5930]},{"type":"Point","properties":{"Station_ID":"COTM5","Station_Nam":"COTTON","Latitude":"47.16870","Longitude":"-92.46290","Snowdepth":"1.000","Units":"in","Rept_Date":"2019-11-26 13"},"coordinates":[1505,7163]},{"type":"Point","properties":{"Station_ID":"CORM1","Station_Nam":"CORINNA","Latitude":"44.91980","Longitude":"-69.24180","Snowdepth":"1.000","Units":"in","Rept_Date":"2019-11-26 13"},"coordinates":[8822,5764]},{"type":"Point","properties":{"Station_ID":"CMKW3","Station_Nam":"CLAM LAKE 4W","Latitude":"46.16940","Longitude":"-90.98080","Snowdepth":"1.000","Units":"in","Rept_Date":"2019-11-26 13"},"coordinates":[1972,6541]},{"type":"Point","properties":{"Station_ID":"BTLN3","Station_Nam":"BARTLETT","Latitude":"44.08380","Longitude":"-71.29340","Snowdepth":"1.000","Units":"in","Rept_Date":"2019-11-26 12"},"coordinates":[8176,5244]},{"type":"Point","properties":{"Station_ID":"ARX","Station_Nam":"LA CROSSE, WI","Latitude":"43.82280","Longitude":"-91.19190","Snowdepth":"1.000","Units":"in","Rept_Date":"2019-11-27 06"},"coordinates":[1905,5082]}]}},"arcs":[],"transform":{"scale":[0.0031734873487348735,0.0016073507350735073],"translate":[-97.2386,35.655]}}