{"type":"Topology","objects":{"snowdepth_geo":{"type":"GeometryCollection","name":"snowdepth","crs":{"type":"name","properties":{"name":"urn:ogc:def:crs:OGC:1.3:CRS84"}},"geometries":[{"type":"Point","properties":{"Station_ID":"PRKM4","Station_Nam":"MUNISING EAST","Latitude":"46.42580","Longitude":"-86.62000","Snowdepth":"76.500","Units":"in","Rept_Date":"2021-01-30 06"},"coordinates":[2492,6710]},{"type":"Point","properties":{"Station_ID":"MMNV1","Station_Nam":"MT. MANSFIELD","Latitude":"44.52480","Longitude":"-72.81540","Snowdepth":"36.000","Units":"in","Rept_Date":"2021-01-29 21"},"coordinates":[5732,5531]},{"type":"Point","properties":{"Station_ID":"HTLN3","Station_Nam":"HERMIT LAKE SNOWPLOT","Latitude":"44.26130","Longitude":"-71.28330","Snowdepth":"36.000","Units":"in","Rept_Date":"2021-01-29 10"},"coordinates":[6092,5367]},{"type":"Point","properties":{"Station_ID":"RDFN6","Station_Nam":"REDFIELD 8N","Latitude":"43.64130","Longitude":"-75.88400","Snowdepth":"34.000","Units":"in","Rept_Date":"2021-01-29 12"},"coordinates":[5012,4982]},{"type":"Point","properties":{"Station_ID":"HGHN6","Station_Nam":"HIGHMARKET","Latitude":"43.60510","Longitude":"-75.55430","Snowdepth":"34.000","Units":"in","Rept_Date":"2021-01-29 11"},"coordinates":[5089,4960]},{"type":"Point","properties":{"Station_ID":"HLSN3","Station_Nam":"HERMIT LAKE SNOTEL","Latitude":"44.26130","Longitude":"-71.28320","Snowdepth":"31.460","Units":"in","Rept_Date":"2021-01-30 06"},"coordinates":[6092,5367]},{"type":"Point","properties":{"Station_ID":"PDLM4","Station_Nam":"PAINESDALE","Latitude":"47.04160","Longitude":"-88.67170","Snowdepth":"28.000","Units":"in","Rept_Date":"2021-01-29 13"},"coordinates":[2011,7092]},{"type":"Point","properties":{"Station_ID":"VT-WR-17","Station_Nam":"ROCHESTER 2.3 NE, VT","Latitude":"43.89418","Longitude":"-72.76992","Snowdepth":"26.500","Units":"in","Rept_Date":"2021-01-29 12"},"coordinates":[5743,5139]},{"type":"Point","properties":{"Station_ID":"KSGM4","Station_Nam":"KEARSARGE","Latitude":"47.27520","Longitude":"-88.41700","Snowdepth":"24.000","Units":"in","Rept_Date":"2021-01-29 13"},"coordinates":[2070,7237]},{"type":"Point","properties":{"Station_ID":"CLUM4","Station_Nam":"CALUMET-TAMARACK","Latitude":"47.24550","Longitude":"-88.46790","Snowdepth":"24.000","Units":"in","Rept_Date":"2021-01-29 14"},"coordinates":[2058,7219]},{"type":"Point","properties":{"Station_ID":"PTLQ6","Station_Nam":"PORTAGE LAKE","Latitude":"49.06950","Longitude":"-86.65940","Snowdepth":"23.820","Units":"in","Rept_Date":"2021-01-30 06"},"coordinates":[2483,8350]},{"type":"Point","properties":{"Station_ID":"NH-CS-10","Station_Nam":"RANDOLPH 1.4 NE, NH","Latitude":"44.38824","Longitude":"-71.26950","Snowdepth":"23.500","Units":"in","Rept_Date":"2021-01-29 12"},"coordinates":[6095,5446]},{"type":"Point","properties":{"Station_ID":"TRIQ6","Station_Nam":"TRIO LAKE","Latitude":"49.22880","Longitude":"-87.22920","Snowdepth":"23.390","Units":"in","Rept_Date":"2021-01-30 06"},"coordinates":[2349,8449]},{"type":"Point","properties":{"Station_ID":"QLB","Station_Nam":"QLB","Latitude":"50.72360","Longitude":"-75.10000","Snowdepth":"23.071","Units":"in","Rept_Date":"2021-01-29 12"},"coordinates":[5196,9377]},{"type":"Point","properties":{"Station_ID":"VT-BN-12","Station_Nam":"STAMFORD 5.0 NNE, VT","Latitude":"42.82000","Longitude":"-73.02000","Snowdepth":"23.000","Units":"in","Rept_Date":"2021-01-29 21"},"coordinates":[5684,4473]},{"type":"Point","properties":{"Station_ID":"LBKV1","Station_Nam":"LYE BROOK","Latitude":"43.05000","Longitude":"-73.03330","Snowdepth":"23.000","Units":"in","Rept_Date":"2021-01-30 06"},"coordinates":[5681,4616]},{"type":"Point","properties":{"Station_ID":"NY-HR-18","Station_Nam":"SALISBURY CENTER 1.8 NW, NY","Latitude":"43.16260","Longitude":"-74.80880","Snowdepth":"22.800","Units":"in","Rept_Date":"2021-01-29 11"},"coordinates":[5264,4685]},{"type":"Point","properties":{"Station_ID":"QGO","Station_Nam":"QGO","Latitude":"48.85500","Longitude":"-74.20640","Snowdepth":"22.480","Units":"in","Rept_Date":"2021-01-29 12"},"coordinates":[5405,8217]},{"type":"Point","properties":{"Station_ID":"OCON6","Station_Nam":"OSCEOLA","Latitude":"43.50370","Longitude":"-75.72170","Snowdepth":"22.000","Units":"in","Rept_Date":"2021-01-29 13"},"coordinates":[5050,4897]},{"type":"Point","properties":{"Station_ID":"AUDQ6","Station_Nam":"AUDEN","Latitude":"48.52600","Longitude":"-82.57570","Snowdepth":"21.850","Units":"in","Rept_Date":"2021-01-30 06"},"coordinates":[3441,8013]},{"type":"Point","properties":{"Station_ID":"DVLQ6","Station_Nam":"DEVIOUS LAKE","Latitude":"49.19890","Longitude":"-87.76440","Snowdepth":"21.810","Units":"in","Rept_Date":"2021-01-30 06"},"coordinates":[2224,8431]},{"type":"Point","properties":{"Station_ID":"VT-BN-3","Station_Nam":"LANDGROVE 1.1 NNE, VT","Latitude":"43.29092","Longitude":"-72.83260","Snowdepth":"21.000","Units":"in","Rept_Date":"2021-01-29 12"},"coordinates":[5728,4765]},{"type":"Point","properties":{"Station_ID":"NY-LW-12","Station_Nam":"CHASES LAKE COOP, NY","Latitude":"43.75924","Longitude":"-75.29982","Snowdepth":"21.000","Units":"in","Rept_Date":"2021-01-29 11"},"coordinates":[5149,5056]},{"type":"Point","properties":{"Station_ID":"GFDN6","Station_Nam":"CHASES LAKE","Latitude":"43.75920","Longitude":"-75.29980","Snowdepth":"21.000","Units":"in","Rept_Date":"2021-01-29 11"},"coordinates":[5149,5056]},{"type":"Point","properties":{"Station_ID":"QCO","Station_Nam":"QCO","Latitude":"51.45280","Longitude":"-72.20110","Snowdepth":"20.866","Units":"in","Rept_Date":"2021-01-29 12"},"coordinates":[5876,9829]},{"type":"Point","properties":{"Station_ID":"ROWM3","Station_Nam":"ROWE 3NE","Latitude":"42.73500","Longitude":"-72.86920","Snowdepth":"20.000","Units":"in","Rept_Date":"2021-01-29 12"},"coordinates":[5719,4420]},{"type":"Point","properties":{"Station_ID":"MWN","Station_Nam":"MOUNT WASHINGTON","Latitude":"44.26670","Longitude":"-71.30000","Snowdepth":"20.000","Units":"in","Rept_Date":"2021-01-29 12"},"coordinates":[6088,5370]},{"type":"Point","properties":{"Station_ID":"KMWN","Station_Nam":"MOUNT WASHINGTON","Latitude":"44.26666","Longitude":"-71.30000","Snowdepth":"20.000","Units":"in","Rept_Date":"2021-01-30 06"},"coordinates":[6088,5370]},{"type":"Point","properties":{"Station_ID":"CAN-ON-245","Station_Nam":"PHELPSTON 3.1 ESE, CAN","Latitude":"44.50564","Longitude":"-79.81035","Snowdepth":"20.000","Units":"in","Rept_Date":"2021-01-29 14"},"coordinates":[4090,5519]},{"type":"Point","properties":{"Station_ID":"QFT","Station_Nam":"QFT","Latitude":"50.83280","Longitude":"-74.40390","Snowdepth":"19.764","Units":"in","Rept_Date":"2021-01-29 12"},"coordinates":[5359,9444]},{"type":"Point","properties":{"Station_ID":"MI-HG-20","Station_Nam":"CALUMET 1.1 SSW, MI","Latitude":"47.23165","Longitude":"-88.45823","Snowdepth":"19.500","Units":"in","Rept_Date":"2021-01-29 11"},"coordinates":[2061,7210]},{"type":"Point","properties":{"Station_ID":"QNCM4","Station_Nam":"QUINCY HILL","Latitude":"47.13640","Longitude":"-88.57950","Snowdepth":"19.000","Units":"in","Rept_Date":"2021-01-29 12"},"coordinates":[2032,7151]},{"type":"Point","properties":{"Station_ID":"NY-HM-1","Station_Nam":"SPECULATOR 10.0 SSW, NY","Latitude":"43.45133","Longitude":"-74.47120","Snowdepth":"19.000","Units":"in","Rept_Date":"2021-01-29 12"},"coordinates":[5343,4865]},{"type":"Point","properties":{"Station_ID":"NCBN6","Station_Nam":"NEWCOMB","Latitude":"43.97070","Longitude":"-74.22200","Snowdepth":"19.000","Units":"in","Rept_Date":"2021-01-29 12"},"coordinates":[5402,5187]},{"type":"Point","properties":{"Station_ID":"GNLM4","Station_Nam":"GREENLAND 6N","Latitude":"46.87360","Longitude":"-89.10060","Snowdepth":"19.000","Units":"in","Rept_Date":"2021-01-29 13"},"coordinates":[1910,6988]},{"type":"Point","properties":{"Station_ID":"BOON6","Station_Nam":"BOONVILLE 4 SSW","Latitude":"43.43610","Longitude":"-75.36970","Snowdepth":"19.000","Units":"in","Rept_Date":"2021-01-29 12"},"coordinates":[5132,4855]},{"type":"Point","properties":{"Station_ID":"QTM","Station_Nam":"QTM","Latitude":"51.05780","Longitude":"-72.57190","Snowdepth":"18.701","Units":"in","Rept_Date":"2021-01-29 12"},"coordinates":[5789,9584]},{"type":"Point","properties":{"Station_ID":"NY-ER-166","Station_Nam":"BOSTON 2.5 NE, NY","Latitude":"42.65480","Longitude":"-78.70300","Snowdepth":"18.500","Units":"in","Rept_Date":"2021-01-29 12"},"coordinates":[4350,4370]},{"type":"Point","properties":{"Station_ID":"QOU","Station_Nam":"QOU","Latitude":"50.79250","Longitude":"-69.67470","Snowdepth":"18.189","Units":"in","Rept_Date":"2021-01-29 12"},"coordinates":[6469,9419]},{"type":"Point","properties":{"Station_ID":"NY-ER-65","Station_Nam":"BOSTON 1.5 NE, NY","Latitude":"42.65470","Longitude":"-78.72010","Snowdepth":"18.000","Units":"in","Rept_Date":"2021-01-29 12"},"coordinates":[4346,4370]},{"type":"Point","properties":{"Station_ID":"IWOM4","Station_Nam":"IRONWOOD#2","Latitude":"46.46520","Longitude":"-90.13820","Snowdepth":"18.000","Units":"in","Rept_Date":"2021-01-29 13"},"coordinates":[1666,6734]},{"type":"Point","properties":{"Station_ID":"NY-OD-2","Station_Nam":"POINT ROCK 0.6 SE, NY","Latitude":"43.37335","Longitude":"-75.53840","Snowdepth":"17.500","Units":"in","Rept_Date":"2021-01-29 13"},"coordinates":[5093,4816]},{"type":"Point","properties":{"Station_ID":"NY-ER-56","Station_Nam":"COLDEN 1.4 NNW, NY","Latitude":"42.64740","Longitude":"-78.71120","Snowdepth":"17.500","Units":"in","Rept_Date":"2021-01-29 12"},"coordinates":[4348,4366]},{"type":"Point","properties":{"Station_ID":"SGVN6","Station_Nam":"SPRINGVILLE","Latitude":"42.54970","Longitude":"-78.57670","Snowdepth":"17.000","Units":"in","Rept_Date":"2021-01-30 01"},"coordinates":[4380,4305]},{"type":"Point","properties":{"Station_ID":"NY-HM-10","Station_Nam":"LAKE PLEASANT 2.3 WSW, NY","Latitude":"43.45490","Longitude":"-74.45287","Snowdepth":"17.000","Units":"in","Rept_Date":"2021-01-29 12"},"coordinates":[5348,4867]},{"type":"Point","properties":{"Station_ID":"MONW3","Station_Nam":"MONROE,WI","Latitude":"42.60000","Longitude":"-89.66670","Snowdepth":"17.000","Units":"in","Rept_Date":"2021-01-29 13"},"coordinates":[1777,4336]},{"type":"Point","properties":{"Station_ID":"MNSM4","Station_Nam":"MUNISING","Latitude":"46.41210","Longitude":"-86.66250","Snowdepth":"17.000","Units":"in","Rept_Date":"2021-01-29 11"},"coordinates":[2482,6702]},{"type":"Point","properties":{"Station_ID":"LPLN6","Station_Nam":"LAKE PLACID 2 S","Latitude":"44.30420","Longitude":"-73.98390","Snowdepth":"17.000","Units":"in","Rept_Date":"2021-01-29 13"},"coordinates":[5458,5394]},{"type":"Point","properties":{"Station_ID":"HURW3","Station_Nam":"HURLEY","Latitude":"46.46250","Longitude":"-90.19550","Snowdepth":"17.000","Units":"in","Rept_Date":"2021-01-29 14"},"coordinates":[1653,6733]},{"type":"Point","properties":{"Station_ID":"EHYM3","Station_Nam":"EAST HAWLEY","Latitude":"42.57410","Longitude":"-72.86790","Snowdepth":"17.000","Units":"in","Rept_Date":"2021-01-29 13"},"coordinates":[5720,4320]},{"type":"Point","properties":{"Station_ID":"CODN6","Station_Nam":"COLDEN","Latitude":"42.64720","Longitude":"-78.71110","Snowdepth":"17.000","Units":"in","Rept_Date":"2021-01-29 12"},"coordinates":[4348,4366]},{"type":"Point","properties":{"Station_ID":"VT-WS-33","Station_Nam":"WAITSFIELD 3.5 WNW, VT","Latitude":"44.20052","Longitude":"-72.89421","Snowdepth":"16.500","Units":"in","Rept_Date":"2021-01-29 12"},"coordinates":[5713,5329]},{"type":"Point","properties":{"Station_ID":"NY-FK-9","Station_Nam":"GABRIELS 1.3 SE, NY","Latitude":"44.41934","Longitude":"-74.16194","Snowdepth":"16.500","Units":"in","Rept_Date":"2021-01-29 12"},"coordinates":[5416,5465]},{"type":"Point","properties":{"Station_ID":"OGIQ6","Station_Nam":"OGOKI CAMP","Latitude":"50.76680","Longitude":"-87.85820","Snowdepth":"16.340","Units":"in","Rept_Date":"2021-01-30 06"},"coordinates":[2202,9403]},{"type":"Point","properties":{"Station_ID":"WHFN6","Station_Nam":"WILMINGTON 2W","Latitude":"44.39310","Longitude":"-73.85890","Snowdepth":"16.000","Units":"in","Rept_Date":"2021-01-29 13"},"coordinates":[5487,5449]},{"type":"Point","properties":{"Station_ID":"VT-WR-2","Station_Nam":"POMFRET 2.6 N, VT","Latitude":"43.74230","Longitude":"-72.52550","Snowdepth":"16.000","Units":"in","Rept_Date":"2021-01-29 12"},"coordinates":[5800,5045]},{"type":"Point","properties":{"Station_ID":"VT-WH-19","Station_Nam":"EAST DOVER 1.8 N, VT","Latitude":"42.97658","Longitude":"-72.77637","Snowdepth":"16.000","Units":"in","Rept_Date":"2021-01-29 12"},"coordinates":[5741,4570]},{"type":"Point","properties":{"Station_ID":"VT-OL-1","Station_Nam":"WESTFIELD 0.7 WNW, VT","Latitude":"44.89160","Longitude":"-72.44350","Snowdepth":"16.000","Units":"in","Rept_Date":"2021-01-29 12"},"coordinates":[5819,5758]},{"type":"Point","properties":{"Station_ID":"TOPN6","Station_Nam":"TUPPER LAKE SUNMOUNT","Latitude":"44.23070","Longitude":"-74.43820","Snowdepth":"16.000","Units":"in","Rept_Date":"2021-01-29 12"},"coordinates":[5351,5348]},{"type":"Point","properties":{"Station_ID":"STOW3","Station_Nam":"STOUGHTON,WI","Latitude":"42.91670","Longitude":"-89.21670","Snowdepth":"16.000","Units":"in","Rept_Date":"2021-01-29 13"},"coordinates":[1883,4533]},{"type":"Point","properties":{"Station_ID":"PTBN3","Station_Nam":"PITTSBURG RESERVOIR","Latitude":"45.04690","Longitude":"-71.38300","Snowdepth":"16.000","Units":"in","Rept_Date":"2021-01-29 12"},"coordinates":[6068,5854]},{"type":"Point","properties":{"Station_ID":"PEKN6","Station_Nam":"PECK LAKE","Latitude":"43.11500","Longitude":"-74.42360","Snowdepth":"16.000","Units":"in","Rept_Date":"2021-01-29 12"},"coordinates":[5355,4656]},{"type":"Point","properties":{"Station_ID":"NY-ES-6","Station_Nam":"OLMSTEDVILLE 4.6 NNE, NY","Latitude":"43.83350","Longitude":"-73.89780","Snowdepth":"16.000","Units":"in","Rept_Date":"2021-01-29 13"},"coordinates":[5478,5102]},{"type":"Point","properties":{"Station_ID":"KABM5","Station_Nam":"KABETOGAMA LAKE VISITOR CTR","Latitude":"48.40880","Longitude":"-93.04840","Snowdepth":"16.000","Units":"in","Rept_Date":"2021-01-29 13"},"coordinates":[983,7940]},{"type":"Point","properties":{"Station_ID":"HERM4","Station_Nam":"HERMAN,MI","Latitude":"46.65000","Longitude":"-88.33330","Snowdepth":"16.000","Units":"in","Rept_Date":"2021-01-29 13"},"coordinates":[2090,6849]},{"type":"Point","properties":{"Station_ID":"CLQM5","Station_Nam":"CLOQUET","Latitude":"46.70470","Longitude":"-92.52530","Snowdepth":"16.000","Units":"in","Rept_Date":"2021-01-29 14"},"coordinates":[1106,6883]},{"type":"Point","properties":{"Station_ID":"BERM4","Station_Nam":"BERGLAND DAM","Latitude":"46.58690","Longitude":"-89.54750","Snowdepth":"16.000","Units":"in","Rept_Date":"2021-01-29 13"},"coordinates":[1805,6810]},{"type":"Point","properties":{"Station_ID":"BBEM4","Station_Nam":"BIG BAY 9SW","Latitude":"46.74620","Longitude":"-87.88160","Snowdepth":"16.000","Units":"in","Rept_Date":"2021-01-29 13"},"coordinates":[2196,6909]},{"type":"Point","properties":{"Station_ID":"AVLV1","Station_Nam":"AVERILL","Latitude":"45.00570","Longitude":"-71.69030","Snowdepth":"16.000","Units":"in","Rept_Date":"2021-01-29 13"},"coordinates":[5996,5829]},{"type":"Point","properties":{"Station_ID":"QWE","Station_Nam":"QWE","Latitude":"47.84610","Longitude":"-73.80670","Snowdepth":"15.709","Units":"in","Rept_Date":"2021-01-29 12"},"coordinates":[5499,7591]},{"type":"Point","properties":{"Station_ID":"WI-IW-3","Station_Nam":"MINERAL POINT 7.3 ENE, WI","Latitude":"42.91400","Longitude":"-90.05700","Snowdepth":"15.500","Units":"in","Rept_Date":"2021-01-29 13"},"coordinates":[1685,4531]},{"type":"Point","properties":{"Station_ID":"IA-SH-6","Station_Nam":"KIRKMAN 1.0 SE, IA","Latitude":"41.71810","Longitude":"-95.25310","Snowdepth":"15.500","Units":"in","Rept_Date":"2021-01-29 13"},"coordinates":[466,3789]},{"type":"Point","properties":{"Station_ID":"CAN-QC-51","Station_Nam":"BELOEIL 0.7 NW, CAN","Latitude":"45.58049","Longitude":"-73.21218","Snowdepth":"15.400","Units":"in","Rept_Date":"2021-01-29 12"},"coordinates":[5639,6186]},{"type":"Point","properties":{"Station_ID":"SOCQ6","Station_Nam":"SOCKET LAKE","Latitude":"50.77870","Longitude":"-91.79300","Snowdepth":"15.200","Units":"in","Rept_Date":"2021-01-30 06"},"coordinates":[1278,9411]},{"type":"Point","properties":{"Station_ID":"MI-BG-3","Station_Nam":"THREE LAKES, MI","Latitude":"46.55730","Longitude":"-88.20770","Snowdepth":"15.200","Units":"in","Rept_Date":"2021-01-29 13"},"coordinates":[2119,6792]},{"type":"Point","properties":{"Station_ID":"KABQ6","Station_Nam":"CAB LAKE","Latitude":"49.59950","Longitude":"-89.17990","Snowdepth":"15.160","Units":"in","Rept_Date":"2021-01-30 06"},"coordinates":[1891,8679]},{"type":"Point","properties":{"Station_ID":"WRSN6","Station_Nam":"WARSAW 6SW","Latitude":"42.68550","Longitude":"-78.22020","Snowdepth":"15.000","Units":"in","Rept_Date":"2021-01-29 12"},"coordinates":[4463,4389]},{"type":"Point","properties":{"Station_ID":"WLFM5","Station_Nam":"WOLF RIDGE ENVIRON LEARNING CENTER","Latitude":"47.38240","Longitude":"-91.19730","Snowdepth":"15.000","Units":"in","Rept_Date":"2021-01-29 13"},"coordinates":[1418,7304]},{"type":"Point","properties":{"Station_ID":"WAIV1","Station_Nam":"WAITSFIELD","Latitude":"44.17560","Longitude":"-72.79610","Snowdepth":"15.000","Units":"in","Rept_Date":"2021-01-29 12"},"coordinates":[5736,5314]},{"type":"Point","properties":{"Station_ID":"VT-WS-30","Station_Nam":"WOODBURY 3.4 NNW, VT","Latitude":"44.48825","Longitude":"-72.43258","Snowdepth":"15.000","Units":"in","Rept_Date":"2021-01-29 12"},"coordinates":[5822,5508]},{"type":"Point","properties":{"Station_ID":"VT-WS-11","Station_Nam":"WAITSFIELD 1.8 SE, VT","Latitude":"44.17551","Longitude":"-72.79540","Snowdepth":"15.000","Units":"in","Rept_Date":"2021-01-29 12"},"coordinates":[5737,5314]},{"type":"Point","properties":{"Station_ID":"VT-WH-30","Station_Nam":"MARLBORO 2.0 NNE, VT","Latitude":"42.88484","Longitude":"-72.70935","Snowdepth":"15.000","Units":"in","Rept_Date":"2021-01-29 12"},"coordinates":[5757,4513]},{"type":"Point","properties":{"Station_ID":"RANM1","Station_Nam":"RANGELEY","Latitude":"44.98910","Longitude":"-70.67190","Snowdepth":"15.000","Units":"in","Rept_Date":"2021-01-29 11"},"coordinates":[6235,5819]},{"type":"Point","properties":{"Station_ID":"NY-SR-22","Station_Nam":"GREENFIELD CENTER 1.6 W, NY","Latitude":"43.12684","Longitude":"-73.87860","Snowdepth":"15.000","Units":"in","Rept_Date":"2021-01-29 12"},"coordinates":[5482,4663]},{"type":"Point","properties":{"Station_ID":"NY-ER-63","Station_Nam":"GLENWOOD 1.5 SE, NY","Latitude":"42.60195","Longitude":"-78.63910","Snowdepth":"15.000","Units":"in","Rept_Date":"2021-01-29 13"},"coordinates":[4365,4338]},{"type":"Point","properties":{"Station_ID":"NY-ER-194","Station_Nam":"GLENWOOD 1.0 SE, NY","Latitude":"42.60740","Longitude":"-78.64610","Snowdepth":"15.000","Units":"in","Rept_Date":"2021-01-29 12"},"coordinates":[4364,4341]},{"type":"Point","properties":{"Station_ID":"NH-CS-4","Station_Nam":"PITTSBURG 6.1 NE, NH","Latitude":"45.11060","Longitude":"-71.29760","Snowdepth":"15.000","Units":"in","Rept_Date":"2021-01-29 12"},"coordinates":[6088,5894]},{"type":"Point","properties":{"Station_ID":"MRLV1","Station_Nam":"MARLBORO","Latitude":"42.86000","Longitude":"-72.72000","Snowdepth":"15.000","Units":"in","Rept_Date":"2021-01-29 12"},"coordinates":[5754,4498]},{"type":"Point","properties":{"Station_ID":"MQT","Station_Nam":"MARQUETTE, MI","Latitude":"46.53140","Longitude":"-87.54920","Snowdepth":"15.000","Units":"in","Rept_Date":"2021-01-30 06"},"coordinates":[2274,6776]},{"type":"Point","properties":{"Station_ID":"JEFV1","Station_Nam":"JEFFERSONVILLE","Latitude":"44.58430","Longitude":"-72.78700","Snowdepth":"15.000","Units":"in","Rept_Date":"2021-01-29 12"},"coordinates":[5739,5567]},{"type":"Point","properties":{"Station_ID":"DGVW3","Station_Nam":"DODGEVILLE","Latitude":"42.96670","Longitude":"-90.11670","Snowdepth":"15.000","Units":"in","Rept_Date":"2021-01-29 13"},"coordinates":[1671,4564]},{"type":"Point","properties":{"Station_ID":"MLZ","Station_Nam":"MLZ","Latitude":"50.66170","Longitude":"-68.82360","Snowdepth":"14.961","Units":"in","Rept_Date":"2021-01-29 12"},"coordinates":[6669,9338]},{"type":"Point","properties":{"Station_ID":"NY-ER-195","Station_Nam":"SPRINGVILLE 0.4 NE, NY","Latitude":"42.51351","Longitude":"-78.66492","Snowdepth":"14.500","Units":"in","Rept_Date":"2021-01-30 05"},"coordinates":[4359,4283]},{"type":"Point","properties":{"Station_ID":"SVBQ6","Station_Nam":"SAVANT BASE","Latitude":"50.28730","Longitude":"-90.65670","Snowdepth":"14.490","Units":"in","Rept_Date":"2021-01-30 06"},"coordinates":[1545,9106]},{"type":"Point","properties":{"Station_ID":"CAN-MB-368","Station_Nam":"WHITESHELL 1.3 NE, CAN","Latitude":"49.74405","Longitude":"-95.19123","Snowdepth":"14.400","Units":"in","Rept_Date":"2021-01-29 14"},"coordinates":[481,8769]},{"type":"Point","properties":{"Station_ID":"QLI","Station_Nam":"QLI","Latitude":"50.27080","Longitude":"-73.92280","Snowdepth":"14.094","Units":"in","Rept_Date":"2021-01-29 12"},"coordinates":[5472,9096]},{"type":"Point","properties":{"Station_ID":"WORV1","Station_Nam":"WORCESTER 2 W","Latitude":"44.37470","Longitude":"-72.58220","Snowdepth":"14.000","Units":"in","Rept_Date":"2021-01-29 12"},"coordinates":[5787,5437]},{"type":"Point","properties":{"Station_ID":"WNDP1","Station_Nam":"WINDBER COUNTY CLUB","Latitude":"40.28780","Longitude":"-78.77530","Snowdepth":"14.000","Units":"in","Rept_Date":"2021-01-29 12"},"coordinates":[4333,2902]},{"type":"Point","properties":{"Station_ID":"VT-WS-23","Station_Nam":"CABOT 2.3 E, VT","Latitude":"44.39807","Longitude":"-72.26570","Snowdepth":"14.000","Units":"in","Rept_Date":"2021-01-29 12"},"coordinates":[5861,5452]},{"type":"Point","properties":{"Station_ID":"VT-WS-19","Station_Nam":"WATERBURY 3.0 NW, VT","Latitude":"44.36060","Longitude":"-72.80770","Snowdepth":"14.000","Units":"in","Rept_Date":"2021-01-29 11"},"coordinates":[5734,5429]},{"type":"Point","properties":{"Station_ID":"VT-WS-10","Station_Nam":"NORTHFIELD 1.5 N, VT","Latitude":"44.16986","Longitude":"-72.65200","Snowdepth":"14.000","Units":"in","Rept_Date":"2021-01-29 12"},"coordinates":[5770,5310]},{"type":"Point","properties":{"Station_ID":"VT-OL-2","Station_Nam":"BARTON 3.0 ENE, VT","Latitude":"44.75863","Longitude":"-72.11680","Snowdepth":"14.000","Units":"in","Rept_Date":"2021-01-29 12"},"coordinates":[5896,5676]},{"type":"Point","properties":{"Station_ID":"SSMM4","Station_Nam":"SAULT STE MARIE","Latitude":"46.48660","Longitude":"-84.40250","Snowdepth":"14.000","Units":"in","Rept_Date":"2021-01-29 13"},"coordinates":[3013,6748]},{"type":"Point","properties":{"Station_ID":"RGNM1","Station_Nam":"RANGELEY 2NW","Latitude":"44.98940","Longitude":"-70.67220","Snowdepth":"14.000","Units":"in","Rept_Date":"2021-01-29 11"},"coordinates":[6235,5819]},{"type":"Point","properties":{"Station_ID":"PRDM4","Station_Nam":"PARADISE","Latitude":"46.60380","Longitude":"-85.03960","Snowdepth":"14.000","Units":"in","Rept_Date":"2021-01-29 11"},"coordinates":[2863,6820]},{"type":"Point","properties":{"Station_ID":"NY-FK-7","Station_Nam":"SARANAC LAKE 6.2 N, NY","Latitude":"44.41359","Longitude":"-74.15211","Snowdepth":"14.000","Units":"in","Rept_Date":"2021-01-29 12"},"coordinates":[5418,5462]},{"type":"Point","properties":{"Station_ID":"NY-ES-11","Station_Nam":"VERMONTVILLE 2.8 S, NY","Latitude":"44.41205","Longitude":"-74.06760","Snowdepth":"14.000","Units":"in","Rept_Date":"2021-01-29 12"},"coordinates":[5438,5461]},{"type":"Point","properties":{"Station_ID":"NY-CL-12","Station_Nam":"SARANAC 0.8 SSE, NY","Latitude":"44.63980","Longitude":"-73.73848","Snowdepth":"14.000","Units":"in","Rept_Date":"2021-01-29 12"},"coordinates":[5515,5602]},{"type":"Point","properties":{"Station_ID":"NH-CS-19","Station_Nam":"CARROLL 4.6 NE, NH","Latitude":"44.33765","Longitude":"-71.46461","Snowdepth":"14.000","Units":"in","Rept_Date":"2021-01-29 12"},"coordinates":[6049,5414]},{"type":"Point","properties":{"Station_ID":"LANC007","Station_Nam":"DAVEY 1.2 NNW, NE","Latitude":"41.00320","Longitude":"-96.67630","Snowdepth":"14.000","Units":"in","Rept_Date":"2021-01-29 13"},"coordinates":[132,3346]},{"type":"Point","properties":{"Station_ID":"JOHV1","Station_Nam":"JOHNSON 2 N","Latitude":"44.65790","Longitude":"-72.67850","Snowdepth":"14.000","Units":"in","Rept_Date":"2021-01-29 12"},"coordinates":[5764,5613]},{"type":"Point","properties":{"Station_ID":"IRMM4","Station_Nam":"WWTP","Latitude":"46.46670","Longitude":"-90.18330","Snowdepth":"14.000","Units":"in","Rept_Date":"2021-01-29 13"},"coordinates":[1656,6735]},{"type":"Point","properties":{"Station_ID":"INDN6","Station_Nam":"INDIAN LAKE","Latitude":"43.75500","Longitude":"-74.27560","Snowdepth":"14.000","Units":"in","Rept_Date":"2021-01-29 13"},"coordinates":[5389,5053]},{"type":"Point","properties":{"Station_ID":"IA-PK-3","Station_Nam":"DES MOINES 4.5 WNW, IA","Latitude":"41.60663","Longitude":"-93.69560","Snowdepth":"14.000","Units":"in","Rept_Date":"2021-01-29 13"},"coordinates":[832,3720]},{"type":"Point","properties":{"Station_ID":"GTTI4","Station_Nam":"LOCK & DAM 10","Latitude":"42.78580","Longitude":"-91.09970","Snowdepth":"14.000","Units":"in","Rept_Date":"2021-01-29 14"},"coordinates":[1441,4452]},{"type":"Point","properties":{"Station_ID":"GTHI4","Station_Nam":"GUTHRIE CENTER,IA","Latitude":"41.68330","Longitude":"-94.50000","Snowdepth":"14.000","Units":"in","Rept_Date":"2021-01-29 14"},"coordinates":[643,3768]},{"type":"Point","properties":{"Station_ID":"CTEN1","Station_Nam":"DOANE COLLEGE","Latitude":"40.61670","Longitude":"-96.95000","Snowdepth":"14.000","Units":"in","Rept_Date":"2021-01-29 13"},"coordinates":[68,3106]},{"type":"Point","properties":{"Station_ID":"CLDI4","Station_Nam":"CLARINDA,IA","Latitude":"40.73330","Longitude":"-95.03330","Snowdepth":"14.000","Units":"in","Rept_Date":"2021-01-29 12"},"coordinates":[518,3178]},{"type":"Point","properties":{"Station_ID":"CAN-ON-42","Station_Nam":"VANKLEEK HILL 3.4 S, CA","Latitude":"45.48987","Longitude":"-74.64570","Snowdepth":"14.000","Units":"in","Rept_Date":"2021-01-29 12"},"coordinates":[5302,6129]},{"type":"Point","properties":{"Station_ID":"CAN-ON-342","Station_Nam":"LURGAN BEACH 1.4 NNE - LHCC, CAN","Latitude":"44.09777","Longitude":"-81.72765","Snowdepth":"13.800","Units":"in","Rept_Date":"2021-01-29 12"},"coordinates":[3640,5266]},{"type":"Point","properties":{"Station_ID":"WI-BY-14","Station_Nam":"ASHLAND 9.8 W, WI","Latitude":"46.59742","Longitude":"-91.07856","Snowdepth":"13.500","Units":"in","Rept_Date":"2021-01-29 12"},"coordinates":[1446,6816]},{"type":"Point","properties":{"Station_ID":"MA-HS-7","Station_Nam":"PLAINFIELD 2.2 SW, MA","Latitude":"42.49272","Longitude":"-72.94540","Snowdepth":"13.500","Units":"in","Rept_Date":"2021-01-29 13"},"coordinates":[5701,4270]},{"type":"Point","properties":{"Station_ID":"NE-SY-11","Station_Nam":"LA VISTA 2.0 WSW, NE","Latitude":"41.17702","Longitude":"-96.07571","Snowdepth":"13.400","Units":"in","Rept_Date":"2021-01-29 13"},"coordinates":[273,3453]},{"type":"Point","properties":{"Station_ID":"CAN-QC-57","Station_Nam":"ACTON VALE 1.3 N, CAN","Latitude":"45.65868","Longitude":"-72.56645","Snowdepth":"13.400","Units":"in","Rept_Date":"2021-01-29 13"},"coordinates":[5790,6234]},{"type":"Point","properties":{"Station_ID":"WSWN6","Station_Nam":"WARSAW","Latitude":"42.74220","Longitude":"-78.20850","Snowdepth":"13.000","Units":"in","Rept_Date":"2021-01-29 12"},"coordinates":[4466,4425]},{"type":"Point","properties":{"Station_ID":"WSFW3","Station_Nam":"TOWN OF WESTFORD","Latitude":"43.47190","Longitude":"-88.88250","Snowdepth":"13.000","Units":"in","Rept_Date":"2021-01-29 13"},"coordinates":[1961,4877]},{"type":"Point","properties":{"Station_ID":"WI-DD-16","Station_Nam":"BEAVER DAM 2.4 WNW, WI","Latitude":"43.47210","Longitude":"-88.88280","Snowdepth":"13.000","Units":"in","Rept_Date":"2021-01-29 13"},"coordinates":[1961,4877]},{"type":"Point","properties":{"Station_ID":"WELM5","Station_Nam":"WELLS","Latitude":"43.74680","Longitude":"-93.73680","Snowdepth":"13.000","Units":"in","Rept_Date":"2021-01-29 14"},"coordinates":[822,5048]},{"type":"Point","properties":{"Station_ID":"VT-ES-3","Station_Nam":"LUNENBURG 2.3 NNW, VT","Latitude":"44.49324","Longitude":"-71.70446","Snowdepth":"13.000","Units":"in","Rept_Date":"2021-01-29 12"},"coordinates":[5993,5511]},{"type":"Point","properties":{"Station_ID":"VT-AD-20","Station_Nam":"HANCOCK 0.3 S, VT","Latitude":"43.92166","Longitude":"-72.84042","Snowdepth":"13.000","Units":"in","Rept_Date":"2021-01-29 12"},"coordinates":[5726,5156]},{"type":"Point","properties":{"Station_ID":"TOGM5","Station_Nam":"CELINA 2E","Latitude":"47.86630","Longitude":"-93.02660","Snowdepth":"13.000","Units":"in","Rept_Date":"2021-01-29 15"},"coordinates":[989,7604]},{"type":"Point","properties":{"Station_ID":"SUTV1","Station_Nam":"SUTTON","Latitude":"44.61220","Longitude":"-72.04810","Snowdepth":"13.000","Units":"in","Rept_Date":"2021-01-29 13"},"coordinates":[5912,5585]},{"type":"Point","properties":{"Station_ID":"SLNV1","Station_Nam":"SOUTH LINCOLN","Latitude":"44.07460","Longitude":"-72.97180","Snowdepth":"13.000","Units":"in","Rept_Date":"2021-01-29 12"},"coordinates":[5695,5251]},{"type":"Point","properties":{"Station_ID":"RANI4","Station_Nam":"RANDOLPH,IA","Latitude":"40.86670","Longitude":"-95.56670","Snowdepth":"13.000","Units":"in","Rept_Date":"2021-01-29 14"},"coordinates":[392,3261]},{"type":"Point","properties":{"Station_ID":"NY-OG-12","Station_Nam":"CLAY 4.6 NW, NY","Latitude":"43.20000","Longitude":"-76.26000","Snowdepth":"13.000","Units":"in","Rept_Date":"2021-01-29 13"},"coordinates":[4924,4709]},{"type":"Point","properties":{"Station_ID":"NY-MD-10","Station_Nam":"CAZENOVIA 2.9 SE, NY","Latitude":"42.90003","Longitude":"-75.81140","Snowdepth":"13.000","Units":"in","Rept_Date":"2021-01-29 12"},"coordinates":[5029,4523]},{"type":"Point","properties":{"Station_ID":"NOHM5","Station_Nam":"NORTHOME","Latitude":"47.83590","Longitude":"-94.25550","Snowdepth":"13.000","Units":"in","Rept_Date":"2021-01-29 13"},"coordinates":[700,7585]},{"type":"Point","properties":{"Station_ID":"MXON6","Station_Nam":"MEXICO","Latitude":"43.43830","Longitude":"-76.26560","Snowdepth":"13.000","Units":"in","Rept_Date":"2021-01-29 12"},"coordinates":[4922,4856]},{"type":"Point","properties":{"Station_ID":"MN-SL-15","Station_Nam":"CHISHOLM 0.4 WSW, MN","Latitude":"47.48557","Longitude":"-92.88690","Snowdepth":"13.000","Units":"in","Rept_Date":"2021-01-29 13"},"coordinates":[1021,7368]},{"type":"Point","properties":{"Station_ID":"MN-SL-108","Station_Nam":"IRON JUNCTION 3.4 NNW, MN","Latitude":"47.46150","Longitude":"-92.63130","Snowdepth":"13.000","Units":"in","Rept_Date":"2021-01-29 11"},"coordinates":[1081,7353]},{"type":"Point","properties":{"Station_ID":"MN-IS-18","Station_Nam":"BRAHAM 0.7 SW, MN","Latitude":"45.71379","Longitude":"-93.18095","Snowdepth":"13.000","Units":"in","Rept_Date":"2021-01-29 14"},"coordinates":[952,6268]},{"type":"Point","properties":{"Station_ID":"ME-AR-15","Station_Nam":"PRESQUE ISLE 1.3 WSW, ME","Latitude":"46.67960","Longitude":"-68.01270","Snowdepth":"13.000","Units":"in","Rept_Date":"2021-01-29 12"},"coordinates":[6859,6867]},{"type":"Point","properties":{"Station_ID":"MALN6","Station_Nam":"MALONE","Latitude":"44.84180","Longitude":"-74.30600","Snowdepth":"13.000","Units":"in","Rept_Date":"2021-01-29 12"},"coordinates":[5382,5727]},{"type":"Point","properties":{"Station_ID":"LNK","Station_Nam":"LINCOLN MUNICIPAL AIRPORT","Latitude":"40.85080","Longitude":"-96.75920","Snowdepth":"13.000","Units":"in","Rept_Date":"2021-01-30 00"},"coordinates":[113,3251]},{"type":"Point","properties":{"Station_ID":"KGTB","Station_Nam":"FORT DRUM / WHEELER-SACK U. S. ARMY AIRFIELD","Latitude":"44.05000","Longitude":"-75.73333","Snowdepth":"13.000","Units":"in","Rept_Date":"2021-01-30 06"},"coordinates":[5047,5236]},{"type":"Point","properties":{"Station_ID":"ISLV1","Station_Nam":"ISLAND POND","Latitude":"44.81280","Longitude":"-71.89020","Snowdepth":"13.000","Units":"in","Rept_Date":"2021-01-29 13"},"coordinates":[5949,5709]},{"type":"Point","properties":{"Station_ID":"IA-DL-33","Station_Nam":"WAUKEE 1.6 N, IA","Latitude":"41.63119","Longitude":"-93.85778","Snowdepth":"13.000","Units":"in","Rept_Date":"2021-01-29 12"},"coordinates":[793,3735]},{"type":"Point","properties":{"Station_ID":"HVJP1","Station_Nam":"HIDDEN VALLEY COOP","Latitude":"40.04200","Longitude":"-79.25660","Snowdepth":"13.000","Units":"in","Rept_Date":"2021-01-29 13"},"coordinates":[4220,2749]},{"type":"Point","properties":{"Station_ID":"FLDM5","Station_Nam":"FLOODWOOD,MN","Latitude":"47.00000","Longitude":"-92.91670","Snowdepth":"13.000","Units":"in","Rept_Date":"2021-01-29 14"},"coordinates":[1014,7066]},{"type":"Point","properties":{"Station_ID":"CLKM4","Station_Nam":"CLARKSBURG","Latitude":"46.49910","Longitude":"-87.84500","Snowdepth":"13.000","Units":"in","Rept_Date":"2021-01-29 12"},"coordinates":[2205,6755]},{"type":"Point","properties":{"Station_ID":"ANJM4","Station_Nam":"SNOW PAID OBSERVER FOR KANJ","Latitude":"46.48670","Longitude":"-84.40260","Snowdepth":"13.000","Units":"in","Rept_Date":"2021-01-30 00"},"coordinates":[3013,6748]},{"type":"Point","properties":{"Station_ID":"ANJ","Station_Nam":"SAULT STE MARIE","Latitude":"46.46670","Longitude":"-84.36670","Snowdepth":"13.000","Units":"in","Rept_Date":"2021-01-30 00"},"coordinates":[3021,6735]},{"type":"Point","properties":{"Station_ID":"42.1284_079.8945","Station_Nam":"NORTHEAST 6SW (CLE0249)","Latitude":"42.12840","Longitude":"-79.89450","Snowdepth":"13.000","Units":"in","Rept_Date":"2021-01-29 23"},"coordinates":[4071,4044]},{"type":"Point","properties":{"Station_ID":"QMD","Station_Nam":"QMD","Latitude":"49.29060","Longitude":"-75.84500","Snowdepth":"12.677","Units":"in","Rept_Date":"2021-01-29 12"},"coordinates":[5021,8487]},{"type":"Point","properties":{"Station_ID":"NY-JF-30","Station_Nam":"WEST CARTHAGE 0.3 ENE, NY","Latitude":"43.97493","Longitude":"-75.61640","Snowdepth":"12.600","Units":"in","Rept_Date":"2021-01-29 12"},"coordinates":[5075,5189]},{"type":"Point","properties":{"Station_ID":"WI-SR-1","Station_Nam":"HAYWARD 9.2 NNE, WI","Latitude":"46.13255","Longitude":"-91.40500","Snowdepth":"12.500","Units":"in","Rept_Date":"2021-01-29 12"},"coordinates":[1369,6528]},{"type":"Point","properties":{"Station_ID":"WI-DA-35","Station_Nam":"MADISON 5.5 N, WI","Latitude":"43.15858","Longitude":"-89.37280","Snowdepth":"12.500","Units":"in","Rept_Date":"2021-01-29 14"},"coordinates":[1846,4683]},{"type":"Point","properties":{"Station_ID":"WI-BY-22","Station_Nam":"MASON 11.5 WNW, WI","Latitude":"46.50198","Longitude":"-91.28339","Snowdepth":"12.500","Units":"in","Rept_Date":"2021-01-29 14"},"coordinates":[1398,6757]},{"type":"Point","properties":{"Station_ID":"NY-OT-11","Station_Nam":"HARTWICK, NY","Latitude":"42.65990","Longitude":"-75.05000","Snowdepth":"12.500","Units":"in","Rept_Date":"2021-01-29 14"},"coordinates":[5208,4374]},{"type":"Point","properties":{"Station_ID":"NY-OS-38","Station_Nam":"MEXICO COOP, NY","Latitude":"43.43830","Longitude":"-76.26570","Snowdepth":"12.500","Units":"in","Rept_Date":"2021-01-29 12"},"coordinates":[4922,4856]},{"type":"Point","properties":{"Station_ID":"NY-CR-1","Station_Nam":"FREETOWN 1.0 NE, NY","Latitude":"42.53299","Longitude":"-76.02111","Snowdepth":"12.500","Units":"in","Rept_Date":"2021-01-29 12"},"coordinates":[4980,4295]},{"type":"Point","properties":{"Station_ID":"NE-LA-52","Station_Nam":"LINCOLN 1.2 ENE, NE","Latitude":"40.82411","Longitude":"-96.66780","Snowdepth":"12.500","Units":"in","Rept_Date":"2021-01-29 13"},"coordinates":[134,3235]},{"type":"Point","properties":{"Station_ID":"NE-LA-40","Station_Nam":"LINCOLN 3.9 S, NE","Latitude":"40.76142","Longitude":"-96.70244","Snowdepth":"12.500","Units":"in","Rept_Date":"2021-01-29 13"},"coordinates":[126,3196]},{"type":"Point","properties":{"Station_ID":"QLP","Station_Nam":"QLP","Latitude":"48.13920","Longitude":"-72.63830","Snowdepth":"12.480","Units":"in","Rept_Date":"2021-01-29 12"},"coordinates":[5774,7773]},{"type":"Point","properties":{"Station_ID":"QCX","Station_Nam":"QCX","Latitude":"51.32830","Longitude":"-70.08060","Snowdepth":"12.480","Units":"in","Rept_Date":"2021-01-29 12"},"coordinates":[6374,9752]},{"type":"Point","properties":{"Station_ID":"CAN-ON-491","Station_Nam":"MILVERTON 1.1 ESE- CANWARN, CAN","Latitude":"43.56074","Longitude":"-80.90887","Snowdepth":"12.300","Units":"in","Rept_Date":"2021-01-29 11"},"coordinates":[3832,4932]},{"type":"Point","properties":{"Station_ID":"CAN-ON-208","Station_Nam":"PAKENHAM 7.8 NNW, CAN","Latitude":"45.39166","Longitude":"-76.34111","Snowdepth":"12.200","Units":"in","Rept_Date":"2021-01-29 12"},"coordinates":[4904,6068]},{"type":"Point","properties":{"Station_ID":"WTBW3","Station_Nam":"WEST BEND PUBLIC WORKS","Latitude":"43.41110","Longitude":"-88.19380","Snowdepth":"12.000","Units":"in","Rept_Date":"2021-01-29 16"},"coordinates":[2123,4840]},{"type":"Point","properties":{"Station_ID":"WSTW3","Station_Nam":"WEST BEND -FIRE","Latitude":"43.43138","Longitude":"-88.16111","Snowdepth":"12.000","Units":"in","Rept_Date":"2021-01-29 13"},"coordinates":[2130,4852]},{"type":"Point","properties":{"Station_ID":"WRSM5","Station_Nam":"WRENSHALL","Latitude":"46.61550","Longitude":"-92.38380","Snowdepth":"12.000","Units":"in","Rept_Date":"2021-01-29 14"},"coordinates":[1139,6828]},{"type":"Point","properties":{"Station_ID":"WNBM5","Station_Nam":"DAM","Latitude":"47.43060","Longitude":"-94.05000","Snowdepth":"12.000","Units":"in","Rept_Date":"2021-01-29 14"},"coordinates":[748,7333]},{"type":"Point","properties":{"Station_ID":"WMTI4","Station_Nam":"FORT DODGE,IA","Latitude":"42.50610","Longitude":"-94.20110","Snowdepth":"12.000","Units":"in","Rept_Date":"2021-01-29 13"},"coordinates":[713,4278]},{"type":"Point","properties":{"Station_ID":"WI-VL-9","Station_Nam":"LAND O' LAKES 11.7 W, WI","Latitude":"46.19023","Longitude":"-89.45790","Snowdepth":"12.000","Units":"in","Rept_Date":"2021-01-29 13"},"coordinates":[1826,6564]},{"type":"Point","properties":{"Station_ID":"WI-MW-14","Station_Nam":"MILWAUKEE 3.6 NNW, WI","Latitude":"43.11300","Longitude":"-87.98730","Snowdepth":"12.000","Units":"in","Rept_Date":"2021-01-29 12"},"coordinates":[2171,4655]},{"type":"Point","properties":{"Station_ID":"WI-DD-5","Station_Nam":"THERESA 3.1 SE, WI","Latitude":"43.49201","Longitude":"-88.40165","Snowdepth":"12.000","Units":"in","Rept_Date":"2021-01-29 14"},"coordinates":[2074,4890]},{"type":"Point","properties":{"Station_ID":"WI-BY-2","Station_Nam":"MELLEN 18.6 SW, WI","Latitude":"46.16937","Longitude":"-90.98090","Snowdepth":"12.000","Units":"in","Rept_Date":"2021-01-29 13"},"coordinates":[1469,6551]},{"type":"Point","properties":{"Station_ID":"VT-WS-15","Station_Nam":"EAST CALAIS 1.5 SW, VT","Latitude":"44.35523","Longitude":"-72.45540","Snowdepth":"12.000","Units":"in","Rept_Date":"2021-01-29 12"},"coordinates":[5816,5425]},{"type":"Point","properties":{"Station_ID":"VT-OL-9","Station_Nam":"GREENSBORO 2.1 NNW, VT","Latitude":"44.60528","Longitude":"-72.30940","Snowdepth":"12.000","Units":"in","Rept_Date":"2021-01-29 12"},"coordinates":[5851,5580]},{"type":"Point","properties":{"Station_ID":"VT-CL-14","Station_Nam":"LYNDONVILLE 1.1 W, VT","Latitude":"44.53582","Longitude":"-72.02867","Snowdepth":"12.000","Units":"in","Rept_Date":"2021-01-29 12"},"coordinates":[5917,5537]},{"type":"Point","properties":{"Station_ID":"VT-CH-7","Station_Nam":"HUNTINGTON 1.1 E, VT","Latitude":"44.32488","Longitude":"-72.96570","Snowdepth":"12.000","Units":"in","Rept_Date":"2021-01-29 12"},"coordinates":[5697,5407]},{"type":"Point","properties":{"Station_ID":"VT-CH-4","Station_Nam":"UNDERHILL 4.4 NNE, VT","Latitude":"44.58774","Longitude":"-72.92250","Snowdepth":"12.000","Units":"in","Rept_Date":"2021-01-29 12"},"coordinates":[5707,5570]},{"type":"Point","properties":{"Station_ID":"VT-CH-13","Station_Nam":"RICHMOND 3.4 SSE, VT","Latitude":"44.36084","Longitude":"-72.96400","Snowdepth":"12.000","Units":"in","Rept_Date":"2021-01-29 12"},"coordinates":[5697,5429]},{"type":"Point","properties":{"Station_ID":"SUAW3","Station_Nam":"SUAMICO","Latitude":"44.60190","Longitude":"-88.09780","Snowdepth":"12.000","Units":"in","Rept_Date":"2021-01-29 12"},"coordinates":[2145,5578]},{"type":"Point","properties":{"Station_ID":"RCHW3","Station_Nam":"RICHRIELD,WI","Latitude":"43.21080","Longitude":"-88.20940","Snowdepth":"12.000","Units":"in","Rept_Date":"2021-01-29 12"},"coordinates":[2119,4715]},{"type":"Point","properties":{"Station_ID":"PKGM5","Station_Nam":"POKEGANA LK DAM","Latitude":"47.25080","Longitude":"-93.58610","Snowdepth":"12.000","Units":"in","Rept_Date":"2021-01-29 14"},"coordinates":[857,7222]},{"type":"Point","properties":{"Station_ID":"NY-OS-20","Station_Nam":"FULTON 0.2 W, NY","Latitude":"43.31650","Longitude":"-76.41850","Snowdepth":"12.000","Units":"in","Rept_Date":"2021-01-29 13"},"coordinates":[4886,4781]},{"type":"Point","properties":{"Station_ID":"NY-CY-14","Station_Nam":"CAYUGA 4.0 NNE, NY","Latitude":"42.97516","Longitude":"-76.70720","Snowdepth":"12.000","Units":"in","Rept_Date":"2021-01-29 12"},"coordinates":[4819,4569]},{"type":"Point","properties":{"Station_ID":"NUNV1","Station_Nam":"NORTH UNDERHILL","Latitude":"44.58760","Longitude":"-72.92150","Snowdepth":"12.000","Units":"in","Rept_Date":"2021-01-29 12"},"coordinates":[5707,5570]},{"type":"Point","properties":{"Station_ID":"NUMN3","Station_Nam":"NORTHUMBERLAND","Latitude":"44.52830","Longitude":"-71.50440","Snowdepth":"12.000","Units":"in","Rept_Date":"2021-01-29 13"},"coordinates":[6040,5533]},{"type":"Point","properties":{"Station_ID":"NH-MR-41","Station_Nam":"NEWBURY 1.6 NW, NH","Latitude":"43.33667","Longitude":"-72.06060","Snowdepth":"12.000","Units":"in","Rept_Date":"2021-01-29 12"},"coordinates":[5909,4793]},{"type":"Point","properties":{"Station_ID":"NE-LA-38","Station_Nam":"LINCOLN 4.6 S, NE","Latitude":"40.74920","Longitude":"-96.68970","Snowdepth":"12.000","Units":"in","Rept_Date":"2021-01-29 13"},"coordinates":[129,3188]},{"type":"Point","properties":{"Station_ID":"NCYN1","Station_Nam":"NEBRASKA CITY 2NW","Latitude":"40.69860","Longitude":"-95.88660","Snowdepth":"12.000","Units":"in","Rept_Date":"2021-01-29 13"},"coordinates":[317,3157]},{"type":"Point","properties":{"Station_ID":"MTCI2","Station_Nam":"MOUNT CARROLL","Latitude":"42.09800","Longitude":"-89.98410","Snowdepth":"12.000","Units":"in","Rept_Date":"2021-01-29 13"},"coordinates":[1703,4025]},{"type":"Point","properties":{"Station_ID":"MN-SE-2","Station_Nam":"OWATONNA 0.8 E, MN","Latitude":"44.09170","Longitude":"-93.21380","Snowdepth":"12.000","Units":"in","Rept_Date":"2021-01-29 13"},"coordinates":[945,5262]},{"type":"Point","properties":{"Station_ID":"MN-GH-28","Station_Nam":"CANNON FALLS 0.5 SE, MN","Latitude":"44.50866","Longitude":"-92.89526","Snowdepth":"12.000","Units":"in","Rept_Date":"2021-01-29 14"},"coordinates":[1019,5521]},{"type":"Point","properties":{"Station_ID":"MI-HG-1","Station_Nam":"HOUGHTON 1.6 ESE, MI","Latitude":"47.10774","Longitude":"-88.52940","Snowdepth":"12.000","Units":"in","Rept_Date":"2021-01-29 13"},"coordinates":[2044,7133]},{"type":"Point","properties":{"Station_ID":"ME-SM-10","Station_Nam":"NORTH NEW PORTLAND 0.3 WSW, ME","Latitude":"44.92353","Longitude":"-70.02788","Snowdepth":"12.000","Units":"in","Rept_Date":"2021-01-29 12"},"coordinates":[6386,5778]},{"type":"Point","properties":{"Station_ID":"ME-OX-2","Station_Nam":"HARTFORD 1.4 N, ME","Latitude":"44.39318","Longitude":"-70.34760","Snowdepth":"12.000","Units":"in","Rept_Date":"2021-01-29 12"},"coordinates":[6311,5449]},{"type":"Point","properties":{"Station_ID":"ME-FR-4","Station_Nam":"NEW SHARON 2.0 NW, ME","Latitude":"44.66582","Longitude":"-70.02720","Snowdepth":"12.000","Units":"in","Rept_Date":"2021-01-29 12"},"coordinates":[6386,5618]},{"type":"Point","properties":{"Station_ID":"MA-BE-24","Station_Nam":"HANCOCK 3.6 NNE, MA","Latitude":"42.59130","Longitude":"-73.29530","Snowdepth":"12.000","Units":"in","Rept_Date":"2021-01-29 17"},"coordinates":[5619,4331]},{"type":"Point","properties":{"Station_ID":"LNOW3","Station_Nam":"LAND O LAKES","Latitude":"46.19000","Longitude":"-89.45700","Snowdepth":"12.000","Units":"in","Rept_Date":"2021-01-29 13"},"coordinates":[1826,6564]},{"type":"Point","properties":{"Station_ID":"LEIM5","Station_Nam":"ORR 3E","Latitude":"48.05810","Longitude":"-92.75220","Snowdepth":"12.000","Units":"in","Rept_Date":"2021-01-29 12"},"coordinates":[1053,7723]},{"type":"Point","properties":{"Station_ID":"IL-JD-8","Station_Nam":"STOCKTON 3.4 NNE, IL","Latitude":"42.39960","Longitude":"-89.99020","Snowdepth":"12.000","Units":"in","Rept_Date":"2021-01-29 13"},"coordinates":[1701,4212]},{"type":"Point","properties":{"Station_ID":"IDAI4","Station_Nam":"INDIANOLA,IA","Latitude":"41.36670","Longitude":"-93.55000","Snowdepth":"12.000","Units":"in","Rept_Date":"2021-01-29 13"},"coordinates":[866,3571]},{"type":"Point","properties":{"Station_ID":"IA-BH-6","Station_Nam":"WATERLOO 1.9 SSE, IA","Latitude":"42.46500","Longitude":"-92.34100","Snowdepth":"12.000","Units":"in","Rept_Date":"2021-01-29 13"},"coordinates":[1149,4253]},{"type":"Point","properties":{"Station_ID":"HRTM1","Station_Nam":"HARTFORD","Latitude":"44.37440","Longitude":"-70.31620","Snowdepth":"12.000","Units":"in","Rept_Date":"2021-01-29 12"},"coordinates":[6318,5437]},{"type":"Point","properties":{"Station_ID":"HORW3","Station_Nam":"HORICON WWTP","Latitude":"43.45000","Longitude":"-88.63330","Snowdepth":"12.000","Units":"in","Rept_Date":"2021-01-29 13"},"coordinates":[2020,4864]},{"type":"Point","properties":{"Station_ID":"ELYM5","Station_Nam":"ELY","Latitude":"47.90560","Longitude":"-91.82830","Snowdepth":"12.000","Units":"in","Rept_Date":"2021-01-29 14"},"coordinates":[1270,7628]},{"type":"Point","properties":{"Station_ID":"DLDI4","Station_Nam":"MISSISSIPPI RIVER","Latitude":"42.51670","Longitude":"-90.65000","Snowdepth":"12.000","Units":"in","Rept_Date":"2021-01-29 12"},"coordinates":[1546,4285]},{"type":"Point","properties":{"Station_ID":"CRNI4","Station_Nam":"CORNING","Latitude":"40.98860","Longitude":"-94.74910","Snowdepth":"12.000","Units":"in","Rept_Date":"2021-01-29 13"},"coordinates":[584,3337]},{"type":"Point","properties":{"Station_ID":"CMKW3","Station_Nam":"CLAM LAKE 4W","Latitude":"46.16940","Longitude":"-90.98080","Snowdepth":"12.000","Units":"in","Rept_Date":"2021-01-29 13"},"coordinates":[1469,6551]},{"type":"Point","properties":{"Station_ID":"BRAM1","Station_Nam":"BRASSUA DAM","Latitude":"45.66020","Longitude":"-69.81190","Snowdepth":"12.000","Units":"in","Rept_Date":"2021-01-29 12"},"coordinates":[6437,6235]},{"type":"Point","properties":{"Station_ID":"BNDM5","Station_Nam":"ELY 25E","Latitude":"47.97190","Longitude":"-91.44860","Snowdepth":"12.000","Units":"in","Rept_Date":"2021-01-29 13"},"coordinates":[1359,7669]},{"type":"Point","properties":{"Station_ID":"BLGW3","Station_Nam":"BELGIUM WWTP","Latitude":"43.51310","Longitude":"-87.85440","Snowdepth":"12.000","Units":"in","Rept_Date":"2021-01-29 13"},"coordinates":[2202,4903]},{"type":"Point","properties":{"Station_ID":"BEAW3","Station_Nam":"BEAVER DAM,WI","Latitude":"43.45000","Longitude":"-88.85000","Snowdepth":"12.000","Units":"in","Rept_Date":"2021-01-29 13"},"coordinates":[1969,4864]},{"type":"Point","properties":{"Station_ID":"ALO","Station_Nam":"WATERLOO MUNICIPAL AIRPORT","Latitude":"42.55690","Longitude":"-92.40000","Snowdepth":"12.000","Units":"in","Rept_Date":"2021-01-30 00"},"coordinates":[1136,4310]},{"type":"Point","properties":{"Station_ID":"42.1173_079.8962","Station_Nam":"4 W Colt Station  Trained Spotter (CLE0298)","Latitude":"42.11734","Longitude":"-79.89615","Snowdepth":"12.000","Units":"in","Rept_Date":"2021-01-29 13"},"coordinates":[4070,4037]},{"type":"Point","properties":{"Station_ID":"41.9034_079.6523","Station_Nam":"CORRY (CLE0230)","Latitude":"41.90340","Longitude":"-79.65230","Snowdepth":"12.000","Units":"in","Rept_Date":"2021-01-29 14"},"coordinates":[4127,3904]},{"type":"Point","properties":{"Station_ID":"CAN-ON-784","Station_Nam":"KOMOKA 3.1 W, CAN","Latitude":"42.96000","Longitude":"-81.43805","Snowdepth":"11.800","Units":"in","Rept_Date":"2021-01-29 13"},"coordinates":[3708,4560]},{"type":"Point","properties":{"Station_ID":"QLM","Station_Nam":"QLM","Latitude":"48.92030","Longitude":"-70.25280","Snowdepth":"11.772","Units":"in","Rept_Date":"2021-01-29 12"},"coordinates":[6333,8258]},{"type":"Point","properties":{"Station_ID":"QGA","Station_Nam":"QGA","Latitude":"47.25640","Longitude":"-73.73810","Snowdepth":"11.693","Units":"in","Rept_Date":"2021-01-29 12"},"coordinates":[5515,7225]},{"type":"Point","properties":{"Station_ID":"CATQ6","Station_Nam":"CAT LAKE","Latitude":"51.72690","Longitude":"-91.82210","Snowdepth":"11.610","Units":"in","Rept_Date":"2021-01-30 06"},"coordinates":[1271,9999]},{"type":"Point","properties":{"Station_ID":"CAN-QC-47","Station_Nam":"SAINTE-FOY 1.8 ENE, CAN","Latitude":"46.76934","Longitude":"-71.27124","Snowdepth":"11.600","Units":"in","Rept_Date":"2021-01-29 12"},"coordinates":[6094,6923]},{"type":"Point","properties":{"Station_ID":"WI-RK-12","Station_Nam":"JANESVILLE 3.1 W, WI","Latitude":"42.67576","Longitude":"-89.07614","Snowdepth":"11.500","Units":"in","Rept_Date":"2021-01-29 13"},"coordinates":[1916,4383]},{"type":"Point","properties":{"Station_ID":"WI-IR-2","Station_Nam":"MERCER 2.0 SE, WI","Latitude":"46.14749","Longitude":"-90.03097","Snowdepth":"11.500","Units":"in","Rept_Date":"2021-01-29 13"},"coordinates":[1692,6537]},{"type":"Point","properties":{"Station_ID":"WI-DA-99","Station_Nam":"FITCHBURG 1.1 NW, WI","Latitude":"42.99740","Longitude":"-89.44046","Snowdepth":"11.500","Units":"in","Rept_Date":"2021-01-29 13"},"coordinates":[1830,4583]},{"type":"Point","properties":{"Station_ID":"NY-OT-31","Station_Nam":"MARYLAND 1.8 W, NY","Latitude":"42.53310","Longitude":"-74.92090","Snowdepth":"11.500","Units":"in","Rept_Date":"2021-01-29 13"},"coordinates":[5238,4295]},{"type":"Point","properties":{"Station_ID":"NY-OS-21","Station_Nam":"PULASKI 0.5 NE, NY","Latitude":"43.56997","Longitude":"-76.11950","Snowdepth":"11.500","Units":"in","Rept_Date":"2021-01-29 13"},"coordinates":[4957,4938]},{"type":"Point","properties":{"Station_ID":"NY-CR-5","Station_Nam":"MARATHON 1.0 NW, NY","Latitude":"42.45161","Longitude":"-76.04370","Snowdepth":"11.500","Units":"in","Rept_Date":"2021-01-29 12"},"coordinates":[4974,4244]},{"type":"Point","properties":{"Station_ID":"NE-SY-25","Station_Nam":"GRETNA 2.9 NNE, NE","Latitude":"41.17831","Longitude":"-96.21984","Snowdepth":"11.500","Units":"in","Rept_Date":"2021-01-29 14"},"coordinates":[239,3454]},{"type":"Point","properties":{"Station_ID":"NE-LA-19","Station_Nam":"LINCOLN 6.8 SE, NE","Latitude":"40.74944","Longitude":"-96.59280","Snowdepth":"11.500","Units":"in","Rept_Date":"2021-01-29 13"},"coordinates":[152,3188]},{"type":"Point","properties":{"Station_ID":"CAN-NB-13","Station_Nam":"BATHURST 3.8 NW, CAN","Latitude":"47.64212","Longitude":"-65.68756","Snowdepth":"11.500","Units":"in","Rept_Date":"2021-01-29 11"},"coordinates":[7405,7465]},{"type":"Point","properties":{"Station_ID":"WI-WK-74","Station_Nam":"BROOKFIELD 2.8 SSW, WI","Latitude":"43.02390","Longitude":"-88.13760","Snowdepth":"11.100","Units":"in","Rept_Date":"2021-01-29 13"},"coordinates":[2136,4599]},{"type":"Point","properties":{"Station_ID":"WTNM4","Station_Nam":"WATTON 2WSW","Latitude":"46.52660","Longitude":"-88.64240","Snowdepth":"11.000","Units":"in","Rept_Date":"2021-01-29 13"},"coordinates":[2017,6773]},{"type":"Point","properties":{"Station_ID":"WI-WS-15","Station_Nam":"WEST BEND 5.4 SE, WI","Latitude":"43.37259","Longitude":"-88.10086","Snowdepth":"11.000","Units":"in","Rept_Date":"2021-01-29 14"},"coordinates":[2145,4816]},{"type":"Point","properties":{"Station_ID":"WI-WK-61","Station_Nam":"HARTLAND 5.0 NNE, WI","Latitude":"43.16351","Longitude":"-88.30400","Snowdepth":"11.000","Units":"in","Rept_Date":"2021-01-29 13"},"coordinates":[2097,4686]},{"type":"Point","properties":{"Station_ID":"WI-WB-2","Station_Nam":"STONE LAKE 2.0 NW, WI","Latitude":"45.85960","Longitude":"-91.57710","Snowdepth":"11.000","Units":"in","Rept_Date":"2021-01-29 13"},"coordinates":[1329,6359]},{"type":"Point","properties":{"Station_ID":"WI-PR-2","Station_Nam":"BUTTERNUT 5.9 SW, WI","Latitude":"45.96501","Longitude":"-90.59750","Snowdepth":"11.000","Units":"in","Rept_Date":"2021-01-29 12"},"coordinates":[1559,6424]},{"type":"Point","properties":{"Station_ID":"WI-DG-20","Station_Nam":"SOLON SPRINGS 1.2 W, WI","Latitude":"46.35217","Longitude":"-91.84405","Snowdepth":"11.000","Units":"in","Rept_Date":"2021-01-29 13"},"coordinates":[1266,6664]},{"type":"Point","properties":{"Station_ID":"WI-BY-29","Station_Nam":"BAYFIELD 5.1 NNW, WI","Latitude":"46.88063","Longitude":"-90.85854","Snowdepth":"11.000","Units":"in","Rept_Date":"2021-01-29 14"},"coordinates":[1497,6992]},{"type":"Point","properties":{"Station_ID":"TBLN1","Station_Nam":"TABLE ROCK,NE","Latitude":"40.23610","Longitude":"-96.08890","Snowdepth":"11.000","Units":"in","Rept_Date":"2021-01-29 13"},"coordinates":[270,2870]},{"type":"Point","properties":{"Station_ID":"SDHI4","Station_Nam":"SHENANDOAH,IA","Latitude":"40.78330","Longitude":"-95.35000","Snowdepth":"11.000","Units":"in","Rept_Date":"2021-01-29 14"},"coordinates":[443,3209]},{"type":"Point","properties":{"Station_ID":"PRQM1","Station_Nam":"PRESQUE ISLE HILLTOP","Latitude":"46.68630","Longitude":"-67.99470","Snowdepth":"11.000","Units":"in","Rept_Date":"2021-01-29 12"},"coordinates":[6863,6872]},{"type":"Point","properties":{"Station_ID":"NY-OT-29","Station_Nam":"NEW BERLIN 1.5 NE, NY","Latitude":"42.63689","Longitude":"-75.31090","Snowdepth":"11.000","Units":"in","Rept_Date":"2021-01-29 13"},"coordinates":[5146,4359]},{"type":"Point","properties":{"Station_ID":"NY-OG-61","Station_Nam":"SKANEATELES 0.8 NNW, NY","Latitude":"42.95538","Longitude":"-76.43362","Snowdepth":"11.000","Units":"in","Rept_Date":"2021-01-29 13"},"coordinates":[4883,4557]},{"type":"Point","properties":{"Station_ID":"NWSM1","Station_Nam":"NEW SHARON","Latitude":"44.63520","Longitude":"-70.00020","Snowdepth":"11.000","Units":"in","Rept_Date":"2021-01-29 12"},"coordinates":[6393,5599]},{"type":"Point","properties":{"Station_ID":"NPTV1","Station_Nam":"NEWPORT","Latitude":"44.94900","Longitude":"-72.19120","Snowdepth":"11.000","Units":"in","Rept_Date":"2021-01-29 12"},"coordinates":[5878,5794]},{"type":"Point","properties":{"Station_ID":"NH-CR-26","Station_Nam":"CENTER SANDWICH 4.9 E, NH","Latitude":"43.80976","Longitude":"-71.34150","Snowdepth":"11.000","Units":"in","Rept_Date":"2021-01-29 12"},"coordinates":[6078,5087]},{"type":"Point","properties":{"Station_ID":"NE-JF-4","Station_Nam":"FAIRBURY 0.6 N, NE","Latitude":"40.14954","Longitude":"-97.17528","Snowdepth":"11.000","Units":"in","Rept_Date":"2021-01-29 13"},"coordinates":[15,2816]},{"type":"Point","properties":{"Station_ID":"NCKN6","Station_Nam":"NORTH CREEK 5 SE","Latitude":"43.66110","Longitude":"-73.89690","Snowdepth":"11.000","Units":"in","Rept_Date":"2021-01-29 12"},"coordinates":[5478,4995]},{"type":"Point","properties":{"Station_ID":"MRBW3","Station_Nam":"MT HOREB","Latitude":"42.98030","Longitude":"-89.73940","Snowdepth":"11.000","Units":"in","Rept_Date":"2021-01-29 13"},"coordinates":[1760,4572]},{"type":"Point","properties":{"Station_ID":"MN-SL-105","Station_Nam":"DULUTH 11.8 NNE, MN","Latitude":"46.94680","Longitude":"-92.03925","Snowdepth":"11.000","Units":"in","Rept_Date":"2021-01-29 14"},"coordinates":[1220,7033]},{"type":"Point","properties":{"Station_ID":"MN-CN-36","Station_Nam":"CLOQUET 3.4 ENE, MN","Latitude":"46.74146","Longitude":"-92.42698","Snowdepth":"11.000","Units":"in","Rept_Date":"2021-01-29 13"},"coordinates":[1129,6906]},{"type":"Point","properties":{"Station_ID":"MIEM4","Station_Nam":"MICHIGAMME 3WNW","Latitude":"46.54530","Longitude":"-88.18000","Snowdepth":"11.000","Units":"in","Rept_Date":"2021-01-29 13"},"coordinates":[2126,6784]},{"type":"Point","properties":{"Station_ID":"MI-MQ-19","Station_Nam":"ISHPEMING 7.2 SW, MI","Latitude":"46.40550","Longitude":"-87.75670","Snowdepth":"11.000","Units":"in","Rept_Date":"2021-01-29 11"},"coordinates":[2225,6697]},{"type":"Point","properties":{"Station_ID":"ME-SM-45","Station_Nam":"BRIGHTON PLANTATION 2.1 N, ME","Latitude":"45.07098","Longitude":"-69.69860","Snowdepth":"11.000","Units":"in","Rept_Date":"2021-01-29 12"},"coordinates":[6463,5869]},{"type":"Point","properties":{"Station_ID":"ME-SM-4","Station_Nam":"SOLON 3.9 ESE, ME","Latitude":"44.94705","Longitude":"-69.77790","Snowdepth":"11.000","Units":"in","Rept_Date":"2021-01-29 12"},"coordinates":[6445,5793]},{"type":"Point","properties":{"Station_ID":"MA-BE-21","Station_Nam":"CHESHIRE 0.5 NNW, MA","Latitude":"42.56315","Longitude":"-73.15701","Snowdepth":"11.000","Units":"in","Rept_Date":"2021-01-29 12"},"coordinates":[5652,4313]},{"type":"Point","properties":{"Station_ID":"LVDW3","Station_Nam":"LAC VIEUX DESERT","Latitude":"46.12110","Longitude":"-89.07580","Snowdepth":"11.000","Units":"in","Rept_Date":"2021-01-29 15"},"coordinates":[1916,6521]},{"type":"Point","properties":{"Station_ID":"LSXI4","Station_Nam":"LITTLE SIOUX,IA","Latitude":"41.81670","Longitude":"-96.01670","Snowdepth":"11.000","Units":"in","Rept_Date":"2021-01-29 13"},"coordinates":[287,3850]},{"type":"Point","properties":{"Station_ID":"KINM1","Station_Nam":"KINGFIELD","Latitude":"44.95950","Longitude":"-70.17530","Snowdepth":"11.000","Units":"in","Rept_Date":"2021-01-29 12"},"coordinates":[6352,5800]},{"type":"Point","properties":{"Station_ID":"JKMM1","Station_Nam":"JACKMAN","Latitude":"45.62600","Longitude":"-70.24600","Snowdepth":"11.000","Units":"in","Rept_Date":"2021-01-29 12"},"coordinates":[6335,6214]},{"type":"Point","properties":{"Station_ID":"JEFN3","Station_Nam":"JEFFERSON","Latitude":"44.41690","Longitude":"-71.50080","Snowdepth":"11.000","Units":"in","Rept_Date":"2021-01-29 12"},"coordinates":[6040,5464]},{"type":"Point","properties":{"Station_ID":"INL","Station_Nam":"FALLS INTERNATIONAL ARPT","Latitude":"48.56640","Longitude":"-93.40310","Snowdepth":"11.000","Units":"in","Rept_Date":"2021-01-30 00"},"coordinates":[900,8038]},{"type":"Point","properties":{"Station_ID":"INDM5","Station_Nam":"INDUS,MN","Latitude":"48.61670","Longitude":"-93.90000","Snowdepth":"11.000","Units":"in","Rept_Date":"2021-01-29 14"},"coordinates":[784,8069]},{"type":"Point","properties":{"Station_ID":"IL-SP-25","Station_Nam":"FREEPORT 1.7 NW, IL","Latitude":"42.30427","Longitude":"-89.66285","Snowdepth":"11.000","Units":"in","Rept_Date":"2021-01-29 13"},"coordinates":[1778,4153]},{"type":"Point","properties":{"Station_ID":"IL-SP-14","Station_Nam":"FREEPORT 1.7 ESE, IL","Latitude":"42.28257","Longitude":"-89.60360","Snowdepth":"11.000","Units":"in","Rept_Date":"2021-01-29 13"},"coordinates":[1792,4139]},{"type":"Point","properties":{"Station_ID":"IFSM5","Station_Nam":"INTERNATIONAL FALLS SNOW","Latitude":"48.57780","Longitude":"-93.39640","Snowdepth":"11.000","Units":"in","Rept_Date":"2021-01-29 12"},"coordinates":[902,8045]},{"type":"Point","properties":{"Station_ID":"HUBN3","Station_Nam":"HUBBARD BROOK","Latitude":"43.93330","Longitude":"-71.71670","Snowdepth":"11.000","Units":"in","Rept_Date":"2021-01-30 06"},"coordinates":[5990,5164]},{"type":"Point","properties":{"Station_ID":"GNDI4","Station_Nam":"GRUNDY CENTER,IA","Latitude":"42.35530","Longitude":"-92.77390","Snowdepth":"11.000","Units":"in","Rept_Date":"2021-01-29 13"},"coordinates":[1048,4185]},{"type":"Point","properties":{"Station_ID":"GHMN3","Station_Nam":"PINKHAM NOTCH","Latitude":"44.25800","Longitude":"-71.25250","Snowdepth":"11.000","Units":"in","Rept_Date":"2021-01-29 10"},"coordinates":[6099,5365]},{"type":"Point","properties":{"Station_ID":"FARM1","Station_Nam":"FARMINGTON","Latitude":"44.68930","Longitude":"-70.15640","Snowdepth":"11.000","Units":"in","Rept_Date":"2021-01-29 12"},"coordinates":[6356,5633]},{"type":"Point","properties":{"Station_ID":"ESDN3","Station_Nam":"EAST SANDWICH","Latitude":"43.80990","Longitude":"-71.34250","Snowdepth":"11.000","Units":"in","Rept_Date":"2021-01-29 11"},"coordinates":[6078,5087]},{"type":"Point","properties":{"Station_ID":"ENFV1","Station_Nam":"ENOSBURG FALLS 2","Latitude":"44.90960","Longitude":"-72.81370","Snowdepth":"11.000","Units":"in","Rept_Date":"2021-01-29 11"},"coordinates":[5732,5769]},{"type":"Point","properties":{"Station_ID":"CSLM5","Station_Nam":"CASS LAKE,MN","Latitude":"47.38470","Longitude":"-94.61470","Snowdepth":"11.000","Units":"in","Rept_Date":"2021-01-29 14"},"coordinates":[616,7305]},{"type":"Point","properties":{"Station_ID":"CRLM5","Station_Nam":"CROSS LAKE DAM","Latitude":"46.66930","Longitude":"-94.11060","Snowdepth":"11.000","Units":"in","Rept_Date":"2021-01-29 14"},"coordinates":[734,6861]},{"type":"Point","properties":{"Station_ID":"CORV1","Station_Nam":"CORINTH","Latitude":"44.00690","Longitude":"-72.31940","Snowdepth":"11.000","Units":"in","Rept_Date":"2021-01-29 12"},"coordinates":[5848,5209]},{"type":"Point","properties":{"Station_ID":"COKM5","Station_Nam":"COOK","Latitude":"47.85060","Longitude":"-92.69250","Snowdepth":"11.000","Units":"in","Rept_Date":"2021-01-29 12"},"coordinates":[1067,7594]},{"type":"Point","properties":{"Station_ID":"CNKN6","Station_Nam":"CONKLINGVILLE DAM","Latitude":"43.32030","Longitude":"-73.92560","Snowdepth":"11.000","Units":"in","Rept_Date":"2021-01-29 13"},"coordinates":[5471,4783]},{"type":"Point","properties":{"Station_ID":"CASS001","Station_Nam":"PLATTSMOUTH 1.4 SW, NE","Latitude":"40.99460","Longitude":"-95.89760","Snowdepth":"11.000","Units":"in","Rept_Date":"2021-01-29 13"},"coordinates":[315,3340]},{"type":"Point","properties":{"Station_ID":"CAN-ON-118","Station_Nam":"DURHAM 1.4 S, CAN","Latitude":"44.16525","Longitude":"-80.82064","Snowdepth":"11.000","Units":"in","Rept_Date":"2021-01-29 12"},"coordinates":[3853,5307]},{"type":"Point","properties":{"Station_ID":"BWTN6","Station_Nam":"BREWERTON LOCK 23","Latitude":"43.23860","Longitude":"-76.19640","Snowdepth":"11.000","Units":"in","Rept_Date":"2021-01-29 11"},"coordinates":[4938,4733]},{"type":"Point","properties":{"Station_ID":"BRLN3","Station_Nam":"BERLIN","Latitude":"44.45350","Longitude":"-71.18540","Snowdepth":"11.000","Units":"in","Rept_Date":"2021-01-29 12"},"coordinates":[6115,5486]},{"type":"Point","properties":{"Station_ID":"BRCN1","Station_Nam":"BEATRICE,NE","Latitude":"40.30000","Longitude":"-96.74940","Snowdepth":"11.000","Units":"in","Rept_Date":"2021-01-29 13"},"coordinates":[115,2909]},{"type":"Point","properties":{"Station_ID":"ATAN6","Station_Nam":"ATTICA 7 SW","Latitude":"42.81070","Longitude":"-78.39790","Snowdepth":"11.000","Units":"in","Rept_Date":"2021-01-29 11"},"coordinates":[4422,4467]},{"type":"Point","properties":{"Station_ID":"ARLW3","Station_Nam":"UNIV FARM","Latitude":"43.30000","Longitude":"-89.35000","Snowdepth":"11.000","Units":"in","Rept_Date":"2021-01-29 14"},"coordinates":[1851,4771]},{"type":"Point","properties":{"Station_ID":"ALXI4","Station_Nam":"WATERLOO SNOW","Latitude":"42.53130","Longitude":"-92.37550","Snowdepth":"11.000","Units":"in","Rept_Date":"2021-01-30 06"},"coordinates":[1141,4294]},{"type":"Point","properties":{"Station_ID":"WI-RK-6","Station_Nam":"EVANSVILLE 0.4 E, WI","Latitude":"42.77913","Longitude":"-89.29020","Snowdepth":"10.800","Units":"in","Rept_Date":"2021-01-29 12"},"coordinates":[1865,4447]},{"type":"Point","properties":{"Station_ID":"CAN-QC-66","Station_Nam":"SAINT-ARMAND 4.2 ESE, CAN","Latitude":"45.01614","Longitude":"-72.99450","Snowdepth":"10.800","Units":"in","Rept_Date":"2021-01-29 13"},"coordinates":[5690,5835]},{"type":"Point","properties":{"Station_ID":"FTHQ6","Station_Nam":"FORT HOPE","Latitude":"51.55820","Longitude":"-87.90510","Snowdepth":"10.790","Units":"in","Rept_Date":"2021-01-30 00"},"coordinates":[2191,9894]},{"type":"Point","properties":{"Station_ID":"QTV","Station_Nam":"QTV","Latitude":"49.66000","Longitude":"-69.35690","Snowdepth":"10.709","Units":"in","Rept_Date":"2021-01-29 12"},"coordinates":[6544,8717]},{"type":"Point","properties":{"Station_ID":"VT-RT-24","Station_Nam":"MIDDLETOWN SPRINGS 0.9 WNW, VT","Latitude":"43.49194","Longitude":"-73.13350","Snowdepth":"10.500","Units":"in","Rept_Date":"2021-01-29 12"},"coordinates":[5657,4890]},{"type":"Point","properties":{"Station_ID":"VT-OL-25","Station_Nam":"NEWPORT 1.5 WSW, VT","Latitude":"44.93059","Longitude":"-72.23731","Snowdepth":"10.500","Units":"in","Rept_Date":"2021-01-29 12"},"coordinates":[5868,5782]},{"type":"Point","properties":{"Station_ID":"NY-DL-32","Station_Nam":"DELHI 6.6 WNW, NY","Latitude":"42.32118","Longitude":"-75.02991","Snowdepth":"10.500","Units":"in","Rept_Date":"2021-01-29 12"},"coordinates":[5212,4163]},{"type":"Point","properties":{"Station_ID":"NE-CA-4","Station_Nam":"ELMWOOD 3.4 WSW, NE","Latitude":"40.81849","Longitude":"-96.35093","Snowdepth":"10.500","Units":"in","Rept_Date":"2021-01-29 14"},"coordinates":[208,3231]},{"type":"Point","properties":{"Station_ID":"MN-IT-1","Station_Nam":"GRAND RAPIDS 2.0 E, MN","Latitude":"47.22266","Longitude":"-93.49600","Snowdepth":"10.500","Units":"in","Rept_Date":"2021-01-29 13"},"coordinates":[878,7204]},{"type":"Point","properties":{"Station_ID":"MI-OT-17","Station_Nam":"GAYLORD 4.1 S, MI","Latitude":"44.96388","Longitude":"-84.68467","Snowdepth":"10.500","Units":"in","Rept_Date":"2021-01-29 12"},"coordinates":[2946,5803]},{"type":"Point","properties":{"Station_ID":"IL-SP-6","Station_Nam":"FREEPORT 2.0 NW, IL","Latitude":"42.30955","Longitude":"-89.66370","Snowdepth":"10.500","Units":"in","Rept_Date":"2021-01-29 13"},"coordinates":[1778,4156]},{"type":"Point","properties":{"Station_ID":"IL-MCH-13","Station_Nam":"BULL VALLEY 2.5 WNW, IL","Latitude":"42.32455","Longitude":"-88.39460","Snowdepth":"10.500","Units":"in","Rept_Date":"2021-01-29 14"},"coordinates":[2076,4165]},{"type":"Point","properties":{"Station_ID":"IL-BN-19","Station_Nam":"BELVIDERE 5.0 NNW, IL","Latitude":"42.32071","Longitude":"-88.88282","Snowdepth":"10.500","Units":"in","Rept_Date":"2021-01-29 13"},"coordinates":[1961,4163]},{"type":"Point","properties":{"Station_ID":"IA-ST-1","Station_Nam":"LE CLAIRE 1.8 NNE, IA","Latitude":"41.62355","Longitude":"-90.35140","Snowdepth":"10.500","Units":"in","Rept_Date":"2021-01-29 15"},"coordinates":[1616,3731]},{"type":"Point","properties":{"Station_ID":"IA-BT-12","Station_Nam":"FAIRFAX 4.0 NW, IA","Latitude":"41.96223","Longitude":"-91.83675","Snowdepth":"10.500","Units":"in","Rept_Date":"2021-01-29 13"},"coordinates":[1268,3941]},{"type":"Point","properties":{"Station_ID":"CAN-ON-771","Station_Nam":"KENORA 8.7 NNE - CANWARN, CAN","Latitude":"49.84171","Longitude":"-94.44386","Snowdepth":"10.500","Units":"in","Rept_Date":"2021-01-29 13"},"coordinates":[656,8829]},{"type":"Point","properties":{"Station_ID":"CAN-ON-5","Station_Nam":"OWEN SOUND 1.5 NW - GSCA, CAN","Latitude":"44.57837","Longitude":"-80.95461","Snowdepth":"10.500","Units":"in","Rept_Date":"2021-01-29 13"},"coordinates":[3822,5564]},{"type":"Point","properties":{"Station_ID":"VT-WR-22","Station_Nam":"ROCHESTER 0.3 NE, VT","Latitude":"43.87816","Longitude":"-72.80459","Snowdepth":"10.400","Units":"in","Rept_Date":"2021-01-29 12"},"coordinates":[5734,5129]},{"type":"Point","properties":{"Station_ID":"CAN-NL-82","Station_Nam":"GANDER 2.7 NW, CAN","Latitude":"48.97737","Longitude":"-54.63396","Snowdepth":"10.200","Units":"in","Rept_Date":"2021-01-29 10"},"coordinates":[9999,8293]},{"type":"Point","properties":{"Station_ID":"WTRM4","Station_Nam":"WATERSMEET 12WSW","Latitude":"46.22310","Longitude":"-89.40850","Snowdepth":"10.000","Units":"in","Rept_Date":"2021-01-29 12"},"coordinates":[1838,6584]},{"type":"Point","properties":{"Station_ID":"WNNM5","Station_Nam":"WINNEBAGO","Latitude":"43.76920","Longitude":"-94.18730","Snowdepth":"10.000","Units":"in","Rept_Date":"2021-01-29 14"},"coordinates":[716,5062]},{"type":"Point","properties":{"Station_ID":"WLSN6","Station_Nam":"WALES","Latitude":"42.73920","Longitude":"-78.58780","Snowdepth":"10.000","Units":"in","Rept_Date":"2021-01-29 12"},"coordinates":[4377,4423]},{"type":"Point","properties":{"Station_ID":"WLDM5","Station_Nam":"WILD RIVER STATE PARK","Latitude":"45.52310","Longitude":"-92.74890","Snowdepth":"10.000","Units":"in","Rept_Date":"2021-01-29 14"},"coordinates":[1054,6150]},{"type":"Point","properties":{"Station_ID":"WI-PR-6","Station_Nam":"PHILLIPS 1.3 S, WI","Latitude":"45.67677","Longitude":"-90.39543","Snowdepth":"10.000","Units":"in","Rept_Date":"2021-01-29 12"},"coordinates":[1606,6245]},{"type":"Point","properties":{"Station_ID":"WI-JF-17","Station_Nam":"JOHNSON CREEK 2.7 SSW, WI","Latitude":"43.04559","Longitude":"-88.79925","Snowdepth":"10.000","Units":"in","Rept_Date":"2021-01-29 13"},"coordinates":[1981,4613]},{"type":"Point","properties":{"Station_ID":"WI-DD-14","Station_Nam":"THERESA 0.1 ESE, WI","Latitude":"43.51691","Longitude":"-88.45026","Snowdepth":"10.000","Units":"in","Rept_Date":"2021-01-29 13"},"coordinates":[2063,4905]},{"type":"Point","properties":{"Station_ID":"WI-DA-88","Station_Nam":"BLACK EARTH 3.1 SSE, WI","Latitude":"43.09290","Longitude":"-89.72889","Snowdepth":"10.000","Units":"in","Rept_Date":"2021-01-29 13"},"coordinates":[1762,4642]},{"type":"Point","properties":{"Station_ID":"WI-BT-14","Station_Nam":"OAKLAND 9.0 ENE, WI","Latitude":"45.95184","Longitude":"-92.21653","Snowdepth":"10.000","Units":"in","Rept_Date":"2021-01-29 13"},"coordinates":[1179,6416]},{"type":"Point","properties":{"Station_ID":"VT-FR-21","Station_Nam":"FAIRFAX 4.9 WNW, VT","Latitude":"44.68880","Longitude":"-73.10340","Snowdepth":"10.000","Units":"in","Rept_Date":"2021-01-29 14"},"coordinates":[5664,5632]},{"type":"Point","properties":{"Station_ID":"UGRW3","Station_Nam":"UNION GROVE,WI","Latitude":"42.70000","Longitude":"-88.03220","Snowdepth":"10.000","Units":"in","Rept_Date":"2021-01-29 14"},"coordinates":[2161,4398]},{"type":"Point","properties":{"Station_ID":"TEKN1","Station_Nam":"TEKAMAH,NE","Latitude":"41.76670","Longitude":"-96.23330","Snowdepth":"10.000","Units":"in","Rept_Date":"2021-01-29 13"},"coordinates":[236,3819]},{"type":"Point","properties":{"Station_ID":"TCMN1","Station_Nam":"TECUMSEH,NE","Latitude":"40.36670","Longitude":"-96.18330","Snowdepth":"10.000","Units":"in","Rept_Date":"2021-01-29 14"},"coordinates":[248,2951]},{"type":"Point","properties":{"Station_ID":"STMM4","Station_Nam":"STAMBAUGH 2SSE","Latitude":"46.05550","Longitude":"-88.62780","Snowdepth":"10.000","Units":"in","Rept_Date":"2021-01-29 13"},"coordinates":[2021,6480]},{"type":"Point","properties":{"Station_ID":"RLKW3","Station_Nam":"REST LAKE","Latitude":"46.12220","Longitude":"-89.87720","Snowdepth":"10.000","Units":"in","Rept_Date":"2021-01-29 14"},"coordinates":[1728,6522]},{"type":"Point","properties":{"Station_ID":"PORW3","Station_Nam":"PORTAGE,WI","Latitude":"43.53190","Longitude":"-89.43780","Snowdepth":"10.000","Units":"in","Rept_Date":"2021-01-29 14"},"coordinates":[1831,4915]},{"type":"Point","properties":{"Station_ID":"PLFV1","Station_Nam":"PLAINFIELD","Latitude":"44.27610","Longitude":"-72.41500","Snowdepth":"10.000","Units":"in","Rept_Date":"2021-01-29 12"},"coordinates":[5826,5376]},{"type":"Point","properties":{"Station_ID":"PDGM4","Station_Nam":"PAULDING","Latitude":"46.39760","Longitude":"-89.17940","Snowdepth":"10.000","Units":"in","Rept_Date":"2021-01-29 13"},"coordinates":[1891,6693]},{"type":"Point","properties":{"Station_ID":"ONCW3","Station_Nam":"SOUTH","Latitude":"43.11170","Longitude":"-88.49970","Snowdepth":"10.000","Units":"in","Rept_Date":"2021-01-29 13"},"coordinates":[2051,4654]},{"type":"Point","properties":{"Station_ID":"OLNI4","Station_Nam":"OELWEIN 1E","Latitude":"42.68010","Longitude":"-91.87510","Snowdepth":"10.000","Units":"in","Rept_Date":"2021-01-29 12"},"coordinates":[1259,4386]},{"type":"Point","properties":{"Station_ID":"OAKI4","Station_Nam":"OAKLAND,IA","Latitude":"41.31330","Longitude":"-95.39060","Snowdepth":"10.000","Units":"in","Rept_Date":"2021-01-29 13"},"coordinates":[434,3538]},{"type":"Point","properties":{"Station_ID":"NY-TG-20","Station_Nam":"CANDOR 1.8 N, NY","Latitude":"42.25308","Longitude":"-76.33780","Snowdepth":"10.000","Units":"in","Rept_Date":"2021-01-29 12"},"coordinates":[4905,4121]},{"type":"Point","properties":{"Station_ID":"NY-OG-10","Station_Nam":"CAMILLUS 1.0 W, NY","Latitude":"43.03962","Longitude":"-76.32830","Snowdepth":"10.000","Units":"in","Rept_Date":"2021-01-29 12"},"coordinates":[4908,4609]},{"type":"Point","properties":{"Station_ID":"NY-CT-22","Station_Nam":"FRANKLINVILLE 0.5 NNE, NY","Latitude":"42.34166","Longitude":"-78.45280","Snowdepth":"10.000","Units":"in","Rept_Date":"2021-01-29 13"},"coordinates":[4409,4176]},{"type":"Point","properties":{"Station_ID":"NY-CQ-27","Station_Nam":"SILVER CREEK 1.0 SSE, NY","Latitude":"42.53088","Longitude":"-79.15986","Snowdepth":"10.000","Units":"in","Rept_Date":"2021-01-29 11"},"coordinates":[4243,4293]},{"type":"Point","properties":{"Station_ID":"NY-CN-9","Station_Nam":"NORWICH 5.4 W, NY","Latitude":"42.53356","Longitude":"-75.63060","Snowdepth":"10.000","Units":"in","Rept_Date":"2021-01-29 12"},"coordinates":[5071,4295]},{"type":"Point","properties":{"Station_ID":"NY-BM-14","Station_Nam":"WHITNEY POINT 1.7 SSE, NY","Latitude":"42.30837","Longitude":"-75.95690","Snowdepth":"10.000","Units":"in","Rept_Date":"2021-01-29 12"},"coordinates":[4995,4155]},{"type":"Point","properties":{"Station_ID":"NH-MR-60","Station_Nam":"SOUTH SUTTON 1.3 SE, NH","Latitude":"43.29531","Longitude":"-71.90238","Snowdepth":"10.000","Units":"in","Rept_Date":"2021-01-29 13"},"coordinates":[5946,4768]},{"type":"Point","properties":{"Station_ID":"NH-GR-47","Station_Nam":"LITTLETON 7.3 W, NH","Latitude":"44.31847","Longitude":"-71.91086","Snowdepth":"10.000","Units":"in","Rept_Date":"2021-01-29 13"},"coordinates":[5944,5403]},{"type":"Point","properties":{"Station_ID":"MSN","Station_Nam":"MADISON DANE COUNTY RGNL","Latitude":"43.13970","Longitude":"-89.33750","Snowdepth":"10.000","Units":"in","Rept_Date":"2021-01-30 00"},"coordinates":[1854,4671]},{"type":"Point","properties":{"Station_ID":"MO-ND-6","Station_Nam":"HOPKINS 3.9 WSW, MO","Latitude":"40.53581","Longitude":"-94.88790","Snowdepth":"10.000","Units":"in","Rept_Date":"2021-01-29 13"},"coordinates":[552,3056]},{"type":"Point","properties":{"Station_ID":"MNPV1","Station_Nam":"MONTPELIER 2","Latitude":"44.25530","Longitude":"-72.60060","Snowdepth":"10.000","Units":"in","Rept_Date":"2021-01-29 12"},"coordinates":[5782,5363]},{"type":"Point","properties":{"Station_ID":"MN-KB-17","Station_Nam":"MORA 2.5 S, MN","Latitude":"45.84100","Longitude":"-93.29700","Snowdepth":"10.000","Units":"in","Rept_Date":"2021-01-29 13"},"coordinates":[925,6347]},{"type":"Point","properties":{"Station_ID":"MN-IT-23","Station_Nam":"BOVEY 13.4 N, MN","Latitude":"47.48855","Longitude":"-93.43497","Snowdepth":"10.000","Units":"in","Rept_Date":"2021-01-29 13"},"coordinates":[893,7369]},{"type":"Point","properties":{"Station_ID":"MI-OT-4","Station_Nam":"GAYLORD 1.7 WNW, MI","Latitude":"45.03280","Longitude":"-84.71090","Snowdepth":"10.000","Units":"in","Rept_Date":"2021-01-29 13"},"coordinates":[2940,5846]},{"type":"Point","properties":{"Station_ID":"MI-OG-6","Station_Nam":"WEST BRANCH 2.1 SSW, MI","Latitude":"44.24814","Longitude":"-84.25089","Snowdepth":"10.000","Units":"in","Rept_Date":"2021-01-29 12"},"coordinates":[3048,5359]},{"type":"Point","properties":{"Station_ID":"MI-MQ-28","Station_Nam":"CARLSHEND, MI","Latitude":"46.31638","Longitude":"-87.19944","Snowdepth":"10.000","Units":"in","Rept_Date":"2021-01-29 13"},"coordinates":[2356,6642]},{"type":"Point","properties":{"Station_ID":"MI-CP-14","Station_Nam":"SAULT STE. MARIE 2.2 E, MI","Latitude":"46.48933","Longitude":"-84.31971","Snowdepth":"10.000","Units":"in","Rept_Date":"2021-01-29 14"},"coordinates":[3032,6749]},{"type":"Point","properties":{"Station_ID":"LVRM1","Station_Nam":"LIVERMORE FALLS 1 E","Latitude":"44.47160","Longitude":"-70.15940","Snowdepth":"10.000","Units":"in","Rept_Date":"2021-01-29 12"},"coordinates":[6355,5498]},{"type":"Point","properties":{"Station_ID":"LAUP1","Station_Nam":"1.5MI S OF RT 30 ON SMIT (LAUREL RIDGE)","Latitude":"40.05000","Longitude":"-79.22060","Snowdepth":"10.000","Units":"in","Rept_Date":"2021-01-29 12"},"coordinates":[4229,2754]},{"type":"Point","properties":{"Station_ID":"KSYR","Station_Nam":"SYRACUSE HANCOCK INTERNATIONAL  AIRPORT","Latitude":"43.11666","Longitude":"-76.10000","Snowdepth":"10.000","Units":"in","Rept_Date":"2021-01-30 06"},"coordinates":[4961,4657]},{"type":"Point","properties":{"Station_ID":"KMSN","Station_Nam":"MADISON DANE COUNTY RGNL","Latitude":"43.13333","Longitude":"-89.35000","Snowdepth":"10.000","Units":"in","Rept_Date":"2021-01-30 06"},"coordinates":[1851,4667]},{"type":"Point","properties":{"Station_ID":"KLKM4","Station_Nam":"KALKASKA","Latitude":"44.72800","Longitude":"-85.17270","Snowdepth":"10.000","Units":"in","Rept_Date":"2021-01-29 13"},"coordinates":[2832,5657]},{"type":"Point","properties":{"Station_ID":"IL-LE-23","Station_Nam":"SUBLETTE 3.1 WNW, IL","Latitude":"41.65939","Longitude":"-89.28867","Snowdepth":"10.000","Units":"in","Rept_Date":"2021-01-29 13"},"coordinates":[1866,3753]},{"type":"Point","properties":{"Station_ID":"IA-WR-5","Station_Nam":"HARTFORD 1.0 E, IA","Latitude":"41.46014","Longitude":"-93.38550","Snowdepth":"10.000","Units":"in","Rept_Date":"2021-01-29 14"},"coordinates":[904,3629]},{"type":"Point","properties":{"Station_ID":"IA-ST-3","Station_Nam":"PARK VIEW 0.2 WSW, IA","Latitude":"41.68855","Longitude":"-90.54380","Snowdepth":"10.000","Units":"in","Rept_Date":"2021-01-29 13"},"coordinates":[1571,3771]},{"type":"Point","properties":{"Station_ID":"IA-PK-21","Station_Nam":"JOHNSTON 3.7 NNW, IA","Latitude":"41.73660","Longitude":"-93.72360","Snowdepth":"10.000","Units":"in","Rept_Date":"2021-01-29 13"},"coordinates":[825,3801]},{"type":"Point","properties":{"Station_ID":"IA-JH-20","Station_Nam":"CORALVILLE 1.4 S, IA","Latitude":"41.67016","Longitude":"-91.60296","Snowdepth":"10.000","Units":"in","Rept_Date":"2021-01-29 14"},"coordinates":[1323,3759]},{"type":"Point","properties":{"Station_ID":"HTLM4","Station_Nam":"SNOW PAID OBSERVER FOR KHTL","Latitude":"44.34470","Longitude":"-84.67730","Snowdepth":"10.000","Units":"in","Rept_Date":"2021-01-29 18"},"coordinates":[2948,5419]},{"type":"Point","properties":{"Station_ID":"HTL","Station_Nam":"ROSCOMMON COUNTY AIRPORT","Latitude":"44.35000","Longitude":"-84.66670","Snowdepth":"10.000","Units":"in","Rept_Date":"2021-01-30 00"},"coordinates":[2951,5422]},{"type":"Point","properties":{"Station_ID":"HSTM5","Station_Nam":"HASTINGS DAM 2","Latitude":"44.75970","Longitude":"-92.86890","Snowdepth":"10.000","Units":"in","Rept_Date":"2021-01-29 13"},"coordinates":[1026,5676]},{"type":"Point","properties":{"Station_ID":"HRFI4","Station_Nam":"HARTFORD,IA","Latitude":"41.46670","Longitude":"-93.41670","Snowdepth":"10.000","Units":"in","Rept_Date":"2021-01-29 14"},"coordinates":[897,3633]},{"type":"Point","properties":{"Station_ID":"GRAN1","Station_Nam":"GRETNA,NE","Latitude":"41.20000","Longitude":"-96.20000","Snowdepth":"10.000","Units":"in","Rept_Date":"2021-01-29 14"},"coordinates":[244,3468]},{"type":"Point","properties":{"Station_ID":"GAYM4","Station_Nam":"GAYLORD","Latitude":"45.03320","Longitude":"-84.71130","Snowdepth":"10.000","Units":"in","Rept_Date":"2021-01-29 13"},"coordinates":[2940,5846]},{"type":"Point","properties":{"Station_ID":"FORM5","Station_Nam":"FOREST LAKE 5NE","Latitude":"45.33170","Longitude":"-92.89820","Snowdepth":"10.000","Units":"in","Rept_Date":"2021-01-29 13"},"coordinates":[1019,6031]},{"type":"Point","properties":{"Station_ID":"FLAM4","Station_Nam":"FIFE LAKE 2WNW","Latitude":"44.58480","Longitude":"-85.36530","Snowdepth":"10.000","Units":"in","Rept_Date":"2021-01-29 12"},"coordinates":[2787,5568]},{"type":"Point","properties":{"Station_ID":"FEDM5","Station_Nam":"LEECH LAKE DAM","Latitude":"47.24670","Longitude":"-94.22280","Snowdepth":"10.000","Units":"in","Rept_Date":"2021-01-29 14"},"coordinates":[708,7219]},{"type":"Point","properties":{"Station_ID":"FCLN1","Station_Nam":"FT CALHOUN 4W","Latitude":"41.44670","Longitude":"-96.09190","Snowdepth":"10.000","Units":"in","Rept_Date":"2021-01-29 13"},"coordinates":[269,3621]},{"type":"Point","properties":{"Station_ID":"EVRW3","Station_Nam":"EAGLE RIVER-4 E","Latitude":"45.91890","Longitude":"-89.15280","Snowdepth":"10.000","Units":"in","Rept_Date":"2021-01-29 13"},"coordinates":[1898,6396]},{"type":"Point","properties":{"Station_ID":"ELKM5","Station_Nam":"ELK RIVER","Latitude":"45.30470","Longitude":"-93.58420","Snowdepth":"10.000","Units":"in","Rept_Date":"2021-01-29 13"},"coordinates":[858,6014]},{"type":"Point","properties":{"Station_ID":"DOUG006","Station_Nam":"OMAHA 2.9 W, NE","Latitude":"41.26580","Longitude":"-95.99270","Snowdepth":"10.000","Units":"in","Rept_Date":"2021-01-29 13"},"coordinates":[292,3509]},{"type":"Point","properties":{"Station_ID":"CLYN6","Station_Nam":"CLYDE LOCK 26","Latitude":"43.05900","Longitude":"-76.83840","Snowdepth":"10.000","Units":"in","Rept_Date":"2021-01-29 12"},"coordinates":[4788,4621]},{"type":"Point","properties":{"Station_ID":"CLUI4","Station_Nam":"CLUTIER,IA","Latitude":"42.08330","Longitude":"-92.40000","Snowdepth":"10.000","Units":"in","Rept_Date":"2021-01-29 13"},"coordinates":[1136,4016]},{"type":"Point","properties":{"Station_ID":"CLNI4","Station_Nam":"CLINTON NO 1","Latitude":"41.79470","Longitude":"-90.26390","Snowdepth":"10.000","Units":"in","Rept_Date":"2021-01-30 00"},"coordinates":[1637,3837]},{"type":"Point","properties":{"Station_ID":"CLIW3","Station_Nam":"CLINTON,WI","Latitude":"42.60000","Longitude":"-88.88330","Snowdepth":"10.000","Units":"in","Rept_Date":"2021-01-29 13"},"coordinates":[1961,4336]},{"type":"Point","properties":{"Station_ID":"CBLW3","Station_Nam":"CUMBERLAND","Latitude":"45.53310","Longitude":"-92.02260","Snowdepth":"10.000","Units":"in","Rept_Date":"2021-01-29 13"},"coordinates":[1224,6156]},{"type":"Point","properties":{"Station_ID":"CARM1","Station_Nam":"CARIBOU WFO","Latitude":"46.86810","Longitude":"-68.01250","Snowdepth":"10.000","Units":"in","Rept_Date":"2021-01-30 05"},"coordinates":[6859,6984]},{"type":"Point","properties":{"Station_ID":"CAR","Station_Nam":"CARIBOU, ME","Latitude":"46.86830","Longitude":"-68.01360","Snowdepth":"10.000","Units":"in","Rept_Date":"2021-01-29 12"},"coordinates":[6859,6985]},{"type":"Point","properties":{"Station_ID":"CAN-NB-64","Station_Nam":"KESWICK RIDGE 4.0 SE, CAN","Latitude":"45.97014","Longitude":"-66.85538","Snowdepth":"10.000","Units":"in","Rept_Date":"2021-01-29 13"},"coordinates":[7131,6427]},{"type":"Point","properties":{"Station_ID":"BGTW3","Station_Nam":"SEWAGE DISPOSAL PLANT","Latitude":"42.68330","Longitude":"-88.20000","Snowdepth":"10.000","Units":"in","Rept_Date":"2021-01-29 12"},"coordinates":[2121,4388]},{"type":"Point","properties":{"Station_ID":"BCNI4","Station_Nam":"BEACONSFIELD,IA","Latitude":"40.82360","Longitude":"-94.04390","Snowdepth":"10.000","Units":"in","Rept_Date":"2021-01-29 13"},"coordinates":[750,3234]},{"type":"Point","properties":{"Station_ID":"AUDI4","Station_Nam":"AUDUBON,IA","Latitude":"41.71670","Longitude":"-94.93330","Snowdepth":"10.000","Units":"in","Rept_Date":"2021-01-29 14"},"coordinates":[541,3788]},{"type":"Point","properties":{"Station_ID":"AUBN6","Station_Nam":"AUBURN","Latitude":"42.93270","Longitude":"-76.54470","Snowdepth":"10.000","Units":"in","Rept_Date":"2021-01-29 11"},"coordinates":[4857,4543]},{"type":"Point","properties":{"Station_ID":"ATLI4","Station_Nam":"ATLANTIC,IA","Latitude":"41.41810","Longitude":"-95.00310","Snowdepth":"10.000","Units":"in","Rept_Date":"2021-01-29 13"},"coordinates":[525,3603]},{"type":"Point","properties":{"Station_ID":"AMOI4","Station_Nam":"ANAMOSA 3 SSW","Latitude":"42.07630","Longitude":"-91.30190","Snowdepth":"10.000","Units":"in","Rept_Date":"2021-01-29 12"},"coordinates":[1393,4011]},{"type":"Point","properties":{"Station_ID":"AMAM4","Station_Nam":"AMASA 1W","Latitude":"46.23470","Longitude":"-88.45440","Snowdepth":"10.000","Units":"in","Rept_Date":"2021-01-29 14"},"coordinates":[2062,6591]},{"type":"Point","properties":{"Station_ID":"VT-AD-28","Station_Nam":"MONKTON 1.5 NE, VT","Latitude":"44.26760","Longitude":"-73.09940","Snowdepth":"9.900","Units":"in","Rept_Date":"2021-01-29 13"},"coordinates":[5665,5371]},{"type":"Point","properties":{"Station_ID":"CAN-ON-92","Station_Nam":"DUNROBIN 1.9 W - MVCA, CAN","Latitude":"45.42318","Longitude":"-76.04525","Snowdepth":"9.800","Units":"in","Rept_Date":"2021-01-29 12"},"coordinates":[4974,6088]},{"type":"Point","properties":{"Station_ID":"CAN-ON-757","Station_Nam":"SAULT STE. MARIE 2.8 ESE - GLFC, CAN","Latitude":"46.50300","Longitude":"-84.30300","Snowdepth":"9.800","Units":"in","Rept_Date":"2021-01-29 13"},"coordinates":[3036,6758]},{"type":"Point","properties":{"Station_ID":"CAN-NB-105","Station_Nam":"SISSON BROOK 3.8 E, CAN","Latitude":"46.98305","Longitude":"-67.32532","Snowdepth":"9.800","Units":"in","Rept_Date":"2021-01-29 12"},"coordinates":[7020,7056]},{"type":"Point","properties":{"Station_ID":"IL-CK-288","Station_Nam":"ROSELLE 0.8 N, IL","Latitude":"41.99255","Longitude":"-88.08422","Snowdepth":"9.600","Units":"in","Rept_Date":"2021-01-29 13"},"coordinates":[2148,3959]},{"type":"Point","properties":{"Station_ID":"WI-WK-68","Station_Nam":"OCONOMOWOC 1.0 S, WI","Latitude":"43.09530","Longitude":"-88.48590","Snowdepth":"9.500","Units":"in","Rept_Date":"2021-01-29 13"},"coordinates":[2054,4644]},{"type":"Point","properties":{"Station_ID":"WI-VL-14","Station_Nam":"BOULDER JUNCTION 1.4 NE, WI","Latitude":"46.12840","Longitude":"-89.62470","Snowdepth":"9.500","Units":"in","Rept_Date":"2021-01-29 13"},"coordinates":[1787,6525]},{"type":"Point","properties":{"Station_ID":"WI-OZ-17","Station_Nam":"WEST BEND 7.3 E, WI","Latitude":"43.42860","Longitude":"-88.03870","Snowdepth":"9.500","Units":"in","Rept_Date":"2021-01-29 13"},"coordinates":[2159,4850]},{"type":"Point","properties":{"Station_ID":"WI-OZ-12","Station_Nam":"PORT WASHINGTON 0.5 S, WI","Latitude":"43.38610","Longitude":"-87.87900","Snowdepth":"9.500","Units":"in","Rept_Date":"2021-01-29 13"},"coordinates":[2197,4824]},{"type":"Point","properties":{"Station_ID":"WI-MW-43","Station_Nam":"BROWN DEER 0.8 NW, WI","Latitude":"43.18438","Longitude":"-87.98401","Snowdepth":"9.500","Units":"in","Rept_Date":"2021-01-29 13"},"coordinates":[2172,4699]},{"type":"Point","properties":{"Station_ID":"WI-DA-39","Station_Nam":"MADISON 4.0 W, WI","Latitude":"43.07741","Longitude":"-89.46757","Snowdepth":"9.500","Units":"in","Rept_Date":"2021-01-29 13"},"coordinates":[1824,4633]},{"type":"Point","properties":{"Station_ID":"WI-DA-31","Station_Nam":"DEERFIELD 0.6 N, WI","Latitude":"43.05958","Longitude":"-89.07340","Snowdepth":"9.500","Units":"in","Rept_Date":"2021-01-29 14"},"coordinates":[1916,4621]},{"type":"Point","properties":{"Station_ID":"WI-DA-13","Station_Nam":"MADISON 3.7 WSW, WI","Latitude":"43.06230","Longitude":"-89.45650","Snowdepth":"9.500","Units":"in","Rept_Date":"2021-01-29 13"},"coordinates":[1826,4623]},{"type":"Point","properties":{"Station_ID":"WI-BY-6","Station_Nam":"BARNES 2.2 S, WI","Latitude":"46.30264","Longitude":"-91.50320","Snowdepth":"9.500","Units":"in","Rept_Date":"2021-01-29 13"},"coordinates":[1346,6634]},{"type":"Point","properties":{"Station_ID":"VT-LM-1","Station_Nam":"STOWE 0.2 SW, VT","Latitude":"44.46399","Longitude":"-72.69070","Snowdepth":"9.500","Units":"in","Rept_Date":"2021-01-29 12"},"coordinates":[5761,5493]},{"type":"Point","properties":{"Station_ID":"PA-CR-1","Station_Nam":"EMPORIUM 2.6 S, PA","Latitude":"41.47342","Longitude":"-78.24330","Snowdepth":"9.500","Units":"in","Rept_Date":"2021-01-29 13"},"coordinates":[4458,3637]},{"type":"Point","properties":{"Station_ID":"NY-TG-15","Station_Nam":"BERKSHIRE 1.9 ENE, NY","Latitude":"42.31910","Longitude":"-76.21940","Snowdepth":"9.500","Units":"in","Rept_Date":"2021-01-29 13"},"coordinates":[4933,4162]},{"type":"Point","properties":{"Station_ID":"NY-OG-72","Station_Nam":"LIVERPOOL 4.5 N, NY","Latitude":"43.17016","Longitude":"-76.22385","Snowdepth":"9.500","Units":"in","Rept_Date":"2021-01-29 13"},"coordinates":[4932,4690]},{"type":"Point","properties":{"Station_ID":"NY-OG-46","Station_Nam":"BALDWINSVILLE 3.5 NE, NY","Latitude":"43.19506","Longitude":"-76.28830","Snowdepth":"9.500","Units":"in","Rept_Date":"2021-01-29 13"},"coordinates":[4917,4706]},{"type":"Point","properties":{"Station_ID":"NY-MD-22","Station_Nam":"ONEIDA 0.4 NW, NY","Latitude":"43.08012","Longitude":"-75.66860","Snowdepth":"9.500","Units":"in","Rept_Date":"2021-01-29 12"},"coordinates":[5062,4634]},{"type":"Point","properties":{"Station_ID":"MN-IT-17","Station_Nam":"GRAND RAPIDS 6.1 N, MN","Latitude":"47.31165","Longitude":"-93.55036","Snowdepth":"9.500","Units":"in","Rept_Date":"2021-01-29 13"},"coordinates":[866,7260]},{"type":"Point","properties":{"Station_ID":"MN-CW-54","Station_Nam":"AITKIN 9.6 W, MN","Latitude":"46.53711","Longitude":"-93.90688","Snowdepth":"9.500","Units":"in","Rept_Date":"2021-01-29 14"},"coordinates":[782,6779]},{"type":"Point","properties":{"Station_ID":"MN-CW-44","Station_Nam":"CROSBY 1.1 SW, MN","Latitude":"46.47772","Longitude":"-93.97293","Snowdepth":"9.500","Units":"in","Rept_Date":"2021-01-29 13"},"coordinates":[766,6742]},{"type":"Point","properties":{"Station_ID":"MN-CW-22","Station_Nam":"FORT RIPLEY 0.8 N, MN","Latitude":"46.18089","Longitude":"-94.36510","Snowdepth":"9.500","Units":"in","Rept_Date":"2021-01-29 13"},"coordinates":[674,6558]},{"type":"Point","properties":{"Station_ID":"MI-GL-4","Station_Nam":"GLADWIN 10.4 NNW, MI","Latitude":"44.11865","Longitude":"-84.58470","Snowdepth":"9.500","Units":"in","Rept_Date":"2021-01-29 14"},"coordinates":[2970,5279]},{"type":"Point","properties":{"Station_ID":"MI-AT-6","Station_Nam":"MANCELONA 0.5 ESE, MI","Latitude":"44.89981","Longitude":"-85.05100","Snowdepth":"9.500","Units":"in","Rept_Date":"2021-01-29 13"},"coordinates":[2860,5763]},{"type":"Point","properties":{"Station_ID":"IL-WN-32","Station_Nam":"ROCKFORD 5.5 S, IL","Latitude":"42.19058","Longitude":"-89.06040","Snowdepth":"9.500","Units":"in","Rept_Date":"2021-01-29 14"},"coordinates":[1919,4082]},{"type":"Point","properties":{"Station_ID":"IA-PK-97","Station_Nam":"ANKENY 1.5 NNE, IA","Latitude":"41.74376","Longitude":"-93.59088","Snowdepth":"9.500","Units":"in","Rept_Date":"2021-01-29 13"},"coordinates":[856,3805]},{"type":"Point","properties":{"Station_ID":"IA-PK-89","Station_Nam":"ANKENY 3.7 NNE, IA","Latitude":"41.77305","Longitude":"-93.57635","Snowdepth":"9.500","Units":"in","Rept_Date":"2021-01-29 13"},"coordinates":[860,3823]},{"type":"Point","properties":{"Station_ID":"IA-JH-14","Station_Nam":"SWISHER 0.4 NNE, IA","Latitude":"41.84830","Longitude":"-91.69210","Snowdepth":"9.500","Units":"in","Rept_Date":"2021-01-29 14"},"coordinates":[1302,3870]},{"type":"Point","properties":{"Station_ID":"QIQ","Station_Nam":"QIQ","Latitude":"49.82390","Longitude":"-68.54310","Snowdepth":"9.488","Units":"in","Rept_Date":"2021-01-29 12"},"coordinates":[6735,8818]},{"type":"Point","properties":{"Station_ID":"NY-MG-5","Station_Nam":"AMSTERDAM 1.0 NNW, NY","Latitude":"42.95467","Longitude":"-74.20085","Snowdepth":"9.200","Units":"in","Rept_Date":"2021-01-29 14"},"coordinates":[5407,4556]},{"type":"Point","properties":{"Station_ID":"NE-LA-58","Station_Nam":"LINCOLN 1.4 S, NE","Latitude":"40.79682","Longitude":"-96.68468","Snowdepth":"9.200","Units":"in","Rept_Date":"2021-01-29 14"},"coordinates":[130,3218]},{"type":"Point","properties":{"Station_ID":"IA-CL-4","Station_Nam":"MURRAY 1.7 W, IA","Latitude":"41.04128","Longitude":"-93.98046","Snowdepth":"9.200","Units":"in","Rept_Date":"2021-01-29 13"},"coordinates":[765,3369]},{"type":"Point","properties":{"Station_ID":"IA-CL-3","Station_Nam":"MURRAY 0.5 N, IA","Latitude":"41.04831","Longitude":"-93.94960","Snowdepth":"9.200","Units":"in","Rept_Date":"2021-01-29 13"},"coordinates":[772,3374]},{"type":"Point","properties":{"Station_ID":"CAN-NB-98","Station_Nam":"HOYT 4.2 S, CAN","Latitude":"45.54763","Longitude":"-66.55440","Snowdepth":"9.100","Units":"in","Rept_Date":"2021-01-29 11"},"coordinates":[7201,6165]},{"type":"Point","properties":{"Station_ID":"WYON6","Station_Nam":"WYOMING 3W","Latitude":"42.82020","Longitude":"-78.14780","Snowdepth":"9.000","Units":"in","Rept_Date":"2021-01-29 12"},"coordinates":[4480,4473]},{"type":"Point","properties":{"Station_ID":"WODI2","Station_Nam":"WOODSTOCK","Latitude":"42.36280","Longitude":"-88.53140","Snowdepth":"9.000","Units":"in","Rept_Date":"2021-01-29 12"},"coordinates":[2044,4189]},{"type":"Point","properties":{"Station_ID":"WLXP1","Station_Nam":"GLEN HAZEL,PA","Latitude":"41.56670","Longitude":"-78.60000","Snowdepth":"9.000","Units":"in","Rept_Date":"2021-01-29 12"},"coordinates":[4374,3695]},{"type":"Point","properties":{"Station_ID":"WI-SB-10","Station_Nam":"RANDOM LAKE 0.5 SSE, WI","Latitude":"43.54812","Longitude":"-87.95050","Snowdepth":"9.000","Units":"in","Rept_Date":"2021-01-29 13"},"coordinates":[2180,4925]},{"type":"Point","properties":{"Station_ID":"WI-RC-3","Station_Nam":"RACINE 2.3 WSW, WI","Latitude":"42.71124","Longitude":"-87.84570","Snowdepth":"9.000","Units":"in","Rept_Date":"2021-01-29 13"},"coordinates":[2204,4405]},{"type":"Point","properties":{"Station_ID":"WI-OZ-22","Station_Nam":"SAUKVILLE 0.9 SSW, WI","Latitude":"43.37254","Longitude":"-87.95009","Snowdepth":"9.000","Units":"in","Rept_Date":"2021-01-29 13"},"coordinates":[2180,4816]},{"type":"Point","properties":{"Station_ID":"WI-JF-2","Station_Nam":"WATERTOWN 1.6 ESE, WI","Latitude":"43.17916","Longitude":"-88.69720","Snowdepth":"9.000","Units":"in","Rept_Date":"2021-01-29 13"},"coordinates":[2005,4696]},{"type":"Point","properties":{"Station_ID":"WI-DA-87","Station_Nam":"DUNKIRK 0.1 NW, WI","Latitude":"42.88356","Longitude":"-89.21056","Snowdepth":"9.000","Units":"in","Rept_Date":"2021-01-29 12"},"coordinates":[1884,4512]},{"type":"Point","properties":{"Station_ID":"WI-DA-46","Station_Nam":"MADISON 6.4 W, WI","Latitude":"43.08337","Longitude":"-89.51503","Snowdepth":"9.000","Units":"in","Rept_Date":"2021-01-29 13"},"coordinates":[1813,4636]},{"type":"Point","properties":{"Station_ID":"WI-DA-33","Station_Nam":"OREGON 0.4 SSW, WI","Latitude":"42.92080","Longitude":"-89.38540","Snowdepth":"9.000","Units":"in","Rept_Date":"2021-01-29 13"},"coordinates":[1843,4535]},{"type":"Point","properties":{"Station_ID":"WI-CB-4","Station_Nam":"PORTAGE 5.7 WSW, WI","Latitude":"43.51411","Longitude":"-89.56910","Snowdepth":"9.000","Units":"in","Rept_Date":"2021-01-29 12"},"coordinates":[1800,4903]},{"type":"Point","properties":{"Station_ID":"WDOM5","Station_Nam":"WINDOM","Latitude":"43.87700","Longitude":"-95.11590","Snowdepth":"9.000","Units":"in","Rept_Date":"2021-01-29 14"},"coordinates":[498,5129]},{"type":"Point","properties":{"Station_ID":"WASM5","Station_Nam":"WASECA SOUTHERN RESEARCH AND OUTREACH CENTER","Latitude":"44.07070","Longitude":"-93.52640","Snowdepth":"9.000","Units":"in","Rept_Date":"2021-01-29 14"},"coordinates":[871,5249]},{"type":"Point","properties":{"Station_ID":"VT-CH-38","Station_Nam":"WILLISTON 0.2 WSW, VT","Latitude":"44.43669","Longitude":"-73.07154","Snowdepth":"9.000","Units":"in","Rept_Date":"2021-01-29 12"},"coordinates":[5672,5476]},{"type":"Point","properties":{"Station_ID":"VT-CH-11","Station_Nam":"UNDERHILL 5.1 NNE, VT","Latitude":"44.59811","Longitude":"-72.91880","Snowdepth":"9.000","Units":"in","Rept_Date":"2021-01-29 12"},"coordinates":[5708,5576]},{"type":"Point","properties":{"Station_ID":"UNDI4","Station_Nam":"UNDERWOOD","Latitude":"41.38940","Longitude":"-95.68110","Snowdepth":"9.000","Units":"in","Rept_Date":"2021-01-29 13"},"coordinates":[366,3585]},{"type":"Point","properties":{"Station_ID":"TOPM1","Station_Nam":"TOPSFIELD","Latitude":"45.43470","Longitude":"-67.72020","Snowdepth":"9.000","Units":"in","Rept_Date":"2021-01-29 12"},"coordinates":[6928,6095]},{"type":"Point","properties":{"Station_ID":"TN-RB-45","Station_Nam":"GREENBRIER 1.3 ESE, TN","Latitude":"36.41748","Longitude":"-86.77913","Snowdepth":"9.000","Units":"in","Rept_Date":"2021-01-29 13"},"coordinates":[2455,500]},{"type":"Point","properties":{"Station_ID":"TLDI4","Station_Nam":"TOLEDO,IA","Latitude":"41.98330","Longitude":"-92.58330","Snowdepth":"9.000","Units":"in","Rept_Date":"2021-01-29 13"},"coordinates":[1093,3954]},{"type":"Point","properties":{"Station_ID":"SWHI4","Station_Nam":"SWISHER #2","Latitude":"41.84970","Longitude":"-91.67650","Snowdepth":"9.000","Units":"in","Rept_Date":"2021-01-29 14"},"coordinates":[1305,3871]},{"type":"Point","properties":{"Station_ID":"SVSN6","Station_Nam":"SILVER SPRINGS 3N","Latitude":"42.70580","Longitude":"-78.09370","Snowdepth":"9.000","Units":"in","Rept_Date":"2021-01-29 12"},"coordinates":[4493,4402]},{"type":"Point","properties":{"Station_ID":"SRAW3","Station_Nam":"SARONA","Latitude":"45.80250","Longitude":"-91.86700","Snowdepth":"9.000","Units":"in","Rept_Date":"2021-01-29 14"},"coordinates":[1261,6323]},{"type":"Point","properties":{"Station_ID":"SPNN1","Station_Nam":"MAHA SCOUT CAMP","Latitude":"41.06390","Longitude":"-96.00690","Snowdepth":"9.000","Units":"in","Rept_Date":"2021-01-29 14"},"coordinates":[289,3383]},{"type":"Point","properties":{"Station_ID":"SLRW3","Station_Nam":"SLINGER","Latitude":"43.33390","Longitude":"-88.29780","Snowdepth":"9.000","Units":"in","Rept_Date":"2021-01-29 13"},"coordinates":[2098,4792]},{"type":"Point","properties":{"Station_ID":"SACW3","Station_Nam":"SAUK CITY","Latitude":"43.26000","Longitude":"-89.73580","Snowdepth":"9.000","Units":"in","Rept_Date":"2021-01-29 13"},"coordinates":[1761,4746]},{"type":"Point","properties":{"Station_ID":"RKWM1","Station_Nam":"MOOSEHEAD LAKE","Latitude":"45.58330","Longitude":"-69.71670","Snowdepth":"9.000","Units":"in","Rept_Date":"2021-01-29 12"},"coordinates":[6459,6187]},{"type":"Point","properties":{"Station_ID":"RKWI4","Station_Nam":"ROCKWELL CITY,IA","Latitude":"42.40000","Longitude":"-94.61670","Snowdepth":"9.000","Units":"in","Rept_Date":"2021-01-29 13"},"coordinates":[615,4212]},{"type":"Point","properties":{"Station_ID":"RARM4","Station_Nam":"RAPID RIVER 1 SW","Latitude":"45.91500","Longitude":"-86.98800","Snowdepth":"9.000","Units":"in","Rept_Date":"2021-01-29 12"},"coordinates":[2406,6393]},{"type":"Point","properties":{"Station_ID":"OMA","Station_Nam":"EPPLEY AIRFIELD","Latitude":"41.30220","Longitude":"-95.89330","Snowdepth":"9.000","Units":"in","Rept_Date":"2021-01-30 00"},"coordinates":[316,3531]},{"type":"Point","properties":{"Station_ID":"OFF","Station_Nam":"OFFUTT AFB","Latitude":"41.11810","Longitude":"-95.91250","Snowdepth":"9.000","Units":"in","Rept_Date":"2021-01-29 12"},"coordinates":[311,3417]},{"type":"Point","properties":{"Station_ID":"NY-WY-11","Station_Nam":"SILVER SPRINGS COOP, NY","Latitude":"42.70580","Longitude":"-78.09370","Snowdepth":"9.000","Units":"in","Rept_Date":"2021-01-29 12"},"coordinates":[4493,4402]},{"type":"Point","properties":{"Station_ID":"NY-TM-45","Station_Nam":"NEWFIELD HAMLET 4.3 S, NY","Latitude":"42.29650","Longitude":"-76.60676","Snowdepth":"9.000","Units":"in","Rept_Date":"2021-01-29 14"},"coordinates":[4842,4148]},{"type":"Point","properties":{"Station_ID":"NY-ES-7","Station_Nam":"KEESEVILLE 0.8 SE, NY","Latitude":"44.49504","Longitude":"-73.47109","Snowdepth":"9.000","Units":"in","Rept_Date":"2021-01-29 12"},"coordinates":[5578,5512]},