{"type":"Topology","objects":{"snowdepth_geo":{"type":"GeometryCollection","name":"snowdepth","crs":{"type":"name","properties":{"name":"urn:ogc:def:crs:OGC:1.3:CRS84"}},"geometries":[{"type":"Point","properties":{"Station_ID":"PRKM4","Station_Nam":"MUNISING EAST","Latitude":"46.42580","Longitude":"-86.62000","Snowdepth":"76.500","Units":"in","Rept_Date":"2020-04-17 06"},"coordinates":[2491,5802]},{"type":"Point","properties":{"Station_ID":"OGIQ6","Station_Nam":"OGOKI CAMP","Latitude":"50.76680","Longitude":"-87.85820","Snowdepth":"61.100","Units":"in","Rept_Date":"2020-04-17 04"},"coordinates":[2201,9239]},{"type":"Point","properties":{"Station_ID":"DVLQ6","Station_Nam":"DEVIOUS LAKE","Latitude":"49.19890","Longitude":"-87.76440","Snowdepth":"43.460","Units":"in","Rept_Date":"2020-04-17 04"},"coordinates":[2223,7997]},{"type":"Point","properties":{"Station_ID":"PDLM4","Station_Nam":"PAINESDALE","Latitude":"47.04160","Longitude":"-88.67170","Snowdepth":"32.000","Units":"in","Rept_Date":"2020-04-16 12"},"coordinates":[2010,6289]},{"type":"Point","properties":{"Station_ID":"MNSM4","Station_Nam":"MUNISING","Latitude":"46.41210","Longitude":"-86.66250","Snowdepth":"31.000","Units":"in","Rept_Date":"2020-04-16 10"},"coordinates":[2481,5791]},{"type":"Point","properties":{"Station_ID":"MI-BG-3","Station_Nam":"L'ANSE 17.8 SE, MI","Latitude":"46.55730","Longitude":"-88.20770","Snowdepth":"26.000","Units":"in","Rept_Date":"2020-04-16 12"},"coordinates":[2119,5906]},{"type":"Point","properties":{"Station_ID":"MQT","Station_Nam":"MARQUETTE, MI","Latitude":"46.53140","Longitude":"-87.54920","Snowdepth":"24.000","Units":"in","Rept_Date":"2020-04-17 06"},"coordinates":[2273,5885]},{"type":"Point","properties":{"Station_ID":"HERM4","Station_Nam":"HERMAN,MI","Latitude":"46.65000","Longitude":"-88.33330","Snowdepth":"24.000","Units":"in","Rept_Date":"2020-04-16 14"},"coordinates":[2089,5979]},{"type":"Point","properties":{"Station_ID":"PTLQ6","Station_Nam":"PORTAGE LAKE","Latitude":"49.06950","Longitude":"-86.65940","Snowdepth":"16.020","Units":"in","Rept_Date":"2020-04-17 04"},"coordinates":[2482,7895]},{"type":"Point","properties":{"Station_ID":"TRIQ6","Station_Nam":"TRIO LAKE","Latitude":"49.22880","Longitude":"-87.22920","Snowdepth":"15.310","Units":"in","Rept_Date":"2020-04-17 04"},"coordinates":[2348,8021]},{"type":"Point","properties":{"Station_ID":"TWOM5","Station_Nam":"TWO HARBORS,MN","Latitude":"47.12580","Longitude":"-91.70750","Snowdepth":"15.000","Units":"in","Rept_Date":"2020-04-17 00"},"coordinates":[1297,6356]},{"type":"Point","properties":{"Station_ID":"CAN-NB-13","Station_Nam":"BATHURST 3.8 NW, CAN","Latitude":"47.64212","Longitude":"-65.68756","Snowdepth":"14.500","Units":"in","Rept_Date":"2020-04-16 10"},"coordinates":[7404,6765]},{"type":"Point","properties":{"Station_ID":"WLFM5","Station_Nam":"WOLF RIDGE ENVIRON LEARNING CENTER","Latitude":"47.38240","Longitude":"-91.19730","Snowdepth":"14.000","Units":"in","Rept_Date":"2020-04-16 12"},"coordinates":[1417,6559]},{"type":"Point","properties":{"Station_ID":"SVBQ6","Station_Nam":"SAVANT BASE","Latitude":"50.28730","Longitude":"-90.65670","Snowdepth":"13.940","Units":"in","Rept_Date":"2020-04-17 04"},"coordinates":[1544,8859]},{"type":"Point","properties":{"Station_ID":"NH-CS-10","Station_Nam":"RANDOLPH 1.4 NE, NH","Latitude":"44.38824","Longitude":"-71.26950","Snowdepth":"13.500","Units":"in","Rept_Date":"2020-04-16 11"},"coordinates":[6094,4188]},{"type":"Point","properties":{"Station_ID":"CAN-NL-82","Station_Nam":"GANDER 2.7 NW, CAN","Latitude":"48.97737","Longitude":"-54.63396","Snowdepth":"13.400","Units":"in","Rept_Date":"2020-04-16 09"},"coordinates":[9999,7822]},{"type":"Point","properties":{"Station_ID":"STEM4","Station_Nam":"STEUBEN","Latitude":"46.18530","Longitude":"-86.46410","Snowdepth":"13.000","Units":"in","Rept_Date":"2020-04-16 13"},"coordinates":[2528,5611]},{"type":"Point","properties":{"Station_ID":"BBEM4","Station_Nam":"BIG BAY 9SW","Latitude":"46.74620","Longitude":"-87.88160","Snowdepth":"13.000","Units":"in","Rept_Date":"2020-04-16 12"},"coordinates":[2195,6055]},{"type":"Point","properties":{"Station_ID":"ME-AR-18","Station_Nam":"NEW SWEDEN 4.9 NNW, ME","Latitude":"47.01080","Longitude":"-68.14390","Snowdepth":"11.000","Units":"in","Rept_Date":"2020-04-16 11"},"coordinates":[6828,6265]},{"type":"Point","properties":{"Station_ID":"HRVM4","Station_Nam":"HARVEY","Latitude":"46.49080","Longitude":"-87.35470","Snowdepth":"11.000","Units":"in","Rept_Date":"2020-04-16 12"},"coordinates":[2319,5853]},{"type":"Point","properties":{"Station_ID":"GGRM4","Station_Nam":"GREEN GARDEN NO.2","Latitude":"46.45330","Longitude":"-87.30380","Snowdepth":"11.000","Units":"in","Rept_Date":"2020-04-16 12"},"coordinates":[2331,5824]},{"type":"Point","properties":{"Station_ID":"CAN-NB-11","Station_Nam":"MIRAMICHI 3.3 S, CAN","Latitude":"46.99343","Longitude":"-65.50690","Snowdepth":"10.000","Units":"in","Rept_Date":"2020-04-16 11"},"coordinates":[7447,6251]},{"type":"Point","properties":{"Station_ID":"AUDQ6","Station_Nam":"AUDEN","Latitude":"48.52600","Longitude":"-82.57570","Snowdepth":"9.530","Units":"in","Rept_Date":"2020-04-17 04"},"coordinates":[3440,7465]},{"type":"Point","properties":{"Station_ID":"PRDM4","Station_Nam":"PARADISE","Latitude":"46.60380","Longitude":"-85.03960","Snowdepth":"9.000","Units":"in","Rept_Date":"2020-04-16 10"},"coordinates":[2862,5943]},{"type":"Point","properties":{"Station_ID":"MRQM4","Station_Nam":"MARQUETTE WFP","Latitude":"46.54580","Longitude":"-87.37950","Snowdepth":"9.000","Units":"in","Rept_Date":"2020-04-16 12"},"coordinates":[2313,5897]},{"type":"Point","properties":{"Station_ID":"MLLW3","Station_Nam":"MERRILL 8W","Latitude":"45.17810","Longitude":"-89.84810","Snowdepth":"9.000","Units":"in","Rept_Date":"2020-04-16 11"},"coordinates":[1733,4814]},{"type":"Point","properties":{"Station_ID":"MI-GG-4","Station_Nam":"WATERSMEET 5.0 SE, MI","Latitude":"46.20333","Longitude":"-89.13170","Snowdepth":"9.000","Units":"in","Rept_Date":"2020-04-16 13"},"coordinates":[1902,5626]},{"type":"Point","properties":{"Station_ID":"LNOW3","Station_Nam":"LAND O LAKES","Latitude":"46.19000","Longitude":"-89.45700","Snowdepth":"9.000","Units":"in","Rept_Date":"2020-04-16 12"},"coordinates":[1825,5615]},{"type":"Point","properties":{"Station_ID":"IBLM5","Station_Nam":"ISABELLA 14W","Latitude":"47.59360","Longitude":"-91.65140","Snowdepth":"9.000","Units":"in","Rept_Date":"2020-04-16 14"},"coordinates":[1310,6726]},{"type":"Point","properties":{"Station_ID":"FISM1","Station_Nam":"FORT KENT COOP","Latitude":"47.23850","Longitude":"-68.61240","Snowdepth":"9.000","Units":"in","Rept_Date":"2020-04-16 11"},"coordinates":[6718,6445]},{"type":"Point","properties":{"Station_ID":"CAN-NL-65","Station_Nam":"KIPPENS 0.7 NE, CA","Latitude":"48.55436","Longitude":"-58.61850","Snowdepth":"9.000","Units":"in","Rept_Date":"2020-04-16 11"},"coordinates":[9064,7487]},{"type":"Point","properties":{"Station_ID":"AROM4","Station_Nam":"ARNOLD,MI","Latitude":"46.06670","Longitude":"-87.48330","Snowdepth":"9.000","Units":"in","Rept_Date":"2020-04-16 12"},"coordinates":[2289,5517]},{"type":"Point","properties":{"Station_ID":"WI-VL-9","Station_Nam":"LAND O' LAKES 11.7 W, WI","Latitude":"46.19023","Longitude":"-89.45790","Snowdepth":"8.500","Units":"in","Rept_Date":"2020-04-16 12"},"coordinates":[1825,5615]},{"type":"Point","properties":{"Station_ID":"WI-VL-10","Station_Nam":"LAND O LAKES 4.3 WNW, WI","Latitude":"46.17440","Longitude":"-89.30380","Snowdepth":"8.500","Units":"in","Rept_Date":"2020-04-16 12"},"coordinates":[1861,5603]},{"type":"Point","properties":{"Station_ID":"WI-LN-2","Station_Nam":"MERRILL 7.0 W, WI","Latitude":"45.17746","Longitude":"-89.84820","Snowdepth":"8.500","Units":"in","Rept_Date":"2020-04-16 11"},"coordinates":[1733,4813]},{"type":"Point","properties":{"Station_ID":"WI-IR-3","Station_Nam":"PENCE 0.1 E, WI","Latitude":"46.41555","Longitude":"-90.27013","Snowdepth":"8.000","Units":"in","Rept_Date":"2020-04-16 12"},"coordinates":[1634,5794]},{"type":"Point","properties":{"Station_ID":"TAKW3","Station_Nam":"RICE RESERVOIR NO. 2","Latitude":"45.53770","Longitude":"-89.73220","Snowdepth":"8.000","Units":"in","Rept_Date":"2020-04-16 12"},"coordinates":[1761,5099]},{"type":"Point","properties":{"Station_ID":"STGW3","Station_Nam":"ST GERMAIN","Latitude":"45.91550","Longitude":"-89.48940","Snowdepth":"8.000","Units":"in","Rept_Date":"2020-04-16 11"},"coordinates":[1818,5398]},{"type":"Point","properties":{"Station_ID":"MI-HG-1","Station_Nam":"HOUGHTON 1.6 ESE, MI","Latitude":"47.10774","Longitude":"-88.52940","Snowdepth":"8.000","Units":"in","Rept_Date":"2020-04-16 12"},"coordinates":[2043,6342]},{"type":"Point","properties":{"Station_ID":"COVM4","Station_Nam":"COVINGTON","Latitude":"46.55880","Longitude":"-88.54190","Snowdepth":"8.000","Units":"in","Rept_Date":"2020-04-16 12"},"coordinates":[2040,5907]},{"type":"Point","properties":{"Station_ID":"ABGW3","Station_Nam":"AMBERG 9 E","Latitude":"45.48250","Longitude":"-87.81190","Snowdepth":"8.000","Units":"in","Rept_Date":"2020-04-16 11"},"coordinates":[2211,5055]},{"type":"Point","properties":{"Station_ID":"WI-ON-8","Station_Nam":"HAZELHURST 2.1 SSE, WI","Latitude":"45.78186","Longitude":"-89.70330","Snowdepth":"7.000","Units":"in","Rept_Date":"2020-04-16 12"},"coordinates":[1767,5292]},{"type":"Point","properties":{"Station_ID":"IWOM4","Station_Nam":"IRONWOOD#2","Latitude":"46.46520","Longitude":"-90.13820","Snowdepth":"7.000","Units":"in","Rept_Date":"2020-04-16 12"},"coordinates":[1665,5833]},{"type":"Point","properties":{"Station_ID":"FLNW3","Station_Nam":"FLORENCE","Latitude":"45.93360","Longitude":"-88.25830","Snowdepth":"7.000","Units":"in","Rept_Date":"2020-04-16 12"},"coordinates":[2107,5412]},{"type":"Point","properties":{"Station_ID":"41.4329_081.3593","Station_Nam":"1 W South Russell  Trained Spotter (CLE1338)","Latitude":"41.43292","Longitude":"-81.35927","Snowdepth":"7.000","Units":"in","Rept_Date":"2020-04-16 09"},"coordinates":[3726,1848]},{"type":"Point","properties":{"Station_ID":"ZNOM4","Station_Nam":"NORWAY","Latitude":"45.77810","Longitude":"-87.89560","Snowdepth":"6.000","Units":"in","Rept_Date":"2020-04-17 00"},"coordinates":[2192,5289]},{"type":"Point","properties":{"Station_ID":"WRPW3","Station_Nam":"WATER PURIFICATION PLANT","Latitude":"44.38800","Longitude":"-89.80550","Snowdepth":"6.000","Units":"in","Rept_Date":"2020-04-16 11"},"coordinates":[1743,4188]},{"type":"Point","properties":{"Station_ID":"WI-ON-6","Station_Nam":"RHINELANDER 5.2 N, WI","Latitude":"45.71388","Longitude":"-89.42150","Snowdepth":"6.000","Units":"in","Rept_Date":"2020-04-16 13"},"coordinates":[1834,5238]},{"type":"Point","properties":{"Station_ID":"RLKW3","Station_Nam":"REST LAKE","Latitude":"46.12220","Longitude":"-89.87720","Snowdepth":"6.000","Units":"in","Rept_Date":"2020-04-16 12"},"coordinates":[1727,5561]},{"type":"Point","properties":{"Station_ID":"RHIW3","Station_Nam":"RHINELANDER","Latitude":"45.59860","Longitude":"-89.45080","Snowdepth":"6.000","Units":"in","Rept_Date":"2020-04-16 12"},"coordinates":[1827,5147]},{"type":"Point","properties":{"Station_ID":"PHEW3","Station_Nam":"PHELPS","Latitude":"46.06630","Longitude":"-89.07520","Snowdepth":"6.000","Units":"in","Rept_Date":"2020-04-16 12"},"coordinates":[1915,5517]},{"type":"Point","properties":{"Station_ID":"PDGM4","Station_Nam":"PAULDING","Latitude":"46.39760","Longitude":"-89.17940","Snowdepth":"6.000","Units":"in","Rept_Date":"2020-04-16 13"},"coordinates":[1890,5779]},{"type":"Point","properties":{"Station_ID":"OAXN1","Station_Nam":"VALLEY 1WNW","Latitude":"41.31970","Longitude":"-96.36720","Snowdepth":"6.000","Units":"in","Rept_Date":"2020-04-17 05"},"coordinates":[203,1759]},{"type":"Point","properties":{"Station_ID":"MEDW3","Station_Nam":"MEDFORD","Latitude":"45.13080","Longitude":"-90.34390","Snowdepth":"6.000","Units":"in","Rept_Date":"2020-04-16 13"},"coordinates":[1617,4776]},{"type":"Point","properties":{"Station_ID":"LVDW3","Station_Nam":"LAC VIEUX DESERT","Latitude":"46.12110","Longitude":"-89.07580","Snowdepth":"6.000","Units":"in","Rept_Date":"2020-04-16 14"},"coordinates":[1915,5560]},{"type":"Point","properties":{"Station_ID":"KMWN","Station_Nam":"MOUNT WASHINGTON","Latitude":"44.26666","Longitude":"-71.30000","Snowdepth":"6.000","Units":"in","Rept_Date":"2020-04-17 06"},"coordinates":[6087,4092]},{"type":"Point","properties":{"Station_ID":"CRVW3","Station_Nam":"CRIVITZ HIGH FALLS","Latitude":"45.35750","Longitude":"-88.19190","Snowdepth":"6.000","Units":"in","Rept_Date":"2020-04-16 12"},"coordinates":[2122,4956]},{"type":"Point","properties":{"Station_ID":"CLKM4","Station_Nam":"CLARKSBURG","Latitude":"46.49910","Longitude":"-87.84500","Snowdepth":"6.000","Units":"in","Rept_Date":"2020-04-16 11"},"coordinates":[2204,5860]},{"type":"Point","properties":{"Station_ID":"KABQ6","Station_Nam":"CAB LAKE","Latitude":"49.59950","Longitude":"-89.17990","Snowdepth":"5.940","Units":"in","Rept_Date":"2020-04-17 04"},"coordinates":[1890,8315]},{"type":"Point","properties":{"Station_ID":"SOCQ6","Station_Nam":"SOCKET LAKE","Latitude":"50.77870","Longitude":"-91.79300","Snowdepth":"5.710","Units":"in","Rept_Date":"2020-04-17 04"},"coordinates":[1277,9248]},{"type":"Point","properties":{"Station_ID":"WTRM4","Station_Nam":"WATERSMEET 12WSW","Latitude":"46.22310","Longitude":"-89.40850","Snowdepth":"5.000","Units":"in","Rept_Date":"2020-04-16 11"},"coordinates":[1837,5641]},{"type":"Point","properties":{"Station_ID":"WTNM4","Station_Nam":"WATTON 2WSW","Latitude":"46.52660","Longitude":"-88.64240","Snowdepth":"5.000","Units":"in","Rept_Date":"2020-04-16 12"},"coordinates":[2016,5882]},{"type":"Point","properties":{"Station_ID":"SUAW3","Station_Nam":"SUAMICO","Latitude":"44.60190","Longitude":"-88.09780","Snowdepth":"5.000","Units":"in","Rept_Date":"2020-04-16 11"},"coordinates":[2144,4358]},{"type":"Point","properties":{"Station_ID":"SPCW3","Station_Nam":"SPENCER-WWTP","Latitude":"44.75390","Longitude":"-90.28920","Snowdepth":"5.000","Units":"in","Rept_Date":"2020-04-16 12"},"coordinates":[1630,4478]},{"type":"Point","properties":{"Station_ID":"RGNM1","Station_Nam":"RANGELEY 2NW","Latitude":"44.98940","Longitude":"-70.67220","Snowdepth":"5.000","Units":"in","Rept_Date":"2020-04-16 10"},"coordinates":[6234,4664]},{"type":"Point","properties":{"Station_ID":"MWN","Station_Nam":"MOUNT WASHINGTON","Latitude":"44.26670","Longitude":"-71.30000","Snowdepth":"5.000","Units":"in","Rept_Date":"2020-04-16 12"},"coordinates":[6087,4092]},{"type":"Point","properties":{"Station_ID":"IMNM4","Station_Nam":"IRON MOUTAIN 5N","Latitude":"45.87580","Longitude":"-88.04030","Snowdepth":"5.000","Units":"in","Rept_Date":"2020-04-17 00"},"coordinates":[2158,5366]},{"type":"Point","properties":{"Station_ID":"EVRW3","Station_Nam":"EAGLE RIVER-4 E","Latitude":"45.91890","Longitude":"-89.15280","Snowdepth":"5.000","Units":"in","Rept_Date":"2020-04-16 11"},"coordinates":[1897,5400]},{"type":"Point","properties":{"Station_ID":"EGRW3","Station_Nam":"EAGLE RIVER-SOUTH","Latitude":"45.91360","Longitude":"-89.24360","Snowdepth":"5.000","Units":"in","Rept_Date":"2020-04-16 12"},"coordinates":[1875,5396]},{"type":"Point","properties":{"Station_ID":"AVTW3","Station_Nam":"ARBOR VITAE-JOHNSON LAKE","Latitude":"45.89940","Longitude":"-89.72670","Snowdepth":"5.000","Units":"in","Rept_Date":"2020-04-16 11"},"coordinates":[1762,5385]},{"type":"Point","properties":{"Station_ID":"AURW3","Station_Nam":"AURORA","Latitude":"45.77000","Longitude":"-88.11810","Snowdepth":"5.000","Units":"in","Rept_Date":"2020-04-16 12"},"coordinates":[2140,5282]},{"type":"Point","properties":{"Station_ID":"AMAM4","Station_Nam":"AMASA 1W","Latitude":"46.23470","Longitude":"-88.45440","Snowdepth":"5.000","Units":"in","Rept_Date":"2020-04-16 13"},"coordinates":[2061,5650]},{"type":"Point","properties":{"Station_ID":"ALRI4","Station_Nam":"ALLERTON,IA","Latitude":"40.70670","Longitude":"-93.36500","Snowdepth":"5.000","Units":"in","Rept_Date":"2020-04-16 12"},"coordinates":[908,1273]},{"type":"Point","properties":{"Station_ID":"AGNW3","Station_Nam":"ARGONNE-1.5 NW","Latitude":"45.67360","Longitude":"-88.90380","Snowdepth":"5.000","Units":"in","Rept_Date":"2020-04-16 12"},"coordinates":[1955,5206]},{"type":"Point","properties":{"Station_ID":"41.4330_081.4097","Station_Nam":"CHAGRIN FALLS  SNOW SPOTTER (CLE1172)","Latitude":"41.43300","Longitude":"-81.40970","Snowdepth":"5.000","Units":"in","Rept_Date":"2020-04-16 09"},"coordinates":[3714,1849]},{"type":"Point","properties":{"Station_ID":"WSKW3","Station_Nam":"WAUSAUKEE","Latitude":"45.38020","Longitude":"-87.95660","Snowdepth":"4.000","Units":"in","Rept_Date":"2020-04-16 13"},"coordinates":[2177,4974]},{"type":"Point","properties":{"Station_ID":"WI-VL-14","Station_Nam":"BOULDER JUNCTION 1.4 NE, WI","Latitude":"46.12840","Longitude":"-89.62470","Snowdepth":"4.000","Units":"in","Rept_Date":"2020-04-16 12"},"coordinates":[1786,5566]},{"type":"Point","properties":{"Station_ID":"UNVM7","Station_Nam":"UNIONVILLE","Latitude":"40.47500","Longitude":"-93.00310","Snowdepth":"4.000","Units":"in","Rept_Date":"2020-04-16 12"},"coordinates":[993,1090]},{"type":"Point","properties":{"Station_ID":"RST","Station_Nam":"ROCHESTER INTERNATIONAL ARPT","Latitude":"43.90890","Longitude":"-92.49780","Snowdepth":"4.000","Units":"in","Rept_Date":"2020-04-17 00"},"coordinates":[1112,3809]},{"type":"Point","properties":{"Station_ID":"RSRM5","Station_Nam":"ROCHESTER AP 2NE","Latitude":"43.92810","Longitude":"-92.47580","Snowdepth":"4.000","Units":"in","Rept_Date":"2020-04-16 12"},"coordinates":[1117,3824]},{"type":"Point","properties":{"Station_ID":"RRLW3","Station_Nam":"MERRILL,WI","Latitude":"45.17860","Longitude":"-89.66170","Snowdepth":"4.000","Units":"in","Rept_Date":"2020-04-16 13"},"coordinates":[1777,4814]},{"type":"Point","properties":{"Station_ID":"RHLW3","Station_Nam":"RHINELANDER 4NE","Latitude":"45.65270","Longitude":"-89.30740","Snowdepth":"4.000","Units":"in","Rept_Date":"2020-04-16 11"},"coordinates":[1860,5190]},{"type":"Point","properties":{"Station_ID":"RHI","Station_Nam":"RHINELANDER-ONEIDA COUNTY AIRPORT","Latitude":"45.63080","Longitude":"-89.46530","Snowdepth":"4.000","Units":"in","Rept_Date":"2020-04-16 12"},"coordinates":[1823,5172]},{"type":"Point","properties":{"Station_ID":"PRNW3","Station_Nam":"PRENTICE,WI","Latitude":"45.54780","Longitude":"-90.30000","Snowdepth":"4.000","Units":"in","Rept_Date":"2020-04-16 13"},"coordinates":[1627,5107]},{"type":"Point","properties":{"Station_ID":"OFF","Station_Nam":"OFFUTT AFB","Latitude":"41.11810","Longitude":"-95.91250","Snowdepth":"4.000","Units":"in","Rept_Date":"2020-04-17 00"},"coordinates":[310,1599]},{"type":"Point","properties":{"Station_ID":"OAX","Station_Nam":"OMAHA, NE","Latitude":"41.32000","Longitude":"-96.36670","Snowdepth":"4.000","Units":"in","Rept_Date":"2020-04-17 00"},"coordinates":[203,1759]},{"type":"Point","properties":{"Station_ID":"MNCKG6BM","Station_Nam":"VISTA 4.6 SE","Latitude":"43.91333","Longitude":"-93.39663","Snowdepth":"4.000","Units":"in","Rept_Date":"2020-04-16 12"},"coordinates":[901,3812]},{"type":"Point","properties":{"Station_ID":"MN-CK-6","Station_Nam":"GRAND MARAIS 4.4 W, MN","Latitude":"47.74865","Longitude":"-90.43760","Snowdepth":"4.000","Units":"in","Rept_Date":"2020-04-16 12"},"coordinates":[1595,6849]},{"type":"Point","properties":{"Station_ID":"MIEM4","Station_Nam":"MICHIGAMME 3WNW","Latitude":"46.54530","Longitude":"-88.18000","Snowdepth":"4.000","Units":"in","Rept_Date":"2020-04-16 12"},"coordinates":[2125,5896]},{"type":"Point","properties":{"Station_ID":"KOMA","Station_Nam":"OMAHA EPPLEY AIRFIELD","Latitude":"41.30000","Longitude":"-95.90000","Snowdepth":"4.000","Units":"in","Rept_Date":"2020-04-17 06"},"coordinates":[313,1743]},{"type":"Point","properties":{"Station_ID":"KOFF","Station_Nam":"OMAHA / OFFUTT AIR FORCE BASE","Latitude":"41.11666","Longitude":"-95.90000","Snowdepth":"4.000","Units":"in","Rept_Date":"2020-04-17 00"},"coordinates":[313,1598]},{"type":"Point","properties":{"Station_ID":"JCBM4","Station_Nam":"JACOBSVILLE","Latitude":"47.00830","Longitude":"-88.43180","Snowdepth":"4.000","Units":"in","Rept_Date":"2020-04-16 11"},"coordinates":[2066,6263]},{"type":"Point","properties":{"Station_ID":"IRMM4","Station_Nam":"WWTP","Latitude":"46.46670","Longitude":"-90.18330","Snowdepth":"4.000","Units":"in","Rept_Date":"2020-04-16 12"},"coordinates":[1655,5834]},{"type":"Point","properties":{"Station_ID":"HURW3","Station_Nam":"HURLEY","Latitude":"46.46250","Longitude":"-90.19550","Snowdepth":"4.000","Units":"in","Rept_Date":"2020-04-16 13"},"coordinates":[1652,5831]},{"type":"Point","properties":{"Station_ID":"ERRW3","Station_Nam":"MERRILL-4 W","Latitude":"45.17360","Longitude":"-89.77580","Snowdepth":"4.000","Units":"in","Rept_Date":"2020-04-16 21"},"coordinates":[1750,4810]},{"type":"Point","properties":{"Station_ID":"ASTW3","Station_Nam":"ATHELSTANE","Latitude":"45.42500","Longitude":"-88.05750","Snowdepth":"4.000","Units":"in","Rept_Date":"2020-04-16 11"},"coordinates":[2154,5009]},{"type":"Point","properties":{"Station_ID":"AGSW3","Station_Nam":"AUGUSTA RANGER STATION","Latitude":"44.68250","Longitude":"-91.13570","Snowdepth":"4.000","Units":"in","Rept_Date":"2020-04-16 13"},"coordinates":[1431,4421]},{"type":"Point","properties":{"Station_ID":"41.8478_080.6111","Station_Nam":"4 SSW CONNEAUT I-90  TRAINED SPOTTER (CLE1457)","Latitude":"41.84780","Longitude":"-80.61110","Snowdepth":"4.000","Units":"in","Rept_Date":"2020-04-16 14"},"coordinates":[3902,2177]},{"type":"Point","properties":{"Station_ID":"41.5909_081.0473","Station_Nam":"MONTVILLE (CLE1322)","Latitude":"41.59090","Longitude":"-81.04730","Snowdepth":"4.000","Units":"in","Rept_Date":"2020-04-16 11"},"coordinates":[3799,1974]},{"type":"Point","properties":{"Station_ID":"CAN-NL-81","Station_Nam":"GRAND FALLS-WINDSOR 1.2 S, CAN","Latitude":"48.93123","Longitude":"-55.65333","Snowdepth":"3.900","Units":"in","Rept_Date":"2020-04-16 09"},"coordinates":[9760,7785]},{"type":"Point","properties":{"Station_ID":"WI-TY-2","Station_Nam":"SHELDON 8.1 ENE, WI","Latitude":"45.35598","Longitude":"-90.80296","Snowdepth":"3.500","Units":"in","Rept_Date":"2020-04-16 12"},"coordinates":[1509,4955]},{"type":"Point","properties":{"Station_ID":"WI-PR-6","Station_Nam":"PHILLIPS 1.3 S, WI","Latitude":"45.67677","Longitude":"-90.39543","Snowdepth":"3.500","Units":"in","Rept_Date":"2020-04-16 11"},"coordinates":[1605,5209]},{"type":"Point","properties":{"Station_ID":"VT-OL-12","Station_Nam":"GREENSBORO 3.9 NNE, VT","Latitude":"44.63100","Longitude":"-72.28000","Snowdepth":"3.500","Units":"in","Rept_Date":"2020-04-16 11"},"coordinates":[5857,4381]},{"type":"Point","properties":{"Station_ID":"NY-WY-11","Station_Nam":"SILVER SPRINGS COOP, NY","Latitude":"42.70580","Longitude":"-78.09370","Snowdepth":"3.500","Units":"in","Rept_Date":"2020-04-16 11"},"coordinates":[4492,2856]},{"type":"Point","properties":{"Station_ID":"NY-LV-5","Station_Nam":"DANSVILLE 1.0 ENE, NY","Latitude":"42.56802","Longitude":"-77.67900","Snowdepth":"3.500","Units":"in","Rept_Date":"2020-04-16 11"},"coordinates":[4590,2747]},{"type":"Point","properties":{"Station_ID":"NY-DL-28","Station_Nam":"FLEISCHMANNS 5.7 N, NY","Latitude":"42.23779","Longitude":"-74.52335","Snowdepth":"3.500","Units":"in","Rept_Date":"2020-04-16 11"},"coordinates":[5331,2486]},{"type":"Point","properties":{"Station_ID":"CAN-QC-47","Station_Nam":"SAINTE-FOY 1.8 ENE, CAN","Latitude":"46.76934","Longitude":"-71.27124","Snowdepth":"3.500","Units":"in","Rept_Date":"2020-04-16 11"},"coordinates":[6094,6074]},{"type":"Point","properties":{"Station_ID":"VT-CL-3","Station_Nam":"GROTON 4.4 WSW, VT","Latitude":"44.19440","Longitude":"-72.28240","Snowdepth":"3.300","Units":"in","Rept_Date":"2020-04-16 10"},"coordinates":[5857,4035]},{"type":"Point","properties":{"Station_ID":"HPN04_MADIS","Station_Nam":"HANOVER","Latitude":"45.16770","Longitude":"-93.63430","Snowdepth":"3.250","Units":"in","Rept_Date":"2020-04-17 06"},"coordinates":[845,4806]},{"type":"Point","properties":{"Station_ID":"CATQ6","Station_Nam":"CAT LAKE","Latitude":"51.72690","Longitude":"-91.82210","Snowdepth":"3.150","Units":"in","Rept_Date":"2020-04-17 05"},"coordinates":[1270,9999]},{"type":"Point","properties":{"Station_ID":"WSWN6","Station_Nam":"WARSAW","Latitude":"42.74220","Longitude":"-78.20850","Snowdepth":"3.000","Units":"in","Rept_Date":"2020-04-16 11"},"coordinates":[4466,2885]},{"type":"Point","properties":{"Station_ID":"WILW3","Station_Nam":"RESERVOIR","Latitude":"45.70000","Longitude":"-89.83330","Snowdepth":"3.000","Units":"in","Rept_Date":"2020-04-16 11"},"coordinates":[1737,5227]},{"type":"Point","properties":{"Station_ID":"WI-RS-1","Station_Nam":"LADYSMITH 2.8 WNW, WI","Latitude":"45.48180","Longitude":"-91.14680","Snowdepth":"3.000","Units":"in","Rept_Date":"2020-04-16 12"},"coordinates":[1429,5054]},{"type":"Point","properties":{"Station_ID":"WI-EC-25","Station_Nam":"EAU CLAIRE 5.4 SSE, WI","Latitude":"44.75300","Longitude":"-91.43830","Snowdepth":"3.000","Units":"in","Rept_Date":"2020-04-16 13"},"coordinates":[1360,4477]},{"type":"Point","properties":{"Station_ID":"WI-EC-23","Station_Nam":"EAU CLAIRE 3.7 S, WI","Latitude":"44.76858","Longitude":"-91.49898","Snowdepth":"3.000","Units":"in","Rept_Date":"2020-04-16 13"},"coordinates":[1346,4490]},{"type":"Point","properties":{"Station_ID":"WALN6","Station_Nam":"WALTON 2","Latitude":"42.18470","Longitude":"-75.14550","Snowdepth":"3.000","Units":"in","Rept_Date":"2020-04-16 09"},"coordinates":[5184,2444]},{"type":"Point","properties":{"Station_ID":"VT-BN-7","Station_Nam":"MANCHESTER 2.8 ENE, VT","Latitude":"43.17274","Longitude":"-73.01811","Snowdepth":"3.000","Units":"in","Rept_Date":"2020-04-16 11"},"coordinates":[5684,3226]},{"type":"Point","properties":{"Station_ID":"SVSN6","Station_Nam":"SILVER SPRINGS 3N","Latitude":"42.70580","Longitude":"-78.09370","Snowdepth":"3.000","Units":"in","Rept_Date":"2020-04-16 11"},"coordinates":[4492,2856]},{"type":"Point","properties":{"Station_ID":"SULW3","Station_Nam":"SUMMIT LAKE","Latitude":"45.37880","Longitude":"-89.19410","Snowdepth":"3.000","Units":"in","Rept_Date":"2020-04-16 10"},"coordinates":[1887,4973]},{"type":"Point","properties":{"Station_ID":"STMM4","Station_Nam":"STAMBAUGH 2SSE","Latitude":"46.05550","Longitude":"-88.62780","Snowdepth":"3.000","Units":"in","Rept_Date":"2020-04-16 12"},"coordinates":[2020,5509]},{"type":"Point","properties":{"Station_ID":"RHRW3","Station_Nam":"RHINELANDER WJFW TV-12","Latitude":"45.62220","Longitude":"-89.41000","Snowdepth":"3.000","Units":"in","Rept_Date":"2020-04-17 03"},"coordinates":[1836,5165]},{"type":"Point","properties":{"Station_ID":"RHAN6","Station_Nam":"ALLEGANY STATE PARK","Latitude":"42.10030","Longitude":"-78.74970","Snowdepth":"3.000","Units":"in","Rept_Date":"2020-04-16 11"},"coordinates":[4339,2377]},{"type":"Point","properties":{"Station_ID":"OWEW3","Station_Nam":"OWEN 1E","Latitude":"44.94610","Longitude":"-90.55170","Snowdepth":"3.000","Units":"in","Rept_Date":"2020-04-16 12"},"coordinates":[1568,4630]},{"type":"Point","properties":{"Station_ID":"OMA","Station_Nam":"EPPLEY AIRFIELD","Latitude":"41.30220","Longitude":"-95.89330","Snowdepth":"3.000","Units":"in","Rept_Date":"2020-04-17 00"},"coordinates":[315,1745]},{"type":"Point","properties":{"Station_ID":"OH-CY-42","Station_Nam":"STRONGSVILLE 1.3 SE, OH","Latitude":"41.29815","Longitude":"-81.81507","Snowdepth":"3.000","Units":"in","Rept_Date":"2020-04-16 12"},"coordinates":[3619,1742]},{"type":"Point","properties":{"Station_ID":"NY-TM-42","Station_Nam":"ITHACA 6.4 E, NY","Latitude":"42.43350","Longitude":"-76.37860","Snowdepth":"3.000","Units":"in","Rept_Date":"2020-04-16 11"},"coordinates":[4895,2641]},{"type":"Point","properties":{"Station_ID":"NY-TM-38","Station_Nam":"TRUMANSBURG 0.4 WNW, NY","Latitude":"42.54205","Longitude":"-76.66870","Snowdepth":"3.000","Units":"in","Rept_Date":"2020-04-16 11"},"coordinates":[4827,2727]},{"type":"Point","properties":{"Station_ID":"NY-ER-65","Station_Nam":"BOSTON 1.5 NE, NY","Latitude":"42.65470","Longitude":"-78.72010","Snowdepth":"3.000","Units":"in","Rept_Date":"2020-04-16 11"},"coordinates":[4345,2816]},{"type":"Point","properties":{"Station_ID":"NY-ER-63","Station_Nam":"GLENWOOD 1.5 SE, NY","Latitude":"42.60195","Longitude":"-78.63910","Snowdepth":"3.000","Units":"in","Rept_Date":"2020-04-16 11"},"coordinates":[4364,2774]},{"type":"Point","properties":{"Station_ID":"NY-DL-32","Station_Nam":"DELHI 6.6 WNW, NY","Latitude":"42.32118","Longitude":"-75.02991","Snowdepth":"3.000","Units":"in","Rept_Date":"2020-04-16 11"},"coordinates":[5212,2552]},{"type":"Point","properties":{"Station_ID":"NY-DL-24","Station_Nam":"WALTON 6.5 W, NY","Latitude":"42.16534","Longitude":"-75.25850","Snowdepth":"3.000","Units":"in","Rept_Date":"2020-04-16 11"},"coordinates":[5158,2428]},{"type":"Point","properties":{"Station_ID":"NY-CY-31","Station_Nam":"SCIPIO CENTER 3.0 S, NY","Latitude":"42.74002","Longitude":"-76.55682","Snowdepth":"3.000","Units":"in","Rept_Date":"2020-04-16 11"},"coordinates":[4853,2883]},{"type":"Point","properties":{"Station_ID":"NALN6","Station_Nam":"CATTARAUGUS","Latitude":"42.32450","Longitude":"-78.86700","Snowdepth":"3.000","Units":"in","Rept_Date":"2020-04-16 12"},"coordinates":[4311,2554]},{"type":"Point","properties":{"Station_ID":"MQRW3","Station_Nam":"MINOCQUA","Latitude":"45.88630","Longitude":"-89.73220","Snowdepth":"3.000","Units":"in","Rept_Date":"2020-04-16 11"},"coordinates":[1761,5375]},{"type":"Point","properties":{"Station_ID":"MN-OL-18","Station_Nam":"ROCHESTER 2.6 NE, MN","Latitude":"44.03975","Longitude":"-92.43750","Snowdepth":"3.000","Units":"in","Rept_Date":"2020-04-16 11"},"coordinates":[1126,3913]},{"type":"Point","properties":{"Station_ID":"LNK","Station_Nam":"LINCOLN MUNICIPAL AIRPORT","Latitude":"40.85080","Longitude":"-96.75920","Snowdepth":"3.000","Units":"in","Rept_Date":"2020-04-17 00"},"coordinates":[111,1388]},{"type":"Point","properties":{"Station_ID":"LACM7","Station_Nam":"LANCASTER 2SE","Latitude":"40.50280","Longitude":"-92.50770","Snowdepth":"3.000","Units":"in","Rept_Date":"2020-04-16 12"},"coordinates":[1109,1112]},{"type":"Point","properties":{"Station_ID":"ITHN6","Station_Nam":"ITHACA,NY","Latitude":"42.45000","Longitude":"-76.45000","Snowdepth":"3.000","Units":"in","Rept_Date":"2020-04-16 11"},"coordinates":[4878,2654]},{"type":"Point","properties":{"Station_ID":"HOLW3","Station_Nam":"HOLCOMBE","Latitude":"45.22370","Longitude":"-91.12700","Snowdepth":"3.000","Units":"in","Rept_Date":"2020-04-16 12"},"coordinates":[1433,4850]},{"type":"Point","properties":{"Station_ID":"GHMN3","Station_Nam":"PINKHAM NOTCH","Latitude":"44.25800","Longitude":"-71.25250","Snowdepth":"3.000","Units":"in","Rept_Date":"2020-04-16 10"},"coordinates":[6098,4085]},{"type":"Point","properties":{"Station_ID":"EPTW3","Station_Nam":"EAU PLEINE TENDER","Latitude":"44.77220","Longitude":"-89.76720","Snowdepth":"3.000","Units":"in","Rept_Date":"2020-04-16 12"},"coordinates":[1752,4492]},{"type":"Point","properties":{"Station_ID":"ELYO1","Station_Nam":"ELYRIA,OH","Latitude":"41.30000","Longitude":"-82.11670","Snowdepth":"3.000","Units":"in","Rept_Date":"2020-04-16 11"},"coordinates":[3548,1743]},{"type":"Point","properties":{"Station_ID":"DELN6","Station_Nam":"DELHI 2 SE","Latitude":"42.25580","Longitude":"-74.91270","Snowdepth":"3.000","Units":"in","Rept_Date":"2020-04-16 12"},"coordinates":[5239,2500]},{"type":"Point","properties":{"Station_ID":"CRNI4","Station_Nam":"CORNING","Latitude":"40.98860","Longitude":"-94.74910","Snowdepth":"3.000","Units":"in","Rept_Date":"2020-04-16 14"},"coordinates":[583,1497]},{"type":"Point","properties":{"Station_ID":"BREW3","Station_Nam":"SURING","Latitude":"44.99580","Longitude":"-88.37860","Snowdepth":"3.000","Units":"in","Rept_Date":"2020-04-16 13"},"coordinates":[2078,4669]},{"type":"Point","properties":{"Station_ID":"BCNI4","Station_Nam":"BEACONSFIELD,IA","Latitude":"40.82360","Longitude":"-94.04390","Snowdepth":"3.000","Units":"in","Rept_Date":"2020-04-16 12"},"coordinates":[749,1366]},{"type":"Point","properties":{"Station_ID":"AURN6","Station_Nam":"AURORA RESEARCH FARM","Latitude":"42.73380","Longitude":"-76.65910","Snowdepth":"3.000","Units":"in","Rept_Date":"2020-04-16 11"},"coordinates":[4829,2879]},{"type":"Point","properties":{"Station_ID":"ASBM3","Station_Nam":"ASHBURNHAM","Latitude":"42.61780","Longitude":"-71.91590","Snowdepth":"3.000","Units":"in","Rept_Date":"2020-04-16 11"},"coordinates":[5943,2787]},{"type":"Point","properties":{"Station_ID":"42.1284_079.8945","Station_Nam":"NORTHEAST 6SW (CLE0249)","Latitude":"42.12840","Longitude":"-79.89450","Snowdepth":"3.000","Units":"in","Rept_Date":"2020-04-16 11"},"coordinates":[4070,2399]},{"type":"Point","properties":{"Station_ID":"41.7115_081.0271","Station_Nam":"SOUTH MADISON (CLE1233)","Latitude":"41.71150","Longitude":"-81.02710","Snowdepth":"3.000","Units":"in","Rept_Date":"2020-04-16 11"},"coordinates":[3804,2069]},{"type":"Point","properties":{"Station_ID":"41.6972_080.9056","Station_Nam":"3 ENE Trumbull  Trained Spotter (CLE1480)","Latitude":"41.69720","Longitude":"-80.90557","Snowdepth":"3.000","Units":"in","Rept_Date":"2020-04-16 12"},"coordinates":[3832,2058]},{"type":"Point","properties":{"Station_ID":"41.6333_080.1432","Station_Nam":"1 S Meadville  Trained Spotter (CLE0350)","Latitude":"41.63328","Longitude":"-80.14322","Snowdepth":"3.000","Units":"in","Rept_Date":"2020-04-16 13"},"coordinates":[4011,2007]},{"type":"Point","properties":{"Station_ID":"41.5363_080.8353","Station_Nam":"ORWELL 1E  SNOW SPOTTER (CLE1445)","Latitude":"41.53630","Longitude":"-80.83530","Snowdepth":"3.000","Units":"in","Rept_Date":"2020-04-16 13"},"coordinates":[3849,1930]},{"type":"Point","properties":{"Station_ID":"41.2982_081.8151","Station_Nam":"1 SE Strongsville  Trained Spotter (CLE1180)","Latitude":"41.29818","Longitude":"-81.81507","Snowdepth":"3.000","Units":"in","Rept_Date":"2020-04-16 12"},"coordinates":[3619,1742]},{"type":"Point","properties":{"Station_ID":"41.2817_081.7774","Station_Nam":"NORTH ROYALTON  TRAINED SPOTTER (CLE1155)","Latitude":"41.28170","Longitude":"-81.77740","Snowdepth":"3.000","Units":"in","Rept_Date":"2020-04-16 12"},"coordinates":[3628,1729]},{"type":"Point","properties":{"Station_ID":"IA-DV-2","Station_Nam":"MOULTON 3.6 ENE, IA","Latitude":"40.70487","Longitude":"-92.61551","Snowdepth":"2.700","Units":"in","Rept_Date":"2020-04-16 14"},"coordinates":[1084,1272]},{"type":"Point","properties":{"Station_ID":"NY-ER-77","Station_Nam":"COLDEN 2.4 ENE, NY","Latitude":"42.65088","Longitude":"-78.61060","Snowdepth":"2.600","Units":"in","Rept_Date":"2020-04-16 12"},"coordinates":[4371,2813]},{"type":"Point","properties":{"Station_ID":"NY-ER-158","Station_Nam":"EAST AURORA 2.7 SSE, NY","Latitude":"42.72936","Longitude":"-78.60561","Snowdepth":"2.600","Units":"in","Rept_Date":"2020-04-16 10"},"coordinates":[4372,2875]},{"type":"Point","properties":{"Station_ID":"CAN-ON-452","Station_Nam":"CHATSWORTH 1.8 ENE - GSCA, CAN","Latitude":"44.46118","Longitude":"-80.87506","Snowdepth":"2.600","Units":"in","Rept_Date":"2020-04-16 11"},"coordinates":[3840,4246]},{"type":"Point","properties":{"Station_ID":"WI-MT-19","Station_Nam":"EVERGREEN 1.5 WSW, WI","Latitude":"44.83512","Longitude":"-89.66528","Snowdepth":"2.500","Units":"in","Rept_Date":"2020-04-16 12"},"coordinates":[1776,4542]},{"type":"Point","properties":{"Station_ID":"OH-MD-2","Station_Nam":"BRUNSWICK 0.5 NE, OH","Latitude":"41.24980","Longitude":"-81.81330","Snowdepth":"2.500","Units":"in","Rept_Date":"2020-04-16 11"},"coordinates":[3619,1704]},{"type":"Point","properties":{"Station_ID":"NY-OT-11","Station_Nam":"HARTWICK, NY","Latitude":"42.65990","Longitude":"-75.05000","Snowdepth":"2.500","Units":"in","Rept_Date":"2020-04-16 13"},"coordinates":[5207,2820]},{"type":"Point","properties":{"Station_ID":"NY-MD-10","Station_Nam":"CAZENOVIA 2.9 SE, NY","Latitude":"42.90003","Longitude":"-75.81140","Snowdepth":"2.500","Units":"in","Rept_Date":"2020-04-16 11"},"coordinates":[5028,3010]},{"type":"Point","properties":{"Station_ID":"NY-GR-14","Station_Nam":"LEXINGTON 1.5 N, NY","Latitude":"42.26024","Longitude":"-74.35875","Snowdepth":"2.500","Units":"in","Rept_Date":"2020-04-16 11"},"coordinates":[5369,2504]},{"type":"Point","properties":{"Station_ID":"NY-CQ-27","Station_Nam":"SILVER CREEK 1.0 SSE, NY","Latitude":"42.53088","Longitude":"-79.15986","Snowdepth":"2.500","Units":"in","Rept_Date":"2020-04-16 11"},"coordinates":[4242,2718]},{"type":"Point","properties":{"Station_ID":"MI-CP-14","Station_Nam":"SAULT STE. MARIE 2.2 E, MI","Latitude":"46.48933","Longitude":"-84.31971","Snowdepth":"2.500","Units":"in","Rept_Date":"2020-04-16 12"},"coordinates":[3031,5852]},{"type":"Point","properties":{"Station_ID":"IA-CL-3","Station_Nam":"MURRAY 0.5 N, IA","Latitude":"41.04831","Longitude":"-93.94960","Snowdepth":"2.500","Units":"in","Rept_Date":"2020-04-16 12"},"coordinates":[771,1544]},{"type":"Point","properties":{"Station_ID":"41.2498_081.8133","Station_Nam":"1 NE Brunswick  CoCoRaHS (OH-MD-2)","Latitude":"41.24980","Longitude":"-81.81330","Snowdepth":"2.500","Units":"in","Rept_Date":"2020-04-16 11"},"coordinates":[3619,1704]},{"type":"Point","properties":{"Station_ID":"NY-SY-11","Station_Nam":"DUNDEE 6.2 E, NY","Latitude":"42.52210","Longitude":"-76.85580","Snowdepth":"2.300","Units":"in","Rept_Date":"2020-04-16 11"},"coordinates":[4783,2711]},{"type":"Point","properties":{"Station_ID":"IA-CL-4","Station_Nam":"MURRAY 1.7 W, IA","Latitude":"41.04128","Longitude":"-93.98046","Snowdepth":"2.200","Units":"in","Rept_Date":"2020-04-16 12"},"coordinates":[764,1538]},{"type":"Point","properties":{"Station_ID":"WUNW3","Station_Nam":"WAUSAU-NORTHEAST","Latitude":"44.97310","Longitude":"-89.61690","Snowdepth":"2.000","Units":"in","Rept_Date":"2020-04-16 11"},"coordinates":[1788,4652]},{"type":"Point","properties":{"Station_ID":"WRSN6","Station_Nam":"WARSAW 6SW","Latitude":"42.68550","Longitude":"-78.22020","Snowdepth":"2.000","Units":"in","Rept_Date":"2020-04-16 11"},"coordinates":[4463,2840]},{"type":"Point","properties":{"Station_ID":"WLSN6","Station_Nam":"WALES","Latitude":"42.73920","Longitude":"-78.58780","Snowdepth":"2.000","Units":"in","Rept_Date":"2020-04-16 11"},"coordinates":[4377,2883]},{"type":"Point","properties":{"Station_ID":"WLKW3","Station_Nam":"WHITE LAKE 1 SE","Latitude":"45.14520","Longitude":"-88.74160","Snowdepth":"2.000","Units":"in","Rept_Date":"2020-04-16 13"},"coordinates":[1993,4788]},{"type":"Point","properties":{"Station_ID":"WI-WB-2","Station_Nam":"STONE LAKE 2.0 NW, WI","Latitude":"45.85960","Longitude":"-91.57710","Snowdepth":"2.000","Units":"in","Rept_Date":"2020-04-16 12"},"coordinates":[1328,5353]},{"type":"Point","properties":{"Station_ID":"WI-TR-8","Station_Nam":"ETTRICK 4.0 WNW, WI","Latitude":"44.19004","Longitude":"-91.34249","Snowdepth":"2.000","Units":"in","Rept_Date":"2020-04-16 12"},"coordinates":[1383,4032]},{"type":"Point","properties":{"Station_ID":"WI-RS-3","Station_Nam":"BRUCE 1.9 E, WI","Latitude":"45.45415","Longitude":"-91.23510","Snowdepth":"2.000","Units":"in","Rept_Date":"2020-04-16 12"},"coordinates":[1408,5032]},{"type":"Point","properties":{"Station_ID":"WI-PR-2","Station_Nam":"BUTTERNUT 5.9 SW, WI","Latitude":"45.96501","Longitude":"-90.59750","Snowdepth":"2.000","Units":"in","Rept_Date":"2020-04-16 11"},"coordinates":[1558,5437]},{"type":"Point","properties":{"Station_ID":"WI-DN-1","Station_Nam":"BOYCEVILLE 3.3 N, WI","Latitude":"45.08913","Longitude":"-92.02760","Snowdepth":"2.000","Units":"in","Rept_Date":"2020-04-16 12"},"coordinates":[1222,4743]},{"type":"Point","properties":{"Station_ID":"WELN6","Station_Nam":"WELLSVILLE","Latitude":"42.11730","Longitude":"-77.94750","Snowdepth":"2.000","Units":"in","Rept_Date":"2020-04-16 09"},"coordinates":[4527,2390]},{"type":"Point","properties":{"Station_ID":"WABM5","Station_Nam":"WABASHA","Latitude":"44.38500","Longitude":"-92.04860","Snowdepth":"2.000","Units":"in","Rept_Date":"2020-04-16 12"},"coordinates":[1217,4186]},{"type":"Point","properties":{"Station_ID":"TLLM3","Station_Nam":"TULLY LAKE","Latitude":"42.63940","Longitude":"-72.22440","Snowdepth":"2.000","Units":"in","Rept_Date":"2020-04-16 11"},"coordinates":[5870,2804]},{"type":"Point","properties":{"Station_ID":"THLM5","Station_Nam":"THEILMAN 1SSW","Latitude":"44.28130","Longitude":"-92.19430","Snowdepth":"2.000","Units":"in","Rept_Date":"2020-04-16 12"},"coordinates":[1183,4104]},{"type":"Point","properties":{"Station_ID":"STWO1","Station_Nam":"MONROE FALLS","Latitude":"41.13110","Longitude":"-81.40000","Snowdepth":"2.000","Units":"in","Rept_Date":"2020-04-16 11"},"coordinates":[3716,1610]},{"type":"Point","properties":{"Station_ID":"STRW3","Station_Nam":"STRATFORD 1NW","Latitude":"44.81750","Longitude":"-90.08990","Snowdepth":"2.000","Units":"in","Rept_Date":"2020-04-16 12"},"coordinates":[1677,4528]},{"type":"Point","properties":{"Station_ID":"SSMM4","Station_Nam":"SAULT STE MARIE","Latitude":"46.48660","Longitude":"-84.40250","Snowdepth":"2.000","Units":"in","Rept_Date":"2020-04-16 12"},"coordinates":[3012,5850]},{"type":"Point","properties":{"Station_ID":"SILN6","Station_Nam":"SILVER CREEK","Latitude":"42.53800","Longitude":"-79.16990","Snowdepth":"2.000","Units":"in","Rept_Date":"2020-04-16 11"},"coordinates":[4240,2723]},{"type":"Point","properties":{"Station_ID":"SHBN6","Station_Nam":"SHERBURNE","Latitude":"42.67730","Longitude":"-75.50660","Snowdepth":"2.000","Units":"in","Rept_Date":"2020-04-16 11"},"coordinates":[5100,2834]},{"type":"Point","properties":{"Station_ID":"RWGM5","Station_Nam":"RED WING","Latitude":"44.57120","Longitude":"-92.52830","Snowdepth":"2.000","Units":"in","Rept_Date":"2020-04-16 13"},"coordinates":[1104,4333]},{"type":"Point","properties":{"Station_ID":"RUHN6","Station_Nam":"RUSHFORD","Latitude":"42.42610","Longitude":"-78.19220","Snowdepth":"2.000","Units":"in","Rept_Date":"2020-04-16 12"},"coordinates":[4469,2635]},{"type":"Point","properties":{"Station_ID":"PGVN6","Station_Nam":"PORTAGEVILLE","Latitude":"42.57580","Longitude":"-78.06720","Snowdepth":"2.000","Units":"in","Rept_Date":"2020-04-16 11"},"coordinates":[4499,2753]},{"type":"Point","properties":{"Station_ID":"PERV1","Station_Nam":"PERU","Latitude":"43.26670","Longitude":"-72.90000","Snowdepth":"2.000","Units":"in","Rept_Date":"2020-04-16 11"},"coordinates":[5712,3300]},{"type":"Point","properties":{"Station_ID":"PA-VN-5","Station_Nam":"SENECA 0.7 NNE, PA","Latitude":"41.38455","Longitude":"-79.69790","Snowdepth":"2.000","Units":"in","Rept_Date":"2020-04-16 11"},"coordinates":[4116,1810]},{"type":"Point","properties":{"Station_ID":"PA-SS-16","Station_Nam":"NEW MILFORD 1.6 SSE, PA","Latitude":"41.85540","Longitude":"-75.71110","Snowdepth":"2.000","Units":"in","Rept_Date":"2020-04-16 12"},"coordinates":[5052,2183]},{"type":"Point","properties":{"Station_ID":"OSEI4","Station_Nam":"OSCEOLA,IA","Latitude":"41.01670","Longitude":"-93.81670","Snowdepth":"2.000","Units":"in","Rept_Date":"2020-04-16 12"},"coordinates":[802,1519]},{"type":"Point","properties":{"Station_ID":"OKLM2","Station_Nam":"DEEP CREEK LAKE","Latitude":"39.52420","Longitude":"-79.41170","Snowdepth":"2.000","Units":"in","Rept_Date":"2020-04-16 10"},"coordinates":[4183,337]},{"type":"Point","properties":{"Station_ID":"OH-SM-5","Station_Nam":"CUYAHOGA FALLS 1.1 ESE, OH","Latitude":"41.16228","Longitude":"-81.50370","Snowdepth":"2.000","Units":"in","Rept_Date":"2020-04-16 11"},"coordinates":[3692,1634]},{"type":"Point","properties":{"Station_ID":"OH-PT-9","Station_Nam":"HIRAM 0.4 N, OH","Latitude":"41.31595","Longitude":"-81.14340","Snowdepth":"2.000","Units":"in","Rept_Date":"2020-04-16 12"},"coordinates":[3777,1756]},{"type":"Point","properties":{"Station_ID":"OH-LR-8","Station_Nam":"ELYRIA 0.4 SE, OH","Latitude":"41.37628","Longitude":"-82.09920","Snowdepth":"2.000","Units":"in","Rept_Date":"2020-04-16 11"},"coordinates":[3552,1804]},{"type":"Point","properties":{"Station_ID":"OH-GG-16","Station_Nam":"CHARDON 5.1 SSE, OH","Latitude":"41.50776","Longitude":"-81.18304","Snowdepth":"2.000","Units":"in","Rept_Date":"2020-04-16 12"},"coordinates":[3767,1908]},{"type":"Point","properties":{"Station_ID":"OH-GG-11","Station_Nam":"MADISON 4.2 S, OH","Latitude":"41.71238","Longitude":"-81.03871","Snowdepth":"2.000","Units":"in","Rept_Date":"2020-04-16 11"},"coordinates":[3801,2070]},{"type":"Point","properties":{"Station_ID":"OBEO1","Station_Nam":"OBERLIN,OH","Latitude":"41.26670","Longitude":"-82.21670","Snowdepth":"2.000","Units":"in","Rept_Date":"2020-04-16 12"},"coordinates":[3525,1717]},{"type":"Point","properties":{"Station_ID":"NY-YT-8","Station_Nam":"MIDDLESEX 3.5 S, NY","Latitude":"42.65390","Longitude":"-77.26600","Snowdepth":"2.000","Units":"in","Rept_Date":"2020-04-16 13"},"coordinates":[4687,2815]},{"type":"Point","properties":{"Station_ID":"NY-TM-5","Station_Nam":"FREEVILLE 1.5 NE, NY","Latitude":"42.52530","Longitude":"-76.32180","Snowdepth":"2.000","Units":"in","Rept_Date":"2020-04-16 11"},"coordinates":[4908,2713]},{"type":"Point","properties":{"Station_ID":"NY-TM-4","Station_Nam":"GROTON 0.5 NW, NY","Latitude":"42.59127","Longitude":"-76.37200","Snowdepth":"2.000","Units":"in","Rept_Date":"2020-04-16 11"},"coordinates":[4897,2766]},{"type":"Point","properties":{"Station_ID":"NY-TM-27","Station_Nam":"GROTON 3.2 SSW, NY","Latitude":"42.54725","Longitude":"-76.39960","Snowdepth":"2.000","Units":"in","Rept_Date":"2020-04-16 11"},"coordinates":[4890,2731]},{"type":"Point","properties":{"Station_ID":"NY-TG-15","Station_Nam":"BERKSHIRE 1.9 ENE, NY","Latitude":"42.31910","Longitude":"-76.21940","Snowdepth":"2.000","Units":"in","Rept_Date":"2020-04-16 12"},"coordinates":[4932,2550]},{"type":"Point","properties":{"Station_ID":"NY-SY-1","Station_Nam":"SMITH VALLEY 1.9 SE, NY","Latitude":"42.39072","Longitude":"-76.71760","Snowdepth":"2.000","Units":"in","Rept_Date":"2020-04-16 11"},"coordinates":[4815,2607]},{"type":"Point","properties":{"Station_ID":"NY-ST-35","Station_Nam":"BATH 6.8 SW, NY","Latitude":"42.26736","Longitude":"-77.41329","Snowdepth":"2.000","Units":"in","Rept_Date":"2020-04-16 11"},"coordinates":[4652,2509]},{"type":"Point","properties":{"Station_ID":"NY-OG-61","Station_Nam":"SKANEATELES 0.8 NNW, NY","Latitude":"42.95538","Longitude":"-76.43362","Snowdepth":"2.000","Units":"in","Rept_Date":"2020-04-16 11"},"coordinates":[4882,3054]},{"type":"Point","properties":{"Station_ID":"NY-ER-96","Station_Nam":"ELMA 2.7 WSW, NY","Latitude":"42.81004","Longitude":"-78.68130","Snowdepth":"2.000","Units":"in","Rept_Date":"2020-04-16 11"},"coordinates":[4355,2939]},{"type":"Point","properties":{"Station_ID":"NY-ER-50","Station_Nam":"EAST AURORA 0.1 ENE, NY","Latitude":"42.76750","Longitude":"-78.61580","Snowdepth":"2.000","Units":"in","Rept_Date":"2020-04-16 11"},"coordinates":[4370,2905]},{"type":"Point","properties":{"Station_ID":"NY-ER-39","Station_Nam":"HAMBURG 0.4 WSW, NY","Latitude":"42.72253","Longitude":"-78.84330","Snowdepth":"2.000","Units":"in","Rept_Date":"2020-04-16 11"},"coordinates":[4317,2870]},{"type":"Point","properties":{"Station_ID":"NY-ER-166","Station_Nam":"BOSTON 2.5 NE, NY","Latitude":"42.65480","Longitude":"-78.70300","Snowdepth":"2.000","Units":"in","Rept_Date":"2020-04-16 11"},"coordinates":[4349,2816]},{"type":"Point","properties":{"Station_ID":"NY-CY-8","Station_Nam":"AUBURN 8.3 SSE, NY","Latitude":"42.82869","Longitude":"-76.48670","Snowdepth":"2.000","Units":"in","Rept_Date":"2020-04-16 11"},"coordinates":[4870,2954]},{"type":"Point","properties":{"Station_ID":"NY-CY-26","Station_Nam":"AURORA 2.4 N, NY","Latitude":"42.78638","Longitude":"-76.70340","Snowdepth":"2.000","Units":"in","Rept_Date":"2020-04-16 12"},"coordinates":[4819,2920]},{"type":"Point","properties":{"Station_ID":"NY-CT-2","Station_Nam":"RANDOLPH 1.1 ENE, NY","Latitude":"42.17056","Longitude":"-78.96120","Snowdepth":"2.000","Units":"in","Rept_Date":"2020-04-16 11"},"coordinates":[4289,2433]},{"type":"Point","properties":{"Station_ID":"NY-CQ-34","Station_Nam":"KENNEDY 2.6 SE, NY","Latitude":"42.12567","Longitude":"-79.07235","Snowdepth":"2.000","Units":"in","Rept_Date":"2020-04-16 12"},"coordinates":[4263,2397]},{"type":"Point","properties":{"Station_ID":"NH-HL-48","Station_Nam":"GREENVILLE 1.1 ENE, NH","Latitude":"42.77674","Longitude":"-71.77990","Snowdepth":"2.000","Units":"in","Rept_Date":"2020-04-16 12"},"coordinates":[5974,2912]},{"type":"Point","properties":{"Station_ID":"MOSO1","Station_Nam":"MOSQUITO CREEK DAM","Latitude":"41.28830","Longitude":"-80.76470","Snowdepth":"2.000","Units":"in","Rept_Date":"2020-04-16 11"},"coordinates":[3866,1734]},{"type":"Point","properties":{"Station_ID":"MN-SE-2","Station_Nam":"OWATONNA 0.8 E, MN","Latitude":"44.09170","Longitude":"-93.21380","Snowdepth":"2.000","Units":"in","Rept_Date":"2020-04-16 12"},"coordinates":[943,3954]},{"type":"Point","properties":{"Station_ID":"MLDN6","Station_Nam":"EMMONS","Latitude":"42.46940","Longitude":"-75.01050","Snowdepth":"2.000","Units":"in","Rept_Date":"2020-04-16 11"},"coordinates":[5216,2669]},{"type":"Point","properties":{"Station_ID":"MECN6","Station_Nam":"MECKLENBURG 4 SW","Latitude":"42.44220","Longitude":"-76.75740","Snowdepth":"2.000","Units":"in","Rept_Date":"2020-04-16 11"},"coordinates":[4806,2648]},{"type":"Point","properties":{"Station_ID":"LNVP1","Station_Nam":"PA FISH COMMISSION HATCHERY","Latitude":"41.65000","Longitude":"-80.43330","Snowdepth":"2.000","Units":"in","Rept_Date":"2020-04-16 11"},"coordinates":[3943,2020]},{"type":"Point","properties":{"Station_ID":"LKVN6","Station_Nam":"LAKE VIEW","Latitude":"42.73180","Longitude":"-78.92400","Snowdepth":"2.000","Units":"in","Rept_Date":"2020-04-16 12"},"coordinates":[4298,2877]},{"type":"Point","properties":{"Station_ID":"KRKM7","Station_Nam":"KIRKSVILLE","Latitude":"40.20570","Longitude":"-92.57480","Snowdepth":"2.000","Units":"in","Rept_Date":"2020-04-16 12"},"coordinates":[1093,877]},{"type":"Point","properties":{"Station_ID":"HRLN6","Station_Nam":"HORNELL ALMOND DAM","Latitude":"42.34880","Longitude":"-77.70440","Snowdepth":"2.000","Units":"in","Rept_Date":"2020-04-16 11"},"coordinates":[4584,2574]},{"type":"Point","properties":{"Station_ID":"GRCM7","Station_Nam":"GREEN CITY","Latitude":"40.35030","Longitude":"-92.94920","Snowdepth":"2.000","Units":"in","Rept_Date":"2020-04-16 12"},"coordinates":[1006,991]},{"type":"Point","properties":{"Station_ID":"GLDM4","Station_Nam":"GLADSTONE NO. 2","Latitude":"45.84330","Longitude":"-87.03910","Snowdepth":"2.000","Units":"in","Rept_Date":"2020-04-16 11"},"coordinates":[2393,5341]},{"type":"Point","properties":{"Station_ID":"GENN6","Station_Nam":"GENEVA RESEARCH FARM","Latitude":"42.87660","Longitude":"-77.03070","Snowdepth":"2.000","Units":"in","Rept_Date":"2020-04-16 11"},"coordinates":[4742,2992]},{"type":"Point","properties":{"Station_ID":"FCHM3","Station_Nam":"FITCHBURG COOP","Latitude":"42.61680","Longitude":"-71.80170","Snowdepth":"2.000","Units":"in","Rept_Date":"2020-04-16 12"},"coordinates":[5969,2786]},{"type":"Point","properties":{"Station_ID":"ELRW3","Station_Nam":"EAU CLAIRE 3SW","Latitude":"44.78780","Longitude":"-91.51650","Snowdepth":"2.000","Units":"in","Rept_Date":"2020-04-17 05"},"coordinates":[1342,4505]},{"type":"Point","properties":{"Station_ID":"EGNM5","Station_Nam":"ELGIN 2SSW","Latitude":"44.09700","Longitude":"-92.27010","Snowdepth":"2.000","Units":"in","Rept_Date":"2020-04-16 12"},"coordinates":[1165,3958]},{"type":"Point","properties":{"Station_ID":"EAU","Station_Nam":"CHIPPEWA VALLEY REGIONAL AIRPORT","Latitude":"44.86650","Longitude":"-91.48790","Snowdepth":"2.000","Units":"in","Rept_Date":"2020-04-17 00"},"coordinates":[1349,4567]},{"type":"Point","properties":{"Station_ID":"DSXI4","Station_Nam":"DES MOINES SNOW","Latitude":"41.54130","Longitude":"-93.65570","Snowdepth":"2.000","Units":"in","Rept_Date":"2020-04-17 05"},"coordinates":[840,1934]},{"type":"Point","properties":{"Station_ID":"CVZW3","Station_Nam":"WISCONSIN PUBLIC SERVICE","Latitude":"45.23530","Longitude":"-88.01360","Snowdepth":"2.000","Units":"in","Rept_Date":"2020-04-16 12"},"coordinates":[2164,4859]},{"type":"Point","properties":{"Station_ID":"CODN6","Station_Nam":"COLDEN","Latitude":"42.64720","Longitude":"-78.71110","Snowdepth":"2.000","Units":"in","Rept_Date":"2020-04-16 11"},"coordinates":[4348,2810]},{"type":"Point","properties":{"Station_ID":"CHRO1","Station_Nam":"CHARDON,OH","Latitude":"41.58330","Longitude":"-81.18330","Snowdepth":"2.000","Units":"in","Rept_Date":"2020-04-16 12"},"coordinates":[3767,1968]},{"type":"Point","properties":{"Station_ID":"CHES2","Station_Nam":"CHESTER 2N","Latitude":"43.92830","Longitude":"-96.93160","Snowdepth":"2.000","Units":"in","Rept_Date":"2020-04-16 12"},"coordinates":[71,3824]},{"type":"Point","properties":{"Station_ID":"CAN-ON-672","Station_Nam":"WHEATLEY 7.1 NNW, CAN","Latitude":"42.15600","Longitude":"-82.48147","Snowdepth":"2.000","Units":"in","Rept_Date":"2020-04-16 11"},"coordinates":[3463,2421]},{"type":"Point","properties":{"Station_ID":"CAN-NB-96","Station_Nam":"SAINT-IGNACE 2.6 NE, CAN","Latitude":"46.71424","Longitude":"-65.05609","Snowdepth":"2.000","Units":"in","Rept_Date":"2020-04-16 10"},"coordinates":[7553,6030]},{"type":"Point","properties":{"Station_ID":"CAN-NB-105","Station_Nam":"SISSON BROOK 3.8 E, CAN","Latitude":"46.98305","Longitude":"-67.32532","Snowdepth":"2.000","Units":"in","Rept_Date":"2020-04-16 11"},"coordinates":[7020,6243]},{"type":"Point","properties":{"Station_ID":"BIRM3","Station_Nam":"BIRCH HILL DAM","Latitude":"42.63240","Longitude":"-72.12270","Snowdepth":"2.000","Units":"in","Rept_Date":"2020-04-16 11"},"coordinates":[5894,2798]},{"type":"Point","properties":{"Station_ID":"AUW","Station_Nam":"WAUSAU MUNICIPAL AIRPORT","Latitude":"44.92580","Longitude":"-89.62560","Snowdepth":"2.000","Units":"in","Rept_Date":"2020-04-16 12"},"coordinates":[1786,4614]},{"type":"Point","properties":{"Station_ID":"AUBN1","Station_Nam":"AUBURN,NE","Latitude":"40.38330","Longitude":"-95.75000","Snowdepth":"2.000","Units":"in","Rept_Date":"2020-04-17 01"},"coordinates":[348,1017]},{"type":"Point","properties":{"Station_ID":"ATAN6","Station_Nam":"ATTICA 7 SW","Latitude":"42.81070","Longitude":"-78.39790","Snowdepth":"2.000","Units":"in","Rept_Date":"2020-04-16 10"},"coordinates":[4421,2939]},{"type":"Point","properties":{"Station_ID":"ASTM5","Station_Nam":"AUSTIN WASTE WATER TREATMENT FACILITY","Latitude":"43.65420","Longitude":"-92.97390","Snowdepth":"2.000","Units":"in","Rept_Date":"2020-04-16 12"},"coordinates":[1000,3607]},{"type":"Point","properties":{"Station_ID":"ANJM4","Station_Nam":"SNOW PAID OBSERVER FOR KANJ","Latitude":"46.48670","Longitude":"-84.40260","Snowdepth":"2.000","Units":"in","Rept_Date":"2020-04-17 00"},"coordinates":[3012,5850]},{"type":"Point","properties":{"Station_ID":"ANJ","Station_Nam":"SAULT STE MARIE","Latitude":"46.46670","Longitude":"-84.36670","Snowdepth":"2.000","Units":"in","Rept_Date":"2020-04-17 00"},"coordinates":[3020,5834]},{"type":"Point","properties":{"Station_ID":"ANGN6","Station_Nam":"ANGELICA","Latitude":"42.31080","Longitude":"-78.02300","Snowdepth":"2.000","Units":"in","Rept_Date":"2020-04-16 11"},"coordinates":[4509,2544]},{"type":"Point","properties":{"Station_ID":"ALFN6","Station_Nam":"ALFRED","Latitude":"42.27980","Longitude":"-77.76560","Snowdepth":"2.000","Units":"in","Rept_Date":"2020-04-16 12"},"coordinates":[4570,2519]},{"type":"Point","properties":{"Station_ID":"ABNM3","Station_Nam":"ASHBURNHAM NORTH","Latitude":"42.66170","Longitude":"-71.93590","Snowdepth":"2.000","Units":"in","Rept_Date":"2020-04-16 11"},"coordinates":[5938,2821]},{"type":"Point","properties":{"Station_ID":"42.2168_079.8473","Station_Nam":"NORTH EAST  SNOW SPOTTER (X4220798)","Latitude":"42.21680","Longitude":"-79.84730","Snowdepth":"2.000","Units":"in","Rept_Date":"2020-04-16 13"},"coordinates":[4081,2469]},{"type":"Point","properties":{"Station_ID":"42.2002_079.8021","Station_Nam":"2 ESE North East  Trained Spotter (CLE0183)","Latitude":"42.20018","Longitude":"-79.80210","Snowdepth":"2.000","Units":"in","Rept_Date":"2020-04-16 12"},"coordinates":[4091,2456]},{"type":"Point","properties":{"Station_ID":"42.0800_080.0143","Station_Nam":"ERIE 5SE  SNOW SPOTTER (X4210800)","Latitude":"42.08000","Longitude":"-80.01430","Snowdepth":"2.000","Units":"in","Rept_Date":"2020-04-16 12"},"coordinates":[4042,2361]},{"type":"Point","properties":{"Station_ID":"41.8275_080.5321","Station_Nam":"MONROE TWP  SNOW SPOTTER (X4180805)","Latitude":"41.82750","Longitude":"-80.53210","Snowdepth":"2.000","Units":"in","Rept_Date":"2020-04-16 13"},"coordinates":[3920,2161]},{"type":"Point","properties":{"Station_ID":"41.7685_081.0699","Station_Nam":"1 WSW Madison  Trained Spotter (CLE1252)","Latitude":"41.76851","Longitude":"-81.06988","Snowdepth":"2.000","Units":"in","Rept_Date":"2020-04-16 11"},"coordinates":[3794,2114]},{"type":"Point","properties":{"Station_ID":"41.7413_080.7594","Station_Nam":"JEFFERSON  SNOW SPOTTER (X4170808)","Latitude":"41.74130","Longitude":"-80.75940","Snowdepth":"2.000","Units":"in","Rept_Date":"2020-04-16 11"},"coordinates":[3867,2093]},{"type":"Point","properties":{"Station_ID":"41.7396_080.5416","Station_Nam":"PIERPONT 2SE (CLE1412)","Latitude":"41.73960","Longitude":"-80.54160","Snowdepth":"2.000","Units":"in","Rept_Date":"2020-04-16 12"},"coordinates":[3918,2091]},{"type":"Point","properties":{"Station_ID":"41.7260_080.9910","Station_Nam":"3 E South Madison  Trained Spotter (CLE1474)","Latitude":"41.72602","Longitude":"-80.99102","Snowdepth":"2.000","Units":"in","Rept_Date":"2020-04-16 11"},"coordinates":[3812,2081]},{"type":"Point","properties":{"Station_ID":"41.6500_080.4333","Station_Nam":"PA FISH COMMISSION HATCHERY  CO-OP OBSERVER (LNVP1)","Latitude":"41.65000","Longitude":"-80.43330","Snowdepth":"2.000","Units":"in","Rept_Date":"2020-04-16 11"},"coordinates":[3943,2020]},{"type":"Point","properties":{"Station_ID":"41.6346_080.6614","Station_Nam":"1 E DORSET  SNOW SPOTTER (CLE1453)","Latitude":"41.63460","Longitude":"-80.66140","Snowdepth":"2.000","Units":"in","Rept_Date":"2020-04-16 11"},"coordinates":[3890,2008]},{"type":"Point","properties":{"Station_ID":"41.5183_081.4792","Station_Nam":"1 ENE Lyndhurst  Trained Spotter (CLE1177)","Latitude":"41.51834","Longitude":"-81.47919","Snowdepth":"2.000","Units":"in","Rept_Date":"2020-04-16 13"},"coordinates":[3698,1916]},{"type":"Point","properties":{"Station_ID":"41.5078_081.1830","Station_Nam":"5 SSE Chardon  CoCoRaHS (OH-GG-16)","Latitude":"41.50780","Longitude":"-81.18300","Snowdepth":"2.000","Units":"in","Rept_Date":"2020-04-16 12"},"coordinates":[3767,1908]},{"type":"Point","properties":{"Station_ID":"41.4727_081.1835","Station_Nam":"2 W Burton  Trained Spotter (CLE1337)","Latitude":"41.47271","Longitude":"-81.18346","Snowdepth":"2.000","Units":"in","Rept_Date":"2020-04-16 14"},"coordinates":[3767,1880]},{"type":"Point","properties":{"Station_ID":"41.4716_081.1803","Station_Nam":"BURTON (CLE1314)","Latitude":"41.47160","Longitude":"-81.18030","Snowdepth":"2.000","Units":"in","Rept_Date":"2020-04-16 12"},"coordinates":[3768,1879]},{"type":"Point","properties":{"Station_ID":"41.4659_081.0677","Station_Nam":"1 NE Middlefield  Trained Spotter (X4150811)","Latitude":"41.46585","Longitude":"-81.06772","Snowdepth":"2.000","Units":"in","Rept_Date":"2020-04-16 13"},"coordinates":[3794,1875]},{"type":"Point","properties":{"Station_ID":"41.3763_082.0992","Station_Nam":"Elyria  Trained Spotter (CLE1010)","Latitude":"41.37628","Longitude":"-82.09918","Snowdepth":"2.000","Units":"in","Rept_Date":"2020-04-16 11"},"coordinates":[3552,1804]},{"type":"Point","properties":{"Station_ID":"41.3451_081.4466","Station_Nam":"TWINSBURG (CLE2104)","Latitude":"41.34510","Longitude":"-81.44660","Snowdepth":"2.000","Units":"in","Rept_Date":"2020-04-16 13"},"coordinates":[3705,1779]},{"type":"Point","properties":{"Station_ID":"41.3160_081.1434","Station_Nam":"N Hiram  CoCoRaHS (OH-PT-9)","Latitude":"41.31600","Longitude":"-81.14340","Snowdepth":"2.000","Units":"in","Rept_Date":"2020-04-16 12"},"coordinates":[3777,1756]},{"type":"Point","properties":{"Station_ID":"41.3041_081.5599","Station_Nam":"SAGAMORE HILLS (CLE2123)","Latitude":"41.30410","Longitude":"-81.55990","Snowdepth":"2.000","Units":"in","Rept_Date":"2020-04-16 13"},"coordinates":[3679,1747]},{"type":"Point","properties":{"Station_ID":"41.2883_080.7647","Station_Nam":"Mosquito Creek Lake  Co-Op Observer (MOSO1)","Latitude":"41.28830","Longitude":"-80.76470","Snowdepth":"2.000","Units":"in","Rept_Date":"2020-04-16 11"},"coordinates":[3866,1734]},{"type":"Point","properties":{"Station_ID":"41.2667_082.2167","Station_Nam":"1 S OBERLIN  CO-OP OBSERVER (OBEO1)","Latitude":"41.26670","Longitude":"-82.21670","Snowdepth":"2.000","Units":"in","Rept_Date":"2020-04-16 12"},"coordinates":[3525,1717]},{"type":"Point","properties":{"Station_ID":"41.2499_081.8127","Station_Nam":"BRUNSWICK (CLE2007)","Latitude":"41.24990","Longitude":"-81.81270","Snowdepth":"2.000","Units":"in","Rept_Date":"2020-04-16 11"},"coordinates":[3620,1704]},{"type":"Point","properties":{"Station_ID":"41.2288_081.7159","Station_Nam":"HINCKLEY  TRAINED SPOTTER (CLE2006)","Latitude":"41.22880","Longitude":"-81.71590","Snowdepth":"2.000","Units":"in","Rept_Date":"2020-04-16 11"},"coordinates":[3642,1687]},{"type":"Point","properties":{"Station_ID":"41.1978_081.6324","Station_Nam":"BATH TWP  TRAINED SPOTTER (CLE2135)","Latitude":"41.19780","Longitude":"-81.63240","Snowdepth":"2.000","Units":"in","Rept_Date":"2020-04-16 11"},"coordinates":[3662,1662]},{"type":"Point","properties":{"Station_ID":"41.1623_081.5037","Station_Nam":"1 ESE Cuyahoga Falls  CoCoRaHS (OH-SM-5)","Latitude":"41.16230","Longitude":"-81.50370","Snowdepth":"2.000","Units":"in","Rept_Date":"2020-04-16 11"},"coordinates":[3692,1634]},{"type":"Point","properties":{"Station_ID":"41.1403_081.4956","Station_Nam":"CUYAHOGA FALLS (CLE2128)","Latitude":"41.14030","Longitude":"-81.49560","Snowdepth":"2.000","Units":"in","Rept_Date":"2020-04-16 12"},"coordinates":[3694,1617]},{"type":"Point","properties":{"Station_ID":"41.1311_081.4000","Station_Nam":"MONROE FALLS  CO-OP OBSERVER (STWO1)","Latitude":"41.13110","Longitude":"-81.40000","Snowdepth":"2.000","Units":"in","Rept_Date":"2020-04-16 11"},"coordinates":[3716,1610]},{"type":"Point","properties":{"Station_ID":"41.1184_081.4397","Station_Nam":"TALLMADGE (CLE2118)","Latitude":"41.11840","Longitude":"-81.43970","Snowdepth":"2.000","Units":"in","Rept_Date":"2020-04-16 12"},"coordinates":[3707,1599]},{"type":"Point","properties":{"Station_ID":"NY-ER-177","Station_Nam":"CLARENCE 3.8 SSW, NY","Latitude":"42.96084","Longitude":"-78.66569","Snowdepth":"1.800","Units":"in","Rept_Date":"2020-04-16 11"},"coordinates":[4358,3058]},{"type":"Point","properties":{"Station_ID":"NY-AL-11","Station_Nam":"WELLSVILLE 2.4 ENE, NY","Latitude":"42.13750","Longitude":"-77.90550","Snowdepth":"1.800","Units":"in","Rept_Date":"2020-04-16 11"},"coordinates":[4537,2406]},{"type":"Point","properties":{"Station_ID":"VT-ES-1","Station_Nam":"GRANBY 1.4 NW, VT","Latitude":"44.58330","Longitude":"-71.77870","Snowdepth":"1.700","Units":"in","Rept_Date":"2020-04-16 11"},"coordinates":[5975,4343]},{"type":"Point","properties":{"Station_ID":"NY-ER-60","Station_Nam":"BLASDELL 1.5 SSW, NY","Latitude":"42.77657","Longitude":"-78.84440","Snowdepth":"1.700","Units":"in","Rept_Date":"2020-04-16 11"},"coordinates":[4316,2912]},{"type":"Point","properties":{"Station_ID":"NY-ER-138","Station_Nam":"EAST AURORA 3.4 NNE, NY","Latitude":"42.81400","Longitude":"-78.59670","Snowdepth":"1.700","Units":"in","Rept_Date":"2020-04-16 11"},"coordinates":[4374,2942]},{"type":"Point","properties":{"Station_ID":"PA-ER-2","Station_Nam":"ERIE 5.6 SW, PA","Latitude":"42.06086","Longitude":"-80.15260","Snowdepth":"1.600","Units":"in","Rept_Date":"2020-04-16 11"},"coordinates":[4009,2346]},{"type":"Point","properties":{"Station_ID":"OH-PT-17","Station_Nam":"KENT 1.5 W, OH","Latitude":"41.14718","Longitude":"-81.39079","Snowdepth":"1.600","Units":"in","Rept_Date":"2020-04-16 11"},"coordinates":[3719,1622]},{"type":"Point","properties":{"Station_ID":"42.0609_080.1526","Station_Nam":"6 SW Erie  CoCoRaHS (PA-ER-2)","Latitude":"42.06090","Longitude":"-80.15260","Snowdepth":"1.600","Units":"in","Rept_Date":"2020-04-16 10"},"coordinates":[4009,2346]},{"type":"Point","properties":{"Station_ID":"VT-BN-3","Station_Nam":"LANDGROVE 1.1 NNE, VT","Latitude":"43.29092","Longitude":"-72.83260","Snowdepth":"1.500","Units":"in","Rept_Date":"2020-04-16 11"},"coordinates":[5727,3320]},{"type":"Point","properties":{"Station_ID":"SD-MH-1","Station_Nam":"SIOUX FALLS 5.0 SE ARPT, SD","Latitude":"43.52360","Longitude":"-96.66780","Snowdepth":"1.500","Units":"in","Rept_Date":"2020-04-16 12"},"coordinates":[133,3504]},{"type":"Point","properties":{"Station_ID":"OH-PT-13","Station_Nam":"MANTUA 1.0 NNW, OH","Latitude":"41.29421","Longitude":"-81.23160","Snowdepth":"1.500","Units":"in","Rept_Date":"2020-04-16 12"},"coordinates":[3756,1739]},{"type":"Point","properties":{"Station_ID":"OH-GG-7","Station_Nam":"MIDDLEFIELD 0.6 NE, OH","Latitude":"41.46438","Longitude":"-81.06520","Snowdepth":"1.500","Units":"in","Rept_Date":"2020-04-16 12"},"coordinates":[3795,1873]},{"type":"Point","properties":{"Station_ID":"NY-TM-3","Station_Nam":"ITHACA 1.1 SE, NY","Latitude":"42.43173","Longitude":"-76.48860","Snowdepth":"1.500","Units":"in","Rept_Date":"2020-04-16 11"},"coordinates":[4869,2639]},{"type":"Point","properties":{"Station_ID":"NY-TG-5","Station_Nam":"BERKSHIRE 2.0 N, NY","Latitude":"42.33463","Longitude":"-76.18990","Snowdepth":"1.500","Units":"in","Rept_Date":"2020-04-16 11"},"coordinates":[4939,2562]},{"type":"Point","properties":{"Station_ID":"NY-TG-20","Station_Nam":"CANDOR 1.8 N, NY","Latitude":"42.25308","Longitude":"-76.33780","Snowdepth":"1.500","Units":"in","Rept_Date":"2020-04-16 11"},"coordinates":[4905,2498]},{"type":"Point","properties":{"Station_ID":"NY-RN-1","Station_Nam":"AVERILL PARK 0.9 WNW, NY","Latitude":"42.63910","Longitude":"-73.56980","Snowdepth":"1.500","Units":"in","Rept_Date":"2020-04-16 12"},"coordinates":[5554,2804]},{"type":"Point","properties":{"Station_ID":"NY-OT-29","Station_Nam":"NEW BERLIN 1.5 NE, NY","Latitude":"42.63689","Longitude":"-75.31090","Snowdepth":"1.500","Units":"in","Rept_Date":"2020-04-16 12"},"coordinates":[5146,2802]},{"type":"Point","properties":{"Station_ID":"NY-ON-15","Station_Nam":"GENEVA COOP, NY","Latitude":"42.87660","Longitude":"-77.03080","Snowdepth":"1.500","Units":"in","Rept_Date":"2020-04-16 11"},"coordinates":[4742,2992]},{"type":"Point","properties":{"Station_ID":"NY-OD-19","Station_Nam":"NEW HARTFORD 0.8 S, NY","Latitude":"43.06182","Longitude":"-75.28990","Snowdepth":"1.500","Units":"in","Rept_Date":"2020-04-16 11"},"coordinates":[5151,3138]},{"type":"Point","properties":{"Station_ID":"NY-MD-22","Station_Nam":"ONEIDA 0.4 NW, NY","Latitude":"43.08012","Longitude":"-75.66860","Snowdepth":"1.500","Units":"in","Rept_Date":"2020-04-16 11"},"coordinates":[5062,3153]},{"type":"Point","properties":{"Station_ID":"NY-MD-16","Station_Nam":"CHITTENANGO 2.1 ESE, NY","Latitude":"43.03297","Longitude":"-75.83480","Snowdepth":"1.500","Units":"in","Rept_Date":"2020-04-16 12"},"coordinates":[5023,3115]},{"type":"Point","properties":{"Station_ID":"NY-ER-75","Station_Nam":"ELMA CENTER 0.7 SE, NY","Latitude":"42.81936","Longitude":"-78.62140","Snowdepth":"1.500","Units":"in","Rept_Date":"2020-04-16 13"},"coordinates":[4369,2946]},{"type":"Point","properties":{"Station_ID":"NY-DL-25","Station_Nam":"HOBART 4.8 ESE, NY","Latitude":"42.35230","Longitude":"-74.57830","Snowdepth":"1.500","Units":"in","Rept_Date":"2020-04-16 11"},"coordinates":[5318,2576]},{"type":"Point","properties":{"Station_ID":"NY-CQ-39","Station_Nam":"GERRY 0.8 N, NY","Latitude":"42.20500","Longitude":"-79.24700","Snowdepth":"1.500","Units":"in","Rept_Date":"2020-04-16 12"},"coordinates":[4222,2460]},{"type":"Point","properties":{"Station_ID":"NY-CQ-22","Station_Nam":"FREDONIA 0.8 WNW, NY","Latitude":"42.44414","Longitude":"-79.34610","Snowdepth":"1.500","Units":"in","Rept_Date":"2020-04-16 09"},"coordinates":[4199,2649]},{"type":"Point","properties":{"Station_ID":"NY-CN-9","Station_Nam":"NORWICH 5.4 W, NY","Latitude":"42.53356","Longitude":"-75.63060","Snowdepth":"1.500","Units":"in","Rept_Date":"2020-04-16 11"},"coordinates":[5071,2720]},{"type":"Point","properties":{"Station_ID":"NY-CB-9","Station_Nam":"HILLSDALE 5.8 S, NY","Latitude":"42.26165","Longitude":"-73.54160","Snowdepth":"1.500","Units":"in","Rept_Date":"2020-04-16 12"},"coordinates":[5561,2505]},{"type":"Point","properties":{"Station_ID":"NY-BM-4","Station_Nam":"ENDICOTT 5.2 SSE, NY","Latitude":"42.02958","Longitude":"-76.02130","Snowdepth":"1.500","Units":"in","Rept_Date":"2020-04-16 11"},"coordinates":[4979,2321]},{"type":"Point","properties":{"Station_ID":"NY-BM-14","Station_Nam":"WHITNEY POINT 1.7 SSE, NY","Latitude":"42.30837","Longitude":"-75.95690","Snowdepth":"1.500","Units":"in","Rept_Date":"2020-04-16 12"},"coordinates":[4994,2542]},{"type":"Point","properties":{"Station_ID":"MI-DL-4","Station_Nam":"GLADSTONE 2.1 SW, MI","Latitude":"45.83218","Longitude":"-87.05727","Snowdepth":"1.500","Units":"in","Rept_Date":"2020-04-16 11"},"coordinates":[2389,5332]},{"type":"Point","properties":{"Station_ID":"MA-WR-54","Station_Nam":"BARRE 1.4 NNE, MA","Latitude":"42.44082","Longitude":"-72.09591","Snowdepth":"1.500","Units":"in","Rept_Date":"2020-04-16 11"},"coordinates":[5900,2647]},{"type":"Point","properties":{"Station_ID":"MA-WR-22","Station_Nam":"FITCHBURG 2.0 NNE, MA","Latitude":"42.61671","Longitude":"-71.80100","Snowdepth":"1.500","Units":"in","Rept_Date":"2020-04-16 12"},"coordinates":[5970,2786]},{"type":"Point","properties":{"Station_ID":"MA-MD-47","Station_Nam":"WEST TOWNSEND 0.5 W, MA","Latitude":"42.67623","Longitude":"-71.74983","Snowdepth":"1.500","Units":"in","Rept_Date":"2020-04-16 10"},"coordinates":[5982,2833]},{"type":"Point","properties":{"Station_ID":"41.4644_081.0652","Station_Nam":"1 NE Middlefield  CoCoRaHS (OH-GG-7)","Latitude":"41.46440","Longitude":"-81.06520","Snowdepth":"1.500","Units":"in","Rept_Date":"2020-04-16 12"},"coordinates":[3795,1873]},{"type":"Point","properties":{"Station_ID":"41.2942_081.2316","Station_Nam":"1 NNW Mantua  CoCoRaHS (OH-PT-13)","Latitude":"41.29420","Longitude":"-81.23160","Snowdepth":"1.500","Units":"in","Rept_Date":"2020-04-16 12"},"coordinates":[3756,1739]},{"type":"Point","properties":{"Station_ID":"NY-HR-18","Station_Nam":"SALISBURY CENTER 1.8 NW, NY","Latitude":"43.16260","Longitude":"-74.80880","Snowdepth":"1.300","Units":"in","Rept_Date":"2020-04-16 10"},"coordinates":[5264,3218]},{"type":"Point","properties":{"Station_ID":"NY-BM-21","Station_Nam":"WINDSOR 8.0 SE, NY","Latitude":"42.00992","Longitude":"-75.51420","Snowdepth":"1.300","Units":"in","Rept_Date":"2020-04-16 11"},"coordinates":[5098,2305]},{"type":"Point","properties":{"Station_ID":"MA-BE-3","Station_Nam":"STOCKBRIDGE .2 NNE, MA","Latitude":"42.28983","Longitude":"-73.31950","Snowdepth":"1.300","Units":"in","Rept_Date":"2020-04-16 10"},"coordinates":[5613,2527]},{"type":"Point","properties":{"Station_ID":"IL-ME-13","Station_Nam":"TALLULA 3.0 WSW, IL","Latitude":"39.92410","Longitude":"-89.98580","Snowdepth":"1.300","Units":"in","Rept_Date":"2020-04-16 14"},"coordinates":[1701,654]},{"type":"Point","properties":{"Station_ID":"IA-SH-6","Station_Nam":"KIRKMAN 1.0 SE, IA","Latitude":"41.71810","Longitude":"-95.25310","Snowdepth":"1.300","Units":"in","Rept_Date":"2020-04-16 12"},"coordinates":[465,2074]},{"type":"Point","properties":{"Station_ID":"NY-MG-3","Station_Nam":"HESSVILLE 1.8 WSW, NY","Latitude":"42.86430","Longitude":"-74.72140","Snowdepth":"1.200","Units":"in","Rept_Date":"2020-04-16 11"},"coordinates":[5284,2982]},{"type":"Point","properties":{"Station_ID":"NY-CR-5","Station_Nam":"MARATHON 1.0 NW, NY","Latitude":"42.45161","Longitude":"-76.04370","Snowdepth":"1.200","Units":"in","Rept_Date":"2020-04-16 11"},"coordinates":[4974,2655]},{"type":"Point","properties":{"Station_ID":"IL-CK-88","Station_Nam":"COUNTRYSIDE 0.8 ENE, IL","Latitude":"41.78231","Longitude":"-87.86220","Snowdepth":"1.200","Units":"in","Rept_Date":"2020-04-16 10"},"coordinates":[2200,2125]},{"type":"Point","properties":{"Station_ID":"NY-LV-1","Station_Nam":"DANSVILLE 3.6 WSW, NY","Latitude":"42.53210","Longitude":"-77.75540","Snowdepth":"1.100","Units":"in","Rept_Date":"2020-04-16 10"},"coordinates":[4572,2719]},{"type":"Point","properties":{"Station_ID":"NY-ER-54","Station_Nam":"EAST AMHERST 1.2 WNW, NY","Latitude":"43.02250","Longitude":"-78.71900","Snowdepth":"1.100","Units":"in","Rept_Date":"2020-04-16 12"},"coordinates":[4346,3107]},{"type":"Point","properties":{"Station_ID":"ZBWN3","Station_Nam":"NASHUA CWSU","Latitude":"42.73440","Longitude":"-71.48030","Snowdepth":"1.000","Units":"in","Rept_Date":"2020-04-16 11"},"coordinates":[6045,2879]},{"type":"Point","properties":{"Station_ID":"YNG","Station_Nam":"YOUNGSTOWN-WARREN REG AIRPRT","Latitude":"41.25890","Longitude":"-80.67610","Snowdepth":"1.000","Units":"in","Rept_Date":"2020-04-16 12"},"coordinates":[3886,1711]},{"type":"Point","properties":{"Station_ID":"WYON6","Station_Nam":"WYOMING 3W","Latitude":"42.82060","Longitude":"-78.14810","Snowdepth":"1.000","Units":"in","Rept_Date":"2020-04-16 11"},"coordinates":[4480,2947]},{"type":"Point","properties":{"Station_ID":"WVYN6","Station_Nam":"WAVERLY","Latitude":"41.98470","Longitude":"-76.50140","Snowdepth":"1.000","Units":"in","Rept_Date":"2020-04-16 11"},"coordinates":[4866,2285]},{"type":"Point","properties":{"Station_ID":"WV-PR-11","Station_Nam":"THOMAS 7.4 N, WV","Latitude":"39.25361","Longitude":"-79.51055","Snowdepth":"1.000","Units":"in","Rept_Date":"2020-04-16 11"},"coordinates":[4160,123]},{"type":"Point","properties":{"Station_ID":"WSTN6","Station_Nam":"WESTMORELAND 4 N","Latitude":"43.15950","Longitude":"-75.46110","Snowdepth":"1.000","Units":"in","Rept_Date":"2020-04-16 11"},"coordinates":[5110,3216]},{"type":"Point","properties":{"Station_ID":"WORM3","Station_Nam":"WORTHINGTON","Latitude":"42.38690","Longitude":"-72.92100","Snowdepth":"1.000","Units":"in","Rept_Date":"2020-04-16 11"},"coordinates":[5707,2604]},{"type":"Point","properties":{"Station_ID":"WNDP1","Station_Nam":"WINDBER COUNTY CLUB","Latitude":"40.28780","Longitude":"-78.77530","Snowdepth":"1.000","Units":"in","Rept_Date":"2020-04-16 11"},"coordinates":[4333,942]},{"type":"Point","properties":{"Station_ID":"WLLP1","Station_Nam":"WELLSBORO 4 SW","Latitude":"41.70030","Longitude":"-77.38940","Snowdepth":"1.000","Units":"in","Rept_Date":"2020-04-16 11"},"coordinates":[4658,2060]},{"type":"Point","properties":{"Station_ID":"WITN6","Station_Nam":"WHITNEY POINT DAM","Latitude":"42.34180","Longitude":"-75.96530","Snowdepth":"1.000","Units":"in","Rept_Date":"2020-04-16 11"},"coordinates":[4992,2568]},{"type":"Point","properties":{"Station_ID":"WI-OC-1","Station_Nam":"MOUNTAIN 1.1 SW, WI","Latitude":"45.17239","Longitude":"-88.48990","Snowdepth":"1.000","Units":"in","Rept_Date":"2020-04-16 15"},"coordinates":[2052,4809]},{"type":"Point","properties":{"Station_ID":"WI-CH-13","Station_Nam":"JIM FALLS 5.5 NNW, WI","Latitude":"45.12312","Longitude":"-91.29600","Snowdepth":"1.000","Units":"in","Rept_Date":"2020-04-16 12"},"coordinates":[1394,4770]},{"type":"Point","properties":{"Station_ID":"WI-BY-2","Station_Nam":"MELLEN 18.6 SW, WI","Latitude":"46.16937","Longitude":"-90.98090","Snowdepth":"1.000","Units":"in","Rept_Date":"2020-04-16 12"},"coordinates":[1468,5599]},{"type":"Point","properties":{"Station_ID":"WI-BY-14","Station_Nam":"ASHLAND 9.8 W, WI","Latitude":"46.59742","Longitude":"-91.07856","Snowdepth":"1.000","Units":"in","Rept_Date":"2020-04-16 11"},"coordinates":[1445,5938]},{"type":"Point","properties":{"Station_ID":"WHTN6","Station_Nam":"WHITESVILLE","Latitude":"42.05980","Longitude":"-77.75530","Snowdepth":"1.000","Units":"in","Rept_Date":"2020-04-16 11"},"coordinates":[4572,2345]},{"type":"Point","properties":{"Station_ID":"WELM5","Station_Nam":"WELLS","Latitude":"43.74680","Longitude":"-93.73680","Snowdepth":"1.000","Units":"in","Rept_Date":"2020-04-16 13"},"coordinates":[821,3681]},{"type":"Point","properties":{"Station_ID":"VT-ES-3","Station_Nam":"LUNENBURG 2.3 NNW, VT","Latitude":"44.49324","Longitude":"-71.70446","Snowdepth":"1.000","Units":"in","Rept_Date":"2020-04-16 10"},"coordinates":[5992,4272]},{"type":"Point","properties":{"Station_ID":"VT-BN-12","Station_Nam":"STAMFORD 5.0 NNE, VT","Latitude":"42.82000","Longitude":"-73.02000","Snowdepth":"1.000","Units":"in","Rept_Date":"2020-04-16 20"},"coordinates":[5683,2947]},{"type":"Point","properties":{"Station_ID":"TWOP1","Station_Nam":"TOWANDA 1 S","Latitude":"41.75110","Longitude":"-76.44300","Snowdepth":"1.000","Units":"in","Rept_Date":"2020-04-16 11"},"coordinates":[4880,2100]},{"type":"Point","properties":{"Station_ID":"SUTV1","Station_Nam":"SUTTON","Latitude":"44.61220","Longitude":"-72.04810","Snowdepth":"1.000","Units":"in","Rept_Date":"2020-04-16 11"},"coordinates":[5912,4366]},{"type":"Point","properties":{"Station_ID":"SPRI4","Station_Nam":"SPIRIT LAKE","Latitude":"43.42310","Longitude":"-95.10000","Snowdepth":"1.000","Units":"in","Rept_Date":"2020-04-16 12"},"coordinates":[501,3424]},{"type":"Point","properties":{"Station_ID":"SMRP1","Station_Nam":"SOMERSET,PA","Latitude":"40.00000","Longitude":"-79.08330","Snowdepth":"1.000","Units":"in","Rept_Date":"2020-04-16 12"},"coordinates":[4260,714]},{"type":"Point","properties":{"Station_ID":"SHHN6","Station_Nam":"SCHOHARIE VILLAGE","Latitude":"42.66500","Longitude":"-74.30360","Snowdepth":"1.000","Units":"in","Rept_Date":"2020-04-16 11"},"coordinates":[5382,2824]},{"type":"Point","properties":{"Station_ID":"SFFM7","Station_Nam":"STEFFENVILLE,MO","Latitude":"39.97140","Longitude":"-91.88720","Snowdepth":"1.000","Units":"in","Rept_Date":"2020-04-16 13"},"coordinates":[1255,691]},{"type":"Point","properties":{"Station_ID":"SBOP1","Station_Nam":"SPRINGBORO","Latitude":"41.81660","Longitude":"-80.43330","Snowdepth":"1.000","Units":"in","Rept_Date":"2020-04-16 11"},"coordinates":[3943,2152]},{"type":"Point","properties":{"Station_ID":"ROWM3","Station_Nam":"ROWE 3NE","Latitude":"42.73500","Longitude":"-72.86920","Snowdepth":"1.000","Units":"in","Rept_Date":"2020-04-16 11"},"coordinates":[5719,2879]},{"type":"Point","properties":{"Station_ID":"RADI4","Station_Nam":"TAILWATER","Latitude":"40.82280","Longitude":"-92.88940","Snowdepth":"1.000","Units":"in","Rept_Date":"2020-04-16 12"},"coordinates":[1020,1365]},{"type":"Point","properties":{"Station_ID":"QCAI2","Station_Nam":"MOLINE SNOW","Latitude":"41.39990","Longitude":"-90.54800","Snowdepth":"1.000","Units":"in","Rept_Date":"2020-04-17 06"},"coordinates":[1569,1822]},{"type":"Point","properties":{"Station_ID":"PVLN6","Station_Nam":"PAVILION 2","Latitude":"42.87340","Longitude":"-77.99240","Snowdepth":"1.000","Units":"in","Rept_Date":"2020-04-16 11"},"coordinates":[4516,2989]},{"type":"Point","properties":{"Station_ID":"PNYP1","Station_Nam":"MAHONING LAKE","Latitude":"40.92500","Longitude":"-79.28250","Snowdepth":"1.000","Units":"in","Rept_Date":"2020-04-16 12"},"coordinates":[4213,1446]},{"type":"Point","properties":{"Station_ID":"PLBP1","Station_Nam":"PHILIPSBURG,PA","Latitude":"40.87220","Longitude":"-78.21530","Snowdepth":"1.000","Units":"in","Rept_Date":"2020-04-16 12"},"coordinates":[4464,1405]},{"type":"Point","properties":{"Station_ID":"PHON6","Station_Nam":"PHOENICIA 2SW","Latitude":"42.06420","Longitude":"-74.34080","Snowdepth":"1.000","Units":"in","Rept_Date":"2020-04-16 10"},"coordinates":[5373,2348]},{"type":"Point","properties":{"Station_ID":"PEAI2","Station_Nam":"PEORIA #2 SNOW PAID","Latitude":"40.76270","Longitude":"-89.59960","Snowdepth":"1.000","Units":"in","Rept_Date":"2020-04-17 06"},"coordinates":[1792,1318]},{"type":"Point","properties":{"Station_ID":"PA-CW-8","Station_Nam":"SPRINGBORO 3.0 WNW, PA","Latitude":"41.81654","Longitude":"-80.42540","Snowdepth":"1.000","Units":"in","Rept_Date":"2020-04-16 11"},"coordinates":[3945,2152]},{"type":"Point","properties":{"Station_ID":"PA-BF-14","Station_Nam":"SAYRE 2.8 WNW, PA","Latitude":"41.99750","Longitude":"-76.57260","Snowdepth":"1.000","Units":"in","Rept_Date":"2020-04-16 11"},"coordinates":[4850,2296]},{"type":"Point","properties":{"Station_ID":"PA-AR-14","Station_Nam":"TEMPLETON 2.9 SSW, PA","Latitude":"40.87790","Longitude":"-79.47900","Snowdepth":"1.000","Units":"in","Rept_Date":"2020-04-16 13"},"coordinates":[4167,1409]},{"type":"Point","properties":{"Station_ID":"OLNN6","Station_Nam":"OLEAN","Latitude":"42.07370","Longitude":"-78.45180","Snowdepth":"1.000","Units":"in","Rept_Date":"2020-04-16 11"},"coordinates":[4408,2356]},{"type":"Point","properties":{"Station_ID":"OH-PT-10","Station_Nam":"KENT 3.6 NE, OH","Latitude":"41.20083","Longitude":"-81.33890","Snowdepth":"1.000","Units":"in","Rept_Date":"2020-04-16 12"},"coordinates":[3731,1665]},{"type":"Point","properties":{"Station_ID":"OH-MD-10","Station_Nam":"MEDINA 0.8 ENE, OH","Latitude":"41.14120","Longitude":"-81.85340","Snowdepth":"1.000","Units":"in","Rept_Date":"2020-04-16 11"},"coordinates":[3610,1618]},{"type":"Point","properties":{"Station_ID":"OH-CY-24","Station_Nam":"PARMA 1.9 NNW, OH","Latitude":"41.40881","Longitude":"-81.74480","Snowdepth":"1.000","Units":"in","Rept_Date":"2020-04-16 12"},"coordinates":[3635,1829]},{"type":"Point","properties":{"Station_ID":"OCON6","Station_Nam":"OSCEOLA","Latitude":"43.49910","Longitude":"-75.71210","Snowdepth":"1.000","Units":"in","Rept_Date":"2020-04-16 11"},"coordinates":[5052,3484]},{"type":"Point","properties":{"Station_ID":"NY-WY-10","Station_Nam":"WYOMING COOP, NY","Latitude":"42.82060","Longitude":"-78.14810","Snowdepth":"1.000","Units":"in","Rept_Date":"2020-04-16 11"},"coordinates":[4480,2947]},{"type":"Point","properties":{"Station_ID":"NY-TM-45","Station_Nam":"NEWFIELD HAMLET 4.3 S, NY","Latitude":"42.29650","Longitude":"-76.60676","Snowdepth":"1.000","Units":"in","Rept_Date":"2020-04-16 13"},"coordinates":[4842,2532]},{"type":"Point","properties":{"Station_ID":"NY-TG-26","Station_Nam":"CANDOR 0.7 NW, NY","Latitude":"42.23428","Longitude":"-76.34758","Snowdepth":"1.000","Units":"in","Rept_Date":"2020-04-16 12"},"coordinates":[4902,2483]},{"type":"Point","properties":{"Station_ID":"NY-OG-2","Station_Nam":"DE WITT 1.4 WSW, NY","Latitude":"43.03333","Longitude":"-76.10000","Snowdepth":"1.000","Units":"in","Rept_Date":"2020-04-16 11"},"coordinates":[4960,3116]},{"type":"Point","properties":{"Station_ID":"NY-OG-10","Station_Nam":"CAMILLUS 1.0 W, NY","Latitude":"43.03962","Longitude":"-76.32830","Snowdepth":"1.000","Units":"in","Rept_Date":"2020-04-16 11"},"coordinates":[4907,3121]},{"type":"Point","properties":{"Station_ID":"NY-OD-23","Station_Nam":"DURHAMVILLE 3.5 NNW, NY","Latitude":"43.17115","Longitude":"-75.68280","Snowdepth":"1.000","Units":"in","Rept_Date":"2020-04-16 11"},"coordinates":[5058,3225]},{"type":"Point","properties":{"Station_ID":"NY-MR-65","Station_Nam":"SCOTTSVILLE 0.4 NW, NY","Latitude":"43.02539","Longitude":"-77.75963","Snowdepth":"1.000","Units":"in","Rept_Date":"2020-04-16 12"},"coordinates":[4571,3109]},{"type":"Point","properties":{"Station_ID":"NY-HR-16","Station_Nam":"ILION 0.7 WSW, NY","Latitude":"43.00880","Longitude":"-75.05390","Snowdepth":"1.000","Units":"in","Rept_Date":"2020-04-16 11"},"coordinates":[5206,3096]},{"type":"Point","properties":{"Station_ID":"NY-GN-6","Station_Nam":"STAFFORD 1.8 NE, NY","Latitude":"42.99890","Longitude":"-78.04830","Snowdepth":"1.000","Units":"in","Rept_Date":"2020-04-16 11"},"coordinates":[4503,3088]},{"type":"Point","properties":{"Station_ID":"NY-ER-86","Station_Nam":"TONAWANDA 1.5 NNE, NY","Latitude":"43.00507","Longitude":"-78.86600","Snowdepth":"1.000","Units":"in","Rept_Date":"2020-04-16 13"},"coordinates":[4311,3093]},{"type":"Point","properties":{"Station_ID":"NY-ER-59","Station_Nam":"KENMORE 0.3 ESE, NY","Latitude":"42.96316","Longitude":"-78.86690","Snowdepth":"1.000","Units":"in","Rept_Date":"2020-04-16 12"},"coordinates":[4311,3060]},{"type":"Point","properties":{"Station_ID":"NY-ER-53","Station_Nam":"WEST SENECA 1.9 W, NY","Latitude":"42.83604","Longitude":"-78.78970","Snowdepth":"1.000","Units":"in","Rept_Date":"2020-04-16 11"},"coordinates":[4329,2959]},{"type":"Point","properties":{"Station_ID":"NY-ER-178","Station_Nam":"WEST SENECA 2.5 SE, NY","Latitude":"42.81374","Longitude":"-78.71399","Snowdepth":"1.000","Units":"in","Rept_Date":"2020-04-16 09"},"coordinates":[4347,2942]},{"type":"Point","properties":{"Station_ID":"NY-ER-151","Station_Nam":"CLARENCE CENTER 0.2 ESE, NY","Latitude":"43.00742","Longitude":"-78.62917","Snowdepth":"1.000","Units":"in","Rept_Date":"2020-04-16 11"},"coordinates":[4367,3095]},{"type":"Point","properties":{"Station_ID":"NY-ER-122","Station_Nam":"CHEEKTOWAGA 2.4 NW, NY","Latitude":"42.93457","Longitude":"-78.78295","Snowdepth":"1.000","Units":"in","Rept_Date":"2020-04-16 11"},"coordinates":[4331,3037]},{"type":"Point","properties":{"Station_ID":"NY-DL-23","Station_Nam":"LONG EDDY 6.5 NNE, NY","Latitude":"41.93510","Longitude":"-75.07840","Snowdepth":"1.000","Units":"in","Rept_Date":"2020-04-16 12"},"coordinates":[5200,2246]},{"type":"Point","properties":{"Station_ID":"NY-CT-22","Station_Nam":"FRANKLINVILLE 0.5 NNE, NY","Latitude":"42.34166","Longitude":"-78.45280","Snowdepth":"1.000","Units":"in","Rept_Date":"2020-04-16 11"},"coordinates":[4408,2568]},{"type":"Point","properties":{"Station_ID":"NY-CR-1","Station_Nam":"FREETOWN 1.0 NE, NY","Latitude":"42.53299","Longitude":"-76.02111","Snowdepth":"1.000","Units":"in","Rept_Date":"2020-04-16 11"},"coordinates":[4979,2720]},{"type":"Point","properties":{"Station_ID":"NY-CM-6","Station_Nam":"ELMIRA 3.2 E, NY","Latitude":"42.08900","Longitude":"-76.74890","Snowdepth":"1.000","Units":"in","Rept_Date":"2020-04-16 13"},"coordinates":[4808,2368]},{"type":"Point","properties":{"Station_ID":"NY-BM-7","Station_Nam":"VESTAL 2.8 SSE, NY","Latitude":"42.04930","Longitude":"-76.02880","Snowdepth":"1.000","Units":"in","Rept_Date":"2020-04-16 13"},"coordinates":[4977,2337]},{"type":"Point","properties":{"Station_ID":"NY-BM-24","Station_Nam":"BINGHAMTON 1.3 ENE, NY","Latitude":"42.10981","Longitude":"-75.88580","Snowdepth":"1.000","Units":"in","Rept_Date":"2020-04-16 13"},"coordinates":[5011,2384]},{"type":"Point","properties":{"Station_ID":"NY-AB-54","Station_Nam":"ALTAMONT 2.9 SW, NY","Latitude":"42.68182","Longitude":"-74.08326","Snowdepth":"1.000","Units":"in","Rept_Date":"2020-04-16 11"},"coordinates":[5434,2837]},{"type":"Point","properties":{"Station_ID":"NY-AB-1","Station_Nam":"ALTAMONT 2.7 SSW, NY","Latitude":"42.66696","Longitude":"-74.05090","Snowdepth":"1.000","Units":"in","Rept_Date":"2020-04-16 11"},"coordinates":[5441,2826]},{"type":"Point","properties":{"Station_ID":"NUMN3","Station_Nam":"NORTHUMBERLAND","Latitude":"44.52830","Longitude":"-71.50440","Snowdepth":"1.000","Units":"in","Rept_Date":"2020-04-16 11"},"coordinates":[6039,4299]},{"type":"Point","properties":{"Station_ID":"NRWN6","Station_Nam":"NORWICH","Latitude":"42.51170","Longitude":"-75.51970","Snowdepth":"1.000","Units":"in","Rept_Date":"2020-04-16 11"},"coordinates":[5097,2703]},{"type":"Point","properties":{"Station_ID":"NH-HL-19","Station_Nam":"BROOKLINE 2.1 SW, NH","Latitude":"42.71235","Longitude":"-71.69760","Snowdepth":"1.000","Units":"in","Rept_Date":"2020-04-16 10"},"coordinates":[5994,2862]},{"type":"Point","properties":{"Station_ID":"NH-CS-7","Station_Nam":"LANCASTER 0.5 N, NH","Latitude":"44.49611","Longitude":"-71.57640","Snowdepth":"1.000","Units":"in","Rept_Date":"2020-04-16 11"},"coordinates":[6022,4274]},{"type":"Point","properties":{"Station_ID":"NH-CR-15","Station_Nam":"JACKSON 3.7 NW, NH","Latitude":"44.19069","Longitude":"-71.22598","Snowdepth":"1.000","Units":"in","Rept_Date":"2020-04-16 11"},"coordinates":[6104,4032]},{"type":"Point","properties":{"Station_ID":"MXON6","Station_Nam":"MEXICO","Latitude":"43.43830","Longitude":"-76.26560","Snowdepth":"1.000","Units":"in","Rept_Date":"2020-04-16 11"},"coordinates":[4922,3436]},{"type":"Point","properties":{"Station_ID":"MTAI4","Station_Nam":"MOUNT AYR,IA","Latitude":"40.68280","Longitude":"-94.29440","Snowdepth":"1.000","Units":"in","Rept_Date":"2020-04-16 12"},"coordinates":[690,1255]},{"type":"Point","properties":{"Station_ID":"MRFS2","Station_Nam":"MADISON,SD","Latitude":"44.00000","Longitude":"-97.23330","Snowdepth":"1.000","Units":"in","Rept_Date":"2020-04-16 14"},"coordinates":[0,3881]},{"type":"Point","properties":{"Station_ID":"MOUW3","Station_Nam":"MOUNTAIN 1 SW","Latitude":"45.17220","Longitude":"-88.49390","Snowdepth":"1.000","Units":"in","Rept_Date":"2020-04-16 15"},"coordinates":[2051,4809]},{"type":"Point","properties":{"Station_ID":"MONS2","Station_Nam":"MONTROSE","Latitude":"43.70500","Longitude":"-97.18780","Snowdepth":"1.000","Units":"in","Rept_Date":"2020-04-16 13"},"coordinates":[11,3647]},{"type":"Point","properties":{"Station_ID":"MNEY8CTB","Station_Nam":"MIDLAND JUNCTION 2.2 ENE","Latitude":"44.33041","Longitude":"-91.95891","Snowdepth":"1.000","Units":"in","Rept_Date":"2020-04-16 13"},"coordinates":[1238,4143]},{"type":"Point","properties":{"Station_ID":"MNDMBBNN","Station_Nam":"OWATONNA 3.5 W","Latitude":"44.08801","Longitude":"-93.29623","Snowdepth":"1.000","Units":"in","Rept_Date":"2020-04-16 12"},"coordinates":[924,3951]},{"type":"Point","properties":{"Station_ID":"MN-RM-15","Station_Nam":"ROSEVILLE 2.1 NW, MN","Latitude":"45.03502","Longitude":"-93.18620","Snowdepth":"1.000","Units":"in","Rept_Date":"2020-04-16 11"},"coordinates":[950,4701]},{"type":"Point","properties":{"Station_ID":"MN-RK-5","Station_Nam":"HILLS 0.2 NW, MN","Latitude":"43.52960","Longitude":"-96.36146","Snowdepth":"1.000","Units":"in","Rept_Date":"2020-04-16 13"},"coordinates":[205,3509]},{"type":"Point","properties":{"Station_ID":"MMRN6","Station_Nam":"MOUNT MORRIS 2 W","Latitude":"42.73130","Longitude":"-77.90540","Snowdepth":"1.000","Units":"in","Rept_Date":"2020-04-16 12"},"coordinates":[4537,2877]},{"type":"Point","properties":{"Station_ID":"MLIM4","Station_Nam":"MILAN WWTP","Latitude":"42.08140","Longitude":"-83.67750","Snowdepth":"1.000","Units":"in","Rept_Date":"2020-04-16 12"},"coordinates":[3182,2362]},{"type":"Point","properties":{"Station_ID":"MI-OT-4","Station_Nam":"GAYLORD 1.7 WNW, MI","Latitude":"45.03280","Longitude":"-84.71090","Snowdepth":"1.000","Units":"in","Rept_Date":"2020-04-16 12"},"coordinates":[2939,4699]},{"type":"Point","properties":{"Station_ID":"MI-KN-43","Station_Nam":"CALEDONIA 4.4 WNW, MI","Latitude":"42.82526","Longitude":"-85.58940","Snowdepth":"1.000","Units":"in","Rept_Date":"2020-04-16 10"},"coordinates":[2733,2951]},{"type":"Point","properties":{"Station_ID":"MFDW3","Station_Nam":"MARSHFIELD EXP FARM","Latitude":"44.64110","Longitude":"-90.13330","Snowdepth":"1.000","Units":"in","Rept_Date":"2020-04-16 12"},"coordinates":[1667,4389]},{"type":"Point","properties":{"Station_ID":"MD-GR-4","Station_Nam":"MC HENRY 4.8 SSE, MD","Latitude":"39.48539","Longitude":"-79.31830","Snowdepth":"1.000","Units":"in","Rept_Date":"2020-04-16 12"},"coordinates":[4205,306]},{"type":"Point","properties":{"Station_ID":"MD-GR-12","Station_Nam":"ACCIDENT 3.9 E, MD","Latitude":"39.62069","Longitude":"-79.24750","Snowdepth":"1.000","Units":"in","Rept_Date":"2020-04-16 11"},"coordinates":[4222,414]},{"type":"Point","properties":{"Station_ID":"MALN6","Station_Nam":"MALONE","Latitude":"44.84180","Longitude":"-74.30600","Snowdepth":"1.000","Units":"in","Rept_Date":"2020-04-16 11"},"coordinates":[5382,4548]},{"type":"Point","properties":{"Station_ID":"MA-WR-58","Station_Nam":"LUNENBURG 0.6 NE, MA","Latitude":"42.60180","Longitude":"-71.71653","Snowdepth":"1.000","Units":"in","Rept_Date":"2020-04-16 12"},"coordinates":[5989,2774]},{"type":"Point","properties":{"Station_ID":"MA-BE-21","Station_Nam":"CHESHIRE 0.5 NNW, MA","Latitude":"42.56315","Longitude":"-73.15701","Snowdepth":"1.000","Units":"in","Rept_Date":"2020-04-16 11"},"coordinates":[5651,2743]},{"type":"Point","properties":{"Station_ID":"MA-BE-11","Station_Nam":"GREAT BARRINGTON 3.0 N, MA","Latitude":"42.23790","Longitude":"-73.35030","Snowdepth":"1.000","Units":"in","Rept_Date":"2020-04-16 11"},"coordinates":[5606,2486]},{"type":"Point","properties":{"Station_ID":"LPLN6","Station_Nam":"LAKE PLACID 2 S","Latitude":"44.30420","Longitude":"-73.98390","Snowdepth":"1.000","Units":"in","Rept_Date":"2020-04-16 12"},"coordinates":[5457,4122]},{"type":"Point","properties":{"Station_ID":"LMLI4","Station_Nam":"LAKE MILLS,IA","Latitude":"43.40000","Longitude":"-93.53330","Snowdepth":"1.000","Units":"in","Rept_Date":"2020-04-16 12"},"coordinates":[868,3406]},{"type":"Point","properties":{"Station_ID":"LKFM5","Station_Nam":"LAKEFIELD,MN","Latitude":"43.68330","Longitude":"-95.18330","Snowdepth":"1.000","Units":"in","Rept_Date":"2020-04-16 12"},"coordinates":[481,3630]},{"type":"Point","properties":{"Station_ID":"LERN6","Station_Nam":"LE ROY 1E","Latitude":"42.97360","Longitude":"-77.96710","Snowdepth":"1.000","Units":"in","Rept_Date":"2020-04-16 12"},"coordinates":[4522,3068]},{"type":"Point","properties":{"Station_ID":"KYNG","Station_Nam":"YOUNGSTOWN-WARREN REG AIRPRT","Latitude":"41.25000","Longitude":"-80.66666","Snowdepth":"1.000","Units":"in","Rept_Date":"2020-04-16 12"},"coordinates":[3889,1704]},{"type":"Point","properties":{"Station_ID":"KDSM","Station_Nam":"DES MOINES INTERNATIONAL","Latitude":"41.53333","Longitude":"-93.66666","Snowdepth":"1.000","Units":"in","Rept_Date":"2020-04-17 00"},"coordinates":[837,1928]},{"type":"Point","properties":{"Station_ID":"KCLE","Station_Nam":"CLEVELAND-HOPKINS INTERNATIONAL","Latitude":"41.40000","Longitude":"-81.85000","Snowdepth":"1.000","Units":"in","Rept_Date":"2020-04-16 12"},"coordinates":[3611,1822]},{"type":"Point","properties":{"Station_ID":"KBUF","Station_Nam":"GREATER BUFFALO INTERNATIONAL  AIRPORT","Latitude":"42.93333","Longitude":"-78.73333","Snowdepth":"1.000","Units":"in","Rept_Date":"2020-04-16 12"},"coordinates":[4342,3036]},{"type":"Point","properties":{"Station_ID":"KANP1","Station_Nam":"KANE,PA","Latitude":"41.68330","Longitude":"-78.80000","Snowdepth":"1.000","Units":"in","Rept_Date":"2020-04-16 11"},"coordinates":[4327,2047]},{"type":"Point","properties":{"Station_ID":"JWTN6","Station_Nam":"EAST JEWETT","Latitude":"42.23430","Longitude":"-74.14430","Snowdepth":"1.000","Units":"in","Rept_Date":"2020-04-16 11"},"coordinates":[5420,2483]},{"type":"Point","properties":{"Station_ID":"JSTN6","Station_Nam":"JAMESTOWN 4 ENE","Latitude":"42.11000","Longitude":"-79.15910","Snowdepth":"1.000","Units":"in","Rept_Date":"2020-04-16 10"},"coordinates":[4242,2385]},{"type":"Point","properties":{"Station_ID":"JIMW3","Station_Nam":"JIM FALLS 3NW","Latitude":"45.08270","Longitude":"-91.33130","Snowdepth":"1.000","Units":"in","Rept_Date":"2020-04-16 11"},"coordinates":[1385,4738]},{"type":"Point","properties":{"Station_ID":"JAPN3","Station_Nam":"JAFFREY SILVER RANCH AIRPARK","Latitude":"42.80880","Longitude":"-72.00530","Snowdepth":"1.000","Units":"in","Rept_Date":"2020-04-16 11"},"coordinates":[5922,2938]},{"type":"Point","properties":{"Station_ID":"IN-PT-157","Station_Nam":"PORTAGE 2.4 NNW, IN","Latitude":"41.61942","Longitude":"-87.19629","Snowdepth":"1.000","Units":"in","Rept_Date":"2020-04-16 11"},"coordinates":[2356,1996]},{"type":"Point","properties":{"Station_ID":"IN-LK-63","Station_Nam":"GARY 4.8 ENE, IN","Latitude":"41.61695","Longitude":"-87.25460","Snowdepth":"1.000","Units":"in","Rept_Date":"2020-04-16 12"},"coordinates":[2342,1994]},{"type":"Point","properties":{"Station_ID":"HVJP1","Station_Nam":"HIDDEN VALLEY COOP","Latitude":"40.04200","Longitude":"-79.25660","Snowdepth":"1.000","Units":"in","Rept_Date":"2020-04-16 12"},"coordinates":[4220,747]},{"type":"Point","properties":{"Station_ID":"HUDN3","Station_Nam":"HUDSON 1 SSE","Latitude":"42.78300","Longitude":"-71.41480","Snowdepth":"1.000","Units":"in","Rept_Date":"2020-04-16 11"},"coordinates":[6060,2917]},{"type":"Point","properties":{"Station_ID":"HUDI3","Station_Nam":"HUDSON 3SW","Latitude":"41.51150","Longitude":"-85.13190","Snowdepth":"1.000","Units":"in","Rept_Date":"2020-04-16 13"},"coordinates":[2840,1911]},{"type":"Point","properties":{"Station_ID":"HMPN3","Station_Nam":"WEST HAMPSTEAD","Latitude":"42.91080","Longitude":"-71.20200","Snowdepth":"1.000","Units":"in","Rept_Date":"2020-04-16 10"},"coordinates":[6110,3019]},{"type":"Point","properties":{"Station_ID":"HGHN6","Station_Nam":"HIGHMARKET","Latitude":"43.57520","Longitude":"-75.52070","Snowdepth":"1.000","Units":"in","Rept_Date":"2020-04-16 10"},"coordinates":[5096,3545]},{"type":"Point","properties":{"Station_ID":"GRMP1","Station_Nam":"GRAMPIAN, PA","Latitude":"40.96660","Longitude":"-78.58710","Snowdepth":"1.000","Units":"in","Rept_Date":"2020-04-16 10"},"coordinates":[4377,1479]},{"type":"Point","properties":{"Station_ID":"GREN3","Station_Nam":"GREENVILLE 1 NNE","Latitude":"42.78270","Longitude":"-71.79850","Snowdepth":"1.000","Units":"in","Rept_Date":"2020-04-16 11"},"coordinates":[5970,2917]},{"type":"Point","properties":{"Station_ID":"GLTP1","Station_Nam":"GALETON,PA","Latitude":"41.73330","Longitude":"-77.63330","Snowdepth":"1.000","Units":"in","Rept_Date":"2020-04-16 12"},"coordinates":[4601,2086]},{"type":"Point","properties":{"Station_ID":"GAYM4","Station_Nam":"GAYLORD","Latitude":"45.03320","Longitude":"-84.71130","Snowdepth":"1.000","Units":"in","Rept_Date":"2020-04-16 12"},"coordinates":[2939,4699]},{"type":"Point","properties":{"Station_ID":"FRSM2","Station_Nam":"FROSTBURG 2 COOP","Latitude":"39.66000","Longitude":"-78.93580","Snowdepth":"1.000","Units":"in","Rept_Date":"2020-04-16 11"},"coordinates":[4295,445]},{"type":"Point","properties":{"Station_ID":"FORM5","Station_Nam":"FOREST LAKE 5NE","Latitude":"45.33170","Longitude":"-92.89820","Snowdepth":"1.000","Units":"in","Rept_Date":"2020-04-16 12"},"coordinates":[1018,4935]},{"type":"Point","properties":{"Station_ID":"FLAM4","Station_Nam":"FIFE LAKE 2WNW","Latitude":"44.58480","Longitude":"-85.36530","Snowdepth":"1.000","Units":"in","Rept_Date":"2020-04-16 11"},"coordinates":[2786,4344]},{"type":"Point","properties":{"Station_ID":"EVYI4","Station_Nam":"EVERLY,IA","Latitude":"43.18330","Longitude":"-95.36670","Snowdepth":"1.000","Units":"in","Rept_Date":"2020-04-16 12"},"coordinates":[438,3234]},{"type":"Point","properties":{"Station_ID":"EHYM3","Station_Nam":"EAST HAWLEY","Latitude":"42.57410","Longitude":"-72.86790","Snowdepth":"1.000","Units":"in","Rept_Date":"2020-04-16 12"},"coordinates":[5719,2752]},{"type":"Point","properties":{"Station_ID":"DSM","Station_Nam":"DES MOINES INTERNATIONAL","Latitude":"41.53390","Longitude":"-93.66250","Snowdepth":"1.000","Units":"in","Rept_Date":"2020-04-17 00"},"coordinates":[838,1928]},{"type":"Point","properties":{"Station_ID":"DMX","Station_Nam":"DES MOINES, IA","Latitude":"41.73610","Longitude":"-93.72330","Snowdepth":"1.000","Units":"in","Rept_Date":"2020-04-17 05"},"coordinates":[824,2089]},{"type":"Point","properties":{"Station_ID":"DLSN6","Station_Nam":"DELANSON 2NE","Latitude":"42.76720","Longitude":"-74.17110","Snowdepth":"1.000","Units":"in","Rept_Date":"2020-04-16 11"},"coordinates":[5413,2905]},{"type":"Point","properties":{"Station_ID":"CVWP1","Station_Nam":"CHANDLER VALLEY 1SE","Latitude":"41.93010","Longitude":"-79.29700","Snowdepth":"1.000","Units":"in","Rept_Date":"2020-04-16 11"},"coordinates":[4210,2242]},{"type":"Point","properties":{"Station_ID":"CT-LT-7","Station_Nam":"LITCHFIELD 2.3 NNE, CT","Latitude":"41.77445","Longitude":"-73.16900","Snowdepth":"1.000","Units":"in","Rept_Date":"2020-04-16 11"},