{"type":"Topology","objects":{"snowdepth_geo":{"type":"GeometryCollection","name":"snowdepth","crs":{"type":"name","properties":{"name":"urn:ogc:def:crs:OGC:1.3:CRS84"}},"geometries":[{"type":"Point","properties":{"Station_ID":"PRKM4","Station_Nam":"MUNISING EAST","Latitude":"46.42580","Longitude":"-86.62000","Snowdepth":"76.500","Units":"in","Rept_Date":"2021-01-07 06"},"coordinates":[2553,6710]},{"type":"Point","properties":{"Station_ID":"TRIQ6","Station_Nam":"TRIO LAKE","Latitude":"49.22880","Longitude":"-87.22920","Snowdepth":"20.790","Units":"in","Rept_Date":"2021-01-07 06"},"coordinates":[2407,8449]},{"type":"Point","properties":{"Station_ID":"QLB","Station_Nam":"QLB","Latitude":"50.72360","Longitude":"-75.10000","Snowdepth":"20.630","Units":"in","Rept_Date":"2021-01-06 12"},"coordinates":[5323,9377]},{"type":"Point","properties":{"Station_ID":"QGO","Station_Nam":"QGO","Latitude":"48.85500","Longitude":"-74.20640","Snowdepth":"20.354","Units":"in","Rept_Date":"2021-01-06 12"},"coordinates":[5538,8217]},{"type":"Point","properties":{"Station_ID":"PTLQ6","Station_Nam":"PORTAGE LAKE","Latitude":"49.06950","Longitude":"-86.65940","Snowdepth":"19.800","Units":"in","Rept_Date":"2021-01-07 06"},"coordinates":[2544,8350]},{"type":"Point","properties":{"Station_ID":"AUDQ6","Station_Nam":"AUDEN","Latitude":"48.52600","Longitude":"-82.57570","Snowdepth":"19.490","Units":"in","Rept_Date":"2021-01-07 06"},"coordinates":[3526,8013]},{"type":"Point","properties":{"Station_ID":"PDLM4","Station_Nam":"PAINESDALE","Latitude":"47.04160","Longitude":"-88.67170","Snowdepth":"19.000","Units":"in","Rept_Date":"2021-01-06 13"},"coordinates":[2060,7092]},{"type":"Point","properties":{"Station_ID":"HTLN3","Station_Nam":"HERMIT LAKE SNOWPLOT","Latitude":"44.26130","Longitude":"-71.28330","Snowdepth":"19.000","Units":"in","Rept_Date":"2021-01-06 10"},"coordinates":[6241,5367]},{"type":"Point","properties":{"Station_ID":"QCO","Station_Nam":"QCO","Latitude":"51.45280","Longitude":"-72.20110","Snowdepth":"18.937","Units":"in","Rept_Date":"2021-01-06 12"},"coordinates":[6020,9829]},{"type":"Point","properties":{"Station_ID":"QCU","Station_Nam":"QCU","Latitude":"47.82750","Longitude":"-76.59830","Snowdepth":"18.346","Units":"in","Rept_Date":"2021-01-06 12"},"coordinates":[4963,7580]},{"type":"Point","properties":{"Station_ID":"DVLQ6","Station_Nam":"DEVIOUS LAKE","Latitude":"49.19890","Longitude":"-87.76440","Snowdepth":"18.230","Units":"in","Rept_Date":"2021-01-07 06"},"coordinates":[2278,8431]},{"type":"Point","properties":{"Station_ID":"QTM","Station_Nam":"QTM","Latitude":"51.05780","Longitude":"-72.57190","Snowdepth":"17.283","Units":"in","Rept_Date":"2021-01-06 12"},"coordinates":[5931,9584]},{"type":"Point","properties":{"Station_ID":"CAN-ON-245","Station_Nam":"PHELPSTON 3.1 ESE, CAN","Latitude":"44.50564","Longitude":"-79.81035","Snowdepth":"17.000","Units":"in","Rept_Date":"2021-01-06 13"},"coordinates":[4191,5519]},{"type":"Point","properties":{"Station_ID":"QOU","Station_Nam":"QOU","Latitude":"50.79250","Longitude":"-69.67470","Snowdepth":"16.063","Units":"in","Rept_Date":"2021-01-06 12"},"coordinates":[6628,9419]},{"type":"Point","properties":{"Station_ID":"MMNV1","Station_Nam":"MT. MANSFIELD","Latitude":"44.52480","Longitude":"-72.81540","Snowdepth":"16.000","Units":"in","Rept_Date":"2021-01-06 21"},"coordinates":[5872,5531]},{"type":"Point","properties":{"Station_ID":"IWOM4","Station_Nam":"IRONWOOD#2","Latitude":"46.46520","Longitude":"-90.13820","Snowdepth":"16.000","Units":"in","Rept_Date":"2021-01-06 13"},"coordinates":[1707,6734]},{"type":"Point","properties":{"Station_ID":"HURW3","Station_Nam":"HURLEY","Latitude":"46.46250","Longitude":"-90.19550","Snowdepth":"16.000","Units":"in","Rept_Date":"2021-01-06 14"},"coordinates":[1693,6733]},{"type":"Point","properties":{"Station_ID":"CLQM5","Station_Nam":"CLOQUET","Latitude":"46.70470","Longitude":"-92.52530","Snowdepth":"15.000","Units":"in","Rept_Date":"2021-01-06 14"},"coordinates":[1133,6883]},{"type":"Point","properties":{"Station_ID":"WLFM5","Station_Nam":"WOLF RIDGE ENVIRON LEARNING CENTER","Latitude":"47.38240","Longitude":"-91.19730","Snowdepth":"14.000","Units":"in","Rept_Date":"2021-01-06 13"},"coordinates":[1453,7304]},{"type":"Point","properties":{"Station_ID":"MI-KW-2","Station_Nam":"DELAWARE 5.2 SW, MI","Latitude":"47.36928","Longitude":"-88.17919","Snowdepth":"14.000","Units":"in","Rept_Date":"2021-01-06 09"},"coordinates":[2178,7295]},{"type":"Point","properties":{"Station_ID":"HERM4","Station_Nam":"HERMAN,MI","Latitude":"46.65000","Longitude":"-88.33330","Snowdepth":"14.000","Units":"in","Rept_Date":"2021-01-06 13"},"coordinates":[2141,6849]},{"type":"Point","properties":{"Station_ID":"OGIQ6","Station_Nam":"OGOKI CAMP","Latitude":"50.76680","Longitude":"-87.85820","Snowdepth":"13.500","Units":"in","Rept_Date":"2021-01-07 06"},"coordinates":[2255,9403]},{"type":"Point","properties":{"Station_ID":"CAN-NS-39","Station_Nam":"ST. ANNS 2.8 NW, CA","Latitude":"46.25082","Longitude":"-60.64340","Snowdepth":"13.000","Units":"in","Rept_Date":"2021-01-06 12"},"coordinates":[8799,6601]},{"type":"Point","properties":{"Station_ID":"HLSN3","Station_Nam":"HERMIT LAKE SNOTEL","Latitude":"44.26130","Longitude":"-71.28320","Snowdepth":"12.870","Units":"in","Rept_Date":"2021-01-07 06"},"coordinates":[6241,5367]},{"type":"Point","properties":{"Station_ID":"QNCM4","Station_Nam":"QUINCY HILL","Latitude":"47.13640","Longitude":"-88.57950","Snowdepth":"12.000","Units":"in","Rept_Date":"2021-01-06 12"},"coordinates":[2082,7151]},{"type":"Point","properties":{"Station_ID":"MN-IS-18","Station_Nam":"BRAHAM 0.7 SW, MN","Latitude":"45.71379","Longitude":"-93.18095","Snowdepth":"12.000","Units":"in","Rept_Date":"2021-01-06 14"},"coordinates":[976,6268]},{"type":"Point","properties":{"Station_ID":"MI-OG-6","Station_Nam":"WEST BRANCH 2.1 SSW, MI","Latitude":"44.24814","Longitude":"-84.25089","Snowdepth":"12.000","Units":"in","Rept_Date":"2021-01-06 13"},"coordinates":[3123,5359]},{"type":"Point","properties":{"Station_ID":"KSGM4","Station_Nam":"KEARSARGE","Latitude":"47.27520","Longitude":"-88.41700","Snowdepth":"12.000","Units":"in","Rept_Date":"2021-01-06 13"},"coordinates":[2121,7237]},{"type":"Point","properties":{"Station_ID":"KABM5","Station_Nam":"KABETOGAMA LAKE VISITOR CTR","Latitude":"48.40880","Longitude":"-93.04840","Snowdepth":"12.000","Units":"in","Rept_Date":"2021-01-06 13"},"coordinates":[1008,7940]},{"type":"Point","properties":{"Station_ID":"KABQ6","Station_Nam":"CAB LAKE","Latitude":"49.59950","Longitude":"-89.17990","Snowdepth":"11.970","Units":"in","Rept_Date":"2021-01-07 06"},"coordinates":[1938,8679]},{"type":"Point","properties":{"Station_ID":"QMD","Station_Nam":"QMD","Latitude":"49.29060","Longitude":"-75.84500","Snowdepth":"11.693","Units":"in","Rept_Date":"2021-01-06 12"},"coordinates":[5144,8487]},{"type":"Point","properties":{"Station_ID":"QLI","Station_Nam":"QLI","Latitude":"50.27080","Longitude":"-73.92280","Snowdepth":"11.653","Units":"in","Rept_Date":"2021-01-06 12"},"coordinates":[5606,9096]},{"type":"Point","properties":{"Station_ID":"SOCQ6","Station_Nam":"SOCKET LAKE","Latitude":"50.77870","Longitude":"-91.79300","Snowdepth":"11.570","Units":"in","Rept_Date":"2021-01-07 06"},"coordinates":[1309,9411]},{"type":"Point","properties":{"Station_ID":"MI-HG-20","Station_Nam":"CALUMET 1.1 SSW, MI","Latitude":"47.23165","Longitude":"-88.45823","Snowdepth":"11.500","Units":"in","Rept_Date":"2021-01-06 11"},"coordinates":[2111,7210]},{"type":"Point","properties":{"Station_ID":"MI-BG-3","Station_Nam":"THREE LAKES, MI","Latitude":"46.55730","Longitude":"-88.20770","Snowdepth":"11.500","Units":"in","Rept_Date":"2021-01-06 13"},"coordinates":[2171,6792]},{"type":"Point","properties":{"Station_ID":"SVBQ6","Station_Nam":"SAVANT BASE","Latitude":"50.28730","Longitude":"-90.65670","Snowdepth":"11.340","Units":"in","Rept_Date":"2021-01-07 06"},"coordinates":[1583,9106]},{"type":"Point","properties":{"Station_ID":"QFT","Station_Nam":"QFT","Latitude":"50.83280","Longitude":"-74.40390","Snowdepth":"11.102","Units":"in","Rept_Date":"2021-01-06 12"},"coordinates":[5491,9444]},{"type":"Point","properties":{"Station_ID":"WRSM5","Station_Nam":"WRENSHALL","Latitude":"46.61550","Longitude":"-92.38380","Snowdepth":"11.000","Units":"in","Rept_Date":"2021-01-06 14"},"coordinates":[1167,6828]},{"type":"Point","properties":{"Station_ID":"WI-DG-20","Station_Nam":"SOLON SPRINGS 1.2 W, WI","Latitude":"46.35217","Longitude":"-91.84405","Snowdepth":"11.000","Units":"in","Rept_Date":"2021-01-06 13"},"coordinates":[1297,6664]},{"type":"Point","properties":{"Station_ID":"MN-SL-15","Station_Nam":"CHISHOLM 0.4 WSW, MN","Latitude":"47.48557","Longitude":"-92.88690","Snowdepth":"11.000","Units":"in","Rept_Date":"2021-01-06 13"},"coordinates":[1046,7368]},{"type":"Point","properties":{"Station_ID":"LNCM1","Station_Nam":"LINCOLN WATER DISTRICT","Latitude":"45.32410","Longitude":"-68.58300","Snowdepth":"11.000","Units":"in","Rept_Date":"2021-01-06 13"},"coordinates":[6890,6026]},{"type":"Point","properties":{"Station_ID":"HGHN6","Station_Nam":"HIGHMARKET","Latitude":"43.60510","Longitude":"-75.55430","Snowdepth":"11.000","Units":"in","Rept_Date":"2021-01-06 11"},"coordinates":[5214,4960]},{"type":"Point","properties":{"Station_ID":"DFXM1","Station_Nam":"DOVER-FOXCROFT","Latitude":"45.18720","Longitude":"-69.18350","Snowdepth":"11.000","Units":"in","Rept_Date":"2021-01-06 12"},"coordinates":[6746,5942]},{"type":"Point","properties":{"Station_ID":"COTM5","Station_Nam":"COTTON","Latitude":"47.16870","Longitude":"-92.46290","Snowdepth":"11.000","Units":"in","Rept_Date":"2021-01-06 12"},"coordinates":[1148,7171]},{"type":"Point","properties":{"Station_ID":"BNDM5","Station_Nam":"ELY 25E","Latitude":"47.97190","Longitude":"-91.44860","Snowdepth":"11.000","Units":"in","Rept_Date":"2021-01-06 13"},"coordinates":[1392,7669]},{"type":"Point","properties":{"Station_ID":"MLZ","Station_Nam":"MLZ","Latitude":"50.66170","Longitude":"-68.82360","Snowdepth":"10.945","Units":"in","Rept_Date":"2021-01-06 12"},"coordinates":[6832,9338]},{"type":"Point","properties":{"Station_ID":"CAN-ON-5","Station_Nam":"OWEN SOUND 1.5 NW - GSCA, CAN","Latitude":"44.57837","Longitude":"-80.95461","Snowdepth":"10.500","Units":"in","Rept_Date":"2021-01-06 13"},"coordinates":[3915,5564]},{"type":"Point","properties":{"Station_ID":"CAN-NS-103","Station_Nam":"TRAFALGAR 4.9 WSW, CAN","Latitude":"45.26217","Longitude":"-62.72285","Snowdepth":"10.500","Units":"in","Rept_Date":"2021-01-06 11"},"coordinates":[8299,5988]},{"type":"Point","properties":{"Station_ID":"CAN-ON-451","Station_Nam":"OWEN SOUND 1.2 N - GSCA, CAN","Latitude":"44.58092","Longitude":"-80.93025","Snowdepth":"10.200","Units":"in","Rept_Date":"2021-01-06 13"},"coordinates":[3921,5565]},{"type":"Point","properties":{"Station_ID":"QWE","Station_Nam":"QWE","Latitude":"47.84610","Longitude":"-73.80670","Snowdepth":"10.157","Units":"in","Rept_Date":"2021-01-06 12"},"coordinates":[5634,7591]},{"type":"Point","properties":{"Station_ID":"WI-WB-2","Station_Nam":"STONE LAKE 2.0 NW, WI","Latitude":"45.85960","Longitude":"-91.57710","Snowdepth":"10.000","Units":"in","Rept_Date":"2021-01-06 13"},"coordinates":[1361,6359]},{"type":"Point","properties":{"Station_ID":"WI-IR-3","Station_Nam":"PENCE 0.1 E, WI","Latitude":"46.41555","Longitude":"-90.27013","Snowdepth":"10.000","Units":"in","Rept_Date":"2021-01-06 13"},"coordinates":[1676,6704]},{"type":"Point","properties":{"Station_ID":"TTCM5","Station_Nam":"TETTEGOUCHE CAMP","Latitude":"47.34710","Longitude":"-91.26090","Snowdepth":"10.000","Units":"in","Rept_Date":"2021-01-06 14"},"coordinates":[1437,7282]},{"type":"Point","properties":{"Station_ID":"STOI2","Station_Nam":"STOCKTON 3 NNE","Latitude":"42.40050","Longitude":"-89.99580","Snowdepth":"10.000","Units":"in","Rept_Date":"2021-01-07 03"},"coordinates":[1742,4213]},{"type":"Point","properties":{"Station_ID":"MWN","Station_Nam":"MOUNT WASHINGTON","Latitude":"44.26670","Longitude":"-71.30000","Snowdepth":"10.000","Units":"in","Rept_Date":"2021-01-06 12"},"coordinates":[6237,5370]},{"type":"Point","properties":{"Station_ID":"MN-SL-108","Station_Nam":"IRON JUNCTION 3.4 NNW, MN","Latitude":"47.46150","Longitude":"-92.63130","Snowdepth":"10.000","Units":"in","Rept_Date":"2021-01-06 12"},"coordinates":[1108,7353]},{"type":"Point","properties":{"Station_ID":"MN-CK-18","Station_Nam":"GRAND MARAIS 4.4 WSW, MN","Latitude":"47.74462","Longitude":"-90.43796","Snowdepth":"10.000","Units":"in","Rept_Date":"2021-01-06 13"},"coordinates":[1635,7528]},{"type":"Point","properties":{"Station_ID":"LEIM5","Station_Nam":"ORR 3E","Latitude":"48.05810","Longitude":"-92.75220","Snowdepth":"10.000","Units":"in","Rept_Date":"2021-01-06 12"},"coordinates":[1079,7723]},{"type":"Point","properties":{"Station_ID":"KMWN","Station_Nam":"MOUNT WASHINGTON","Latitude":"44.26666","Longitude":"-71.30000","Snowdepth":"10.000","Units":"in","Rept_Date":"2021-01-07 06"},"coordinates":[6237,5370]},{"type":"Point","properties":{"Station_ID":"KINM1","Station_Nam":"KINGFIELD","Latitude":"44.95950","Longitude":"-70.17530","Snowdepth":"10.000","Units":"in","Rept_Date":"2021-01-06 12"},"coordinates":[6507,5800]},{"type":"Point","properties":{"Station_ID":"IL-SP-27","Station_Nam":"DAVIS 2.7 N, IL","Latitude":"42.46110","Longitude":"-89.40890","Snowdepth":"10.000","Units":"in","Rept_Date":"2021-01-06 13"},"coordinates":[1883,4250]},{"type":"Point","properties":{"Station_ID":"IL-JD-8","Station_Nam":"STOCKTON 3.4 NNE, IL","Latitude":"42.39960","Longitude":"-89.99020","Snowdepth":"10.000","Units":"in","Rept_Date":"2021-01-06 13"},"coordinates":[1743,4212]},{"type":"Point","properties":{"Station_ID":"GNFM5","Station_Nam":"GUNFLINT LAKE","Latitude":"48.16670","Longitude":"-90.88750","Snowdepth":"10.000","Units":"in","Rept_Date":"2021-01-06 13"},"coordinates":[1527,7790]},{"type":"Point","properties":{"Station_ID":"COKM5","Station_Nam":"COOK","Latitude":"47.85060","Longitude":"-92.69250","Snowdepth":"10.000","Units":"in","Rept_Date":"2021-01-06 11"},"coordinates":[1093,7594]},{"type":"Point","properties":{"Station_ID":"CAN-NB-18","Station_Nam":"MCLEOD HILL 1.1 ENE, CA","Latitude":"46.02725","Longitude":"-66.67460","Snowdepth":"10.000","Units":"in","Rept_Date":"2021-01-06 12"},"coordinates":[7349,6463]},{"type":"Point","properties":{"Station_ID":"CAN-MB-56","Station_Nam":"WINNIPEG 7.6 ENE, CAN","Latitude":"49.93264","Longitude":"-97.04752","Snowdepth":"10.000","Units":"in","Rept_Date":"2021-01-06 14"},"coordinates":[46,8886]},{"type":"Point","properties":{"Station_ID":"BRMM5","Station_Nam":"BRIMSON 2S","Latitude":"47.24720","Longitude":"-91.86240","Snowdepth":"10.000","Units":"in","Rept_Date":"2021-01-07 01"},"coordinates":[1293,7220]},{"type":"Point","properties":{"Station_ID":"BABM5","Station_Nam":"BABBITT","Latitude":"47.71210","Longitude":"-91.95330","Snowdepth":"10.000","Units":"in","Rept_Date":"2021-01-06 13"},"coordinates":[1271,7508]},{"type":"Point","properties":{"Station_ID":"WI-BY-29","Station_Nam":"BAYFIELD 5.1 NNW, WI","Latitude":"46.88063","Longitude":"-90.85854","Snowdepth":"9.500","Units":"in","Rept_Date":"2021-01-06 13"},"coordinates":[1534,6992]},{"type":"Point","properties":{"Station_ID":"MN-CN-36","Station_Nam":"CLOQUET 3.4 ENE, MN","Latitude":"46.74146","Longitude":"-92.42698","Snowdepth":"9.500","Units":"in","Rept_Date":"2021-01-06 13"},"coordinates":[1157,6906]},{"type":"Point","properties":{"Station_ID":"CATQ6","Station_Nam":"CAT LAKE","Latitude":"51.72690","Longitude":"-91.82210","Snowdepth":"9.250","Units":"in","Rept_Date":"2021-01-07 06"},"coordinates":[1302,9999]},{"type":"Point","properties":{"Station_ID":"WI-WK-42","Station_Nam":"OCONOMOWOC 1.2 W, WI","Latitude":"43.10560","Longitude":"-88.52044","Snowdepth":"9.000","Units":"in","Rept_Date":"2021-01-06 13"},"coordinates":[2096,4650]},{"type":"Point","properties":{"Station_ID":"WI-RK-12","Station_Nam":"JANESVILLE 3.1 W, WI","Latitude":"42.67576","Longitude":"-89.07614","Snowdepth":"9.000","Units":"in","Rept_Date":"2021-01-06 13"},"coordinates":[1963,4383]},{"type":"Point","properties":{"Station_ID":"VT-WS-23","Station_Nam":"CABOT 2.3 E, VT","Latitude":"44.39807","Longitude":"-72.26570","Snowdepth":"9.000","Units":"in","Rept_Date":"2021-01-06 14"},"coordinates":[6005,5452]},{"type":"Point","properties":{"Station_ID":"VT-CL-14","Station_Nam":"LYNDONVILLE 1.1 W, VT","Latitude":"44.53582","Longitude":"-72.02867","Snowdepth":"9.000","Units":"in","Rept_Date":"2021-01-06 12"},"coordinates":[6062,5537]},{"type":"Point","properties":{"Station_ID":"TOPM1","Station_Nam":"TOPSFIELD","Latitude":"45.43470","Longitude":"-67.72020","Snowdepth":"9.000","Units":"in","Rept_Date":"2021-01-06 12"},"coordinates":[7098,6095]},{"type":"Point","properties":{"Station_ID":"STOW3","Station_Nam":"STOUGHTON,WI","Latitude":"42.91670","Longitude":"-89.21670","Snowdepth":"9.000","Units":"in","Rept_Date":"2021-01-06 13"},"coordinates":[1929,4533]},{"type":"Point","properties":{"Station_ID":"NH-MR-60","Station_Nam":"SOUTH SUTTON 1.3 SE, NH","Latitude":"43.29531","Longitude":"-71.90238","Snowdepth":"9.000","Units":"in","Rept_Date":"2021-01-06 13"},"coordinates":[6092,4768]},{"type":"Point","properties":{"Station_ID":"NGLW3","Station_Nam":"NEW GLARUS","Latitude":"42.83500","Longitude":"-89.62080","Snowdepth":"9.000","Units":"in","Rept_Date":"2021-01-06 13"},"coordinates":[1832,4482]},{"type":"Point","properties":{"Station_ID":"MN-SL-115","Station_Nam":"COTTON 5.7 ESE, MN","Latitude":"47.15142","Longitude":"-92.35772","Snowdepth":"9.000","Units":"in","Rept_Date":"2021-01-06 14"},"coordinates":[1174,7160]},{"type":"Point","properties":{"Station_ID":"MN-CK-6","Station_Nam":"GRAND MARAIS 4.4 W, MN","Latitude":"47.74865","Longitude":"-90.43760","Snowdepth":"9.000","Units":"in","Rept_Date":"2021-01-06 12"},"coordinates":[1635,7531]},{"type":"Point","properties":{"Station_ID":"MIEM4","Station_Nam":"MICHIGAMME 3WNW","Latitude":"46.54530","Longitude":"-88.18000","Snowdepth":"9.000","Units":"in","Rept_Date":"2021-01-06 13"},"coordinates":[2178,6784]},{"type":"Point","properties":{"Station_ID":"MI-HG-1","Station_Nam":"HOUGHTON 1.6 ESE, MI","Latitude":"47.10774","Longitude":"-88.52940","Snowdepth":"9.000","Units":"in","Rept_Date":"2021-01-06 13"},"coordinates":[2094,7133]},{"type":"Point","properties":{"Station_ID":"LUCW3","Station_Nam":"LUCK","Latitude":"45.57330","Longitude":"-92.48520","Snowdepth":"9.000","Units":"in","Rept_Date":"2021-01-06 21"},"coordinates":[1143,6181]},{"type":"Point","properties":{"Station_ID":"IRMM4","Station_Nam":"WWTP","Latitude":"46.46670","Longitude":"-90.18330","Snowdepth":"9.000","Units":"in","Rept_Date":"2021-01-06 13"},"coordinates":[1696,6735]},{"type":"Point","properties":{"Station_ID":"INL","Station_Nam":"FALLS INTERNATIONAL ARPT","Latitude":"48.56640","Longitude":"-93.40310","Snowdepth":"9.000","Units":"in","Rept_Date":"2021-01-07 00"},"coordinates":[922,8038]},{"type":"Point","properties":{"Station_ID":"IFSM5","Station_Nam":"INTERNATIONAL FALLS SNOW","Latitude":"48.57780","Longitude":"-93.39640","Snowdepth":"9.000","Units":"in","Rept_Date":"2021-01-06 12"},"coordinates":[924,8045]},{"type":"Point","properties":{"Station_ID":"IA-JH-20","Station_Nam":"CORALVILLE 1.4 S, IA","Latitude":"41.67016","Longitude":"-91.60296","Snowdepth":"9.000","Units":"in","Rept_Date":"2021-01-06 14"},"coordinates":[1355,3759]},{"type":"Point","properties":{"Station_ID":"HUBN3","Station_Nam":"HUBBARD BROOK","Latitude":"43.93330","Longitude":"-71.71670","Snowdepth":"9.000","Units":"in","Rept_Date":"2021-01-07 06"},"coordinates":[6137,5164]},{"type":"Point","properties":{"Station_ID":"HTLM4","Station_Nam":"SNOW PAID OBSERVER FOR KHTL","Latitude":"44.34470","Longitude":"-84.67730","Snowdepth":"9.000","Units":"in","Rept_Date":"2021-01-06 18"},"coordinates":[3020,5419]},{"type":"Point","properties":{"Station_ID":"HTL","Station_Nam":"ROSCOMMON COUNTY AIRPORT","Latitude":"44.35000","Longitude":"-84.66670","Snowdepth":"9.000","Units":"in","Rept_Date":"2021-01-07 00"},"coordinates":[3023,5422]},{"type":"Point","properties":{"Station_ID":"ELYM5","Station_Nam":"ELY","Latitude":"47.90560","Longitude":"-91.82830","Snowdepth":"9.000","Units":"in","Rept_Date":"2021-01-06 14"},"coordinates":[1301,7628]},{"type":"Point","properties":{"Station_ID":"ELKM5","Station_Nam":"ELK RIVER","Latitude":"45.30470","Longitude":"-93.58420","Snowdepth":"9.000","Units":"in","Rept_Date":"2021-01-06 13"},"coordinates":[879,6014]},{"type":"Point","properties":{"Station_ID":"CAN-PE-19","Station_Nam":"CHARLOTTETOWN 6.5 NNW, CAN","Latitude":"46.29235","Longitude":"-63.17271","Snowdepth":"9.000","Units":"in","Rept_Date":"2021-01-06 12"},"coordinates":[8191,6627]},{"type":"Point","properties":{"Station_ID":"CAN-MB-32","Station_Nam":"PINAWA 1.0 SW, CA","Latitude":"50.14747","Longitude":"-95.89020","Snowdepth":"9.000","Units":"in","Rept_Date":"2021-01-06 13"},"coordinates":[324,9019]},{"type":"Point","properties":{"Station_ID":"BFHW3","Station_Nam":"BAYFIELD FISH HATCHERY","Latitude":"46.78670","Longitude":"-90.86420","Snowdepth":"9.000","Units":"in","Rept_Date":"2021-01-06 14"},"coordinates":[1533,6934]},{"type":"Point","properties":{"Station_ID":"BBEM4","Station_Nam":"BIG BAY 9SW","Latitude":"46.74620","Longitude":"-87.88160","Snowdepth":"9.000","Units":"in","Rept_Date":"2021-01-06 13"},"coordinates":[2250,6909]},{"type":"Point","properties":{"Station_ID":"WI-SR-1","Station_Nam":"HAYWARD 9.2 NNE, WI","Latitude":"46.13255","Longitude":"-91.40500","Snowdepth":"8.800","Units":"in","Rept_Date":"2021-01-06 12"},"coordinates":[1403,6528]},{"type":"Point","properties":{"Station_ID":"CAN-ON-452","Station_Nam":"CHATSWORTH 1.8 ENE - GSCA, CAN","Latitude":"44.46118","Longitude":"-80.87506","Snowdepth":"8.700","Units":"in","Rept_Date":"2021-01-06 12"},"coordinates":[3935,5491]},{"type":"Point","properties":{"Station_ID":"CAN-NB-29","Station_Nam":"SUSSEX 1.0 WNW - KWRC, CAN","Latitude":"45.72670","Longitude":"-65.52858","Snowdepth":"8.700","Units":"in","Rept_Date":"2021-01-06 12"},"coordinates":[7625,6276]},{"type":"Point","properties":{"Station_ID":"WI-PR-2","Station_Nam":"BUTTERNUT 5.9 SW, WI","Latitude":"45.96501","Longitude":"-90.59750","Snowdepth":"8.500","Units":"in","Rept_Date":"2021-01-06 12"},"coordinates":[1597,6424]},{"type":"Point","properties":{"Station_ID":"WI-BY-14","Station_Nam":"ASHLAND 9.8 W, WI","Latitude":"46.59742","Longitude":"-91.07856","Snowdepth":"8.500","Units":"in","Rept_Date":"2021-01-06 12"},"coordinates":[1481,6816]},{"type":"Point","properties":{"Station_ID":"WI-BY-1","Station_Nam":"BAYFIELD 8.8 N, WI","Latitude":"46.93855","Longitude":"-90.83490","Snowdepth":"8.500","Units":"in","Rept_Date":"2021-01-06 11"},"coordinates":[1540,7028]},{"type":"Point","properties":{"Station_ID":"VT-OL-12","Station_Nam":"GREENSBORO 3.9 NNE, VT","Latitude":"44.63100","Longitude":"-72.28000","Snowdepth":"8.500","Units":"in","Rept_Date":"2021-01-06 13"},"coordinates":[6001,5596]},{"type":"Point","properties":{"Station_ID":"CAN-MB-368","Station_Nam":"WHITESHELL 1.3 NE, CAN","Latitude":"49.74405","Longitude":"-95.19123","Snowdepth":"8.300","Units":"in","Rept_Date":"2021-01-06 14"},"coordinates":[492,8769]},{"type":"Point","properties":{"Station_ID":"CAN-NB-97","Station_Nam":"NEW MARYLAND 0.6 NW, CAN","Latitude":"45.90112","Longitude":"-66.68739","Snowdepth":"8.100","Units":"in","Rept_Date":"2021-01-06 11"},"coordinates":[7346,6384]},{"type":"Point","properties":{"Station_ID":"WTNM4","Station_Nam":"WATTON 2WSW","Latitude":"46.52660","Longitude":"-88.64240","Snowdepth":"8.000","Units":"in","Rept_Date":"2021-01-06 13"},"coordinates":[2067,6773]},{"type":"Point","properties":{"Station_ID":"WNDP1","Station_Nam":"WINDBER COUNTY CLUB","Latitude":"40.28780","Longitude":"-78.77530","Snowdepth":"8.000","Units":"in","Rept_Date":"2021-01-06 12"},"coordinates":[4439,2902]},{"type":"Point","properties":{"Station_ID":"WLBI4","Station_Nam":"WILLIAMSBURG 3 SE","Latitude":"41.64020","Longitude":"-91.97840","Snowdepth":"8.000","Units":"in","Rept_Date":"2021-01-06 13"},"coordinates":[1265,3741]},{"type":"Point","properties":{"Station_ID":"WI-BY-2","Station_Nam":"MELLEN 18.6 SW, WI","Latitude":"46.16937","Longitude":"-90.98090","Snowdepth":"8.000","Units":"in","Rept_Date":"2021-01-06 13"},"coordinates":[1505,6551]},{"type":"Point","properties":{"Station_ID":"WERW3","Station_Nam":"CHIPPEWA R BISHOP'S BRIDGE","Latitude":"45.84920","Longitude":"-91.07890","Snowdepth":"8.000","Units":"in","Rept_Date":"2021-01-06 13"},"coordinates":[1481,6352]},{"type":"Point","properties":{"Station_ID":"VT-WS-7","Station_Nam":"MIDDLESEX 3.1 ENE, VT","Latitude":"44.31799","Longitude":"-72.62650","Snowdepth":"8.000","Units":"in","Rept_Date":"2021-01-06 13"},"coordinates":[5918,5402]},{"type":"Point","properties":{"Station_ID":"VT-WS-30","Station_Nam":"WOODBURY 3.4 NNW, VT","Latitude":"44.48825","Longitude":"-72.43258","Snowdepth":"8.000","Units":"in","Rept_Date":"2021-01-06 12"},"coordinates":[5965,5508]},{"type":"Point","properties":{"Station_ID":"VT-WR-17","Station_Nam":"ROCHESTER 2.3 NE, VT","Latitude":"43.89418","Longitude":"-72.76992","Snowdepth":"8.000","Units":"in","Rept_Date":"2021-01-06 12"},"coordinates":[5883,5139]},{"type":"Point","properties":{"Station_ID":"VT-ES-3","Station_Nam":"LUNENBURG 2.3 NNW, VT","Latitude":"44.49324","Longitude":"-71.70446","Snowdepth":"8.000","Units":"in","Rept_Date":"2021-01-06 12"},"coordinates":[6140,5511]},{"type":"Point","properties":{"Station_ID":"SWGP1","Station_Nam":"STILLWATER DAM 2NE SNOW N SLOPE","Latitude":"41.71720","Longitude":"-75.46470","Snowdepth":"8.000","Units":"in","Rept_Date":"2021-01-06 13"},"coordinates":[5235,3789]},{"type":"Point","properties":{"Station_ID":"SUTV1","Station_Nam":"SUTTON","Latitude":"44.61220","Longitude":"-72.04810","Snowdepth":"8.000","Units":"in","Rept_Date":"2021-01-06 13"},"coordinates":[6057,5585]},{"type":"Point","properties":{"Station_ID":"RLKW3","Station_Nam":"REST LAKE","Latitude":"46.12220","Longitude":"-89.87720","Snowdepth":"8.000","Units":"in","Rept_Date":"2021-01-06 14"},"coordinates":[1770,6522]},{"type":"Point","properties":{"Station_ID":"RGNM1","Station_Nam":"RANGELEY 2NW","Latitude":"44.98940","Longitude":"-70.67220","Snowdepth":"8.000","Units":"in","Rept_Date":"2021-01-06 11"},"coordinates":[6388,5819]},{"type":"Point","properties":{"Station_ID":"NYMM5","Station_Nam":"NEW YORK MILLS","Latitude":"46.50920","Longitude":"-95.37990","Snowdepth":"8.000","Units":"in","Rept_Date":"2021-01-06 13"},"coordinates":[447,6762]},{"type":"Point","properties":{"Station_ID":"NY-FK-7","Station_Nam":"SARANAC LAKE 6.2 N, NY","Latitude":"44.41359","Longitude":"-74.15211","Snowdepth":"8.000","Units":"in","Rept_Date":"2021-01-06 12"},"coordinates":[5551,5462]},{"type":"Point","properties":{"Station_ID":"NH-GR-47","Station_Nam":"LITTLETON 7.3 W, NH","Latitude":"44.31847","Longitude":"-71.91086","Snowdepth":"8.000","Units":"in","Rept_Date":"2021-01-06 13"},"coordinates":[6090,5403]},{"type":"Point","properties":{"Station_ID":"MWOW3","Station_Nam":"MUKWONAGO","Latitude":"42.85380","Longitude":"-88.43550","Snowdepth":"8.000","Units":"in","Rept_Date":"2021-01-06 13"},"coordinates":[2117,4494]},{"type":"Point","properties":{"Station_ID":"MTCI2","Station_Nam":"MOUNT CARROLL","Latitude":"42.09800","Longitude":"-89.98410","Snowdepth":"8.000","Units":"in","Rept_Date":"2021-01-06 14"},"coordinates":[1744,4025]},{"type":"Point","properties":{"Station_ID":"MSP","Station_Nam":"MINNEAPOLIS-ST PAUL INTL AP","Latitude":"44.88310","Longitude":"-93.22890","Snowdepth":"8.000","Units":"in","Rept_Date":"2021-01-07 00"},"coordinates":[964,5753]},{"type":"Point","properties":{"Station_ID":"MQT","Station_Nam":"MARQUETTE, MI","Latitude":"46.53140","Longitude":"-87.54920","Snowdepth":"8.000","Units":"in","Rept_Date":"2021-01-07 06"},"coordinates":[2330,6776]},{"type":"Point","properties":{"Station_ID":"MN-WR-25","Station_Nam":"SAINT MICHAEL 2.0 ENE, MN","Latitude":"45.20820","Longitude":"-93.65280","Snowdepth":"8.000","Units":"in","Rept_Date":"2021-01-06 12"},"coordinates":[862,5955]},{"type":"Point","properties":{"Station_ID":"MN-CW-22","Station_Nam":"FORT RIPLEY 0.8 N, MN","Latitude":"46.18089","Longitude":"-94.36510","Snowdepth":"8.000","Units":"in","Rept_Date":"2021-01-06 13"},"coordinates":[691,6558]},{"type":"Point","properties":{"Station_ID":"MN-BK-6","Station_Nam":"LAKE PARK 6.0 S, MN","Latitude":"46.79850","Longitude":"-96.12180","Snowdepth":"8.000","Units":"in","Rept_Date":"2021-01-06 13"},"coordinates":[269,6941]},{"type":"Point","properties":{"Station_ID":"MN-AA-76","Station_Nam":"NOWTHEN 2.9 SSE, MN","Latitude":"45.30360","Longitude":"-93.42620","Snowdepth":"8.000","Units":"in","Rept_Date":"2021-01-06 13"},"coordinates":[917,6014]},{"type":"Point","properties":{"Station_ID":"MKTI4","Station_Nam":"MAQUOKETA","Latitude":"42.07710","Longitude":"-90.66470","Snowdepth":"8.000","Units":"in","Rept_Date":"2021-01-06 13"},"coordinates":[1581,4012]},{"type":"Point","properties":{"Station_ID":"ME-PN-55","Station_Nam":"ORONO 1.1 SSW, ME","Latitude":"44.87005","Longitude":"-68.69446","Snowdepth":"8.000","Units":"in","Rept_Date":"2021-01-06 12"},"coordinates":[6863,5745]},{"type":"Point","properties":{"Station_ID":"LNOW3","Station_Nam":"LAND O LAKES","Latitude":"46.19000","Longitude":"-89.45700","Snowdepth":"8.000","Units":"in","Rept_Date":"2021-01-06 13"},"coordinates":[1871,6564]},{"type":"Point","properties":{"Station_ID":"LEWM4","Station_Nam":"LEWISTON 3W","Latitude":"44.88210","Longitude":"-84.36540","Snowdepth":"8.000","Units":"in","Rept_Date":"2021-01-06 13"},"coordinates":[3095,5752]},{"type":"Point","properties":{"Station_ID":"KMSP","Station_Nam":"MINNEAPOLIS-ST PAUL INTERNATIONAL","Latitude":"44.86666","Longitude":"-93.21666","Snowdepth":"8.000","Units":"in","Rept_Date":"2021-01-07 06"},"coordinates":[967,5743]},{"type":"Point","properties":{"Station_ID":"JCBM4","Station_Nam":"JACOBSVILLE","Latitude":"47.00830","Longitude":"-88.43180","Snowdepth":"8.000","Units":"in","Rept_Date":"2021-01-06 12"},"coordinates":[2118,7071]},{"type":"Point","properties":{"Station_ID":"INDM5","Station_Nam":"INDUS,MN","Latitude":"48.61670","Longitude":"-93.90000","Snowdepth":"8.000","Units":"in","Rept_Date":"2021-01-06 14"},"coordinates":[803,8069]},{"type":"Point","properties":{"Station_ID":"IL-SP-6","Station_Nam":"FREEPORT 2.0 NW, IL","Latitude":"42.30955","Longitude":"-89.66370","Snowdepth":"8.000","Units":"in","Rept_Date":"2021-01-06 13"},"coordinates":[1821,4156]},{"type":"Point","properties":{"Station_ID":"IL-SP-25","Station_Nam":"FREEPORT 1.7 NW, IL","Latitude":"42.30427","Longitude":"-89.66285","Snowdepth":"8.000","Units":"in","Rept_Date":"2021-01-06 13"},"coordinates":[1822,4153]},{"type":"Point","properties":{"Station_ID":"IL-JD-6","Station_Nam":"HANOVER 0.2 NW, IL","Latitude":"42.25640","Longitude":"-90.28109","Snowdepth":"8.000","Units":"in","Rept_Date":"2021-01-06 13"},"coordinates":[1673,4123]},{"type":"Point","properties":{"Station_ID":"IA-ST-1","Station_Nam":"LE CLAIRE 1.8 NNE, IA","Latitude":"41.62355","Longitude":"-90.35140","Snowdepth":"8.000","Units":"in","Rept_Date":"2021-01-06 13"},"coordinates":[1656,3731]},{"type":"Point","properties":{"Station_ID":"HMYM1","Station_Nam":"HARMONY","Latitude":"44.94660","Longitude":"-69.54560","Snowdepth":"8.000","Units":"in","Rept_Date":"2021-01-06 12"},"coordinates":[6659,5792]},{"type":"Point","properties":{"Station_ID":"GHMN3","Station_Nam":"PINKHAM NOTCH","Latitude":"44.25800","Longitude":"-71.25250","Snowdepth":"8.000","Units":"in","Rept_Date":"2021-01-06 10"},"coordinates":[6248,5365]},{"type":"Point","properties":{"Station_ID":"GERW3","Station_Nam":"GERMANTOWN,WI","Latitude":"43.21670","Longitude":"-88.11670","Snowdepth":"8.000","Units":"in","Rept_Date":"2021-01-06 13"},"coordinates":[2193,4719]},{"type":"Point","properties":{"Station_ID":"ESGM1","Station_Nam":"EAST SANGERVILLE","Latitude":"45.13690","Longitude":"-69.28060","Snowdepth":"8.000","Units":"in","Rept_Date":"2021-01-06 12"},"coordinates":[6722,5910]},{"type":"Point","properties":{"Station_ID":"EMBM5","Station_Nam":"EMBARASS,MN","Latitude":"47.65810","Longitude":"-92.19580","Snowdepth":"8.000","Units":"in","Rept_Date":"2021-01-06 12"},"coordinates":[1213,7475]},{"type":"Point","properties":{"Station_ID":"DLHM5","Station_Nam":"DULUTH NWS","Latitude":"46.83680","Longitude":"-92.21080","Snowdepth":"8.000","Units":"in","Rept_Date":"2021-01-07 06"},"coordinates":[1209,6965]},{"type":"Point","properties":{"Station_ID":"DLH","Station_Nam":"DULUTH, MN","Latitude":"46.83690","Longitude":"-92.21030","Snowdepth":"8.000","Units":"in","Rept_Date":"2021-01-07 00"},"coordinates":[1209,6965]},{"type":"Point","properties":{"Station_ID":"CSLM5","Station_Nam":"CASS LAKE,MN","Latitude":"47.38470","Longitude":"-94.61470","Snowdepth":"8.000","Units":"in","Rept_Date":"2021-01-06 14"},"coordinates":[631,7305]},{"type":"Point","properties":{"Station_ID":"COUW3","Station_Nam":"COUDERAY,WI","Latitude":"45.86670","Longitude":"-91.45000","Snowdepth":"8.000","Units":"in","Rept_Date":"2021-01-06 22"},"coordinates":[1392,6363]},{"type":"Point","properties":{"Station_ID":"CORM1","Station_Nam":"CORINNA","Latitude":"44.91980","Longitude":"-69.24180","Snowdepth":"8.000","Units":"in","Rept_Date":"2021-01-06 14"},"coordinates":[6732,5776]},{"type":"Point","properties":{"Station_ID":"CMKW3","Station_Nam":"CLAM LAKE 4W","Latitude":"46.16940","Longitude":"-90.98080","Snowdepth":"8.000","Units":"in","Rept_Date":"2021-01-06 13"},"coordinates":[1505,6551]},{"type":"Point","properties":{"Station_ID":"CLKM4","Station_Nam":"CLARKSBURG","Latitude":"46.49910","Longitude":"-87.84500","Snowdepth":"8.000","Units":"in","Rept_Date":"2021-01-06 12"},"coordinates":[2259,6755]},{"type":"Point","properties":{"Station_ID":"CLIW3","Station_Nam":"CLINTON,WI","Latitude":"42.60000","Longitude":"-88.88330","Snowdepth":"8.000","Units":"in","Rept_Date":"2021-01-06 13"},"coordinates":[2009,4336]},{"type":"Point","properties":{"Station_ID":"CBLW3","Station_Nam":"CUMBERLAND","Latitude":"45.53310","Longitude":"-92.02260","Snowdepth":"8.000","Units":"in","Rept_Date":"2021-01-06 13"},"coordinates":[1254,6156]},{"type":"Point","properties":{"Station_ID":"CAN-NS-60","Station_Nam":"SYDNEY FORKS, CAN","Latitude":"46.05645","Longitude":"-60.31510","Snowdepth":"8.000","Units":"in","Rept_Date":"2021-01-06 13"},"coordinates":[8878,6481]},{"type":"Point","properties":{"Station_ID":"BLGW3","Station_Nam":"BELGIUM WWTP","Latitude":"43.51310","Longitude":"-87.85440","Snowdepth":"8.000","Units":"in","Rept_Date":"2021-01-06 13"},"coordinates":[2256,4903]},{"type":"Point","properties":{"Station_ID":"FTHQ6","Station_Nam":"FORT HOPE","Latitude":"51.55820","Longitude":"-87.90510","Snowdepth":"7.990","Units":"in","Rept_Date":"2021-01-07 06"},"coordinates":[2244,9894]},{"type":"Point","properties":{"Station_ID":"CAN-QC-47","Station_Nam":"SAINTE-FOY 1.8 ENE, CAN","Latitude":"46.76934","Longitude":"-71.27124","Snowdepth":"7.900","Units":"in","Rept_Date":"2021-01-06 12"},"coordinates":[6244,6923]},{"type":"Point","properties":{"Station_ID":"CAN-ON-804","Station_Nam":"KEMBLE 1.6 S - GSCA, CAN","Latitude":"44.71013","Longitude":"-80.92735","Snowdepth":"7.900","Units":"in","Rept_Date":"2021-01-06 13"},"coordinates":[3922,5646]},{"type":"Point","properties":{"Station_ID":"CAN-NS-159","Station_Nam":"NORTHPORT 0.1 NE, CAN","Latitude":"45.93299","Longitude":"-63.86711","Snowdepth":"7.900","Units":"in","Rept_Date":"2021-01-06 11"},"coordinates":[8024,6404]},{"type":"Point","properties":{"Station_ID":"NY-HR-18","Station_Nam":"SALISBURY CENTER 1.8 NW, NY","Latitude":"43.16260","Longitude":"-74.80880","Snowdepth":"7.800","Units":"in","Rept_Date":"2021-01-06 10"},"coordinates":[5393,4685]},{"type":"Point","properties":{"Station_ID":"MFU","Station_Nam":"MFU","Latitude":"51.52170","Longitude":"-66.91110","Snowdepth":"7.520","Units":"in","Rept_Date":"2021-01-06 12"},"coordinates":[7292,9872]},{"type":"Point","properties":{"Station_ID":"WI-WK-73","Station_Nam":"MENOMONEE FALLS 3.2 NNW, WI","Latitude":"43.18817","Longitude":"-88.15555","Snowdepth":"7.500","Units":"in","Rept_Date":"2021-01-06 13"},"coordinates":[2184,4701]},{"type":"Point","properties":{"Station_ID":"WI-WK-20","Station_Nam":"MUKWONAGO 0.5 N, WI","Latitude":"42.87385","Longitude":"-88.33180","Snowdepth":"7.500","Units":"in","Rept_Date":"2021-01-06 13"},"coordinates":[2142,4506]},{"type":"Point","properties":{"Station_ID":"WI-VL-9","Station_Nam":"LAND O' LAKES 11.7 W, WI","Latitude":"46.19023","Longitude":"-89.45790","Snowdepth":"7.500","Units":"in","Rept_Date":"2021-01-06 13"},"coordinates":[1871,6564]},{"type":"Point","properties":{"Station_ID":"WI-MW-18","Station_Nam":"WEST ALLIS 0.7 SSE, WI","Latitude":"42.99802","Longitude":"-88.02380","Snowdepth":"7.500","Units":"in","Rept_Date":"2021-01-06 14"},"coordinates":[2216,4583]},{"type":"Point","properties":{"Station_ID":"WI-BY-6","Station_Nam":"BARNES 2.2 S, WI","Latitude":"46.30264","Longitude":"-91.50320","Snowdepth":"7.500","Units":"in","Rept_Date":"2021-01-06 13"},"coordinates":[1379,6634]},{"type":"Point","properties":{"Station_ID":"VT-WS-19","Station_Nam":"WATERBURY 3.0 NW, VT","Latitude":"44.36060","Longitude":"-72.80770","Snowdepth":"7.500","Units":"in","Rept_Date":"2021-01-06 11"},"coordinates":[5874,5429]},{"type":"Point","properties":{"Station_ID":"NY-FK-9","Station_Nam":"GABRIELS 1.3 SE, NY","Latitude":"44.41934","Longitude":"-74.16194","Snowdepth":"7.500","Units":"in","Rept_Date":"2021-01-06 12"},"coordinates":[5549,5465]},{"type":"Point","properties":{"Station_ID":"NY-ES-11","Station_Nam":"VERMONTVILLE 2.8 S, NY","Latitude":"44.41205","Longitude":"-74.06760","Snowdepth":"7.500","Units":"in","Rept_Date":"2021-01-06 12"},"coordinates":[5571,5461]},{"type":"Point","properties":{"Station_ID":"NY-BM-21","Station_Nam":"WINDSOR 8.0 SE, NY","Latitude":"42.00992","Longitude":"-75.51420","Snowdepth":"7.500","Units":"in","Rept_Date":"2021-01-06 12"},"coordinates":[5224,3970]},{"type":"Point","properties":{"Station_ID":"MI-OT-17","Station_Nam":"GAYLORD 4.1 S, MI","Latitude":"44.96388","Longitude":"-84.68467","Snowdepth":"7.500","Units":"in","Rept_Date":"2021-01-06 12"},"coordinates":[3019,5803]},{"type":"Point","properties":{"Station_ID":"MI-GL-4","Station_Nam":"GLADWIN 10.4 NNW, MI","Latitude":"44.11865","Longitude":"-84.58470","Snowdepth":"7.500","Units":"in","Rept_Date":"2021-01-06 14"},"coordinates":[3043,5279]},{"type":"Point","properties":{"Station_ID":"CAN-NB-84","Station_Nam":"NORTON 7.1 WNW - KWRC, CAN","Latitude":"45.66195","Longitude":"-65.78279","Snowdepth":"7.500","Units":"in","Rept_Date":"2021-01-06 12"},"coordinates":[7563,6236]},{"type":"Point","properties":{"Station_ID":"CAN-NB-64","Station_Nam":"KESWICK RIDGE 4.0 SE, CAN","Latitude":"45.97014","Longitude":"-66.85538","Snowdepth":"7.500","Units":"in","Rept_Date":"2021-01-06 12"},"coordinates":[7306,6427]},{"type":"Point","properties":{"Station_ID":"MN-IT-7","Station_Nam":"GRAND RAPIDS 6.2 SSW, MN","Latitude":"47.13687","Longitude":"-93.56660","Snowdepth":"7.400","Units":"in","Rept_Date":"2021-01-06 12"},"coordinates":[883,7151]},{"type":"Point","properties":{"Station_ID":"CAN-NB-16","Station_Nam":"DORCHESTER 1.0 SSE, CAN","Latitude":"45.89160","Longitude":"-64.51269","Snowdepth":"7.400","Units":"in","Rept_Date":"2021-01-06 11"},"coordinates":[7869,6379]},{"type":"Point","properties":{"Station_ID":"CAN-PE-43","Station_Nam":"GLENCOE 0.3 W, CAN","Latitude":"46.20115","Longitude":"-62.81740","Snowdepth":"7.100","Units":"in","Rept_Date":"2021-01-06 12"},"coordinates":[8276,6571]},{"type":"Point","properties":{"Station_ID":"CAN-NB-98","Station_Nam":"HOYT 4.2 S, CAN","Latitude":"45.54763","Longitude":"-66.55440","Snowdepth":"7.100","Units":"in","Rept_Date":"2021-01-06 11"},"coordinates":[7378,6165]},{"type":"Point","properties":{"Station_ID":"WRIM5","Station_Nam":"WRIGHT 3E","Latitude":"46.68040","Longitude":"-92.95420","Snowdepth":"7.000","Units":"in","Rept_Date":"2021-01-06 12"},"coordinates":[1030,6868]},{"type":"Point","properties":{"Station_ID":"WORV1","Station_Nam":"WORCESTER 2 W","Latitude":"44.37470","Longitude":"-72.58220","Snowdepth":"7.000","Units":"in","Rept_Date":"2021-01-06 12"},"coordinates":[5929,5437]},{"type":"Point","properties":{"Station_ID":"WI-WK-68","Station_Nam":"OCONOMOWOC 1.0 S, WI","Latitude":"43.09530","Longitude":"-88.48590","Snowdepth":"7.000","Units":"in","Rept_Date":"2021-01-06 14"},"coordinates":[2105,4644]},{"type":"Point","properties":{"Station_ID":"WI-WK-61","Station_Nam":"HARTLAND 5.0 NNE, WI","Latitude":"43.16351","Longitude":"-88.30400","Snowdepth":"7.000","Units":"in","Rept_Date":"2021-01-06 13"},"coordinates":[2148,4686]},{"type":"Point","properties":{"Station_ID":"WI-WK-29","Station_Nam":"OCONOMOWOC 4.6 NE, WI","Latitude":"43.14621","Longitude":"-88.42860","Snowdepth":"7.000","Units":"in","Rept_Date":"2021-01-06 15"},"coordinates":[2118,4675]},{"type":"Point","properties":{"Station_ID":"WI-PR-6","Station_Nam":"PHILLIPS 1.3 S, WI","Latitude":"45.67677","Longitude":"-90.39543","Snowdepth":"7.000","Units":"in","Rept_Date":"2021-01-06 12"},"coordinates":[1645,6245]},{"type":"Point","properties":{"Station_ID":"WI-PK-4","Station_Nam":"DRESSER 6.1 ESE, WI","Latitude":"45.32436","Longitude":"-92.52080","Snowdepth":"7.000","Units":"in","Rept_Date":"2021-01-06 14"},"coordinates":[1134,6027]},{"type":"Point","properties":{"Station_ID":"WI-PK-33","Station_Nam":"FREDERIC 4.8 NE, WI","Latitude":"45.70970","Longitude":"-92.39950","Snowdepth":"7.000","Units":"in","Rept_Date":"2021-01-06 13"},"coordinates":[1164,6266]},{"type":"Point","properties":{"Station_ID":"WI-PC-5","Station_Nam":"RIVER FALLS 1.2 SSW, WI","Latitude":"44.84032","Longitude":"-92.63500","Snowdepth":"7.000","Units":"in","Rept_Date":"2021-01-06 13"},"coordinates":[1107,5726]},{"type":"Point","properties":{"Station_ID":"WI-OZ-17","Station_Nam":"WEST BEND 7.3 E, WI","Latitude":"43.42860","Longitude":"-88.03870","Snowdepth":"7.000","Units":"in","Rept_Date":"2021-01-06 13"},"coordinates":[2212,4850]},{"type":"Point","properties":{"Station_ID":"WI-JF-17","Station_Nam":"JOHNSON CREEK 2.7 SSW, WI","Latitude":"43.04559","Longitude":"-88.79925","Snowdepth":"7.000","Units":"in","Rept_Date":"2021-01-06 13"},"coordinates":[2029,4613]},{"type":"Point","properties":{"Station_ID":"WI-DA-99","Station_Nam":"FITCHBURG 1.1 NW, WI","Latitude":"42.99740","Longitude":"-89.44046","Snowdepth":"7.000","Units":"in","Rept_Date":"2021-01-06 13"},"coordinates":[1875,4583]},{"type":"Point","properties":{"Station_ID":"WI-DA-87","Station_Nam":"DUNKIRK 0.1 NW, WI","Latitude":"42.88356","Longitude":"-89.21056","Snowdepth":"7.000","Units":"in","Rept_Date":"2021-01-06 12"},"coordinates":[1930,4512]},{"type":"Point","properties":{"Station_ID":"WI-BT-14","Station_Nam":"OAKLAND 9.0 ENE, WI","Latitude":"45.95184","Longitude":"-92.21653","Snowdepth":"7.000","Units":"in","Rept_Date":"2021-01-06 13"},"coordinates":[1208,6416]},{"type":"Point","properties":{"Station_ID":"WHTW3","Station_Nam":"WHITEWATER,WI","Latitude":"42.85670","Longitude":"-88.72940","Snowdepth":"7.000","Units":"in","Rept_Date":"2021-01-06 13"},"coordinates":[2046,4496]},{"type":"Point","properties":{"Station_ID":"VT-OL-9","Station_Nam":"GREENSBORO 2.1 NNW, VT","Latitude":"44.60528","Longitude":"-72.30940","Snowdepth":"7.000","Units":"in","Rept_Date":"2021-01-06 12"},"coordinates":[5994,5580]},{"type":"Point","properties":{"Station_ID":"VT-OL-2","Station_Nam":"BARTON 3.0 ENE, VT","Latitude":"44.75863","Longitude":"-72.11680","Snowdepth":"7.000","Units":"in","Rept_Date":"2021-01-06 12"},"coordinates":[6040,5676]},{"type":"Point","properties":{"Station_ID":"VT-OL-1","Station_Nam":"WESTFIELD 0.7 WNW, VT","Latitude":"44.89160","Longitude":"-72.44350","Snowdepth":"7.000","Units":"in","Rept_Date":"2021-01-06 12"},"coordinates":[5962,5758]},{"type":"Point","properties":{"Station_ID":"VT-OG-14","Station_Nam":"BRADFORD 2.2 NNW, VT","Latitude":"44.02268","Longitude":"-72.14756","Snowdepth":"7.000","Units":"in","Rept_Date":"2021-01-06 13"},"coordinates":[6033,5219]},{"type":"Point","properties":{"Station_ID":"VANM1","Station_Nam":"VAN BUREN","Latitude":"47.16600","Longitude":"-67.93900","Snowdepth":"7.000","Units":"in","Rept_Date":"2021-01-06 12"},"coordinates":[7045,7169]},{"type":"Point","properties":{"Station_ID":"UGRW3","Station_Nam":"UNION GROVE,WI","Latitude":"42.70000","Longitude":"-88.03220","Snowdepth":"7.000","Units":"in","Rept_Date":"2021-01-06 14"},"coordinates":[2214,4398]},{"type":"Point","properties":{"Station_ID":"SWIP1","Station_Nam":"STILLWATER DAM 2NE SNOW W SLOPE","Latitude":"41.72420","Longitude":"-75.47780","Snowdepth":"7.000","Units":"in","Rept_Date":"2021-01-06 13"},"coordinates":[5232,3793]},{"type":"Point","properties":{"Station_ID":"SWHP1","Station_Nam":"STILLWATER DAM 2NE SNOW S SLOPE","Latitude":"41.72940","Longitude":"-75.46750","Snowdepth":"7.000","Units":"in","Rept_Date":"2021-01-06 13"},"coordinates":[5235,3796]},{"type":"Point","properties":{"Station_ID":"SSMM4","Station_Nam":"SAULT STE MARIE","Latitude":"46.48660","Longitude":"-84.40250","Snowdepth":"7.000","Units":"in","Rept_Date":"2021-01-06 13"},"coordinates":[3086,6748]},{"type":"Point","properties":{"Station_ID":"SLRW3","Station_Nam":"SLINGER","Latitude":"43.33390","Longitude":"-88.29780","Snowdepth":"7.000","Units":"in","Rept_Date":"2021-01-06 13"},"coordinates":[2150,4792]},{"type":"Point","properties":{"Station_ID":"SCRW3","Station_Nam":"ST CROIX FALLS","Latitude":"45.41170","Longitude":"-92.64660","Snowdepth":"7.000","Units":"in","Rept_Date":"2021-01-06 13"},"coordinates":[1104,6081]},{"type":"Point","properties":{"Station_ID":"SAVW3","Station_Nam":"SAUKVILLE WWTP","Latitude":"43.37470","Longitude":"-87.93940","Snowdepth":"7.000","Units":"in","Rept_Date":"2021-01-06 12"},"coordinates":[2236,4817]},{"type":"Point","properties":{"Station_ID":"RKWM1","Station_Nam":"MOOSEHEAD LAKE","Latitude":"45.58330","Longitude":"-69.71670","Snowdepth":"7.000","Units":"in","Rept_Date":"2021-01-06 12"},"coordinates":[6618,6187]},{"type":"Point","properties":{"Station_ID":"PTBN3","Station_Nam":"PITTSBURG RESERVOIR","Latitude":"45.04690","Longitude":"-71.38300","Snowdepth":"7.000","Units":"in","Rept_Date":"2021-01-06 12"},"coordinates":[6217,5854]},{"type":"Point","properties":{"Station_ID":"PLEP1","Station_Nam":"PLEASANT MOUNT 1 W","Latitude":"41.73940","Longitude":"-75.44650","Snowdepth":"7.000","Units":"in","Rept_Date":"2021-01-06 13"},"coordinates":[5240,3802]},{"type":"Point","properties":{"Station_ID":"PEKN6","Station_Nam":"PECK LAKE","Latitude":"43.11500","Longitude":"-74.42360","Snowdepth":"7.000","Units":"in","Rept_Date":"2021-01-06 12"},"coordinates":[5486,4656]},{"type":"Point","properties":{"Station_ID":"PDGM4","Station_Nam":"PAULDING","Latitude":"46.39760","Longitude":"-89.17940","Snowdepth":"7.000","Units":"in","Rept_Date":"2021-01-06 15"},"coordinates":[1938,6693]},{"type":"Point","properties":{"Station_ID":"OTTM5","Station_Nam":"OTTERTAIL,MN","Latitude":"46.41670","Longitude":"-95.56670","Snowdepth":"7.000","Units":"in","Rept_Date":"2021-01-06 13"},"coordinates":[402,6704]},{"type":"Point","properties":{"Station_ID":"ONCW3","Station_Nam":"SOUTH","Latitude":"43.11170","Longitude":"-88.49970","Snowdepth":"7.000","Units":"in","Rept_Date":"2021-01-06 14"},"coordinates":[2101,4654]},{"type":"Point","properties":{"Station_ID":"OLNI4","Station_Nam":"OELWEIN 1E","Latitude":"42.68010","Longitude":"-91.87510","Snowdepth":"7.000","Units":"in","Rept_Date":"2021-01-06 12"},"coordinates":[1290,4386]},{"type":"Point","properties":{"Station_ID":"NY-HM-9","Station_Nam":"HOFFMEISTER 2.0 E, NY","Latitude":"43.38695","Longitude":"-74.67723","Snowdepth":"7.000","Units":"in","Rept_Date":"2021-01-06 13"},"coordinates":[5425,4825]},{"type":"Point","properties":{"Station_ID":"NY-CR-5","Station_Nam":"MARATHON 1.0 NW, NY","Latitude":"42.45161","Longitude":"-76.04370","Snowdepth":"7.000","Units":"in","Rept_Date":"2021-01-06 12"},"coordinates":[5096,4244]},{"type":"Point","properties":{"Station_ID":"NCBN6","Station_Nam":"NEWCOMB","Latitude":"43.97070","Longitude":"-74.22200","Snowdepth":"7.000","Units":"in","Rept_Date":"2021-01-06 12"},"coordinates":[5534,5187]},{"type":"Point","properties":{"Station_ID":"MRAM5","Station_Nam":"MORA","Latitude":"45.87760","Longitude":"-93.31470","Snowdepth":"7.000","Units":"in","Rept_Date":"2021-01-06 13"},"coordinates":[943,6370]},{"type":"Point","properties":{"Station_ID":"MPXM5","Station_Nam":"CHANHASSEN WSFO","Latitude":"44.84960","Longitude":"-93.56440","Snowdepth":"7.000","Units":"in","Rept_Date":"2021-01-07 00"},"coordinates":[883,5732]},{"type":"Point","properties":{"Station_ID":"MNSM4","Station_Nam":"MUNISING","Latitude":"46.41210","Longitude":"-86.66250","Snowdepth":"7.000","Units":"in","Rept_Date":"2021-01-06 11"},"coordinates":[2543,6702]},{"type":"Point","properties":{"Station_ID":"MN-SH-39","Station_Nam":"ZIMMERMAN 3.7 N, MN","Latitude":"45.49450","Longitude":"-93.60430","Snowdepth":"7.000","Units":"in","Rept_Date":"2021-01-06 14"},"coordinates":[874,6132]},{"type":"Point","properties":{"Station_ID":"MN-RM-15","Station_Nam":"ROSEVILLE 2.1 NW, MN","Latitude":"45.03502","Longitude":"-93.18620","Snowdepth":"7.000","Units":"in","Rept_Date":"2021-01-06 12"},"coordinates":[974,5847]},{"type":"Point","properties":{"Station_ID":"MN-IT-23","Station_Nam":"BOVEY 13.4 N, MN","Latitude":"47.48855","Longitude":"-93.43497","Snowdepth":"7.000","Units":"in","Rept_Date":"2021-01-06 13"},"coordinates":[915,7369]},{"type":"Point","properties":{"Station_ID":"MN-IS-21","Station_Nam":"ISANTI 5.0 SW, MN","Latitude":"45.43360","Longitude":"-93.30200","Snowdepth":"7.000","Units":"in","Rept_Date":"2021-01-06 14"},"coordinates":[947,6094]},{"type":"Point","properties":{"Station_ID":"MN-HN-31","Station_Nam":"MAPLE GROVE 1.0 NNE, MN","Latitude":"45.12261","Longitude":"-93.45790","Snowdepth":"7.000","Units":"in","Rept_Date":"2021-01-06 14"},"coordinates":[909,5901]},{"type":"Point","properties":{"Station_ID":"MN-HN-298","Station_Nam":"EXCELSIOR 1.8 W, MN","Latitude":"44.89722","Longitude":"-93.60286","Snowdepth":"7.000","Units":"in","Rept_Date":"2021-01-06 13"},"coordinates":[874,5762]},{"type":"Point","properties":{"Station_ID":"MN-GH-28","Station_Nam":"CANNON FALLS 0.5 SE, MN","Latitude":"44.50866","Longitude":"-92.89526","Snowdepth":"7.000","Units":"in","Rept_Date":"2021-01-06 14"},"coordinates":[1044,5521]},{"type":"Point","properties":{"Station_ID":"MN-CW-44","Station_Nam":"CROSBY 1.1 SW, MN","Latitude":"46.47772","Longitude":"-93.97293","Snowdepth":"7.000","Units":"in","Rept_Date":"2021-01-06 13"},"coordinates":[785,6742]},{"type":"Point","properties":{"Station_ID":"MKX","Station_Nam":"MILWAUKEE, WI","Latitude":"42.96810","Longitude":"-88.54920","Snowdepth":"7.000","Units":"in","Rept_Date":"2021-01-07 06"},"coordinates":[2089,4565]},{"type":"Point","properties":{"Station_ID":"ME-KB-53","Station_Nam":"READFIELD 2.0 NNE, ME","Latitude":"44.41620","Longitude":"-69.95190","Snowdepth":"7.000","Units":"in","Rept_Date":"2021-01-06 12"},"coordinates":[6561,5463]},{"type":"Point","properties":{"Station_ID":"ME-FR-2","Station_Nam":"TEMPLE 1.8 W, ME","Latitude":"44.68329","Longitude":"-70.26420","Snowdepth":"7.000","Units":"in","Rept_Date":"2021-01-06 12"},"coordinates":[6486,5629]},{"type":"Point","properties":{"Station_ID":"ME-AR-18","Station_Nam":"NEW SWEDEN 4.9 NNW, ME","Latitude":"47.01080","Longitude":"-68.14390","Snowdepth":"7.000","Units":"in","Rept_Date":"2021-01-06 12"},"coordinates":[6996,7073]},{"type":"Point","properties":{"Station_ID":"LVRM1","Station_Nam":"LIVERMORE FALLS 1 E","Latitude":"44.47160","Longitude":"-70.15940","Snowdepth":"7.000","Units":"in","Rept_Date":"2021-01-06 12"},"coordinates":[6511,5498]},{"type":"Point","properties":{"Station_ID":"LPLN6","Station_Nam":"LAKE PLACID 2 S","Latitude":"44.30420","Longitude":"-73.98390","Snowdepth":"7.000","Units":"in","Rept_Date":"2021-01-06 13"},"coordinates":[5591,5394]},{"type":"Point","properties":{"Station_ID":"JOHV1","Station_Nam":"JOHNSON 2 N","Latitude":"44.65790","Longitude":"-72.67850","Snowdepth":"7.000","Units":"in","Rept_Date":"2021-01-06 12"},"coordinates":[5905,5613]},{"type":"Point","properties":{"Station_ID":"JKMM1","Station_Nam":"JACKMAN","Latitude":"45.62600","Longitude":"-70.24600","Snowdepth":"7.000","Units":"in","Rept_Date":"2021-01-06 12"},"coordinates":[6490,6214]},{"type":"Point","properties":{"Station_ID":"ISEM5","Station_Nam":"ISLE 12N","Latitude":"46.31970","Longitude":"-93.50140","Snowdepth":"7.000","Units":"in","Rept_Date":"2021-01-06 14"},"coordinates":[899,6644]},{"type":"Point","properties":{"Station_ID":"IL-WN-26","Station_Nam":"ROCKFORD 1.5 ENE, IL","Latitude":"42.27775","Longitude":"-89.03590","Snowdepth":"7.000","Units":"in","Rept_Date":"2021-01-06 15"},"coordinates":[1972,4136]},{"type":"Point","properties":{"Station_ID":"ICYI4","Station_Nam":"IOWA CITY","Latitude":"41.60930","Longitude":"-91.50510","Snowdepth":"7.000","Units":"in","Rept_Date":"2021-01-06 13"},"coordinates":[1379,3722]},{"type":"Point","properties":{"Station_ID":"IA-ST-3","Station_Nam":"PARK VIEW 0.2 WSW, IA","Latitude":"41.68855","Longitude":"-90.54380","Snowdepth":"7.000","Units":"in","Rept_Date":"2021-01-06 13"},"coordinates":[1610,3771]},{"type":"Point","properties":{"Station_ID":"HPN11_MADIS","Station_Nam":"SAINT BONIFACIUS","Latitude":"44.89792","Longitude":"-93.73460","Snowdepth":"7.000","Units":"in","Rept_Date":"2021-01-07 06"},"coordinates":[843,5762]},{"type":"Point","properties":{"Station_ID":"FISM1","Station_Nam":"FORT KENT COOP","Latitude":"47.23850","Longitude":"-68.61240","Snowdepth":"7.000","Units":"in","Rept_Date":"2021-01-06 12"},"coordinates":[6883,7214]},{"type":"Point","properties":{"Station_ID":"FEEI2","Station_Nam":"PECATONICA RIVER","Latitude":"42.30000","Longitude":"-89.61670","Snowdepth":"7.000","Units":"in","Rept_Date":"2021-01-06 13"},"coordinates":[1833,4150]},{"type":"Point","properties":{"Station_ID":"FEDM5","Station_Nam":"LEECH LAKE DAM","Latitude":"47.24670","Longitude":"-94.22280","Snowdepth":"7.000","Units":"in","Rept_Date":"2021-01-06 14"},"coordinates":[725,7219]},{"type":"Point","properties":{"Station_ID":"EAHV1","Station_Nam":"EAST HAVEN","Latitude":"44.64250","Longitude":"-71.89120","Snowdepth":"7.000","Units":"in","Rept_Date":"2021-01-06 12"},"coordinates":[6095,5604]},{"type":"Point","properties":{"Station_ID":"DARW3","Station_Nam":"DARLINGTON","Latitude":"42.67780","Longitude":"-90.11860","Snowdepth":"7.000","Units":"in","Rept_Date":"2021-01-06 14"},"coordinates":[1712,4385]},{"type":"Point","properties":{"Station_ID":"CORV1","Station_Nam":"CORINTH","Latitude":"44.00690","Longitude":"-72.31940","Snowdepth":"7.000","Units":"in","Rept_Date":"2021-01-06 12"},"coordinates":[5992,5209]},{"type":"Point","properties":{"Station_ID":"CARM1","Station_Nam":"CARIBOU WFO","Latitude":"46.86810","Longitude":"-68.01250","Snowdepth":"7.000","Units":"in","Rept_Date":"2021-01-07 05"},"coordinates":[7027,6984]},{"type":"Point","properties":{"Station_ID":"CAR","Station_Nam":"CARIBOU, ME","Latitude":"46.86830","Longitude":"-68.01360","Snowdepth":"7.000","Units":"in","Rept_Date":"2021-01-06 12"},"coordinates":[7027,6985]},{"type":"Point","properties":{"Station_ID":"CAN-PE-65","Station_Nam":"FORTUNE BRIDGE 0.9 SSE, CAN","Latitude":"46.34282","Longitude":"-62.37337","Snowdepth":"7.000","Units":"in","Rept_Date":"2021-01-06 13"},"coordinates":[8383,6659]},{"type":"Point","properties":{"Station_ID":"CAN-NB-5","Station_Nam":"OAK POINT 0.9 SSW, CA","Latitude":"45.50752","Longitude":"-66.09860","Snowdepth":"7.000","Units":"in","Rept_Date":"2021-01-06 12"},"coordinates":[7487,6140]},{"type":"Point","properties":{"Station_ID":"CAN-NB-11","Station_Nam":"MIRAMICHI 3.3 S, CAN","Latitude":"46.99343","Longitude":"-65.50690","Snowdepth":"7.000","Units":"in","Rept_Date":"2021-01-06 11"},"coordinates":[7630,7062]},{"type":"Point","properties":{"Station_ID":"BROW3","Station_Nam":"BRODHEAD,WI","Latitude":"42.61720","Longitude":"-89.38970","Snowdepth":"7.000","Units":"in","Rept_Date":"2021-01-06 13"},"coordinates":[1887,4347]},{"type":"Point","properties":{"Station_ID":"BRAM1","Station_Nam":"BRASSUA DAM","Latitude":"45.66020","Longitude":"-69.81190","Snowdepth":"7.000","Units":"in","Rept_Date":"2021-01-06 12"},"coordinates":[6595,6235]},{"type":"Point","properties":{"Station_ID":"BLVI4","Station_Nam":"MISSISSIPPI RIVER","Latitude":"42.26670","Longitude":"-90.41670","Snowdepth":"7.000","Units":"in","Rept_Date":"2021-01-06 12"},"coordinates":[1640,4130]},{"type":"Point","properties":{"Station_ID":"BGR","Station_Nam":"BANGOR INTERNATIONAL AIRPORT","Latitude":"44.79780","Longitude":"-68.81840","Snowdepth":"7.000","Units":"in","Rept_Date":"2021-01-06 12"},"coordinates":[6834,5700]},{"type":"Point","properties":{"Station_ID":"ANJM4","Station_Nam":"SNOW PAID OBSERVER FOR KANJ","Latitude":"46.48670","Longitude":"-84.40260","Snowdepth":"7.000","Units":"in","Rept_Date":"2021-01-06 18"},"coordinates":[3086,6748]},{"type":"Point","properties":{"Station_ID":"ANJ","Station_Nam":"SAULT STE MARIE","Latitude":"46.46670","Longitude":"-84.36670","Snowdepth":"7.000","Units":"in","Rept_Date":"2021-01-07 00"},"coordinates":[3095,6735]},{"type":"Point","properties":{"Station_ID":"AFTW3","Station_Nam":"ROCK RIVER","Latitude":"42.61670","Longitude":"-89.06670","Snowdepth":"7.000","Units":"in","Rept_Date":"2021-01-06 13"},"coordinates":[1965,4347]},{"type":"Point","properties":{"Station_ID":"QCX","Station_Nam":"QCX","Latitude":"51.32830","Longitude":"-70.08060","Snowdepth":"6.929","Units":"in","Rept_Date":"2021-01-06 12"},"coordinates":[6530,9752]},{"type":"Point","properties":{"Station_ID":"HPN02_MADIS","Station_Nam":"MAPLE GROVE","Latitude":"45.11820","Longitude":"-93.42830","Snowdepth":"6.800","Units":"in","Rept_Date":"2021-01-07 06"},"coordinates":[916,5899]},{"type":"Point","properties":{"Station_ID":"CAN-PE-7","Station_Nam":"MORELL 1.4 NNW, CA","Latitude":"46.42741","Longitude":"-62.70870","Snowdepth":"6.800","Units":"in","Rept_Date":"2021-01-06 12"},"coordinates":[8303,6711]},{"type":"Point","properties":{"Station_ID":"WI-JF-24","Station_Nam":"LAC LABELLE 1.2 SW, WI","Latitude":"43.13126","Longitude":"-88.53959","Snowdepth":"6.700","Units":"in","Rept_Date":"2021-01-06 12"},"coordinates":[2092,4666]},{"type":"Point","properties":{"Station_ID":"CAN-NB-105","Station_Nam":"SISSON BROOK 3.8 E, CAN","Latitude":"46.98305","Longitude":"-67.32532","Snowdepth":"6.700","Units":"in","Rept_Date":"2021-01-06 12"},"coordinates":[7193,7056]},{"type":"Point","properties":{"Station_ID":"WI-OZ-22","Station_Nam":"SAUKVILLE 0.9 SSW, WI","Latitude":"43.37254","Longitude":"-87.95009","Snowdepth":"6.500","Units":"in","Rept_Date":"2021-01-06 13"},"coordinates":[2233,4816]},{"type":"Point","properties":{"Station_ID":"WI-MW-14","Station_Nam":"MILWAUKEE 3.6 NNW, WI","Latitude":"43.11300","Longitude":"-87.98730","Snowdepth":"6.500","Units":"in","Rept_Date":"2021-01-06 11"},"coordinates":[2224,4655]},{"type":"Point","properties":{"Station_ID":"WI-JF-10","Station_Nam":"PALMYRA 1.5 N, WI","Latitude":"42.90084","Longitude":"-88.58620","Snowdepth":"6.500","Units":"in","Rept_Date":"2021-01-06 13"},"coordinates":[2080,4523]},{"type":"Point","properties":{"Station_ID":"VT-WS-10","Station_Nam":"NORTHFIELD 1.5 N, VT","Latitude":"44.16986","Longitude":"-72.65200","Snowdepth":"6.500","Units":"in","Rept_Date":"2021-01-06 12"},"coordinates":[5912,5310]},{"type":"Point","properties":{"Station_ID":"VT-WR-2","Station_Nam":"POMFRET 2.6 N, VT","Latitude":"43.74230","Longitude":"-72.52550","Snowdepth":"6.500","Units":"in","Rept_Date":"2021-01-06 12"},"coordinates":[5942,5045]},{"type":"Point","properties":{"Station_ID":"NY-DL-23","Station_Nam":"LONG EDDY 6.5 NNE, NY","Latitude":"41.93510","Longitude":"-75.07840","Snowdepth":"6.500","Units":"in","Rept_Date":"2021-01-06 13"},"coordinates":[5328,3924]},{"type":"Point","properties":{"Station_ID":"NH-CR-15","Station_Nam":"JACKSON 3.7 NW, NH","Latitude":"44.19069","Longitude":"-71.22598","Snowdepth":"6.500","Units":"in","Rept_Date":"2021-01-06 12"},"coordinates":[6255,5323]},{"type":"Point","properties":{"Station_ID":"NH-CR-11","Station_Nam":"NORTH CONWAY 1.4 SSW, NH","Latitude":"44.03556","Longitude":"-71.14010","Snowdepth":"6.500","Units":"in","Rept_Date":"2021-01-06 12"},"coordinates":[6275,5227]},{"type":"Point","properties":{"Station_ID":"MN-RM-120","Station_Nam":"MAPLEWOOD 5.6 SSE, MN","Latitude":"44.90588","Longitude":"-92.99712","Snowdepth":"6.500","Units":"in","Rept_Date":"2021-01-06 15"},"coordinates":[1020,5767]},{"type":"Point","properties":{"Station_ID":"MN-IT-1","Station_Nam":"GRAND RAPIDS 2.0 E, MN","Latitude":"47.22266","Longitude":"-93.49600","Snowdepth":"6.500","Units":"in","Rept_Date":"2021-01-06 14"},"coordinates":[900,7204]},{"type":"Point","properties":{"Station_ID":"ME-WL-8","Station_Nam":"WINTERPORT 2.9 N, ME","Latitude":"44.69369","Longitude":"-68.84800","Snowdepth":"6.500","Units":"in","Rept_Date":"2021-01-06 12"},"coordinates":[6826,5635]},{"type":"Point","properties":{"Station_ID":"ME-SM-45","Station_Nam":"BRIGHTON PLANTATION 2.1 N, ME","Latitude":"45.07098","Longitude":"-69.69860","Snowdepth":"6.500","Units":"in","Rept_Date":"2021-01-06 12"},"coordinates":[6622,5869]},{"type":"Point","properties":{"Station_ID":"ME-PN-47","Station_Nam":"MILFORD 0.8 SSW, ME","Latitude":"44.94108","Longitude":"-68.64154","Snowdepth":"6.500","Units":"in","Rept_Date":"2021-01-06 12"},"coordinates":[6876,5789]},{"type":"Point","properties":{"Station_ID":"ME-PN-43","Station_Nam":"ORONO 0.9 NE, ME","Latitude":"44.89261","Longitude":"-68.66903","Snowdepth":"6.500","Units":"in","Rept_Date":"2021-01-06 12"},"coordinates":[6869,5759]},{"type":"Point","properties":{"Station_ID":"IA-LS-5","Station_Nam":"WAPELLO 5.4 SE, IA","Latitude":"41.11441","Longitude":"-91.13017","Snowdepth":"6.500","Units":"in","Rept_Date":"2021-01-06 13"},"coordinates":[1469,3415]},{"type":"Point","properties":{"Station_ID":"IA-JH-1","Station_Nam":"SOLON 0.3 ESE, IA","Latitude":"41.80398","Longitude":"-91.48910","Snowdepth":"6.500","Units":"in","Rept_Date":"2021-01-06 13"},"coordinates":[1382,3842]},{"type":"Point","properties":{"Station_ID":"CAN-QC-51","Station_Nam":"BELOEIL 0.7 NW, CAN","Latitude":"45.58049","Longitude":"-73.21218","Snowdepth":"6.500","Units":"in","Rept_Date":"2021-01-06 12"},"coordinates":[5777,6186]},{"type":"Point","properties":{"Station_ID":"CAN-PE-47","Station_Nam":"LONG CREEK 0.3 NNW, CAN","Latitude":"46.17420","Longitude":"-63.27320","Snowdepth":"6.500","Units":"in","Rept_Date":"2021-01-06 12"},"coordinates":[8167,6554]},{"type":"Point","properties":{"Station_ID":"CAN-ON-771","Station_Nam":"KENORA 8.7 NNE - CANWARN, CAN","Latitude":"49.84171","Longitude":"-94.44386","Snowdepth":"6.500","Units":"in","Rept_Date":"2021-01-06 13"},"coordinates":[672,8829]},{"type":"Point","properties":{"Station_ID":"VT-CL-23","Station_Nam":"RYEGATE 1.5 N, VT","Latitude":"44.23024","Longitude":"-72.10523","Snowdepth":"6.400","Units":"in","Rept_Date":"2021-01-06 12"},"coordinates":[6043,5348]},{"type":"Point","properties":{"Station_ID":"CAN-NB-1","Station_Nam":"FREDERICTON 4.0 SSE, CA","Latitude":"45.92897","Longitude":"-66.62830","Snowdepth":"6.300","Units":"in","Rept_Date":"2021-01-06 12"},"coordinates":[7360,6402]},{"type":"Point","properties":{"Station_ID":"QLP","Station_Nam":"QLP","Latitude":"48.13920","Longitude":"-72.63830","Snowdepth":"6.220","Units":"in","Rept_Date":"2021-01-06 12"},"coordinates":[5915,7773]},{"type":"Point","properties":{"Station_ID":"ME-SM-10","Station_Nam":"NORTH NEW PORTLAND 0.3 WSW, ME","Latitude":"44.92353","Longitude":"-70.02788","Snowdepth":"6.200","Units":"in","Rept_Date":"2021-01-06 12"},"coordinates":[6543,5778]},{"type":"Point","properties":{"Station_ID":"IL-CK-288","Station_Nam":"ROSELLE 0.8 N, IL","Latitude":"41.99255","Longitude":"-88.08422","Snowdepth":"6.200","Units":"in","Rept_Date":"2021-01-06 13"},"coordinates":[2201,3959]},{"type":"Point","properties":{"Station_ID":"WSHI4","Station_Nam":"WASHINGTON","Latitude":"41.28240","Longitude":"-91.70780","Snowdepth":"6.000","Units":"in","Rept_Date":"2021-01-06 13"},"coordinates":[1330,3519]},{"type":"Point","properties":{"Station_ID":"WRUM5","Station_Nam":"WARROAD 4W","Latitude":"48.89600","Longitude":"-95.40700","Snowdepth":"6.000","Units":"in","Rept_Date":"2021-01-07 04"},"coordinates":[440,8243]},{"type":"Point","properties":{"Station_ID":"WRTS2","Station_Nam":"WATERTOWN,SD","Latitude":"44.90280","Longitude":"-97.11360","Snowdepth":"6.000","Units":"in","Rept_Date":"2021-01-06 15"},"coordinates":[30,5765]},{"type":"Point","properties":{"Station_ID":"WLLP1","Station_Nam":"WELLSBORO 4 SW","Latitude":"41.70030","Longitude":"-77.38940","Snowdepth":"6.000","Units":"in","Rept_Date":"2021-01-06 12"},"coordinates":[4773,3778]},{"type":"Point","properties":{"Station_ID":"WI-WS-5","Station_Nam":"JACKSON 0.2 WSW, WI","Latitude":"43.32007","Longitude":"-88.16820","Snowdepth":"6.000","Units":"in","Rept_Date":"2021-01-06 12"},"coordinates":[2181,4783]},{"type":"Point","properties":{"Station_ID":"WI-WK-60","Station_Nam":"OCONOMOWOC 2.3 WSW, WI","Latitude":"43.08753","Longitude":"-88.53749","Snowdepth":"6.000","Units":"in","Rept_Date":"2021-01-06 23"},"coordinates":[2092,4639]},{"type":"Point","properties":{"Station_ID":"WI-RS-1","Station_Nam":"LADYSMITH 2.8 WNW, WI","Latitude":"45.48180","Longitude":"-91.14680","Snowdepth":"6.000","Units":"in","Rept_Date":"2021-01-06 13"},"coordinates":[1465,6124]},{"type":"Point","properties":{"Station_ID":"WI-PC-10","Station_Nam":"RIVER FALLS 1.4 S, WI","Latitude":"44.83580","Longitude":"-92.62100","Snowdepth":"6.000","Units":"in","Rept_Date":"2021-01-06 13"},"coordinates":[1110,5724]},{"type":"Point","properties":{"Station_ID":"WI-OZ-12","Station_Nam":"PORT WASHINGTON 0.5 S, WI","Latitude":"43.38610","Longitude":"-87.87900","Snowdepth":"6.000","Units":"in","Rept_Date":"2021-01-06 13"},"coordinates":[2250,4824]},{"type":"Point","properties":{"Station_ID":"WI-BR-2","Station_Nam":"CHETEK 2.0 SE, WI","Latitude":"45.29427","Longitude":"-91.62470","Snowdepth":"6.000","Units":"in","Rept_Date":"2021-01-06 13"},"coordinates":[1350,6008]},{"type":"Point","properties":{"Station_ID":"WHFN6","Station_Nam":"WILMINGTON 2W","Latitude":"44.39310","Longitude":"-73.85890","Snowdepth":"6.000","Units":"in","Rept_Date":"2021-01-06 13"},"coordinates":[5622,5449]},{"type":"Point","properties":{"Station_ID":"WELM5","Station_Nam":"WELLS","Latitude":"43.74680","Longitude":"-93.73680","Snowdepth":"6.000","Units":"in","Rept_Date":"2021-01-06 14"},"coordinates":[842,5048]},{"type":"Point","properties":{"Station_ID":"WBRM4","Station_Nam":"WEST BRANCH 3SE","Latitude":"44.25410","Longitude":"-84.20110","Snowdepth":"6.000","Units":"in","Rept_Date":"2021-01-06 13"},"coordinates":[3135,5363]},{"type":"Point","properties":{"Station_ID":"WAIV1","Station_Nam":"WAITSFIELD","Latitude":"44.17560","Longitude":"-72.79610","Snowdepth":"6.000","Units":"in","Rept_Date":"2021-01-06 12"},"coordinates":[5877,5314]},{"type":"Point","properties":{"Station_ID":"VT-WS-11","Station_Nam":"WAITSFIELD 1.8 SE, VT","Latitude":"44.17551","Longitude":"-72.79540","Snowdepth":"6.000","Units":"in","Rept_Date":"2021-01-06 12"},"coordinates":[5877,5314]},{"type":"Point","properties":{"Station_ID":"VT-OL-25","Station_Nam":"NEWPORT 1.5 WSW, VT","Latitude":"44.93059","Longitude":"-72.23731","Snowdepth":"6.000","Units":"in","Rept_Date":"2021-01-06 12"},"coordinates":[6011,5782]},{"type":"Point","properties":{"Station_ID":"VT-CL-18","Station_Nam":"WHEELOCK 1.6 S, VT","Latitude":"44.56491","Longitude":"-72.08830","Snowdepth":"6.000","Units":"in","Rept_Date":"2021-01-06 12"},"coordinates":[6047,5555]},{"type":"Point","properties":{"Station_ID":"VT-BN-3","Station_Nam":"LANDGROVE 1.1 NNE, VT","Latitude":"43.29092","Longitude":"-72.83260","Snowdepth":"6.000","Units":"in","Rept_Date":"2021-01-06 13"},"coordinates":[5868,4765]},{"type":"Point","properties":{"Station_ID":"SWCP1","Station_Nam":"BURNWOOD SNOW","Latitude":"41.78330","Longitude":"-75.51670","Snowdepth":"6.000","Units":"in","Rept_Date":"2021-01-06 13"},"coordinates":[5223,3830]},{"type":"Point","properties":{"Station_ID":"STMM4","Station_Nam":"STAMBAUGH 2SSE","Latitude":"46.05550","Longitude":"-88.62780","Snowdepth":"6.000","Units":"in","Rept_Date":"2021-01-06 13"},"coordinates":[2070,6480]},{"type":"Point","properties":{"Station_ID":"STGW3","Station_Nam":"ST GERMAIN","Latitude":"45.91550","Longitude":"-89.48940","Snowdepth":"6.000","Units":"in","Rept_Date":"2021-01-06 12"},"coordinates":[1863,6393]},{"type":"Point","properties":{"Station_ID":"SJBV1","Station_Nam":"SAINT JOHNSBURY","Latitude":"44.42000","Longitude":"-72.01940","Snowdepth":"6.000","Units":"in","Rept_Date":"2021-01-06 21"},"coordinates":[6064,5466]},{"type":"Point","properties":{"Station_ID":"ROWM3","Station_Nam":"ROWE 3NE","Latitude":"42.73500","Longitude":"-72.86920","Snowdepth":"6.000","Units":"in","Rept_Date":"2021-01-06 12"},"coordinates":[5860,4420]},{"type":"Point","properties":{"Station_ID":"RCKI2","Station_Nam":"MISSISSIPPI RIVER","Latitude":"41.51670","Longitude":"-90.56670","Snowdepth":"6.000","Units":"in","Rept_Date":"2021-01-07 06"},"coordinates":[1604,3664]},{"type":"Point","properties":{"Station_ID":"RCHW3","Station_Nam":"RICHRIELD,WI","Latitude":"43.21080","Longitude":"-88.20940","Snowdepth":"6.000","Units":"in","Rept_Date":"2021-01-06 12"},"coordinates":[2171,4715]},{"type":"Point","properties":{"Station_ID":"RARM4","Station_Nam":"RAPID RIVER 1 SW","Latitude":"45.91500","Longitude":"-86.98800","Snowdepth":"6.000","Units":"in","Rept_Date":"2021-01-06 12"},"coordinates":[2465,6393]},{"type":"Point","properties":{"Station_ID":"QCAI2","Station_Nam":"MOLINE SNOW","Latitude":"41.39990","Longitude":"-90.54800","Snowdepth":"6.000","Units":"in","Rept_Date":"2021-01-07 00"},"coordinates":[1609,3592]},{"type":"Point","properties":{"Station_ID":"PRDM4","Station_Nam":"PARADISE","Latitude":"46.60380","Longitude":"-85.03960","Snowdepth":"6.000","Units":"in","Rept_Date":"2021-01-06 11"},"coordinates":[2933,6820]},{"type":"Point","properties":{"Station_ID":"PORW3","Station_Nam":"PORTAGE,WI","Latitude":"43.53190","Longitude":"-89.43780","Snowdepth":"6.000","Units":"in","Rept_Date":"2021-01-06 14"},"coordinates":[1876,4915]},{"type":"Point","properties":{"Station_ID":"PLFV1","Station_Nam":"PLAINFIELD","Latitude":"44.27610","Longitude":"-72.41500","Snowdepth":"6.000","Units":"in","Rept_Date":"2021-01-06 12"},"coordinates":[5969,5376]},{"type":"Point","properties":{"Station_ID":"PBAN8","Station_Nam":"SITE 1-3MI.N","Latitude":"48.97420","Longitude":"-97.23860","Snowdepth":"6.000","Units":"in","Rept_Date":"2021-01-06 13"},"coordinates":[0,8291]},{"type":"Point","properties":{"Station_ID":"NY-HM-10","Station_Nam":"LAKE PLEASANT 2.3 WSW, NY","Latitude":"43.45490","Longitude":"-74.45287","Snowdepth":"6.000","Units":"in","Rept_Date":"2021-01-06 12"},"coordinates":[5479,4867]},{"type":"Point","properties":{"Station_ID":"NY-DL-28","Station_Nam":"FLEISCHMANNS 5.7 N, NY","Latitude":"42.23779","Longitude":"-74.52335","Snowdepth":"6.000","Units":"in","Rept_Date":"2021-01-06 12"},"coordinates":[5462,4112]},{"type":"Point","properties":{"Station_ID":"NWSM1","Station_Nam":"NEW SHARON","Latitude":"44.63520","Longitude":"-70.00020","Snowdepth":"6.000","Units":"in","Rept_Date":"2021-01-06 12"},"coordinates":[6549,5599]},{"type":"Point","properties":{"Station_ID":"NUMN3","Station_Nam":"NORTHUMBERLAND","Latitude":"44.52830","Longitude":"-71.50440","Snowdepth":"6.000","Units":"in","Rept_Date":"2021-01-06 12"},"coordinates":[6188,5533]},{"type":"Point","properties":{"Station_ID":"NUMM5","Station_Nam":"NEW ULM 3SE","Latitude":"44.29450","Longitude":"-94.40840","Snowdepth":"6.000","Units":"in","Rept_Date":"2021-01-06 12"},"coordinates":[681,5388]},{"type":"Point","properties":{"Station_ID":"NH-MR-4","Station_Nam":"BOW 1.6 NW, NH","Latitude":"43.14994","Longitude":"-71.55650","Snowdepth":"6.000","Units":"in","Rept_Date":"2021-01-06 12"},"coordinates":[6175,4678]},{"type":"Point","properties":{"Station_ID":"NH-CR-41","Station_Nam":"ALBANY 2.8 SW, NH","Latitude":"43.92648","Longitude":"-71.21556","Snowdepth":"6.000","Units":"in","Rept_Date":"2021-01-06 13"},"coordinates":[6257,5159]},{"type":"Point","properties":{"Station_ID":"ND-CS-45","Station_Nam":"FARGO 3.6 NNE, ND","Latitude":"46.92599","Longitude":"-96.79321","Snowdepth":"6.000","Units":"in","Rept_Date":"2021-01-06 13"},"coordinates":[107,7020]},{"type":"Point","properties":{"Station_ID":"NCON3","Station_Nam":"NORTH CONWAY","Latitude":"44.05620","Longitude":"-71.12970","Snowdepth":"6.000","Units":"in","Rept_Date":"2021-01-06 13"},"coordinates":[6278,5240]},{"type":"Point","properties":{"Station_ID":"MYOM4","Station_Nam":"MIO WWTP","Latitude":"44.64660","Longitude":"-84.11580","Snowdepth":"6.000","Units":"in","Rept_Date":"2021-01-06 13"},"coordinates":[3155,5606]},{"type":"Point","properties":{"Station_ID":"MWTM1","Station_Nam":"MILLINOCKET WWTP","Latitude":"45.64030","Longitude":"-68.67480","Snowdepth":"6.000","Units":"in","Rept_Date":"2021-01-06 11"},"coordinates":[6868,6223]},{"type":"Point","properties":{"Station_ID":"MSTI4","Station_Nam":"MUSCATINE 2N","Latitude":"41.47130","Longitude":"-91.04630","Snowdepth":"6.000","Units":"in","Rept_Date":"2021-01-06 13"},"coordinates":[1489,3636]},{"type":"Point","properties":{"Station_ID":"MSN","Station_Nam":"MADISON DANE COUNTY RGNL","Latitude":"43.13970","Longitude":"-89.33750","Snowdepth":"6.000","Units":"in","Rept_Date":"2021-01-07 00"},"coordinates":[1900,4671]},{"type":"Point","properties":{"Station_ID":"MN-SH-10","Station_Nam":"BIG LAKE 5.6 NNE, MN","Latitude":"45.41409","Longitude":"-93.69190","Snowdepth":"6.000","Units":"in","Rept_Date":"2021-01-06 13"},"coordinates":[853,6082]},{"type":"Point","properties":{"Station_ID":"MN-SE-2","Station_Nam":"OWATONNA 0.8 E, MN","Latitude":"44.09170","Longitude":"-93.21380","Snowdepth":"6.000","Units":"in","Rept_Date":"2021-01-06 13"},"coordinates":[968,5262]},{"type":"Point","properties":{"Station_ID":"MN-MR-4","Station_Nam":"LITTLE FALLS 1.2 SW, MN","Latitude":"45.96886","Longitude":"-94.37720","Snowdepth":"6.000","Units":"in","Rept_Date":"2021-01-06 13"},"coordinates":[688,6427]},{"type":"Point","properties":{"Station_ID":"MN-MR-13","Station_Nam":"LITTLE FALLS 8.0 NE, MN","Latitude":"46.06785","Longitude":"-94.24789","Snowdepth":"6.000","Units":"in","Rept_Date":"2021-01-06 13"},"coordinates":[719,6488]},{"type":"Point","properties":{"Station_ID":"MN-IT-17","Station_Nam":"GRAND RAPIDS 6.1 N, MN","Latitude":"47.31165","Longitude":"-93.55036","Snowdepth":"6.000","Units":"in","Rept_Date":"2021-01-06 13"},"coordinates":[887,7260]},{"type":"Point","properties":{"Station_ID":"MN-HN-240","Station_Nam":"BLOOMINGTON 3.1 E, MN","Latitude":"44.83704","Longitude":"-93.25318","Snowdepth":"6.000","Units":"in","Rept_Date":"2021-01-06 13"},"coordinates":[958,5724]},{"type":"Point","properties":{"Station_ID":"MN-DK-53","Station_Nam":"LAKEVILLE 3.8 ENE, MN","Latitude":"44.70423","Longitude":"-93.18460","Snowdepth":"6.000","Units":"in","Rept_Date":"2021-01-06 13"},"coordinates":[975,5642]},{"type":"Point","properties":{"Station_ID":"MN-CV-8","Station_Nam":"WATERTOWN 0.5 NNW, MN","Latitude":"44.96631","Longitude":"-93.84890","Snowdepth":"6.000","Units":"in","Rept_Date":"2021-01-06 10"},"coordinates":[815,5804]},{"type":"Point","properties":{"Station_ID":"MN-BK-10","Station_Nam":"DETROIT LAKES 5.7 N, MN","Latitude":"46.88666","Longitude":"-95.84444","Snowdepth":"6.000","Units":"in","Rept_Date":"2021-01-06 10"},"coordinates":[335,6996]},{"type":"Point","properties":{"Station_ID":"MLI","Station_Nam":"QUAD CITY INTL","Latitude":"41.44860","Longitude":"-90.50750","Snowdepth":"6.000","Units":"in","Rept_Date":"2021-01-07 00"},"coordinates":[1618,3622]},{"type":"Point","properties":{"Station_ID":"MLCM5","Station_Nam":"MILACA","Latitude":"45.75320","Longitude":"-93.66170","Snowdepth":"6.000","Units":"in","Rept_Date":"2021-01-06 13"},"coordinates":[860,6293]},{"type":"Point","properties":{"Station_ID":"MI-OT-4","Station_Nam":"GAYLORD 1.7 WNW, MI","Latitude":"45.03280","Longitude":"-84.71090","Snowdepth":"6.000","Units":"in","Rept_Date":"2021-01-06 13"},"coordinates":[3012,5846]},{"type":"Point","properties":{"Station_ID":"MI-OT-16","Station_Nam":"GAYLORD 2.2 SSE, MI","Latitude":"44.99441","Longitude":"-84.65820","Snowdepth":"6.000","Units":"in","Rept_Date":"2021-01-06 14"},"coordinates":[3025,5822]},{"type":"Point","properties":{"Station_ID":"MI-MQ-19","Station_Nam":"ISHPEMING 7.2 SW, MI","Latitude":"46.40550","Longitude":"-87.75670","Snowdepth":"6.000","Units":"in","Rept_Date":"2021-01-06 11"},"coordinates":[2280,6697]},{"type":"Point","properties":{"Station_ID":"ME-WL-27","Station_Nam":"PROSPECT 2.6 W, ME","Latitude":"44.55719","Longitude":"-68.91732","Snowdepth":"6.000","Units":"in","Rept_Date":"2021-01-06 12"},"coordinates":[6810,5551]},{"type":"Point","properties":{"Station_ID":"ME-SM-4","Station_Nam":"SOLON 3.9 ESE, ME","Latitude":"44.94705","Longitude":"-69.77790","Snowdepth":"6.000","Units":"in","Rept_Date":"2021-01-06 12"},"coordinates":[6603,5793]},{"type":"Point","properties":{"Station_ID":"ME-OX-26","Station_Nam":"OXFORD 5.3 SW, ME","Latitude":"44.09787","Longitude":"-70.59612","Snowdepth":"6.000","Units":"in","Rept_Date":"2021-01-06 12"},"coordinates":[6406,5266]},{"type":"Point","properties":{"Station_ID":"ME-OX-2","Station_Nam":"HARTFORD 1.4 N, ME","Latitude":"44.39318","Longitude":"-70.34760","Snowdepth":"6.000","Units":"in","Rept_Date":"2021-01-06 12"},"coordinates":[6466,5449]},{"type":"Point","properties":{"Station_ID":"ME-FR-4","Station_Nam":"NEW SHARON 2.0 NW, ME","Latitude":"44.66582","Longitude":"-70.02720","Snowdepth":"6.000","Units":"in","Rept_Date":"2021-01-06 12"},"coordinates":[6543,5618]},{"type":"Point","properties":{"Station_ID":"ME-FR-22","Station_Nam":"FARMINGTON 4.8 NNW, ME","Latitude":"44.73396","Longitude":"-70.18007","Snowdepth":"6.000","Units":"in","Rept_Date":"2021-01-06 14"},"coordinates":[6506,5660]},{"type":"Point","properties":{"Station_ID":"ME-AR-15","Station_Nam":"PRESQUE ISLE 1.3 WSW, ME","Latitude":"46.67960","Longitude":"-68.01270","Snowdepth":"6.000","Units":"in","Rept_Date":"2021-01-06 12"},"coordinates":[7027,6867]},{"type":"Point","properties":{"Station_ID":"LVDW3","Station_Nam":"LAC VIEUX DESERT","Latitude":"46.12110","Longitude":"-89.07580","Snowdepth":"6.000","Units":"in","Rept_Date":"2021-01-06 15"},"coordinates":[1963,6521]},{"type":"Point","properties":{"Station_ID":"LODW3","Station_Nam":"LODI","Latitude":"43.32170","Longitude":"-89.53110","Snowdepth":"6.000","Units":"in","Rept_Date":"2021-01-06 13"},"coordinates":[1853,4784]},{"type":"Point","properties":{"Station_ID":"LNGM5","Station_Nam":"LONG PRAIRIE","Latitude":"45.96460","Longitude":"-94.88920","Snowdepth":"6.000","Units":"in","Rept_Date":"2021-01-06 12"},"coordinates":[565,6424]},{"type":"Point","properties":{"Station_ID":"LKMW3","Station_Nam":"LAKE MILLS,WI","Latitude":"43.06670","Longitude":"-88.91220","Snowdepth":"6.000","Units":"in","Rept_Date":"2021-01-06 12"},"coordinates":[2002,4626]},{"type":"Point","properties":{"Station_ID":"LBRM5","Station_Nam":"LAKE BRONSON DAM","Latitude":"48.72410","Longitude":"-96.62180","Snowdepth":"6.000","Units":"in","Rept_Date":"2021-01-06 14"},"coordinates":[148,8136]},{"type":"Point","properties":{"Station_ID":"KMSN","Station_Nam":"MADISON DANE COUNTY RGNL","Latitude":"43.13333","Longitude":"-89.35000","Snowdepth":"6.000","Units":"in","Rept_Date":"2021-01-07 06"},"coordinates":[1897,4667]},{"type":"Point","properties":{"Station_ID":"KBGR","Station_Nam":"BANGOR INTL AIRPORT","Latitude":"44.80000","Longitude":"-68.81666","Snowdepth":"6.000","Units":"in","Rept_Date":"2021-01-07 06"},"coordinates":[6834,5701]},{"type":"Point","properties":{"Station_ID":"JFNW3","Station_Nam":"JEFFERSON - WWTP","Latitude":"42.99470","Longitude":"-88.80390","Snowdepth":"6.000","Units":"in","Rept_Date":"2021-01-06 13"},"coordinates":[2028,4581]},{"type":"Point","properties":{"Station_ID":"JEFV1","Station_Nam":"JEFFERSONVILLE","Latitude":"44.58430","Longitude":"-72.78700","Snowdepth":"6.000","Units":"in","Rept_Date":"2021-01-06 12"},"coordinates":[5879,5567]},{"type":"Point","properties":{"Station_ID":"JACW3","Station_Nam":"JACKSON","Latitude":"43.31940","Longitude":"-88.16810","Snowdepth":"6.000","Units":"in","Rept_Date":"2021-01-06 12"},"coordinates":[2181,4783]},{"type":"Point","properties":{"Station_ID":"ISLV1","Station_Nam":"ISLAND POND","Latitude":"44.81280","Longitude":"-71.89020","Snowdepth":"6.000","Units":"in","Rept_Date":"2021-01-06 14"},"coordinates":[6095,5709]},{"type":"Point","properties":{"Station_ID":"INDN6","Station_Nam":"INDIAN LAKE","Latitude":"43.75500","Longitude":"-74.27560","Snowdepth":"6.000","Units":"in","Rept_Date":"2021-01-06 14"},"coordinates":[5521,5053]},{"type":"Point","properties":{"Station_ID":"IL-HY-5","Station_Nam":"COAL VALLEY 1.9 SE, IL","Latitude":"41.43339","Longitude":"-90.41750","Snowdepth":"6.000","Units":"in","Rept_Date":"2021-01-06 13"},"coordinates":[1640,3613]},{"type":"Point","properties":{"Station_ID":"HRTM1","Station_Nam":"HARTFORD","Latitude":"44.37440","Longitude":"-70.31620","Snowdepth":"6.000","Units":"in","Rept_Date":"2021-01-06 12"},"coordinates":[6473,5437]},{"type":"Point","properties":{"Station_ID":"GTTI4","Station_Nam":"LOCK & DAM 10","Latitude":"42.78580","Longitude":"-91.09970","Snowdepth":"6.000","Units":"in","Rept_Date":"2021-01-06 14"},"coordinates":[1476,4452]},{"type":"Point","properties":{"Station_ID":"GLAM4","Station_Nam":"GLADWIN","Latitude":"43.97580","Longitude":"-84.49080","Snowdepth":"6.000","Units":"in","Rept_Date":"2021-01-06 12"},"coordinates":[3065,5190]},{"type":"Point","properties":{"Station_ID":"GIBW3","Station_Nam":"GIBBSVILLE,WI","Latitude":"43.65670","Longitude":"-87.81170","Snowdepth":"6.000","Units":"in","Rept_Date":"2021-01-06 13"},"coordinates":[2267,4992]},{"type":"Point","properties":{"Station_ID":"GAYM4","Station_Nam":"GAYLORD","Latitude":"45.03320","Longitude":"-84.71130","Snowdepth":"6.000","Units":"in","Rept_Date":"2021-01-06 13"},"coordinates":[3012,5846]},{"type":"Point","properties":{"Station_ID":"GATW3","Station_Nam":"GRAFTON WWTP","Latitude":"43.30810","Longitude":"-87.95530","Snowdepth":"6.000","Units":"in","Rept_Date":"2021-01-06 13"},"coordinates":[2232,4776]},{"type":"Point","properties":{"Station_ID":"FARM1","Station_Nam":"FARMINGTON","Latitude":"44.68930","Longitude":"-70.15640","Snowdepth":"6.000","Units":"in","Rept_Date":"2021-01-06 12"},"coordinates":[6512,5633]},{"type":"Point","properties":{"Station_ID":"EZBI2","Station_Nam":"ELIZABETH","Latitude":"42.31620","Longitude":"-90.22690","Snowdepth":"6.000","Units":"in","Rept_Date":"2021-01-06 12"},"coordinates":[1686,4160]},{"type":"Point","properties":{"Station_ID":"EVRW3","Station_Nam":"EAGLE RIVER-4 E","Latitude":"45.91890","Longitude":"-89.15280","Snowdepth":"6.000","Units":"in","Rept_Date":"2021-01-06 13"},"coordinates":[1944,6396]},{"type":"Point","properties":{"Station_ID":"EGRW3","Station_Nam":"EAGLE RIVER-SOUTH","Latitude":"45.91360","Longitude":"-89.24360","Snowdepth":"6.000","Units":"in","Rept_Date":"2021-01-06 13"},"coordinates":[1922,6392]},{"type":"Point","properties":{"Station_ID":"DLNW3","Station_Nam":"WALWORTH COUNTYMETROPOLITAN SEWERAGE DISTRICT (DELEVAN)","Latitude":"42.63440","Longitude":"-88.66280","Snowdepth":"6.000","Units":"in","Rept_Date":"2021-01-06 14"},"coordinates":[2062,4358]},{"type":"Point","properties":{"Station_ID":"DLDI4","Station_Nam":"MISSISSIPPI RIVER","Latitude":"42.51670","Longitude":"-90.65000","Snowdepth":"6.000","Units":"in","Rept_Date":"2021-01-06 12"},"coordinates":[1584,4285]},{"type":"Point","properties":{"Station_ID":"CRPI4","Station_Nam":"CEDAR RAPIDS NO 1","Latitude":"42.05000","Longitude":"-91.58810","Snowdepth":"6.000","Units":"in","Rept_Date":"2021-01-06 23"},"coordinates":[1359,3995]},{"type":"Point","properties":{"Station_ID":"CRLM5","Station_Nam":"CROSS LAKE DAM","Latitude":"46.66930","Longitude":"-94.11060","Snowdepth":"6.000","Units":"in","Rept_Date":"2021-01-06 14"},"coordinates":[752,6861]},{"type":"Point","properties":{"Station_ID":"CLNI4","Station_Nam":"CLINTON NO 1","Latitude":"41.79470","Longitude":"-90.26390","Snowdepth":"6.000","Units":"in","Rept_Date":"2021-01-07 00"},"coordinates":[1677,3837]},{"type":"Point","properties":{"Station_ID":"CAN-NB-13","Station_Nam":"BATHURST 3.8 NW, CAN","Latitude":"47.64212","Longitude":"-65.68756","Snowdepth":"6.000","Units":"in","Rept_Date":"2021-01-06 11"},"coordinates":[7586,7465]},{"type":"Point","properties":{"Station_ID":"BRKI4","Station_Nam":"BROOKLYN,IA","Latitude":"41.72830","Longitude":"-92.43330","Snowdepth":"6.000","Units":"in","Rept_Date":"2021-01-06 13"},"coordinates":[1155,3796]},{"type":"Point","properties":{"Station_ID":"BRAM5","Station_Nam":"BRAINERD","Latitude":"46.34320","Longitude":"-94.20900","Snowdepth":"6.000","Units":"in","Rept_Date":"2021-01-06 13"},"coordinates":[728,6659]},{"type":"Point","properties":{"Station_ID":"BKEM5","Station_Nam":"BRECKENRIDGE 4NE","Latitude":"46.30470","Longitude":"-96.52170","Snowdepth":"6.000","Units":"in","Rept_Date":"2021-01-06 13"},"coordinates":[172,6635]},{"type":"Point","properties":{"Station_ID":"BGTW3","Station_Nam":"SEWAGE DISPOSAL PLANT","Latitude":"42.68330","Longitude":"-88.20000","Snowdepth":"6.000","Units":"in","Rept_Date":"2021-01-06 12"},"coordinates":[2173,4388]},{"type":"Point","properties":{"Station_ID":"BGRM1","Station_Nam":"BANGOR FSS","Latitude":"44.80440","Longitude":"-68.81330","Snowdepth":"6.000","Units":"in","Rept_Date":"2021-01-07 06"},"coordinates":[6835,5704]},{"type":"Point","properties":{"Station_ID":"BFDW3","Station_Nam":"BROOKFIELD","Latitude":"43.05390","Longitude":"-88.17640","Snowdepth":"6.000","Units":"in","Rept_Date":"2021-01-06 14"},"coordinates":[2179,4618]},{"type":"Point","properties":{"Station_ID":"BETM1","Station_Nam":"BETHEL 6 SSE","Latitude":"44.32000","Longitude":"-70.75680","Snowdepth":"6.000","Units":"in","Rept_Date":"2021-01-06 12"},"coordinates":[6367,5404]},{"type":"Point","properties":{"Station_ID":"BBDW3","Station_Nam":"BIG BEND","Latitude":"42.88140","Longitude":"-88.20670","Snowdepth":"6.000","Units":"in","Rept_Date":"2021-01-06 13"},"coordinates":[2172,4511]},{"type":"Point","properties":{"Station_ID":"AWXW3","Station_Nam":"ASHLAND","Latitude":"46.58240","Longitude":"-90.88390","Snowdepth":"6.000","Units":"in","Rept_Date":"2021-01-06 13"},"coordinates":[1528,6807]},{"type":"Point","properties":{"Station_ID":"AVTW3","Station_Nam":"ARBOR VITAE-JOHNSON LAKE","Latitude":"45.89940","Longitude":"-89.72670","Snowdepth":"6.000","Units":"in","Rept_Date":"2021-01-06 12"},"coordinates":[1806,6383]},{"type":"Point","properties":{"Station_ID":"AVLV1","Station_Nam":"AVERILL","Latitude":"45.00570","Longitude":"-71.69030","Snowdepth":"6.000","Units":"in","Rept_Date":"2021-01-06 13"},"coordinates":[6143,5829]},{"type":"Point","properties":{"Station_ID":"ASXW3","Station_Nam":"ASHLAND,WI","Latitude":"46.55220","Longitude":"-90.91610","Snowdepth":"6.000","Units":"in","Rept_Date":"2021-01-06 14"},"coordinates":[1520,6788]},{"type":"Point","properties":{"Station_ID":"AMOI4","Station_Nam":"ANAMOSA 3 SSW","Latitude":"42.07630","Longitude":"-91.30190","Snowdepth":"6.000","Units":"in","Rept_Date":"2021-01-06 12"},"coordinates":[1427,4011]},{"type":"Point","properties":{"Station_ID":"AMAM4","Station_Nam":"AMASA 1W","Latitude":"46.23470","Longitude":"-88.45440","Snowdepth":"6.000","Units":"in","Rept_Date":"2021-01-06 14"},"coordinates":[2112,6591]},{"type":"Point","properties":{"Station_ID":"HPN20_MADIS","Station_Nam":"HOPKINS","Latitude":"44.95556","Longitude":"-93.41140","Snowdepth":"5.900","Units":"in","Rept_Date":"2021-01-07 06"},"coordinates":[920,5798]},{"type":"Point","properties":{"Station_ID":"CAN-NS-13","Station_Nam":"TRURO 5.0 ENE, CA","Latitude":"45.38252","Longitude":"-63.22810","Snowdepth":"5.900","Units":"in","Rept_Date":"2021-01-06 11"},"coordinates":[8178,6063]},{"type":"Point","properties":{"Station_ID":"PA-CR-1","Station_Nam":"EMPORIUM 2.6 S, PA","Latitude":"41.47342","Longitude":"-78.24330","Snowdepth":"5.800","Units":"in","Rept_Date":"2021-01-06 13"},"coordinates":[4567,3637]},{"type":"Point","properties":{"Station_ID":"MN-RM-121","Station_Nam":"ROSEVILLE 0.4 ENE, MN","Latitude":"45.01701","Longitude":"-93.14711","Snowdepth":"5.800","Units":"in","Rept_Date":"2021-01-06 14"},"coordinates":[984,5836]},{"type":"Point","properties":{"Station_ID":"QLM","Station_Nam":"QLM","Latitude":"48.92030","Longitude":"-70.25280","Snowdepth":"5.787","Units":"in","Rept_Date":"2021-01-06 12"},"coordinates":[6489,8258]},{"type":"Point","properties":{"Station_ID":"WI-WW-2","Station_Nam":"LAKE GENEVA 0.6 ENE, WI","Latitude":"42.59169","Longitude":"-88.41770","Snowdepth":"5.700","Units":"in","Rept_Date":"2021-01-06 13"},"coordinates":[2121,4331]},{"type":"Point","properties":{"Station_ID":"CAN-QC-16","Station_Nam":"SAINT-ARMAND 3.6 W, CAN","Latitude":"45.02631","Longitude":"-73.08795","Snowdepth":"5.700","Units":"in","Rept_Date":"2021-01-06 12"},"coordinates":[5807,5842]},{"type":"Point","properties":{"Station_ID":"CAN-PE-20","Station_Nam":"BONSHAW 6.6 NNE, CAN","Latitude":"46.25082","Longitude":"-63.33409","Snowdepth":"5.700","Units":"in","Rept_Date":"2021-01-06 12"},"coordinates":[8152,6601]},{"type":"Point","properties":{"Station_ID":"CAN-NS-3","Station_Nam":"WOLFVILLE 7.1 ESE, CAN","Latitude":"45.07921","Longitude":"-64.27107","Snowdepth":"5.700","Units":"in","Rept_Date":"2021-01-06 11"},"coordinates":[7927,5875]},{"type":"Point","properties":{"Station_ID":"CAN-NB-83","Station_Nam":"ST. STEPHEN 1.5 SW, CAN","Latitude":"45.18806","Longitude":"-67.29431","Snowdepth":"5.700","Units":"in","Rept_Date":"2021-01-06 12"},"coordinates":[7200,5942]},{"type":"Point","properties":{"Station_ID":"CAN-NB-55","Station_Nam":"FREDERICTON 4.5 N, CAN","Latitude":"45.99547","Longitude":"-66.64252","Snowdepth":"5.700","Units":"in","Rept_Date":"2021-01-06 12"},"coordinates":[7357,6443]},{"type":"Point","properties":{"Station_ID":"HPN09_MADIS","Station_Nam":"PLYMOUTH","Latitude":"44.98992","Longitude":"-93.47910","Snowdepth":"5.600","Units":"in","Rept_Date":"2021-01-07 06"},"coordinates":[904,5819]},{"type":"Point","properties":{"Station_ID":"WI-WW-13","Station_Nam":"MUKWONAGO 3.4 SW, WI","Latitude":"42.83734","Longitude":"-88.38534","Snowdepth":"5.500","Units":"in","Rept_Date":"2021-01-06 12"},"coordinates":[2129,4484]},{"type":"Point","properties":{"Station_ID":"WI-VR-1","Station_Nam":"HILLSBORO 0.5 WSW, WI","Latitude":"43.65138","Longitude":"-90.34753","Snowdepth":"5.500","Units":"in","Rept_Date":"2021-01-06 14"},"coordinates":[1657,4989]},{"type":"Point","properties":{"Station_ID":"WI-VL-14","Station_Nam":"BOULDER JUNCTION 1.4 NE, WI","Latitude":"46.12840","Longitude":"-89.62470","Snowdepth":"5.500","Units":"in","Rept_Date":"2021-01-06 13"},"coordinates":[1831,6525]},{"type":"Point","properties":{"Station_ID":"WI-RC-3","Station_Nam":"RACINE 2.3 WSW, WI","Latitude":"42.71124","Longitude":"-87.84570","Snowdepth":"5.500","Units":"in","Rept_Date":"2021-01-06 13"},"coordinates":[2258,4405]},{"type":"Point","properties":{"Station_ID":"WI-PR-8","Station_Nam":"PHILLIPS 0.4 SSW, WI","Latitude":"45.69086","Longitude":"-90.40200","Snowdepth":"5.500","Units":"in","Rept_Date":"2021-01-06 13"},"coordinates":[1644,6254]},{"type":"Point","properties":{"Station_ID":"WI-MW-43","Station_Nam":"BROWN DEER 0.8 NW, WI","Latitude":"43.18438","Longitude":"-87.98401","Snowdepth":"5.500","Units":"in","Rept_Date":"2021-01-06 13"},"coordinates":[2225,4699]},{"type":"Point","properties":{"Station_ID":"WI-DA-39","Station_Nam":"MADISON 4.0 W, WI","Latitude":"43.07741","Longitude":"-89.46757","Snowdepth":"5.500","Units":"in","Rept_Date":"2021-01-06 13"},"coordinates":[1869,4633]},{"type":"Point","properties":{"Station_ID":"WI-DA-33","Station_Nam":"OREGON 0.4 SSW, WI","Latitude":"42.92080","Longitude":"-89.38540","Snowdepth":"5.500","Units":"in","Rept_Date":"2021-01-06 13"},"coordinates":[1888,4535]},{"type":"Point","properties":{"Station_ID":"WI-DA-13","Station_Nam":"MADISON 3.7 WSW, WI","Latitude":"43.06230","Longitude":"-89.45650","Snowdepth":"5.500","Units":"in","Rept_Date":"2021-01-06 13"},"coordinates":[1871,4623]},{"type":"Point","properties":{"Station_ID":"WI-AS-4","Station_Nam":"ASHLAND 0.5 WNW, WI","Latitude":"46.58240","Longitude":"-90.88390","Snowdepth":"5.500","Units":"in","Rept_Date":"2021-01-06 13"},"coordinates":[1528,6807]},{"type":"Point","properties":{"Station_ID":"VT-WS-33","Station_Nam":"WAITSFIELD 3.5 WNW, VT","Latitude":"44.20052","Longitude":"-72.89421","Snowdepth":"5.500","Units":"in","Rept_Date":"2021-01-06 13"},"coordinates":[5854,5329]},{"type":"Point","properties":{"Station_ID":"VT-BN-12","Station_Nam":"STAMFORD 5.0 NNE, VT","Latitude":"42.82000","Longitude":"-73.02000","Snowdepth":"5.500","Units":"in","Rept_Date":"2021-01-06 21"},"coordinates":[5823,4473]},{"type":"Point","properties":{"Station_ID":"NY-SL-6","Station_Nam":"HANNAWA FALLS 0.1 SW, NY","Latitude":"44.61154","Longitude":"-74.97190","Snowdepth":"5.500","Units":"in","Rept_Date":"2021-01-06 12"},"coordinates":[5354,5584]},{"type":"Point","properties":{"Station_ID":"NY-BM-14","Station_Nam":"WHITNEY POINT 1.7 SSE, NY","Latitude":"42.30837","Longitude":"-75.95690","Snowdepth":"5.500","Units":"in","Rept_Date":"2021-01-06 13"},"coordinates":[5117,4155]},{"type":"Point","properties":{"Station_ID":"MO-DV-2","Station_Nam":"JAMESPORT 1.3 ESE, MO","Latitude":"39.96450","Longitude":"-93.78090","Snowdepth":"5.500","Units":"in","Rept_Date":"2021-01-06 13"},"coordinates":[831,2701]},{"type":"Point","properties":{"Station_ID":"MN-OT-36","Station_Nam":"BATTLE LAKE 3.3 SSE, MN","Latitude":"46.23918","Longitude":"-95.69718","Snowdepth":"5.500","Units":"in","Rept_Date":"2021-01-06 13"},"coordinates":[371,6594]},{"type":"Point","properties":{"Station_ID":"MN-CW-54","Station_Nam":"AITKIN 9.6 W, MN","Latitude":"46.53711","Longitude":"-93.90688","Snowdepth":"5.500","Units":"in","Rept_Date":"2021-01-06 14"},"coordinates":[801,6779]},{"type":"Point","properties":{"Station_ID":"WI-WW-12","Station_Nam":"ELKHORN 0.4 ESE, WI","Latitude":"42.66970","Longitude":"-88.53170","Snowdepth":"5.400","Units":"in","Rept_Date":"2021-01-06 11"},"coordinates":[2094,4380]},{"type":"Point","properties":{"Station_ID":"WI-MW-68","Station_Nam":"GREENFIELD 0.7 SW, WI","Latitude":"42.95589","Longitude":"-88.01510","Snowdepth":"5.400","Units":"in","Rept_Date":"2021-01-06 13"},"coordinates":[2218,4557]},{"type":"Point","properties":{"Station_ID":"CAN-PE-1","Station_Nam":"STRATFORD 2.3 NNE, CAN","Latitude":"46.23576","Longitude":"-63.08208","Snowdepth":"5.400","Units":"in","Rept_Date":"2021-01-06 11"},"coordinates":[8213,6592]},{"type":"Point","properties":{"Station_ID":"QGA","Station_Nam":"QGA","Latitude":"47.25640","Longitude":"-73.73810","Snowdepth":"5.394","Units":"in","Rept_Date":"2021-01-06 12"},"coordinates":[5651,7225]},{"type":"Point","properties":{"Station_ID":"QIQ","Station_Nam":"QIQ","Latitude":"49.82390","Longitude":"-68.54310","Snowdepth":"5.354","Units":"in","Rept_Date":"2021-01-06 12"},"coordinates":[6900,8818]},{"type":"Point","properties":{"Station_ID":"VT-OG-13","Station_Nam":"WEST FAIRLEE 1.8 ENE, VT","Latitude":"43.92138","Longitude":"-72.23051","Snowdepth":"5.200","Units":"in","Rept_Date":"2021-01-06 13"},"coordinates":[6013,5156]},{"type":"Point","properties":{"Station_ID":"HPN19_MADIS","Station_Nam":"GREENFIELD","Latitude":"45.20343","Longitude":"-93.69130","Snowdepth":"5.100","Units":"in","Rept_Date":"2021-01-07 06"},"coordinates":[853,5952]},{"type":"Point","properties":{"Station_ID":"CAN-ON-526","Station_Nam":"HILTON BEACH 0.7 SW - MNRF, CAN","Latitude":"46.25357","Longitude":"-83.90014","Snowdepth":"5.100","Units":"in","Rept_Date":"2021-01-06 12"},"coordinates":[3207,6603]},{"type":"Point","properties":{"Station_ID":"CAN-NB-28","Station_Nam":"SUSSEX CORNER 1.4 NE - KWRC, CAN","Latitude":"45.71691","Longitude":"-65.46217","Snowdepth":"5.100","Units":"in","Rept_Date":"2021-01-06 10"},"coordinates":[7641,6270]},{"type":"Point","properties":{"Station_ID":"WTRM4","Station_Nam":"WATERSMEET 12WSW","Latitude":"46.22310","Longitude":"-89.40850","Snowdepth":"5.000","Units":"in","Rept_Date":"2021-01-06 12"},"coordinates":[1883,6584]},{"type":"Point","properties":{"Station_ID":"WTHM1","Station_Nam":"WINTHROP","Latitude":"44.30650","Longitude":"-69.97010","Snowdepth":"5.000","Units":"in","Rept_Date":"2021-01-06 13"},"coordinates":[6557,5395]},{"type":"Point","properties":{"Station_ID":"WODI2","Station_Nam":"WOODSTOCK","Latitude":"42.36280","Longitude":"-88.53140","Snowdepth":"5.000","Units":"in","Rept_Date":"2021-01-06 13"},"coordinates":[2094,4189]},{"type":"Point","properties":{"Station_ID":"WI-MW-23","Station_Nam":"GREENDALE 1.0 ENE, WI","Latitude":"42.94094","Longitude":"-87.98230","Snowdepth":"5.000","Units":"in","Rept_Date":"2021-01-06 13"},"coordinates":[2226,4548]},{"type":"Point","properties":{"Station_ID":"WI-DA-46","Station_Nam":"MADISON 6.4 W, WI","Latitude":"43.08337","Longitude":"-89.51503","Snowdepth":"5.000","Units":"in","Rept_Date":"2021-01-06 13"},"coordinates":[1857,4636]},{"type":"Point","properties":{"Station_ID":"WI-DA-35","Station_Nam":"MADISON 5.5 N, WI","Latitude":"43.15858","Longitude":"-89.37280","Snowdepth":"5.000","Units":"in","Rept_Date":"2021-01-06 14"},"coordinates":[1891,4683]},{"type":"Point","properties":{"Station_ID":"WI-DA-31","Station_Nam":"DEERFIELD 0.6 N, WI","Latitude":"43.05958","Longitude":"-89.07340","Snowdepth":"5.000","Units":"in","Rept_Date":"2021-01-06 14"},"coordinates":[1963,4621]},{"type":"Point","properties":{"Station_ID":"WDOM5","Station_Nam":"WINDOM","Latitude":"43.87700","Longitude":"-95.11590","Snowdepth":"5.000","Units":"in","Rept_Date":"2021-01-06 14"},"coordinates":[510,5129]},{"type":"Point","properties":{"Station_ID":"WATW3","Station_Nam":"WATERTOWN,WI","Latitude":"43.17500","Longitude":"-88.73530","Snowdepth":"5.000","Units":"in","Rept_Date":"2021-01-06 13"},"coordinates":[2045,4693]},{"type":"Point","properties":{"Station_ID":"WALN6","Station_Nam":"WALTON 2","Latitude":"42.18470","Longitude":"-75.14550","Snowdepth":"5.000","Units":"in","Rept_Date":"2021-01-06 10"},"coordinates":[5312,4079]},{"type":"Point","properties":{"Station_ID":"VT-LM-1","Station_Nam":"STOWE 0.2 SW, VT","Latitude":"44.46399","Longitude":"-72.69070","Snowdepth":"5.000","Units":"in","Rept_Date":"2021-01-06 12"},"coordinates":[5902,5493]},{"type":"Point","properties":{"Station_ID":"VT-AD-20","Station_Nam":"HANCOCK 0.3 S, VT","Latitude":"43.92166","Longitude":"-72.84042","Snowdepth":"5.000","Units":"in","Rept_Date":"2021-01-06 12"},"coordinates":[5866,5156]},{"type":"Point","properties":{"Station_ID":"VRGV1","Station_Nam":"VERGENNES","Latitude":"44.17190","Longitude":"-73.24720","Snowdepth":"5.000","Units":"in","Rept_Date":"2021-01-06 13"},"coordinates":[5769,5312]},{"type":"Point","properties":{"Station_ID":"VQAW3","Station_Nam":"VIROQUA","Latitude":"43.55970","Longitude":"-90.87560","Snowdepth":"5.000","Units":"in","Rept_Date":"2021-01-06 13"},"coordinates":[1530,4932]},{"type":"Point","properties":{"Station_ID":"VOLI4","Station_Nam":"VOLGA 1NE","Latitude":"42.81150","Longitude":"-91.52300","Snowdepth":"5.000","Units":"in","Rept_Date":"2021-01-06 12"},"coordinates":[1374,4468]},{"type":"Point","properties":{"Station_ID":"UVDV1","Station_Nam":"NERON SITE AT UNION VILLAGE DAM","Latitude":"43.79140","Longitude":"-72.25720","Snowdepth":"5.000","Units":"in","Rept_Date":"2021-01-06 12"},"coordinates":[6007,5076]},{"type":"Point","properties":{"Station_ID":"TURM1","Station_Nam":"TURNER","Latitude":"44.28220","Longitude":"-70.25610","Snowdepth":"5.000","Units":"in","Rept_Date":"2021-01-06 12"},"coordinates":[6488,5380]},