{"type":"Topology","objects":{"snowdepth_geo":{"type":"GeometryCollection","name":"snowdepth","crs":{"type":"name","properties":{"name":"urn:ogc:def:crs:OGC:1.3:CRS84"}},"geometries":[{"type":"Point","properties":{"Station_ID":"PRKM4","Station_Nam":"MUNISING EAST","Latitude":"46.42580","Longitude":"-86.62000","Snowdepth":"76.500","Units":"in","Rept_Date":"2020-03-30 06"},"coordinates":[2492,4048]},{"type":"Point","properties":{"Station_ID":"HTLN3","Station_Nam":"HERMIT LAKE SNOWPLOT","Latitude":"44.26130","Longitude":"-71.28330","Snowdepth":"64.000","Units":"in","Rept_Date":"2020-03-29 09"},"coordinates":[6092,1618]},{"type":"Point","properties":{"Station_ID":"OGIQ6","Station_Nam":"OGOKI CAMP","Latitude":"50.76680","Longitude":"-87.85820","Snowdepth":"61.100","Units":"in","Rept_Date":"2020-03-30 06"},"coordinates":[2202,8921]},{"type":"Point","properties":{"Station_ID":"GLRM5","Station_Nam":"GLACIAL RIDGE","Latitude":"47.71670","Longitude":"-96.26670","Snowdepth":"57.000","Units":"in","Rept_Date":"2020-03-30 01"},"coordinates":[228,5497]},{"type":"Point","properties":{"Station_ID":"HVCN3","Station_Nam":"HARVARD CABIN SNOWPLOT","Latitude":"44.26630","Longitude":"-71.27790","Snowdepth":"52.000","Units":"in","Rept_Date":"2020-03-29 09"},"coordinates":[6093,1624]},{"type":"Point","properties":{"Station_ID":"AUDQ6","Station_Nam":"AUDEN","Latitude":"48.52600","Longitude":"-82.57570","Snowdepth":"47.640","Units":"in","Rept_Date":"2020-03-30 06"},"coordinates":[3441,6406]},{"type":"Point","properties":{"Station_ID":"DVLQ6","Station_Nam":"DEVIOUS LAKE","Latitude":"49.19890","Longitude":"-87.76440","Snowdepth":"43.460","Units":"in","Rept_Date":"2020-03-30 06"},"coordinates":[2224,7161]},{"type":"Point","properties":{"Station_ID":"CLUM4","Station_Nam":"CALUMET-TAMARACK","Latitude":"47.24550","Longitude":"-88.46790","Snowdepth":"42.000","Units":"in","Rept_Date":"2020-03-29 13"},"coordinates":[2058,4968]},{"type":"Point","properties":{"Station_ID":"PDLM4","Station_Nam":"PAINESDALE","Latitude":"47.04160","Longitude":"-88.67170","Snowdepth":"40.000","Units":"in","Rept_Date":"2020-03-29 12"},"coordinates":[2011,4739]},{"type":"Point","properties":{"Station_ID":"CAN-NS-39","Station_Nam":"ST. ANNS 2.8 NW, CA","Latitude":"46.25082","Longitude":"-60.64340","Snowdepth":"39.000","Units":"in","Rept_Date":"2020-03-29 13"},"coordinates":[8589,3851]},{"type":"Point","properties":{"Station_ID":"CAN-NL-82","Station_Nam":"GANDER 2.7 NW, CAN","Latitude":"48.97737","Longitude":"-54.63396","Snowdepth":"35.800","Units":"in","Rept_Date":"2020-03-29 10"},"coordinates":[9999,6912]},{"type":"Point","properties":{"Station_ID":"MNSM4","Station_Nam":"MUNISING","Latitude":"46.41210","Longitude":"-86.66250","Snowdepth":"31.000","Units":"in","Rept_Date":"2020-03-29 10"},"coordinates":[2482,4033]},{"type":"Point","properties":{"Station_ID":"IBLM5","Station_Nam":"ISABELLA 14W","Latitude":"47.59360","Longitude":"-91.65140","Snowdepth":"31.000","Units":"in","Rept_Date":"2020-03-29 14"},"coordinates":[1311,5359]},{"type":"Point","properties":{"Station_ID":"ME-AR-18","Station_Nam":"NEW SWEDEN 4.9 NNW, ME","Latitude":"47.01080","Longitude":"-68.14390","Snowdepth":"30.500","Units":"in","Rept_Date":"2020-03-29 12"},"coordinates":[6828,4705]},{"type":"Point","properties":{"Station_ID":"WLFM5","Station_Nam":"WOLF RIDGE ENVIRON LEARNING CENTER","Latitude":"47.38240","Longitude":"-91.19730","Snowdepth":"30.000","Units":"in","Rept_Date":"2020-03-29 12"},"coordinates":[1418,5122]},{"type":"Point","properties":{"Station_ID":"CAN-NB-105","Station_Nam":"SISSON BROOK 3.8 E, CAN","Latitude":"46.98305","Longitude":"-67.32532","Snowdepth":"29.500","Units":"in","Rept_Date":"2020-03-29 12"},"coordinates":[7020,4673]},{"type":"Point","properties":{"Station_ID":"PTLQ6","Station_Nam":"PORTAGE LAKE","Latitude":"49.06950","Longitude":"-86.65940","Snowdepth":"27.800","Units":"in","Rept_Date":"2020-03-30 06"},"coordinates":[2483,7016]},{"type":"Point","properties":{"Station_ID":"TWOM5","Station_Nam":"TWO HARBORS,MN","Latitude":"47.12580","Longitude":"-91.70750","Snowdepth":"27.000","Units":"in","Rept_Date":"2020-03-30 00"},"coordinates":[1298,4834]},{"type":"Point","properties":{"Station_ID":"QNCM4","Station_Nam":"QUINCY HILL","Latitude":"47.13640","Longitude":"-88.57950","Snowdepth":"27.000","Units":"in","Rept_Date":"2020-03-29 13"},"coordinates":[2032,4846]},{"type":"Point","properties":{"Station_ID":"KSGM4","Station_Nam":"KEARSARGE","Latitude":"47.27520","Longitude":"-88.41700","Snowdepth":"27.000","Units":"in","Rept_Date":"2020-03-29 12"},"coordinates":[2070,5001]},{"type":"Point","properties":{"Station_ID":"CAN-NB-13","Station_Nam":"BATHURST 3.8 NW, CAN","Latitude":"47.64212","Longitude":"-65.68756","Snowdepth":"26.500","Units":"in","Rept_Date":"2020-03-29 11"},"coordinates":[7405,5413]},{"type":"Point","properties":{"Station_ID":"MQT","Station_Nam":"MARQUETTE, MI","Latitude":"46.53140","Longitude":"-87.54920","Snowdepth":"26.000","Units":"in","Rept_Date":"2020-03-30 06"},"coordinates":[2274,4166]},{"type":"Point","properties":{"Station_ID":"MI-BG-3","Station_Nam":"L'ANSE 17.8 SE, MI","Latitude":"46.55730","Longitude":"-88.20770","Snowdepth":"26.000","Units":"in","Rept_Date":"2020-03-29 13"},"coordinates":[2119,4196]},{"type":"Point","properties":{"Station_ID":"FISM1","Station_Nam":"FORT KENT COOP","Latitude":"47.23850","Longitude":"-68.61240","Snowdepth":"26.000","Units":"in","Rept_Date":"2020-03-29 09"},"coordinates":[6718,4960]},{"type":"Point","properties":{"Station_ID":"CAN-QC-47","Station_Nam":"SAINTE-FOY 1.8 ENE, CAN","Latitude":"46.76934","Longitude":"-71.27124","Snowdepth":"25.800","Units":"in","Rept_Date":"2020-03-29 12"},"coordinates":[6094,4434]},{"type":"Point","properties":{"Station_ID":"CAN-NB-11","Station_Nam":"MIRAMICHI 3.3 S, CAN","Latitude":"46.99343","Longitude":"-65.50690","Snowdepth":"25.500","Units":"in","Rept_Date":"2020-03-29 09"},"coordinates":[7447,4685]},{"type":"Point","properties":{"Station_ID":"TRIQ6","Station_Nam":"TRIO LAKE","Latitude":"49.22880","Longitude":"-87.22920","Snowdepth":"25.430","Units":"in","Rept_Date":"2020-03-30 06"},"coordinates":[2349,7195]},{"type":"Point","properties":{"Station_ID":"VANM1","Station_Nam":"VAN BUREN","Latitude":"47.16600","Longitude":"-67.93900","Snowdepth":"24.000","Units":"in","Rept_Date":"2020-03-29 11"},"coordinates":[6876,4879]},{"type":"Point","properties":{"Station_ID":"STEM4","Station_Nam":"STEUBEN","Latitude":"46.18530","Longitude":"-86.46410","Snowdepth":"24.000","Units":"in","Rept_Date":"2020-03-29 13"},"coordinates":[2529,3778]},{"type":"Point","properties":{"Station_ID":"HERM4","Station_Nam":"HERMAN,MI","Latitude":"46.65000","Longitude":"-88.33330","Snowdepth":"24.000","Units":"in","Rept_Date":"2020-03-29 12"},"coordinates":[2090,4300]},{"type":"Point","properties":{"Station_ID":"CAR","Station_Nam":"CARIBOU, ME","Latitude":"46.86830","Longitude":"-68.01360","Snowdepth":"24.000","Units":"in","Rept_Date":"2020-03-29 12"},"coordinates":[6859,4545]},{"type":"Point","properties":{"Station_ID":"CARM1","Station_Nam":"CARIBOU WFO","Latitude":"46.86810","Longitude":"-68.01250","Snowdepth":"23.000","Units":"in","Rept_Date":"2020-03-30 04"},"coordinates":[6859,4544]},{"type":"Point","properties":{"Station_ID":"MI-MQ-25","Station_Nam":"ISHPEMING 6.3 NW, MI","Latitude":"46.54140","Longitude":"-87.77153","Snowdepth":"22.000","Units":"in","Rept_Date":"2020-03-29 13"},"coordinates":[2222,4178]},{"type":"Point","properties":{"Station_ID":"SVBQ6","Station_Nam":"SAVANT BASE","Latitude":"50.28730","Longitude":"-90.65670","Snowdepth":"20.040","Units":"in","Rept_Date":"2020-03-30 06"},"coordinates":[1545,8383]},{"type":"Point","properties":{"Station_ID":"MI-HG-6","Station_Nam":"CALUMET 5.8 ENE, MI","Latitude":"47.27200","Longitude":"-88.33400","Snowdepth":"20.000","Units":"in","Rept_Date":"2020-03-29 11"},"coordinates":[2090,4998]},{"type":"Point","properties":{"Station_ID":"CAN-NB-96","Station_Nam":"SAINT-IGNACE 2.6 NE, CAN","Latitude":"46.71424","Longitude":"-65.05609","Snowdepth":"19.700","Units":"in","Rept_Date":"2020-03-29 11"},"coordinates":[7553,4372]},{"type":"Point","properties":{"Station_ID":"PRDM4","Station_Nam":"PARADISE","Latitude":"46.60380","Longitude":"-85.03960","Snowdepth":"19.000","Units":"in","Rept_Date":"2020-03-29 12"},"coordinates":[2863,4248]},{"type":"Point","properties":{"Station_ID":"CAN-NB-89","Station_Nam":"MEMRAMCOOK 4.0 W, CAN","Latitude":"46.01133","Longitude":"-64.60244","Snowdepth":"18.900","Units":"in","Rept_Date":"2020-03-29 13"},"coordinates":[7659,3583]},{"type":"Point","properties":{"Station_ID":"MI-HG-1","Station_Nam":"HOUGHTON 1.6 ESE, MI","Latitude":"47.10774","Longitude":"-88.52940","Snowdepth":"18.500","Units":"in","Rept_Date":"2020-03-29 13"},"coordinates":[2044,4813]},{"type":"Point","properties":{"Station_ID":"CAN-NS-103","Station_Nam":"TRAFALGAR 4.9 WSW, CAN","Latitude":"45.26217","Longitude":"-62.72285","Snowdepth":"18.500","Units":"in","Rept_Date":"2020-03-29 12"},"coordinates":[8101,2742]},{"type":"Point","properties":{"Station_ID":"ME-AR-15","Station_Nam":"PRESQUE ISLE 1.3 WSW, ME","Latitude":"46.67960","Longitude":"-68.01270","Snowdepth":"18.000","Units":"in","Rept_Date":"2020-03-29 12"},"coordinates":[6859,4333]},{"type":"Point","properties":{"Station_ID":"CAN-NS-60","Station_Nam":"SYDNEY FORKS, CAN","Latitude":"46.05645","Longitude":"-60.31510","Snowdepth":"18.000","Units":"in","Rept_Date":"2020-03-29 14"},"coordinates":[8666,3633]},{"type":"Point","properties":{"Station_ID":"MN-CK-18","Station_Nam":"GRAND MARAIS 4.4 WSW, MN","Latitude":"47.74462","Longitude":"-90.43796","Snowdepth":"17.500","Units":"in","Rept_Date":"2020-03-29 13"},"coordinates":[1596,5528]},{"type":"Point","properties":{"Station_ID":"BRAM1","Station_Nam":"BRASSUA DAM","Latitude":"45.66020","Longitude":"-69.81190","Snowdepth":"17.000","Units":"in","Rept_Date":"2020-03-29 11"},"coordinates":[6437,3188]},{"type":"Point","properties":{"Station_ID":"WRPW3","Station_Nam":"WATER PURIFICATION PLANT","Latitude":"44.38800","Longitude":"-89.80550","Snowdepth":"16.000","Units":"in","Rept_Date":"2020-03-29 11"},"coordinates":[1744,1760]},{"type":"Point","properties":{"Station_ID":"WI-VL-9","Station_Nam":"LAND O' LAKES 11.7 W, WI","Latitude":"46.19023","Longitude":"-89.45790","Snowdepth":"16.000","Units":"in","Rept_Date":"2020-03-29 13"},"coordinates":[1826,3783]},{"type":"Point","properties":{"Station_ID":"NWCM4","Station_Nam":"NEWBERRY CITY","Latitude":"46.35720","Longitude":"-85.51780","Snowdepth":"16.000","Units":"in","Rept_Date":"2020-03-29 11"},"coordinates":[2751,3971]},{"type":"Point","properties":{"Station_ID":"MN-CK-3","Station_Nam":"TOFTE 4.9 NE, MN","Latitude":"47.62394","Longitude":"-90.76100","Snowdepth":"16.000","Units":"in","Rept_Date":"2020-03-29 13"},"coordinates":[1520,5393]},{"type":"Point","properties":{"Station_ID":"LNOW3","Station_Nam":"LAND O LAKES","Latitude":"46.19000","Longitude":"-89.45700","Snowdepth":"16.000","Units":"in","Rept_Date":"2020-03-29 12"},"coordinates":[1826,3783]},{"type":"Point","properties":{"Station_ID":"WI-VL-10","Station_Nam":"LAND O LAKES 4.3 WNW, WI","Latitude":"46.17440","Longitude":"-89.30380","Snowdepth":"15.500","Units":"in","Rept_Date":"2020-03-29 13"},"coordinates":[1862,3766]},{"type":"Point","properties":{"Station_ID":"VT-OL-12","Station_Nam":"GREENSBORO 3.9 NNE, VT","Latitude":"44.63100","Longitude":"-72.28000","Snowdepth":"15.000","Units":"in","Rept_Date":"2020-03-29 13"},"coordinates":[5858,2033]},{"type":"Point","properties":{"Station_ID":"RKWM1","Station_Nam":"MOOSEHEAD LAKE","Latitude":"45.58330","Longitude":"-69.71670","Snowdepth":"15.000","Units":"in","Rept_Date":"2020-03-29 11"},"coordinates":[6459,3102]},{"type":"Point","properties":{"Station_ID":"RGNM1","Station_Nam":"RANGELEY 2NW","Latitude":"44.98940","Longitude":"-70.67220","Snowdepth":"15.000","Units":"in","Rept_Date":"2020-03-29 13"},"coordinates":[6235,2435]},{"type":"Point","properties":{"Station_ID":"MI-MQ-19","Station_Nam":"ISHPEMING 7.2 SW, MI","Latitude":"46.40550","Longitude":"-87.75670","Snowdepth":"15.000","Units":"in","Rept_Date":"2020-03-29 11"},"coordinates":[2225,4025]},{"type":"Point","properties":{"Station_ID":"LVDW3","Station_Nam":"LAC VIEUX DESERT","Latitude":"46.12110","Longitude":"-89.07580","Snowdepth":"15.000","Units":"in","Rept_Date":"2020-03-29 14"},"coordinates":[1916,3706]},{"type":"Point","properties":{"Station_ID":"CAN-PE-19","Station_Nam":"CHARLOTTETOWN 6.5 NNW, CAN","Latitude":"46.29235","Longitude":"-63.17271","Snowdepth":"15.000","Units":"in","Rept_Date":"2020-03-29 12"},"coordinates":[7995,3898]},{"type":"Point","properties":{"Station_ID":"VT-CL-3","Station_Nam":"GROTON 4.4 WSW, VT","Latitude":"44.19440","Longitude":"-72.28240","Snowdepth":"14.500","Units":"in","Rept_Date":"2020-03-29 11"},"coordinates":[5857,1543]},{"type":"Point","properties":{"Station_ID":"MN-IT-23","Station_Nam":"BOVEY 13.4 N, MN","Latitude":"47.48855","Longitude":"-93.43497","Snowdepth":"14.500","Units":"in","Rept_Date":"2020-03-29 13"},"coordinates":[893,5241]},{"type":"Point","properties":{"Station_ID":"UPSW3","Station_Nam":"UPSON,WI","Latitude":"46.36780","Longitude":"-90.41220","Snowdepth":"14.000","Units":"in","Rept_Date":"2020-03-29 23"},"coordinates":[1602,3983]},{"type":"Point","properties":{"Station_ID":"SUAW3","Station_Nam":"SUAMICO","Latitude":"44.60190","Longitude":"-88.09780","Snowdepth":"14.000","Units":"in","Rept_Date":"2020-03-29 11"},"coordinates":[2145,2000]},{"type":"Point","properties":{"Station_ID":"STGW3","Station_Nam":"ST GERMAIN","Latitude":"45.91550","Longitude":"-89.48940","Snowdepth":"14.000","Units":"in","Rept_Date":"2020-03-29 11"},"coordinates":[1819,3475]},{"type":"Point","properties":{"Station_ID":"CRVW3","Station_Nam":"CRIVITZ HIGH FALLS","Latitude":"45.35750","Longitude":"-88.19190","Snowdepth":"14.000","Units":"in","Rept_Date":"2020-03-29 12"},"coordinates":[2123,2849]},{"type":"Point","properties":{"Station_ID":"CAN-NB-18","Station_Nam":"MCLEOD HILL 1.1 ENE, CA","Latitude":"46.02725","Longitude":"-66.67460","Snowdepth":"14.000","Units":"in","Rept_Date":"2020-03-29 12"},"coordinates":[7173,3601]},{"type":"Point","properties":{"Station_ID":"BABM5","Station_Nam":"BABBITT","Latitude":"47.71210","Longitude":"-91.95330","Snowdepth":"14.000","Units":"in","Rept_Date":"2020-03-29 12"},"coordinates":[1240,5492]},{"type":"Point","properties":{"Station_ID":"MN-IT-10","Station_Nam":"DEER RIVER 3.7 W, MN","Latitude":"47.33564","Longitude":"-93.87514","Snowdepth":"13.500","Units":"in","Rept_Date":"2020-03-29 14"},"coordinates":[789,5069]},{"type":"Point","properties":{"Station_ID":"KABQ6","Station_Nam":"CAB LAKE","Latitude":"49.59950","Longitude":"-89.17990","Snowdepth":"13.110","Units":"in","Rept_Date":"2020-03-30 06"},"coordinates":[1891,7611]},{"type":"Point","properties":{"Station_ID":"SSMM4","Station_Nam":"SAULT STE MARIE","Latitude":"46.48660","Longitude":"-84.40250","Snowdepth":"13.000","Units":"in","Rept_Date":"2020-03-29 12"},"coordinates":[3013,4116]},{"type":"Point","properties":{"Station_ID":"MN-IT-17","Station_Nam":"GRAND RAPIDS 6.1 N, MN","Latitude":"47.31165","Longitude":"-93.55036","Snowdepth":"13.000","Units":"in","Rept_Date":"2020-03-29 13"},"coordinates":[866,5042]},{"type":"Point","properties":{"Station_ID":"ME-FR-22","Station_Nam":"FARMINGTON 4.8 NNW, ME","Latitude":"44.73396","Longitude":"-70.18007","Snowdepth":"13.000","Units":"in","Rept_Date":"2020-03-29 14"},"coordinates":[6350,2149]},{"type":"Point","properties":{"Station_ID":"LILM1","Station_Nam":"LILLE","Latitude":"47.27770","Longitude":"-68.10520","Snowdepth":"13.000","Units":"in","Rept_Date":"2020-03-29 11"},"coordinates":[6837,5004]},{"type":"Point","properties":{"Station_ID":"GLDM4","Station_Nam":"GLADSTONE NO. 2","Latitude":"45.84330","Longitude":"-87.03910","Snowdepth":"13.000","Units":"in","Rept_Date":"2020-03-29 12"},"coordinates":[2394,3394]},{"type":"Point","properties":{"Station_ID":"EMBM5","Station_Nam":"EMBARASS,MN","Latitude":"47.65810","Longitude":"-92.19580","Snowdepth":"13.000","Units":"in","Rept_Date":"2020-03-29 14"},"coordinates":[1184,5431]},{"type":"Point","properties":{"Station_ID":"SOCQ6","Station_Nam":"SOCKET LAKE","Latitude":"50.77870","Longitude":"-91.79300","Snowdepth":"12.640","Units":"in","Rept_Date":"2020-03-30 05"},"coordinates":[1278,8935]},{"type":"Point","properties":{"Station_ID":"PDGM4","Station_Nam":"PAULDING","Latitude":"46.39760","Longitude":"-89.17940","Snowdepth":"12.000","Units":"in","Rept_Date":"2020-03-29 13"},"coordinates":[1891,4016]},{"type":"Point","properties":{"Station_ID":"MWN","Station_Nam":"MOUNT WASHINGTON","Latitude":"44.26670","Longitude":"-71.30000","Snowdepth":"12.000","Units":"in","Rept_Date":"2020-03-30 04"},"coordinates":[6088,1624]},{"type":"Point","properties":{"Station_ID":"MN-SL-15","Station_Nam":"CHISHOLM 0.4 WSW, MN","Latitude":"47.48557","Longitude":"-92.88690","Snowdepth":"12.000","Units":"in","Rept_Date":"2020-03-29 13"},"coordinates":[1021,5238]},{"type":"Point","properties":{"Station_ID":"MIEM4","Station_Nam":"MICHIGAMME 3WNW","Latitude":"46.54530","Longitude":"-88.18000","Snowdepth":"12.000","Units":"in","Rept_Date":"2020-03-29 12"},"coordinates":[2126,4182]},{"type":"Point","properties":{"Station_ID":"KMWN","Station_Nam":"MOUNT WASHINGTON","Latitude":"44.26666","Longitude":"-71.30000","Snowdepth":"12.000","Units":"in","Rept_Date":"2020-03-30 06"},"coordinates":[6088,1624]},{"type":"Point","properties":{"Station_ID":"KABM5","Station_Nam":"KABETOGAMA LAKE VISITOR CTR","Latitude":"48.40880","Longitude":"-93.04840","Snowdepth":"12.000","Units":"in","Rept_Date":"2020-03-29 12"},"coordinates":[983,6274]},{"type":"Point","properties":{"Station_ID":"GHMN3","Station_Nam":"PINKHAM NOTCH","Latitude":"44.25800","Longitude":"-71.25250","Snowdepth":"12.000","Units":"in","Rept_Date":"2020-03-29 10"},"coordinates":[6099,1614]},{"type":"Point","properties":{"Station_ID":"EVRW3","Station_Nam":"EAGLE RIVER-4 E","Latitude":"45.91890","Longitude":"-89.15280","Snowdepth":"12.000","Units":"in","Rept_Date":"2020-03-29 12"},"coordinates":[1898,3479]},{"type":"Point","properties":{"Station_ID":"COKM5","Station_Nam":"COOK","Latitude":"47.85060","Longitude":"-92.69250","Snowdepth":"12.000","Units":"in","Rept_Date":"2020-03-29 11"},"coordinates":[1067,5647]},{"type":"Point","properties":{"Station_ID":"CLKM4","Station_Nam":"CLARKSBURG","Latitude":"46.49910","Longitude":"-87.84500","Snowdepth":"12.000","Units":"in","Rept_Date":"2020-03-29 11"},"coordinates":[2205,4130]},{"type":"Point","properties":{"Station_ID":"BRDM1","Station_Nam":"BRIDGEWATER","Latitude":"46.42870","Longitude":"-67.84370","Snowdepth":"12.000","Units":"in","Rept_Date":"2020-03-29 22"},"coordinates":[6899,4051]},{"type":"Point","properties":{"Station_ID":"ANJM4","Station_Nam":"SNOW PAID OBSERVER FOR KANJ","Latitude":"46.48670","Longitude":"-84.40260","Snowdepth":"12.000","Units":"in","Rept_Date":"2020-03-29 18"},"coordinates":[3013,4116]},{"type":"Point","properties":{"Station_ID":"ANJ","Station_Nam":"SAULT STE MARIE","Latitude":"46.46670","Longitude":"-84.36670","Snowdepth":"12.000","Units":"in","Rept_Date":"2020-03-30 00"},"coordinates":[3021,4094]},{"type":"Point","properties":{"Station_ID":"WRSM5","Station_Nam":"WRENSHALL","Latitude":"46.61550","Longitude":"-92.38380","Snowdepth":"11.000","Units":"in","Rept_Date":"2020-03-29 13"},"coordinates":[1139,4261]},{"type":"Point","properties":{"Station_ID":"RPDM4","Station_Nam":"RAPID RIVER 4SSE","Latitude":"45.87270","Longitude":"-86.94960","Snowdepth":"11.000","Units":"in","Rept_Date":"2020-03-29 13"},"coordinates":[2415,3427]},{"type":"Point","properties":{"Station_ID":"RANM1","Station_Nam":"RANGELEY","Latitude":"44.98910","Longitude":"-70.67190","Snowdepth":"11.000","Units":"in","Rept_Date":"2020-03-29 13"},"coordinates":[6235,2435]},{"type":"Point","properties":{"Station_ID":"NH-CS-10","Station_Nam":"RANDOLPH 1.4 NE, NH","Latitude":"44.38824","Longitude":"-71.26950","Snowdepth":"11.000","Units":"in","Rept_Date":"2020-03-29 12"},"coordinates":[6095,1761]},{"type":"Point","properties":{"Station_ID":"MI-CP-14","Station_Nam":"SAULT STE. MARIE 2.2 E, MI","Latitude":"46.48933","Longitude":"-84.31971","Snowdepth":"11.000","Units":"in","Rept_Date":"2020-03-29 12"},"coordinates":[3032,4119]},{"type":"Point","properties":{"Station_ID":"LEIM5","Station_Nam":"ORR 3E","Latitude":"48.05810","Longitude":"-92.75220","Snowdepth":"11.000","Units":"in","Rept_Date":"2020-03-29 11"},"coordinates":[1053,5880]},{"type":"Point","properties":{"Station_ID":"IWOM4","Station_Nam":"IRONWOOD#2","Latitude":"46.46520","Longitude":"-90.13820","Snowdepth":"11.000","Units":"in","Rept_Date":"2020-03-29 12"},"coordinates":[1666,4092]},{"type":"Point","properties":{"Station_ID":"DLHM5","Station_Nam":"DULUTH NWS","Latitude":"46.83680","Longitude":"-92.21080","Snowdepth":"11.000","Units":"in","Rept_Date":"2020-03-30 00"},"coordinates":[1180,4509]},{"type":"Point","properties":{"Station_ID":"DLH","Station_Nam":"DULUTH, MN","Latitude":"46.83690","Longitude":"-92.21030","Snowdepth":"11.000","Units":"in","Rept_Date":"2020-03-30 00"},"coordinates":[1180,4509]},{"type":"Point","properties":{"Station_ID":"BNDM5","Station_Nam":"ELY 25E","Latitude":"47.97190","Longitude":"-91.44860","Snowdepth":"11.000","Units":"in","Rept_Date":"2020-03-29 12"},"coordinates":[1359,5784]},{"type":"Point","properties":{"Station_ID":"WI-IR-2","Station_Nam":"MERCER 2.0 SE, WI","Latitude":"46.14749","Longitude":"-90.03097","Snowdepth":"10.800","Units":"in","Rept_Date":"2020-03-29 13"},"coordinates":[1692,3735]},{"type":"Point","properties":{"Station_ID":"CATQ6","Station_Nam":"CAT LAKE","Latitude":"51.72690","Longitude":"-91.82210","Snowdepth":"10.630","Units":"in","Rept_Date":"2020-03-30 06"},"coordinates":[1271,9999]},{"type":"Point","properties":{"Station_ID":"WI-VL-14","Station_Nam":"BOULDER JUNCTION 1.4 NE, WI","Latitude":"46.12840","Longitude":"-89.62470","Snowdepth":"10.500","Units":"in","Rept_Date":"2020-03-29 13"},"coordinates":[1787,3714]},{"type":"Point","properties":{"Station_ID":"MN-IT-7","Station_Nam":"GRAND RAPIDS 6.2 SSW, MN","Latitude":"47.13687","Longitude":"-93.56660","Snowdepth":"10.500","Units":"in","Rept_Date":"2020-03-29 12"},"coordinates":[862,4846]},{"type":"Point","properties":{"Station_ID":"CAN-NB-2","Station_Nam":"GRAFTON 2.7 NNE, CA","Latitude":"46.17062","Longitude":"-67.55330","Snowdepth":"10.500","Units":"in","Rept_Date":"2020-03-29 11"},"coordinates":[6967,3761]},{"type":"Point","properties":{"Station_ID":"CAN-PE-7","Station_Nam":"MORELL 1.4 NNW, CA","Latitude":"46.42741","Longitude":"-62.70870","Snowdepth":"10.400","Units":"in","Rept_Date":"2020-03-29 11"},"coordinates":[8104,4050]},{"type":"Point","properties":{"Station_ID":"MN-SL-18","Station_Nam":"DULUTH 1.4 NNW, MN","Latitude":"46.80321","Longitude":"-92.11240","Snowdepth":"10.300","Units":"in","Rept_Date":"2020-03-29 14"},"coordinates":[1203,4472]},{"type":"Point","properties":{"Station_ID":"WTNM4","Station_Nam":"WATTON 2WSW","Latitude":"46.52660","Longitude":"-88.64240","Snowdepth":"10.000","Units":"in","Rept_Date":"2020-03-29 12"},"coordinates":[2017,4161]},{"type":"Point","properties":{"Station_ID":"WI-IR-3","Station_Nam":"PENCE 0.1 E, WI","Latitude":"46.41555","Longitude":"-90.27013","Snowdepth":"10.000","Units":"in","Rept_Date":"2020-03-29 13"},"coordinates":[1635,4036]},{"type":"Point","properties":{"Station_ID":"TOGM5","Station_Nam":"CELINA 2E","Latitude":"47.86630","Longitude":"-93.02660","Snowdepth":"10.000","Units":"in","Rept_Date":"2020-03-29 13"},"coordinates":[989,5665]},{"type":"Point","properties":{"Station_ID":"SUTV1","Station_Nam":"SUTTON","Latitude":"44.61220","Longitude":"-72.04810","Snowdepth":"10.000","Units":"in","Rept_Date":"2020-03-29 12"},"coordinates":[5912,2012]},{"type":"Point","properties":{"Station_ID":"NH-CR-15","Station_Nam":"JACKSON 3.7 NW, NH","Latitude":"44.19069","Longitude":"-71.22598","Snowdepth":"10.000","Units":"in","Rept_Date":"2020-03-29 12"},"coordinates":[6105,1539]},{"type":"Point","properties":{"Station_ID":"MN-IT-1","Station_Nam":"GRAND RAPIDS 2.0 E, MN","Latitude":"47.22266","Longitude":"-93.49600","Snowdepth":"10.000","Units":"in","Rept_Date":"2020-03-29 14"},"coordinates":[878,4942]},{"type":"Point","properties":{"Station_ID":"MN-CK-6","Station_Nam":"GRAND MARAIS 4.4 W, MN","Latitude":"47.74865","Longitude":"-90.43760","Snowdepth":"10.000","Units":"in","Rept_Date":"2020-03-29 13"},"coordinates":[1596,5533]},{"type":"Point","properties":{"Station_ID":"KINM1","Station_Nam":"KINGFIELD","Latitude":"44.95950","Longitude":"-70.17530","Snowdepth":"10.000","Units":"in","Rept_Date":"2020-03-29 14"},"coordinates":[6352,2402]},{"type":"Point","properties":{"Station_ID":"JKMM1","Station_Nam":"JACKMAN","Latitude":"45.62600","Longitude":"-70.24600","Snowdepth":"10.000","Units":"in","Rept_Date":"2020-03-29 11"},"coordinates":[6335,3150]},{"type":"Point","properties":{"Station_ID":"INL","Station_Nam":"FALLS INTERNATIONAL ARPT","Latitude":"48.56640","Longitude":"-93.40310","Snowdepth":"10.000","Units":"in","Rept_Date":"2020-03-30 00"},"coordinates":[900,6451]},{"type":"Point","properties":{"Station_ID":"IFSM5","Station_Nam":"INTERNATIONAL FALLS SNOW","Latitude":"48.57780","Longitude":"-93.39640","Snowdepth":"10.000","Units":"in","Rept_Date":"2020-03-29 12"},"coordinates":[902,6464]},{"type":"Point","properties":{"Station_ID":"ELYM5","Station_Nam":"ELY","Latitude":"47.90560","Longitude":"-91.82830","Snowdepth":"10.000","Units":"in","Rept_Date":"2020-03-29 14"},"coordinates":[1270,5709]},{"type":"Point","properties":{"Station_ID":"CAN-PE-3","Station_Nam":"WELLINGTON 1.6 NE, CA","Latitude":"46.46672","Longitude":"-63.98920","Snowdepth":"10.000","Units":"in","Rept_Date":"2020-03-29 11"},"coordinates":[7803,4094]},{"type":"Point","properties":{"Station_ID":"ZLLM4","Station_Nam":"TORCH LAKE","Latitude":"47.19360","Longitude":"-88.38360","Snowdepth":"9.000","Units":"in","Rept_Date":"2020-03-29 16"},"coordinates":[2078,4910]},{"type":"Point","properties":{"Station_ID":"WI-BY-14","Station_Nam":"ASHLAND 9.8 W, WI","Latitude":"46.59742","Longitude":"-91.07856","Snowdepth":"9.000","Units":"in","Rept_Date":"2020-03-29 13"},"coordinates":[1446,4241]},{"type":"Point","properties":{"Station_ID":"VT-ES-1","Station_Nam":"GRANBY 1.4 NW, VT","Latitude":"44.58330","Longitude":"-71.77870","Snowdepth":"9.000","Units":"in","Rept_Date":"2020-03-29 14"},"coordinates":[5975,1980]},{"type":"Point","properties":{"Station_ID":"PHEW3","Station_Nam":"PHELPS","Latitude":"46.06630","Longitude":"-89.07520","Snowdepth":"9.000","Units":"in","Rept_Date":"2020-03-29 12"},"coordinates":[1916,3644]},{"type":"Point","properties":{"Station_ID":"MN-IT-19","Station_Nam":"COHASSET 7.6 NNW, MN","Latitude":"47.34204","Longitude":"-93.69765","Snowdepth":"9.000","Units":"in","Rept_Date":"2020-03-29 15"},"coordinates":[831,5077]},{"type":"Point","properties":{"Station_ID":"ME-FR-4","Station_Nam":"NEW SHARON 2.0 NW, ME","Latitude":"44.66582","Longitude":"-70.02720","Snowdepth":"9.000","Units":"in","Rept_Date":"2020-03-29 12"},"coordinates":[6386,2072]},{"type":"Point","properties":{"Station_ID":"JCBM4","Station_Nam":"JACOBSVILLE","Latitude":"47.00830","Longitude":"-88.43180","Snowdepth":"9.000","Units":"in","Rept_Date":"2020-03-29 11"},"coordinates":[2067,4702]},{"type":"Point","properties":{"Station_ID":"GRBM5","Station_Nam":"GRAND RAPIDS 12N","Latitude":"47.39800","Longitude":"-93.51330","Snowdepth":"9.000","Units":"in","Rept_Date":"2020-03-29 11"},"coordinates":[874,5139]},{"type":"Point","properties":{"Station_ID":"GGRM4","Station_Nam":"GREEN GARDEN NO.2","Latitude":"46.45330","Longitude":"-87.30380","Snowdepth":"9.000","Units":"in","Rept_Date":"2020-03-29 13"},"coordinates":[2332,4079]},{"type":"Point","properties":{"Station_ID":"BGBM4","Station_Nam":"BIG BAY 1NW","Latitude":"46.83250","Longitude":"-87.75040","Snowdepth":"9.000","Units":"in","Rept_Date":"2020-03-29 12"},"coordinates":[2227,4504]},{"type":"Point","properties":{"Station_ID":"AVLV1","Station_Nam":"AVERILL","Latitude":"45.00570","Longitude":"-71.69030","Snowdepth":"9.000","Units":"in","Rept_Date":"2020-03-29 12"},"coordinates":[5996,2454]},{"type":"Point","properties":{"Station_ID":"CAN-NS-163","Station_Nam":"SYDNEY MINES 2.2 WNW, CAN","Latitude":"46.24851","Longitude":"-60.25161","Snowdepth":"8.300","Units":"in","Rept_Date":"2020-03-29 12"},"coordinates":[8681,3849]},{"type":"Point","properties":{"Station_ID":"CAN-NB-97","Station_Nam":"NEW MARYLAND 0.6 NW, CAN","Latitude":"45.90112","Longitude":"-66.68739","Snowdepth":"8.300","Units":"in","Rept_Date":"2020-03-29 12"},"coordinates":[7170,3459]},{"type":"Point","properties":{"Station_ID":"CAN-MB-298","Station_Nam":"GARDENTON 4.2 W - SRRCD, CAN","Latitude":"49.09480","Longitude":"-96.75446","Snowdepth":"8.300","Units":"in","Rept_Date":"2020-03-29 14"},"coordinates":[114,7044]},{"type":"Point","properties":{"Station_ID":"WRUM5","Station_Nam":"WARROAD 4W","Latitude":"48.89600","Longitude":"-95.40700","Snowdepth":"8.000","Units":"in","Rept_Date":"2020-03-30 03"},"coordinates":[430,6821]},{"type":"Point","properties":{"Station_ID":"WI-ON-8","Station_Nam":"HAZELHURST 2.1 SSE, WI","Latitude":"45.78186","Longitude":"-89.70330","Snowdepth":"8.000","Units":"in","Rept_Date":"2020-03-29 13"},"coordinates":[1768,3325]},{"type":"Point","properties":{"Station_ID":"WI-OC-1","Station_Nam":"MOUNTAIN 1.1 SW, WI","Latitude":"45.17239","Longitude":"-88.48990","Snowdepth":"8.000","Units":"in","Rept_Date":"2020-03-29 16"},"coordinates":[2053,2641]},{"type":"Point","properties":{"Station_ID":"VT-BN-12","Station_Nam":"STAMFORD 5.0 NNE, VT","Latitude":"42.82000","Longitude":"-73.02000","Snowdepth":"8.000","Units":"in","Rept_Date":"2020-03-29 21"},"coordinates":[5684,0]},{"type":"Point","properties":{"Station_ID":"MOUW3","Station_Nam":"MOUNTAIN 1 SW","Latitude":"45.17220","Longitude":"-88.49390","Snowdepth":"8.000","Units":"in","Rept_Date":"2020-03-29 15"},"coordinates":[2052,2641]},{"type":"Point","properties":{"Station_ID":"MN-SL-108","Station_Nam":"IRON JUNCTION 3.4 NNW, MN","Latitude":"47.46150","Longitude":"-92.63130","Snowdepth":"7.500","Units":"in","Rept_Date":"2020-03-29 13"},"coordinates":[1081,5211]},{"type":"Point","properties":{"Station_ID":"FTHQ6","Station_Nam":"FORT HOPE","Latitude":"51.55820","Longitude":"-87.90510","Snowdepth":"7.320","Units":"in","Rept_Date":"2020-03-30 06"},"coordinates":[2191,9810]},{"type":"Point","properties":{"Station_ID":"CAN-ON-526","Station_Nam":"HILTON BEACH 0.7 SW - MNRF, CAN","Latitude":"46.25357","Longitude":"-83.90014","Snowdepth":"7.100","Units":"in","Rept_Date":"2020-03-29 12"},"coordinates":[3130,3855]},{"type":"Point","properties":{"Station_ID":"WI-ON-6","Station_Nam":"RHINELANDER 5.2 N, WI","Latitude":"45.71388","Longitude":"-89.42150","Snowdepth":"7.000","Units":"in","Rept_Date":"2020-03-29 15"},"coordinates":[1835,3249]},{"type":"Point","properties":{"Station_ID":"WI-BY-1","Station_Nam":"BAYFIELD 8.8 N, WI","Latitude":"46.93855","Longitude":"-90.83490","Snowdepth":"7.000","Units":"in","Rept_Date":"2020-03-29 13"},"coordinates":[1503,4624]},{"type":"Point","properties":{"Station_ID":"PTBN3","Station_Nam":"PITTSBURG RESERVOIR","Latitude":"45.04690","Longitude":"-71.38300","Snowdepth":"7.000","Units":"in","Rept_Date":"2020-03-29 12"},"coordinates":[6068,2500]},{"type":"Point","properties":{"Station_ID":"PBAN8","Station_Nam":"SITE 1-3MI.N","Latitude":"48.97420","Longitude":"-97.23860","Snowdepth":"7.000","Units":"in","Rept_Date":"2020-03-29 13"},"coordinates":[0,6909]},{"type":"Point","properties":{"Station_ID":"EAHV1","Station_Nam":"EAST HAVEN","Latitude":"44.64250","Longitude":"-71.89120","Snowdepth":"7.000","Units":"in","Rept_Date":"2020-03-29 11"},"coordinates":[5949,2046]},{"type":"Point","properties":{"Station_ID":"AVTW3","Station_Nam":"ARBOR VITAE-JOHNSON LAKE","Latitude":"45.89940","Longitude":"-89.72670","Snowdepth":"7.000","Units":"in","Rept_Date":"2020-03-29 11"},"coordinates":[1763,3457]},{"type":"Point","properties":{"Station_ID":"CAN-NB-8","Station_Nam":"KESWICK RIDGE 2.3 SSE, CAN","Latitude":"45.97703","Longitude":"-66.86815","Snowdepth":"6.700","Units":"in","Rept_Date":"2020-03-29 14"},"coordinates":[7128,3544]},{"type":"Point","properties":{"Station_ID":"CAN-ON-757","Station_Nam":"SAULT STE. MARIE 2.8 ESE - GLFC, CAN","Latitude":"46.50300","Longitude":"-84.30300","Snowdepth":"6.100","Units":"in","Rept_Date":"2020-03-29 13"},"coordinates":[3036,4135]},{"type":"Point","properties":{"Station_ID":"TOPM1","Station_Nam":"TOPSFIELD","Latitude":"45.43470","Longitude":"-67.72020","Snowdepth":"6.000","Units":"in","Rept_Date":"2020-03-29 11"},"coordinates":[6928,2935]},{"type":"Point","properties":{"Station_ID":"TAKW3","Station_Nam":"RICE RESERVOIR NO. 2","Latitude":"45.53770","Longitude":"-89.73220","Snowdepth":"6.000","Units":"in","Rept_Date":"2020-03-29 12"},"coordinates":[1762,3051]},{"type":"Point","properties":{"Station_ID":"MWTM1","Station_Nam":"MILLINOCKET WWTP","Latitude":"45.64030","Longitude":"-68.67480","Snowdepth":"6.000","Units":"in","Rept_Date":"2020-03-29 11"},"coordinates":[6704,3166]},{"type":"Point","properties":{"Station_ID":"IMNM4","Station_Nam":"IRON MOUTAIN 5N","Latitude":"45.87580","Longitude":"-88.04030","Snowdepth":"6.000","Units":"in","Rept_Date":"2020-03-29 13"},"coordinates":[2159,3430]},{"type":"Point","properties":{"Station_ID":"CORV1","Station_Nam":"CORINTH","Latitude":"44.00690","Longitude":"-72.31940","Snowdepth":"6.000","Units":"in","Rept_Date":"2020-03-29 11"},"coordinates":[5848,1332]},{"type":"Point","properties":{"Station_ID":"BTLN3","Station_Nam":"BARTLETT","Latitude":"44.08380","Longitude":"-71.29340","Snowdepth":"6.000","Units":"in","Rept_Date":"2020-03-29 11"},"coordinates":[6089,1419]},{"type":"Point","properties":{"Station_ID":"MN-PK-15","Station_Nam":"MENTOR 2.5 SSW, MN","Latitude":"47.66625","Longitude":"-96.17328","Snowdepth":"5.500","Units":"in","Rept_Date":"2020-03-29 13"},"coordinates":[250,5440]},{"type":"Point","properties":{"Station_ID":"CAN-NS-13","Station_Nam":"TRURO 5.0 ENE, CA","Latitude":"45.38252","Longitude":"-63.22810","Snowdepth":"5.100","Units":"in","Rept_Date":"2020-03-29 11"},"coordinates":[7982,2877]},{"type":"Point","properties":{"Station_ID":"ZNOM4","Station_Nam":"NORWAY","Latitude":"45.77810","Longitude":"-87.89560","Snowdepth":"5.000","Units":"in","Rept_Date":"2020-03-29 12"},"coordinates":[2193,3321]},{"type":"Point","properties":{"Station_ID":"WI-DG-20","Station_Nam":"SOLON SPRINGS 1.2 W, WI","Latitude":"46.35217","Longitude":"-91.84405","Snowdepth":"5.000","Units":"in","Rept_Date":"2020-03-29 13"},"coordinates":[1266,3965]},{"type":"Point","properties":{"Station_ID":"VT-ES-3","Station_Nam":"LUNENBURG 2.3 NNW, VT","Latitude":"44.49324","Longitude":"-71.70446","Snowdepth":"5.000","Units":"in","Rept_Date":"2020-03-29 10"},"coordinates":[5993,1878]},{"type":"Point","properties":{"Station_ID":"NY-FK-7","Station_Nam":"SARANAC LAKE 6.2 N, NY","Latitude":"44.41359","Longitude":"-74.15211","Snowdepth":"5.000","Units":"in","Rept_Date":"2020-03-29 10"},"coordinates":[5418,1789]},{"type":"Point","properties":{"Station_ID":"MRAM4","Station_Nam":"MORAN","Latitude":"45.99030","Longitude":"-84.83610","Snowdepth":"5.000","Units":"in","Rept_Date":"2020-03-29 12"},"coordinates":[2911,3559]},{"type":"Point","properties":{"Station_ID":"MN-AT-5","Station_Nam":"TAMARACK 1.4 SW, MN","Latitude":"46.63760","Longitude":"-93.14554","Snowdepth":"5.000","Units":"in","Rept_Date":"2020-03-29 13"},"coordinates":[961,4286]},{"type":"Point","properties":{"Station_ID":"LPLN6","Station_Nam":"LAKE PLACID 2 S","Latitude":"44.30420","Longitude":"-73.98390","Snowdepth":"5.000","Units":"in","Rept_Date":"2020-03-29 12"},"coordinates":[5458,1666]},{"type":"Point","properties":{"Station_ID":"LBKV1","Station_Nam":"LYE BROOK","Latitude":"43.05000","Longitude":"-73.03330","Snowdepth":"5.000","Units":"in","Rept_Date":"2020-03-30 06"},"coordinates":[5681,258]},{"type":"Point","properties":{"Station_ID":"GRFN8","Station_Nam":"UNIVERSITY","Latitude":"47.93330","Longitude":"-97.08330","Snowdepth":"5.000","Units":"in","Rept_Date":"2020-03-30 05"},"coordinates":[36,5740]},{"type":"Point","properties":{"Station_ID":"CNNW3","Station_Nam":"CRANDON","Latitude":"45.55110","Longitude":"-88.89830","Snowdepth":"5.000","Units":"in","Rept_Date":"2020-03-29 11"},"coordinates":[1957,3066]},{"type":"Point","properties":{"Station_ID":"CAN-MB-32","Station_Nam":"PINAWA 1.0 SW, CA","Latitude":"50.14747","Longitude":"-95.89020","Snowdepth":"5.000","Units":"in","Rept_Date":"2020-03-29 13"},"coordinates":[316,8226]},{"type":"Point","properties":{"Station_ID":"AGNW3","Station_Nam":"ARGONNE-1.5 NW","Latitude":"45.67360","Longitude":"-88.90380","Snowdepth":"5.000","Units":"in","Rept_Date":"2020-03-29 13"},"coordinates":[1956,3203]},{"type":"Point","properties":{"Station_ID":"CAN-NB-16","Station_Nam":"DORCHESTER 1.0 SSE, CAN","Latitude":"45.89160","Longitude":"-64.51269","Snowdepth":"4.800","Units":"in","Rept_Date":"2020-03-29 11"},"coordinates":[7681,3448]},{"type":"Point","properties":{"Station_ID":"CAN-NB-1","Station_Nam":"FREDERICTON 4.0 SSE, CA","Latitude":"45.92897","Longitude":"-66.62830","Snowdepth":"4.700","Units":"in","Rept_Date":"2020-03-29 12"},"coordinates":[7184,3490]},{"type":"Point","properties":{"Station_ID":"VT-OL-9","Station_Nam":"GREENSBORO 2.1 NNW, VT","Latitude":"44.60528","Longitude":"-72.30940","Snowdepth":"4.500","Units":"in","Rept_Date":"2020-03-29 12"},"coordinates":[5851,2004]},{"type":"Point","properties":{"Station_ID":"WTRM4","Station_Nam":"WATERSMEET 12WSW","Latitude":"46.22310","Longitude":"-89.40850","Snowdepth":"4.000","Units":"in","Rept_Date":"2020-03-29 11"},"coordinates":[1838,3820]},{"type":"Point","properties":{"Station_ID":"WI-BY-22","Station_Nam":"MASON 11.5 WNW, WI","Latitude":"46.50198","Longitude":"-91.28339","Snowdepth":"4.000","Units":"in","Rept_Date":"2020-03-29 14"},"coordinates":[1398,4133]},{"type":"Point","properties":{"Station_ID":"VT-BN-3","Station_Nam":"LANDGROVE 1.1 NNE, VT","Latitude":"43.29092","Longitude":"-72.83260","Snowdepth":"4.000","Units":"in","Rept_Date":"2020-03-29 11"},"coordinates":[5728,529]},{"type":"Point","properties":{"Station_ID":"STMM4","Station_Nam":"STAMBAUGH 2SSE","Latitude":"46.05550","Longitude":"-88.62780","Snowdepth":"4.000","Units":"in","Rept_Date":"2020-03-29 12"},"coordinates":[2021,3632]},{"type":"Point","properties":{"Station_ID":"NUMN3","Station_Nam":"NORTHUMBERLAND","Latitude":"44.52830","Longitude":"-71.50440","Snowdepth":"4.000","Units":"in","Rept_Date":"2020-03-29 12"},"coordinates":[6040,1918]},{"type":"Point","properties":{"Station_ID":"NH-GR-49","Station_Nam":"PLYMOUTH 3.7 N, NH","Latitude":"43.79048","Longitude":"-71.68413","Snowdepth":"4.000","Units":"in","Rept_Date":"2020-03-29 12"},"coordinates":[5997,1089]},{"type":"Point","properties":{"Station_ID":"NH-CS-4","Station_Nam":"PITTSBURG 6.1 NE, NH","Latitude":"45.11060","Longitude":"-71.29760","Snowdepth":"4.000","Units":"in","Rept_Date":"2020-03-29 12"},"coordinates":[6088,2571]},{"type":"Point","properties":{"Station_ID":"NH-CR-41","Station_Nam":"ALBANY 2.8 SW, NH","Latitude":"43.92648","Longitude":"-71.21556","Snowdepth":"4.000","Units":"in","Rept_Date":"2020-03-29 13"},"coordinates":[6107,1242]},{"type":"Point","properties":{"Station_ID":"NH-CR-26","Station_Nam":"CENTER SANDWICH 4.9 E, NH","Latitude":"43.80976","Longitude":"-71.34150","Snowdepth":"4.000","Units":"in","Rept_Date":"2020-03-29 11"},"coordinates":[6078,1111]},{"type":"Point","properties":{"Station_ID":"MN2EOYHJ","Station_Nam":"OGILVIE 5.6 N","Latitude":"45.91288","Longitude":"-93.42259","Snowdepth":"4.000","Units":"in","Rept_Date":"2020-03-29 13"},"coordinates":[896,3472]},{"type":"Point","properties":{"Station_ID":"MN-BK-6","Station_Nam":"LAKE PARK 6.0 S, MN","Latitude":"46.79850","Longitude":"-96.12180","Snowdepth":"4.000","Units":"in","Rept_Date":"2020-03-29 13"},"coordinates":[262,4466]},{"type":"Point","properties":{"Station_ID":"MI-DL-1","Station_Nam":"GARDEN CORNERS 0.8 NW, MI","Latitude":"45.89815","Longitude":"-86.54850","Snowdepth":"4.000","Units":"in","Rept_Date":"2020-03-29 13"},"coordinates":[2509,3456]},{"type":"Point","properties":{"Station_ID":"ISEM5","Station_Nam":"ISLE 12N","Latitude":"46.31970","Longitude":"-93.50140","Snowdepth":"4.000","Units":"in","Rept_Date":"2020-03-29 13"},"coordinates":[877,3929]},{"type":"Point","properties":{"Station_ID":"IRMM4","Station_Nam":"WWTP","Latitude":"46.46670","Longitude":"-90.18330","Snowdepth":"4.000","Units":"in","Rept_Date":"2020-03-29 12"},"coordinates":[1656,4094]},{"type":"Point","properties":{"Station_ID":"INDN6","Station_Nam":"INDIAN LAKE","Latitude":"43.75500","Longitude":"-74.27560","Snowdepth":"4.000","Units":"in","Rept_Date":"2020-03-29 14"},"coordinates":[5389,1050]},{"type":"Point","properties":{"Station_ID":"HURW3","Station_Nam":"HURLEY","Latitude":"46.46250","Longitude":"-90.19550","Snowdepth":"4.000","Units":"in","Rept_Date":"2020-03-29 13"},"coordinates":[1653,4089]},{"type":"Point","properties":{"Station_ID":"GDCM4","Station_Nam":"GARDEN CORNERS","Latitude":"45.89830","Longitude":"-86.54850","Snowdepth":"4.000","Units":"in","Rept_Date":"2020-03-29 12"},"coordinates":[2509,3456]},{"type":"Point","properties":{"Station_ID":"ESDN3","Station_Nam":"EAST SANDWICH","Latitude":"43.80990","Longitude":"-71.34250","Snowdepth":"4.000","Units":"in","Rept_Date":"2020-03-29 10"},"coordinates":[6078,1111]},{"type":"Point","properties":{"Station_ID":"CAN-PE-10","Station_Nam":"NEW LONDON 1.6 ENE, CA","Latitude":"46.46985","Longitude":"-63.49200","Snowdepth":"4.000","Units":"in","Rept_Date":"2020-03-29 12"},"coordinates":[7920,4097]},{"type":"Point","properties":{"Station_ID":"CAN-NB-98","Station_Nam":"HOYT 4.2 S, CAN","Latitude":"45.54763","Longitude":"-66.55440","Snowdepth":"3.100","Units":"in","Rept_Date":"2020-03-29 11"},"coordinates":[7201,3062]},{"type":"Point","properties":{"Station_ID":"WI-BY-2","Station_Nam":"MELLEN 18.6 SW, WI","Latitude":"46.16937","Longitude":"-90.98090","Snowdepth":"3.000","Units":"in","Rept_Date":"2020-03-29 13"},"coordinates":[1469,3760]},{"type":"Point","properties":{"Station_ID":"SCSM5","Station_Nam":"ST CLOUD STATE","Latitude":"45.55100","Longitude":"-94.14950","Snowdepth":"3.000","Units":"in","Rept_Date":"2020-03-29 11"},"coordinates":[725,3066]},{"type":"Point","properties":{"Station_ID":"RLKW3","Station_Nam":"REST LAKE","Latitude":"46.12220","Longitude":"-89.87720","Snowdepth":"3.000","Units":"in","Rept_Date":"2020-03-29 13"},"coordinates":[1728,3707]},{"type":"Point","properties":{"Station_ID":"RHIW3","Station_Nam":"RHINELANDER","Latitude":"45.59860","Longitude":"-89.45080","Snowdepth":"3.000","Units":"in","Rept_Date":"2020-03-29 12"},"coordinates":[1828,3119]},{"type":"Point","properties":{"Station_ID":"NYMM5","Station_Nam":"NEW YORK MILLS","Latitude":"46.50920","Longitude":"-95.37990","Snowdepth":"3.000","Units":"in","Rept_Date":"2020-03-29 14"},"coordinates":[436,4142]},{"type":"Point","properties":{"Station_ID":"MN-BM-15","Station_Nam":"BEMIDJI 7.8 ENE, MN","Latitude":"47.52043","Longitude":"-94.72121","Snowdepth":"3.000","Units":"in","Rept_Date":"2020-03-29 13"},"coordinates":[591,5277]},{"type":"Point","properties":{"Station_ID":"MN-BK-10","Station_Nam":"DETROIT LAKES 5.7 N, MN","Latitude":"46.88666","Longitude":"-95.84444","Snowdepth":"3.000","Units":"in","Rept_Date":"2020-03-29 13"},"coordinates":[327,4565]},{"type":"Point","properties":{"Station_ID":"MI-OT-17","Station_Nam":"GAYLORD 4.1 S, MI","Latitude":"44.96388","Longitude":"-84.68467","Snowdepth":"3.000","Units":"in","Rept_Date":"2020-03-29 12"},"coordinates":[2946,2407]},{"type":"Point","properties":{"Station_ID":"MI-DL-4","Station_Nam":"GLADSTONE 2.1 SW, MI","Latitude":"45.83218","Longitude":"-87.05727","Snowdepth":"3.000","Units":"in","Rept_Date":"2020-03-29 12"},"coordinates":[2389,3382]},{"type":"Point","properties":{"Station_ID":"MI-CP-7","Station_Nam":"DRUMMOND 2.9 NE, MI","Latitude":"46.05329","Longitude":"-83.69060","Snowdepth":"3.000","Units":"in","Rept_Date":"2020-03-29 14"},"coordinates":[3180,3630]},{"type":"Point","properties":{"Station_ID":"KIMM5","Station_Nam":"KIMBALL 3N","Latitude":"45.35330","Longitude":"-94.30560","Snowdepth":"3.000","Units":"in","Rept_Date":"2020-03-29 11"},"coordinates":[688,2844]},{"type":"Point","properties":{"Station_ID":"KGFK","Station_Nam":"GRAND FORKS INTERNATIONAL","Latitude":"47.95000","Longitude":"-97.18333","Snowdepth":"3.000","Units":"in","Rept_Date":"2020-03-29 12"},"coordinates":[13,5759]},{"type":"Point","properties":{"Station_ID":"EGRW3","Station_Nam":"EAGLE RIVER-SOUTH","Latitude":"45.91360","Longitude":"-89.24360","Snowdepth":"3.000","Units":"in","Rept_Date":"2020-03-29 12"},"coordinates":[1876,3473]},{"type":"Point","properties":{"Station_ID":"CMKW3","Station_Nam":"CLAM LAKE 4W","Latitude":"46.16940","Longitude":"-90.98080","Snowdepth":"3.000","Units":"in","Rept_Date":"2020-03-29 12"},"coordinates":[1469,3760]},{"type":"Point","properties":{"Station_ID":"CLGM5","Station_Nam":"COLLEGEVILLE ST JOHN","Latitude":"45.57940","Longitude":"-94.39200","Snowdepth":"3.000","Units":"in","Rept_Date":"2020-03-29 23"},"coordinates":[668,3098]},{"type":"Point","properties":{"Station_ID":"CAN-NS-18","Station_Nam":"HAMMONDS PLAINS 2.1 NNW, CA","Latitude":"44.75181","Longitude":"-63.79100","Snowdepth":"3.000","Units":"in","Rept_Date":"2020-03-29 11"},"coordinates":[7850,2169]},{"type":"Point","properties":{"Station_ID":"AURW3","Station_Nam":"AURORA","Latitude":"45.77000","Longitude":"-88.11810","Snowdepth":"3.000","Units":"in","Rept_Date":"2020-03-29 13"},"coordinates":[2141,3312]},{"type":"Point","properties":{"Station_ID":"MN-BN-7","Station_Nam":"SAINT CLOUD 1.1 NE, MN","Latitude":"45.56440","Longitude":"-94.12310","Snowdepth":"2.700","Units":"in","Rept_Date":"2020-03-29 13"},"coordinates":[731,3081]},{"type":"Point","properties":{"Station_ID":"MN-BN-13","Station_Nam":"RICE 3.6 E, MN","Latitude":"45.74769","Longitude":"-94.15996","Snowdepth":"2.600","Units":"in","Rept_Date":"2020-03-29 13"},"coordinates":[723,3287]},{"type":"Point","properties":{"Station_ID":"WI-PR-2","Station_Nam":"BUTTERNUT 5.9 SW, WI","Latitude":"45.96501","Longitude":"-90.59750","Snowdepth":"2.500","Units":"in","Rept_Date":"2020-03-29 12"},"coordinates":[1559,3531]},{"type":"Point","properties":{"Station_ID":"VT-OL-1","Station_Nam":"WESTFIELD 0.7 WNW, VT","Latitude":"44.89160","Longitude":"-72.44350","Snowdepth":"2.500","Units":"in","Rept_Date":"2020-03-29 12"},"coordinates":[5819,2326]},{"type":"Point","properties":{"Station_ID":"MN-LK-19","Station_Nam":"TWO HARBORS 2.1 NW, MN","Latitude":"47.04819","Longitude":"-91.71127","Snowdepth":"2.300","Units":"in","Rept_Date":"2020-03-29 13"},"coordinates":[1297,4747]},{"type":"Point","properties":{"Station_ID":"WI-SR-1","Station_Nam":"HAYWARD 9.2 NNE, WI","Latitude":"46.13255","Longitude":"-91.40500","Snowdepth":"2.000","Units":"in","Rept_Date":"2020-03-29 12"},"coordinates":[1369,3719]},{"type":"Point","properties":{"Station_ID":"RHLW3","Station_Nam":"RHINELANDER 4NE","Latitude":"45.65270","Longitude":"-89.30740","Snowdepth":"2.000","Units":"in","Rept_Date":"2020-03-29 11"},"coordinates":[1861,3180]},{"type":"Point","properties":{"Station_ID":"RFDM1","Station_Nam":"RUMFORD 7SW","Latitude":"44.49470","Longitude":"-70.65640","Snowdepth":"2.000","Units":"in","Rept_Date":"2020-03-29 12"},"coordinates":[6239,1880]},{"type":"Point","properties":{"Station_ID":"RCEM5","Station_Nam":"RICE","Latitude":"45.75760","Longitude":"-94.20720","Snowdepth":"2.000","Units":"in","Rept_Date":"2020-03-29 12"},"coordinates":[711,3298]},{"type":"Point","properties":{"Station_ID":"OTTM5","Station_Nam":"OTTERTAIL,MN","Latitude":"46.41670","Longitude":"-95.56670","Snowdepth":"2.000","Units":"in","Rept_Date":"2020-03-29 13"},"coordinates":[392,4038]},{"type":"Point","properties":{"Station_ID":"MN76ACVS","Station_Nam":"GRAND MARAIS 3.0 WNW","Latitude":"47.76602","Longitude":"-90.26427","Snowdepth":"2.000","Units":"in","Rept_Date":"2020-03-29 12"},"coordinates":[1637,5552]},{"type":"Point","properties":{"Station_ID":"MN4R4TSR","Station_Nam":"KNIFE RIVER 0.8 NNW","Latitude":"46.96007","Longitude":"-91.78365","Snowdepth":"2.000","Units":"in","Rept_Date":"2020-03-29 11"},"coordinates":[1280,4648]},{"type":"Point","properties":{"Station_ID":"MN-ML-1","Station_Nam":"ONAMIA 4.3 NW, MN","Latitude":"46.10883","Longitude":"-93.73890","Snowdepth":"2.000","Units":"in","Rept_Date":"2020-03-29 17"},"coordinates":[821,3692]},{"type":"Point","properties":{"Station_ID":"MN-MC-16","Station_Nam":"HUTCHINSON 0.1 ENE, MN","Latitude":"44.88633","Longitude":"-94.37503","Snowdepth":"2.000","Units":"in","Rept_Date":"2020-03-29 13"},"coordinates":[672,2320]},{"type":"Point","properties":{"Station_ID":"MLCM5","Station_Nam":"MILACA","Latitude":"45.75320","Longitude":"-93.66170","Snowdepth":"2.000","Units":"in","Rept_Date":"2020-03-29 12"},"coordinates":[839,3293]},{"type":"Point","properties":{"Station_ID":"MI-OT-16","Station_Nam":"GAYLORD 2.2 SSE, MI","Latitude":"44.99441","Longitude":"-84.65820","Snowdepth":"2.000","Units":"in","Rept_Date":"2020-03-29 12"},"coordinates":[2953,2441]},{"type":"Point","properties":{"Station_ID":"GFK","Station_Nam":"GRAND FORKS INTERNATIONAL AIRPORT","Latitude":"47.94920","Longitude":"-97.17610","Snowdepth":"2.000","Units":"in","Rept_Date":"2020-03-30 00"},"coordinates":[15,5758]},{"type":"Point","properties":{"Station_ID":"ESGM1","Station_Nam":"EAST SANGERVILLE","Latitude":"45.13690","Longitude":"-69.28060","Snowdepth":"2.000","Units":"in","Rept_Date":"2020-03-29 11"},"coordinates":[6562,2601]},{"type":"Point","properties":{"Station_ID":"CAN-PE-1","Station_Nam":"STRATFORD 2.3 NNE, CAN","Latitude":"46.23576","Longitude":"-63.08208","Snowdepth":"2.000","Units":"in","Rept_Date":"2020-03-29 11"},"coordinates":[8016,3835]},{"type":"Point","properties":{"Station_ID":"MN-SR-36","Station_Nam":"SAINT JOSEPH 6.4 N, MN","Latitude":"45.65317","Longitude":"-94.28876","Snowdepth":"1.600","Units":"in","Rept_Date":"2020-03-29 15"},"coordinates":[692,3181]},{"type":"Point","properties":{"Station_ID":"NH-MR-60","Station_Nam":"SOUTH SUTTON 1.3 SE, NH","Latitude":"43.29531","Longitude":"-71.90238","Snowdepth":"1.500","Units":"in","Rept_Date":"2020-03-29 13"},"coordinates":[5946,534]},{"type":"Point","properties":{"Station_ID":"ND-CS-25","Station_Nam":"FARGO 2.1 N, ND","Latitude":"46.90816","Longitude":"-96.77937","Snowdepth":"1.500","Units":"in","Rept_Date":"2020-03-29 14"},"coordinates":[108,4589]},{"type":"Point","properties":{"Station_ID":"MN-SR-32","Station_Nam":"SAINT CLOUD 2.2 NW, MN","Latitude":"45.57548","Longitude":"-94.17583","Snowdepth":"1.500","Units":"in","Rept_Date":"2020-03-29 13"},"coordinates":[719,3093]},{"type":"Point","properties":{"Station_ID":"MN-SH-10","Station_Nam":"BIG LAKE 5.6 NNE, MN","Latitude":"45.41409","Longitude":"-93.69190","Snowdepth":"1.500","Units":"in","Rept_Date":"2020-03-29 13"},"coordinates":[832,2912]},{"type":"Point","properties":{"Station_ID":"CAN-NS-56","Station_Nam":"HAMMOND PLAINS 2.9 WSW, CA","Latitude":"44.72456","Longitude":"-63.81920","Snowdepth":"1.500","Units":"in","Rept_Date":"2020-03-29 12"},"coordinates":[7843,2138]},{"type":"Point","properties":{"Station_ID":"WLDM5","Station_Nam":"WILD RIVER STATE PARK","Latitude":"45.52310","Longitude":"-92.74890","Snowdepth":"1.000","Units":"in","Rept_Date":"2020-03-29 13"},"coordinates":[1054,3035]},{"type":"Point","properties":{"Station_ID":"WI-PR-6","Station_Nam":"PHILLIPS 1.3 S, WI","Latitude":"45.67677","Longitude":"-90.39543","Snowdepth":"1.000","Units":"in","Rept_Date":"2020-03-29 12"},"coordinates":[1606,3207]},{"type":"Point","properties":{"Station_ID":"WI-BN-6","Station_Nam":"SUAMICO 4.4 WNW, WI","Latitude":"44.66111","Longitude":"-88.11780","Snowdepth":"1.000","Units":"in","Rept_Date":"2020-03-29 15"},"coordinates":[2141,2067]},{"type":"Point","properties":{"Station_ID":"VT-WR-2","Station_Nam":"POMFRET 2.6 N, VT","Latitude":"43.74230","Longitude":"-72.52550","Snowdepth":"1.000","Units":"in","Rept_Date":"2020-03-29 12"},"coordinates":[5800,1035]},{"type":"Point","properties":{"Station_ID":"SRAW3","Station_Nam":"SARONA","Latitude":"45.80250","Longitude":"-91.86700","Snowdepth":"1.000","Units":"in","Rept_Date":"2020-03-29 13"},"coordinates":[1261,3348]},{"type":"Point","properties":{"Station_ID":"RHRW3","Station_Nam":"RHINELANDER WJFW TV-12","Latitude":"45.62220","Longitude":"-89.41000","Snowdepth":"1.000","Units":"in","Rept_Date":"2020-03-30 03"},"coordinates":[1837,3146]},{"type":"Point","properties":{"Station_ID":"RHI","Station_Nam":"RHINELANDER-ONEIDA COUNTY AIRPORT","Latitude":"45.63080","Longitude":"-89.46530","Snowdepth":"1.000","Units":"in","Rept_Date":"2020-03-29 12"},"coordinates":[1824,3155]},{"type":"Point","properties":{"Station_ID":"PERV1","Station_Nam":"PERU","Latitude":"43.26670","Longitude":"-72.90000","Snowdepth":"1.000","Units":"in","Rept_Date":"2020-03-29 11"},"coordinates":[5712,501]},{"type":"Point","properties":{"Station_ID":"PEKN6","Station_Nam":"PECK LAKE","Latitude":"43.11500","Longitude":"-74.42360","Snowdepth":"1.000","Units":"in","Rept_Date":"2020-03-29 11"},"coordinates":[5355,331]},{"type":"Point","properties":{"Station_ID":"PARM4","Station_Nam":"PARENT BAY","Latitude":"45.79610","Longitude":"-86.40110","Snowdepth":"1.000","Units":"in","Rept_Date":"2020-03-29 16"},"coordinates":[2543,3341]},{"type":"Point","properties":{"Station_ID":"MTQM4","Station_Nam":"MANISTIQUE WWTP","Latitude":"45.95120","Longitude":"-86.25130","Snowdepth":"1.000","Units":"in","Rept_Date":"2020-03-29 11"},"coordinates":[2579,3515]},{"type":"Point","properties":{"Station_ID":"MNHZK4CP","Station_Nam":"WATERTOWN 0.8 NW","Latitude":"44.97073","Longitude":"-93.85906","Snowdepth":"1.000","Units":"in","Rept_Date":"2020-03-29 12"},"coordinates":[793,2414]},{"type":"Point","properties":{"Station_ID":"MNG0GYSN","Station_Nam":"LONSDALE 1.1 SSW","Latitude":"44.46445","Longitude":"-93.43293","Snowdepth":"1.000","Units":"in","Rept_Date":"2020-03-29 11"},"coordinates":[893,1846]},{"type":"Point","properties":{"Station_ID":"MN-SC-2","Station_Nam":"PRIOR LAKE 2.0 W, MN","Latitude":"44.71250","Longitude":"-93.46360","Snowdepth":"1.000","Units":"in","Rept_Date":"2020-03-29 13"},"coordinates":[886,2125]},{"type":"Point","properties":{"Station_ID":"MN-MC-7","Station_Nam":"SILVER LAKE 1.7 N, MN","Latitude":"44.92788","Longitude":"-94.20408","Snowdepth":"1.000","Units":"in","Rept_Date":"2020-03-29 13"},"coordinates":[712,2366]},{"type":"Point","properties":{"Station_ID":"MN-HN-30","Station_Nam":"PLYMOUTH 2.4 ENE, MN","Latitude":"45.04063","Longitude":"-93.41950","Snowdepth":"1.000","Units":"in","Rept_Date":"2020-03-29 14"},"coordinates":[896,2493]},{"type":"Point","properties":{"Station_ID":"MN-CW-22","Station_Nam":"FORT RIPLEY 0.8 N, MN","Latitude":"46.18089","Longitude":"-94.36510","Snowdepth":"1.000","Units":"in","Rept_Date":"2020-03-29 13"},"coordinates":[674,3773]},{"type":"Point","properties":{"Station_ID":"MN-CV-8","Station_Nam":"WATERTOWN 0.5 NNW, MN","Latitude":"44.96631","Longitude":"-93.84890","Snowdepth":"1.000","Units":"in","Rept_Date":"2020-03-29 11"},"coordinates":[796,2409]},{"type":"Point","properties":{"Station_ID":"MN-CV-40","Station_Nam":"EXCELSIOR 0.8 S, MN","Latitude":"44.88996","Longitude":"-93.56646","Snowdepth":"1.000","Units":"in","Rept_Date":"2020-03-29 13"},"coordinates":[862,2324]},{"type":"Point","properties":{"Station_ID":"MI-OT-4","Station_Nam":"GAYLORD 1.7 WNW, MI","Latitude":"45.03280","Longitude":"-84.71090","Snowdepth":"1.000","Units":"in","Rept_Date":"2020-03-29 13"},"coordinates":[2940,2484]},{"type":"Point","properties":{"Station_ID":"MCLN8","Station_Nam":"MC LEOD,ND","Latitude":"46.40250","Longitude":"-97.23810","Snowdepth":"1.000","Units":"in","Rept_Date":"2020-03-29 13"},"coordinates":[0,4022]},{"type":"Point","properties":{"Station_ID":"LSTM5","Station_Nam":"LESTER PRAIRIE 2S","Latitude":"44.85930","Longitude":"-94.05030","Snowdepth":"1.000","Units":"in","Rept_Date":"2020-03-29 12"},"coordinates":[748,2289]},{"type":"Point","properties":{"Station_ID":"LNCM1","Station_Nam":"LINCOLN WATER DISTRICT","Latitude":"45.32410","Longitude":"-68.58300","Snowdepth":"1.000","Units":"in","Rept_Date":"2020-03-29 12"},"coordinates":[6725,2811]},{"type":"Point","properties":{"Station_ID":"HOKN6","Station_Nam":"HOOKER 12 NNW","Latitude":"43.85240","Longitude":"-75.71580","Snowdepth":"1.000","Units":"in","Rept_Date":"2020-03-29 11"},"coordinates":[5051,1159]},{"type":"Point","properties":{"Station_ID":"GAYM4","Station_Nam":"GAYLORD","Latitude":"45.03320","Longitude":"-84.71130","Snowdepth":"1.000","Units":"in","Rept_Date":"2020-03-29 12"},"coordinates":[2940,2485]},{"type":"Point","properties":{"Station_ID":"FORM5","Station_Nam":"FOREST LAKE 5NE","Latitude":"45.33170","Longitude":"-92.89820","Snowdepth":"1.000","Units":"in","Rept_Date":"2020-03-29 12"},"coordinates":[1019,2820]},{"type":"Point","properties":{"Station_ID":"ESAM4","Station_Nam":"ESCANABA","Latitude":"45.74380","Longitude":"-87.04060","Snowdepth":"1.000","Units":"in","Rept_Date":"2020-03-29 11"},"coordinates":[2393,3282]},{"type":"Point","properties":{"Station_ID":"CAN-ON-42","Station_Nam":"VANKLEEK HILL 3.4 S, CA","Latitude":"45.48987","Longitude":"-74.64570","Snowdepth":"1.000","Units":"in","Rept_Date":"2020-03-29 12"},"coordinates":[5302,2997]},{"type":"Point","properties":{"Station_ID":"AROM4","Station_Nam":"ARNOLD,MI","Latitude":"46.06670","Longitude":"-87.48330","Snowdepth":"1.000","Units":"in","Rept_Date":"2020-03-29 12"},"coordinates":[2290,3645]}]}},"arcs":[],"transform":{"scale":[0.004260890089008902,0.0008907790779077906],"translate":[-97.2386,42.82]}}