{"type":"Topology","objects":{"snowdepth_geo":{"type":"GeometryCollection","name":"snowdepth","crs":{"type":"name","properties":{"name":"urn:ogc:def:crs:OGC:1.3:CRS84"}},"geometries":[{"type":"Point","properties":{"Station_ID":"PRKM4","Station_Nam":"MUNISING EAST","Latitude":"46.42580","Longitude":"-86.62000","Snowdepth":"76.500","Units":"in","Rept_Date":"2019-11-26 06"},"coordinates":[2890,6701]},{"type":"Point","properties":{"Station_ID":"MMSV1","Station_Nam":"MOUNT MANSFIELD","Latitude":"44.53330","Longitude":"-72.83330","Snowdepth":"76.000","Units":"in","Rept_Date":"2019-11-26 05"},"coordinates":[6641,5524]},{"type":"Point","properties":{"Station_ID":"OGIQ6","Station_Nam":"OGOKI CAMP","Latitude":"50.76680","Longitude":"-87.85820","Snowdepth":"61.100","Units":"in","Rept_Date":"2019-11-26 06"},"coordinates":[2553,9402]},{"type":"Point","properties":{"Station_ID":"AUDQ6","Station_Nam":"AUDEN","Latitude":"48.52600","Longitude":"-82.57570","Snowdepth":"47.640","Units":"in","Rept_Date":"2019-11-26 06"},"coordinates":[3990,8008]},{"type":"Point","properties":{"Station_ID":"DVLQ6","Station_Nam":"DEVIOUS LAKE","Latitude":"49.19890","Longitude":"-87.76440","Snowdepth":"43.460","Units":"in","Rept_Date":"2019-11-26 06"},"coordinates":[2578,8426]},{"type":"Point","properties":{"Station_ID":"GLRM5","Station_Nam":"GLACIAL RIDGE","Latitude":"47.71670","Longitude":"-96.26670","Snowdepth":"27.000","Units":"in","Rept_Date":"2019-11-25 20"},"coordinates":[264,7504]},{"type":"Point","properties":{"Station_ID":"HTLN3","Station_Nam":"HERMIT LAKE SNOWPLOT","Latitude":"44.26130","Longitude":"-71.28330","Snowdepth":"21.000","Units":"in","Rept_Date":"2019-11-25 11"},"coordinates":[7063,5354]},{"type":"Point","properties":{"Station_ID":"CAN-NB-50","Station_Nam":"DOYLEVILLE 2.4 WNW, CAN","Latitude":"47.90803","Longitude":"-66.13279","Snowdepth":"19.700","Units":"in","Rept_Date":"2019-11-25 13"},"coordinates":[8465,7623]},{"type":"Point","properties":{"Station_ID":"ME-AR-18","Station_Nam":"NEW SWEDEN 4.9 NNW, ME","Latitude":"47.01080","Longitude":"-68.14390","Snowdepth":"18.000","Units":"in","Rept_Date":"2019-11-25 12"},"coordinates":[7917,7065]},{"type":"Point","properties":{"Station_ID":"ME-AR-23","Station_Nam":"MADAWASKA 2.5 E, ME","Latitude":"47.34933","Longitude":"-68.28141","Snowdepth":"16.000","Units":"in","Rept_Date":"2019-11-25 12"},"coordinates":[7880,7276]},{"type":"Point","properties":{"Station_ID":"CARM1","Station_Nam":"CARIBOU WFO","Latitude":"46.86810","Longitude":"-68.01250","Snowdepth":"15.000","Units":"in","Rept_Date":"2019-11-26 05"},"coordinates":[7953,6976]},{"type":"Point","properties":{"Station_ID":"VANM1","Station_Nam":"VAN BUREN","Latitude":"47.16600","Longitude":"-67.93900","Snowdepth":"14.000","Units":"in","Rept_Date":"2019-11-25 12"},"coordinates":[7973,7161]},{"type":"Point","properties":{"Station_ID":"ME-AR-15","Station_Nam":"PRESQUE ISLE 1.3 WSW, ME","Latitude":"46.67960","Longitude":"-68.01270","Snowdepth":"14.000","Units":"in","Rept_Date":"2019-11-25 12"},"coordinates":[7953,6859]},{"type":"Point","properties":{"Station_ID":"LILM1","Station_Nam":"LILLE","Latitude":"47.27770","Longitude":"-68.10520","Snowdepth":"14.000","Units":"in","Rept_Date":"2019-11-25 12"},"coordinates":[7928,7231]},{"type":"Point","properties":{"Station_ID":"CNRM1","Station_Nam":"CONNOR TWP","Latitude":"46.95830","Longitude":"-68.03330","Snowdepth":"14.000","Units":"in","Rept_Date":"2019-11-25 12"},"coordinates":[7948,7032]},{"type":"Point","properties":{"Station_ID":"GHMN3","Station_Nam":"PINKHAM NOTCH","Latitude":"44.25800","Longitude":"-71.25250","Snowdepth":"13.000","Units":"in","Rept_Date":"2019-11-25 10"},"coordinates":[7072,5352]},{"type":"Point","properties":{"Station_ID":"CAN-NB-13","Station_Nam":"BATHURST 3.8 NW, CAN","Latitude":"47.64212","Longitude":"-65.68756","Snowdepth":"13.000","Units":"in","Rept_Date":"2019-11-25 11"},"coordinates":[8586,7458]},{"type":"Point","properties":{"Station_ID":"PTLQ6","Station_Nam":"PORTAGE LAKE","Latitude":"49.06950","Longitude":"-86.65940","Snowdepth":"11.970","Units":"in","Rept_Date":"2019-11-26 06"},"coordinates":[2879,8346]},{"type":"Point","properties":{"Station_ID":"NH-CS-10","Station_Nam":"RANDOLPH 1.4 NE, NH","Latitude":"44.38824","Longitude":"-71.26950","Snowdepth":"11.500","Units":"in","Rept_Date":"2019-11-25 12"},"coordinates":[7067,5433]},{"type":"Point","properties":{"Station_ID":"FISM1","Station_Nam":"FORT KENT COOP","Latitude":"47.23850","Longitude":"-68.61240","Snowdepth":"11.000","Units":"in","Rept_Date":"2019-11-25 12"},"coordinates":[7790,7207]},{"type":"Point","properties":{"Station_ID":"RKWM1","Station_Nam":"MOOSEHEAD LAKE","Latitude":"45.58330","Longitude":"-69.71670","Snowdepth":"10.000","Units":"in","Rept_Date":"2019-11-25 12"},"coordinates":[7489,6177]},{"type":"Point","properties":{"Station_ID":"MI-HG-18","Station_Nam":"CALUMET 0.7 W (TAMARACK), MI","Latitude":"47.24560","Longitude":"-88.46791","Snowdepth":"10.000","Units":"in","Rept_Date":"2019-11-25 13"},"coordinates":[2387,7211]},{"type":"Point","properties":{"Station_ID":"GILV1","Station_Nam":"GILMAN","Latitude":"44.41120","Longitude":"-71.71860","Snowdepth":"10.000","Units":"in","Rept_Date":"2019-11-25 11"},"coordinates":[6945,5448]},{"type":"Point","properties":{"Station_ID":"BRAM1","Station_Nam":"BRASSUA DAM","Latitude":"45.66020","Longitude":"-69.81190","Snowdepth":"10.000","Units":"in","Rept_Date":"2019-11-25 12"},"coordinates":[7464,6225]},{"type":"Point","properties":{"Station_ID":"RI-PR-28","Station_Nam":"NORTH SMITHFIELD 0.7 SE, RI","Latitude":"41.95910","Longitude":"-71.54201","Snowdepth":"9.000","Units":"in","Rept_Date":"2019-11-25 12"},"coordinates":[6993,3922]},{"type":"Point","properties":{"Station_ID":"RANM1","Station_Nam":"RANGELEY,ME","Latitude":"44.96670","Longitude":"-70.65000","Snowdepth":"9.000","Units":"in","Rept_Date":"2019-11-25 12"},"coordinates":[7235,5793]},{"type":"Point","properties":{"Station_ID":"BRLN3","Station_Nam":"BERLIN","Latitude":"44.45350","Longitude":"-71.18540","Snowdepth":"9.000","Units":"in","Rept_Date":"2019-11-25 14"},"coordinates":[7090,5474]},{"type":"Point","properties":{"Station_ID":"BRDM1","Station_Nam":"BRIDGEWATER","Latitude":"46.42870","Longitude":"-67.84370","Snowdepth":"9.000","Units":"in","Rept_Date":"2019-11-25 23"},"coordinates":[7999,6703]},{"type":"Point","properties":{"Station_ID":"AVLV1","Station_Nam":"AVERILL","Latitude":"45.00570","Longitude":"-71.69030","Snowdepth":"9.000","Units":"in","Rept_Date":"2019-11-25 13"},"coordinates":[6952,5817]},{"type":"Point","properties":{"Station_ID":"TRIQ6","Station_Nam":"TRIO LAKE","Latitude":"49.22880","Longitude":"-87.22920","Snowdepth":"8.430","Units":"in","Rept_Date":"2019-11-26 06"},"coordinates":[2724,8445]},{"type":"Point","properties":{"Station_ID":"MMNV1","Station_Nam":"MT. MANSFIELD","Latitude":"44.52480","Longitude":"-72.81540","Snowdepth":"8.000","Units":"in","Rept_Date":"2019-11-25 21"},"coordinates":[6646,5518]},{"type":"Point","properties":{"Station_ID":"IBLM5","Station_Nam":"ISABELLA 14W","Latitude":"47.59360","Longitude":"-91.65140","Snowdepth":"8.000","Units":"in","Rept_Date":"2019-11-25 15"},"coordinates":[1520,7428]},{"type":"Point","properties":{"Station_ID":"CAN-NB-11","Station_Nam":"MIRAMICHI 3.3 S, CAN","Latitude":"46.99343","Longitude":"-65.50690","Snowdepth":"8.000","Units":"in","Rept_Date":"2019-11-25 12"},"coordinates":[8635,7054]},{"type":"Point","properties":{"Station_ID":"BNDM5","Station_Nam":"ELY 25E","Latitude":"47.97190","Longitude":"-91.44860","Snowdepth":"8.000","Units":"in","Rept_Date":"2019-11-25 13"},"coordinates":[1576,7663]},{"type":"Point","properties":{"Station_ID":"FTHQ6","Station_Nam":"FORT HOPE","Latitude":"51.55820","Longitude":"-87.90510","Snowdepth":"7.950","Units":"in","Rept_Date":"2019-11-26 06"},"coordinates":[2540,9894]},{"type":"Point","properties":{"Station_ID":"SVBQ6","Station_Nam":"SAVANT BASE","Latitude":"50.28730","Longitude":"-90.65670","Snowdepth":"7.050","Units":"in","Rept_Date":"2019-11-26 06"},"coordinates":[1791,9103]},{"type":"Point","properties":{"Station_ID":"VT-OL-12","Station_Nam":"GREENSBORO 3.9 NNE, VT","Latitude":"44.63100","Longitude":"-72.28000","Snowdepth":"7.000","Units":"in","Rept_Date":"2019-11-25 12"},"coordinates":[6792,5584]},{"type":"Point","properties":{"Station_ID":"RGNM1","Station_Nam":"RANGELEY 2NW","Latitude":"44.98940","Longitude":"-70.67220","Snowdepth":"7.000","Units":"in","Rept_Date":"2019-11-25 15"},"coordinates":[7229,5807]},{"type":"Point","properties":{"Station_ID":"LEIM5","Station_Nam":"ORR 3E","Latitude":"48.05810","Longitude":"-92.75220","Snowdepth":"7.000","Units":"in","Rept_Date":"2019-11-25 12"},"coordinates":[1221,7716]},{"type":"Point","properties":{"Station_ID":"JKMM1","Station_Nam":"JACKMAN","Latitude":"45.62600","Longitude":"-70.24600","Snowdepth":"7.000","Units":"in","Rept_Date":"2019-11-25 12"},"coordinates":[7345,6203]},{"type":"Point","properties":{"Station_ID":"IWOM4","Station_Nam":"IRONWOOD#2","Latitude":"46.46520","Longitude":"-90.13820","Snowdepth":"7.000","Units":"in","Rept_Date":"2019-11-25 13"},"coordinates":[1932,6725]},{"type":"Point","properties":{"Station_ID":"KABQ6","Station_Nam":"CAB LAKE","Latitude":"49.59950","Longitude":"-89.17990","Snowdepth":"6.930","Units":"in","Rept_Date":"2019-11-26 06"},"coordinates":[2193,8675]},{"type":"Point","properties":{"Station_ID":"CAN-NB-97","Station_Nam":"NEW MARYLAND 0.6 NW, CAN","Latitude":"45.90112","Longitude":"-66.68739","Snowdepth":"6.900","Units":"in","Rept_Date":"2019-11-25 11"},"coordinates":[8314,6375]},{"type":"Point","properties":{"Station_ID":"VT-CL-3","Station_Nam":"GROTON 4.4 WSW, VT","Latitude":"44.19440","Longitude":"-72.28240","Snowdepth":"6.800","Units":"in","Rept_Date":"2019-11-25 11"},"coordinates":[6791,5313]},{"type":"Point","properties":{"Station_ID":"ME-FR-2","Station_Nam":"TEMPLE 1.8 W, ME","Latitude":"44.68329","Longitude":"-70.26420","Snowdepth":"6.800","Units":"in","Rept_Date":"2019-11-25 11"},"coordinates":[7340,5617]},{"type":"Point","properties":{"Station_ID":"NY-OT-11","Station_Nam":"HARTWICK, NY","Latitude":"42.65990","Longitude":"-75.05000","Snowdepth":"6.500","Units":"in","Rept_Date":"2019-11-25 12"},"coordinates":[6038,4358]},{"type":"Point","properties":{"Station_ID":"ME-PN-45","Station_Nam":"MILLINOCKET 2.7 ESE, ME","Latitude":"45.65002","Longitude":"-68.64472","Snowdepth":"6.300","Units":"in","Rept_Date":"2019-11-25 13"},"coordinates":[7781,6218]},{"type":"Point","properties":{"Station_ID":"PRDM4","Station_Nam":"PARADISE","Latitude":"46.60380","Longitude":"-85.03960","Snowdepth":"6.000","Units":"in","Rept_Date":"2019-11-25 11"},"coordinates":[3320,6812]},{"type":"Point","properties":{"Station_ID":"MWN","Station_Nam":"MOUNT WASHINGTON","Latitude":"44.26670","Longitude":"-71.30000","Snowdepth":"6.000","Units":"in","Rept_Date":"2019-11-26 05"},"coordinates":[7059,5358]},{"type":"Point","properties":{"Station_ID":"ME-SM-10","Station_Nam":"NORTH NEW PORTLAND 0.3 WSW, ME","Latitude":"44.92353","Longitude":"-70.02788","Snowdepth":"6.000","Units":"in","Rept_Date":"2019-11-25 12"},"coordinates":[7405,5766]},{"type":"Point","properties":{"Station_ID":"KMWN","Station_Nam":"MOUNT WASHINGTON","Latitude":"44.26666","Longitude":"-71.30000","Snowdepth":"6.000","Units":"in","Rept_Date":"2019-11-26 06"},"coordinates":[7059,5358]},{"type":"Point","properties":{"Station_ID":"JWTN6","Station_Nam":"EAST JEWETT","Latitude":"42.23430","Longitude":"-74.14430","Snowdepth":"6.000","Units":"in","Rept_Date":"2019-11-25 11"},"coordinates":[6285,4093]},{"type":"Point","properties":{"Station_ID":"JEFN3","Station_Nam":"JEFFERSON","Latitude":"44.41690","Longitude":"-71.50080","Snowdepth":"6.000","Units":"in","Rept_Date":"2019-11-25 12"},"coordinates":[7004,5451]},{"type":"Point","properties":{"Station_ID":"HWLM4","Station_Nam":"HALFWAY LAKE","Latitude":"46.47480","Longitude":"-85.59250","Snowdepth":"6.000","Units":"in","Rept_Date":"2019-11-25 14"},"coordinates":[3169,6731]},{"type":"Point","properties":{"Station_ID":"HURW3","Station_Nam":"HURLEY","Latitude":"46.46250","Longitude":"-90.19550","Snowdepth":"6.000","Units":"in","Rept_Date":"2019-11-25 14"},"coordinates":[1917,6724]},{"type":"Point","properties":{"Station_ID":"ANDM1","Station_Nam":"ANDOVER 2","Latitude":"44.65300","Longitude":"-70.79410","Snowdepth":"6.000","Units":"in","Rept_Date":"2019-11-25 11"},"coordinates":[7196,5598]},{"type":"Point","properties":{"Station_ID":"CAN-NB-8","Station_Nam":"KESWICK RIDGE 2.3 SSE, CAN","Latitude":"45.97703","Longitude":"-66.86815","Snowdepth":"5.900","Units":"in","Rept_Date":"2019-11-25 13"},"coordinates":[8265,6422]},{"type":"Point","properties":{"Station_ID":"SOCQ6","Station_Nam":"SOCKET LAKE","Latitude":"50.77870","Longitude":"-91.79300","Snowdepth":"5.590","Units":"in","Rept_Date":"2019-11-26 06"},"coordinates":[1482,9409]},{"type":"Point","properties":{"Station_ID":"CATQ6","Station_Nam":"CAT LAKE","Latitude":"51.72690","Longitude":"-91.82210","Snowdepth":"5.590","Units":"in","Rept_Date":"2019-11-26 06"},"coordinates":[1474,9999]},{"type":"Point","properties":{"Station_ID":"VT-WS-15","Station_Nam":"EAST CALAIS 1.5 SW, VT","Latitude":"44.35523","Longitude":"-72.45540","Snowdepth":"5.500","Units":"in","Rept_Date":"2019-11-25 12"},"coordinates":[6744,5413]},{"type":"Point","properties":{"Station_ID":"WHFN6","Station_Nam":"WILMINGTON 2W","Latitude":"44.39310","Longitude":"-73.85890","Snowdepth":"5.000","Units":"in","Rept_Date":"2019-11-25 13"},"coordinates":[6362,5436]},{"type":"Point","properties":{"Station_ID":"VT-WS-30","Station_Nam":"WOODBURY 3.4 NNW, VT","Latitude":"44.48825","Longitude":"-72.43258","Snowdepth":"5.000","Units":"in","Rept_Date":"2019-11-25 12"},"coordinates":[6750,5496]},{"type":"Point","properties":{"Station_ID":"VT-WS-23","Station_Nam":"CABOT 2.3 E, VT","Latitude":"44.39807","Longitude":"-72.26570","Snowdepth":"5.000","Units":"in","Rept_Date":"2019-11-25 12"},"coordinates":[6796,5439]},{"type":"Point","properties":{"Station_ID":"VT-WR-18","Station_Nam":"ROCHESTER 2.2 ESE, VT","Latitude":"43.86265","Longitude":"-72.76677","Snowdepth":"5.000","Units":"in","Rept_Date":"2019-11-25 11"},"coordinates":[6659,5106]},{"type":"Point","properties":{"Station_ID":"VT-ES-3","Station_Nam":"LUNENBURG 2.3 NNW, VT","Latitude":"44.49324","Longitude":"-71.70446","Snowdepth":"5.000","Units":"in","Rept_Date":"2019-11-25 10"},"coordinates":[6949,5499]},{"type":"Point","properties":{"Station_ID":"VT-AD-20","Station_Nam":"HANCOCK 0.3 S, VT","Latitude":"43.92166","Longitude":"-72.84042","Snowdepth":"5.000","Units":"in","Rept_Date":"2019-11-25 12"},"coordinates":[6639,5143]},{"type":"Point","properties":{"Station_ID":"SUAW3","Station_Nam":"SUAMICO","Latitude":"44.60190","Longitude":"-88.09780","Snowdepth":"5.000","Units":"in","Rept_Date":"2019-11-25 12"},"coordinates":[2487,5566]},{"type":"Point","properties":{"Station_ID":"RLWM5","Station_Nam":"CAMP NORRIS DNR","Latitude":"48.61000","Longitude":"-95.18170","Snowdepth":"5.000","Units":"in","Rept_Date":"2019-11-25 14"},"coordinates":[560,8060]},{"type":"Point","properties":{"Station_ID":"QNCM4","Station_Nam":"QUINCY HILL","Latitude":"47.13640","Longitude":"-88.57950","Snowdepth":"5.000","Units":"in","Rept_Date":"2019-11-25 12"},"coordinates":[2356,7143]},{"type":"Point","properties":{"Station_ID":"PTBN3","Station_Nam":"DAM WITHIN","Latitude":"45.05000","Longitude":"-71.38330","Snowdepth":"5.000","Units":"in","Rept_Date":"2019-11-25 12"},"coordinates":[7036,5845]},{"type":"Point","properties":{"Station_ID":"ORAN3","Station_Nam":"ORANGE","Latitude":"43.66880","Longitude":"-71.94830","Snowdepth":"5.000","Units":"in","Rept_Date":"2019-11-25 12"},"coordinates":[6882,4986]},{"type":"Point","properties":{"Station_ID":"NUMN3","Station_Nam":"NORTHUMBERLAND","Latitude":"44.52830","Longitude":"-71.50440","Snowdepth":"5.000","Units":"in","Rept_Date":"2019-11-25 11"},"coordinates":[7003,5520]},{"type":"Point","properties":{"Station_ID":"NH-GR-47","Station_Nam":"LITTLETON 7.3 W, NH","Latitude":"44.31847","Longitude":"-71.91086","Snowdepth":"5.000","Units":"in","Rept_Date":"2019-11-25 13"},"coordinates":[6892,5390]},{"type":"Point","properties":{"Station_ID":"NH-CS-4","Station_Nam":"PITTSBURG 6.1 NE, NH","Latitude":"45.11060","Longitude":"-71.29760","Snowdepth":"5.000","Units":"in","Rept_Date":"2019-11-25 12"},"coordinates":[7059,5883]},{"type":"Point","properties":{"Station_ID":"ME-PS-9","Station_Nam":"ABBOT 4.6 WNW, ME","Latitude":"45.21805","Longitude":"-69.54791","Snowdepth":"5.000","Units":"in","Rept_Date":"2019-11-25 12"},"coordinates":[7535,5950]},{"type":"Point","properties":{"Station_ID":"COKM5","Station_Nam":"COOK","Latitude":"47.85060","Longitude":"-92.69250","Snowdepth":"5.000","Units":"in","Rept_Date":"2019-11-25 12"},"coordinates":[1237,7587]},{"type":"Point","properties":{"Station_ID":"CAN-NB-64","Station_Nam":"KESWICK RIDGE 4.0 SE, CAN","Latitude":"45.97014","Longitude":"-66.85538","Snowdepth":"5.000","Units":"in","Rept_Date":"2019-11-25 12"},"coordinates":[8268,6417]},{"type":"Point","properties":{"Station_ID":"BETM1","Station_Nam":"BETHEL 6 SSE","Latitude":"44.32000","Longitude":"-70.75680","Snowdepth":"5.000","Units":"in","Rept_Date":"2019-11-25 12"},"coordinates":[7206,5391]},{"type":"Point","properties":{"Station_ID":"BABM5","Station_Nam":"BABBITT","Latitude":"47.71210","Longitude":"-91.95330","Snowdepth":"5.000","Units":"in","Rept_Date":"2019-11-25 13"},"coordinates":[1438,7501]},{"type":"Point","properties":{"Station_ID":"ATMM4","Station_Nam":"ATLANTIC MINE 5NW","Latitude":"47.15440","Longitude":"-88.71670","Snowdepth":"5.000","Units":"in","Rept_Date":"2019-11-25 14"},"coordinates":[2319,7154]},{"type":"Point","properties":{"Station_ID":"WI-IR-4","Station_Nam":"MERCER 7.0 NNE, WI","Latitude":"46.26677","Longitude":"-90.03360","Snowdepth":"4.900","Units":"in","Rept_Date":"2019-11-25 13"},"coordinates":[1961,6602]},{"type":"Point","properties":{"Station_ID":"MI-BG-3","Station_Nam":"L'ANSE 17.8 SE, MI","Latitude":"46.55730","Longitude":"-88.20770","Snowdepth":"4.800","Units":"in","Rept_Date":"2019-11-25 13"},"coordinates":[2458,6783]},{"type":"Point","properties":{"Station_ID":"VT-WR-17","Station_Nam":"ROCHESTER 2.3 NE, VT","Latitude":"43.89418","Longitude":"-72.76992","Snowdepth":"4.500","Units":"in","Rept_Date":"2019-11-25 12"},"coordinates":[6659,5126]},{"type":"Point","properties":{"Station_ID":"ME-FR-22","Station_Nam":"FARMINGTON 4.8 NNW, ME","Latitude":"44.73396","Longitude":"-70.18007","Snowdepth":"4.500","Units":"in","Rept_Date":"2019-11-25 14"},"coordinates":[7363,5648]},{"type":"Point","properties":{"Station_ID":"CAN-QC-47","Station_Nam":"SAINTE-FOY 1.8 ENE, CAN","Latitude":"46.76934","Longitude":"-71.27124","Snowdepth":"4.500","Units":"in","Rept_Date":"2019-11-25 12"},"coordinates":[7066,6915]},{"type":"Point","properties":{"Station_ID":"CAN-NB-2","Station_Nam":"GRAFTON 2.7 NNE, CA","Latitude":"46.17062","Longitude":"-67.55330","Snowdepth":"4.500","Units":"in","Rept_Date":"2019-11-25 10"},"coordinates":[8078,6542]},{"type":"Point","properties":{"Station_ID":"CAN-ON-621","Station_Nam":"THUNDER BAY 4.2 WSW - MNRF, CAN","Latitude":"48.39163","Longitude":"-89.29107","Snowdepth":"4.400","Units":"in","Rept_Date":"2019-11-25 12"},"coordinates":[2163,7924]},{"type":"Point","properties":{"Station_ID":"VT-OL-5","Station_Nam":"DERBY CENTER 1.8 NW, VT","Latitude":"44.97200","Longitude":"-72.14780","Snowdepth":"4.100","Units":"in","Rept_Date":"2019-11-25 12"},"coordinates":[6828,5796]},{"type":"Point","properties":{"Station_ID":"WI-IR-3","Station_Nam":"PENCE 0.1 E, WI","Latitude":"46.41555","Longitude":"-90.27013","Snowdepth":"4.000","Units":"in","Rept_Date":"2019-11-25 13"},"coordinates":[1896,6695]},{"type":"Point","properties":{"Station_ID":"VT-OL-2","Station_Nam":"BARTON 3.0 ENE, VT","Latitude":"44.75863","Longitude":"-72.11680","Snowdepth":"4.000","Units":"in","Rept_Date":"2019-11-25 12"},"coordinates":[6836,5664]},{"type":"Point","properties":{"Station_ID":"VT-CL-40","Station_Nam":"LYNDONVILLE 4.2 NNW, VT","Latitude":"44.59440","Longitude":"-72.02389","Snowdepth":"4.000","Units":"in","Rept_Date":"2019-11-25 11"},"coordinates":[6862,5562]},{"type":"Point","properties":{"Station_ID":"SUTV1","Station_Nam":"SUTTON","Latitude":"44.61220","Longitude":"-72.04810","Snowdepth":"4.000","Units":"in","Rept_Date":"2019-11-25 13"},"coordinates":[6855,5573]},{"type":"Point","properties":{"Station_ID":"SJBV1","Station_Nam":"SAINT JOHNSBURY","Latitude":"44.42000","Longitude":"-72.01940","Snowdepth":"4.000","Units":"in","Rept_Date":"2019-11-25 21"},"coordinates":[6863,5453]},{"type":"Point","properties":{"Station_ID":"PLFV1","Station_Nam":"PLAINFIELD","Latitude":"44.27610","Longitude":"-72.41500","Snowdepth":"4.000","Units":"in","Rept_Date":"2019-11-25 12"},"coordinates":[6755,5364]},{"type":"Point","properties":{"Station_ID":"PDGM4","Station_Nam":"PAULDING","Latitude":"46.39760","Longitude":"-89.17940","Snowdepth":"4.000","Units":"in","Rept_Date":"2019-11-25 13"},"coordinates":[2193,6683]},{"type":"Point","properties":{"Station_ID":"NY-BM-21","Station_Nam":"WINDSOR 8.0 SE, NY","Latitude":"42.00992","Longitude":"-75.51420","Snowdepth":"4.000","Units":"in","Rept_Date":"2019-11-25 12"},"coordinates":[5912,3954]},{"type":"Point","properties":{"Station_ID":"NCBN6","Station_Nam":"NEWCOMB","Latitude":"43.97070","Longitude":"-74.22200","Snowdepth":"4.000","Units":"in","Rept_Date":"2019-11-25 13"},"coordinates":[6263,5174]},{"type":"Point","properties":{"Station_ID":"LPLN6","Station_Nam":"LAKE PLACID 2 S","Latitude":"44.30420","Longitude":"-73.98390","Snowdepth":"4.000","Units":"in","Rept_Date":"2019-11-25 12"},"coordinates":[6328,5381]},{"type":"Point","properties":{"Station_ID":"LNOW3","Station_Nam":"LAND O LAKES","Latitude":"46.19000","Longitude":"-89.45700","Snowdepth":"4.000","Units":"in","Rept_Date":"2019-11-25 13"},"coordinates":[2118,6554]},{"type":"Point","properties":{"Station_ID":"KINM1","Station_Nam":"KINGFIELD","Latitude":"44.95950","Longitude":"-70.17530","Snowdepth":"4.000","Units":"in","Rept_Date":"2019-11-25 12"},"coordinates":[7365,5789]},{"type":"Point","properties":{"Station_ID":"KABM5","Station_Nam":"KABETOGAMA LAKE VISITOR CTR","Latitude":"48.40880","Longitude":"-93.04840","Snowdepth":"4.000","Units":"in","Rept_Date":"2019-11-25 13"},"coordinates":[1140,7935]},{"type":"Point","properties":{"Station_ID":"IRMM4","Station_Nam":"WWTP","Latitude":"46.46670","Longitude":"-90.18330","Snowdepth":"4.000","Units":"in","Rept_Date":"2019-11-25 13"},"coordinates":[1920,6726]},{"type":"Point","properties":{"Station_ID":"INL","Station_Nam":"FALLS INTERNATIONAL ARPT","Latitude":"48.56640","Longitude":"-93.40310","Snowdepth":"4.000","Units":"in","Rept_Date":"2019-11-26 00"},"coordinates":[1044,8033]},{"type":"Point","properties":{"Station_ID":"IFSM5","Station_Nam":"INTERNATIONAL FALLS SNOW","Latitude":"48.57780","Longitude":"-93.39640","Snowdepth":"4.000","Units":"in","Rept_Date":"2019-11-26 06"},"coordinates":[1046,8040]},{"type":"Point","properties":{"Station_ID":"HERM4","Station_Nam":"HERMAN,MI","Latitude":"46.65000","Longitude":"-88.33330","Snowdepth":"4.000","Units":"in","Rept_Date":"2019-11-25 13"},"coordinates":[2423,6840]},{"type":"Point","properties":{"Station_ID":"CORV1","Station_Nam":"CORINTH","Latitude":"44.00690","Longitude":"-72.31940","Snowdepth":"4.000","Units":"in","Rept_Date":"2019-11-25 12"},"coordinates":[6781,5196]},{"type":"Point","properties":{"Station_ID":"BERM4","Station_Nam":"BERGLAND DAM","Latitude":"46.58690","Longitude":"-89.54750","Snowdepth":"4.000","Units":"in","Rept_Date":"2019-11-25 13"},"coordinates":[2093,6801]},{"type":"Point","properties":{"Station_ID":"WI-VL-9","Station_Nam":"LAND O' LAKES 11.7 W, WI","Latitude":"46.19023","Longitude":"-89.45790","Snowdepth":"3.500","Units":"in","Rept_Date":"2019-11-25 13"},"coordinates":[2117,6554]},{"type":"Point","properties":{"Station_ID":"VT-CL-23","Station_Nam":"RYEGATE 1.5 N, VT","Latitude":"44.23024","Longitude":"-72.10523","Snowdepth":"3.500","Units":"in","Rept_Date":"2019-11-25 12"},"coordinates":[6839,5335]},{"type":"Point","properties":{"Station_ID":"NY-DL-28","Station_Nam":"FLEISCHMANNS 5.7 N, NY","Latitude":"42.23779","Longitude":"-74.52335","Snowdepth":"3.500","Units":"in","Rept_Date":"2019-11-25 12"},"coordinates":[6181,4095]},{"type":"Point","properties":{"Station_ID":"NY-DL-25","Station_Nam":"HOBART 4.8 ESE, NY","Latitude":"42.35230","Longitude":"-74.57830","Snowdepth":"3.500","Units":"in","Rept_Date":"2019-11-25 12"},"coordinates":[6166,4167]},{"type":"Point","properties":{"Station_ID":"MN-SL-15","Station_Nam":"CHISHOLM 0.4 WSW, MN","Latitude":"47.48557","Longitude":"-92.88690","Snowdepth":"3.500","Units":"in","Rept_Date":"2019-11-25 13"},"coordinates":[1184,7360]},{"type":"Point","properties":{"Station_ID":"NH-CS-7","Station_Nam":"LANCASTER 0.5 N, NH","Latitude":"44.49611","Longitude":"-71.57640","Snowdepth":"3.300","Units":"in","Rept_Date":"2019-11-25 12"},"coordinates":[6983,5500]},{"type":"Point","properties":{"Station_ID":"CAN-QC-51","Station_Nam":"BELOEIL 0.7 NW, CAN","Latitude":"45.58049","Longitude":"-73.21218","Snowdepth":"3.100","Units":"in","Rept_Date":"2019-11-25 12"},"coordinates":[6538,6175]},{"type":"Point","properties":{"Station_ID":"WRPW3","Station_Nam":"WATER PURIFICATION PLANT","Latitude":"44.38800","Longitude":"-89.80550","Snowdepth":"3.000","Units":"in","Rept_Date":"2019-11-25 12"},"coordinates":[2023,5433]},{"type":"Point","properties":{"Station_ID":"WLFM5","Station_Nam":"WOLF RIDGE ENVIRON LEARNING CENTER","Latitude":"47.38240","Longitude":"-91.19730","Snowdepth":"3.000","Units":"in","Rept_Date":"2019-11-25 13"},"coordinates":[1644,7296]},{"type":"Point","properties":{"Station_ID":"WI-VL-10","Station_Nam":"LAND O LAKES 4.3 WNW, WI","Latitude":"46.17440","Longitude":"-89.30380","Snowdepth":"3.000","Units":"in","Rept_Date":"2019-11-25 13"},"coordinates":[2159,6545]},{"type":"Point","properties":{"Station_ID":"VT-WS-19","Station_Nam":"WATERBURY 3.0 NW, VT","Latitude":"44.36060","Longitude":"-72.80770","Snowdepth":"3.000","Units":"in","Rept_Date":"2019-11-25 11"},"coordinates":[6648,5416]},{"type":"Point","properties":{"Station_ID":"VT-WR-2","Station_Nam":"POMFRET 2.6 N, VT","Latitude":"43.74230","Longitude":"-72.52550","Snowdepth":"3.000","Units":"in","Rept_Date":"2019-11-25 12"},"coordinates":[6725,5031]},{"type":"Point","properties":{"Station_ID":"VT-OL-1","Station_Nam":"WESTFIELD 0.7 WNW, VT","Latitude":"44.89160","Longitude":"-72.44350","Snowdepth":"3.000","Units":"in","Rept_Date":"2019-11-25 12"},"coordinates":[6747,5746]},{"type":"Point","properties":{"Station_ID":"VT-CL-18","Station_Nam":"WHEELOCK 1.6 S, VT","Latitude":"44.56491","Longitude":"-72.08830","Snowdepth":"3.000","Units":"in","Rept_Date":"2019-11-25 12"},"coordinates":[6844,5543]},{"type":"Point","properties":{"Station_ID":"TOPN6","Station_Nam":"TUPPER LAKE SUNMOUNT","Latitude":"44.23070","Longitude":"-74.43820","Snowdepth":"3.000","Units":"in","Rept_Date":"2019-11-25 12"},"coordinates":[6205,5335]},{"type":"Point","properties":{"Station_ID":"SLNV1","Station_Nam":"SOUTH LINCOLN","Latitude":"44.07460","Longitude":"-72.97180","Snowdepth":"3.000","Units":"in","Rept_Date":"2019-11-25 12"},"coordinates":[6604,5238]},{"type":"Point","properties":{"Station_ID":"RLKW3","Station_Nam":"REST LAKE","Latitude":"46.12220","Longitude":"-89.87720","Snowdepth":"3.000","Units":"in","Rept_Date":"2019-11-25 11"},"coordinates":[2003,6512]},{"type":"Point","properties":{"Station_ID":"PBAN8","Station_Nam":"SITE 1-3MI.N","Latitude":"48.97420","Longitude":"-97.23860","Snowdepth":"3.000","Units":"in","Rept_Date":"2019-11-25 13"},"coordinates":[0,8286]},{"type":"Point","properties":{"Station_ID":"NY-SR-22","Station_Nam":"GREENFIELD CENTER 1.6 W, NY","Latitude":"43.12684","Longitude":"-73.87860","Snowdepth":"3.000","Units":"in","Rept_Date":"2019-11-25 12"},"coordinates":[6357,4649]},{"type":"Point","properties":{"Station_ID":"NY-HR-18","Station_Nam":"SALISBURY CENTER 1.8 NW, NY","Latitude":"43.16260","Longitude":"-74.80880","Snowdepth":"3.000","Units":"in","Rept_Date":"2019-11-25 11"},"coordinates":[6104,4671]},{"type":"Point","properties":{"Station_ID":"NY-GR-13","Station_Nam":"TANNERSVILLE 4.5 SSE, NY","Latitude":"42.13884","Longitude":"-74.08697","Snowdepth":"3.000","Units":"in","Rept_Date":"2019-11-25 12"},"coordinates":[6300,4034]},{"type":"Point","properties":{"Station_ID":"NY-FK-9","Station_Nam":"GABRIELS 1.3 SE, NY","Latitude":"44.41934","Longitude":"-74.16194","Snowdepth":"3.000","Units":"in","Rept_Date":"2019-11-25 12"},"coordinates":[6280,5453]},{"type":"Point","properties":{"Station_ID":"NPTV1","Station_Nam":"NEWPORT","Latitude":"44.94900","Longitude":"-72.19120","Snowdepth":"3.000","Units":"in","Rept_Date":"2019-11-25 12"},"coordinates":[6816,5782]},{"type":"Point","properties":{"Station_ID":"NH-MR-6","Station_Nam":"DANBURY 2.2 ESE, NH","Latitude":"43.52000","Longitude":"-71.81900","Snowdepth":"3.000","Units":"in","Rept_Date":"2019-11-25 13"},"coordinates":[6917,4893]},{"type":"Point","properties":{"Station_ID":"MWTM1","Station_Nam":"MILLINOCKET WWTP","Latitude":"45.64030","Longitude":"-68.67480","Snowdepth":"3.000","Units":"in","Rept_Date":"2019-11-25 11"},"coordinates":[7773,6212]},{"type":"Point","properties":{"Station_ID":"MNSM4","Station_Nam":"MUNISING","Latitude":"46.41210","Longitude":"-86.66250","Snowdepth":"3.000","Units":"in","Rept_Date":"2019-11-25 11"},"coordinates":[2878,6692]},{"type":"Point","properties":{"Station_ID":"MI-HG-6","Station_Nam":"CALUMET 5.8 ENE, MI","Latitude":"47.27200","Longitude":"-88.33400","Snowdepth":"3.000","Units":"in","Rept_Date":"2019-11-25 11"},"coordinates":[2423,7227]},{"type":"Point","properties":{"Station_ID":"LBRM5","Station_Nam":"LAKE BRONSON DAM","Latitude":"48.72410","Longitude":"-96.62180","Snowdepth":"3.000","Units":"in","Rept_Date":"2019-11-25 14"},"coordinates":[168,8131]},{"type":"Point","properties":{"Station_ID":"LBKV1","Station_Nam":"LYE BROOK","Latitude":"43.05000","Longitude":"-73.03330","Snowdepth":"3.000","Units":"in","Rept_Date":"2019-11-26 06"},"coordinates":[6587,4601]},{"type":"Point","properties":{"Station_ID":"JEFV1","Station_Nam":"JEFFERSONVILLE","Latitude":"44.58430","Longitude":"-72.78700","Snowdepth":"3.000","Units":"in","Rept_Date":"2019-11-25 12"},"coordinates":[6654,5555]},{"type":"Point","properties":{"Station_ID":"GNLM4","Station_Nam":"GREENLAND 6N","Latitude":"46.87360","Longitude":"-89.10060","Snowdepth":"3.000","Units":"in","Rept_Date":"2019-11-25 13"},"coordinates":[2215,6980]},{"type":"Point","properties":{"Station_ID":"FARM1","Station_Nam":"FARMINGTON","Latitude":"44.68930","Longitude":"-70.15640","Snowdepth":"3.000","Units":"in","Rept_Date":"2019-11-25 12"},"coordinates":[7370,5621]},{"type":"Point","properties":{"Station_ID":"ESGM1","Station_Nam":"EAST SANGERVILLE","Latitude":"45.13690","Longitude":"-69.28060","Snowdepth":"3.000","Units":"in","Rept_Date":"2019-11-25 12"},"coordinates":[7608,5899]},{"type":"Point","properties":{"Station_ID":"ENFV1","Station_Nam":"ENOSBURG FALLS 2","Latitude":"44.90960","Longitude":"-72.81370","Snowdepth":"3.000","Units":"in","Rept_Date":"2019-11-25 13"},"coordinates":[6647,5758]},{"type":"Point","properties":{"Station_ID":"EMBM5","Station_Nam":"EMBARASS,MN","Latitude":"47.65810","Longitude":"-92.19580","Snowdepth":"3.000","Units":"in","Rept_Date":"2019-11-25 12"},"coordinates":[1372,7468]},{"type":"Point","properties":{"Station_ID":"CSLM5","Station_Nam":"CASS LAKE,MN","Latitude":"47.38470","Longitude":"-94.61470","Snowdepth":"3.000","Units":"in","Rept_Date":"2019-11-25 14"},"coordinates":[714,7298]},{"type":"Point","properties":{"Station_ID":"CAN-NB-18","Station_Nam":"MCLEOD HILL 1.1 ENE, CA","Latitude":"46.02725","Longitude":"-66.67460","Snowdepth":"3.000","Units":"in","Rept_Date":"2019-11-25 12"},"coordinates":[8317,6453]},{"type":"Point","properties":{"Station_ID":"CAN-MB-368","Station_Nam":"WHITESHELL 1.3 NE, CAN","Latitude":"49.74405","Longitude":"-95.19123","Snowdepth":"3.000","Units":"in","Rept_Date":"2019-11-25 14"},"coordinates":[557,8765]},{"type":"Point","properties":{"Station_ID":"CAN-MB-298","Station_Nam":"GARDENTON 4.2 W - SRRCD, CAN","Latitude":"49.09480","Longitude":"-96.75446","Snowdepth":"3.000","Units":"in","Rept_Date":"2019-11-25 14"},"coordinates":[132,8361]},{"type":"Point","properties":{"Station_ID":"BAUM5","Station_Nam":"BAUDETTE,MN","Latitude":"48.71670","Longitude":"-94.61670","Snowdepth":"3.000","Units":"in","Rept_Date":"2019-11-25 21"},"coordinates":[713,8126]},{"type":"Point","properties":{"Station_ID":"NY-CB-9","Station_Nam":"HILLSDALE 5.8 S, NY","Latitude":"42.26165","Longitude":"-73.54160","Snowdepth":"2.700","Units":"in","Rept_Date":"2019-11-25 13"},"coordinates":[6449,4110]},{"type":"Point","properties":{"Station_ID":"VT-WS-11","Station_Nam":"WAITSFIELD 1.8 SE, VT","Latitude":"44.17551","Longitude":"-72.79540","Snowdepth":"2.500","Units":"in","Rept_Date":"2019-11-25 12"},"coordinates":[6652,5301]},{"type":"Point","properties":{"Station_ID":"VT-OG-11","Station_Nam":"VERSHIRE 1.5 ESE, VT","Latitude":"43.96138","Longitude":"-72.29777","Snowdepth":"2.500","Units":"in","Rept_Date":"2019-11-25 11"},"coordinates":[6787,5168]},{"type":"Point","properties":{"Station_ID":"NY-ES-7","Station_Nam":"KEESEVILLE 0.8 SE, NY","Latitude":"44.49504","Longitude":"-73.47109","Snowdepth":"2.500","Units":"in","Rept_Date":"2019-11-25 12"},"coordinates":[6468,5500]},{"type":"Point","properties":{"Station_ID":"NY-AB-1","Station_Nam":"ALTAMONT 2.7 SSW, NY","Latitude":"42.66696","Longitude":"-74.05090","Snowdepth":"2.500","Units":"in","Rept_Date":"2019-11-25 12"},"coordinates":[6310,4362]},{"type":"Point","properties":{"Station_ID":"MN-SL-108","Station_Nam":"IRON JUNCTION 3.4 NNW, MN","Latitude":"47.46150","Longitude":"-92.63130","Snowdepth":"2.500","Units":"in","Rept_Date":"2019-11-25 13"},"coordinates":[1254,7345]},{"type":"Point","properties":{"Station_ID":"CAN-MB-63","Station_Nam":"STEINBACH 0.8 SSE, CA","Latitude":"49.51964","Longitude":"-96.67940","Snowdepth":"2.500","Units":"in","Rept_Date":"2019-11-25 14"},"coordinates":[152,8626]},{"type":"Point","properties":{"Station_ID":"WTRM4","Station_Nam":"WATERSMEET 12WSW","Latitude":"46.22310","Longitude":"-89.40850","Snowdepth":"2.000","Units":"in","Rept_Date":"2019-11-25 12"},"coordinates":[2131,6575]},{"type":"Point","properties":{"Station_ID":"WTNM4","Station_Nam":"WATTON 2WSW","Latitude":"46.52660","Longitude":"-88.64240","Snowdepth":"2.000","Units":"in","Rept_Date":"2019-11-25 13"},"coordinates":[2339,6764]},{"type":"Point","properties":{"Station_ID":"WRUM5","Station_Nam":"WARROAD 4W","Latitude":"48.89600","Longitude":"-95.40700","Snowdepth":"2.000","Units":"in","Rept_Date":"2019-11-26 04"},"coordinates":[498,8238]},{"type":"Point","properties":{"Station_ID":"WORV1","Station_Nam":"WORCESTER 2 W","Latitude":"44.37470","Longitude":"-72.58220","Snowdepth":"2.000","Units":"in","Rept_Date":"2019-11-25 12"},"coordinates":[6710,5425]},{"type":"Point","properties":{"Station_ID":"WNDP1","Station_Nam":"WINDBER COUNTY CLUB","Latitude":"40.28780","Longitude":"-78.77530","Snowdepth":"2.000","Units":"in","Rept_Date":"2019-11-25 12"},"coordinates":[5024,2882]},{"type":"Point","properties":{"Station_ID":"WALN6","Station_Nam":"WALTON 2","Latitude":"42.18470","Longitude":"-75.14550","Snowdepth":"2.000","Units":"in","Rept_Date":"2019-11-25 10"},"coordinates":[6012,4062]},{"type":"Point","properties":{"Station_ID":"WAIV1","Station_Nam":"WAITSFIELD","Latitude":"44.17560","Longitude":"-72.79610","Snowdepth":"2.000","Units":"in","Rept_Date":"2019-11-25 12"},"coordinates":[6651,5301]},{"type":"Point","properties":{"Station_ID":"VT-ES-1","Station_Nam":"GRANBY 1.4 NW, VT","Latitude":"44.58330","Longitude":"-71.77870","Snowdepth":"2.000","Units":"in","Rept_Date":"2019-11-25 12"},"coordinates":[6928,5555]},{"type":"Point","properties":{"Station_ID":"TWOM5","Station_Nam":"TWO HARBORS,MN","Latitude":"47.12580","Longitude":"-91.70750","Snowdepth":"2.000","Units":"in","Rept_Date":"2019-11-26 01"},"coordinates":[1505,7136]},{"type":"Point","properties":{"Station_ID":"ROWM3","Station_Nam":"ROWE 3NE","Latitude":"42.73500","Longitude":"-72.86920","Snowdepth":"2.000","Units":"in","Rept_Date":"2019-11-25 12"},"coordinates":[6632,4405]},{"type":"Point","properties":{"Station_ID":"PHON6","Station_Nam":"PHOENICIA 2SW","Latitude":"42.06420","Longitude":"-74.34080","Snowdepth":"2.000","Units":"in","Rept_Date":"2019-11-25 11"},"coordinates":[6231,3987]},{"type":"Point","properties":{"Station_ID":"PA-SS-16","Station_Nam":"NEW MILFORD 1.6 SSE, PA","Latitude":"41.85540","Longitude":"-75.71110","Snowdepth":"2.000","Units":"in","Rept_Date":"2019-11-25 14"},"coordinates":[5858,3858]},{"type":"Point","properties":{"Station_ID":"NY-WS-8","Station_Nam":"GRANVILLE 9.5 SW, NY","Latitude":"43.31163","Longitude":"-73.39613","Snowdepth":"2.000","Units":"in","Rept_Date":"2019-11-25 12"},"coordinates":[6488,4764]},{"type":"Point","properties":{"Station_ID":"NY-DL-24","Station_Nam":"WALTON 6.5 W, NY","Latitude":"42.16534","Longitude":"-75.25850","Snowdepth":"2.000","Units":"in","Rept_Date":"2019-11-25 12"},"coordinates":[5981,4050]},{"type":"Point","properties":{"Station_ID":"NY-AB-54","Station_Nam":"ALTAMONT 2.9 SW, NY","Latitude":"42.68182","Longitude":"-74.08326","Snowdepth":"2.000","Units":"in","Rept_Date":"2019-11-25 12"},"coordinates":[6301,4372]},{"type":"Point","properties":{"Station_ID":"NH-SL-3","Station_Nam":"WEST UNITY 0.7 WSW, NH","Latitude":"43.28652","Longitude":"-72.32970","Snowdepth":"2.000","Units":"in","Rept_Date":"2019-11-25 12"},"coordinates":[6778,4748]},{"type":"Point","properties":{"Station_ID":"NH-CR-15","Station_Nam":"JACKSON 3.7 NW, NH","Latitude":"44.19069","Longitude":"-71.22598","Snowdepth":"2.000","Units":"in","Rept_Date":"2019-11-25 12"},"coordinates":[7079,5310]},{"type":"Point","properties":{"Station_ID":"NFKC3","Station_Nam":"NORFOLK","Latitude":"41.97250","Longitude":"-73.22080","Snowdepth":"2.000","Units":"in","Rept_Date":"2019-11-25 13"},"coordinates":[6536,3930]},{"type":"Point","properties":{"Station_ID":"NEWN3","Station_Nam":"NEWPORT,NH","Latitude":"43.38330","Longitude":"-72.18330","Snowdepth":"2.000","Units":"in","Rept_Date":"2019-11-25 12"},"coordinates":[6818,4808]},{"type":"Point","properties":{"Station_ID":"NCKN6","Station_Nam":"NORTH CREEK 5 SE","Latitude":"43.66110","Longitude":"-73.89690","Snowdepth":"2.000","Units":"in","Rept_Date":"2019-11-25 12"},"coordinates":[6352,4981]},{"type":"Point","properties":{"Station_ID":"MTLT1","Station_Nam":"GATLINBURG,TN","Latitude":"35.65500","Longitude":"-83.44110","Snowdepth":"2.000","Units":"in","Rept_Date":"2019-11-25 13"},"coordinates":[3755,0]},{"type":"Point","properties":{"Station_ID":"MN6J45LB","Station_Nam":"LUTSEN 4.1 WSW","Latitude":"47.62292","Longitude":"-90.75546","Snowdepth":"2.000","Units":"in","Rept_Date":"2019-11-25 13"},"coordinates":[1764,7446]},{"type":"Point","properties":{"Station_ID":"MN-IT-23","Station_Nam":"BOVEY 13.4 N, MN","Latitude":"47.48855","Longitude":"-93.43497","Snowdepth":"2.000","Units":"in","Rept_Date":"2019-11-25 13"},"coordinates":[1035,7362]},{"type":"Point","properties":{"Station_ID":"MN-CK-6","Station_Nam":"GRAND MARAIS 4.4 W, MN","Latitude":"47.74865","Longitude":"-90.43760","Snowdepth":"2.000","Units":"in","Rept_Date":"2019-11-25 13"},"coordinates":[1851,7524]},{"type":"Point","properties":{"Station_ID":"MLDN6","Station_Nam":"EMMONS","Latitude":"42.46940","Longitude":"-75.01050","Snowdepth":"2.000","Units":"in","Rept_Date":"2019-11-25 12"},"coordinates":[6049,4240]},{"type":"Point","properties":{"Station_ID":"ME-FR-4","Station_Nam":"NEW SHARON 2.0 NW, ME","Latitude":"44.66582","Longitude":"-70.02720","Snowdepth":"2.000","Units":"in","Rept_Date":"2019-11-25 12"},"coordinates":[7405,5606]},{"type":"Point","properties":{"Station_ID":"LVDW3","Station_Nam":"LAC VIEUX DESERT","Latitude":"46.12110","Longitude":"-89.07580","Snowdepth":"2.000","Units":"in","Rept_Date":"2019-11-25 15"},"coordinates":[2221,6511]},{"type":"Point","properties":{"Station_ID":"LNCM1","Station_Nam":"LINCOLN WATER DISTRICT","Latitude":"45.32410","Longitude":"-68.58300","Snowdepth":"2.000","Units":"in","Rept_Date":"2019-11-25 13"},"coordinates":[7798,6016]},{"type":"Point","properties":{"Station_ID":"LAPP1","Station_Nam":"LAPORTE,PA","Latitude":"41.42470","Longitude":"-76.49250","Snowdepth":"2.000","Units":"in","Rept_Date":"2019-11-25 12"},"coordinates":[5646,3590]},{"type":"Point","properties":{"Station_ID":"LACN3","Station_Nam":"LACONIA","Latitude":"43.53010","Longitude":"-71.46260","Snowdepth":"2.000","Units":"in","Rept_Date":"2019-11-25 10"},"coordinates":[7014,4899]},{"type":"Point","properties":{"Station_ID":"JOHV1","Station_Nam":"JOHNSON 2 N","Latitude":"44.65790","Longitude":"-72.67850","Snowdepth":"2.000","Units":"in","Rept_Date":"2019-11-25 12"},"coordinates":[6683,5601]},{"type":"Point","properties":{"Station_ID":"INDN6","Station_Nam":"INDIAN LAKE","Latitude":"43.75500","Longitude":"-74.27560","Snowdepth":"2.000","Units":"in","Rept_Date":"2019-11-25 14"},"coordinates":[6249,5039]},{"type":"Point","properties":{"Station_ID":"HMYM1","Station_Nam":"HARMONY","Latitude":"44.94660","Longitude":"-69.54560","Snowdepth":"2.000","Units":"in","Rept_Date":"2019-11-25 12"},"coordinates":[7536,5781]},{"type":"Point","properties":{"Station_ID":"EAHV1","Station_Nam":"EAST HAVEN","Latitude":"44.64250","Longitude":"-71.89120","Snowdepth":"2.000","Units":"in","Rept_Date":"2019-11-25 12"},"coordinates":[6898,5592]},{"type":"Point","properties":{"Station_ID":"COBN6","Station_Nam":"COBLESKILL 2ESE","Latitude":"42.66710","Longitude":"-74.44230","Snowdepth":"2.000","Units":"in","Rept_Date":"2019-11-25 13"},"coordinates":[6203,4363]},{"type":"Point","properties":{"Station_ID":"BTLN3","Station_Nam":"BARTLETT","Latitude":"44.08380","Longitude":"-71.29340","Snowdepth":"2.000","Units":"in","Rept_Date":"2019-11-25 12"},"coordinates":[7060,5244]},{"type":"Point","properties":{"Station_ID":"BBEM4","Station_Nam":"BIG BAY 9SW","Latitude":"46.74620","Longitude":"-87.88160","Snowdepth":"2.000","Units":"in","Rept_Date":"2019-11-25 13"},"coordinates":[2546,6900]},{"type":"Point","properties":{"Station_ID":"CAN-NB-1","Station_Nam":"FREDERICTON 4.0 SSE, CA","Latitude":"45.92897","Longitude":"-66.62830","Snowdepth":"1.600","Units":"in","Rept_Date":"2019-11-25 11"},"coordinates":[8330,6392]},{"type":"Point","properties":{"Station_ID":"WI-DG-20","Station_Nam":"SOLON SPRINGS 1.2 W, WI","Latitude":"46.35217","Longitude":"-91.84405","Snowdepth":"1.500","Units":"in","Rept_Date":"2019-11-25 13"},"coordinates":[1468,6655]},{"type":"Point","properties":{"Station_ID":"VT-WS-33","Station_Nam":"WAITSFIELD 3.5 WNW, VT","Latitude":"44.20052","Longitude":"-72.89421","Snowdepth":"1.500","Units":"in","Rept_Date":"2019-11-25 13"},"coordinates":[6625,5317]},{"type":"Point","properties":{"Station_ID":"VT-LM-7","Station_Nam":"HYDE PARK 2.9 NE, VT","Latitude":"44.62080","Longitude":"-72.57250","Snowdepth":"1.500","Units":"in","Rept_Date":"2019-11-25 13"},"coordinates":[6712,5578]},{"type":"Point","properties":{"Station_ID":"NY-CN-9","Station_Nam":"NORWICH 5.4 W, NY","Latitude":"42.53356","Longitude":"-75.63060","Snowdepth":"1.500","Units":"in","Rept_Date":"2019-11-25 12"},"coordinates":[5880,4279]},{"type":"Point","properties":{"Station_ID":"NH-MR-41","Station_Nam":"NEWBURY 1.6 NW, NH","Latitude":"43.33667","Longitude":"-72.06060","Snowdepth":"1.500","Units":"in","Rept_Date":"2019-11-25 12"},"coordinates":[6852,4779]},{"type":"Point","properties":{"Station_ID":"MN-CK-3","Station_Nam":"TOFTE 4.9 NE, MN","Latitude":"47.62394","Longitude":"-90.76100","Snowdepth":"1.500","Units":"in","Rept_Date":"2019-11-25 13"},"coordinates":[1763,7446]},{"type":"Point","properties":{"Station_ID":"MN-BM-15","Station_Nam":"BEMIDJI 7.8 ENE, MN","Latitude":"47.52043","Longitude":"-94.72121","Snowdepth":"1.500","Units":"in","Rept_Date":"2019-11-25 13"},"coordinates":[685,7382]},{"type":"Point","properties":{"Station_ID":"ME-OX-2","Station_Nam":"HARTFORD 1.4 N, ME","Latitude":"44.39318","Longitude":"-70.34760","Snowdepth":"1.300","Units":"in","Rept_Date":"2019-11-25 12"},"coordinates":[7318,5436]},{"type":"Point","properties":{"Station_ID":"CAN-QC-16","Station_Nam":"SAINT-ARMAND 3.6 W, CAN","Latitude":"45.02631","Longitude":"-73.08795","Snowdepth":"1.300","Units":"in","Rept_Date":"2019-11-25 12"},"coordinates":[6572,5830]},{"type":"Point","properties":{"Station_ID":"ME-SM-3","Station_Nam":"PALMYRA 3.5 NW, ME","Latitude":"44.87180","Longitude":"-69.41952","Snowdepth":"1.200","Units":"in","Rept_Date":"2019-11-25 12"},"coordinates":[7570,5734]},{"type":"Point","properties":{"Station_ID":"WTHN6","Station_Nam":"WHITEHALL LOCK C12","Latitude":"43.55000","Longitude":"-73.40000","Snowdepth":"1.000","Units":"in","Rept_Date":"2019-11-25 13"},"coordinates":[6487,4912]},{"type":"Point","properties":{"Station_ID":"WRSM5","Station_Nam":"WRENSHALL","Latitude":"46.61550","Longitude":"-92.38380","Snowdepth":"1.000","Units":"in","Rept_Date":"2019-11-25 14"},"coordinates":[1321,6819]},{"type":"Point","properties":{"Station_ID":"WI-PR-2","Station_Nam":"BUTTERNUT 5.9 SW, WI","Latitude":"45.96501","Longitude":"-90.59750","Snowdepth":"1.000","Units":"in","Rept_Date":"2019-11-25 12"},"coordinates":[1807,6414]},{"type":"Point","properties":{"Station_ID":"WI-BY-6","Station_Nam":"BARNES 2.2 S, WI","Latitude":"46.30264","Longitude":"-91.50320","Snowdepth":"1.000","Units":"in","Rept_Date":"2019-11-25 13"},"coordinates":[1561,6624]},{"type":"Point","properties":{"Station_ID":"WI-BY-2","Station_Nam":"MELLEN 18.6 SW, WI","Latitude":"46.16937","Longitude":"-90.98090","Snowdepth":"1.000","Units":"in","Rept_Date":"2019-11-25 13"},"coordinates":[1703,6541]},{"type":"Point","properties":{"Station_ID":"WI-BY-14","Station_Nam":"ASHLAND 9.8 W, WI","Latitude":"46.59742","Longitude":"-91.07856","Snowdepth":"1.000","Units":"in","Rept_Date":"2019-11-25 12"},"coordinates":[1676,6808]},{"type":"Point","properties":{"Station_ID":"WENN3","Station_Nam":"P.O. BOX 197 WENTWORTH, NH","Latitude":"43.95190","Longitude":"-71.91560","Snowdepth":"1.000","Units":"in","Rept_Date":"2019-11-25 12"},"coordinates":[6891,5162]},{"type":"Point","properties":{"Station_ID":"VT-WH-26","Station_Nam":"WESTMINSTER 5.5 NW, VT","Latitude":"43.12572","Longitude":"-72.53419","Snowdepth":"1.000","Units":"in","Rept_Date":"2019-11-25 12"},"coordinates":[6723,4648]},{"type":"Point","properties":{"Station_ID":"VT-RT-7","Station_Nam":"RUTLAND 1.2 N, VT","Latitude":"43.62533","Longitude":"-72.97790","Snowdepth":"1.000","Units":"in","Rept_Date":"2019-11-25 12"},"coordinates":[6602,4959]},{"type":"Point","properties":{"Station_ID":"VT-RT-24","Station_Nam":"MIDDLETOWN SPRINGS 0.9 WNW, VT","Latitude":"43.49194","Longitude":"-73.13350","Snowdepth":"1.000","Units":"in","Rept_Date":"2019-11-25 12"},"coordinates":[6560,4876]},{"type":"Point","properties":{"Station_ID":"VT-LM-1","Station_Nam":"STOWE 0.2 SW, VT","Latitude":"44.46399","Longitude":"-72.69070","Snowdepth":"1.000","Units":"in","Rept_Date":"2019-11-25 12"},"coordinates":[6680,5480]},{"type":"Point","properties":{"Station_ID":"VT-CH-4","Station_Nam":"UNDERHILL 4.4 NNE, VT","Latitude":"44.58774","Longitude":"-72.92250","Snowdepth":"1.000","Units":"in","Rept_Date":"2019-11-25 12"},"coordinates":[6617,5557]},{"type":"Point","properties":{"Station_ID":"VT-AD-24","Station_Nam":"MIDDLEBURY 0.3 N, VT","Latitude":"44.01808","Longitude":"-73.16844","Snowdepth":"1.000","Units":"in","Rept_Date":"2019-11-25 09"},"coordinates":[6550,5203]},{"type":"Point","properties":{"Station_ID":"TOPM1","Station_Nam":"TOPSFIELD","Latitude":"45.43470","Longitude":"-67.72020","Snowdepth":"1.000","Units":"in","Rept_Date":"2019-11-25 12"},"coordinates":[8033,6084]},{"type":"Point","properties":{"Station_ID":"SNOW2","Station_Nam":"SNOWSHOE","Latitude":"38.39900","Longitude":"-79.99490","Snowdepth":"1.000","Units":"in","Rept_Date":"2019-11-25 11"},"coordinates":[4692,1707]},{"type":"Point","properties":{"Station_ID":"RUTV1","Station_Nam":"RUTLAND","Latitude":"43.62530","Longitude":"-72.97810","Snowdepth":"1.000","Units":"in","Rept_Date":"2019-11-25 12"},"coordinates":[6602,4959]},{"type":"Point","properties":{"Station_ID":"PERV1","Station_Nam":"PERU","Latitude":"43.26670","Longitude":"-72.90000","Snowdepth":"1.000","Units":"in","Rept_Date":"2019-11-25 12"},"coordinates":[6623,4736]},{"type":"Point","properties":{"Station_ID":"PEKN6","Station_Nam":"PECK LAKE","Latitude":"43.11500","Longitude":"-74.42360","Snowdepth":"1.000","Units":"in","Rept_Date":"2019-11-25 13"},"coordinates":[6209,4641]},{"type":"Point","properties":{"Station_ID":"OTTN3","Station_Nam":"OTTER BROOK LAKE","Latitude":"42.95000","Longitude":"-72.23330","Snowdepth":"1.000","Units":"in","Rept_Date":"2019-11-25 12"},"coordinates":[6805,4539]},{"type":"Point","properties":{"Station_ID":"OKLM2","Station_Nam":"DEEP CREEK LAKE","Latitude":"39.52420","Longitude":"-79.41170","Snowdepth":"1.000","Units":"in","Rept_Date":"2019-11-25 11"},"coordinates":[4851,2407]},{"type":"Point","properties":{"Station_ID":"NY-SR-4","Station_Nam":"SARATOGA SPRINGS 0.5 S, NY","Latitude":"43.06032","Longitude":"-73.78010","Snowdepth":"1.000","Units":"in","Rept_Date":"2019-11-25 11"},"coordinates":[6384,4607]},{"type":"Point","properties":{"Station_ID":"NY-DL-23","Station_Nam":"LONG EDDY 6.5 NNE, NY","Latitude":"41.93510","Longitude":"-75.07840","Snowdepth":"1.000","Units":"in","Rept_Date":"2019-11-25 13"},"coordinates":[6030,3907]},{"type":"Point","properties":{"Station_ID":"NWSM1","Station_Nam":"NEW SHARON","Latitude":"44.63520","Longitude":"-70.00020","Snowdepth":"1.000","Units":"in","Rept_Date":"2019-11-25 12"},"coordinates":[7412,5587]},{"type":"Point","properties":{"Station_ID":"NUNV1","Station_Nam":"NORTH UNDERHILL","Latitude":"44.58760","Longitude":"-72.92150","Snowdepth":"1.000","Units":"in","Rept_Date":"2019-11-25 12"},"coordinates":[6617,5557]},{"type":"Point","properties":{"Station_ID":"NHBN6","Station_Nam":"HEBRON","Latitude":"43.29540","Longitude":"-73.39830","Snowdepth":"1.000","Units":"in","Rept_Date":"2019-11-25 12"},"coordinates":[6488,4753]},{"type":"Point","properties":{"Station_ID":"NH-MR-63","Station_Nam":"SUTTON MILLS 0.1 ENE, NH","Latitude":"43.33522","Longitude":"-71.95126","Snowdepth":"1.000","Units":"in","Rept_Date":"2019-11-25 12"},"coordinates":[6881,4778]},{"type":"Point","properties":{"Station_ID":"NH-GR-1","Station_Nam":"BRISTOL 0.4 SSE, NH","Latitude":"43.59490","Longitude":"-71.74140","Snowdepth":"1.000","Units":"in","Rept_Date":"2019-11-25 12"},"coordinates":[6938,4940]},{"type":"Point","properties":{"Station_ID":"NH-CR-9","Station_Nam":"MADISON 1.7 SE, NH","Latitude":"43.87928","Longitude":"-71.12660","Snowdepth":"1.000","Units":"in","Rept_Date":"2019-11-25 12"},"coordinates":[7106,5117]},{"type":"Point","properties":{"Station_ID":"NH-CR-26","Station_Nam":"CENTER SANDWICH 4.9 E, NH","Latitude":"43.80976","Longitude":"-71.34150","Snowdepth":"1.000","Units":"in","Rept_Date":"2019-11-25 12"},"coordinates":[7047,5073]},{"type":"Point","properties":{"Station_ID":"NH-CR-11","Station_Nam":"NORTH CONWAY 1.4 SSW, NH","Latitude":"44.03556","Longitude":"-71.14010","Snowdepth":"1.000","Units":"in","Rept_Date":"2019-11-25 12"},"coordinates":[7102,5214]},{"type":"Point","properties":{"Station_ID":"NCON3","Station_Nam":"NORTH CONWAY,NH","Latitude":"44.05000","Longitude":"-71.13330","Snowdepth":"1.000","Units":"in","Rept_Date":"2019-11-25 13"},"coordinates":[7104,5223]},{"type":"Point","properties":{"Station_ID":"NBLN6","Station_Nam":"LANSING MANOR","Latitude":"42.44860","Longitude":"-74.46530","Snowdepth":"1.000","Units":"in","Rept_Date":"2019-11-25 13"},"coordinates":[6197,4227]},{"type":"Point","properties":{"Station_ID":"MRLV1","Station_Nam":"MARLBORO","Latitude":"42.86000","Longitude":"-72.72000","Snowdepth":"1.000","Units":"in","Rept_Date":"2019-11-25 13"},"coordinates":[6672,4483]},{"type":"Point","properties":{"Station_ID":"MN-SL-115","Station_Nam":"COTTON 5.7 ESE, MN","Latitude":"47.15142","Longitude":"-92.35772","Snowdepth":"1.000","Units":"in","Rept_Date":"2019-11-25 14"},"coordinates":[1328,7152]},{"type":"Point","properties":{"Station_ID":"MN-IT-11","Station_Nam":"NASHWAUK 11.5 N, MN","Latitude":"47.54496","Longitude":"-93.19420","Snowdepth":"1.000","Units":"in","Rept_Date":"2019-11-25 13"},"coordinates":[1101,7397]},{"type":"Point","properties":{"Station_ID":"MIEM4","Station_Nam":"MICHIGAMME 3WNW","Latitude":"46.54530","Longitude":"-88.18000","Snowdepth":"1.000","Units":"in","Rept_Date":"2019-11-25 13"},"coordinates":[2465,6775]},{"type":"Point","properties":{"Station_ID":"MALN6","Station_Nam":"MALONE","Latitude":"44.84180","Longitude":"-74.30600","Snowdepth":"1.000","Units":"in","Rept_Date":"2019-11-25 12"},"coordinates":[6241,5715]},{"type":"Point","properties":{"Station_ID":"MA-FR-31","Station_Nam":"COLRAIN 3.7 WNW, MA","Latitude":"42.68716","Longitude":"-72.75112","Snowdepth":"1.000","Units":"in","Rept_Date":"2019-11-25 12"},"coordinates":[6664,4375]},{"type":"Point","properties":{"Station_ID":"LVRM1","Station_Nam":"LIVERMORE FALLS 1 E","Latitude":"44.47160","Longitude":"-70.15940","Snowdepth":"1.000","Units":"in","Rept_Date":"2019-11-25 12"},"coordinates":[7369,5485]},{"type":"Point","properties":{"Station_ID":"KEEN3","Station_Nam":"KEENE","Latitude":"42.93900","Longitude":"-72.32470","Snowdepth":"1.000","Units":"in","Rept_Date":"2019-11-25 11"},"coordinates":[6780,4532]},{"type":"Point","properties":{"Station_ID":"IN-WL-11","Station_Nam":"BLUFFTON 0.9 SE, IN","Latitude":"40.73015","Longitude":"-85.16070","Snowdepth":"1.000","Units":"in","Rept_Date":"2019-11-25 12"},"coordinates":[3287,3157]},{"type":"Point","properties":{"Station_ID":"HVJP1","Station_Nam":"HIDDEN VALLEY COOP","Latitude":"40.04200","Longitude":"-79.25660","Snowdepth":"1.000","Units":"in","Rept_Date":"2019-11-25 13"},"coordinates":[4893,2729]},{"type":"Point","properties":{"Station_ID":"HRTM1","Station_Nam":"HARTFORD","Latitude":"44.37440","Longitude":"-70.31620","Snowdepth":"1.000","Units":"in","Rept_Date":"2019-11-25 12"},"coordinates":[7326,5425]},{"type":"Point","properties":{"Station_ID":"FEDM5","Station_Nam":"LEECH LAKE DAM","Latitude":"47.24670","Longitude":"-94.22280","Snowdepth":"1.000","Units":"in","Rept_Date":"2019-11-25 14"},"coordinates":[821,7212]},{"type":"Point","properties":{"Station_ID":"EVRW3","Station_Nam":"EAGLE RIVER-4 E","Latitude":"45.91890","Longitude":"-89.15280","Snowdepth":"1.000","Units":"in","Rept_Date":"2019-11-25 12"},"coordinates":[2200,6386]},{"type":"Point","properties":{"Station_ID":"ESDN3","Station_Nam":"EAST SANDWICH","Latitude":"43.80990","Longitude":"-71.34250","Snowdepth":"1.000","Units":"in","Rept_Date":"2019-11-25 11"},"coordinates":[7047,5074]},{"type":"Point","properties":{"Station_ID":"EHYM3","Station_Nam":"EAST HAWLEY","Latitude":"42.57410","Longitude":"-72.86790","Snowdepth":"1.000","Units":"in","Rept_Date":"2019-11-25 13"},"coordinates":[6632,4305]},{"type":"Point","properties":{"Station_ID":"DLSN6","Station_Nam":"DELANSON 2NE","Latitude":"42.76720","Longitude":"-74.17110","Snowdepth":"1.000","Units":"in","Rept_Date":"2019-11-25 12"},"coordinates":[6277,4425]},{"type":"Point","properties":{"Station_ID":"DFXM1","Station_Nam":"DOVER-FOXCROFT","Latitude":"45.18720","Longitude":"-69.18350","Snowdepth":"1.000","Units":"in","Rept_Date":"2019-11-25 12"},"coordinates":[7635,5930]},{"type":"Point","properties":{"Station_ID":"DELN6","Station_Nam":"DELHI 2 SE","Latitude":"42.25580","Longitude":"-74.91270","Snowdepth":"1.000","Units":"in","Rept_Date":"2019-11-25 13"},"coordinates":[6075,4107]},{"type":"Point","properties":{"Station_ID":"CT-LT-29","Station_Nam":"GOSHEN 0.5 NW, CT","Latitude":"41.83707","Longitude":"-73.23003","Snowdepth":"1.000","Units":"in","Rept_Date":"2019-11-25 11"},"coordinates":[6533,3846]},{"type":"Point","properties":{"Station_ID":"COTM5","Station_Nam":"COTTON","Latitude":"47.16870","Longitude":"-92.46290","Snowdepth":"1.000","Units":"in","Rept_Date":"2019-11-25 13"},"coordinates":[1300,7163]},{"type":"Point","properties":{"Station_ID":"CORM1","Station_Nam":"CORINNA","Latitude":"44.91980","Longitude":"-69.24180","Snowdepth":"1.000","Units":"in","Rept_Date":"2019-11-25 13"},"coordinates":[7619,5764]},{"type":"Point","properties":{"Station_ID":"CMKW3","Station_Nam":"CLAM LAKE 4W","Latitude":"46.16940","Longitude":"-90.98080","Snowdepth":"1.000","Units":"in","Rept_Date":"2019-11-25 13"},"coordinates":[1703,6541]},{"type":"Point","properties":{"Station_ID":"CAN-NS-61","Station_Nam":"ASPY  BAY 0.9 SW, CA","Latitude":"46.91621","Longitude":"-60.49460","Snowdepth":"1.000","Units":"in","Rept_Date":"2019-11-25 11"},"coordinates":[9999,7006]},{"type":"Point","properties":{"Station_ID":"CAAW2","Station_Nam":"CANAAN VALLEY","Latitude":"39.05890","Longitude":"-79.44030","Snowdepth":"1.000","Units":"in","Rept_Date":"2019-11-25 14"},"coordinates":[4843,2118]},{"type":"Point","properties":{"Station_ID":"BRUM5","Station_Nam":"BRUNO,MN","Latitude":"46.28330","Longitude":"-92.50000","Snowdepth":"1.000","Units":"in","Rept_Date":"2019-11-25 14"},"coordinates":[1290,6612]},{"type":"Point","properties":{"Station_ID":"BKBW2","Station_Nam":"DAVIS.","Latitude":"39.09830","Longitude":"-79.43190","Snowdepth":"1.000","Units":"in","Rept_Date":"2019-11-25 12"},"coordinates":[4846,2142]},{"type":"Point","properties":{"Station_ID":"BGMN6","Station_Nam":"BINGHAMTON WFO","Latitude":"42.21160","Longitude":"-75.98580","Snowdepth":"1.000","Units":"in","Rept_Date":"2019-11-26 05"},"coordinates":[5783,4079]},{"type":"Point","properties":{"Station_ID":"BGBM4","Station_Nam":"BIG BAY 1NW","Latitude":"46.83250","Longitude":"-87.75040","Snowdepth":"1.000","Units":"in","Rept_Date":"2019-11-25 13"},"coordinates":[2582,6954]},{"type":"Point","properties":{"Station_ID":"AVTW3","Station_Nam":"ARBOR VITAE-JOHNSON LAKE","Latitude":"45.89940","Longitude":"-89.72670","Snowdepth":"1.000","Units":"in","Rept_Date":"2019-11-25 12"},"coordinates":[2044,6373]},{"type":"Point","properties":{"Station_ID":"38.3990_079.9949","Station_Nam":"SNOWSHOE  CO-OP OBSERVER (X3840800)","Latitude":"38.39900","Longitude":"-79.99490","Snowdepth":"1.000","Units":"in","Rept_Date":"2019-11-25 11"},"coordinates":[4692,1707]}]}},"arcs":[],"transform":{"scale":[0.0036747674767476754,0.0016073507350735073],"translate":[-97.2386,35.655]}}