{"type":"Topology","objects":{"snowdepth_geo":{"type":"GeometryCollection","name":"snowdepth","crs":{"type":"name","properties":{"name":"urn:ogc:def:crs:OGC:1.3:CRS84"}},"geometries":[{"type":"Point","properties":{"Station_ID":"PRKM4","Station_Nam":"MUNISING EAST","Latitude":"46.42580","Longitude":"-86.62000","Snowdepth":"76.500","Units":"in","Rept_Date":"2020-12-03 06"},"coordinates":[3460,7371]},{"type":"Point","properties":{"Station_ID":"41.6972_080.9056","Station_Nam":"3 ENE Trumbull  Trained Spotter (CLE1480)","Latitude":"41.69720","Longitude":"-80.90557","Snowdepth":"22.000","Units":"in","Rept_Date":"2020-12-02 13"},"coordinates":[5356,5027]},{"type":"Point","properties":{"Station_ID":"CHRO1","Station_Nam":"CHARDON,OH","Latitude":"41.58330","Longitude":"-81.18330","Snowdepth":"20.000","Units":"in","Rept_Date":"2020-12-02 13"},"coordinates":[5264,4971]},{"type":"Point","properties":{"Station_ID":"41.6413_081.0131","Station_Nam":"2 ESE South Thompson  Trained Spotter (X4160810)","Latitude":"41.64127","Longitude":"-81.01313","Snowdepth":"20.000","Units":"in","Rept_Date":"2020-12-02 15"},"coordinates":[5320,4999]},{"type":"Point","properties":{"Station_ID":"41.4727_081.1835","Station_Nam":"2 W Burton  Trained Spotter (CLE1337)","Latitude":"41.47271","Longitude":"-81.18346","Snowdepth":"18.000","Units":"in","Rept_Date":"2020-12-02 13"},"coordinates":[5264,4916]},{"type":"Point","properties":{"Station_ID":"42.0231_080.0856","Station_Nam":"3 ENE McKean  Trained Spotter (X4200801)","Latitude":"42.02314","Longitude":"-80.08558","Snowdepth":"17.000","Units":"in","Rept_Date":"2020-12-02 13"},"coordinates":[5628,5189]},{"type":"Point","properties":{"Station_ID":"41.9034_079.6523","Station_Nam":"CORRY (CLE0230)","Latitude":"41.90340","Longitude":"-79.65230","Snowdepth":"17.000","Units":"in","Rept_Date":"2020-12-02 14"},"coordinates":[5772,5129]},{"type":"Point","properties":{"Station_ID":"41.6346_080.6614","Station_Nam":"1 E DORSET  SNOW SPOTTER (CLE1453)","Latitude":"41.63460","Longitude":"-80.66140","Snowdepth":"17.000","Units":"in","Rept_Date":"2020-12-02 11"},"coordinates":[5437,4996]},{"type":"Point","properties":{"Station_ID":"OH-PT-9","Station_Nam":"HIRAM 0.4 N, OH","Latitude":"41.31595","Longitude":"-81.14340","Snowdepth":"16.000","Units":"in","Rept_Date":"2020-12-02 13"},"coordinates":[5277,4838]},{"type":"Point","properties":{"Station_ID":"42.1284_079.8945","Station_Nam":"NORTHEAST 6SW (CLE0249)","Latitude":"42.12840","Longitude":"-79.89450","Snowdepth":"16.000","Units":"in","Rept_Date":"2020-12-02 11"},"coordinates":[5691,5241]},{"type":"Point","properties":{"Station_ID":"41.6613_081.2084","Station_Nam":"1 SE Concord  Trained Spotter (X4170812)","Latitude":"41.66133","Longitude":"-81.20838","Snowdepth":"16.000","Units":"in","Rept_Date":"2020-12-02 13"},"coordinates":[5255,5009]},{"type":"Point","properties":{"Station_ID":"41.3160_081.1434","Station_Nam":"N Hiram  CoCoRaHS (OH-PT-9)","Latitude":"41.31600","Longitude":"-81.14340","Snowdepth":"16.000","Units":"in","Rept_Date":"2020-12-02 13"},"coordinates":[5277,4838]},{"type":"Point","properties":{"Station_ID":"41.3151_081.1434","Station_Nam":"HIRAM (CLE2220)","Latitude":"41.31510","Longitude":"-81.14340","Snowdepth":"16.000","Units":"in","Rept_Date":"2020-12-02 14"},"coordinates":[5277,4838]},{"type":"Point","properties":{"Station_ID":"OH-PT-13","Station_Nam":"MANTUA 1.0 NNW, OH","Latitude":"41.29421","Longitude":"-81.23160","Snowdepth":"15.500","Units":"in","Rept_Date":"2020-12-02 12"},"coordinates":[5248,4827]},{"type":"Point","properties":{"Station_ID":"QOU","Station_Nam":"QOU","Latitude":"50.79250","Longitude":"-69.67470","Snowdepth":"15.315","Units":"in","Rept_Date":"2020-12-02 12"},"coordinates":[9082,9536]},{"type":"Point","properties":{"Station_ID":"OH-GG-4","Station_Nam":"MONTVILLE 1.2 SSE, OH","Latitude":"41.59030","Longitude":"-81.04800","Snowdepth":"15.000","Units":"in","Rept_Date":"2020-12-02 13"},"coordinates":[5309,4974]},{"type":"Point","properties":{"Station_ID":"OH-GG-11","Station_Nam":"MADISON 4.2 S, OH","Latitude":"41.71238","Longitude":"-81.03871","Snowdepth":"15.000","Units":"in","Rept_Date":"2020-12-02 12"},"coordinates":[5312,5035]},{"type":"Point","properties":{"Station_ID":"OH-CY-54","Station_Nam":"SEVEN HILLS 0.6 NNE, OH","Latitude":"41.38811","Longitude":"-81.67098","Snowdepth":"15.000","Units":"in","Rept_Date":"2020-12-02 12"},"coordinates":[5102,4874]},{"type":"Point","properties":{"Station_ID":"42.1240_079.8474","Station_Nam":"COLT STATION  SNOW SPOTTER (CLE0228)","Latitude":"42.12400","Longitude":"-79.84740","Snowdepth":"15.000","Units":"in","Rept_Date":"2020-12-02 13"},"coordinates":[5707,5239]},{"type":"Point","properties":{"Station_ID":"42.0800_080.0143","Station_Nam":"ERIE 5SE  SNOW SPOTTER (X4210800)","Latitude":"42.08000","Longitude":"-80.01430","Snowdepth":"15.000","Units":"in","Rept_Date":"2020-12-02 12"},"coordinates":[5651,5217]},{"type":"Point","properties":{"Station_ID":"41.5363_080.8353","Station_Nam":"ORWELL 1E  SNOW SPOTTER (CLE1445)","Latitude":"41.53630","Longitude":"-80.83530","Snowdepth":"15.000","Units":"in","Rept_Date":"2020-12-02 13"},"coordinates":[5379,4947]},{"type":"Point","properties":{"Station_ID":"41.3881_081.6711","Station_Nam":"1 NNE Seven Hills  Trained Spotter (CLE1173)","Latitude":"41.38810","Longitude":"-81.67106","Snowdepth":"15.000","Units":"in","Rept_Date":"2020-12-02 12"},"coordinates":[5102,4874]},{"type":"Point","properties":{"Station_ID":"CAN-ON-5","Station_Nam":"OWEN SOUND 1.5 NW - GSCA, CAN","Latitude":"44.57837","Longitude":"-80.95461","Snowdepth":"14.000","Units":"in","Rept_Date":"2020-12-02 13"},"coordinates":[5339,6455]},{"type":"Point","properties":{"Station_ID":"42.1173_079.8962","Station_Nam":"4 W Colt Station  Trained Spotter (CLE0298)","Latitude":"42.11734","Longitude":"-79.89615","Snowdepth":"14.000","Units":"in","Rept_Date":"2020-12-02 13"},"coordinates":[5691,5235]},{"type":"Point","properties":{"Station_ID":"41.5186_080.2187","Station_Nam":"6 E Atlantic  Trained Spotter (CLE0352)","Latitude":"41.51859","Longitude":"-80.21871","Snowdepth":"14.000","Units":"in","Rept_Date":"2020-12-02 14"},"coordinates":[5584,4939]},{"type":"Point","properties":{"Station_ID":"OH-CY-58","Station_Nam":"SOUTH EUCLID 0.2 ESE, OH","Latitude":"41.52358","Longitude":"-81.52191","Snowdepth":"13.600","Units":"in","Rept_Date":"2020-12-02 13"},"coordinates":[5151,4941]},{"type":"Point","properties":{"Station_ID":"41.5236_081.5219","Station_Nam":"South Euclid  Trained Spotter (CLE1186)","Latitude":"41.52356","Longitude":"-81.52192","Snowdepth":"13.600","Units":"in","Rept_Date":"2020-12-02 13"},"coordinates":[5151,4941]},{"type":"Point","properties":{"Station_ID":"41.2942_081.2316","Station_Nam":"1 NNW Mantua  CoCoRaHS (OH-PT-13)","Latitude":"41.29420","Longitude":"-81.23160","Snowdepth":"13.500","Units":"in","Rept_Date":"2020-12-02 11"},"coordinates":[5248,4827]},{"type":"Point","properties":{"Station_ID":"OH-GG-16","Station_Nam":"CHARDON 5.1 SSE, OH","Latitude":"41.50776","Longitude":"-81.18304","Snowdepth":"13.000","Units":"in","Rept_Date":"2020-12-02 12"},"coordinates":[5264,4933]},{"type":"Point","properties":{"Station_ID":"CAN-ON-451","Station_Nam":"OWEN SOUND 1.2 N - GSCA, CAN","Latitude":"44.58092","Longitude":"-80.93025","Snowdepth":"13.000","Units":"in","Rept_Date":"2020-12-02 13"},"coordinates":[5348,6457]},{"type":"Point","properties":{"Station_ID":"41.8966_080.1567","Station_Nam":"2 NW EDINBORO  SNOW SPOTTER (CLE0251)","Latitude":"41.89660","Longitude":"-80.15670","Snowdepth":"13.000","Units":"in","Rept_Date":"2020-12-02 10"},"coordinates":[5604,5126]},{"type":"Point","properties":{"Station_ID":"41.8717_080.0850","Station_Nam":"EDINBORO 2E  SNOW SPOTTER (X4190801)","Latitude":"41.87170","Longitude":"-80.08500","Snowdepth":"13.000","Units":"in","Rept_Date":"2020-12-02 11"},"coordinates":[5628,5114]},{"type":"Point","properties":{"Station_ID":"41.8222_080.1028","Station_Nam":"CAMBRIDGE SPRINGS  SNOW SPOTTER (CLE0344)","Latitude":"41.82220","Longitude":"-80.10280","Snowdepth":"13.000","Units":"in","Rept_Date":"2020-12-02 13"},"coordinates":[5622,5089]},{"type":"Point","properties":{"Station_ID":"41.7396_080.5416","Station_Nam":"PIERPONT 2SE (CLE1412)","Latitude":"41.73960","Longitude":"-80.54160","Snowdepth":"13.000","Units":"in","Rept_Date":"2020-12-02 13"},"coordinates":[5477,5048]},{"type":"Point","properties":{"Station_ID":"41.6825_081.2331","Station_Nam":"1 NW Concord  Trained Spotter (CLE1259)","Latitude":"41.68248","Longitude":"-81.23310","Snowdepth":"13.000","Units":"in","Rept_Date":"2020-12-02 12"},"coordinates":[5247,5020]},{"type":"Point","properties":{"Station_ID":"41.6612_080.1377","Station_Nam":"MEADVILLE (CLE0332)","Latitude":"41.66120","Longitude":"-80.13770","Snowdepth":"13.000","Units":"in","Rept_Date":"2020-12-02 13"},"coordinates":[5611,5009]},{"type":"Point","properties":{"Station_ID":"41.5078_081.1830","Station_Nam":"5 SSE Chardon  CoCoRaHS (OH-GG-16)","Latitude":"41.50780","Longitude":"-81.18300","Snowdepth":"13.000","Units":"in","Rept_Date":"2020-12-02 10"},"coordinates":[5264,4933]},{"type":"Point","properties":{"Station_ID":"41.4948_081.5867","Station_Nam":"2 SW Cleveland Heights  Trained Spotter (CLE1181)","Latitude":"41.49481","Longitude":"-81.58671","Snowdepth":"13.000","Units":"in","Rept_Date":"2020-12-02 11"},"coordinates":[5130,4927]},{"type":"Point","properties":{"Station_ID":"41.2942_082.2056","Station_Nam":"OBERLIN (CLE1004)","Latitude":"41.29420","Longitude":"-82.20560","Snowdepth":"13.000","Units":"in","Rept_Date":"2020-12-02 14"},"coordinates":[4924,4827]},{"type":"Point","properties":{"Station_ID":"41.4480_081.9326","Station_Nam":"1 SSW Westlake  CoCoRaHS (OH-CY-39)","Latitude":"41.44800","Longitude":"-81.93260","Snowdepth":"12.500","Units":"in","Rept_Date":"2020-12-02 13"},"coordinates":[5015,4904]},{"type":"Point","properties":{"Station_ID":"PA-SM-1","Station_Nam":"HIDDEN VALLEY 0.3 ENE, PA","Latitude":"40.05844","Longitude":"-79.26156","Snowdepth":"12.000","Units":"in","Rept_Date":"2020-12-02 10"},"coordinates":[5901,4215]},{"type":"Point","properties":{"Station_ID":"OH-PT-21","Station_Nam":"AURORA 1.6 WNW, OH","Latitude":"41.31840","Longitude":"-81.37449","Snowdepth":"12.000","Units":"in","Rept_Date":"2020-12-02 12"},"coordinates":[5200,4839]},{"type":"Point","properties":{"Station_ID":"OH-PT-15","Station_Nam":"AURORA 2.0 W, OH","Latitude":"41.31224","Longitude":"-81.38221","Snowdepth":"12.000","Units":"in","Rept_Date":"2020-12-02 13"},"coordinates":[5198,4836]},{"type":"Point","properties":{"Station_ID":"OH-CY-42","Station_Nam":"STRONGSVILLE 1.3 SE, OH","Latitude":"41.29815","Longitude":"-81.81507","Snowdepth":"12.000","Units":"in","Rept_Date":"2020-12-02 13"},"coordinates":[5054,4829]},{"type":"Point","properties":{"Station_ID":"OH-CY-39","Station_Nam":"WESTLAKE 0.5 SSW, OH","Latitude":"41.44795","Longitude":"-81.93260","Snowdepth":"12.000","Units":"in","Rept_Date":"2020-12-02 13"},"coordinates":[5015,4904]},{"type":"Point","properties":{"Station_ID":"OH-CY-24","Station_Nam":"PARMA 1.9 NNW, OH","Latitude":"41.40881","Longitude":"-81.74480","Snowdepth":"12.000","Units":"in","Rept_Date":"2020-12-02 13"},"coordinates":[5077,4884]},{"type":"Point","properties":{"Station_ID":"OBEO1","Station_Nam":"OBERLIN,OH","Latitude":"41.26670","Longitude":"-82.21670","Snowdepth":"12.000","Units":"in","Rept_Date":"2020-12-02 13"},"coordinates":[4921,4814]},{"type":"Point","properties":{"Station_ID":"CAN-ON-452","Station_Nam":"CHATSWORTH 1.8 ENE - GSCA, CAN","Latitude":"44.46118","Longitude":"-80.87506","Snowdepth":"12.000","Units":"in","Rept_Date":"2020-12-02 12"},"coordinates":[5366,6397]},{"type":"Point","properties":{"Station_ID":"42.0299_080.0884","Station_Nam":"SUMMIT TWP  SNOW SPOTTER (X4200801)","Latitude":"42.02990","Longitude":"-80.08840","Snowdepth":"12.000","Units":"in","Rept_Date":"2020-12-02 13"},"coordinates":[5627,5192]},{"type":"Point","properties":{"Station_ID":"41.9996_080.1669","Station_Nam":"MCKEAN  SNOW SPOTTER (X4200802)","Latitude":"41.99960","Longitude":"-80.16690","Snowdepth":"12.000","Units":"in","Rept_Date":"2020-12-02 13"},"coordinates":[5601,5177]},{"type":"Point","properties":{"Station_ID":"41.5020_081.5839","Station_Nam":"1 WSW Cleveland Heights  Trained Spotter (CLE1190)","Latitude":"41.50201","Longitude":"-81.58393","Snowdepth":"12.000","Units":"in","Rept_Date":"2020-12-02 12"},"coordinates":[5131,4930]},{"type":"Point","properties":{"Station_ID":"41.4295_081.7112","Station_Nam":"CLEVELAND-OLD BROOKLYN (CLE1126)","Latitude":"41.42950","Longitude":"-81.71120","Snowdepth":"12.000","Units":"in","Rept_Date":"2020-12-02 11"},"coordinates":[5088,4894]},{"type":"Point","properties":{"Station_ID":"41.4088_081.7448","Station_Nam":"2 NNW Parma  CoCoRaHS (OH-CY-24)","Latitude":"41.40880","Longitude":"-81.74480","Snowdepth":"12.000","Units":"in","Rept_Date":"2020-12-02 13"},"coordinates":[5077,4884]},{"type":"Point","properties":{"Station_ID":"41.3184_081.3745","Station_Nam":"2 WNW Aurora  CoCoRaHS (OH-PT-21)","Latitude":"41.31840","Longitude":"-81.37450","Snowdepth":"12.000","Units":"in","Rept_Date":"2020-12-02 12"},"coordinates":[5200,4839]},{"type":"Point","properties":{"Station_ID":"41.3123_081.3822","Station_Nam":"2 W Aurora  CoCoRaHS (OH-PT-15)","Latitude":"41.31230","Longitude":"-81.38220","Snowdepth":"12.000","Units":"in","Rept_Date":"2020-12-02 13"},"coordinates":[5198,4836]},{"type":"Point","properties":{"Station_ID":"41.3041_081.5599","Station_Nam":"SAGAMORE HILLS (CLE2123)","Latitude":"41.30410","Longitude":"-81.55990","Snowdepth":"12.000","Units":"in","Rept_Date":"2020-12-02 15"},"coordinates":[5139,4832]},{"type":"Point","properties":{"Station_ID":"41.2982_081.8151","Station_Nam":"1 SE Strongsville  Trained Spotter (CLE1180)","Latitude":"41.29818","Longitude":"-81.81507","Snowdepth":"12.000","Units":"in","Rept_Date":"2020-12-02 13"},"coordinates":[5054,4829]},{"type":"Point","properties":{"Station_ID":"41.2688_081.5174","Station_Nam":"2 N CLE AIRPORT  TRAINED SPOTTER (CLE2141)","Latitude":"41.26880","Longitude":"-81.51740","Snowdepth":"12.000","Units":"in","Rept_Date":"2020-12-02 12"},"coordinates":[5153,4815]},{"type":"Point","properties":{"Station_ID":"CAN-ON-741","Station_Nam":"KIMBERLEY 2.7 WSW, CAN","Latitude":"44.37820","Longitude":"-80.56956","Snowdepth":"11.800","Units":"in","Rept_Date":"2020-12-02 13"},"coordinates":[5467,6356]},{"type":"Point","properties":{"Station_ID":"WV-PR-19","Station_Nam":"TERRA ALTA 3.3 ENE, WV","Latitude":"39.45929","Longitude":"-79.48470","Snowdepth":"11.200","Units":"in","Rept_Date":"2020-12-02 12"},"coordinates":[5827,3918]},{"type":"Point","properties":{"Station_ID":"QCX","Station_Nam":"QCX","Latitude":"51.32830","Longitude":"-70.08060","Snowdepth":"11.063","Units":"in","Rept_Date":"2020-12-02 12"},"coordinates":[8947,9801]},{"type":"Point","properties":{"Station_ID":"QCO","Station_Nam":"QCO","Latitude":"51.45280","Longitude":"-72.20110","Snowdepth":"11.063","Units":"in","Rept_Date":"2020-12-02 12"},"coordinates":[8244,9863]},{"type":"Point","properties":{"Station_ID":"SBOP1","Station_Nam":"SPRINGBORO","Latitude":"41.81660","Longitude":"-80.43330","Snowdepth":"11.000","Units":"in","Rept_Date":"2020-12-02 12"},"coordinates":[5512,5086]},{"type":"Point","properties":{"Station_ID":"PA-CW-8","Station_Nam":"SPRINGBORO 3.0 WNW, PA","Latitude":"41.81654","Longitude":"-80.42540","Snowdepth":"11.000","Units":"in","Rept_Date":"2020-12-02 12"},"coordinates":[5515,5086]},{"type":"Point","properties":{"Station_ID":"PA-CW-18","Station_Nam":"CONNEAUT LAKE 1.3 WNW, PA","Latitude":"41.60816","Longitude":"-80.33371","Snowdepth":"11.000","Units":"in","Rept_Date":"2020-12-02 12"},"coordinates":[5546,4983]},{"type":"Point","properties":{"Station_ID":"OH-LR-8","Station_Nam":"ELYRIA 0.4 SE, OH","Latitude":"41.37628","Longitude":"-82.09920","Snowdepth":"11.000","Units":"in","Rept_Date":"2020-12-02 12"},"coordinates":[4960,4868]},{"type":"Point","properties":{"Station_ID":"OH-LK-9","Station_Nam":"WILLOUGHBY 2.9 SW, OH","Latitude":"41.61506","Longitude":"-81.44592","Snowdepth":"11.000","Units":"in","Rept_Date":"2020-12-02 12"},"coordinates":[5176,4986]},{"type":"Point","properties":{"Station_ID":"MTLT1","Station_Nam":"GATLINBURG,TN","Latitude":"35.65500","Longitude":"-83.44110","Snowdepth":"11.000","Units":"in","Rept_Date":"2020-12-02 13"},"coordinates":[4514,2032]},{"type":"Point","properties":{"Station_ID":"ELYO1","Station_Nam":"ELYRIA,OH","Latitude":"41.30000","Longitude":"-82.11670","Snowdepth":"11.000","Units":"in","Rept_Date":"2020-12-02 12"},"coordinates":[4954,4830]},{"type":"Point","properties":{"Station_ID":"41.8166_080.4333","Station_Nam":"3 WNW Springboro  Co-Op Observer (SBOP1)","Latitude":"41.81660","Longitude":"-80.43330","Snowdepth":"11.000","Units":"in","Rept_Date":"2020-12-02 12"},"coordinates":[5512,5086]},{"type":"Point","properties":{"Station_ID":"41.8165_080.4254","Station_Nam":"3 WNW Springboro  CoCoRaHS (PA-CW-8)","Latitude":"41.81650","Longitude":"-80.42540","Snowdepth":"11.000","Units":"in","Rept_Date":"2020-12-02 12"},"coordinates":[5515,5086]},{"type":"Point","properties":{"Station_ID":"41.6544_080.1373","Station_Nam":"MEADVILLE  SNOW SPOTTER (CLE0342)","Latitude":"41.65440","Longitude":"-80.13730","Snowdepth":"11.000","Units":"in","Rept_Date":"2020-12-02 13"},"coordinates":[5611,5006]},{"type":"Point","properties":{"Station_ID":"41.6533_080.1440","Station_Nam":"MEADVILLE  SNOW SPOTTER (X4170801)","Latitude":"41.65330","Longitude":"-80.14400","Snowdepth":"11.000","Units":"in","Rept_Date":"2020-12-02 13"},"coordinates":[5608,5005]},{"type":"Point","properties":{"Station_ID":"41.6333_080.1432","Station_Nam":"1 S Meadville  Trained Spotter (CLE0350)","Latitude":"41.63328","Longitude":"-80.14322","Snowdepth":"11.000","Units":"in","Rept_Date":"2020-12-02 13"},"coordinates":[5609,4995]},{"type":"Point","properties":{"Station_ID":"41.6151_081.4459","Station_Nam":"3 SW Willoughby  CoCoRaHS (OH-LK-9)","Latitude":"41.61510","Longitude":"-81.44590","Snowdepth":"11.000","Units":"in","Rept_Date":"2020-12-02 11"},"coordinates":[5176,4986]},{"type":"Point","properties":{"Station_ID":"41.6082_080.3337","Station_Nam":"1 WNW Conneaut Lake  CoCoRaHS (PA-CW-18)","Latitude":"41.60820","Longitude":"-80.33370","Snowdepth":"11.000","Units":"in","Rept_Date":"2020-12-02 12"},"coordinates":[5546,4983]},{"type":"Point","properties":{"Station_ID":"41.3763_082.0992","Station_Nam":"Elyria  Trained Spotter (CLE1010)","Latitude":"41.37628","Longitude":"-82.09918","Snowdepth":"11.000","Units":"in","Rept_Date":"2020-12-02 10"},"coordinates":[4960,4868]},{"type":"Point","properties":{"Station_ID":"OH-LR-25","Station_Nam":"NORTH RIDGEVILLE 2.5 NE, OH","Latitude":"41.41550","Longitude":"-81.98440","Snowdepth":"10.500","Units":"in","Rept_Date":"2020-12-02 12"},"coordinates":[4998,4887]},{"type":"Point","properties":{"Station_ID":"OH-ER-5","Station_Nam":"WAKEMAN 4.6 NNE, OH","Latitude":"41.31902","Longitude":"-82.37730","Snowdepth":"10.500","Units":"in","Rept_Date":"2020-12-02 12"},"coordinates":[4867,4840]},{"type":"Point","properties":{"Station_ID":"41.4155_081.9844","Station_Nam":"3 NE North Ridgeville  CoCoRaHS (OH-LR-25)","Latitude":"41.41550","Longitude":"-81.98440","Snowdepth":"10.500","Units":"in","Rept_Date":"2020-12-02 12"},"coordinates":[4998,4887]},{"type":"Point","properties":{"Station_ID":"WRRP1","Station_Nam":"ALLEGHENY RIVER AT WARREN","Latitude":"41.84380","Longitude":"-79.15000","Snowdepth":"10.000","Units":"in","Rept_Date":"2020-12-02 12"},"coordinates":[5938,5100]},{"type":"Point","properties":{"Station_ID":"QLB","Station_Nam":"QLB","Latitude":"50.72360","Longitude":"-75.10000","Snowdepth":"10.000","Units":"in","Rept_Date":"2020-12-02 12"},"coordinates":[7282,9502]},{"type":"Point","properties":{"Station_ID":"PA-SM-6","Station_Nam":"ROCKWOOD 4.3 W, PA","Latitude":"39.92150","Longitude":"-79.23770","Snowdepth":"10.000","Units":"in","Rept_Date":"2020-12-02 14"},"coordinates":[5909,4147]},{"type":"Point","properties":{"Station_ID":"OH-MD-2","Station_Nam":"BRUNSWICK 0.5 NE, OH","Latitude":"41.24980","Longitude":"-81.81330","Snowdepth":"10.000","Units":"in","Rept_Date":"2020-12-02 12"},"coordinates":[5055,4805]},{"type":"Point","properties":{"Station_ID":"OH-CY-41","Station_Nam":"LAKEWOOD 1.3 SSW, OH","Latitude":"41.46666","Longitude":"-81.81116","Snowdepth":"10.000","Units":"in","Rept_Date":"2020-12-02 12"},"coordinates":[5055,4913]},{"type":"Point","properties":{"Station_ID":"HVJP1","Station_Nam":"HIDDEN VALLEY COOP","Latitude":"40.04200","Longitude":"-79.25660","Snowdepth":"10.000","Units":"in","Rept_Date":"2020-12-02 13"},"coordinates":[5903,4207]},{"type":"Point","properties":{"Station_ID":"CAAW2","Station_Nam":"CANAAN VALLEY","Latitude":"39.05890","Longitude":"-79.44030","Snowdepth":"10.000","Units":"in","Rept_Date":"2020-12-02 14"},"coordinates":[5842,3719]},{"type":"Point","properties":{"Station_ID":"42.2002_079.8021","Station_Nam":"2 ESE North East  Trained Spotter (CLE0183)","Latitude":"42.20018","Longitude":"-79.80210","Snowdepth":"10.000","Units":"in","Rept_Date":"2020-12-02 12"},"coordinates":[5722,5276]},{"type":"Point","properties":{"Station_ID":"41.6522_081.3097","Station_Nam":"1 NNE Kirtland Hills  Trained Spotter (X4170813)","Latitude":"41.65218","Longitude":"-81.30974","Snowdepth":"10.000","Units":"in","Rept_Date":"2020-12-02 14"},"coordinates":[5222,5005]},{"type":"Point","properties":{"Station_ID":"41.4667_081.8112","Station_Nam":"1 SSW Lakewood  CoCoRaHS (OH-CY-41)","Latitude":"41.46670","Longitude":"-81.81120","Snowdepth":"10.000","Units":"in","Rept_Date":"2020-12-02 12"},"coordinates":[5055,4913]},{"type":"Point","properties":{"Station_ID":"41.4159_081.9847","Station_Nam":"N RIDGEVILLE (CLE1009)","Latitude":"41.41590","Longitude":"-81.98470","Snowdepth":"10.000","Units":"in","Rept_Date":"2020-12-02 15"},"coordinates":[4998,4888]},{"type":"Point","properties":{"Station_ID":"41.3292_080.7272","Station_Nam":"Cortland  Trained Spotter (X4130807)","Latitude":"41.32922","Longitude":"-80.72719","Snowdepth":"10.000","Units":"in","Rept_Date":"2020-12-02 10"},"coordinates":[5415,4845]},{"type":"Point","properties":{"Station_ID":"41.2499_081.8127","Station_Nam":"BRUNSWICK (CLE2007)","Latitude":"41.24990","Longitude":"-81.81270","Snowdepth":"10.000","Units":"in","Rept_Date":"2020-12-02 12"},"coordinates":[5055,4805]},{"type":"Point","properties":{"Station_ID":"TRIQ6","Station_Nam":"TRIO LAKE","Latitude":"49.22880","Longitude":"-87.22920","Snowdepth":"9.960","Units":"in","Rept_Date":"2020-12-03 06"},"coordinates":[3258,8761]},{"type":"Point","properties":{"Station_ID":"PA-ER-15","Station_Nam":"NORTH EAST 2.0 S, PA","Latitude":"42.18390","Longitude":"-79.83230","Snowdepth":"9.600","Units":"in","Rept_Date":"2020-12-02 13"},"coordinates":[5712,5268]},{"type":"Point","properties":{"Station_ID":"42.1839_079.8323","Station_Nam":"2 S North East  CoCoRaHS (PA-ER-15)","Latitude":"42.18390","Longitude":"-79.83230","Snowdepth":"9.600","Units":"in","Rept_Date":"2020-12-02 13"},"coordinates":[5712,5268]},{"type":"Point","properties":{"Station_ID":"PA-FY-16","Station_Nam":"FARMINGTON 0.5 ENE, PA","Latitude":"39.81000","Longitude":"-79.55760","Snowdepth":"9.500","Units":"in","Rept_Date":"2020-12-02 12"},"coordinates":[5803,4092]},{"type":"Point","properties":{"Station_ID":"CAN-ON-245","Station_Nam":"PHELPSTON 3.1 ESE, CAN","Latitude":"44.50564","Longitude":"-79.81035","Snowdepth":"9.500","Units":"in","Rept_Date":"2020-12-02 13"},"coordinates":[5719,6419]},{"type":"Point","properties":{"Station_ID":"CAN-ON-491","Station_Nam":"MILVERTON 1.1 ESE- CANWARN, CAN","Latitude":"43.56074","Longitude":"-80.90887","Snowdepth":"9.400","Units":"in","Rept_Date":"2020-12-02 11"},"coordinates":[5355,5951]},{"type":"Point","properties":{"Station_ID":"CAN-ON-829","Station_Nam":"THORNBURY 0.8 WSW - GSCA, CAN","Latitude":"44.55716","Longitude":"-80.46427","Snowdepth":"9.100","Units":"in","Rept_Date":"2020-12-02 13"},"coordinates":[5502,6445]},{"type":"Point","properties":{"Station_ID":"CAN-ON-620","Station_Nam":"GOODERHAM 3.4 SSW, CAN","Latitude":"44.87690","Longitude":"-78.39265","Snowdepth":"9.100","Units":"in","Rept_Date":"2020-12-02 12"},"coordinates":[6190,6603]},{"type":"Point","properties":{"Station_ID":"TSVP1","Station_Nam":"TITUSVILLE,PA","Latitude":"41.63330","Longitude":"-79.70000","Snowdepth":"9.000","Units":"in","Rept_Date":"2020-12-02 12"},"coordinates":[5756,4995]},{"type":"Point","properties":{"Station_ID":"TPTI3","Station_Nam":"TIPTON 5 SW","Latitude":"40.22330","Longitude":"-86.10860","Snowdepth":"9.000","Units":"in","Rept_Date":"2020-12-02 10"},"coordinates":[3629,4296]},{"type":"Point","properties":{"Station_ID":"SMRP1","Station_Nam":"SOMERSET,PA","Latitude":"40.00000","Longitude":"-79.08330","Snowdepth":"9.000","Units":"in","Rept_Date":"2020-12-02 13"},"coordinates":[5960,4186]},{"type":"Point","properties":{"Station_ID":"OH-PT-10","Station_Nam":"KENT 3.6 NE, OH","Latitude":"41.20083","Longitude":"-81.33890","Snowdepth":"9.000","Units":"in","Rept_Date":"2020-12-02 13"},"coordinates":[5212,4781]},{"type":"Point","properties":{"Station_ID":"NALN6","Station_Nam":"CATTARAUGUS","Latitude":"42.32450","Longitude":"-78.86700","Snowdepth":"9.000","Units":"in","Rept_Date":"2020-12-02 13"},"coordinates":[6032,5338]},{"type":"Point","properties":{"Station_ID":"MD-GR-4","Station_Nam":"MC HENRY 4.8 SSE, MD","Latitude":"39.48539","Longitude":"-79.31830","Snowdepth":"9.000","Units":"in","Rept_Date":"2020-12-02 13"},"coordinates":[5882,3931]},{"type":"Point","properties":{"Station_ID":"KZAP1","Station_Nam":"KINZUA","Latitude":"41.90060","Longitude":"-79.11860","Snowdepth":"9.000","Units":"in","Rept_Date":"2020-12-02 12"},"coordinates":[5949,5128]},{"type":"Point","properties":{"Station_ID":"CVWP1","Station_Nam":"CHANDLER VALLEY 1SE","Latitude":"41.93010","Longitude":"-79.29700","Snowdepth":"9.000","Units":"in","Rept_Date":"2020-12-02 12"},"coordinates":[5889,5143]},{"type":"Point","properties":{"Station_ID":"BKBW2","Station_Nam":"DAVIS.","Latitude":"39.09830","Longitude":"-79.43190","Snowdepth":"9.000","Units":"in","Rept_Date":"2020-12-02 12"},"coordinates":[5845,3739]},{"type":"Point","properties":{"Station_ID":"41.8495_080.3016","Station_Nam":"4 WNW Crossingville  Trained Spotter (X4180803)","Latitude":"41.84946","Longitude":"-80.30159","Snowdepth":"9.000","Units":"in","Rept_Date":"2020-12-02 13"},"coordinates":[5556,5103]},{"type":"Point","properties":{"Station_ID":"41.8275_080.5321","Station_Nam":"MONROE TWP  SNOW SPOTTER (X4180805)","Latitude":"41.82750","Longitude":"-80.53210","Snowdepth":"9.000","Units":"in","Rept_Date":"2020-12-02 14"},"coordinates":[5480,5092]},{"type":"Point","properties":{"Station_ID":"41.6333_079.7000","Station_Nam":"TITUSVILLE  CO-OP OBSERVER (TSVP1)","Latitude":"41.63330","Longitude":"-79.70000","Snowdepth":"9.000","Units":"in","Rept_Date":"2020-12-02 12"},"coordinates":[5756,4995]},{"type":"Point","properties":{"Station_ID":"41.3476_082.0754","Station_Nam":"3 SE Elyria  Trained Spotter (X4130821)","Latitude":"41.34759","Longitude":"-82.07538","Snowdepth":"9.000","Units":"in","Rept_Date":"2020-12-02 13"},"coordinates":[4968,4854]},{"type":"Point","properties":{"Station_ID":"41.2288_081.7159","Station_Nam":"HINCKLEY  TRAINED SPOTTER (CLE2006)","Latitude":"41.22880","Longitude":"-81.71590","Snowdepth":"9.000","Units":"in","Rept_Date":"2020-12-02 13"},"coordinates":[5087,4795]},{"type":"Point","properties":{"Station_ID":"41.2008_081.3389","Station_Nam":"4 NE Kent  CoCoRaHS (OH-PT-10)","Latitude":"41.20080","Longitude":"-81.33890","Snowdepth":"9.000","Units":"in","Rept_Date":"2020-12-02 13"},"coordinates":[5212,4781]},{"type":"Point","properties":{"Station_ID":"41.1978_081.6324","Station_Nam":"BATH TWP  TRAINED SPOTTER (CLE2135)","Latitude":"41.19780","Longitude":"-81.63240","Snowdepth":"9.000","Units":"in","Rept_Date":"2020-12-02 12"},"coordinates":[5115,4780]},{"type":"Point","properties":{"Station_ID":"MFU","Station_Nam":"MFU","Latitude":"51.52170","Longitude":"-66.91110","Snowdepth":"8.858","Units":"in","Rept_Date":"2020-12-02 12"},"coordinates":[9999,9897]},{"type":"Point","properties":{"Station_ID":"PA-WT-42","Station_Nam":"LIGONIER 0.1 SE, PA","Latitude":"40.24319","Longitude":"-79.23526","Snowdepth":"8.800","Units":"in","Rept_Date":"2020-12-02 12"},"coordinates":[5910,4306]},{"type":"Point","properties":{"Station_ID":"PA-ER-2","Station_Nam":"ERIE 5.6 SW, PA","Latitude":"42.06086","Longitude":"-80.15260","Snowdepth":"8.600","Units":"in","Rept_Date":"2020-12-02 12"},"coordinates":[5606,5207]},{"type":"Point","properties":{"Station_ID":"NC-ML-15","Station_Nam":"BULADEAN 1.3 ESE, NC","Latitude":"36.10222","Longitude":"-82.17261","Snowdepth":"8.500","Units":"in","Rept_Date":"2020-12-02 13"},"coordinates":[4935,2254]},{"type":"Point","properties":{"Station_ID":"QMD","Station_Nam":"QMD","Latitude":"49.29060","Longitude":"-75.84500","Snowdepth":"8.346","Units":"in","Rept_Date":"2020-12-02 12"},"coordinates":[7035,8791]},{"type":"Point","properties":{"Station_ID":"WV-PR-8","Station_Nam":"KINGWOOD 0.6 E, WV","Latitude":"39.47199","Longitude":"-79.67155","Snowdepth":"8.000","Units":"in","Rept_Date":"2020-12-02 12"},"coordinates":[5765,3924]},{"type":"Point","properties":{"Station_ID":"RRFP1","Station_Nam":"LAUGHLINTOWN 1SW","Latitude":"40.20390","Longitude":"-79.21710","Snowdepth":"8.000","Units":"in","Rept_Date":"2020-12-02 13"},"coordinates":[5916,4287]},{"type":"Point","properties":{"Station_ID":"PRGN6","Station_Nam":"PERRYSBURG","Latitude":"42.46470","Longitude":"-79.00310","Snowdepth":"8.000","Units":"in","Rept_Date":"2020-12-02 12"},"coordinates":[5987,5408]},{"type":"Point","properties":{"Station_ID":"PA-WT-55","Station_Nam":"LIGONIER 1.2 E, PA","Latitude":"40.24683","Longitude":"-79.21537","Snowdepth":"8.000","Units":"in","Rept_Date":"2020-12-02 12"},"coordinates":[5917,4308]},{"type":"Point","properties":{"Station_ID":"PA-FR-1","Station_Nam":"TIONESTA 7.3 SSE, PA","Latitude":"41.39404","Longitude":"-79.41310","Snowdepth":"8.000","Units":"in","Rept_Date":"2020-12-02 12"},"coordinates":[5851,4877]},{"type":"Point","properties":{"Station_ID":"PA-BT-6","Station_Nam":"BUTLER 6.6 SW, PA","Latitude":"40.77069","Longitude":"-79.93850","Snowdepth":"8.000","Units":"in","Rept_Date":"2020-12-02 12"},"coordinates":[5677,4568]},{"type":"Point","properties":{"Station_ID":"OH-PT-8","Station_Nam":"STREETSBORO 2.1 SSW, OH","Latitude":"41.20976","Longitude":"-81.35480","Snowdepth":"8.000","Units":"in","Rept_Date":"2020-12-02 12"},"coordinates":[5207,4785]},{"type":"Point","properties":{"Station_ID":"NY-CQ-40","Station_Nam":"JAMESTOWN 1.4 WSW, NY","Latitude":"42.08809","Longitude":"-79.25944","Snowdepth":"8.000","Units":"in","Rept_Date":"2020-12-02 13"},"coordinates":[5902,5221]},{"type":"Point","properties":{"Station_ID":"NC-MS-23","Station_Nam":"HOT SPRINGS 9.6 SW, NC","Latitude":"35.78658","Longitude":"-82.94176","Snowdepth":"8.000","Units":"in","Rept_Date":"2020-12-02 13"},"coordinates":[4680,2097]},{"type":"Point","properties":{"Station_ID":"MD-GR-9","Station_Nam":"MOUNTAIN LAKE PARK 0.4 E, MD","Latitude":"39.40407","Longitude":"-79.37220","Snowdepth":"8.000","Units":"in","Rept_Date":"2020-12-02 11"},"coordinates":[5865,3890]},{"type":"Point","properties":{"Station_ID":"KANP1","Station_Nam":"KANE,PA","Latitude":"41.68330","Longitude":"-78.80000","Snowdepth":"8.000","Units":"in","Rept_Date":"2020-12-02 12"},"coordinates":[6054,5020]},{"type":"Point","properties":{"Station_ID":"BAYW2","Station_Nam":"BAYARD COOP","Latitude":"39.27280","Longitude":"-79.36830","Snowdepth":"8.000","Units":"in","Rept_Date":"2020-12-02 12"},"coordinates":[5866,3825]},{"type":"Point","properties":{"Station_ID":"ACEP1","Station_Nam":"DONEGAL 2 NW","Latitude":"40.13470","Longitude":"-79.40720","Snowdepth":"8.000","Units":"in","Rept_Date":"2020-12-02 12"},"coordinates":[5853,4253]},{"type":"Point","properties":{"Station_ID":"41.8478_080.6111","Station_Nam":"4 SSW CONNEAUT I-90  TRAINED SPOTTER (CLE1457)","Latitude":"41.84780","Longitude":"-80.61110","Snowdepth":"8.000","Units":"in","Rept_Date":"2020-12-02 12"},"coordinates":[5453,5102]},{"type":"Point","properties":{"Station_ID":"41.4019_081.8479","Station_Nam":"Cleveland Hopkins Airport  Trained Spotter (CLE1104)","Latitude":"41.40193","Longitude":"-81.84787","Snowdepth":"8.000","Units":"in","Rept_Date":"2020-12-02 12"},"coordinates":[5043,4881]},{"type":"Point","properties":{"Station_ID":"41.1403_081.4956","Station_Nam":"CUYAHOGA FALLS (CLE2128)","Latitude":"41.14030","Longitude":"-81.49560","Snowdepth":"8.000","Units":"in","Rept_Date":"2020-12-02 13"},"coordinates":[5160,4751]},{"type":"Point","properties":{"Station_ID":"DVLQ6","Station_Nam":"DEVIOUS LAKE","Latitude":"49.19890","Longitude":"-87.76440","Snowdepth":"7.950","Units":"in","Rept_Date":"2020-12-03 06"},"coordinates":[3080,8746]},{"type":"Point","properties":{"Station_ID":"QTM","Station_Nam":"QTM","Latitude":"51.05780","Longitude":"-72.57190","Snowdepth":"7.835","Units":"in","Rept_Date":"2020-12-02 12"},"coordinates":[8121,9667]},{"type":"Point","properties":{"Station_ID":"QFT","Station_Nam":"QFT","Latitude":"50.83280","Longitude":"-74.40390","Snowdepth":"7.638","Units":"in","Rept_Date":"2020-12-02 12"},"coordinates":[7513,9556]},{"type":"Point","properties":{"Station_ID":"QCU","Station_Nam":"QCU","Latitude":"47.82750","Longitude":"-76.59830","Snowdepth":"7.598","Units":"in","Rept_Date":"2020-12-02 12"},"coordinates":[6785,8066]},{"type":"Point","properties":{"Station_ID":"AUDQ6","Station_Nam":"AUDEN","Latitude":"48.52600","Longitude":"-82.57570","Snowdepth":"7.560","Units":"in","Rept_Date":"2020-12-03 06"},"coordinates":[4802,8412]},{"type":"Point","properties":{"Station_ID":"NY-CQ-41","Station_Nam":"MAYVILLE 0.2 ESE, NY","Latitude":"42.25194","Longitude":"-79.49809","Snowdepth":"7.500","Units":"in","Rept_Date":"2020-12-02 12"},"coordinates":[5823,5302]},{"type":"Point","properties":{"Station_ID":"NY-CQ-39","Station_Nam":"GERRY 0.8 N, NY","Latitude":"42.20500","Longitude":"-79.24700","Snowdepth":"7.500","Units":"in","Rept_Date":"2020-12-02 13"},"coordinates":[5906,5279]},{"type":"Point","properties":{"Station_ID":"PTLQ6","Station_Nam":"PORTAGE LAKE","Latitude":"49.06950","Longitude":"-86.65940","Snowdepth":"7.170","Units":"in","Rept_Date":"2020-12-03 06"},"coordinates":[3447,8682]},{"type":"Point","properties":{"Station_ID":"CAN-ON-804","Station_Nam":"KEMBLE 1.6 S - GSCA, CAN","Latitude":"44.71013","Longitude":"-80.92735","Snowdepth":"7.100","Units":"in","Rept_Date":"2020-12-02 13"},"coordinates":[5349,6521]},{"type":"Point","properties":{"Station_ID":"CAN-ON-477","Station_Nam":"CALEDONIA 0.3 NW - GRCA, CAN","Latitude":"43.07135","Longitude":"-79.95667","Snowdepth":"7.100","Units":"in","Rept_Date":"2020-12-02 12"},"coordinates":[5671,5708]},{"type":"Point","properties":{"Station_ID":"TIOP1","Station_Nam":"TIONESTA DAM","Latitude":"41.47530","Longitude":"-79.44190","Snowdepth":"7.000","Units":"in","Rept_Date":"2020-12-02 12"},"coordinates":[5841,4917]},{"type":"Point","properties":{"Station_ID":"SRFM2","Station_Nam":"NEW GERMANY STATE PARK - SNOW","Latitude":"39.63330","Longitude":"-79.11670","Snowdepth":"7.000","Units":"in","Rept_Date":"2020-12-02 13"},"coordinates":[5949,4004]},{"type":"Point","properties":{"Station_ID":"PA-FY-18","Station_Nam":"HOPWOOD 1.2 NE, PA","Latitude":"39.88854","Longitude":"-79.68346","Snowdepth":"7.000","Units":"in","Rept_Date":"2020-12-02 12"},"coordinates":[5761,4131]},{"type":"Point","properties":{"Station_ID":"PA-BV-11","Station_Nam":"NEW BRIGHTON 3.0 NE, PA","Latitude":"40.76937","Longitude":"-80.27285","Snowdepth":"7.000","Units":"in","Rept_Date":"2020-12-02 13"},"coordinates":[5566,4567]},{"type":"Point","properties":{"Station_ID":"PA-BT-24","Station_Nam":"CABOT 0.3 N, PA","Latitude":"40.76870","Longitude":"-79.76690","Snowdepth":"7.000","Units":"in","Rept_Date":"2020-12-02 12"},"coordinates":[5734,4567]},{"type":"Point","properties":{"Station_ID":"OKLM2","Station_Nam":"SINES DEEP CREEK LAKE","Latitude":"39.52270","Longitude":"-79.41310","Snowdepth":"7.000","Units":"in","Rept_Date":"2020-12-02 12"},"coordinates":[5851,3949]},{"type":"Point","properties":{"Station_ID":"OH-CY-21","Station_Nam":"BRECKSVILLE 1.7 SE, OH","Latitude":"41.29094","Longitude":"-81.59475","Snowdepth":"7.000","Units":"in","Rept_Date":"2020-12-02 12"},"coordinates":[5127,4826]},{"type":"Point","properties":{"Station_ID":"OH-CY-14","Station_Nam":"CLEVELAND 7.0 SW, OH","Latitude":"41.45224","Longitude":"-81.81475","Snowdepth":"7.000","Units":"in","Rept_Date":"2020-12-03 03"},"coordinates":[5054,4906]},{"type":"Point","properties":{"Station_ID":"OH-CW-1","Station_Nam":"GALION 1.1 W, OH","Latitude":"40.73024","Longitude":"-82.81170","Snowdepth":"7.000","Units":"in","Rept_Date":"2020-12-02 12"},"coordinates":[4723,4548]},{"type":"Point","properties":{"Station_ID":"NC-ML-1","Station_Nam":"BAKERSVILLE 5.4 N, NC","Latitude":"36.09200","Longitude":"-82.17500","Snowdepth":"7.000","Units":"in","Rept_Date":"2020-12-02 12"},"coordinates":[4935,2249]},{"type":"Point","properties":{"Station_ID":"MOSO1","Station_Nam":"MOSQUITO CREEK DAM","Latitude":"41.28830","Longitude":"-80.76470","Snowdepth":"7.000","Units":"in","Rept_Date":"2020-12-02 12"},"coordinates":[5403,4824]},{"type":"Point","properties":{"Station_ID":"LAUP1","Station_Nam":"1.5MI S OF RT 30 ON SMIT (LAUREL RIDGE)","Latitude":"40.05000","Longitude":"-79.22060","Snowdepth":"7.000","Units":"in","Rept_Date":"2020-12-02 12"},"coordinates":[5915,4211]},{"type":"Point","properties":{"Station_ID":"KCLE","Station_Nam":"CLEVELAND-HOPKINS INTERNATIONAL","Latitude":"41.40000","Longitude":"-81.85000","Snowdepth":"7.000","Units":"in","Rept_Date":"2020-12-03 06"},"coordinates":[5042,4880]},{"type":"Point","properties":{"Station_ID":"HVAW2","Station_Nam":"HACKER VALLEY","Latitude":"38.61950","Longitude":"-80.38210","Snowdepth":"7.000","Units":"in","Rept_Date":"2020-12-02 12"},"coordinates":[5529,3501]},{"type":"Point","properties":{"Station_ID":"CLE","Station_Nam":"CLEVELAND, OH","Latitude":"41.41170","Longitude":"-81.84970","Snowdepth":"7.000","Units":"in","Rept_Date":"2020-12-03 00"},"coordinates":[5043,4886]},{"type":"Point","properties":{"Station_ID":"CAN-ON-668","Station_Nam":"SCOTLAND 2.1 ENE - BSCIA02, CAN","Latitude":"43.02846","Longitude":"-80.34917","Snowdepth":"7.000","Units":"in","Rept_Date":"2020-12-02 12"},"coordinates":[5540,5687]},{"type":"Point","properties":{"Station_ID":"41.9986_080.3138","Station_Nam":"GIRARD  SNOW SPOTTER (X4200803)","Latitude":"41.99860","Longitude":"-80.31380","Snowdepth":"7.000","Units":"in","Rept_Date":"2020-12-02 14"},"coordinates":[5552,5177]},{"type":"Point","properties":{"Station_ID":"41.2909_081.5948","Station_Nam":"2 SE Brecksville  CoCoRaHS (OH-CY-21)","Latitude":"41.29090","Longitude":"-81.59480","Snowdepth":"7.000","Units":"in","Rept_Date":"2020-12-02 12"},"coordinates":[5127,4826]},{"type":"Point","properties":{"Station_ID":"41.2883_080.7647","Station_Nam":"Mosquito Creek Lake  Co-Op Observer (MOSO1)","Latitude":"41.28830","Longitude":"-80.76470","Snowdepth":"7.000","Units":"in","Rept_Date":"2020-12-02 12"},"coordinates":[5403,4824]},{"type":"Point","properties":{"Station_ID":"41.2574_080.6670","Station_Nam":"Youngstown Regional Airport  Trained Spotter (CLE2302)","Latitude":"41.25735","Longitude":"-80.66700","Snowdepth":"7.000","Units":"in","Rept_Date":"2020-12-02 12"},"coordinates":[5435,4809]},{"type":"Point","properties":{"Station_ID":"41.2019_081.6342","Station_Nam":"1 N Bath  Trained Spotter (CLE2148)","Latitude":"41.20192","Longitude":"-81.63420","Snowdepth":"7.000","Units":"in","Rept_Date":"2020-12-02 12"},"coordinates":[5114,4782]},{"type":"Point","properties":{"Station_ID":"41.1970_080.9871","Station_Nam":"NEWTON FALLS (CLE2322)","Latitude":"41.19700","Longitude":"-80.98710","Snowdepth":"7.000","Units":"in","Rept_Date":"2020-12-02 12"},"coordinates":[5329,4779]},{"type":"Point","properties":{"Station_ID":"40.7302_082.8117","Station_Nam":"1 W Galion  CoCoRaHS (OH-CW-1)","Latitude":"40.73020","Longitude":"-82.81170","Snowdepth":"7.000","Units":"in","Rept_Date":"2020-12-02 12"},"coordinates":[4723,4548]},{"type":"Point","properties":{"Station_ID":"40.7301_082.8116","Station_Nam":"GALION (CLE2801)","Latitude":"40.73010","Longitude":"-82.81160","Snowdepth":"7.000","Units":"in","Rept_Date":"2020-12-02 13"},"coordinates":[4723,4548]},{"type":"Point","properties":{"Station_ID":"MRL","Station_Nam":"MRL","Latitude":"51.28330","Longitude":"-68.84060","Snowdepth":"6.811","Units":"in","Rept_Date":"2020-12-02 12"},"coordinates":[9359,9779]},{"type":"Point","properties":{"Station_ID":"CAN-ON-784","Station_Nam":"KOMOKA 3.1 W, CAN","Latitude":"42.96000","Longitude":"-81.43805","Snowdepth":"6.700","Units":"in","Rept_Date":"2020-12-02 13"},"coordinates":[5179,5653]},{"type":"Point","properties":{"Station_ID":"QGO","Station_Nam":"QGO","Latitude":"48.85500","Longitude":"-74.20640","Snowdepth":"6.653","Units":"in","Rept_Date":"2020-12-02 12"},"coordinates":[7578,8575]},{"type":"Point","properties":{"Station_ID":"PA-WS-21","Station_Nam":"FINLEYVILLE 0.5 NNW, PA","Latitude":"40.26030","Longitude":"-80.00590","Snowdepth":"6.500","Units":"in","Rept_Date":"2020-12-02 12"},"coordinates":[5654,4315]},{"type":"Point","properties":{"Station_ID":"PA-AL-105","Station_Nam":"TARENTUM 2.6 WNW, PA","Latitude":"40.62555","Longitude":"-79.80242","Snowdepth":"6.500","Units":"in","Rept_Date":"2020-12-02 13"},"coordinates":[5722,4496]},{"type":"Point","properties":{"Station_ID":"OH-TR-4","Station_Nam":"NEWTON FALLS 0.6 N, OH","Latitude":"41.19773","Longitude":"-80.97210","Snowdepth":"6.500","Units":"in","Rept_Date":"2020-12-02 12"},"coordinates":[5334,4780]},{"type":"Point","properties":{"Station_ID":"OH-AS-5","Station_Nam":"SULLIVAN 1.1 NNE, OH","Latitude":"41.04200","Longitude":"-82.21260","Snowdepth":"6.500","Units":"in","Rept_Date":"2020-12-02 12"},"coordinates":[4922,4702]},{"type":"Point","properties":{"Station_ID":"NY-ER-77","Station_Nam":"COLDEN 2.4 ENE, NY","Latitude":"42.65088","Longitude":"-78.61060","Snowdepth":"6.500","Units":"in","Rept_Date":"2020-12-02 13"},"coordinates":[6117,5500]},{"type":"Point","properties":{"Station_ID":"NC-WT-68","Station_Nam":"VILAS 6.3 NNW, NC","Latitude":"36.33379","Longitude":"-81.82169","Snowdepth":"6.500","Units":"in","Rept_Date":"2020-12-02 12"},"coordinates":[5052,2368]},{"type":"Point","properties":{"Station_ID":"PA-WT-9","Station_Nam":"GREENSBURG 0.6 WNW, PA","Latitude":"40.31358","Longitude":"-79.55432","Snowdepth":"6.300","Units":"in","Rept_Date":"2020-12-02 12"},"coordinates":[5804,4341]},{"type":"Point","properties":{"Station_ID":"CAN-ON-86","Station_Nam":"GUELPH 5.1 S - CANWARN, CAN","Latitude":"43.49691","Longitude":"-80.24385","Snowdepth":"6.300","Units":"in","Rept_Date":"2020-12-02 12"},"coordinates":[5575,5919]},{"type":"Point","properties":{"Station_ID":"PA-BT-42","Station_Nam":"BUTLER 1.5 W, PA","Latitude":"40.86398","Longitude":"-79.92596","Snowdepth":"6.100","Units":"in","Rept_Date":"2020-12-02 12"},"coordinates":[5681,4614]},{"type":"Point","properties":{"Station_ID":"YNG","Station_Nam":"YOUNGSTOWN-WARREN REG AIRPRT","Latitude":"41.25890","Longitude":"-80.67610","Snowdepth":"6.000","Units":"in","Rept_Date":"2020-12-03 00"},"coordinates":[5432,4810]},{"type":"Point","properties":{"Station_ID":"WV-NC-4","Station_Nam":"CRAIGSVILLE 0.6 NE, WV","Latitude":"38.33698","Longitude":"-80.64520","Snowdepth":"6.000","Units":"in","Rept_Date":"2020-12-02 12"},"coordinates":[5442,3361]},{"type":"Point","properties":{"Station_ID":"WV-DD-3","Station_Nam":"WEST UNION 5.9 NE, WV","Latitude":"39.35332","Longitude":"-80.69260","Snowdepth":"6.000","Units":"in","Rept_Date":"2020-12-02 12"},"coordinates":[5426,3865]},{"type":"Point","properties":{"Station_ID":"STWO1","Station_Nam":"MONROE FALLS","Latitude":"41.13110","Longitude":"-81.40000","Snowdepth":"6.000","Units":"in","Rept_Date":"2020-12-02 12"},"coordinates":[5192,4746]},{"type":"Point","properties":{"Station_ID":"SNOW2","Station_Nam":"SNOWSHOE","Latitude":"38.39900","Longitude":"-79.99490","Snowdepth":"6.000","Units":"in","Rept_Date":"2020-12-02 11"},"coordinates":[5658,3392]},{"type":"Point","properties":{"Station_ID":"PBZP1","Station_Nam":"MOON TOWNSHIP","Latitude":"40.53190","Longitude":"-80.21720","Snowdepth":"6.000","Units":"in","Rept_Date":"2020-12-02 12"},"coordinates":[5584,4449]},{"type":"Point","properties":{"Station_ID":"PA-WT-41","Station_Nam":"NEW KENSINGTON 3.9 E, PA","Latitude":"40.55995","Longitude":"-79.67713","Snowdepth":"6.000","Units":"in","Rept_Date":"2020-12-02 13"},"coordinates":[5763,4463]},{"type":"Point","properties":{"Station_ID":"PA-WT-14","Station_Nam":"LOWER BURRELL 1.2 WNW, PA","Latitude":"40.59181","Longitude":"-79.73332","Snowdepth":"6.000","Units":"in","Rept_Date":"2020-12-02 13"},"coordinates":[5745,4479]},{"type":"Point","properties":{"Station_ID":"PA-BV-18","Station_Nam":"BEAVER 5.5 W, PA","Latitude":"40.70502","Longitude":"-80.41213","Snowdepth":"6.000","Units":"in","Rept_Date":"2020-12-02 12"},"coordinates":[5519,4535]},{"type":"Point","properties":{"Station_ID":"PA-AL-108","Station_Nam":"CORAOPOLIS 2.0 WNW, PA","Latitude":"40.52560","Longitude":"-80.19665","Snowdepth":"6.000","Units":"in","Rept_Date":"2020-12-02 12"},"coordinates":[5591,4446]},{"type":"Point","properties":{"Station_ID":"PA-AL-1","Station_Nam":"BRIDGEVILLE 1.4 SW, PA","Latitude":"40.34174","Longitude":"-80.12290","Snowdepth":"6.000","Units":"in","Rept_Date":"2020-12-02 12"},"coordinates":[5615,4355]},{"type":"Point","properties":{"Station_ID":"NY-CQ-34","Station_Nam":"KENNEDY 2.6 SE, NY","Latitude":"42.12567","Longitude":"-79.07235","Snowdepth":"6.000","Units":"in","Rept_Date":"2020-12-02 13"},"coordinates":[5964,5240]},{"type":"Point","properties":{"Station_ID":"NC-MS-19","Station_Nam":"MARSHALL 15.1 NNE, NC","Latitude":"36.00835","Longitude":"-82.61821","Snowdepth":"6.000","Units":"in","Rept_Date":"2020-12-02 12"},"coordinates":[4788,2207]},{"type":"Point","properties":{"Station_ID":"LTVN6","Station_Nam":"LITTLE VALLEY","Latitude":"42.24730","Longitude":"-78.81250","Snowdepth":"6.000","Units":"in","Rept_Date":"2020-12-02 12"},"coordinates":[6050,5300]},{"type":"Point","properties":{"Station_ID":"KYNG","Station_Nam":"YOUNGSTOWN-WARREN REG AIRPRT","Latitude":"41.25000","Longitude":"-80.66666","Snowdepth":"6.000","Units":"in","Rept_Date":"2020-12-03 06"},"coordinates":[5435,4805]},{"type":"Point","properties":{"Station_ID":"CLQM5","Station_Nam":"CLOQUET","Latitude":"46.70470","Longitude":"-92.52530","Snowdepth":"6.000","Units":"in","Rept_Date":"2020-12-02 14"},"coordinates":[1500,7509]},{"type":"Point","properties":{"Station_ID":"CAN-ON-103","Station_Nam":"CALEDONIA 12.4 NW, CA","Latitude":"43.14246","Longitude":"-80.06960","Snowdepth":"6.000","Units":"in","Rept_Date":"2020-12-02 12"},"coordinates":[5633,5744]},{"type":"Point","properties":{"Station_ID":"42.2168_079.8473","Station_Nam":"NORTH EAST  SNOW SPOTTER (X4220798)","Latitude":"42.21680","Longitude":"-79.84730","Snowdepth":"6.000","Units":"in","Rept_Date":"2020-12-02 13"},"coordinates":[5707,5285]},{"type":"Point","properties":{"Station_ID":"41.2446_081.3327","Station_Nam":"1 ENE Streetsboro  Trained Spotter (X4120813)","Latitude":"41.24461","Longitude":"-81.33273","Snowdepth":"6.000","Units":"in","Rept_Date":"2020-12-02 13"},"coordinates":[5214,4803]},{"type":"Point","properties":{"Station_ID":"41.2282_080.8472","Station_Nam":"WARREN (CLE2324)","Latitude":"41.22820","Longitude":"-80.84720","Snowdepth":"6.000","Units":"in","Rept_Date":"2020-12-02 11"},"coordinates":[5375,4795]},{"type":"Point","properties":{"Station_ID":"41.1311_081.4000","Station_Nam":"MONROE FALLS  CO-OP OBSERVER (STWO1)","Latitude":"41.13110","Longitude":"-81.40000","Snowdepth":"6.000","Units":"in","Rept_Date":"2020-12-02 12"},"coordinates":[5192,4746]},{"type":"Point","properties":{"Station_ID":"41.1184_081.4397","Station_Nam":"TALLMADGE (CLE2118)","Latitude":"41.11840","Longitude":"-81.43970","Snowdepth":"6.000","Units":"in","Rept_Date":"2020-12-02 13"},"coordinates":[5179,4740]},{"type":"Point","properties":{"Station_ID":"41.1091_082.4398","Station_Nam":"3 NW New London  Trained Spotter (CLE1905)","Latitude":"41.10907","Longitude":"-82.43975","Snowdepth":"6.000","Units":"in","Rept_Date":"2020-12-02 12"},"coordinates":[4847,4736]},{"type":"Point","properties":{"Station_ID":"QMA","Station_Nam":"QMA","Latitude":"50.10330","Longitude":"-70.47190","Snowdepth":"5.945","Units":"in","Rept_Date":"2020-12-02 12"},"coordinates":[8818,9194]},{"type":"Point","properties":{"Station_ID":"CAN-ON-646","Station_Nam":"MISSISSAUGA 6.4 SSE - CANWARN, CAN","Latitude":"43.53417","Longitude":"-79.62089","Snowdepth":"5.900","Units":"in","Rept_Date":"2020-12-02 13"},"coordinates":[5782,5938]},{"type":"Point","properties":{"Station_ID":"OH-SM-39","Station_Nam":"TALLMADGE 0.8 NNE, OH","Latitude":"41.11402","Longitude":"-81.41970","Snowdepth":"5.800","Units":"in","Rept_Date":"2020-12-02 13"},"coordinates":[5185,4738]},{"type":"Point","properties":{"Station_ID":"41.1140_081.4197","Station_Nam":"1 NNE Tallmadge  CoCoRaHS (OH-SM-39)","Latitude":"41.11400","Longitude":"-81.41970","Snowdepth":"5.800","Units":"in","Rept_Date":"2020-12-02 13"},"coordinates":[5185,4738]},{"type":"Point","properties":{"Station_ID":"WV-PR-11","Station_Nam":"THOMAS 7.4 N, WV","Latitude":"39.25361","Longitude":"-79.51055","Snowdepth":"5.500","Units":"in","Rept_Date":"2020-12-02 12"},"coordinates":[5819,3816]},{"type":"Point","properties":{"Station_ID":"PA-WS-29","Station_Nam":"FINLEYVILLE 0.9 NNW, PA","Latitude":"40.26329","Longitude":"-80.01128","Snowdepth":"5.500","Units":"in","Rept_Date":"2020-12-02 12"},"coordinates":[5652,4316]},{"type":"Point","properties":{"Station_ID":"PA-FR-2","Station_Nam":"MARIENVILLE 5.3 W, PA","Latitude":"41.45710","Longitude":"-79.18150","Snowdepth":"5.500","Units":"in","Rept_Date":"2020-12-02 10"},"coordinates":[5928,4908]},{"type":"Point","properties":{"Station_ID":"OH-RC-9","Station_Nam":"MANSFIELD 5.1 WSW, OH","Latitude":"40.73834","Longitude":"-82.61833","Snowdepth":"5.500","Units":"in","Rept_Date":"2020-12-02 13"},"coordinates":[4787,4552]},{"type":"Point","properties":{"Station_ID":"NY-CQ-22","Station_Nam":"FREDONIA 0.8 WNW, NY","Latitude":"42.44414","Longitude":"-79.34610","Snowdepth":"5.500","Units":"in","Rept_Date":"2020-12-02 10"},"coordinates":[5873,5397]},{"type":"Point","properties":{"Station_ID":"CAN-ON-525","Station_Nam":"WOODSTOCK 1.2 ENE, CAN","Latitude":"43.13734","Longitude":"-80.73688","Snowdepth":"5.500","Units":"in","Rept_Date":"2020-12-02 12"},"coordinates":[5412,5741]},{"type":"Point","properties":{"Station_ID":"FTHQ6","Station_Nam":"FORT HOPE","Latitude":"51.55820","Longitude":"-87.90510","Snowdepth":"5.390","Units":"in","Rept_Date":"2020-12-03 06"},"coordinates":[3033,9915]},{"type":"Point","properties":{"Station_ID":"OGIQ6","Station_Nam":"OGOKI CAMP","Latitude":"50.76680","Longitude":"-87.85820","Snowdepth":"5.350","Units":"in","Rept_Date":"2020-12-03 06"},"coordinates":[3049,9523]},{"type":"Point","properties":{"Station_ID":"KABQ6","Station_Nam":"CAB LAKE","Latitude":"49.59950","Longitude":"-89.17990","Snowdepth":"5.350","Units":"in","Rept_Date":"2020-12-03 06"},"coordinates":[2610,8944]},{"type":"Point","properties":{"Station_ID":"PA-AL-3","Station_Nam":"SOUTH FAYETTE 2 SE, PA","Latitude":"40.33810","Longitude":"-80.11590","Snowdepth":"5.300","Units":"in","Rept_Date":"2020-12-02 12"},"coordinates":[5618,4353]},{"type":"Point","properties":{"Station_ID":"WV-MG-16","Station_Nam":"MORGANTOWN 5.9 SW, WV","Latitude":"39.56615","Longitude":"-80.01490","Snowdepth":"5.200","Units":"in","Rept_Date":"2020-12-02 12"},"coordinates":[5651,3971]},{"type":"Point","properties":{"Station_ID":"OH-SM-38","Station_Nam":"AKRON 2.4 W, OH","Latitude":"41.08008","Longitude":"-81.56801","Snowdepth":"5.200","Units":"in","Rept_Date":"2020-12-02 12"},"coordinates":[5136,4721]},{"type":"Point","properties":{"Station_ID":"OH-CB-18","Station_Nam":"WELLSVILLE 4.3 N, OH","Latitude":"40.66436","Longitude":"-80.64236","Snowdepth":"5.200","Units":"in","Rept_Date":"2020-12-02 14"},"coordinates":[5443,4515]},{"type":"Point","properties":{"Station_ID":"41.0801_081.5680","Station_Nam":"2 W Akron  CoCoRaHS (OH-SM-38)","Latitude":"41.08010","Longitude":"-81.56800","Snowdepth":"5.200","Units":"in","Rept_Date":"2020-12-02 12"},"coordinates":[5136,4721]},{"type":"Point","properties":{"Station_ID":"PA-WS-25","Station_Nam":"DUNLEVY 0.1 SSE, PA","Latitude":"40.11073","Longitude":"-79.85778","Snowdepth":"5.100","Units":"in","Rept_Date":"2020-12-02 13"},"coordinates":[5703,4241]},{"type":"Point","properties":{"Station_ID":"PA-MR-12","Station_Nam":"HERMITAGE 2.2 SSW, PA","Latitude":"41.19941","Longitude":"-80.45645","Snowdepth":"5.100","Units":"in","Rept_Date":"2020-12-02 14"},"coordinates":[5505,4780]},{"type":"Point","properties":{"Station_ID":"NY-ER-123","Station_Nam":"CLARENCE CENTER 5.2 WNW, NY","Latitude":"43.04554","Longitude":"-78.72150","Snowdepth":"5.100","Units":"in","Rept_Date":"2020-12-02 12"},"coordinates":[6080,5696]},{"type":"Point","properties":{"Station_ID":"QLI","Station_Nam":"QLI","Latitude":"50.27080","Longitude":"-73.92280","Snowdepth":"5.039","Units":"in","Rept_Date":"2020-12-02 12"},"coordinates":[7673,9277]},{"type":"Point","properties":{"Station_ID":"YGTN6","Station_Nam":"YOUNGSTOWN","Latitude":"43.24990","Longitude":"-79.00930","Snowdepth":"5.000","Units":"in","Rept_Date":"2020-12-02 12"},"coordinates":[5985,5797]},{"type":"Point","properties":{"Station_ID":"WV-DD-1","Station_Nam":"CENTER POINT 2.2 NNW, WV","Latitude":"39.41954","Longitude":"-80.65610","Snowdepth":"5.000","Units":"in","Rept_Date":"2020-12-02 12"},"coordinates":[5439,3898]},{"type":"Point","properties":{"Station_ID":"WNDP1","Station_Nam":"WINDBER COUNTY CLUB","Latitude":"40.28780","Longitude":"-78.77530","Snowdepth":"5.000","Units":"in","Rept_Date":"2020-12-02 12"},"coordinates":[6063,4328]},{"type":"Point","properties":{"Station_ID":"PRNW2","Station_Nam":"PARSONS 3SE","Latitude":"39.07360","Longitude":"-79.63400","Snowdepth":"5.000","Units":"in","Rept_Date":"2020-12-02 12"},"coordinates":[5778,3727]},{"type":"Point","properties":{"Station_ID":"PA-ER-5","Station_Nam":"NORTH EAST 1.2 WNW, PA","Latitude":"42.22058","Longitude":"-79.85510","Snowdepth":"5.000","Units":"in","Rept_Date":"2020-12-02 13"},"coordinates":[5704,5287]},{"type":"Point","properties":{"Station_ID":"PA-EL-1","Station_Nam":"ST. MARYS 1.7 SE, PA","Latitude":"41.41069","Longitude":"-78.53480","Snowdepth":"5.000","Units":"in","Rept_Date":"2020-12-02 11"},"coordinates":[6142,4885]},{"type":"Point","properties":{"Station_ID":"PA-BT-39","Station_Nam":"SARVER 1.8 NE, PA","Latitude":"40.74881","Longitude":"-79.70536","Snowdepth":"5.000","Units":"in","Rept_Date":"2020-12-02 11"},"coordinates":[5754,4557]},{"type":"Point","properties":{"Station_ID":"OH-SM-5","Station_Nam":"CUYAHOGA FALLS 1.1 ESE, OH","Latitude":"41.16228","Longitude":"-81.50370","Snowdepth":"5.000","Units":"in","Rept_Date":"2020-12-02 12"},"coordinates":[5157,4762]},{"type":"Point","properties":{"Station_ID":"NY-NG-30","Station_Nam":"LOCKPORT 2.5 ESE, NY","Latitude":"43.15207","Longitude":"-78.65338","Snowdepth":"5.000","Units":"in","Rept_Date":"2020-12-02 12"},"coordinates":[6103,5748]},{"type":"Point","properties":{"Station_ID":"NY-ER-65","Station_Nam":"BOSTON 1.5 NE, NY","Latitude":"42.65470","Longitude":"-78.72010","Snowdepth":"5.000","Units":"in","Rept_Date":"2020-12-02 12"},"coordinates":[6081,5502]},{"type":"Point","properties":{"Station_ID":"NY-ER-194","Station_Nam":"GLENWOOD 1.0 SE, NY","Latitude":"42.60740","Longitude":"-78.64610","Snowdepth":"5.000","Units":"in","Rept_Date":"2020-12-02 12"},"coordinates":[6105,5478]},{"type":"Point","properties":{"Station_ID":"NY-ER-166","Station_Nam":"BOSTON 2.5 NE, NY","Latitude":"42.65480","Longitude":"-78.70300","Snowdepth":"5.000","Units":"in","Rept_Date":"2020-12-02 12"},"coordinates":[6087,5502]},{"type":"Point","properties":{"Station_ID":"NY-CT-2","Station_Nam":"RANDOLPH 1.1 ENE, NY","Latitude":"42.17056","Longitude":"-78.96120","Snowdepth":"5.000","Units":"in","Rept_Date":"2020-12-02 12"},"coordinates":[6001,5262]},{"type":"Point","properties":{"Station_ID":"NY-CQ-35","Station_Nam":"FALCONER 0.3 WSW, NY","Latitude":"42.11766","Longitude":"-79.20278","Snowdepth":"5.000","Units":"in","Rept_Date":"2020-12-02 12"},"coordinates":[5921,5236]},{"type":"Point","properties":{"Station_ID":"NWLO1","Station_Nam":"NEW LEXINGTON 2 NW","Latitude":"39.73320","Longitude":"-82.21560","Snowdepth":"5.000","Units":"in","Rept_Date":"2020-12-02 12"},"coordinates":[4921,4054]},{"type":"Point","properties":{"Station_ID":"NSTP1","Station_Nam":"NEW STANTON","Latitude":"40.20470","Longitude":"-79.62500","Snowdepth":"5.000","Units":"in","Rept_Date":"2020-12-02 12"},"coordinates":[5781,4287]},{"type":"Point","properties":{"Station_ID":"MRVP1","Station_Nam":"MURRYSVILLE","Latitude":"40.41220","Longitude":"-79.72610","Snowdepth":"5.000","Units":"in","Rept_Date":"2020-12-02 12"},"coordinates":[5747,4390]},{"type":"Point","properties":{"Station_ID":"MMTN7","Station_Nam":"MOUNT MITCHELL STATE PARK","Latitude":"35.75940","Longitude":"-82.27110","Snowdepth":"5.000","Units":"in","Rept_Date":"2020-12-02 12"},"coordinates":[4903,2084]},{"type":"Point","properties":{"Station_ID":"GWDP1","Station_Nam":"DASHIELDS DAM","Latitude":"40.54940","Longitude":"-80.20610","Snowdepth":"5.000","Units":"in","Rept_Date":"2020-12-02 11"},"coordinates":[5588,4458]},{"type":"Point","properties":{"Station_ID":"FKNP1","Station_Nam":"FRANKLIN","Latitude":"41.39030","Longitude":"-79.82170","Snowdepth":"5.000","Units":"in","Rept_Date":"2020-12-02 14"},"coordinates":[5715,4875]},{"type":"Point","properties":{"Station_ID":"CSBP1","Station_Nam":"COOKSBURG","Latitude":"41.35750","Longitude":"-79.21720","Snowdepth":"5.000","Units":"in","Rept_Date":"2020-12-02 13"},"coordinates":[5916,4859]},{"type":"Point","properties":{"Station_ID":"CNLP1","Station_Nam":"CONNELLSVILLE","Latitude":"39.98810","Longitude":"-79.59280","Snowdepth":"5.000","Units":"in","Rept_Date":"2020-12-02 11"},"coordinates":[5791,4180]},{"type":"Point","properties":{"Station_ID":"CLUM4","Station_Nam":"CALUMET-TAMARACK","Latitude":"47.24550","Longitude":"-88.46790","Snowdepth":"5.000","Units":"in","Rept_Date":"2020-12-02 14"},"coordinates":[2847,7777]},{"type":"Point","properties":{"Station_ID":"CFLP1","Station_Nam":"DAM","Latitude":"39.80000","Longitude":"-79.36670","Snowdepth":"5.000","Units":"in","Rept_Date":"2020-12-02 13"},"coordinates":[5866,4087]},{"type":"Point","properties":{"Station_ID":"CAN-ON-118","Station_Nam":"DURHAM 1.4 S, CAN","Latitude":"44.16525","Longitude":"-80.82064","Snowdepth":"5.000","Units":"in","Rept_Date":"2020-12-02 12"},"coordinates":[5384,6251]},{"type":"Point","properties":{"Station_ID":"BDFP1","Station_Nam":"BRADFORD,PA","Latitude":"41.95000","Longitude":"-78.73330","Snowdepth":"5.000","Units":"in","Rept_Date":"2020-12-02 13"},"coordinates":[6077,5152]},{"type":"Point","properties":{"Station_ID":"41.1623_081.5037","Station_Nam":"1 ESE Cuyahoga Falls  CoCoRaHS (OH-SM-5)","Latitude":"41.16230","Longitude":"-81.50370","Snowdepth":"5.000","Units":"in","Rept_Date":"2020-12-02 12"},"coordinates":[5157,4762]},{"type":"Point","properties":{"Station_ID":"SOCQ6","Station_Nam":"SOCKET LAKE","Latitude":"50.77870","Longitude":"-91.79300","Snowdepth":"4.960","Units":"in","Rept_Date":"2020-12-03 06"},"coordinates":[1743,9529]},{"type":"Point","properties":{"Station_ID":"WV-WT-1","Station_Nam":"NEW MARTINSVILLE 6.5 E, WV","Latitude":"39.64898","Longitude":"-80.73820","Snowdepth":"4.800","Units":"in","Rept_Date":"2020-12-02 13"},"coordinates":[5411,4012]},{"type":"Point","properties":{"Station_ID":"PA-AL-74","Station_Nam":"PITTSBURGH 3.6 NNW, PA","Latitude":"40.48879","Longitude":"-80.00055","Snowdepth":"4.800","Units":"in","Rept_Date":"2020-12-02 11"},"coordinates":[5656,4428]},{"type":"Point","properties":{"Station_ID":"QTV","Station_Nam":"QTV","Latitude":"49.66000","Longitude":"-69.35690","Snowdepth":"4.764","Units":"in","Rept_Date":"2020-12-02 12"},"coordinates":[9188,8974]},{"type":"Point","properties":{"Station_ID":"CATQ6","Station_Nam":"CAT LAKE","Latitude":"51.72690","Longitude":"-91.82210","Snowdepth":"4.530","Units":"in","Rept_Date":"2020-12-03 06"},"coordinates":[1734,9999]},{"type":"Point","properties":{"Station_ID":"PA-WT-19","Station_Nam":"LEECHBURG 1.4 SW, PA","Latitude":"40.61529","Longitude":"-79.62137","Snowdepth":"4.500","Units":"in","Rept_Date":"2020-12-02 13"},"coordinates":[5782,4491]},{"type":"Point","properties":{"Station_ID":"PA-WS-30","Station_Nam":"CANONSBURG 0.7 W, PA","Latitude":"40.26230","Longitude":"-80.20005","Snowdepth":"4.500","Units":"in","Rept_Date":"2020-12-02 12"},"coordinates":[5590,4316]},{"type":"Point","properties":{"Station_ID":"PA-MR-5","Station_Nam":"WEST MIDDLESEX 2.1 S, PA","Latitude":"41.14334","Longitude":"-80.45519","Snowdepth":"4.500","Units":"in","Rept_Date":"2020-12-02 14"},"coordinates":[5505,4753]},{"type":"Point","properties":{"Station_ID":"PA-IN-5","Station_Nam":"BRUSH VALLEY 0.6 SE, PA","Latitude":"40.52375","Longitude":"-79.06158","Snowdepth":"4.500","Units":"in","Rept_Date":"2020-12-02 11"},"coordinates":[5968,4445]},{"type":"Point","properties":{"Station_ID":"OH-OT-4","Station_Nam":"PUT-IN-BAY 1.1 SSW, OH","Latitude":"41.63897","Longitude":"-82.82480","Snowdepth":"4.500","Units":"in","Rept_Date":"2020-12-02 12"},"coordinates":[4719,4998]},{"type":"Point","properties":{"Station_ID":"CAN-ON-46","Station_Nam":"WROXETER 0.3 WSW - MVCA, CAN","Latitude":"43.86365","Longitude":"-81.15225","Snowdepth":"4.500","Units":"in","Rept_Date":"2020-12-02 13"},"coordinates":[5274,6101]},{"type":"Point","properties":{"Station_ID":"CAN-ON-342","Station_Nam":"LURGAN BEACH 1.4 NNE - LHCC, CAN","Latitude":"44.09777","Longitude":"-81.72765","Snowdepth":"4.500","Units":"in","Rept_Date":"2020-12-02 12"},"coordinates":[5083,6217]},{"type":"Point","properties":{"Station_ID":"OH-TS-19","Station_Nam":"MINERAL CITY 7.2 SE, OH","Latitude":"40.52050","Longitude":"-81.27689","Snowdepth":"4.400","Units":"in","Rept_Date":"2020-12-02 13"},"coordinates":[5233,4444]},{"type":"Point","properties":{"Station_ID":"SVBQ6","Station_Nam":"SAVANT BASE","Latitude":"50.28730","Longitude":"-90.65670","Snowdepth":"4.370","Units":"in","Rept_Date":"2020-12-03 06"},"coordinates":[2120,9285]},{"type":"Point","properties":{"Station_ID":"PA-PT-2","Station_Nam":"ROULETTE 1.8 NNE, PA","Latitude":"41.80759","Longitude":"-78.14140","Snowdepth":"4.300","Units":"in","Rept_Date":"2020-12-02 12"},"coordinates":[6273,5082]},{"type":"Point","properties":{"Station_ID":"NY-ER-158","Station_Nam":"EAST AURORA 2.7 SSE, NY","Latitude":"42.72936","Longitude":"-78.60561","Snowdepth":"4.200","Units":"in","Rept_Date":"2020-12-02 13"},"coordinates":[6119,5539]},{"type":"Point","properties":{"Station_ID":"MI-BG-3","Station_Nam":"THREE LAKES, MI","Latitude":"46.55730","Longitude":"-88.20770","Snowdepth":"4.200","Units":"in","Rept_Date":"2020-12-02 13"},"coordinates":[2933,7436]},{"type":"Point","properties":{"Station_ID":"PA-FY-9","Station_Nam":"UNIONTOWN 1.7 NNE, PA","Latitude":"39.92262","Longitude":"-79.71400","Snowdepth":"4.100","Units":"in","Rept_Date":"2020-12-02 23"},"coordinates":[5751,4147]},{"type":"Point","properties":{"Station_ID":"CAN-ON-707","Station_Nam":"HARROW 5.6 WSW, CAN","Latitude":"42.00895","Longitude":"-82.97658","Snowdepth":"4.100","Units":"in","Rept_Date":"2020-12-02 11"},"coordinates":[4669,5182]},{"type":"Point","properties":{"Station_ID":"CAN-ON-187","Station_Nam":"WATERLOO 1.9 E - UOFW, CAN","Latitude":"43.47024","Longitude":"-80.50634","Snowdepth":"4.100","Units":"in","Rept_Date":"2020-12-02 13"},"coordinates":[5488,5906]},{"type":"Point","properties":{"Station_ID":"YALM4","Station_Nam":"YALE,MI","Latitude":"43.15000","Longitude":"-82.80000","Snowdepth":"4.000","Units":"in","Rept_Date":"2020-12-02 11"},"coordinates":[4727,5747]},{"type":"Point","properties":{"Station_ID":"WYTM4","Station_Nam":"WYANDOTTE","Latitude":"42.20110","Longitude":"-83.16830","Snowdepth":"4.000","Units":"in","Rept_Date":"2020-12-02 13"},"coordinates":[4605,5277]},{"type":"Point","properties":{"Station_ID":"WV-TY-3","Station_Nam":"MIDDLEBOURNE 3.2 ESE, WV","Latitude":"39.47000","Longitude":"-80.85706","Snowdepth":"4.000","Units":"in","Rept_Date":"2020-12-02 12"},"coordinates":[5372,3923]},{"type":"Point","properties":{"Station_ID":"WV-RT-2","Station_Nam":"PENNSBORO 1.2 ESE, WV","Latitude":"39.27361","Longitude":"-80.95578","Snowdepth":"4.000","Units":"in","Rept_Date":"2020-12-02 12"},"coordinates":[5339,3826]},{"type":"Point","properties":{"Station_ID":"WV-DD-9","Station_Nam":"WEST UNION 2.9 SE, WV","Latitude":"39.27224","Longitude":"-80.73230","Snowdepth":"4.000","Units":"in","Rept_Date":"2020-12-02 12"},"coordinates":[5413,3825]},{"type":"Point","properties":{"Station_ID":"WSWN6","Station_Nam":"WARSAW","Latitude":"42.74220","Longitude":"-78.20850","Snowdepth":"4.000","Units":"in","Rept_Date":"2020-12-02 12"},"coordinates":[6251,5545]},{"type":"Point","properties":{"Station_ID":"STBO1","Station_Nam":"STEUBENVILLE","Latitude":"40.37640","Longitude":"-80.62810","Snowdepth":"4.000","Units":"in","Rept_Date":"2020-12-02 12"},"coordinates":[5448,4372]},{"type":"Point","properties":{"Station_ID":"SBNN6","Station_Nam":"SANBORN","Latitude":"43.17050","Longitude":"-78.81810","Snowdepth":"4.000","Units":"in","Rept_Date":"2020-12-02 12"},"coordinates":[6048,5757]},{"type":"Point","properties":{"Station_ID":"RCVW2","Station_Nam":"ROCK CAVE 2NE","Latitude":"38.85610","Longitude":"-80.30740","Snowdepth":"4.000","Units":"in","Rept_Date":"2020-12-02 13"},"coordinates":[5554,3619]},{"type":"Point","properties":{"Station_ID":"PDLM4","Station_Nam":"PAINESDALE","Latitude":"47.04160","Longitude":"-88.67170","Snowdepth":"4.000","Units":"in","Rept_Date":"2020-12-02 13"},"coordinates":[2779,7676]},{"type":"Point","properties":{"Station_ID":"PA-WS-5","Station_Nam":"MCMURRAY 0.2 NE, PA","Latitude":"40.28311","Longitude":"-80.08570","Snowdepth":"4.000","Units":"in","Rept_Date":"2020-12-02 12"},"coordinates":[5628,4326]},{"type":"Point","properties":{"Station_ID":"PA-WS-24","Station_Nam":"CANONSBURG 0.7 ENE, PA","Latitude":"40.26704","Longitude":"-80.17473","Snowdepth":"4.000","Units":"in","Rept_Date":"2020-12-02 12"},"coordinates":[5598,4318]},{"type":"Point","properties":{"Station_ID":"PA-JF-2","Station_Nam":"TIMBLIN 0.1 S, PA","Latitude":"40.96447","Longitude":"-79.19890","Snowdepth":"4.000","Units":"in","Rept_Date":"2020-12-02 12"},"coordinates":[5922,4664]},{"type":"Point","properties":{"Station_ID":"PA-CM-4","Station_Nam":"BELMONT 0.1 NE, PA","Latitude":"40.28347","Longitude":"-78.89010","Snowdepth":"4.000","Units":"in","Rept_Date":"2020-12-02 13"},"coordinates":[6024,4326]},{"type":"Point","properties":{"Station_ID":"PA-BT-40","Station_Nam":"CABOT 1.6 WNW, PA","Latitude":"40.77250","Longitude":"-79.79560","Snowdepth":"4.000","Units":"in","Rept_Date":"2020-12-02 12"},"coordinates":[5724,4569]},{"type":"Point","properties":{"Station_ID":"PA-AL-92","Station_Nam":"ASPINWALL 0.0 NW, PA","Latitude":"40.49283","Longitude":"-79.90432","Snowdepth":"4.000","Units":"in","Rept_Date":"2020-12-02 12"},"coordinates":[5688,4430]},{"type":"Point","properties":{"Station_ID":"OSWP1","Station_Nam":"OSWAYO,PA","Latitude":"41.91670","Longitude":"-78.00000","Snowdepth":"4.000","Units":"in","Rept_Date":"2020-12-02 12"},"coordinates":[6320,5136]},{"type":"Point","properties":{"Station_ID":"OH-SN-3","Station_Nam":"TIFFIN 5.2 SE, OH","Latitude":"41.05894","Longitude":"-83.11270","Snowdepth":"4.000","Units":"in","Rept_Date":"2020-12-02 12"},"coordinates":[4623,4711]},{"type":"Point","properties":{"Station_ID":"OH-RS-8","Station_Nam":"CHILLICOTHE 5.8 NW, OH","Latitude":"39.38350","Longitude":"-83.07710","Snowdepth":"4.000","Units":"in","Rept_Date":"2020-12-02 12"},"coordinates":[4635,3880]},{"type":"Point","properties":{"Station_ID":"OH-MW-4","Station_Nam":"MOUNT GILEAD 4.9 ESE, OH","Latitude":"40.51426","Longitude":"-82.75561","Snowdepth":"4.000","Units":"in","Rept_Date":"2020-12-02 12"},"coordinates":[4742,4441]},{"type":"Point","properties":{"Station_ID":"OH-MD-1","Station_Nam":"WADSWORTH 4.7 WNW, OH","Latitude":"41.04276","Longitude":"-81.81930","Snowdepth":"4.000","Units":"in","Rept_Date":"2020-12-02 10"},"coordinates":[5053,4703]},{"type":"Point","properties":{"Station_ID":"OH-JF-9","Station_Nam":"MOUNT PLEASANT 1.4 WSW, OH","Latitude":"40.16496","Longitude":"-80.82290","Snowdepth":"4.000","Units":"in","Rept_Date":"2020-12-02 12"},"coordinates":[5383,4268]},{"type":"Point","properties":{"Station_ID":"OH-FR-8","Station_Nam":"NEW ALBANY 2.8 SSE, OH","Latitude":"40.04029","Longitude":"-82.79800","Snowdepth":"4.000","Units":"in","Rept_Date":"2020-12-02 11"},"coordinates":[4728,4206]},{"type":"Point","properties":{"Station_ID":"OH-ER-14","Station_Nam":"MILAN 0.4 ENE, OH","Latitude":"41.29115","Longitude":"-82.59340","Snowdepth":"4.000","Units":"in","Rept_Date":"2020-12-02 13"},"coordinates":[4796,4826]},{"type":"Point","properties":{"Station_ID":"OH-CW-5","Station_Nam":"BUCYRUS 1.3 NNE, OH","Latitude":"40.82004","Longitude":"-82.96282","Snowdepth":"4.000","Units":"in","Rept_Date":"2020-12-02 12"},"coordinates":[4673,4592]},{"type":"Point","properties":{"Station_ID":"OH-CW-3","Station_Nam":"BUCYRUS 1.0 NW, OH","Latitude":"40.81455","Longitude":"-82.98480","Snowdepth":"4.000","Units":"in","Rept_Date":"2020-12-02 12"},"coordinates":[4666,4590]},{"type":"Point","properties":{"Station_ID":"OH-CN-10","Station_Nam":"WILMINGTON 2.2 N, OH","Latitude":"39.47452","Longitude":"-83.83610","Snowdepth":"4.000","Units":"in","Rept_Date":"2020-12-02 12"},"coordinates":[4383,3925]},{"type":"Point","properties":{"Station_ID":"OH-CC-1","Station_Nam":"COSHOCTON 5.5 WSW, OH","Latitude":"40.22007","Longitude":"-81.93650","Snowdepth":"4.000","Units":"in","Rept_Date":"2020-12-02 12"},"coordinates":[5014,4295]},{"type":"Point","properties":{"Station_ID":"OH-AT-3","Station_Nam":"STEWART 4.6 NNE, OH","Latitude":"39.37182","Longitude":"-81.86620","Snowdepth":"4.000","Units":"in","Rept_Date":"2020-12-02 12"},"coordinates":[5037,3874]},{"type":"Point","properties":{"Station_ID":"OH-AL-5","Station_Nam":"LIMA 2.7 NE, OH","Latitude":"40.77390","Longitude":"-84.08000","Snowdepth":"4.000","Units":"in","Rept_Date":"2020-12-02 12"},"coordinates":[4303,4569]},{"type":"Point","properties":{"Station_ID":"NY-ER-178","Station_Nam":"WEST SENECA 2.5 SE, NY","Latitude":"42.81374","Longitude":"-78.71399","Snowdepth":"4.000","Units":"in","Rept_Date":"2020-12-02 12"},"coordinates":[6083,5581]},{"type":"Point","properties":{"Station_ID":"NEWO1","Station_Nam":"NEWPORT","Latitude":"39.39330","Longitude":"-81.21930","Snowdepth":"4.000","Units":"in","Rept_Date":"2020-12-02 13"},"coordinates":[5252,3885]},{"type":"Point","properties":{"Station_ID":"NC-AS-2","Station_Nam":"CRESTON 2.8 SW, NC","Latitude":"36.40750","Longitude":"-81.66890","Snowdepth":"4.000","Units":"in","Rept_Date":"2020-12-02 13"},"coordinates":[5102,2405]},{"type":"Point","properties":{"Station_ID":"MNBW2","Station_Nam":"MT. NEBO 1S","Latitude":"38.18790","Longitude":"-80.84840","Snowdepth":"4.000","Units":"in","Rept_Date":"2020-12-02 12"},"coordinates":[5375,3287]},{"type":"Point","properties":{"Station_ID":"MI-HG-20","Station_Nam":"CALUMET 1.1 SSW, MI","Latitude":"47.23165","Longitude":"-88.45823","Snowdepth":"4.000","Units":"in","Rept_Date":"2020-12-02 11"},"coordinates":[2850,7771]},{"type":"Point","properties":{"Station_ID":"MDBW2","Station_Nam":"MIDDLEBOURNE 3 ESE","Latitude":"39.47000","Longitude":"-80.85710","Snowdepth":"4.000","Units":"in","Rept_Date":"2020-12-02 12"},"coordinates":[5372,3923]},{"type":"Point","properties":{"Station_ID":"LEIM5","Station_Nam":"ORR 3E","Latitude":"48.05810","Longitude":"-92.75220","Snowdepth":"4.000","Units":"in","Rept_Date":"2020-12-02 12"},"coordinates":[1425,8180]},{"type":"Point","properties":{"Station_ID":"JSTN6","Station_Nam":"JAMESTOWN 4 ENE","Latitude":"42.11000","Longitude":"-79.15910","Snowdepth":"4.000","Units":"in","Rept_Date":"2020-12-02 12"},"coordinates":[5935,5232]},{"type":"Point","properties":{"Station_ID":"HBHM4","Station_Nam":"HARBOR BEACH,MI","Latitude":"43.83330","Longitude":"-82.63330","Snowdepth":"4.000","Units":"in","Rept_Date":"2020-12-02 13"},"coordinates":[4783,6086]},{"type":"Point","properties":{"Station_ID":"CLKW2","Station_Nam":"CLARKSBURG 1","Latitude":"39.26820","Longitude":"-80.35220","Snowdepth":"4.000","Units":"in","Rept_Date":"2020-12-02 11"},"coordinates":[5539,3823]},{"type":"Point","properties":{"Station_ID":"CLCO1","Station_Nam":"CHILLICOTHE 6 NW","Latitude":"39.38350","Longitude":"-83.07730","Snowdepth":"4.000","Units":"in","Rept_Date":"2020-12-02 12"},"coordinates":[4635,3880]},{"type":"Point","properties":{"Station_ID":"CLAP1","Station_Nam":"PINEY LAKE","Latitude":"41.19220","Longitude":"-79.43560","Snowdepth":"4.000","Units":"in","Rept_Date":"2020-12-02 12"},"coordinates":[5843,4777]},{"type":"Point","properties":{"Station_ID":"CDIP1","Station_Nam":"CARROLTOWN","Latitude":"40.55000","Longitude":"-78.66670","Snowdepth":"4.000","Units":"in","Rept_Date":"2020-12-02 18"},"coordinates":[6099,4458]},{"type":"Point","properties":{"Station_ID":"CAN-ON-33","Station_Nam":"BURLINGTON 1.7 W, CA","Latitude":"43.37134","Longitude":"-79.83550","Snowdepth":"4.000","Units":"in","Rept_Date":"2020-12-02 12"},"coordinates":[5711,5857]},{"type":"Point","properties":{"Station_ID":"CAN-ON-192","Station_Nam":"STRATHROY 14.9 SSW, CAN","Latitude":"42.84097","Longitude":"-81.70844","Snowdepth":"4.000","Units":"in","Rept_Date":"2020-12-02 13"},"coordinates":[5089,5594]},{"type":"Point","properties":{"Station_ID":"BYSO1","Station_Nam":"BUCYRUS,OH","Latitude":"40.81280","Longitude":"-82.96670","Snowdepth":"4.000","Units":"in","Rept_Date":"2020-12-02 12"},"coordinates":[4672,4589]},{"type":"Point","properties":{"Station_ID":"BBEM4","Station_Nam":"BIG BAY 9SW","Latitude":"46.74620","Longitude":"-87.88160","Snowdepth":"4.000","Units":"in","Rept_Date":"2020-12-02 13"},"coordinates":[3041,7530]},{"type":"Point","properties":{"Station_ID":"ACMP1","Station_Nam":"C.W. BILL YOUNG UPPER","Latitude":"40.53610","Longitude":"-79.81530","Snowdepth":"4.000","Units":"in","Rept_Date":"2020-12-02 11"},"coordinates":[5718,4452]},{"type":"Point","properties":{"Station_ID":"41.0525_081.3883","Station_Nam":"1 ENE Mogadore  Trained Spotter (CLE2227)","Latitude":"41.05249","Longitude":"-81.38832","Snowdepth":"4.000","Units":"in","Rept_Date":"2020-12-02 13"},"coordinates":[5196,4708]},{"type":"Point","properties":{"Station_ID":"40.8201_082.9628","Station_Nam":"1 NNE Bucyrus  CoCoRaHS (OH-CW-5)","Latitude":"40.82010","Longitude":"-82.96280","Snowdepth":"4.000","Units":"in","Rept_Date":"2020-12-02 12"},"coordinates":[4673,4592]},{"type":"Point","properties":{"Station_ID":"40.8146_082.9848","Station_Nam":"1 NW Bucyrus  CoCoRaHS (OH-CW-3)","Latitude":"40.81460","Longitude":"-82.98480","Snowdepth":"4.000","Units":"in","Rept_Date":"2020-12-02 12"},"coordinates":[4666,4590]},{"type":"Point","properties":{"Station_ID":"40.8130_082.5161","Station_Nam":"Mansfield Lahm Airport  Trained Spotter (CLE2901)","Latitude":"40.81299","Longitude":"-82.51614","Snowdepth":"4.000","Units":"in","Rept_Date":"2020-12-02 12"},"coordinates":[4821,4589]},{"type":"Point","properties":{"Station_ID":"40.8128_082.9667","Station_Nam":"BUCYRUS  CO-OP OBSERVER (BYSO1)","Latitude":"40.81280","Longitude":"-82.96670","Snowdepth":"4.000","Units":"in","Rept_Date":"2020-12-02 12"},"coordinates":[4672,4589]},{"type":"Point","properties":{"Station_ID":"40.5143_082.7556","Station_Nam":"5 ESE Mount Gilead  CoCoRaHS (OH-MW-4)","Latitude":"40.51430","Longitude":"-82.75560","Snowdepth":"4.000","Units":"in","Rept_Date":"2020-12-02 11"},"coordinates":[4742,4441]},{"type":"Point","properties":{"Station_ID":"PA-AL-64","Station_Nam":"MCCANDLESS TOWNSHIP 1.9 S, PA","Latitude":"40.55691","Longitude":"-80.03662","Snowdepth":"3.900","Units":"in","Rept_Date":"2020-12-02 12"},"coordinates":[5644,4462]},{"type":"Point","properties":{"Station_ID":"CAN-ON-593","Station_Nam":"KITCHENER 4.5 E, CAN","Latitude":"43.45147","Longitude":"-80.43180","Snowdepth":"3.900","Units":"in","Rept_Date":"2020-12-02 13"},"coordinates":[5513,5897]},{"type":"Point","properties":{"Station_ID":"WV-WD-18","Station_Nam":"WALKER 2.1 SW, WV","Latitude":"39.15838","Longitude":"-81.41237","Snowdepth":"3.800","Units":"in","Rept_Date":"2020-12-02 12"},"coordinates":[5188,3769]},{"type":"Point","properties":{"Station_ID":"NY-CT-22","Station_Nam":"FRANKLINVILLE 0.5 NNE, NY","Latitude":"42.34166","Longitude":"-78.45280","Snowdepth":"3.800","Units":"in","Rept_Date":"2020-12-02 12"},"coordinates":[6170,5347]},{"type":"Point","properties":{"Station_ID":"CDEP1","Station_Nam":"BARNESBORO SNOW","Latitude":"40.66670","Longitude":"-78.78330","Snowdepth":"3.750","Units":"in","Rept_Date":"2020-12-02 18"},"coordinates":[6060,4516]},{"type":"Point","properties":{"Station_ID":"OH-OT-9","Station_Nam":"PORT CLINTON 6.8 W, OH","Latitude":"41.52388","Longitude":"-83.06833","Snowdepth":"3.700","Units":"in","Rept_Date":"2020-12-02 13"},"coordinates":[4638,4941]},{"type":"Point","properties":{"Station_ID":"OH-AL-10","Station_Nam":"LIMA 3.0 SSE, OH","Latitude":"40.70090","Longitude":"-84.09660","Snowdepth":"3.700","Units":"in","Rept_Date":"2020-12-02 12"},"coordinates":[4297,4533]},{"type":"Point","properties":{"Station_ID":"NY-ER-86","Station_Nam":"TONAWANDA 1.5 NNE, NY","Latitude":"43.00507","Longitude":"-78.86600","Snowdepth":"3.700","Units":"in","Rept_Date":"2020-12-02 17"},"coordinates":[6032,5675]},{"type":"Point","properties":{"Station_ID":"41.5239_083.0683","Station_Nam":"7 W Port Clinton  CoCoRaHS (OH-OT-9)","Latitude":"41.52390","Longitude":"-83.06830","Snowdepth":"3.700","Units":"in","Rept_Date":"2020-12-02 13"},"coordinates":[4638,4941]},{"type":"Point","properties":{"Station_ID":"PA-AL-70","Station_Nam":"PITTSBURGH 1.7 NNE, PA","Latitude":"40.46230","Longitude":"-79.96580","Snowdepth":"3.500","Units":"in","Rept_Date":"2020-12-02 12"},"coordinates":[5668,4415]},{"type":"Point","properties":{"Station_ID":"OH-LC-10","Station_Nam":"GRANVILLE 4.0 N, OH","Latitude":"40.12820","Longitude":"-82.51580","Snowdepth":"3.500","Units":"in","Rept_Date":"2020-12-02 12"},"coordinates":[4822,4249]},{"type":"Point","properties":{"Station_ID":"OH-CB-8","Station_Nam":"HANOVERTON 0.4 ENE, OH","Latitude":"40.75696","Longitude":"-80.92919","Snowdepth":"3.500","Units":"in","Rept_Date":"2020-12-02 09"},"coordinates":[5348,4561]},{"type":"Point","properties":{"Station_ID":"OH-AL-8","Station_Nam":"DELPHOS 2.3 ESE, OH","Latitude":"40.83350","Longitude":"-84.29820","Snowdepth":"3.500","Units":"in","Rept_Date":"2020-12-02 12"},"coordinates":[4230,4599]},{"type":"Point","properties":{"Station_ID":"NY-NG-12","Station_Nam":"LOCKPORT 0.8 NE, NY","Latitude":"43.17645","Longitude":"-78.68340","Snowdepth":"3.500","Units":"in","Rept_Date":"2020-12-02 12"},"coordinates":[6093,5760]},{"type":"Point","properties":{"Station_ID":"NY-ER-98","Station_Nam":"AMHERST 5.4 NNE, NY","Latitude":"43.05207","Longitude":"-78.76430","Snowdepth":"3.500","Units":"in","Rept_Date":"2020-12-02 13"},"coordinates":[6066,5699]},{"type":"Point","properties":{"Station_ID":"NY-ER-63","Station_Nam":"GLENWOOD 1.5 SE, NY","Latitude":"42.60195","Longitude":"-78.63910","Snowdepth":"3.500","Units":"in","Rept_Date":"2020-12-02 13"},"coordinates":[6108,5476]},{"type":"Point","properties":{"Station_ID":"NY-ER-54","Station_Nam":"EAST AMHERST 1.2 WNW, NY","Latitude":"43.02250","Longitude":"-78.71900","Snowdepth":"3.500","Units":"in","Rept_Date":"2020-12-02 13"},"coordinates":[6081,5684]},{"type":"Point","properties":{"Station_ID":"NC-WT-48","Station_Nam":"SEVEN DEVILS 0.1 E, NC","Latitude":"36.14965","Longitude":"-81.81214","Snowdepth":"3.500","Units":"in","Rept_Date":"2020-12-02 13"},"coordinates":[5055,2277]},{"type":"Point","properties":{"Station_ID":"NC-MS-7","Station_Nam":"HOT SPRINGS 8.4 SSW, NC","Latitude":"35.78343","Longitude":"-82.89470","Snowdepth":"3.500","Units":"in","Rept_Date":"2020-12-02 14"},"coordinates":[4696,2096]},{"type":"Point","properties":{"Station_ID":"CAN-ON-324","Station_Nam":"AMHERSTBURG 4.0 NNE, CAN","Latitude":"42.13151","Longitude":"-83.08810","Snowdepth":"3.500","Units":"in","Rept_Date":"2020-12-02 12"},"coordinates":[4632,5242]},{"type":"Point","properties":{"Station_ID":"CAN-ON-285","Station_Nam":"LEAMINGTON 3.0 N, CAN","Latitude":"42.07693","Longitude":"-82.59744","Snowdepth":"3.500","Units":"in","Rept_Date":"2020-12-02 11"},"coordinates":[4794,5215]},{"type":"Point","properties":{"Station_ID":"CAN-ON-178","Station_Nam":"GODERICH 10.2 S - MVCA, CAN","Latitude":"43.64655","Longitude":"-81.70734","Snowdepth":"3.500","Units":"in","Rept_Date":"2020-12-02 13"},"coordinates":[5090,5993]},{"type":"Point","properties":{"Station_ID":"QWG","Station_Nam":"QWG","Latitude":"48.48890","Longitude":"-73.45940","Snowdepth":"3.425","Units":"in","Rept_Date":"2020-12-02 12"},"coordinates":[7826,8394]},{"type":"Point","properties":{"Station_ID":"OH-CC-4","Station_Nam":"FRESNO 2.2 NNE, OH","Latitude":"40.35825","Longitude":"-81.71925","Snowdepth":"3.300","Units":"in","Rept_Date":"2020-12-02 13"},"coordinates":[5086,4363]},{"type":"Point","properties":{"Station_ID":"CAN-ON-248","Station_Nam":"WINDSOR 6.5 SE, CAN","Latitude":"42.24941","Longitude":"-82.99996","Snowdepth":"3.300","Units":"in","Rept_Date":"2020-12-02 12"},"coordinates":[4661,5301]},{"type":"Point","properties":{"Station_ID":"PA-BT-27","Station_Nam":"SLIPPERY ROCK 5.2 SE, PA","Latitude":"41.00867","Longitude":"-80.00307","Snowdepth":"3.200","Units":"in","Rept_Date":"2020-12-02 13"},"coordinates":[5655,4686]},{"type":"Point","properties":{"Station_ID":"OH-AS-2","Station_Nam":"ASHLAND 3.9 SW, OH","Latitude":"40.83260","Longitude":"-82.37630","Snowdepth":"3.200","Units":"in","Rept_Date":"2020-12-02 12"},"coordinates":[4868,4599]},{"type":"Point","properties":{"Station_ID":"40.8326_082.3763","Station_Nam":"4 SW Ashland  CoCoRaHS (OH-AS-2)","Latitude":"40.83260","Longitude":"-82.37630","Snowdepth":"3.200","Units":"in","Rept_Date":"2020-12-02 12"},"coordinates":[4868,4599]},{"type":"Point","properties":{"Station_ID":"CAN-ON-771","Station_Nam":"KENORA 8.7 NNE - CANWARN, CAN","Latitude":"49.84171","Longitude":"-94.44386","Snowdepth":"3.100","Units":"in","Rept_Date":"2020-12-02 13"},"coordinates":[864,9064]},{"type":"Point","properties":{"Station_ID":"CAN-MB-368","Station_Nam":"WHITESHELL 1.3 NE, CAN","Latitude":"49.74405","Longitude":"-95.19123","Snowdepth":"3.100","Units":"in","Rept_Date":"2020-12-02 14"},"coordinates":[616,9016]},{"type":"Point","properties":{"Station_ID":"WRSN6","Station_Nam":"WARSAW 6SW","Latitude":"42.68550","Longitude":"-78.22020","Snowdepth":"3.000","Units":"in","Rept_Date":"2020-12-02 12"},"coordinates":[6247,5517]},{"type":"Point","properties":{"Station_ID":"WRNK2","Station_Nam":"WARNOCK 2","Latitude":"38.49460","Longitude":"-83.01830","Snowdepth":"3.000","Units":"in","Rept_Date":"2020-12-02 11"},"coordinates":[4655,3440]},{"type":"Point","properties":{"Station_ID":"WLSN6","Station_Nam":"WALES","Latitude":"42.73920","Longitude":"-78.58780","Snowdepth":"3.000","Units":"in","Rept_Date":"2020-12-02 12"},"coordinates":[6125,5544]},{"type":"Point","properties":{"Station_ID":"STPO1","Station_Nam":"ST. PARIS 2 NE","Latitude":"40.13910","Longitude":"-83.92880","Snowdepth":"3.000","Units":"in","Rept_Date":"2020-12-02 12"},"coordinates":[4353,4255]},{"type":"Point","properties":{"Station_ID":"SRGM2","Station_Nam":"ELK LICK - SNOW","Latitude":"39.60000","Longitude":"-79.10000","Snowdepth":"3.000","Units":"in","Rept_Date":"2020-12-02 13"},"coordinates":[5955,3987]},{"type":"Point","properties":{"Station_ID":"SREM2","Station_Nam":"BIG RUN STATE PARK - SNOW","Latitude":"39.56670","Longitude":"-79.16670","Snowdepth":"3.000","Units":"in","Rept_Date":"2020-12-02 13"},"coordinates":[5933,3971]},{"type":"Point","properties":{"Station_ID":"SPPP1","Station_Nam":"SLIPPERY ROCK","Latitude":"41.05600","Longitude":"-80.05950","Snowdepth":"3.000","Units":"in","Rept_Date":"2020-12-02 13"},"coordinates":[5636,4709]},{"type":"Point","properties":{"Station_ID":"SLTP1","Station_Nam":"LOYALHANNA LAKE STATE PARK","Latitude":"40.45860","Longitude":"-79.45030","Snowdepth":"3.000","Units":"in","Rept_Date":"2020-12-02 12"},"coordinates":[5839,4413]},{"type":"Point","properties":{"Station_ID":"SLNP1","Station_Nam":"SALINA","Latitude":"40.51000","Longitude":"-79.54580","Snowdepth":"3.000","Units":"in","Rept_Date":"2020-12-02 12"},"coordinates":[5807,4439]},{"type":"Point","properties":{"Station_ID":"SGVN6","Station_Nam":"SPRINGVILLE","Latitude":"42.54970","Longitude":"-78.57670","Snowdepth":"3.000","Units":"in","Rept_Date":"2020-12-03 00"},"coordinates":[6128,5450]},{"type":"Point","properties":{"Station_ID":"RHAN6","Station_Nam":"ALLEGANY STATE PARK","Latitude":"42.10030","Longitude":"-78.74970","Snowdepth":"3.000","Units":"in","Rept_Date":"2020-12-02 12"},"coordinates":[6071,5227]},{"type":"Point","properties":{"Station_ID":"RDWP1","Station_Nam":"RIDGWAY,PA","Latitude":"41.41670","Longitude":"-78.75000","Snowdepth":"3.000","Units":"in","Rept_Date":"2020-12-02 12"},"coordinates":[6071,4888]},{"type":"Point","properties":{"Station_ID":"PNYP1","Station_Nam":"MAHONING LAKE","Latitude":"40.92500","Longitude":"-79.28250","Snowdepth":"3.000","Units":"in","Rept_Date":"2020-12-02 13"},"coordinates":[5894,4644]},{"type":"Point","properties":{"Station_ID":"PENN6","Station_Nam":"PENDLETON 1 NE","Latitude":"43.10100","Longitude":"-78.71380","Snowdepth":"3.000","Units":"in","Rept_Date":"2020-12-02 13"},"coordinates":[6083,5723]},{"type":"Point","properties":{"Station_ID":"PALP1","Station_Nam":"PORT ALLEGANY,PA","Latitude":"41.81670","Longitude":"-78.28330","Snowdepth":"3.000","Units":"in","Rept_Date":"2020-12-02 14"},"coordinates":[6226,5086]},{"type":"Point","properties":{"Station_ID":"PA-CR-1","Station_Nam":"EMPORIUM 2.6 S, PA","Latitude":"41.47342","Longitude":"-78.24330","Snowdepth":"3.000","Units":"in","Rept_Date":"2020-12-02 11"},"coordinates":[6239,4916]},{"type":"Point","properties":{"Station_ID":"PA-AR-14","Station_Nam":"TEMPLETON 2.9 SSW, PA","Latitude":"40.87790","Longitude":"-79.47900","Snowdepth":"3.000","Units":"in","Rept_Date":"2020-12-02 13"},"coordinates":[5829,4621]},{"type":"Point","properties":{"Station_ID":"OH-TS-1","Station_Nam":"DOVER 4.6 WNW, OH","Latitude":"40.55070","Longitude":"-81.56400","Snowdepth":"3.000","Units":"in","Rept_Date":"2020-12-02 12"},"coordinates":[5137,4459]},{"type":"Point","properties":{"Station_ID":"OH-ST-8","Station_Nam":"CANAL FULTON 2.1 SW, OH","Latitude":"40.87291","Longitude":"-81.61715","Snowdepth":"3.000","Units":"in","Rept_Date":"2020-12-02 13"},"coordinates":[5120,4618]},{"type":"Point","properties":{"Station_ID":"OH-SD-2","Station_Nam":"FREMONT 2.2 ENE, OH","Latitude":"41.36582","Longitude":"-83.07538","Snowdepth":"3.000","Units":"in","Rept_Date":"2020-12-02 12"},"coordinates":[4636,4863]},{"type":"Point","properties":{"Station_ID":"OH-PT-17","Station_Nam":"KENT 1.5 W, OH","Latitude":"41.14718","Longitude":"-81.39079","Snowdepth":"3.000","Units":"in","Rept_Date":"2020-12-02 12"},"coordinates":[5195,4754]},{"type":"Point","properties":{"Station_ID":"OH-MY-39","Station_Nam":"CENTERVILLE 3.9 S, OH","Latitude":"39.58542","Longitude":"-84.14954","Snowdepth":"3.000","Units":"in","Rept_Date":"2020-12-02 12"},"coordinates":[4279,3980]},{"type":"Point","properties":{"Station_ID":"OH-MK-13","Station_Nam":"NEW CONCORD 5.2 SSW, OH","Latitude":"39.92350","Longitude":"-81.75780","Snowdepth":"3.000","Units":"in","Rept_Date":"2020-12-02 12"},"coordinates":[5073,4148]},{"type":"Point","properties":{"Station_ID":"OH-MK-12","Station_Nam":"NORWICH 1.1 SE, OH","Latitude":"39.97526","Longitude":"-81.77666","Snowdepth":"3.000","Units":"in","Rept_Date":"2020-12-02 12"},"coordinates":[5067,4174]},{"type":"Point","properties":{"Station_ID":"OH-MH-11","Station_Nam":"CANFIELD 0.5 N, OH","Latitude":"41.03644","Longitude":"-80.76585","Snowdepth":"3.000","Units":"in","Rept_Date":"2020-12-02 12"},"coordinates":[5402,4700]},{"type":"Point","properties":{"Station_ID":"NY-NG-22","Station_Nam":"NIAGARA FALLS 5.7 E, NY","Latitude":"43.08297","Longitude":"-78.90460","Snowdepth":"3.000","Units":"in","Rept_Date":"2020-12-02 11"},"coordinates":[6020,5714]},{"type":"Point","properties":{"Station_ID":"NY-LV-5","Station_Nam":"DANSVILLE 1.0 ENE, NY","Latitude":"42.56802","Longitude":"-77.67900","Snowdepth":"3.000","Units":"in","Rept_Date":"2020-12-02 12"},"coordinates":[6426,5459]},{"type":"Point","properties":{"Station_ID":"NY-ER-56","Station_Nam":"COLDEN 1.4 NNW, NY","Latitude":"42.64740","Longitude":"-78.71120","Snowdepth":"3.000","Units":"in","Rept_Date":"2020-12-02 12"},"coordinates":[6084,5498]},{"type":"Point","properties":{"Station_ID":"NY-CR-5","Station_Nam":"MARATHON 1.0 NW, NY","Latitude":"42.45161","Longitude":"-76.04370","Snowdepth":"3.000","Units":"in","Rept_Date":"2020-12-02 12"},"coordinates":[6969,5401]},{"type":"Point","properties":{"Station_ID":"NC-AV-1","Station_Nam":"FLAT SPRINGS 1.2 E, NC","Latitude":"36.25250","Longitude":"-81.91330","Snowdepth":"3.000","Units":"in","Rept_Date":"2020-12-02 12"},"coordinates":[5021,2328]},{"type":"Point","properties":{"Station_ID":"MN-CN-36","Station_Nam":"CLOQUET 3.4 ENE, MN","Latitude":"46.74146","Longitude":"-92.42698","Snowdepth":"3.000","Units":"in","Rept_Date":"2020-12-02 13"},"coordinates":[1533,7528]},{"type":"Point","properties":{"Station_ID":"MN-CK-18","Station_Nam":"GRAND MARAIS 4.4 WSW, MN","Latitude":"47.74462","Longitude":"-90.43796","Snowdepth":"3.000","Units":"in","Rept_Date":"2020-12-02 13"},"coordinates":[2193,8025]},{"type":"Point","properties":{"Station_ID":"MI-MB-9","Station_Nam":"NEW BALTIMORE 0.4 SSE, MI","Latitude":"42.67702","Longitude":"-82.73570","Snowdepth":"3.000","Units":"in","Rept_Date":"2020-12-02 13"},"coordinates":[4749,5513]},{"type":"Point","properties":{"Station_ID":"MFD","Station_Nam":"LAHM MUNICIPAL AIRPORT","Latitude":"40.82140","Longitude":"-82.51640","Snowdepth":"3.000","Units":"in","Rept_Date":"2020-12-03 00"},"coordinates":[4821,4593]},{"type":"Point","properties":{"Station_ID":"LPTN6","Station_Nam":"LOCKPORT","Latitude":"43.18760","Longitude":"-78.60910","Snowdepth":"3.000","Units":"in","Rept_Date":"2020-12-03 00"},"coordinates":[6118,5766]},{"type":"Point","properties":{"Station_ID":"KITO1","Station_Nam":"RAVENNA-KIRWAN TAILWATER","Latitude":"41.15690","Longitude":"-81.07190","Snowdepth":"3.000","Units":"in","Rept_Date":"2020-12-02 12"},"coordinates":[5301,4759]},{"type":"Point","properties":{"Station_ID":"INDP1","Station_Nam":"INDIANA","Latitude":"40.59670","Longitude":"-79.11780","Snowdepth":"3.000","Units":"in","Rept_Date":"2020-12-02 12"},"coordinates":[5949,4482]},{"type":"Point","properties":{"Station_ID":"IN-LP-73","Station_Nam":"MILL CREEK 1.9 NNE, IN","Latitude":"41.60739","Longitude":"-86.52419","Snowdepth":"3.000","Units":"in","Rept_Date":"2020-12-02 13"},"coordinates":[3492,4983]},{"type":"Point","properties":{"Station_ID":"HUNO1","Station_Nam":"HUNTSVILLE 3 N","Latitude":"40.47990","Longitude":"-83.81270","Snowdepth":"3.000","Units":"in","Rept_Date":"2020-12-02 12"},"coordinates":[4391,4424]},{"type":"Point","properties":{"Station_ID":"HGHN6","Station_Nam":"HIGHMARKET","Latitude":"43.60510","Longitude":"-75.55430","Snowdepth":"3.000","Units":"in","Rept_Date":"2020-12-02 11"},"coordinates":[7131,5973]},{"type":"Point","properties":{"Station_ID":"HERM4","Station_Nam":"HERMAN,MI","Latitude":"46.65000","Longitude":"-88.33330","Snowdepth":"3.000","Units":"in","Rept_Date":"2020-12-02 13"},"coordinates":[2891,7482]},{"type":"Point","properties":{"Station_ID":"GRMP1","Station_Nam":"GRAMPIAN, PA","Latitude":"40.96660","Longitude":"-78.58710","Snowdepth":"3.000","Units":"in","Rept_Date":"2020-12-02 14"},"coordinates":[6125,4665]},{"type":"Point","properties":{"Station_ID":"FTSN7","Station_Nam":"FLAT SPRINGS 1E","Latitude":"36.25270","Longitude":"-81.91360","Snowdepth":"3.000","Units":"in","Rept_Date":"2020-12-02 12"},"coordinates":[5021,2328]},{"type":"Point","properties":{"Station_ID":"FREO1","Station_Nam":"FREMONT,OH","Latitude":"41.33330","Longitude":"-83.11670","Snowdepth":"3.000","Units":"in","Rept_Date":"2020-12-02 13"},"coordinates":[4622,4847]},{"type":"Point","properties":{"Station_ID":"ELNW2","Station_Nam":"ELKINS AIRPORT SNOW OBSERVATION","Latitude":"38.93650","Longitude":"-79.84320","Snowdepth":"3.000","Units":"in","Rept_Date":"2020-12-02 12"},"coordinates":[5708,3659]},{"type":"Point","properties":{"Station_ID":"DLHM5","Station_Nam":"DULUTH NWS","Latitude":"46.83680","Longitude":"-92.21080","Snowdepth":"3.000","Units":"in","Rept_Date":"2020-12-03 06"},"coordinates":[1605,7575]},{"type":"Point","properties":{"Station_ID":"DLH","Station_Nam":"DULUTH, MN","Latitude":"46.83690","Longitude":"-92.21030","Snowdepth":"3.000","Units":"in","Rept_Date":"2020-12-03 00"},"coordinates":[1605,7575]},{"type":"Point","properties":{"Station_ID":"CSSM4","Station_Nam":"CASS CITY,MI","Latitude":"43.58330","Longitude":"-83.18330","Snowdepth":"3.000","Units":"in","Rept_Date":"2020-12-02 11"},"coordinates":[4600,5962]},{"type":"Point","properties":{"Station_ID":"COKM5","Station_Nam":"COOK","Latitude":"47.85060","Longitude":"-92.69250","Snowdepth":"3.000","Units":"in","Rept_Date":"2020-12-02 12"},"coordinates":[1445,8077]},{"type":"Point","properties":{"Station_ID":"CODN6","Station_Nam":"COLDEN","Latitude":"42.64720","Longitude":"-78.71110","Snowdepth":"3.000","Units":"in","Rept_Date":"2020-12-02 12"},"coordinates":[6084,5498]},{"type":"Point","properties":{"Station_ID":"CJRP1","Station_Nam":"COUDERSPORT 7SE","Latitude":"41.73920","Longitude":"-77.97110","Snowdepth":"3.000","Units":"in","Rept_Date":"2020-12-02 12"},"coordinates":[6329,5048]},{"type":"Point","properties":{"Station_ID":"CDGP1","Station_Nam":"HASTINGS 3 N SNOW","Latitude":"40.80000","Longitude":"-78.68330","Snowdepth":"3.000","Units":"in","Rept_Date":"2020-12-02 18"},"coordinates":[6093,4582]},{"type":"Point","properties":{"Station_ID":"CDDP1","Station_Nam":"CHERRY TREE 1 W SNOW","Latitude":"40.73330","Longitude":"-78.83330","Snowdepth":"3.000","Units":"in","Rept_Date":"2020-12-02 18"},"coordinates":[6043,4549]},{"type":"Point","properties":{"Station_ID":"CDBP1","Station_Nam":"LUMBER CITY 3 W SNOW","Latitude":"40.93330","Longitude":"-78.63330","Snowdepth":"3.000","Units":"in","Rept_Date":"2020-12-02 18"},"coordinates":[6110,4648]},{"type":"Point","properties":{"Station_ID":"CAN-ON-719","Station_Nam":"HAGERSVILLE 6.0 ESE, CAN","Latitude":"42.93833","Longitude":"-79.98528","Snowdepth":"3.000","Units":"in","Rept_Date":"2020-12-03 05"},"coordinates":[5661,5642]},{"type":"Point","properties":{"Station_ID":"CAN-ON-670","Station_Nam":"SILVER BAY 3.5 ENE, CAN","Latitude":"42.89116","Longitude":"-79.12490","Snowdepth":"3.000","Units":"in","Rept_Date":"2020-12-02 11"},"coordinates":[5947,5619]},{"type":"Point","properties":{"Station_ID":"BURV2","Station_Nam":"BURKES GARDEN","Latitude":"37.09250","Longitude":"-81.33580","Snowdepth":"3.000","Units":"in","Rept_Date":"2020-12-02 12"},"coordinates":[5213,2744]},{"type":"Point","properties":{"Station_ID":"BNDM5","Station_Nam":"ELY 25E","Latitude":"47.97190","Longitude":"-91.44860","Snowdepth":"3.000","Units":"in","Rept_Date":"2020-12-02 13"},"coordinates":[1858,8138]},{"type":"Point","properties":{"Station_ID":"BKNW2","Station_Nam":"BUCKHANNON","Latitude":"38.98030","Longitude":"-80.22010","Snowdepth":"3.000","Units":"in","Rept_Date":"2020-12-02 12"},"coordinates":[5583,3680]},{"type":"Point","properties":{"Station_ID":"BABM5","Station_Nam":"BABBITT","Latitude":"47.71210","Longitude":"-91.95330","Snowdepth":"3.000","Units":"in","Rept_Date":"2020-12-02 13"},"coordinates":[1690,8009]},{"type":"Point","properties":{"Station_ID":"ATAN6","Station_Nam":"ATTICA 7 SW","Latitude":"42.81070","Longitude":"-78.39790","Snowdepth":"3.000","Units":"in","Rept_Date":"2020-12-02 11"},"coordinates":[6188,5579]},{"type":"Point","properties":{"Station_ID":"42.1154_080.1310","Station_Nam":"ERIE  SNOW SPOTTER (CLE0161)","Latitude":"42.11540","Longitude":"-80.13100","Snowdepth":"3.000","Units":"in","Rept_Date":"2020-12-02 12"},"coordinates":[5613,5234]},{"type":"Point","properties":{"Station_ID":"42.0816_080.1778","Station_Nam":"Erie Intl Airport  Trained Spotter (CLE0102)","Latitude":"42.08163","Longitude":"-80.17779","Snowdepth":"3.000","Units":"in","Rept_Date":"2020-12-02 12"},"coordinates":[5597,5218]},{"type":"Point","properties":{"Station_ID":"42.0131_080.3276","Station_Nam":"1 NNW Girard  Trained Spotter (CLE0196)","Latitude":"42.01312","Longitude":"-80.32758","Snowdepth":"3.000","Units":"in","Rept_Date":"2020-12-02 10"},"coordinates":[5548,5184]},{"type":"Point","properties":{"Station_ID":"41.3658_083.0754","Station_Nam":"2 ENE Fremont  CoCoRaHS (OH-SD-2)","Latitude":"41.36580","Longitude":"-83.07540","Snowdepth":"3.000","Units":"in","Rept_Date":"2020-12-02 11"},"coordinates":[4636,4863]},{"type":"Point","properties":{"Station_ID":"41.3657_083.0758","Station_Nam":"2 ENE Fremont  Trained Spotter (CLE0809)","Latitude":"41.36568","Longitude":"-83.07575","Snowdepth":"3.000","Units":"in","Rept_Date":"2020-12-02 13"},"coordinates":[4636,4863]},{"type":"Point","properties":{"Station_ID":"41.0364_080.7659","Station_Nam":"1 N Canfield  CoCoRaHS (OH-MH-11)","Latitude":"41.03640","Longitude":"-80.76590","Snowdepth":"3.000","Units":"in","Rept_Date":"2020-12-02 12"},"coordinates":[5402,4700]},{"type":"Point","properties":{"Station_ID":"40.7020_081.2929","Station_Nam":"WAYNESBURG  SNOW SPOTTER (X4070813)","Latitude":"40.70200","Longitude":"-81.29290","Snowdepth":"3.000","Units":"in","Rept_Date":"2020-12-02 13"},"coordinates":[5227,4534]},{"type":"Point","properties":{"Station_ID":"OH-FR-83","Station_Nam":"WESTERVILLE 0.7 N, OH","Latitude":"40.13056","Longitude":"-82.91999","Snowdepth":"2.800","Units":"in","Rept_Date":"2020-12-02 12"},"coordinates":[4687,4250]},{"type":"Point","properties":{"Station_ID":"CAN-ON-9","Station_Nam":"WINDSOR 1.7 SE, CAN","Latitude":"42.28448","Longitude":"-83.03456","Snowdepth":"2.800","Units":"in","Rept_Date":"2020-12-02 12"},"coordinates":[4649,5318]},{"type":"Point","properties":{"Station_ID":"CAN-ON-220","Station_Nam":"DEEP RIVER 1.5 SE - MNRF, CAN","Latitude":"46.09592","Longitude":"-77.47853","Snowdepth":"2.800","Units":"in","Rept_Date":"2020-12-02 14"},"coordinates":[6493,7208]},{"type":"Point","properties":{"Station_ID":"QWE","Station_Nam":"QWE","Latitude":"47.84610","Longitude":"-73.80670","Snowdepth":"2.756","Units":"in","Rept_Date":"2020-12-02 12"},"coordinates":[7711,8075]},{"type":"Point","properties":{"Station_ID":"PA-WT-29","Station_Nam":"ADAMSBURG 0.2 NNE, PA","Latitude":"40.31265","Longitude":"-79.65384","Snowdepth":"2.700","Units":"in","Rept_Date":"2020-12-02 15"},"coordinates":[5771,4341]},{"type":"Point","properties":{"Station_ID":"NY-ER-96","Station_Nam":"ELMA 2.7 WSW, NY","Latitude":"42.81004","Longitude":"-78.68130","Snowdepth":"2.600","Units":"in","Rept_Date":"2020-12-02 12"},"coordinates":[6094,5579]},{"type":"Point","properties":{"Station_ID":"CAN-ON-775","Station_Nam":"NORTH YORK 2.9 W, CAN","Latitude":"43.75905","Longitude":"-79.44556","Snowdepth":"2.600","Units":"in","Rept_Date":"2020-12-02 12"},"coordinates":[5840,6049]},{"type":"Point","properties":{"Station_ID":"WV-KN-33","Station_Nam":"CHARLESTON 2.6 W, WV","Latitude":"38.34419","Longitude":"-81.67852","Snowdepth":"2.500","Units":"in","Rept_Date":"2020-12-02 12"},"coordinates":[5099,3365]},{"type":"Point","properties":{"Station_ID":"WV-KN-31","Station_Nam":"CHARLESTON 2.3 W, WV","Latitude":"38.34941","Longitude":"-81.67339","Snowdepth":"2.500","Units":"in","Rept_Date":"2020-12-02 12"},"coordinates":[5101,3368]},