{"type":"Topology","objects":{"snowdepth_geo":{"type":"GeometryCollection","name":"snowdepth","crs":{"type":"name","properties":{"name":"urn:ogc:def:crs:OGC:1.3:CRS84"}},"geometries":[{"type":"Point","properties":{"Station_ID":"PRKM4","Station_Nam":"MUNISING EAST","Latitude":"46.42580","Longitude":"-86.62000","Snowdepth":"76.500","Units":"in","Rept_Date":"2021-01-25 06"},"coordinates":[2492,6710]},{"type":"Point","properties":{"Station_ID":"HGHN6","Station_Nam":"HIGHMARKET","Latitude":"43.60510","Longitude":"-75.55430","Snowdepth":"36.000","Units":"in","Rept_Date":"2021-01-24 11"},"coordinates":[5089,4960]},{"type":"Point","properties":{"Station_ID":"MMNV1","Station_Nam":"MT. MANSFIELD","Latitude":"44.52480","Longitude":"-72.81540","Snowdepth":"34.000","Units":"in","Rept_Date":"2021-01-24 21"},"coordinates":[5732,5531]},{"type":"Point","properties":{"Station_ID":"PDLM4","Station_Nam":"PAINESDALE","Latitude":"47.04160","Longitude":"-88.67170","Snowdepth":"33.000","Units":"in","Rept_Date":"2021-01-24 13"},"coordinates":[2011,7092]},{"type":"Point","properties":{"Station_ID":"HLSN3","Station_Nam":"HERMIT LAKE SNOTEL","Latitude":"44.26130","Longitude":"-71.28320","Snowdepth":"31.770","Units":"in","Rept_Date":"2021-01-25 06"},"coordinates":[6092,5367]},{"type":"Point","properties":{"Station_ID":"VT-WR-17","Station_Nam":"ROCHESTER 2.3 NE, VT","Latitude":"43.89418","Longitude":"-72.76992","Snowdepth":"27.500","Units":"in","Rept_Date":"2021-01-24 12"},"coordinates":[5743,5139]},{"type":"Point","properties":{"Station_ID":"PERV1","Station_Nam":"PERU","Latitude":"43.26670","Longitude":"-72.90000","Snowdepth":"26.000","Units":"in","Rept_Date":"2021-01-24 12"},"coordinates":[5712,4750]},{"type":"Point","properties":{"Station_ID":"PTLQ6","Station_Nam":"PORTAGE LAKE","Latitude":"49.06950","Longitude":"-86.65940","Snowdepth":"25.430","Units":"in","Rept_Date":"2021-01-25 06"},"coordinates":[2483,8350]},{"type":"Point","properties":{"Station_ID":"MI-KW-2","Station_Nam":"DELAWARE 5.2 SW, MI","Latitude":"47.36928","Longitude":"-88.17919","Snowdepth":"25.000","Units":"in","Rept_Date":"2021-01-24 09"},"coordinates":[2126,7295]},{"type":"Point","properties":{"Station_ID":"TRIQ6","Station_Nam":"TRIO LAKE","Latitude":"49.22880","Longitude":"-87.22920","Snowdepth":"24.290","Units":"in","Rept_Date":"2021-01-25 06"},"coordinates":[2349,8449]},{"type":"Point","properties":{"Station_ID":"OCON6","Station_Nam":"OSCEOLA","Latitude":"43.50370","Longitude":"-75.72170","Snowdepth":"24.000","Units":"in","Rept_Date":"2021-01-24 13"},"coordinates":[5050,4897]},{"type":"Point","properties":{"Station_ID":"NH-CS-10","Station_Nam":"RANDOLPH 1.4 NE, NH","Latitude":"44.38824","Longitude":"-71.26950","Snowdepth":"24.000","Units":"in","Rept_Date":"2021-01-24 12"},"coordinates":[6095,5446]},{"type":"Point","properties":{"Station_ID":"KSGM4","Station_Nam":"KEARSARGE","Latitude":"47.27520","Longitude":"-88.41700","Snowdepth":"24.000","Units":"in","Rept_Date":"2021-01-24 13"},"coordinates":[2070,7237]},{"type":"Point","properties":{"Station_ID":"DVLQ6","Station_Nam":"DEVIOUS LAKE","Latitude":"49.19890","Longitude":"-87.76440","Snowdepth":"23.900","Units":"in","Rept_Date":"2021-01-25 06"},"coordinates":[2224,8431]},{"type":"Point","properties":{"Station_ID":"AUDQ6","Station_Nam":"AUDEN","Latitude":"48.52600","Longitude":"-82.57570","Snowdepth":"23.660","Units":"in","Rept_Date":"2021-01-25 06"},"coordinates":[3441,8013]},{"type":"Point","properties":{"Station_ID":"VT-BN-12","Station_Nam":"STAMFORD 5.0 NNE, VT","Latitude":"42.82000","Longitude":"-73.02000","Snowdepth":"23.000","Units":"in","Rept_Date":"2021-01-24 21"},"coordinates":[5684,4473]},{"type":"Point","properties":{"Station_ID":"LBKV1","Station_Nam":"LYE BROOK","Latitude":"43.05000","Longitude":"-73.03330","Snowdepth":"23.000","Units":"in","Rept_Date":"2021-01-25 06"},"coordinates":[5681,4616]},{"type":"Point","properties":{"Station_ID":"QGO","Station_Nam":"QGO","Latitude":"48.85500","Longitude":"-74.20640","Snowdepth":"22.480","Units":"in","Rept_Date":"2021-01-24 12"},"coordinates":[5405,8217]},{"type":"Point","properties":{"Station_ID":"QLB","Station_Nam":"QLB","Latitude":"50.72360","Longitude":"-75.10000","Snowdepth":"22.244","Units":"in","Rept_Date":"2021-01-24 12"},"coordinates":[5196,9377]},{"type":"Point","properties":{"Station_ID":"QNCM4","Station_Nam":"QUINCY HILL","Latitude":"47.13640","Longitude":"-88.57950","Snowdepth":"22.000","Units":"in","Rept_Date":"2021-01-24 13"},"coordinates":[2032,7151]},{"type":"Point","properties":{"Station_ID":"NY-ER-65","Station_Nam":"BOSTON 1.5 NE, NY","Latitude":"42.65470","Longitude":"-78.72010","Snowdepth":"22.000","Units":"in","Rept_Date":"2021-01-24 12"},"coordinates":[4346,4370]},{"type":"Point","properties":{"Station_ID":"MI-HG-20","Station_Nam":"CALUMET 1.1 SSW, MI","Latitude":"47.23165","Longitude":"-88.45823","Snowdepth":"22.000","Units":"in","Rept_Date":"2021-01-24 11"},"coordinates":[2061,7210]},{"type":"Point","properties":{"Station_ID":"CAN-ON-245","Station_Nam":"PHELPSTON 3.1 ESE, CAN","Latitude":"44.50564","Longitude":"-79.81035","Snowdepth":"22.000","Units":"in","Rept_Date":"2021-01-24 14"},"coordinates":[4090,5519]},{"type":"Point","properties":{"Station_ID":"PRGN6","Station_Nam":"PERRYSBURG","Latitude":"42.46470","Longitude":"-79.00310","Snowdepth":"21.000","Units":"in","Rept_Date":"2021-01-24 12"},"coordinates":[4280,4252]},{"type":"Point","properties":{"Station_ID":"QCO","Station_Nam":"QCO","Latitude":"51.45280","Longitude":"-72.20110","Snowdepth":"20.157","Units":"in","Rept_Date":"2021-01-24 12"},"coordinates":[5876,9829]},{"type":"Point","properties":{"Station_ID":"VT-BN-3","Station_Nam":"LANDGROVE 1.1 NNE, VT","Latitude":"43.29092","Longitude":"-72.83260","Snowdepth":"20.000","Units":"in","Rept_Date":"2021-01-24 12"},"coordinates":[5728,4765]},{"type":"Point","properties":{"Station_ID":"NY-LW-12","Station_Nam":"CHASES LAKE COOP, NY","Latitude":"43.75924","Longitude":"-75.29982","Snowdepth":"20.000","Units":"in","Rept_Date":"2021-01-24 11"},"coordinates":[5149,5056]},{"type":"Point","properties":{"Station_ID":"KMWN","Station_Nam":"MOUNT WASHINGTON","Latitude":"44.26666","Longitude":"-71.30000","Snowdepth":"20.000","Units":"in","Rept_Date":"2021-01-25 06"},"coordinates":[6088,5370]},{"type":"Point","properties":{"Station_ID":"GFDN6","Station_Nam":"CHASES LAKE","Latitude":"43.75920","Longitude":"-75.29980","Snowdepth":"20.000","Units":"in","Rept_Date":"2021-01-24 11"},"coordinates":[5149,5056]},{"type":"Point","properties":{"Station_ID":"NY-ER-166","Station_Nam":"BOSTON 2.5 NE, NY","Latitude":"42.65480","Longitude":"-78.70300","Snowdepth":"19.500","Units":"in","Rept_Date":"2021-01-24 12"},"coordinates":[4350,4370]},{"type":"Point","properties":{"Station_ID":"SGVN6","Station_Nam":"SPRINGVILLE","Latitude":"42.54970","Longitude":"-78.57670","Snowdepth":"19.000","Units":"in","Rept_Date":"2021-01-24 23"},"coordinates":[4380,4305]},{"type":"Point","properties":{"Station_ID":"NY-HR-18","Station_Nam":"SALISBURY CENTER 1.8 NW, NY","Latitude":"43.16260","Longitude":"-74.80880","Snowdepth":"19.000","Units":"in","Rept_Date":"2021-01-24 11"},"coordinates":[5264,4685]},{"type":"Point","properties":{"Station_ID":"NY-ER-56","Station_Nam":"COLDEN 1.4 NNW, NY","Latitude":"42.64740","Longitude":"-78.71120","Snowdepth":"19.000","Units":"in","Rept_Date":"2021-01-24 12"},"coordinates":[4348,4366]},{"type":"Point","properties":{"Station_ID":"HURW3","Station_Nam":"HURLEY","Latitude":"46.46250","Longitude":"-90.19550","Snowdepth":"19.000","Units":"in","Rept_Date":"2021-01-24 14"},"coordinates":[1653,6733]},{"type":"Point","properties":{"Station_ID":"GNLM4","Station_Nam":"GREENLAND 6N","Latitude":"46.87360","Longitude":"-89.10060","Snowdepth":"19.000","Units":"in","Rept_Date":"2021-01-24 13"},"coordinates":[1910,6988]},{"type":"Point","properties":{"Station_ID":"CODN6","Station_Nam":"COLDEN","Latitude":"42.64720","Longitude":"-78.71110","Snowdepth":"19.000","Units":"in","Rept_Date":"2021-01-24 12"},"coordinates":[4348,4366]},{"type":"Point","properties":{"Station_ID":"QOU","Station_Nam":"QOU","Latitude":"50.79250","Longitude":"-69.67470","Snowdepth":"18.150","Units":"in","Rept_Date":"2021-01-24 12"},"coordinates":[6469,9419]},{"type":"Point","properties":{"Station_ID":"TOPN6","Station_Nam":"TUPPER LAKE SUNMOUNT","Latitude":"44.23070","Longitude":"-74.43820","Snowdepth":"18.000","Units":"in","Rept_Date":"2021-01-24 12"},"coordinates":[5351,5348]},{"type":"Point","properties":{"Station_ID":"NY-ER-194","Station_Nam":"GLENWOOD 1.0 SE, NY","Latitude":"42.60740","Longitude":"-78.64610","Snowdepth":"18.000","Units":"in","Rept_Date":"2021-01-24 12"},"coordinates":[4364,4341]},{"type":"Point","properties":{"Station_ID":"JOHV1","Station_Nam":"JOHNSON 2 N","Latitude":"44.65790","Longitude":"-72.67850","Snowdepth":"18.000","Units":"in","Rept_Date":"2021-01-24 13"},"coordinates":[5764,5613]},{"type":"Point","properties":{"Station_ID":"IWOM4","Station_Nam":"IRONWOOD#2","Latitude":"46.46520","Longitude":"-90.13820","Snowdepth":"18.000","Units":"in","Rept_Date":"2021-01-24 13"},"coordinates":[1666,6734]},{"type":"Point","properties":{"Station_ID":"HERM4","Station_Nam":"HERMAN,MI","Latitude":"46.65000","Longitude":"-88.33330","Snowdepth":"18.000","Units":"in","Rept_Date":"2021-01-24 13"},"coordinates":[2090,6849]},{"type":"Point","properties":{"Station_ID":"BOON6","Station_Nam":"BOONVILLE 4 SSW","Latitude":"43.43610","Longitude":"-75.36970","Snowdepth":"18.000","Units":"in","Rept_Date":"2021-01-24 12"},"coordinates":[5132,4855]},{"type":"Point","properties":{"Station_ID":"BERM4","Station_Nam":"BERGLAND DAM","Latitude":"46.58690","Longitude":"-89.54750","Snowdepth":"18.000","Units":"in","Rept_Date":"2021-01-24 13"},"coordinates":[1805,6810]},{"type":"Point","properties":{"Station_ID":"BBEM4","Station_Nam":"BIG BAY 9SW","Latitude":"46.74620","Longitude":"-87.88160","Snowdepth":"18.000","Units":"in","Rept_Date":"2021-01-24 13"},"coordinates":[2196,6909]},{"type":"Point","properties":{"Station_ID":"NY-FK-9","Station_Nam":"GABRIELS 1.3 SE, NY","Latitude":"44.41934","Longitude":"-74.16194","Snowdepth":"17.500","Units":"in","Rept_Date":"2021-01-24 12"},"coordinates":[5416,5465]},{"type":"Point","properties":{"Station_ID":"QTM","Station_Nam":"QTM","Latitude":"51.05780","Longitude":"-72.57190","Snowdepth":"17.283","Units":"in","Rept_Date":"2021-01-24 12"},"coordinates":[5789,9584]},{"type":"Point","properties":{"Station_ID":"OGIQ6","Station_Nam":"OGOKI CAMP","Latitude":"50.76680","Longitude":"-87.85820","Snowdepth":"17.200","Units":"in","Rept_Date":"2021-01-25 06"},"coordinates":[2202,9403]},{"type":"Point","properties":{"Station_ID":"QFT","Station_Nam":"QFT","Latitude":"50.83280","Longitude":"-74.40390","Snowdepth":"17.008","Units":"in","Rept_Date":"2021-01-24 12"},"coordinates":[5359,9444]},{"type":"Point","properties":{"Station_ID":"VT-WS-33","Station_Nam":"WAITSFIELD 3.5 WNW, VT","Latitude":"44.20052","Longitude":"-72.89421","Snowdepth":"17.000","Units":"in","Rept_Date":"2021-01-24 12"},"coordinates":[5713,5329]},{"type":"Point","properties":{"Station_ID":"VT-OL-12","Station_Nam":"GREENSBORO 3.9 NNE, VT","Latitude":"44.63100","Longitude":"-72.28000","Snowdepth":"17.000","Units":"in","Rept_Date":"2021-01-24 14"},"coordinates":[5858,5596]},{"type":"Point","properties":{"Station_ID":"ROWM3","Station_Nam":"ROWE 3NE","Latitude":"42.73500","Longitude":"-72.86920","Snowdepth":"17.000","Units":"in","Rept_Date":"2021-01-24 12"},"coordinates":[5719,4420]},{"type":"Point","properties":{"Station_ID":"MNSM4","Station_Nam":"MUNISING","Latitude":"46.41210","Longitude":"-86.66250","Snowdepth":"17.000","Units":"in","Rept_Date":"2021-01-24 11"},"coordinates":[2482,6702]},{"type":"Point","properties":{"Station_ID":"LPLN6","Station_Nam":"LAKE PLACID 2 S","Latitude":"44.30420","Longitude":"-73.98390","Snowdepth":"17.000","Units":"in","Rept_Date":"2021-01-24 13"},"coordinates":[5458,5394]},{"type":"Point","properties":{"Station_ID":"LOWN6","Station_Nam":"LOWVILLE","Latitude":"43.79280","Longitude":"-75.48290","Snowdepth":"17.000","Units":"in","Rept_Date":"2021-01-24 12"},"coordinates":[5106,5076]},{"type":"Point","properties":{"Station_ID":"QWE","Station_Nam":"QWE","Latitude":"47.84610","Longitude":"-73.80670","Snowdepth":"16.614","Units":"in","Rept_Date":"2021-01-24 12"},"coordinates":[5499,7591]},{"type":"Point","properties":{"Station_ID":"VT-WR-2","Station_Nam":"POMFRET 2.6 N, VT","Latitude":"43.74230","Longitude":"-72.52550","Snowdepth":"16.500","Units":"in","Rept_Date":"2021-01-24 12"},"coordinates":[5800,5045]},{"type":"Point","properties":{"Station_ID":"QCU","Station_Nam":"QCU","Latitude":"47.82750","Longitude":"-76.59830","Snowdepth":"16.417","Units":"in","Rept_Date":"2021-01-24 12"},"coordinates":[4844,7580]},{"type":"Point","properties":{"Station_ID":"SOCQ6","Station_Nam":"SOCKET LAKE","Latitude":"50.77870","Longitude":"-91.79300","Snowdepth":"16.380","Units":"in","Rept_Date":"2021-01-25 06"},"coordinates":[1278,9411]},{"type":"Point","properties":{"Station_ID":"MI-BG-3","Station_Nam":"THREE LAKES, MI","Latitude":"46.55730","Longitude":"-88.20770","Snowdepth":"16.300","Units":"in","Rept_Date":"2021-01-24 13"},"coordinates":[2119,6792]},{"type":"Point","properties":{"Station_ID":"MLZ","Station_Nam":"MLZ","Latitude":"50.66170","Longitude":"-68.82360","Snowdepth":"16.220","Units":"in","Rept_Date":"2021-01-24 12"},"coordinates":[6669,9338]},{"type":"Point","properties":{"Station_ID":"WRSN6","Station_Nam":"WARSAW 6SW","Latitude":"42.68550","Longitude":"-78.22020","Snowdepth":"16.000","Units":"in","Rept_Date":"2021-01-24 12"},"coordinates":[4463,4389]},{"type":"Point","properties":{"Station_ID":"WORV1","Station_Nam":"WORCESTER 2 W","Latitude":"44.37470","Longitude":"-72.58220","Snowdepth":"16.000","Units":"in","Rept_Date":"2021-01-24 12"},"coordinates":[5787,5437]},{"type":"Point","properties":{"Station_ID":"WLFM5","Station_Nam":"WOLF RIDGE ENVIRON LEARNING CENTER","Latitude":"47.38240","Longitude":"-91.19730","Snowdepth":"16.000","Units":"in","Rept_Date":"2021-01-24 13"},"coordinates":[1418,7304]},{"type":"Point","properties":{"Station_ID":"VT-WS-19","Station_Nam":"WATERBURY 3.0 NW, VT","Latitude":"44.36060","Longitude":"-72.80770","Snowdepth":"16.000","Units":"in","Rept_Date":"2021-01-24 11"},"coordinates":[5734,5429]},{"type":"Point","properties":{"Station_ID":"NY-ER-63","Station_Nam":"GLENWOOD 1.5 SE, NY","Latitude":"42.60195","Longitude":"-78.63910","Snowdepth":"16.000","Units":"in","Rept_Date":"2021-01-24 13"},"coordinates":[4365,4338]},{"type":"Point","properties":{"Station_ID":"KABM5","Station_Nam":"KABETOGAMA LAKE VISITOR CTR","Latitude":"48.40880","Longitude":"-93.04840","Snowdepth":"16.000","Units":"in","Rept_Date":"2021-01-24 13"},"coordinates":[983,7940]},{"type":"Point","properties":{"Station_ID":"JEFV1","Station_Nam":"JEFFERSONVILLE","Latitude":"44.58430","Longitude":"-72.78700","Snowdepth":"16.000","Units":"in","Rept_Date":"2021-01-24 12"},"coordinates":[5739,5567]},{"type":"Point","properties":{"Station_ID":"VT-WS-30","Station_Nam":"WOODBURY 3.4 NNW, VT","Latitude":"44.48825","Longitude":"-72.43258","Snowdepth":"15.500","Units":"in","Rept_Date":"2021-01-24 12"},"coordinates":[5822,5508]},{"type":"Point","properties":{"Station_ID":"VT-OL-1","Station_Nam":"WESTFIELD 0.7 WNW, VT","Latitude":"44.89160","Longitude":"-72.44350","Snowdepth":"15.500","Units":"in","Rept_Date":"2021-01-24 12"},"coordinates":[5819,5758]},{"type":"Point","properties":{"Station_ID":"VT-CH-13","Station_Nam":"RICHMOND 3.4 SSE, VT","Latitude":"44.36084","Longitude":"-72.96400","Snowdepth":"15.500","Units":"in","Rept_Date":"2021-01-24 12"},"coordinates":[5697,5429]},{"type":"Point","properties":{"Station_ID":"NY-HM-10","Station_Nam":"LAKE PLEASANT 2.3 WSW, NY","Latitude":"43.45490","Longitude":"-74.45287","Snowdepth":"15.500","Units":"in","Rept_Date":"2021-01-24 12"},"coordinates":[5348,4867]},{"type":"Point","properties":{"Station_ID":"NY-CT-33","Station_Nam":"GREAT VALLEY 2.2 WNW, NY","Latitude":"42.22790","Longitude":"-78.67580","Snowdepth":"15.500","Units":"in","Rept_Date":"2021-01-24 12"},"coordinates":[4357,4105]},{"type":"Point","properties":{"Station_ID":"SVBQ6","Station_Nam":"SAVANT BASE","Latitude":"50.28730","Longitude":"-90.65670","Snowdepth":"15.430","Units":"in","Rept_Date":"2021-01-25 06"},"coordinates":[1545,9106]},{"type":"Point","properties":{"Station_ID":"CAN-MB-368","Station_Nam":"WHITESHELL 1.3 NE, CAN","Latitude":"49.74405","Longitude":"-95.19123","Snowdepth":"15.400","Units":"in","Rept_Date":"2021-01-24 14"},"coordinates":[481,8769]},{"type":"Point","properties":{"Station_ID":"KABQ6","Station_Nam":"CAB LAKE","Latitude":"49.59950","Longitude":"-89.17990","Snowdepth":"15.120","Units":"in","Rept_Date":"2021-01-25 06"},"coordinates":[1891,8679]},{"type":"Point","properties":{"Station_ID":"WAIV1","Station_Nam":"WAITSFIELD","Latitude":"44.17560","Longitude":"-72.79610","Snowdepth":"15.000","Units":"in","Rept_Date":"2021-01-24 12"},"coordinates":[5736,5314]},{"type":"Point","properties":{"Station_ID":"VT-WS-11","Station_Nam":"WAITSFIELD 1.8 SE, VT","Latitude":"44.17551","Longitude":"-72.79540","Snowdepth":"15.000","Units":"in","Rept_Date":"2021-01-24 12"},"coordinates":[5737,5314]},{"type":"Point","properties":{"Station_ID":"NY-FK-7","Station_Nam":"SARANAC LAKE 6.2 N, NY","Latitude":"44.41359","Longitude":"-74.15211","Snowdepth":"15.000","Units":"in","Rept_Date":"2021-01-24 12"},"coordinates":[5418,5462]},{"type":"Point","properties":{"Station_ID":"NY-ES-11","Station_Nam":"VERMONTVILLE 2.8 S, NY","Latitude":"44.41205","Longitude":"-74.06760","Snowdepth":"15.000","Units":"in","Rept_Date":"2021-01-24 12"},"coordinates":[5438,5461]},{"type":"Point","properties":{"Station_ID":"NH-CS-4","Station_Nam":"PITTSBURG 6.1 NE, NH","Latitude":"45.11060","Longitude":"-71.29760","Snowdepth":"15.000","Units":"in","Rept_Date":"2021-01-24 12"},"coordinates":[6088,5894]},{"type":"Point","properties":{"Station_ID":"MQT","Station_Nam":"MARQUETTE, MI","Latitude":"46.53140","Longitude":"-87.54920","Snowdepth":"15.000","Units":"in","Rept_Date":"2021-01-25 06"},"coordinates":[2274,6776]},{"type":"Point","properties":{"Station_ID":"MN-SL-15","Station_Nam":"CHISHOLM 0.4 WSW, MN","Latitude":"47.48557","Longitude":"-92.88690","Snowdepth":"15.000","Units":"in","Rept_Date":"2021-01-24 13"},"coordinates":[1021,7368]},{"type":"Point","properties":{"Station_ID":"MN-IT-7","Station_Nam":"GRAND RAPIDS 6.2 SSW, MN","Latitude":"47.13687","Longitude":"-93.56660","Snowdepth":"15.000","Units":"in","Rept_Date":"2021-01-24 12"},"coordinates":[862,7151]},{"type":"Point","properties":{"Station_ID":"INDN6","Station_Nam":"INDIAN LAKE","Latitude":"43.75500","Longitude":"-74.27560","Snowdepth":"15.000","Units":"in","Rept_Date":"2021-01-24 13"},"coordinates":[5389,5053]},{"type":"Point","properties":{"Station_ID":"HWLM4","Station_Nam":"HALFWAY LAKE","Latitude":"46.47480","Longitude":"-85.59250","Snowdepth":"15.000","Units":"in","Rept_Date":"2021-01-24 14"},"coordinates":[2733,6740]},{"type":"Point","properties":{"Station_ID":"GHMN3","Station_Nam":"PINKHAM NOTCH","Latitude":"44.25800","Longitude":"-71.25250","Snowdepth":"15.000","Units":"in","Rept_Date":"2021-01-24 11"},"coordinates":[6099,5365]},{"type":"Point","properties":{"Station_ID":"NY-OD-2","Station_Nam":"POINT ROCK 0.6 SE, NY","Latitude":"43.37335","Longitude":"-75.53840","Snowdepth":"14.500","Units":"in","Rept_Date":"2021-01-24 13"},"coordinates":[5093,4816]},{"type":"Point","properties":{"Station_ID":"NY-ES-6","Station_Nam":"OLMSTEDVILLE 4.6 NNE, NY","Latitude":"43.83350","Longitude":"-73.89780","Snowdepth":"14.500","Units":"in","Rept_Date":"2021-01-24 13"},"coordinates":[5478,5102]},{"type":"Point","properties":{"Station_ID":"MI-HG-1","Station_Nam":"HOUGHTON 1.6 ESE, MI","Latitude":"47.10774","Longitude":"-88.52940","Snowdepth":"14.500","Units":"in","Rept_Date":"2021-01-24 13"},"coordinates":[2044,7133]},{"type":"Point","properties":{"Station_ID":"WNDP1","Station_Nam":"WINDBER COUNTY CLUB","Latitude":"40.28780","Longitude":"-78.77530","Snowdepth":"14.000","Units":"in","Rept_Date":"2021-01-24 12"},"coordinates":[4333,2902]},{"type":"Point","properties":{"Station_ID":"WI-BY-2","Station_Nam":"MELLEN 18.6 SW, WI","Latitude":"46.16937","Longitude":"-90.98090","Snowdepth":"14.000","Units":"in","Rept_Date":"2021-01-24 13"},"coordinates":[1469,6551]},{"type":"Point","properties":{"Station_ID":"WI-BY-14","Station_Nam":"ASHLAND 9.8 W, WI","Latitude":"46.59742","Longitude":"-91.07856","Snowdepth":"14.000","Units":"in","Rept_Date":"2021-01-24 12"},"coordinates":[1446,6816]},{"type":"Point","properties":{"Station_ID":"VT-WS-23","Station_Nam":"CABOT 2.3 E, VT","Latitude":"44.39807","Longitude":"-72.26570","Snowdepth":"14.000","Units":"in","Rept_Date":"2021-01-24 13"},"coordinates":[5861,5452]},{"type":"Point","properties":{"Station_ID":"VT-WH-19","Station_Nam":"EAST DOVER 1.8 N, VT","Latitude":"42.97658","Longitude":"-72.77637","Snowdepth":"14.000","Units":"in","Rept_Date":"2021-01-24 12"},"coordinates":[5741,4570]},{"type":"Point","properties":{"Station_ID":"VT-OL-2","Station_Nam":"BARTON 3.0 ENE, VT","Latitude":"44.75863","Longitude":"-72.11680","Snowdepth":"14.000","Units":"in","Rept_Date":"2021-01-24 12"},"coordinates":[5896,5676]},{"type":"Point","properties":{"Station_ID":"UPSW3","Station_Nam":"UPSON,WI","Latitude":"46.36780","Longitude":"-90.41220","Snowdepth":"14.000","Units":"in","Rept_Date":"2021-01-25 00"},"coordinates":[1602,6674]},{"type":"Point","properties":{"Station_ID":"SLNV1","Station_Nam":"SOUTH LINCOLN","Latitude":"44.07460","Longitude":"-72.97180","Snowdepth":"14.000","Units":"in","Rept_Date":"2021-01-24 12"},"coordinates":[5695,5251]},{"type":"Point","properties":{"Station_ID":"NY-SL-6","Station_Nam":"HANNAWA FALLS 0.1 SW, NY","Latitude":"44.61154","Longitude":"-74.97190","Snowdepth":"14.000","Units":"in","Rept_Date":"2021-01-24 12"},"coordinates":[5226,5584]},{"type":"Point","properties":{"Station_ID":"NY-OS-21","Station_Nam":"PULASKI 0.5 NE, NY","Latitude":"43.56997","Longitude":"-76.11950","Snowdepth":"14.000","Units":"in","Rept_Date":"2021-01-24 17"},"coordinates":[4957,4938]},{"type":"Point","properties":{"Station_ID":"MN-SL-108","Station_Nam":"IRON JUNCTION 3.4 NNW, MN","Latitude":"47.46150","Longitude":"-92.63130","Snowdepth":"14.000","Units":"in","Rept_Date":"2021-01-24 12"},"coordinates":[1081,7353]},{"type":"Point","properties":{"Station_ID":"MN-SE-2","Station_Nam":"OWATONNA 0.8 E, MN","Latitude":"44.09170","Longitude":"-93.21380","Snowdepth":"14.000","Units":"in","Rept_Date":"2021-01-24 13"},"coordinates":[945,5262]},{"type":"Point","properties":{"Station_ID":"COVM4","Station_Nam":"COVINGTON","Latitude":"46.55880","Longitude":"-88.54190","Snowdepth":"14.000","Units":"in","Rept_Date":"2021-01-24 13"},"coordinates":[2041,6793]},{"type":"Point","properties":{"Station_ID":"CMKW3","Station_Nam":"CLAM LAKE 4W","Latitude":"46.16940","Longitude":"-90.98080","Snowdepth":"14.000","Units":"in","Rept_Date":"2021-01-24 13"},"coordinates":[1469,6551]},{"type":"Point","properties":{"Station_ID":"CLKM4","Station_Nam":"CLARKSBURG","Latitude":"46.49910","Longitude":"-87.84500","Snowdepth":"14.000","Units":"in","Rept_Date":"2021-01-24 12"},"coordinates":[2205,6755]},{"type":"Point","properties":{"Station_ID":"CAN-MB-32","Station_Nam":"PINAWA 1.0 SW, CA","Latitude":"50.14747","Longitude":"-95.89020","Snowdepth":"14.000","Units":"in","Rept_Date":"2021-01-24 13"},"coordinates":[316,9019]},{"type":"Point","properties":{"Station_ID":"BNDM5","Station_Nam":"ELY 25E","Latitude":"47.97190","Longitude":"-91.44860","Snowdepth":"14.000","Units":"in","Rept_Date":"2021-01-24 13"},"coordinates":[1359,7669]},{"type":"Point","properties":{"Station_ID":"QMD","Station_Nam":"QMD","Latitude":"49.29060","Longitude":"-75.84500","Snowdepth":"13.976","Units":"in","Rept_Date":"2021-01-24 12"},"coordinates":[5021,8487]},{"type":"Point","properties":{"Station_ID":"WI-SR-1","Station_Nam":"HAYWARD 9.2 NNE, WI","Latitude":"46.13255","Longitude":"-91.40500","Snowdepth":"13.700","Units":"in","Rept_Date":"2021-01-24 12"},"coordinates":[1369,6528]},{"type":"Point","properties":{"Station_ID":"WI-IR-3","Station_Nam":"PENCE 0.1 E, WI","Latitude":"46.41555","Longitude":"-90.27013","Snowdepth":"13.500","Units":"in","Rept_Date":"2021-01-24 13"},"coordinates":[1635,6704]},{"type":"Point","properties":{"Station_ID":"VT-WS-10","Station_Nam":"NORTHFIELD 1.5 N, VT","Latitude":"44.16986","Longitude":"-72.65200","Snowdepth":"13.500","Units":"in","Rept_Date":"2021-01-24 12"},"coordinates":[5770,5310]},{"type":"Point","properties":{"Station_ID":"NY-MD-10","Station_Nam":"CAZENOVIA 2.9 SE, NY","Latitude":"42.90003","Longitude":"-75.81140","Snowdepth":"13.500","Units":"in","Rept_Date":"2021-01-24 12"},"coordinates":[5029,4523]},{"type":"Point","properties":{"Station_ID":"NY-JF-30","Station_Nam":"WEST CARTHAGE 0.3 ENE, NY","Latitude":"43.97493","Longitude":"-75.61640","Snowdepth":"13.200","Units":"in","Rept_Date":"2021-01-24 12"},"coordinates":[5075,5189]},{"type":"Point","properties":{"Station_ID":"CAN-QC-56","Station_Nam":"SUTTON 2.6 N, CAN","Latitude":"45.13119","Longitude":"-72.61218","Snowdepth":"13.200","Units":"in","Rept_Date":"2021-01-24 12"},"coordinates":[5780,5907]},{"type":"Point","properties":{"Station_ID":"CAN-ON-791","Station_Nam":"METCALFE 4.4 NNW, CAN","Latitude":"45.27286","Longitude":"-75.48952","Snowdepth":"13.200","Units":"in","Rept_Date":"2021-01-24 11"},"coordinates":[5104,5995]},{"type":"Point","properties":{"Station_ID":"QGA","Station_Nam":"QGA","Latitude":"47.25640","Longitude":"-73.73810","Snowdepth":"13.110","Units":"in","Rept_Date":"2021-01-24 12"},"coordinates":[5515,7225]},{"type":"Point","properties":{"Station_ID":"WTNM4","Station_Nam":"WATTON 2WSW","Latitude":"46.52660","Longitude":"-88.64240","Snowdepth":"13.000","Units":"in","Rept_Date":"2021-01-24 13"},"coordinates":[2017,6773]},{"type":"Point","properties":{"Station_ID":"WRSM5","Station_Nam":"WRENSHALL","Latitude":"46.61550","Longitude":"-92.38380","Snowdepth":"13.000","Units":"in","Rept_Date":"2021-01-24 14"},"coordinates":[1139,6828]},{"type":"Point","properties":{"Station_ID":"WI-VL-9","Station_Nam":"LAND O' LAKES 11.7 W, WI","Latitude":"46.19023","Longitude":"-89.45790","Snowdepth":"13.000","Units":"in","Rept_Date":"2021-01-24 13"},"coordinates":[1826,6564]},{"type":"Point","properties":{"Station_ID":"VT-WH-30","Station_Nam":"MARLBORO 2.0 NNE, VT","Latitude":"42.88484","Longitude":"-72.70935","Snowdepth":"13.000","Units":"in","Rept_Date":"2021-01-24 12"},"coordinates":[5757,4513]},{"type":"Point","properties":{"Station_ID":"VT-ES-3","Station_Nam":"LUNENBURG 2.3 NNW, VT","Latitude":"44.49324","Longitude":"-71.70446","Snowdepth":"13.000","Units":"in","Rept_Date":"2021-01-24 13"},"coordinates":[5993,5511]},{"type":"Point","properties":{"Station_ID":"VT-CH-7","Station_Nam":"HUNTINGTON 1.1 E, VT","Latitude":"44.32488","Longitude":"-72.96570","Snowdepth":"13.000","Units":"in","Rept_Date":"2021-01-24 12"},"coordinates":[5697,5407]},{"type":"Point","properties":{"Station_ID":"TOGM5","Station_Nam":"CELINA 2E","Latitude":"47.86630","Longitude":"-93.02660","Snowdepth":"13.000","Units":"in","Rept_Date":"2021-01-24 15"},"coordinates":[989,7604]},{"type":"Point","properties":{"Station_ID":"SUTV1","Station_Nam":"SUTTON","Latitude":"44.61220","Longitude":"-72.04810","Snowdepth":"13.000","Units":"in","Rept_Date":"2021-01-24 13"},"coordinates":[5912,5585]},{"type":"Point","properties":{"Station_ID":"SUAW3","Station_Nam":"SUAMICO","Latitude":"44.60190","Longitude":"-88.09780","Snowdepth":"13.000","Units":"in","Rept_Date":"2021-01-24 12"},"coordinates":[2145,5578]},{"type":"Point","properties":{"Station_ID":"RGNM1","Station_Nam":"RANGELEY 2NW","Latitude":"44.98940","Longitude":"-70.67220","Snowdepth":"13.000","Units":"in","Rept_Date":"2021-01-24 13"},"coordinates":[6235,5819]},{"type":"Point","properties":{"Station_ID":"NY-CT-22","Station_Nam":"FRANKLINVILLE 0.5 NNE, NY","Latitude":"42.34166","Longitude":"-78.45280","Snowdepth":"13.000","Units":"in","Rept_Date":"2021-01-24 13"},"coordinates":[4409,4176]},{"type":"Point","properties":{"Station_ID":"NY-CQ-27","Station_Nam":"SILVER CREEK 1.0 SSE, NY","Latitude":"42.53088","Longitude":"-79.15986","Snowdepth":"13.000","Units":"in","Rept_Date":"2021-01-24 12"},"coordinates":[4243,4293]},{"type":"Point","properties":{"Station_ID":"NOHM5","Station_Nam":"NORTHOME","Latitude":"47.83590","Longitude":"-94.25550","Snowdepth":"13.000","Units":"in","Rept_Date":"2021-01-24 13"},"coordinates":[700,7585]},{"type":"Point","properties":{"Station_ID":"MRLV1","Station_Nam":"MARLBORO","Latitude":"42.86000","Longitude":"-72.72000","Snowdepth":"13.000","Units":"in","Rept_Date":"2021-01-24 12"},"coordinates":[5754,4498]},{"type":"Point","properties":{"Station_ID":"MN-GH-28","Station_Nam":"CANNON FALLS 0.5 SE, MN","Latitude":"44.50866","Longitude":"-92.89526","Snowdepth":"13.000","Units":"in","Rept_Date":"2021-01-24 14"},"coordinates":[1019,5521]},{"type":"Point","properties":{"Station_ID":"ME-AR-18","Station_Nam":"NEW SWEDEN 4.9 NNW, ME","Latitude":"47.01080","Longitude":"-68.14390","Snowdepth":"13.000","Units":"in","Rept_Date":"2021-01-24 12"},"coordinates":[6828,7073]},{"type":"Point","properties":{"Station_ID":"MALN6","Station_Nam":"MALONE","Latitude":"44.84180","Longitude":"-74.30600","Snowdepth":"13.000","Units":"in","Rept_Date":"2021-01-24 12"},"coordinates":[5382,5727]},{"type":"Point","properties":{"Station_ID":"LNOW3","Station_Nam":"LAND O LAKES","Latitude":"46.19000","Longitude":"-89.45700","Snowdepth":"13.000","Units":"in","Rept_Date":"2021-01-24 13"},"coordinates":[1826,6564]},{"type":"Point","properties":{"Station_ID":"LEIM5","Station_Nam":"ORR 3E","Latitude":"48.05810","Longitude":"-92.75220","Snowdepth":"13.000","Units":"in","Rept_Date":"2021-01-24 12"},"coordinates":[1053,7723]},{"type":"Point","properties":{"Station_ID":"IRMM4","Station_Nam":"WWTP","Latitude":"46.46670","Longitude":"-90.18330","Snowdepth":"13.000","Units":"in","Rept_Date":"2021-01-24 13"},"coordinates":[1656,6735]},{"type":"Point","properties":{"Station_ID":"INL","Station_Nam":"FALLS INTERNATIONAL ARPT","Latitude":"48.56640","Longitude":"-93.40310","Snowdepth":"13.000","Units":"in","Rept_Date":"2021-01-25 01"},"coordinates":[900,8038]},{"type":"Point","properties":{"Station_ID":"IFSM5","Station_Nam":"INTERNATIONAL FALLS SNOW","Latitude":"48.57780","Longitude":"-93.39640","Snowdepth":"13.000","Units":"in","Rept_Date":"2021-01-24 12"},"coordinates":[902,8045]},{"type":"Point","properties":{"Station_ID":"ELYM5","Station_Nam":"ELY","Latitude":"47.90560","Longitude":"-91.82830","Snowdepth":"13.000","Units":"in","Rept_Date":"2021-01-24 14"},"coordinates":[1270,7628]},{"type":"Point","properties":{"Station_ID":"AVLV1","Station_Nam":"AVERILL","Latitude":"45.00570","Longitude":"-71.69030","Snowdepth":"13.000","Units":"in","Rept_Date":"2021-01-24 13"},"coordinates":[5996,5829]},{"type":"Point","properties":{"Station_ID":"ANJM4","Station_Nam":"SNOW PAID OBSERVER FOR KANJ","Latitude":"46.48670","Longitude":"-84.40260","Snowdepth":"13.000","Units":"in","Rept_Date":"2021-01-25 00"},"coordinates":[3013,6748]},{"type":"Point","properties":{"Station_ID":"ANJ","Station_Nam":"SAULT STE MARIE","Latitude":"46.46670","Longitude":"-84.36670","Snowdepth":"13.000","Units":"in","Rept_Date":"2021-01-25 00"},"coordinates":[3021,6735]},{"type":"Point","properties":{"Station_ID":"QLI","Station_Nam":"QLI","Latitude":"50.27080","Longitude":"-73.92280","Snowdepth":"12.992","Units":"in","Rept_Date":"2021-01-24 12"},"coordinates":[5472,9096]},{"type":"Point","properties":{"Station_ID":"CAN-QC-51","Station_Nam":"BELOEIL 0.7 NW, CAN","Latitude":"45.58049","Longitude":"-73.21218","Snowdepth":"12.800","Units":"in","Rept_Date":"2021-01-24 12"},"coordinates":[5639,6186]},{"type":"Point","properties":{"Station_ID":"MN-IS-18","Station_Nam":"BRAHAM 0.7 SW, MN","Latitude":"45.71379","Longitude":"-93.18095","Snowdepth":"12.700","Units":"in","Rept_Date":"2021-01-24 14"},"coordinates":[952,6268]},{"type":"Point","properties":{"Station_ID":"CATQ6","Station_Nam":"CAT LAKE","Latitude":"51.72690","Longitude":"-91.82210","Snowdepth":"12.600","Units":"in","Rept_Date":"2021-01-25 06"},"coordinates":[1271,9999]},{"type":"Point","properties":{"Station_ID":"CAN-QC-57","Station_Nam":"ACTON VALE 1.3 N, CAN","Latitude":"45.65868","Longitude":"-72.56645","Snowdepth":"12.600","Units":"in","Rept_Date":"2021-01-24 13"},"coordinates":[5790,6234]},{"type":"Point","properties":{"Station_ID":"CAN-QC-47","Station_Nam":"SAINTE-FOY 1.8 ENE, CAN","Latitude":"46.76934","Longitude":"-71.27124","Snowdepth":"12.600","Units":"in","Rept_Date":"2021-01-24 12"},"coordinates":[6094,6923]},{"type":"Point","properties":{"Station_ID":"VT-WS-15","Station_Nam":"EAST CALAIS 1.5 SW, VT","Latitude":"44.35523","Longitude":"-72.45540","Snowdepth":"12.500","Units":"in","Rept_Date":"2021-01-24 12"},"coordinates":[5816,5425]},{"type":"Point","properties":{"Station_ID":"MN-IT-19","Station_Nam":"COHASSET 7.6 NNW, MN","Latitude":"47.34204","Longitude":"-93.69765","Snowdepth":"12.500","Units":"in","Rept_Date":"2021-01-24 13"},"coordinates":[831,7278]},{"type":"Point","properties":{"Station_ID":"MN-HN-222","Station_Nam":"MAPLE GROVE 1.2 NE, MN","Latitude":"45.11960","Longitude":"-93.44410","Snowdepth":"12.500","Units":"in","Rept_Date":"2021-01-24 13"},"coordinates":[891,5900]},{"type":"Point","properties":{"Station_ID":"MN-CK-18","Station_Nam":"GRAND MARAIS 4.4 WSW, MN","Latitude":"47.74462","Longitude":"-90.43796","Snowdepth":"12.500","Units":"in","Rept_Date":"2021-01-24 13"},"coordinates":[1596,7528]},{"type":"Point","properties":{"Station_ID":"QCX","Station_Nam":"QCX","Latitude":"51.32830","Longitude":"-70.08060","Snowdepth":"12.402","Units":"in","Rept_Date":"2021-01-24 12"},"coordinates":[6374,9752]},{"type":"Point","properties":{"Station_ID":"QLP","Station_Nam":"QLP","Latitude":"48.13920","Longitude":"-72.63830","Snowdepth":"12.323","Units":"in","Rept_Date":"2021-01-24 12"},"coordinates":[5774,7773]},{"type":"Point","properties":{"Station_ID":"WI-WB-2","Station_Nam":"STONE LAKE 2.0 NW, WI","Latitude":"45.85960","Longitude":"-91.57710","Snowdepth":"12.000","Units":"in","Rept_Date":"2021-01-24 13"},"coordinates":[1329,6359]},{"type":"Point","properties":{"Station_ID":"WI-PR-2","Station_Nam":"BUTTERNUT 5.9 SW, WI","Latitude":"45.96501","Longitude":"-90.59750","Snowdepth":"12.000","Units":"in","Rept_Date":"2021-01-24 12"},"coordinates":[1559,6424]},{"type":"Point","properties":{"Station_ID":"WI-IR-2","Station_Nam":"MERCER 2.0 SE, WI","Latitude":"46.14749","Longitude":"-90.03097","Snowdepth":"12.000","Units":"in","Rept_Date":"2021-01-24 13"},"coordinates":[1692,6537]},{"type":"Point","properties":{"Station_ID":"WI-DG-20","Station_Nam":"SOLON SPRINGS 1.2 W, WI","Latitude":"46.35217","Longitude":"-91.84405","Snowdepth":"12.000","Units":"in","Rept_Date":"2021-01-24 13"},"coordinates":[1266,6664]},{"type":"Point","properties":{"Station_ID":"VT-BN-7","Station_Nam":"MANCHESTER 2.8 ENE, VT","Latitude":"43.17274","Longitude":"-73.01811","Snowdepth":"12.000","Units":"in","Rept_Date":"2021-01-24 12"},"coordinates":[5684,4692]},{"type":"Point","properties":{"Station_ID":"SSMM4","Station_Nam":"SAULT STE MARIE","Latitude":"46.48660","Longitude":"-84.40250","Snowdepth":"12.000","Units":"in","Rept_Date":"2021-01-24 13"},"coordinates":[3013,6748]},{"type":"Point","properties":{"Station_ID":"RANM1","Station_Nam":"RANGELEY","Latitude":"44.98910","Longitude":"-70.67190","Snowdepth":"12.000","Units":"in","Rept_Date":"2021-01-24 13"},"coordinates":[6235,5819]},{"type":"Point","properties":{"Station_ID":"PTBN3","Station_Nam":"PITTSBURG RESERVOIR","Latitude":"45.04690","Longitude":"-71.38300","Snowdepth":"12.000","Units":"in","Rept_Date":"2021-01-24 12"},"coordinates":[6068,5854]},{"type":"Point","properties":{"Station_ID":"PRDM4","Station_Nam":"PARADISE","Latitude":"46.60380","Longitude":"-85.03960","Snowdepth":"12.000","Units":"in","Rept_Date":"2021-01-24 12"},"coordinates":[2863,6820]},{"type":"Point","properties":{"Station_ID":"PEKN6","Station_Nam":"PECK LAKE","Latitude":"43.11500","Longitude":"-74.42360","Snowdepth":"12.000","Units":"in","Rept_Date":"2021-01-24 12"},"coordinates":[5355,4656]},{"type":"Point","properties":{"Station_ID":"NVLV1","Station_Nam":"NASHVILLE","Latitude":"44.44970","Longitude":"-72.92640","Snowdepth":"12.000","Units":"in","Rept_Date":"2021-01-24 12"},"coordinates":[5706,5484]},{"type":"Point","properties":{"Station_ID":"MNPV1","Station_Nam":"MONTPELIER 2","Latitude":"44.25530","Longitude":"-72.60060","Snowdepth":"12.000","Units":"in","Rept_Date":"2021-01-24 12"},"coordinates":[5782,5363]},{"type":"Point","properties":{"Station_ID":"MN-SL-18","Station_Nam":"DULUTH 1.4 NNW, MN","Latitude":"46.80321","Longitude":"-92.11240","Snowdepth":"12.000","Units":"in","Rept_Date":"2021-01-24 14"},"coordinates":[1203,6944]},{"type":"Point","properties":{"Station_ID":"MN-SL-105","Station_Nam":"DULUTH 11.8 NNE, MN","Latitude":"46.94680","Longitude":"-92.03925","Snowdepth":"12.000","Units":"in","Rept_Date":"2021-01-24 14"},"coordinates":[1220,7033]},{"type":"Point","properties":{"Station_ID":"MN-HN-30","Station_Nam":"PLYMOUTH 2.4 ENE, MN","Latitude":"45.04063","Longitude":"-93.41950","Snowdepth":"12.000","Units":"in","Rept_Date":"2021-01-24 13"},"coordinates":[896,5851]},{"type":"Point","properties":{"Station_ID":"MN-CN-36","Station_Nam":"CLOQUET 3.4 ENE, MN","Latitude":"46.74146","Longitude":"-92.42698","Snowdepth":"12.000","Units":"in","Rept_Date":"2021-01-24 13"},"coordinates":[1129,6906]},{"type":"Point","properties":{"Station_ID":"MN-AA-76","Station_Nam":"NOWTHEN 2.9 SSE, MN","Latitude":"45.30360","Longitude":"-93.42620","Snowdepth":"12.000","Units":"in","Rept_Date":"2021-01-24 13"},"coordinates":[895,6014]},{"type":"Point","properties":{"Station_ID":"MIEM4","Station_Nam":"MICHIGAMME 3WNW","Latitude":"46.54530","Longitude":"-88.18000","Snowdepth":"12.000","Units":"in","Rept_Date":"2021-01-24 13"},"coordinates":[2126,6784]},{"type":"Point","properties":{"Station_ID":"MI-OT-4","Station_Nam":"GAYLORD 1.7 WNW, MI","Latitude":"45.03280","Longitude":"-84.71090","Snowdepth":"12.000","Units":"in","Rept_Date":"2021-01-24 13"},"coordinates":[2940,5846]},{"type":"Point","properties":{"Station_ID":"MI-OT-17","Station_Nam":"GAYLORD 4.1 S, MI","Latitude":"44.96388","Longitude":"-84.68467","Snowdepth":"12.000","Units":"in","Rept_Date":"2021-01-24 12"},"coordinates":[2946,5803]},{"type":"Point","properties":{"Station_ID":"ME-FR-2","Station_Nam":"TEMPLE 1.8 W, ME","Latitude":"44.68329","Longitude":"-70.26420","Snowdepth":"12.000","Units":"in","Rept_Date":"2021-01-24 12"},"coordinates":[6331,5629]},{"type":"Point","properties":{"Station_ID":"IL-SP-27","Station_Nam":"DAVIS 2.7 N, IL","Latitude":"42.46110","Longitude":"-89.40890","Snowdepth":"12.000","Units":"in","Rept_Date":"2021-01-24 13"},"coordinates":[1838,4250]},{"type":"Point","properties":{"Station_ID":"HUBN3","Station_Nam":"HUBBARD BROOK","Latitude":"43.93330","Longitude":"-71.71670","Snowdepth":"12.000","Units":"in","Rept_Date":"2021-01-25 05"},"coordinates":[5990,5164]},{"type":"Point","properties":{"Station_ID":"GAYM4","Station_Nam":"GAYLORD","Latitude":"45.03320","Longitude":"-84.71130","Snowdepth":"12.000","Units":"in","Rept_Date":"2021-01-24 13"},"coordinates":[2940,5846]},{"type":"Point","properties":{"Station_ID":"EAHV1","Station_Nam":"EAST HAVEN","Latitude":"44.64250","Longitude":"-71.89120","Snowdepth":"12.000","Units":"in","Rept_Date":"2021-01-24 12"},"coordinates":[5949,5604]},{"type":"Point","properties":{"Station_ID":"CAN-ON-42","Station_Nam":"VANKLEEK HILL 3.4 S, CA","Latitude":"45.48987","Longitude":"-74.64570","Snowdepth":"12.000","Units":"in","Rept_Date":"2021-01-24 12"},"coordinates":[5302,6129]},{"type":"Point","properties":{"Station_ID":"CAN-NB-13","Station_Nam":"BATHURST 3.8 NW, CAN","Latitude":"47.64212","Longitude":"-65.68756","Snowdepth":"12.000","Units":"in","Rept_Date":"2021-01-24 11"},"coordinates":[7405,7465]},{"type":"Point","properties":{"Station_ID":"BABM5","Station_Nam":"BABBITT","Latitude":"47.71210","Longitude":"-91.95330","Snowdepth":"12.000","Units":"in","Rept_Date":"2021-01-24 13"},"coordinates":[1240,7508]},{"type":"Point","properties":{"Station_ID":"ATAN6","Station_Nam":"ATTICA 7 SW","Latitude":"42.81070","Longitude":"-78.39790","Snowdepth":"12.000","Units":"in","Rept_Date":"2021-01-24 11"},"coordinates":[4422,4467]},{"type":"Point","properties":{"Station_ID":"WI-BY-29","Station_Nam":"BAYFIELD 5.1 NNW, WI","Latitude":"46.88063","Longitude":"-90.85854","Snowdepth":"11.500","Units":"in","Rept_Date":"2021-01-24 14"},"coordinates":[1497,6992]},{"type":"Point","properties":{"Station_ID":"VT-OL-9","Station_Nam":"GREENSBORO 2.1 NNW, VT","Latitude":"44.60528","Longitude":"-72.30940","Snowdepth":"11.500","Units":"in","Rept_Date":"2021-01-24 12"},"coordinates":[5851,5580]},{"type":"Point","properties":{"Station_ID":"MN-IT-23","Station_Nam":"BOVEY 13.4 N, MN","Latitude":"47.48855","Longitude":"-93.43497","Snowdepth":"11.500","Units":"in","Rept_Date":"2021-01-24 13"},"coordinates":[893,7369]},{"type":"Point","properties":{"Station_ID":"MN-IT-1","Station_Nam":"GRAND RAPIDS 2.0 E, MN","Latitude":"47.22266","Longitude":"-93.49600","Snowdepth":"11.500","Units":"in","Rept_Date":"2021-01-24 14"},"coordinates":[878,7204]},{"type":"Point","properties":{"Station_ID":"QTV","Station_Nam":"QTV","Latitude":"49.66000","Longitude":"-69.35690","Snowdepth":"11.260","Units":"in","Rept_Date":"2021-01-24 12"},"coordinates":[6544,8717]},{"type":"Point","properties":{"Station_ID":"WNNM5","Station_Nam":"WINNEBAGO","Latitude":"43.76920","Longitude":"-94.18730","Snowdepth":"11.000","Units":"in","Rept_Date":"2021-01-24 11"},"coordinates":[716,5062]},{"type":"Point","properties":{"Station_ID":"WI-VL-14","Station_Nam":"BOULDER JUNCTION 1.4 NE, WI","Latitude":"46.12840","Longitude":"-89.62470","Snowdepth":"11.000","Units":"in","Rept_Date":"2021-01-24 14"},"coordinates":[1787,6525]},{"type":"Point","properties":{"Station_ID":"WI-PR-6","Station_Nam":"PHILLIPS 1.3 S, WI","Latitude":"45.67677","Longitude":"-90.39543","Snowdepth":"11.000","Units":"in","Rept_Date":"2021-01-24 12"},"coordinates":[1606,6245]},{"type":"Point","properties":{"Station_ID":"WI-BY-30","Station_Nam":"WASHBURN 1.1 NW, WI","Latitude":"46.68430","Longitude":"-90.91057","Snowdepth":"11.000","Units":"in","Rept_Date":"2021-01-24 14"},"coordinates":[1485,6870]},{"type":"Point","properties":{"Station_ID":"VT-CL-14","Station_Nam":"LYNDONVILLE 1.1 W, VT","Latitude":"44.53582","Longitude":"-72.02867","Snowdepth":"11.000","Units":"in","Rept_Date":"2021-01-24 13"},"coordinates":[5917,5537]},{"type":"Point","properties":{"Station_ID":"PDGM4","Station_Nam":"PAULDING","Latitude":"46.39760","Longitude":"-89.17940","Snowdepth":"11.000","Units":"in","Rept_Date":"2021-01-24 13"},"coordinates":[1891,6693]},{"type":"Point","properties":{"Station_ID":"NY-OG-12","Station_Nam":"CLAY 4.6 NW, NY","Latitude":"43.20000","Longitude":"-76.26000","Snowdepth":"11.000","Units":"in","Rept_Date":"2021-01-24 12"},"coordinates":[4924,4709]},{"type":"Point","properties":{"Station_ID":"NUMN3","Station_Nam":"NORTHUMBERLAND","Latitude":"44.52830","Longitude":"-71.50440","Snowdepth":"11.000","Units":"in","Rept_Date":"2021-01-24 13"},"coordinates":[6040,5533]},{"type":"Point","properties":{"Station_ID":"NH-MR-41","Station_Nam":"NEWBURY 1.6 NW, NH","Latitude":"43.33667","Longitude":"-72.06060","Snowdepth":"11.000","Units":"in","Rept_Date":"2021-01-24 12"},"coordinates":[5909,4793]},{"type":"Point","properties":{"Station_ID":"NH-CR-26","Station_Nam":"CENTER SANDWICH 4.9 E, NH","Latitude":"43.80976","Longitude":"-71.34150","Snowdepth":"11.000","Units":"in","Rept_Date":"2021-01-24 12"},"coordinates":[6078,5087]},{"type":"Point","properties":{"Station_ID":"MONW3","Station_Nam":"MONROE,WI","Latitude":"42.60000","Longitude":"-89.66670","Snowdepth":"11.000","Units":"in","Rept_Date":"2021-01-24 13"},"coordinates":[1777,4336]},{"type":"Point","properties":{"Station_ID":"MN-WR-35","Station_Nam":"OTSEGO 2.1 WSW, MN","Latitude":"45.25359","Longitude":"-93.65920","Snowdepth":"11.000","Units":"in","Rept_Date":"2021-01-24 12"},"coordinates":[840,5983]},{"type":"Point","properties":{"Station_ID":"MN-WG-74","Station_Nam":"OAKDALE 0.4 S, MN","Latitude":"44.98208","Longitude":"-92.96510","Snowdepth":"11.000","Units":"in","Rept_Date":"2021-01-24 13"},"coordinates":[1003,5814]},{"type":"Point","properties":{"Station_ID":"MN-HN-5","Station_Nam":"NEW HOPE 1.9 S, MN","Latitude":"45.01000","Longitude":"-93.37920","Snowdepth":"11.000","Units":"in","Rept_Date":"2021-01-24 18"},"coordinates":[906,5832]},{"type":"Point","properties":{"Station_ID":"MN-BM-15","Station_Nam":"BEMIDJI 7.8 ENE, MN","Latitude":"47.52043","Longitude":"-94.72121","Snowdepth":"11.000","Units":"in","Rept_Date":"2021-01-24 13"},"coordinates":[591,7389]},{"type":"Point","properties":{"Station_ID":"MI-OG-6","Station_Nam":"WEST BRANCH 2.1 SSW, MI","Latitude":"44.24814","Longitude":"-84.25089","Snowdepth":"11.000","Units":"in","Rept_Date":"2021-01-24 12"},"coordinates":[3048,5359]},{"type":"Point","properties":{"Station_ID":"MI-MQ-19","Station_Nam":"ISHPEMING 7.2 SW, MI","Latitude":"46.40550","Longitude":"-87.75670","Snowdepth":"11.000","Units":"in","Rept_Date":"2021-01-24 11"},"coordinates":[2225,6697]},{"type":"Point","properties":{"Station_ID":"LVDW3","Station_Nam":"LAC VIEUX DESERT","Latitude":"46.12110","Longitude":"-89.07580","Snowdepth":"11.000","Units":"in","Rept_Date":"2021-01-24 14"},"coordinates":[1916,6521]},{"type":"Point","properties":{"Station_ID":"KGTB","Station_Nam":"FORT DRUM / WHEELER-SACK U. S. ARMY AIRFIELD","Latitude":"44.05000","Longitude":"-75.73333","Snowdepth":"11.000","Units":"in","Rept_Date":"2021-01-25 06"},"coordinates":[5047,5236]},{"type":"Point","properties":{"Station_ID":"KBTV","Station_Nam":"BURLINGTON INTERNATIONAL","Latitude":"44.46666","Longitude":"-73.15000","Snowdepth":"11.000","Units":"in","Rept_Date":"2021-01-24 18"},"coordinates":[5653,5494]},{"type":"Point","properties":{"Station_ID":"ISLV1","Station_Nam":"ISLAND POND","Latitude":"44.81280","Longitude":"-71.89020","Snowdepth":"11.000","Units":"in","Rept_Date":"2021-01-24 14"},"coordinates":[5949,5709]},{"type":"Point","properties":{"Station_ID":"GNFM5","Station_Nam":"GUNFLINT LAKE","Latitude":"48.16670","Longitude":"-90.88750","Snowdepth":"11.000","Units":"in","Rept_Date":"2021-01-24 13"},"coordinates":[1491,7790]},{"type":"Point","properties":{"Station_ID":"ESDN3","Station_Nam":"EAST SANDWICH","Latitude":"43.80990","Longitude":"-71.34250","Snowdepth":"11.000","Units":"in","Rept_Date":"2021-01-24 11"},"coordinates":[6078,5087]},{"type":"Point","properties":{"Station_ID":"COKM5","Station_Nam":"COOK","Latitude":"47.85060","Longitude":"-92.69250","Snowdepth":"11.000","Units":"in","Rept_Date":"2021-01-24 12"},"coordinates":[1067,7594]},{"type":"Point","properties":{"Station_ID":"BTV","Station_Nam":"BURLINGTON, VT","Latitude":"44.47140","Longitude":"-73.15330","Snowdepth":"11.000","Units":"in","Rept_Date":"2021-01-25 01"},"coordinates":[5653,5497]},{"type":"Point","properties":{"Station_ID":"BRAM1","Station_Nam":"BRASSUA DAM","Latitude":"45.66020","Longitude":"-69.81190","Snowdepth":"11.000","Units":"in","Rept_Date":"2021-01-24 12"},"coordinates":[6437,6235]},{"type":"Point","properties":{"Station_ID":"42.0800_080.0143","Station_Nam":"ERIE 5SE  SNOW SPOTTER (X4210800)","Latitude":"42.08000","Longitude":"-80.01430","Snowdepth":"11.000","Units":"in","Rept_Date":"2021-01-25 00"},"coordinates":[4042,4014]},{"type":"Point","properties":{"Station_ID":"CAN-ON-452","Station_Nam":"CHATSWORTH 1.8 ENE - GSCA, CAN","Latitude":"44.46118","Longitude":"-80.87506","Snowdepth":"10.600","Units":"in","Rept_Date":"2021-01-24 12"},"coordinates":[3840,5491]},{"type":"Point","properties":{"Station_ID":"CAN-NB-105","Station_Nam":"SISSON BROOK 3.8 E, CAN","Latitude":"46.98305","Longitude":"-67.32532","Snowdepth":"10.600","Units":"in","Rept_Date":"2021-01-24 12"},"coordinates":[7020,7056]},{"type":"Point","properties":{"Station_ID":"WI-BY-6","Station_Nam":"BARNES 2.2 S, WI","Latitude":"46.30264","Longitude":"-91.50320","Snowdepth":"10.500","Units":"in","Rept_Date":"2021-01-24 13"},"coordinates":[1346,6634]},{"type":"Point","properties":{"Station_ID":"NY-SR-22","Station_Nam":"GREENFIELD CENTER 1.6 W, NY","Latitude":"43.12684","Longitude":"-73.87860","Snowdepth":"10.500","Units":"in","Rept_Date":"2021-01-24 13"},"coordinates":[5482,4663]},{"type":"Point","properties":{"Station_ID":"NH-CS-19","Station_Nam":"CARROLL 4.6 NE, NH","Latitude":"44.33765","Longitude":"-71.46461","Snowdepth":"10.500","Units":"in","Rept_Date":"2021-01-24 12"},"coordinates":[6049,5414]},{"type":"Point","properties":{"Station_ID":"MN-SH-34","Station_Nam":"ZIMMERMAN 0.9 NNE, MN","Latitude":"45.45470","Longitude":"-93.59166","Snowdepth":"10.500","Units":"in","Rept_Date":"2021-01-24 12"},"coordinates":[856,6108]},{"type":"Point","properties":{"Station_ID":"MN-CW-8","Station_Nam":"BRAINERD 11.5 E, MN","Latitude":"46.38556","Longitude":"-93.95720","Snowdepth":"10.500","Units":"in","Rept_Date":"2021-01-24 14"},"coordinates":[770,6685]},{"type":"Point","properties":{"Station_ID":"CAN-ON-771","Station_Nam":"KENORA 8.7 NNE - CANWARN, CAN","Latitude":"49.84171","Longitude":"-94.44386","Snowdepth":"10.500","Units":"in","Rept_Date":"2021-01-24 14"},"coordinates":[656,8829]},{"type":"Point","properties":{"Station_ID":"WTRM4","Station_Nam":"WATERSMEET 12WSW","Latitude":"46.22310","Longitude":"-89.40850","Snowdepth":"10.000","Units":"in","Rept_Date":"2021-01-24 12"},"coordinates":[1838,6584]},{"type":"Point","properties":{"Station_ID":"WLDM5","Station_Nam":"WILD RIVER STATE PARK","Latitude":"45.52310","Longitude":"-92.74890","Snowdepth":"10.000","Units":"in","Rept_Date":"2021-01-24 14"},"coordinates":[1054,6150]},{"type":"Point","properties":{"Station_ID":"WI-PR-8","Station_Nam":"PHILLIPS 0.4 SSW, WI","Latitude":"45.69086","Longitude":"-90.40200","Snowdepth":"10.000","Units":"in","Rept_Date":"2021-01-24 13"},"coordinates":[1605,6254]},{"type":"Point","properties":{"Station_ID":"WI-PK-4","Station_Nam":"DRESSER 6.1 ESE, WI","Latitude":"45.32436","Longitude":"-92.52080","Snowdepth":"10.000","Units":"in","Rept_Date":"2021-01-24 14"},"coordinates":[1107,6027]},{"type":"Point","properties":{"Station_ID":"WI-BT-14","Station_Nam":"OAKLAND 9.0 ENE, WI","Latitude":"45.95184","Longitude":"-92.21653","Snowdepth":"10.000","Units":"in","Rept_Date":"2021-01-24 13"},"coordinates":[1179,6416]},{"type":"Point","properties":{"Station_ID":"WDOM5","Station_Nam":"WINDOM","Latitude":"43.87700","Longitude":"-95.11590","Snowdepth":"10.000","Units":"in","Rept_Date":"2021-01-24 14"},"coordinates":[498,5129]},{"type":"Point","properties":{"Station_ID":"VT-LM-1","Station_Nam":"STOWE 0.2 SW, VT","Latitude":"44.46399","Longitude":"-72.69070","Snowdepth":"10.000","Units":"in","Rept_Date":"2021-01-24 12"},"coordinates":[5761,5493]},{"type":"Point","properties":{"Station_ID":"VT-CH-38","Station_Nam":"WILLISTON 0.2 WSW, VT","Latitude":"44.43669","Longitude":"-73.07154","Snowdepth":"10.000","Units":"in","Rept_Date":"2021-01-24 12"},"coordinates":[5672,5476]},{"type":"Point","properties":{"Station_ID":"STMM4","Station_Nam":"STAMBAUGH 2SSE","Latitude":"46.05550","Longitude":"-88.62780","Snowdepth":"10.000","Units":"in","Rept_Date":"2021-01-24 13"},"coordinates":[2021,6480]},{"type":"Point","properties":{"Station_ID":"SRAW3","Station_Nam":"SARONA","Latitude":"45.80250","Longitude":"-91.86700","Snowdepth":"10.000","Units":"in","Rept_Date":"2021-01-24 14"},"coordinates":[1261,6323]},{"type":"Point","properties":{"Station_ID":"RLKW3","Station_Nam":"REST LAKE","Latitude":"46.12220","Longitude":"-89.87720","Snowdepth":"10.000","Units":"in","Rept_Date":"2021-01-24 14"},"coordinates":[1728,6522]},{"type":"Point","properties":{"Station_ID":"PLFV1","Station_Nam":"PLAINFIELD","Latitude":"44.27610","Longitude":"-72.41500","Snowdepth":"10.000","Units":"in","Rept_Date":"2021-01-24 12"},"coordinates":[5826,5376]},{"type":"Point","properties":{"Station_ID":"PHEW3","Station_Nam":"PHELPS","Latitude":"46.06630","Longitude":"-89.07520","Snowdepth":"10.000","Units":"in","Rept_Date":"2021-01-24 13"},"coordinates":[1916,6487]},{"type":"Point","properties":{"Station_ID":"NY-OT-11","Station_Nam":"HARTWICK, NY","Latitude":"42.65990","Longitude":"-75.05000","Snowdepth":"10.000","Units":"in","Rept_Date":"2021-01-24 15"},"coordinates":[5208,4374]},{"type":"Point","properties":{"Station_ID":"NY-OG-61","Station_Nam":"SKANEATELES 0.8 NNW, NY","Latitude":"42.95538","Longitude":"-76.43362","Snowdepth":"10.000","Units":"in","Rept_Date":"2021-01-24 12"},"coordinates":[4883,4557]},{"type":"Point","properties":{"Station_ID":"NY-OG-10","Station_Nam":"CAMILLUS 1.0 W, NY","Latitude":"43.03962","Longitude":"-76.32830","Snowdepth":"10.000","Units":"in","Rept_Date":"2021-01-24 12"},"coordinates":[4908,4609]},{"type":"Point","properties":{"Station_ID":"NY-GR-14","Station_Nam":"LEXINGTON 1.5 N, NY","Latitude":"42.26024","Longitude":"-74.35875","Snowdepth":"10.000","Units":"in","Rept_Date":"2021-01-24 12"},"coordinates":[5370,4126]},{"type":"Point","properties":{"Station_ID":"NY-CR-5","Station_Nam":"MARATHON 1.0 NW, NY","Latitude":"42.45161","Longitude":"-76.04370","Snowdepth":"10.000","Units":"in","Rept_Date":"2021-01-24 12"},"coordinates":[4974,4244]},{"type":"Point","properties":{"Station_ID":"NY-CR-1","Station_Nam":"FREETOWN 1.0 NE, NY","Latitude":"42.53299","Longitude":"-76.02111","Snowdepth":"10.000","Units":"in","Rept_Date":"2021-01-24 12"},"coordinates":[4980,4295]},{"type":"Point","properties":{"Station_ID":"NY-CQ-22","Station_Nam":"FREDONIA 0.8 WNW, NY","Latitude":"42.44414","Longitude":"-79.34610","Snowdepth":"10.000","Units":"in","Rept_Date":"2021-01-24 10"},"coordinates":[4199,4240]},{"type":"Point","properties":{"Station_ID":"NPTV1","Station_Nam":"NEWPORT","Latitude":"44.94900","Longitude":"-72.19120","Snowdepth":"10.000","Units":"in","Rept_Date":"2021-01-24 12"},"coordinates":[5878,5794]},{"type":"Point","properties":{"Station_ID":"NH-MR-60","Station_Nam":"SOUTH SUTTON 1.3 SE, NH","Latitude":"43.29531","Longitude":"-71.90238","Snowdepth":"10.000","Units":"in","Rept_Date":"2021-01-24 13"},"coordinates":[5946,4768]},{"type":"Point","properties":{"Station_ID":"NALN6","Station_Nam":"CATTARAUGUS","Latitude":"42.32450","Longitude":"-78.86700","Snowdepth":"10.000","Units":"in","Rept_Date":"2021-01-24 13"},"coordinates":[4312,4165]},{"type":"Point","properties":{"Station_ID":"MSP","Station_Nam":"MINNEAPOLIS-ST PAUL INTL AP","Latitude":"44.88310","Longitude":"-93.22890","Snowdepth":"10.000","Units":"in","Rept_Date":"2021-01-25 00"},"coordinates":[941,5753]},{"type":"Point","properties":{"Station_ID":"MN-SL-115","Station_Nam":"COTTON 5.7 ESE, MN","Latitude":"47.15142","Longitude":"-92.35772","Snowdepth":"10.000","Units":"in","Rept_Date":"2021-01-24 14"},"coordinates":[1146,7160]},{"type":"Point","properties":{"Station_ID":"MN-RM-2","Station_Nam":"NORTH SAINT PAUL 1.0 NNW, MN","Latitude":"45.02629","Longitude":"-93.00790","Snowdepth":"10.000","Units":"in","Rept_Date":"2021-01-24 13"},"coordinates":[993,5842]},{"type":"Point","properties":{"Station_ID":"MN-KB-17","Station_Nam":"MORA 2.5 S, MN","Latitude":"45.84100","Longitude":"-93.29700","Snowdepth":"10.000","Units":"in","Rept_Date":"2021-01-24 13"},"coordinates":[925,6347]},{"type":"Point","properties":{"Station_ID":"MN-HN-78","Station_Nam":"RICHFIELD 1.9 WNW, MN","Latitude":"44.89129","Longitude":"-93.31410","Snowdepth":"10.000","Units":"in","Rept_Date":"2021-01-24 11"},"coordinates":[921,5758]},{"type":"Point","properties":{"Station_ID":"MN-HN-6","Station_Nam":"LONG LAKE 0.2 WSW, MN","Latitude":"44.98290","Longitude":"-93.57360","Snowdepth":"10.000","Units":"in","Rept_Date":"2021-01-24 13"},"coordinates":[860,5815]},{"type":"Point","properties":{"Station_ID":"MN-HN-298","Station_Nam":"EXCELSIOR 1.8 W, MN","Latitude":"44.89722","Longitude":"-93.60286","Snowdepth":"10.000","Units":"in","Rept_Date":"2021-01-24 13"},"coordinates":[853,5762]},{"type":"Point","properties":{"Station_ID":"MN-CW-22","Station_Nam":"FORT RIPLEY 0.8 N, MN","Latitude":"46.18089","Longitude":"-94.36510","Snowdepth":"10.000","Units":"in","Rept_Date":"2021-01-24 13"},"coordinates":[674,6558]},{"type":"Point","properties":{"Station_ID":"MN-CV-8","Station_Nam":"WATERTOWN 0.5 NNW, MN","Latitude":"44.96631","Longitude":"-93.84890","Snowdepth":"10.000","Units":"in","Rept_Date":"2021-01-24 11"},"coordinates":[796,5804]},{"type":"Point","properties":{"Station_ID":"MN-CV-22","Station_Nam":"VICTORIA 1.6 WSW, MN","Latitude":"44.85670","Longitude":"-93.68640","Snowdepth":"10.000","Units":"in","Rept_Date":"2021-01-24 13"},"coordinates":[834,5736]},{"type":"Point","properties":{"Station_ID":"MN-BU-37","Station_Nam":"MANKATO 3.3 SSW, MN","Latitude":"44.12777","Longitude":"-94.00596","Snowdepth":"10.000","Units":"in","Rept_Date":"2021-01-24 14"},"coordinates":[759,5284]},{"type":"Point","properties":{"Station_ID":"MN-BK-6","Station_Nam":"LAKE PARK 6.0 S, MN","Latitude":"46.79850","Longitude":"-96.12180","Snowdepth":"10.000","Units":"in","Rept_Date":"2021-01-24 13"},"coordinates":[262,6941]},{"type":"Point","properties":{"Station_ID":"MN-AT-5","Station_Nam":"TAMARACK 1.4 SW, MN","Latitude":"46.63760","Longitude":"-93.14554","Snowdepth":"10.000","Units":"in","Rept_Date":"2021-01-24 11"},"coordinates":[961,6841]},{"type":"Point","properties":{"Station_ID":"MI-OT-16","Station_Nam":"GAYLORD 2.2 SSE, MI","Latitude":"44.99441","Longitude":"-84.65820","Snowdepth":"10.000","Units":"in","Rept_Date":"2021-01-24 13"},"coordinates":[2953,5822]},{"type":"Point","properties":{"Station_ID":"MI-MQ-28","Station_Nam":"CARLSHEND, MI","Latitude":"46.31638","Longitude":"-87.19944","Snowdepth":"10.000","Units":"in","Rept_Date":"2021-01-24 13"},"coordinates":[2356,6642]},{"type":"Point","properties":{"Station_ID":"MI-AG-6","Station_Nam":"MUNISING 11.1 SSW, MI","Latitude":"46.27805","Longitude":"-86.75747","Snowdepth":"10.000","Units":"in","Rept_Date":"2021-01-24 12"},"coordinates":[2460,6618]},{"type":"Point","properties":{"Station_ID":"ME-AR-15","Station_Nam":"PRESQUE ISLE 1.3 WSW, ME","Latitude":"46.67960","Longitude":"-68.01270","Snowdepth":"10.000","Units":"in","Rept_Date":"2021-01-24 14"},"coordinates":[6859,6867]},{"type":"Point","properties":{"Station_ID":"LUCW3","Station_Nam":"LUCK","Latitude":"45.57330","Longitude":"-92.48520","Snowdepth":"10.000","Units":"in","Rept_Date":"2021-01-24 16"},"coordinates":[1116,6181]},{"type":"Point","properties":{"Station_ID":"LAUP1","Station_Nam":"1.5MI S OF RT 30 ON SMIT (LAUREL RIDGE)","Latitude":"40.05000","Longitude":"-79.22060","Snowdepth":"10.000","Units":"in","Rept_Date":"2021-01-24 12"},"coordinates":[4229,2754]},{"type":"Point","properties":{"Station_ID":"KMSP","Station_Nam":"MINNEAPOLIS-ST PAUL INTERNATIONAL","Latitude":"44.86666","Longitude":"-93.21666","Snowdepth":"10.000","Units":"in","Rept_Date":"2021-01-25 06"},"coordinates":[944,5743]},{"type":"Point","properties":{"Station_ID":"KISM4","Station_Nam":"K.I. SAWYER WWTP","Latitude":"46.33410","Longitude":"-87.37790","Snowdepth":"10.000","Units":"in","Rept_Date":"2021-01-24 13"},"coordinates":[2314,6653]},{"type":"Point","properties":{"Station_ID":"KINM1","Station_Nam":"KINGFIELD","Latitude":"44.95950","Longitude":"-70.17530","Snowdepth":"10.000","Units":"in","Rept_Date":"2021-01-24 14"},"coordinates":[6352,5800]},{"type":"Point","properties":{"Station_ID":"JCBM4","Station_Nam":"JACOBSVILLE","Latitude":"47.00830","Longitude":"-88.43180","Snowdepth":"10.000","Units":"in","Rept_Date":"2021-01-24 12"},"coordinates":[2067,7071]},{"type":"Point","properties":{"Station_ID":"ISEM5","Station_Nam":"ISLE 12N","Latitude":"46.31970","Longitude":"-93.50140","Snowdepth":"10.000","Units":"in","Rept_Date":"2021-01-24 14"},"coordinates":[877,6644]},{"type":"Point","properties":{"Station_ID":"HVJP1","Station_Nam":"HIDDEN VALLEY COOP","Latitude":"40.04200","Longitude":"-79.25660","Snowdepth":"10.000","Units":"in","Rept_Date":"2021-01-24 13"},"coordinates":[4220,2749]},{"type":"Point","properties":{"Station_ID":"HSTM5","Station_Nam":"HASTINGS DAM 2","Latitude":"44.75970","Longitude":"-92.86890","Snowdepth":"10.000","Units":"in","Rept_Date":"2021-01-24 13"},"coordinates":[1026,5676]},{"type":"Point","properties":{"Station_ID":"FORM5","Station_Nam":"FOREST LAKE 5NE","Latitude":"45.33170","Longitude":"-92.89820","Snowdepth":"10.000","Units":"in","Rept_Date":"2021-01-24 13"},"coordinates":[1019,6031]},{"type":"Point","properties":{"Station_ID":"FISM1","Station_Nam":"FORT KENT COOP","Latitude":"47.23850","Longitude":"-68.61240","Snowdepth":"10.000","Units":"in","Rept_Date":"2021-01-24 12"},"coordinates":[6718,7214]},{"type":"Point","properties":{"Station_ID":"EVRW3","Station_Nam":"EAGLE RIVER-4 E","Latitude":"45.91890","Longitude":"-89.15280","Snowdepth":"10.000","Units":"in","Rept_Date":"2021-01-24 13"},"coordinates":[1898,6396]},{"type":"Point","properties":{"Station_ID":"ENFV1","Station_Nam":"ENOSBURG FALLS 2","Latitude":"44.90960","Longitude":"-72.81370","Snowdepth":"10.000","Units":"in","Rept_Date":"2021-01-24 12"},"coordinates":[5732,5769]},{"type":"Point","properties":{"Station_ID":"EGRW3","Station_Nam":"EAGLE RIVER-SOUTH","Latitude":"45.91360","Longitude":"-89.24360","Snowdepth":"10.000","Units":"in","Rept_Date":"2021-01-24 13"},"coordinates":[1876,6392]},{"type":"Point","properties":{"Station_ID":"DLHM5","Station_Nam":"DULUTH NWS","Latitude":"46.83680","Longitude":"-92.21080","Snowdepth":"10.000","Units":"in","Rept_Date":"2021-01-25 06"},"coordinates":[1180,6965]},{"type":"Point","properties":{"Station_ID":"DLH","Station_Nam":"DULUTH, MN","Latitude":"46.83690","Longitude":"-92.21030","Snowdepth":"10.000","Units":"in","Rept_Date":"2021-01-25 01"},"coordinates":[1180,6965]},{"type":"Point","properties":{"Station_ID":"CORV1","Station_Nam":"CORINTH","Latitude":"44.00690","Longitude":"-72.31940","Snowdepth":"10.000","Units":"in","Rept_Date":"2021-01-24 12"},"coordinates":[5848,5209]},{"type":"Point","properties":{"Station_ID":"CNRM1","Station_Nam":"CONNOR TWP","Latitude":"46.95830","Longitude":"-68.03330","Snowdepth":"10.000","Units":"in","Rept_Date":"2021-01-24 12"},"coordinates":[6854,7040]},{"type":"Point","properties":{"Station_ID":"CAN-ON-118","Station_Nam":"DURHAM 1.4 S, CAN","Latitude":"44.16525","Longitude":"-80.82064","Snowdepth":"10.000","Units":"in","Rept_Date":"2021-01-24 12"},"coordinates":[3853,5307]},{"type":"Point","properties":{"Station_ID":"CAAW2","Station_Nam":"CANAAN VALLEY","Latitude":"39.05890","Longitude":"-79.44030","Snowdepth":"10.000","Units":"in","Rept_Date":"2021-01-24 14"},"coordinates":[4177,2139]},{"type":"Point","properties":{"Station_ID":"BWTN6","Station_Nam":"BREWERTON LOCK 23","Latitude":"43.23860","Longitude":"-76.19640","Snowdepth":"10.000","Units":"in","Rept_Date":"2021-01-24 12"},"coordinates":[4938,4733]},{"type":"Point","properties":{"Station_ID":"QIQ","Station_Nam":"QIQ","Latitude":"49.82390","Longitude":"-68.54310","Snowdepth":"9.842","Units":"in","Rept_Date":"2021-01-24 12"},"coordinates":[6735,8818]},{"type":"Point","properties":{"Station_ID":"CAN-NS-177","Station_Nam":"NEWCOMBVILLE 5.2 SSW, CAN","Latitude":"44.33851","Longitude":"-64.65026","Snowdepth":"9.800","Units":"in","Rept_Date":"2021-01-24 11"},"coordinates":[7648,5415]},{"type":"Point","properties":{"Station_ID":"QLM","Station_Nam":"QLM","Latitude":"48.92030","Longitude":"-70.25280","Snowdepth":"9.567","Units":"in","Rept_Date":"2021-01-24 12"},"coordinates":[6333,8258]},{"type":"Point","properties":{"Station_ID":"WI-WB-16","Station_Nam":"SARONA 4.5 NNE, WI","Latitude":"45.77030","Longitude":"-91.76890","Snowdepth":"9.500","Units":"in","Rept_Date":"2021-01-24 13"},"coordinates":[1284,6303]},{"type":"Point","properties":{"Station_ID":"PA-PT-2","Station_Nam":"ROULETTE 1.8 NNE, PA","Latitude":"41.80759","Longitude":"-78.14140","Snowdepth":"9.500","Units":"in","Rept_Date":"2021-01-24 12"},"coordinates":[4482,3845]},{"type":"Point","properties":{"Station_ID":"MN-WR-25","Station_Nam":"SAINT MICHAEL 2.0 ENE, MN","Latitude":"45.20820","Longitude":"-93.65280","Snowdepth":"9.500","Units":"in","Rept_Date":"2021-01-24 12"},"coordinates":[842,5955]},{"type":"Point","properties":{"Station_ID":"MN-RM-120","Station_Nam":"MAPLEWOOD 5.6 SSE, MN","Latitude":"44.90588","Longitude":"-92.99712","Snowdepth":"9.500","Units":"in","Rept_Date":"2021-01-24 15"},"coordinates":[995,5767]},{"type":"Point","properties":{"Station_ID":"MN-HN-31","Station_Nam":"MAPLE GROVE 1.0 NNE, MN","Latitude":"45.12261","Longitude":"-93.45790","Snowdepth":"9.500","Units":"in","Rept_Date":"2021-01-24 16"},"coordinates":[887,5901]},{"type":"Point","properties":{"Station_ID":"MN-HN-267","Station_Nam":"MINNEAPOLIS 2.5 SE, MN","Latitude":"44.93331","Longitude":"-93.23680","Snowdepth":"9.500","Units":"in","Rept_Date":"2021-01-24 13"},"coordinates":[939,5784]},{"type":"Point","properties":{"Station_ID":"MN-CW-54","Station_Nam":"AITKIN 9.6 W, MN","Latitude":"46.53711","Longitude":"-93.90688","Snowdepth":"9.500","Units":"in","Rept_Date":"2021-01-24 14"},"coordinates":[782,6779]},{"type":"Point","properties":{"Station_ID":"MN-CW-44","Station_Nam":"CROSBY 1.1 SW, MN","Latitude":"46.47772","Longitude":"-93.97293","Snowdepth":"9.500","Units":"in","Rept_Date":"2021-01-24 14"},"coordinates":[766,6742]},{"type":"Point","properties":{"Station_ID":"MA-HS-7","Station_Nam":"PLAINFIELD 2.2 SW, MA","Latitude":"42.49272","Longitude":"-72.94540","Snowdepth":"9.500","Units":"in","Rept_Date":"2021-01-24 13"},"coordinates":[5701,4270]},{"type":"Point","properties":{"Station_ID":"IL-CR-12","Station_Nam":"MOUNT CARROLL 6.8 NNW, IL","Latitude":"42.18735","Longitude":"-90.02185","Snowdepth":"9.500","Units":"in","Rept_Date":"2021-01-24 13"},"coordinates":[1694,4080]},{"type":"Point","properties":{"Station_ID":"CAN-ON-5","Station_Nam":"OWEN SOUND 1.5 NW - GSCA, CAN","Latitude":"44.57837","Longitude":"-80.95461","Snowdepth":"9.500","Units":"in","Rept_Date":"2021-01-24 13"},"coordinates":[3822,5564]},{"type":"Point","properties":{"Station_ID":"CAN-NB-11","Station_Nam":"MIRAMICHI 3.3 S, CAN","Latitude":"46.99343","Longitude":"-65.50690","Snowdepth":"9.500","Units":"in","Rept_Date":"2021-01-24 12"},"coordinates":[7447,7062]},{"type":"Point","properties":{"Station_ID":"MN-HN-19","Station_Nam":"EDINA 1.3 SW, MN","Latitude":"44.87830","Longitude":"-93.37890","Snowdepth":"9.400","Units":"in","Rept_Date":"2021-01-24 13"},"coordinates":[906,5750]},{"type":"Point","properties":{"Station_ID":"HPN09_MADIS","Station_Nam":"PLYMOUTH","Latitude":"44.98992","Longitude":"-93.47910","Snowdepth":"9.300","Units":"in","Rept_Date":"2021-01-25 06"},"coordinates":[882,5819]},{"type":"Point","properties":{"Station_ID":"HPN08_MADIS","Station_Nam":"ORONO","Latitude":"44.93630","Longitude":"-93.62000","Snowdepth":"9.300","Units":"in","Rept_Date":"2021-01-25 06"},"coordinates":[849,5786]},{"type":"Point","properties":{"Station_ID":"HPN20_MADIS","Station_Nam":"HOPKINS","Latitude":"44.95556","Longitude":"-93.41140","Snowdepth":"9.100","Units":"in","Rept_Date":"2021-01-25 06"},"coordinates":[898,5798]},{"type":"Point","properties":{"Station_ID":"WYON6","Station_Nam":"WYOMING 3W","Latitude":"42.82020","Longitude":"-78.14780","Snowdepth":"9.000","Units":"in","Rept_Date":"2021-01-24 12"},"coordinates":[4480,4473]},{"type":"Point","properties":{"Station_ID":"WSFW3","Station_Nam":"TOWN OF WESTFORD","Latitude":"43.47190","Longitude":"-88.88250","Snowdepth":"9.000","Units":"in","Rept_Date":"2021-01-24 13"},"coordinates":[1961,4877]},{"type":"Point","properties":{"Station_ID":"WRUM5","Station_Nam":"WARROAD 4W","Latitude":"48.89600","Longitude":"-95.40700","Snowdepth":"9.000","Units":"in","Rept_Date":"2021-01-25 04"},"coordinates":[430,8243]},{"type":"Point","properties":{"Station_ID":"WI-PK-24","Station_Nam":"ST. CROIX FALLS 0.7 S, WI","Latitude":"45.39944","Longitude":"-92.63274","Snowdepth":"9.000","Units":"in","Rept_Date":"2021-01-24 13"},"coordinates":[1081,6073]},{"type":"Point","properties":{"Station_ID":"WI-PC-10","Station_Nam":"RIVER FALLS 1.4 S, WI","Latitude":"44.83580","Longitude":"-92.62100","Snowdepth":"9.000","Units":"in","Rept_Date":"2021-01-24 13"},"coordinates":[1084,5724]},{"type":"Point","properties":{"Station_ID":"VT-OL-24","Station_Nam":"DERBY LINE 1.9 W, VT","Latitude":"45.00454","Longitude":"-72.14170","Snowdepth":"9.000","Units":"in","Rept_Date":"2021-01-24 12"},"coordinates":[5890,5828]},{"type":"Point","properties":{"Station_ID":"VT-AD-28","Station_Nam":"MONKTON 1.5 NE, VT","Latitude":"44.26760","Longitude":"-73.09940","Snowdepth":"9.000","Units":"in","Rept_Date":"2021-01-24 13"},"coordinates":[5665,5371]},{"type":"Point","properties":{"Station_ID":"UMNM5","Station_Nam":"UNIVERSITY OF MN ST. PAUL","Latitude":"44.99020","Longitude":"-93.17990","Snowdepth":"9.000","Units":"in","Rept_Date":"2021-01-24 14"},"coordinates":[953,5819]},{"type":"Point","properties":{"Station_ID":"STGW3","Station_Nam":"ST GERMAIN","Latitude":"45.91550","Longitude":"-89.48940","Snowdepth":"9.000","Units":"in","Rept_Date":"2021-01-24 12"},"coordinates":[1819,6393]},{"type":"Point","properties":{"Station_ID":"SNOW2","Station_Nam":"SNOWSHOE","Latitude":"38.39900","Longitude":"-79.99490","Snowdepth":"9.000","Units":"in","Rept_Date":"2021-01-24 11"},"coordinates":[4047,1730]},{"type":"Point","properties":{"Station_ID":"SILN6","Station_Nam":"SILVER CREEK","Latitude":"42.53800","Longitude":"-79.16990","Snowdepth":"9.000","Units":"in","Rept_Date":"2021-01-24 12"},"coordinates":[4241,4298]},{"type":"Point","properties":{"Station_ID":"ROBW3","Station_Nam":"ROBERTS WWTP","Latitude":"44.97070","Longitude":"-92.56200","Snowdepth":"9.000","Units":"in","Rept_Date":"2021-01-24 12"},"coordinates":[1098,5807]},{"type":"Point","properties":{"Station_ID":"NY-WY-10","Station_Nam":"WYOMING COOP, NY","Latitude":"42.82060","Longitude":"-78.14810","Snowdepth":"9.000","Units":"in","Rept_Date":"2021-01-24 12"},"coordinates":[4480,4473]},{"type":"Point","properties":{"Station_ID":"NY-OT-31","Station_Nam":"MARYLAND 1.8 W, NY","Latitude":"42.53310","Longitude":"-74.92090","Snowdepth":"9.000","Units":"in","Rept_Date":"2021-01-24 13"},"coordinates":[5238,4295]},{"type":"Point","properties":{"Station_ID":"NY-ER-158","Station_Nam":"EAST AURORA 2.7 SSE, NY","Latitude":"42.72936","Longitude":"-78.60561","Snowdepth":"9.000","Units":"in","Rept_Date":"2021-01-24 12"},"coordinates":[4373,4417]},{"type":"Point","properties":{"Station_ID":"NY-DL-25","Station_Nam":"HOBART 4.8 ESE, NY","Latitude":"42.35230","Longitude":"-74.57830","Snowdepth":"9.000","Units":"in","Rept_Date":"2021-01-24 12"},"coordinates":[5318,4183]},{"type":"Point","properties":{"Station_ID":"NY-CL-12","Station_Nam":"SARANAC 0.8 SSE, NY","Latitude":"44.63980","Longitude":"-73.73848","Snowdepth":"9.000","Units":"in","Rept_Date":"2021-01-24 12"},"coordinates":[5515,5602]},{"type":"Point","properties":{"Station_ID":"NUMM5","Station_Nam":"NEW ULM 3SE","Latitude":"44.29450","Longitude":"-94.40840","Snowdepth":"9.000","Units":"in","Rept_Date":"2021-01-24 12"},"coordinates":[664,5388]},{"type":"Point","properties":{"Station_ID":"MPXM5","Station_Nam":"CHANHASSEN WSFO","Latitude":"44.84960","Longitude":"-93.56440","Snowdepth":"9.000","Units":"in","Rept_Date":"2021-01-25 06"},"coordinates":[862,5732]},{"type":"Point","properties":{"Station_ID":"MN-SV-4","Station_Nam":"DONNELLY 2.9 NW, MN","Latitude":"45.71649","Longitude":"-96.06043","Snowdepth":"9.000","Units":"in","Rept_Date":"2021-01-24 14"},"coordinates":[277,6270]},{"type":"Point","properties":{"Station_ID":"MN-SH-39","Station_Nam":"ZIMMERMAN 3.7 N, MN","Latitude":"45.49450","Longitude":"-93.60430","Snowdepth":"9.000","Units":"in","Rept_Date":"2021-01-24 14"},"coordinates":[853,6132]},{"type":"Point","properties":{"Station_ID":"MN-SH-10","Station_Nam":"BIG LAKE 5.6 NNE, MN","Latitude":"45.41409","Longitude":"-93.69190","Snowdepth":"9.000","Units":"in","Rept_Date":"2021-01-24 13"},"coordinates":[832,6082]},{"type":"Point","properties":{"Station_ID":"MN-RC-38","Station_Nam":"FARIBAULT 1.6 S, MN","Latitude":"44.27639","Longitude":"-93.27306","Snowdepth":"9.000","Units":"in","Rept_Date":"2021-01-24 13"},"coordinates":[931,5376]},{"type":"Point","properties":{"Station_ID":"MN-HN-17","Station_Nam":"EDEN PRAIRIE 3.3 WSW, MN","Latitude":"44.82940","Longitude":"-93.52010","Snowdepth":"9.000","Units":"in","Rept_Date":"2021-01-24 14"},"coordinates":[873,5720]},{"type":"Point","properties":{"Station_ID":"MN-HN-134","Station_Nam":"BROOKLYN CENTER 1.1 E, MN","Latitude":"45.06744","Longitude":"-93.29334","Snowdepth":"9.000","Units":"in","Rept_Date":"2021-01-24 13"},"coordinates":[926,5867]},{"type":"Point","properties":{"Station_ID":"MN-GH-4","Station_Nam":"NERSTRAND 4.2 E, MN","Latitude":"44.34247","Longitude":"-92.97920","Snowdepth":"9.000","Units":"in","Rept_Date":"2021-01-24 13"},"coordinates":[1000,5417]},{"type":"Point","properties":{"Station_ID":"MN-DK-70","Station_Nam":"EAGAN 2.0 NNW, MN","Latitude":"44.84322","Longitude":"-93.17899","Snowdepth":"9.000","Units":"in","Rept_Date":"2021-01-24 13"},"coordinates":[953,5728]},{"type":"Point","properties":{"Station_ID":"MN-DK-53","Station_Nam":"LAKEVILLE 3.8 ENE, MN","Latitude":"44.70423","Longitude":"-93.18460","Snowdepth":"9.000","Units":"in","Rept_Date":"2021-01-24 14"},"coordinates":[951,5642]},{"type":"Point","properties":{"Station_ID":"MN-CV-1","Station_Nam":"CARVER 0.7 W, MN","Latitude":"44.75728","Longitude":"-93.64160","Snowdepth":"9.000","Units":"in","Rept_Date":"2021-01-24 13"},"coordinates":[844,5675]},{"type":"Point","properties":{"Station_ID":"MN-CK-6","Station_Nam":"GRAND MARAIS 4.4 W, MN","Latitude":"47.74865","Longitude":"-90.43760","Snowdepth":"9.000","Units":"in","Rept_Date":"2021-01-24 13"},"coordinates":[1596,7531]},{"type":"Point","properties":{"Station_ID":"MN-CG-16","Station_Nam":"NORTH BRANCH 1.3 NNW, MN","Latitude":"45.53121","Longitude":"-92.97110","Snowdepth":"9.000","Units":"in","Rept_Date":"2021-01-24 12"},"coordinates":[1002,6155]},{"type":"Point","properties":{"Station_ID":"MLCM5","Station_Nam":"MILACA","Latitude":"45.75320","Longitude":"-93.66170","Snowdepth":"9.000","Units":"in","Rept_Date":"2021-01-24 13"},"coordinates":[839,6293]},{"type":"Point","properties":{"Station_ID":"MI-CP-14","Station_Nam":"SAULT STE. MARIE 2.2 E, MI","Latitude":"46.48933","Longitude":"-84.31971","Snowdepth":"9.000","Units":"in","Rept_Date":"2021-01-24 13"},"coordinates":[3032,6749]},{"type":"Point","properties":{"Station_ID":"ME-SM-4","Station_Nam":"SOLON 3.9 ESE, ME","Latitude":"44.94705","Longitude":"-69.77790","Snowdepth":"9.000","Units":"in","Rept_Date":"2021-01-24 12"},"coordinates":[6445,5793]},{"type":"Point","properties":{"Station_ID":"ME-FR-4","Station_Nam":"NEW SHARON 2.0 NW, ME","Latitude":"44.66582","Longitude":"-70.02720","Snowdepth":"9.000","Units":"in","Rept_Date":"2021-01-24 12"},"coordinates":[6386,5618]},{"type":"Point","properties":{"Station_ID":"IL-JD-8","Station_Nam":"STOCKTON 3.4 NNE, IL","Latitude":"42.39960","Longitude":"-89.99020","Snowdepth":"9.000","Units":"in","Rept_Date":"2021-01-24 13"},"coordinates":[1701,4212]},{"type":"Point","properties":{"Station_ID":"HTLM4","Station_Nam":"SNOW PAID OBSERVER FOR KHTL","Latitude":"44.34470","Longitude":"-84.67730","Snowdepth":"9.000","Units":"in","Rept_Date":"2021-01-24 18"},"coordinates":[2948,5419]},{"type":"Point","properties":{"Station_ID":"HTL","Station_Nam":"ROSCOMMON COUNTY AIRPORT","Latitude":"44.35000","Longitude":"-84.66670","Snowdepth":"9.000","Units":"in","Rept_Date":"2021-01-25 00"},"coordinates":[2951,5422]},{"type":"Point","properties":{"Station_ID":"HPN11_MADIS","Station_Nam":"SAINT BONIFACIUS","Latitude":"44.89792","Longitude":"-93.73460","Snowdepth":"9.000","Units":"in","Rept_Date":"2021-01-25 06"},"coordinates":[822,5762]},{"type":"Point","properties":{"Station_ID":"FLAM4","Station_Nam":"FIFE LAKE 2WNW","Latitude":"44.58480","Longitude":"-85.36530","Snowdepth":"9.000","Units":"in","Rept_Date":"2021-01-24 12"},"coordinates":[2787,5568]},{"type":"Point","properties":{"Station_ID":"CDLM4","Station_Nam":"CADILLAC 9&10 NEWS","Latitude":"44.21130","Longitude":"-85.40860","Snowdepth":"9.000","Units":"in","Rept_Date":"2021-01-24 12"},"coordinates":[2776,5336]},{"type":"Point","properties":{"Station_ID":"CARM1","Station_Nam":"CARIBOU WFO","Latitude":"46.86810","Longitude":"-68.01250","Snowdepth":"9.000","Units":"in","Rept_Date":"2021-01-25 05"},"coordinates":[6859,6984]},{"type":"Point","properties":{"Station_ID":"AVTW3","Station_Nam":"ARBOR VITAE-JOHNSON LAKE","Latitude":"45.89940","Longitude":"-89.72670","Snowdepth":"9.000","Units":"in","Rept_Date":"2021-01-24 12"},"coordinates":[1763,6383]},{"type":"Point","properties":{"Station_ID":"AMDW3","Station_Nam":"ALMOND-5 NE","Latitude":"44.30830","Longitude":"-89.34640","Snowdepth":"9.000","Units":"in","Rept_Date":"2021-01-24 14"},"coordinates":[1852,5396]},{"type":"Point","properties":{"Station_ID":"AGNW3","Station_Nam":"ARGONNE-1.5 NW","Latitude":"45.67360","Longitude":"-88.90380","Snowdepth":"9.000","Units":"in","Rept_Date":"2021-01-24 13"},"coordinates":[1956,6243]},{"type":"Point","properties":{"Station_ID":"CAN-ON-491","Station_Nam":"MILVERTON 1.1 ESE- CANWARN, CAN","Latitude":"43.56074","Longitude":"-80.90887","Snowdepth":"8.900","Units":"in","Rept_Date":"2021-01-24 11"},"coordinates":[3832,4932]},{"type":"Point","properties":{"Station_ID":"QMA","Station_Nam":"QMA","Latitude":"50.10330","Longitude":"-70.47190","Snowdepth":"8.779","Units":"in","Rept_Date":"2021-01-24 12"},"coordinates":[6282,8992]},{"type":"Point","properties":{"Station_ID":"HPN19_MADIS","Station_Nam":"GREENFIELD","Latitude":"45.20343","Longitude":"-93.69130","Snowdepth":"8.750","Units":"in","Rept_Date":"2021-01-25 06"},"coordinates":[833,5952]},{"type":"Point","properties":{"Station_ID":"VT-WR-22","Station_Nam":"ROCHESTER 0.3 NE, VT","Latitude":"43.87816","Longitude":"-72.80459","Snowdepth":"8.700","Units":"in","Rept_Date":"2021-01-24 12"},"coordinates":[5734,5129]},{"type":"Point","properties":{"Station_ID":"HPN02_MADIS","Station_Nam":"MAPLE GROVE","Latitude":"45.11820","Longitude":"-93.42830","Snowdepth":"8.700","Units":"in","Rept_Date":"2021-01-25 06"},"coordinates":[894,5899]},{"type":"Point","properties":{"Station_ID":"WI-WH-7","Station_Nam":"WILD ROSE 0.5 E, WI","Latitude":"44.17764","Longitude":"-89.23812","Snowdepth":"8.500","Units":"in","Rept_Date":"2021-01-24 13"},"coordinates":[1878,5315]},{"type":"Point","properties":{"Station_ID":"WI-BY-1","Station_Nam":"BAYFIELD 8.8 N, WI","Latitude":"46.93855","Longitude":"-90.83490","Snowdepth":"8.500","Units":"in","Rept_Date":"2021-01-24 13"},"coordinates":[1503,7028]},{"type":"Point","properties":{"Station_ID":"NY-ES-7","Station_Nam":"KEESEVILLE 0.8 SE, NY","Latitude":"44.49504","Longitude":"-73.47109","Snowdepth":"8.500","Units":"in","Rept_Date":"2021-01-24 12"},"coordinates":[5578,5512]},{"type":"Point","properties":{"Station_ID":"NY-CL-7","Station_Nam":"PERU 4.1 ESE, NY","Latitude":"44.56461","Longitude":"-73.45390","Snowdepth":"8.500","Units":"in","Rept_Date":"2021-01-24 11"},"coordinates":[5582,5555]},{"type":"Point","properties":{"Station_ID":"NH-GR-47","Station_Nam":"LITTLETON 7.3 W, NH","Latitude":"44.31847","Longitude":"-71.91086","Snowdepth":"8.500","Units":"in","Rept_Date":"2021-01-24 13"},"coordinates":[5944,5403]},{"type":"Point","properties":{"Station_ID":"NH-CR-41","Station_Nam":"ALBANY 2.8 SW, NH","Latitude":"43.92648","Longitude":"-71.21556","Snowdepth":"8.500","Units":"in","Rept_Date":"2021-01-24 13"},"coordinates":[6107,5159]},{"type":"Point","properties":{"Station_ID":"MN-HN-307","Station_Nam":"MINNEAPOLIS 1.5 WNW, MN","Latitude":"44.96860","Longitude":"-93.29580","Snowdepth":"8.500","Units":"in","Rept_Date":"2021-01-24 13"},"coordinates":[925,5806]},{"type":"Point","properties":{"Station_ID":"MN-HN-241","Station_Nam":"MAPLE GROVE 1.4 WSW, MN","Latitude":"45.10451","Longitude":"-93.48950","Snowdepth":"8.500","Units":"in","Rept_Date":"2021-01-24 13"},"coordinates":[880,5890]},{"type":"Point","properties":{"Station_ID":"MN-HN-240","Station_Nam":"BLOOMINGTON 3.1 E, MN","Latitude":"44.83704","Longitude":"-93.25318","Snowdepth":"8.500","Units":"in","Rept_Date":"2021-01-24 16"},"coordinates":[935,5724]},{"type":"Point","properties":{"Station_ID":"MN-HB-12","Station_Nam":"LAPORTE 1.8 N, MN","Latitude":"47.24130","Longitude":"-94.75792","Snowdepth":"8.500","Units":"in","Rept_Date":"2021-01-24 13"},"coordinates":[582,7216]},{"type":"Point","properties":{"Station_ID":"MN-CK-3","Station_Nam":"TOFTE 4.9 NE, MN","Latitude":"47.62394","Longitude":"-90.76100","Snowdepth":"8.500","Units":"in","Rept_Date":"2021-01-24 13"},"coordinates":[1520,7453]},{"type":"Point","properties":{"Station_ID":"MI-CX-7","Station_Nam":"EAST JORDAN 2.1 NNW, MI","Latitude":"45.18639","Longitude":"-85.14750","Snowdepth":"8.500","Units":"in","Rept_Date":"2021-01-24 13"},"coordinates":[2838,5941]},{"type":"Point","properties":{"Station_ID":"ME-SM-10","Station_Nam":"NORTH NEW PORTLAND 0.3 WSW, ME","Latitude":"44.92353","Longitude":"-70.02788","Snowdepth":"8.500","Units":"in","Rept_Date":"2021-01-24 12"},"coordinates":[6386,5778]},{"type":"Point","properties":{"Station_ID":"IL-MCH-13","Station_Nam":"BULL VALLEY 2.5 WNW, IL","Latitude":"42.32455","Longitude":"-88.39460","Snowdepth":"8.500","Units":"in","Rept_Date":"2021-01-24 14"},"coordinates":[2076,4165]},{"type":"Point","properties":{"Station_ID":"CAN-NS-103","Station_Nam":"TRAFALGAR 4.9 WSW, CAN","Latitude":"45.26217","Longitude":"-62.72285","Snowdepth":"8.500","Units":"in","Rept_Date":"2021-01-24 12"},"coordinates":[8101,5988]},{"type":"Point","properties":{"Station_ID":"WI-WB-15","Station_Nam":"SARONA 3.6 NE, WI","Latitude":"45.74290","Longitude":"-91.74887","Snowdepth":"8.400","Units":"in","Rept_Date":"2021-01-24 15"},"coordinates":[1288,6286]},{"type":"Point","properties":{"Station_ID":"PA-CR-1","Station_Nam":"EMPORIUM 2.6 S, PA","Latitude":"41.47342","Longitude":"-78.24330","Snowdepth":"8.200","Units":"in","Rept_Date":"2021-01-24 13"},"coordinates":[4458,3637]},{"type":"Point","properties":{"Station_ID":"MN-BK-16","Station_Nam":"PARK RAPIDS 15.3 NW, MN","Latitude":"47.08653","Longitude":"-95.26951","Snowdepth":"8.200","Units":"in","Rept_Date":"2021-01-24 14"},"coordinates":[462,7120]},{"type":"Point","properties":{"Station_ID":"IL-BN-19","Station_Nam":"BELVIDERE 5.0 NNW, IL","Latitude":"42.32071","Longitude":"-88.88282","Snowdepth":"8.200","Units":"in","Rept_Date":"2021-01-24 13"},"coordinates":[1961,4163]},{"type":"Point","properties":{"Station_ID":"WI-WK-74","Station_Nam":"BROOKFIELD 2.8 SSW, WI","Latitude":"43.02390","Longitude":"-88.13760","Snowdepth":"8.100","Units":"in","Rept_Date":"2021-01-24 13"},"coordinates":[2136,4599]},{"type":"Point","properties":{"Station_ID":"WTBW3","Station_Nam":"WEST BEND PUBLIC WORKS","Latitude":"43.41110","Longitude":"-88.19380","Snowdepth":"8.000","Units":"in","Rept_Date":"2021-01-24 14"},"coordinates":[2123,4840]},{"type":"Point","properties":{"Station_ID":"WRNM5","Station_Nam":"WORTHINGTON,MN","Latitude":"43.65440","Longitude":"-95.57920","Snowdepth":"8.000","Units":"in","Rept_Date":"2021-01-24 13"},"coordinates":[389,4991]},{"type":"Point","properties":{"Station_ID":"WRIM5","Station_Nam":"WRIGHT 3E","Latitude":"46.68040","Longitude":"-92.95420","Snowdepth":"8.000","Units":"in","Rept_Date":"2021-01-24 12"},"coordinates":[1006,6868]},{"type":"Point","properties":{"Station_ID":"WI-WK-61","Station_Nam":"HARTLAND 5.0 NNE, WI","Latitude":"43.16351","Longitude":"-88.30400","Snowdepth":"8.000","Units":"in","Rept_Date":"2021-01-24 12"},"coordinates":[2097,4686]},{"type":"Point","properties":{"Station_ID":"WI-WK-29","Station_Nam":"OCONOMOWOC 4.6 NE, WI","Latitude":"43.14621","Longitude":"-88.42860","Snowdepth":"8.000","Units":"in","Rept_Date":"2021-01-24 15"},"coordinates":[2068,4675]},{"type":"Point","properties":{"Station_ID":"WI-TY-3","Station_Nam":"MEDFORD 0.8 ENE, WI","Latitude":"45.14421","Longitude":"-90.33349","Snowdepth":"8.000","Units":"in","Rept_Date":"2021-01-24 14"},"coordinates":[1621,5915]},{"type":"Point","properties":{"Station_ID":"WI-SC-44","Station_Nam":"NEW RICHMOND 4.4 SW, WI","Latitude":"45.08201","Longitude":"-92.60651","Snowdepth":"8.000","Units":"in","Rept_Date":"2021-01-24 14"},"coordinates":[1087,5876]},{"type":"Point","properties":{"Station_ID":"WI-RS-1","Station_Nam":"LADYSMITH 2.8 WNW, WI","Latitude":"45.48180","Longitude":"-91.14680","Snowdepth":"8.000","Units":"in","Rept_Date":"2021-01-24 13"},"coordinates":[1430,6124]},{"type":"Point","properties":{"Station_ID":"WI-RK-12","Station_Nam":"JANESVILLE 3.1 W, WI","Latitude":"42.67576","Longitude":"-89.07614","Snowdepth":"8.000","Units":"in","Rept_Date":"2021-01-24 13"},"coordinates":[1916,4383]},{"type":"Point","properties":{"Station_ID":"WI-PC-5","Station_Nam":"RIVER FALLS 1.2 SSW, WI","Latitude":"44.84032","Longitude":"-92.63500","Snowdepth":"8.000","Units":"in","Rept_Date":"2021-01-24 13"},"coordinates":[1080,5726]},{"type":"Point","properties":{"Station_ID":"WI-IW-3","Station_Nam":"MINERAL POINT 7.3 ENE, WI","Latitude":"42.91400","Longitude":"-90.05700","Snowdepth":"8.000","Units":"in","Rept_Date":"2021-01-24 13"},"coordinates":[1685,4531]},{"type":"Point","properties":{"Station_ID":"WI-DN-1","Station_Nam":"BOYCEVILLE 3.3 N, WI","Latitude":"45.08913","Longitude":"-92.02760","Snowdepth":"8.000","Units":"in","Rept_Date":"2021-01-24 13"},"coordinates":[1223,5881]},{"type":"Point","properties":{"Station_ID":"WI-DD-16","Station_Nam":"BEAVER DAM 2.4 WNW, WI","Latitude":"43.47210","Longitude":"-88.88280","Snowdepth":"8.000","Units":"in","Rept_Date":"2021-01-24 13"},"coordinates":[1961,4877]},{"type":"Point","properties":{"Station_ID":"WI-DA-99","Station_Nam":"FITCHBURG 1.1 NW, WI","Latitude":"42.99740","Longitude":"-89.44046","Snowdepth":"8.000","Units":"in","Rept_Date":"2021-01-24 13"},"coordinates":[1830,4583]},{"type":"Point","properties":{"Station_ID":"WI-BR-2","Station_Nam":"CHETEK 2.0 SE, WI","Latitude":"45.29427","Longitude":"-91.62470","Snowdepth":"8.000","Units":"in","Rept_Date":"2021-01-24 13"},"coordinates":[1318,6008]},{"type":"Point","properties":{"Station_ID":"VT-CH-47","Station_Nam":"SOUTH BURLINGTON 2.6 SSW, VT","Latitude":"44.42027","Longitude":"-73.19242","Snowdepth":"8.000","Units":"in","Rept_Date":"2021-01-24 12"},"coordinates":[5643,5466]},{"type":"Point","properties":{"Station_ID":"VQAW3","Station_Nam":"VIROQUA","Latitude":"43.55970","Longitude":"-90.87560","Snowdepth":"8.000","Units":"in","Rept_Date":"2021-01-24 13"},"coordinates":[1493,4932]},{"type":"Point","properties":{"Station_ID":"SVSN6","Station_Nam":"SILVER SPRINGS 3N","Latitude":"42.70580","Longitude":"-78.09370","Snowdepth":"8.000","Units":"in","Rept_Date":"2021-01-24 12"},"coordinates":[4493,4402]},{"type":"Point","properties":{"Station_ID":"STOI2","Station_Nam":"STOCKTON 3 NNE","Latitude":"42.40050","Longitude":"-89.99580","Snowdepth":"8.000","Units":"in","Rept_Date":"2021-01-25 03"},"coordinates":[1700,4213]},{"type":"Point","properties":{"Station_ID":"STIM5","Station_Nam":"STILLWATER 2SW","Latitude":"45.04540","Longitude":"-92.85220","Snowdepth":"8.000","Units":"in","Rept_Date":"2021-01-24 14"},"coordinates":[1029,5854]},{"type":"Point","properties":{"Station_ID":"SPTI4","Station_Nam":"STRAWBERRY POINT","Latitude":"42.68530","Longitude":"-91.53300","Snowdepth":"8.000","Units":"in","Rept_Date":"2021-01-24 13"},"coordinates":[1339,4389]},{"type":"Point","properties":{"Station_ID":"RKWM1","Station_Nam":"MOOSEHEAD LAKE","Latitude":"45.58330","Longitude":"-69.71670","Snowdepth":"8.000","Units":"in","Rept_Date":"2021-01-24 12"},"coordinates":[6459,6187]},{"type":"Point","properties":{"Station_ID":"RHIW3","Station_Nam":"RHINELANDER","Latitude":"45.59860","Longitude":"-89.45080","Snowdepth":"8.000","Units":"in","Rept_Date":"2021-01-24 13"},"coordinates":[1828,6197]},{"type":"Point","properties":{"Station_ID":"REWM5","Station_Nam":"REDWOOD FALLS","Latitude":"44.54850","Longitude":"-95.09980","Snowdepth":"8.000","Units":"in","Rept_Date":"2021-01-24 13"},"coordinates":[502,5545]},{"type":"Point","properties":{"Station_ID":"PIPM5","Station_Nam":"PIPESTONE,MN","Latitude":"44.01390","Longitude":"-96.32580","Snowdepth":"8.000","Units":"in","Rept_Date":"2021-01-24 14"},"coordinates":[214,5214]},{"type":"Point","properties":{"Station_ID":"NY-WY-11","Station_Nam":"SILVER SPRINGS COOP, NY","Latitude":"42.70580","Longitude":"-78.09370","Snowdepth":"8.000","Units":"in","Rept_Date":"2021-01-24 12"},"coordinates":[4493,4402]},{"type":"Point","properties":{"Station_ID":"NY-OG-72","Station_Nam":"LIVERPOOL 4.5 N, NY","Latitude":"43.17016","Longitude":"-76.22385","Snowdepth":"8.000","Units":"in","Rept_Date":"2021-01-24 13"},"coordinates":[4932,4690]},{"type":"Point","properties":{"Station_ID":"NY-DL-32","Station_Nam":"DELHI 6.6 WNW, NY","Latitude":"42.32118","Longitude":"-75.02991","Snowdepth":"8.000","Units":"in","Rept_Date":"2021-01-24 12"},"coordinates":[5212,4163]},{"type":"Point","properties":{"Station_ID":"NY-DL-28","Station_Nam":"FLEISCHMANNS 5.7 N, NY","Latitude":"42.23779","Longitude":"-74.52335","Snowdepth":"8.000","Units":"in","Rept_Date":"2021-01-24 12"},"coordinates":[5331,4112]},{"type":"Point","properties":{"Station_ID":"NY-CT-2","Station_Nam":"RANDOLPH 1.1 ENE, NY","Latitude":"42.17056","Longitude":"-78.96120","Snowdepth":"8.000","Units":"in","Rept_Date":"2021-01-24 12"},"coordinates":[4290,4070]},{"type":"Point","properties":{"Station_ID":"NY-CQ-41","Station_Nam":"MAYVILLE 0.2 ESE, NY","Latitude":"42.25194","Longitude":"-79.49809","Snowdepth":"8.000","Units":"in","Rept_Date":"2021-01-24 12"},"coordinates":[4164,4120]},{"type":"Point","properties":{"Station_ID":"NY-CN-9","Station_Nam":"NORWICH 5.4 W, NY","Latitude":"42.53356","Longitude":"-75.63060","Snowdepth":"8.000","Units":"in","Rept_Date":"2021-01-24 12"},"coordinates":[5071,4295]},{"type":"Point","properties":{"Station_ID":"NCKN6","Station_Nam":"NORTH CREEK 5 SE","Latitude":"43.66110","Longitude":"-73.89690","Snowdepth":"8.000","Units":"in","Rept_Date":"2021-01-24 12"},"coordinates":[5478,4995]},{"type":"Point","properties":{"Station_ID":"MXON6","Station_Nam":"MEXICO","Latitude":"43.43830","Longitude":"-76.26560","Snowdepth":"8.000","Units":"in","Rept_Date":"2021-01-24 12"},"coordinates":[4922,4856]},{"type":"Point","properties":{"Station_ID":"MSRN3","Station_Nam":"MASCOMA RIVER","Latitude":"43.78330","Longitude":"-72.03330","Snowdepth":"8.000","Units":"in","Rept_Date":"2021-01-25 06"},"coordinates":[5916,5071]},{"type":"Point","properties":{"Station_ID":"MQRW3","Station_Nam":"MINOCQUA","Latitude":"45.88630","Longitude":"-89.73220","Snowdepth":"8.000","Units":"in","Rept_Date":"2021-01-24 12"},"coordinates":[1762,6375]},{"type":"Point","properties":{"Station_ID":"MN-WC-8","Station_Nam":"WASECA 2.0 N, MN","Latitude":"44.11194","Longitude":"-93.49972","Snowdepth":"8.000","Units":"in","Rept_Date":"2021-01-24 13"},"coordinates":[877,5274]},{"type":"Point","properties":{"Station_ID":"MN-SR-48","Station_Nam":"SAINT AUGUSTA 2.1 S, MN","Latitude":"45.41950","Longitude":"-94.19737","Snowdepth":"8.000","Units":"in","Rept_Date":"2021-01-24 13"},"coordinates":[714,6086]},{"type":"Point","properties":{"Station_ID":"MN-SL-139","Station_Nam":"DULUTH 1.2 SE, MN","Latitude":"46.77000","Longitude":"-92.08826","Snowdepth":"8.000","Units":"in","Rept_Date":"2021-01-24 12"},"coordinates":[1209,6924]},{"type":"Point","properties":{"Station_ID":"MN-SC-2","Station_Nam":"PRIOR LAKE 2.0 W, MN","Latitude":"44.71250","Longitude":"-93.46360","Snowdepth":"8.000","Units":"in","Rept_Date":"2021-01-24 11"},"coordinates":[886,5647]},{"type":"Point","properties":{"Station_ID":"MN-RM-54","Station_Nam":"SAINT PAUL 5.1 SW, MN","Latitude":"44.90390","Longitude":"-93.18820","Snowdepth":"8.000","Units":"in","Rept_Date":"2021-01-24 13"},"coordinates":[951,5766]},{"type":"Point","properties":{"Station_ID":"MN-RM-15","Station_Nam":"ROSEVILLE 2.1 NW, MN","Latitude":"45.03502","Longitude":"-93.18620","Snowdepth":"8.000","Units":"in","Rept_Date":"2021-01-24 12"},"coordinates":[951,5847]},{"type":"Point","properties":{"Station_ID":"MN-MS-8","Station_Nam":"NEWFOLDEN 0.2 W, MN","Latitude":"48.35613","Longitude":"-96.33460","Snowdepth":"8.000","Units":"in","Rept_Date":"2021-01-24 14"},"coordinates":[212,7908]},{"type":"Point","properties":{"Station_ID":"MN-MR-13","Station_Nam":"LITTLE FALLS 8.0 NE, MN","Latitude":"46.06785","Longitude":"-94.24789","Snowdepth":"8.000","Units":"in","Rept_Date":"2021-01-24 13"},"coordinates":[702,6488]},{"type":"Point","properties":{"Station_ID":"MN-IS-21","Station_Nam":"ISANTI 5.0 SW, MN","Latitude":"45.43360","Longitude":"-93.30200","Snowdepth":"8.000","Units":"in","Rept_Date":"2021-01-24 14"},"coordinates":[924,6094]},{"type":"Point","properties":{"Station_ID":"MN-DK-73","Station_Nam":"LAKEVILLE 2.6 NNE, MN","Latitude":"44.71250","Longitude":"-93.23043","Snowdepth":"8.000","Units":"in","Rept_Date":"2021-01-24 13"},"coordinates":[941,5647]},{"type":"Point","properties":{"Station_ID":"MN-DK-134","Station_Nam":"INVER GROVE HEIGHTS 1.0 S, MN","Latitude":"44.81010","Longitude":"-93.06196","Snowdepth":"8.000","Units":"in","Rept_Date":"2021-01-24 13"},"coordinates":[980,5708]},{"type":"Point","properties":{"Station_ID":"MN-DD-3","Station_Nam":"MANTORVILLE 1.9 ESE, MN","Latitude":"44.05041","Longitude":"-92.72140","Snowdepth":"8.000","Units":"in","Rept_Date":"2021-01-24 13"},"coordinates":[1060,5236]},{"type":"Point","properties":{"Station_ID":"MN-CW-16","Station_Nam":"TROMMALD 6.1 NW, MN","Latitude":"46.55849","Longitude":"-94.11723","Snowdepth":"8.000","Units":"in","Rept_Date":"2021-01-24 14"},"coordinates":[733,6792]},{"type":"Point","properties":{"Station_ID":"MN-BK-10","Station_Nam":"DETROIT LAKES 5.7 N, MN","Latitude":"46.88666","Longitude":"-95.84444","Snowdepth":"8.000","Units":"in","Rept_Date":"2021-01-24 12"},"coordinates":[327,6996]},{"type":"Point","properties":{"Station_ID":"MI-GL-4","Station_Nam":"GLADWIN 10.4 NNW, MI","Latitude":"44.11865","Longitude":"-84.58470","Snowdepth":"8.000","Units":"in","Rept_Date":"2021-01-24 14"},"coordinates":[2970,5279]},{"type":"Point","properties":{"Station_ID":"ME-SM-45","Station_Nam":"BRIGHTON PLANTATION 2.1 N, ME","Latitude":"45.07098","Longitude":"-69.69860","Snowdepth":"8.000","Units":"in","Rept_Date":"2021-01-24 12"},"coordinates":[6463,5869]},{"type":"Point","properties":{"Station_ID":"ME-OX-2","Station_Nam":"HARTFORD 1.4 N, ME","Latitude":"44.39318","Longitude":"-70.34760","Snowdepth":"8.000","Units":"in","Rept_Date":"2021-01-24 12"},"coordinates":[6311,5449]},{"type":"Point","properties":{"Station_ID":"ME-FR-22","Station_Nam":"FARMINGTON 4.8 NNW, ME","Latitude":"44.73396","Longitude":"-70.18007","Snowdepth":"8.000","Units":"in","Rept_Date":"2021-01-24 14"},"coordinates":[6350,5660]},{"type":"Point","properties":{"Station_ID":"MA-BE-24","Station_Nam":"HANCOCK 3.6 NNE, MA","Latitude":"42.59130","Longitude":"-73.29530","Snowdepth":"8.000","Units":"in","Rept_Date":"2021-01-24 17"},"coordinates":[5619,4331]},{"type":"Point","properties":{"Station_ID":"LNGM5","Station_Nam":"LONG PRAIRIE","Latitude":"45.96460","Longitude":"-94.88920","Snowdepth":"8.000","Units":"in","Rept_Date":"2021-01-24 12"},"coordinates":[551,6424]},{"type":"Point","properties":{"Station_ID":"LMLI4","Station_Nam":"LAKE MILLS,IA","Latitude":"43.40000","Longitude":"-93.53330","Snowdepth":"8.000","Units":"in","Rept_Date":"2021-01-24 13"},"coordinates":[870,4833]},{"type":"Point","properties":{"Station_ID":"KSYR","Station_Nam":"SYRACUSE HANCOCK INTERNATIONAL  AIRPORT","Latitude":"43.11666","Longitude":"-76.10000","Snowdepth":"8.000","Units":"in","Rept_Date":"2021-01-25 06"},"coordinates":[4961,4657]},{"type":"Point","properties":{"Station_ID":"JEFN3","Station_Nam":"JEFFERSON","Latitude":"44.41690","Longitude":"-71.50080","Snowdepth":"8.000","Units":"in","Rept_Date":"2021-01-24 12"},"coordinates":[6040,5464]},{"type":"Point","properties":{"Station_ID":"IL-SP-6","Station_Nam":"FREEPORT 2.0 NW, IL","Latitude":"42.30955","Longitude":"-89.66370","Snowdepth":"8.000","Units":"in","Rept_Date":"2021-01-24 14"},"coordinates":[1778,4156]},{"type":"Point","properties":{"Station_ID":"HRTM1","Station_Nam":"HARTFORD","Latitude":"44.37440","Longitude":"-70.31620","Snowdepth":"8.000","Units":"in","Rept_Date":"2021-01-24 12"},"coordinates":[6318,5437]},{"type":"Point","properties":{"Station_ID":"EJNM4","Station_Nam":"EAST JORDAN 2NW","Latitude":"45.18630","Longitude":"-85.14770","Snowdepth":"8.000","Units":"in","Rept_Date":"2021-01-24 13"},"coordinates":[2838,5941]},{"type":"Point","properties":{"Station_ID":"COUW3","Station_Nam":"COUDERAY,WI","Latitude":"45.86670","Longitude":"-91.45000","Snowdepth":"8.000","Units":"in","Rept_Date":"2021-01-24 22"},"coordinates":[1359,6363]},{"type":"Point","properties":{"Station_ID":"CNNW3","Station_Nam":"CRANDON","Latitude":"45.55110","Longitude":"-88.89830","Snowdepth":"8.000","Units":"in","Rept_Date":"2021-01-24 12"},"coordinates":[1957,6167]},{"type":"Point","properties":{"Station_ID":"CLGM5","Station_Nam":"COLLEGEVILLE ST JOHN","Latitude":"45.57940","Longitude":"-94.39200","Snowdepth":"8.000","Units":"in","Rept_Date":"2021-01-25 00"},"coordinates":[668,6185]},{"type":"Point","properties":{"Station_ID":"CJRP1","Station_Nam":"COUDERSPORT 7SE","Latitude":"41.73920","Longitude":"-77.97110","Snowdepth":"8.000","Units":"in","Rept_Date":"2021-01-24 12"},"coordinates":[4522,3802]},{"type":"Point","properties":{"Station_ID":"CAN-MB-56","Station_Nam":"WINNIPEG 7.6 ENE, CAN","Latitude":"49.93264","Longitude":"-97.04752","Snowdepth":"8.000","Units":"in","Rept_Date":"2021-01-24 14"},"coordinates":[45,8886]},{"type":"Point","properties":{"Station_ID":"BROW3","Station_Nam":"BRODHEAD,WI","Latitude":"42.61720","Longitude":"-89.38970","Snowdepth":"8.000","Units":"in","Rept_Date":"2021-01-24 13"},"coordinates":[1842,4347]},{"type":"Point","properties":{"Station_ID":"BRAM5","Station_Nam":"BRAINERD","Latitude":"46.34320","Longitude":"-94.20900","Snowdepth":"8.000","Units":"in","Rept_Date":"2021-01-24 13"},"coordinates":[711,6659]},{"type":"Point","properties":{"Station_ID":"BLVI4","Station_Nam":"MISSISSIPPI RIVER","Latitude":"42.26670","Longitude":"-90.41670","Snowdepth":"8.000","Units":"in","Rept_Date":"2021-01-24 12"},"coordinates":[1601,4130]},{"type":"Point","properties":{"Station_ID":"BLTW3","Station_Nam":"BELOIT,WI","Latitude":"42.50000","Longitude":"-89.03330","Snowdepth":"8.000","Units":"in","Rept_Date":"2021-01-24 12"},"coordinates":[1926,4274]},{"type":"Point","properties":{"Station_ID":"BKEM5","Station_Nam":"BRECKENRIDGE 4NE","Latitude":"46.30470","Longitude":"-96.52170","Snowdepth":"8.000","Units":"in","Rept_Date":"2021-01-24 13"},"coordinates":[168,6635]},{"type":"Point","properties":{"Station_ID":"BKBW2","Station_Nam":"DAVIS.","Latitude":"39.09830","Longitude":"-79.43190","Snowdepth":"8.000","Units":"in","Rept_Date":"2021-01-24 12"},"coordinates":[4179,2164]},{"type":"Point","properties":{"Station_ID":"BDFP1","Station_Nam":"BRADFORD,PA","Latitude":"41.95000","Longitude":"-78.73330","Snowdepth":"8.000","Units":"in","Rept_Date":"2021-01-24 13"},"coordinates":[4343,3933]},{"type":"Point","properties":{"Station_ID":"ARX","Station_Nam":"LA CROSSE, WI","Latitude":"43.82280","Longitude":"-91.19190","Snowdepth":"8.000","Units":"in","Rept_Date":"2021-01-25 06"},"coordinates":[1419,5095]},{"type":"Point","properties":{"Station_ID":"APXM4","Station_Nam":"GAYLORD 9SSW","Latitude":"44.90720","Longitude":"-84.71880","Snowdepth":"8.000","Units":"in","Rept_Date":"2021-01-25 06"},"coordinates":[2938,5768]},{"type":"Point","properties":{"Station_ID":"42.0452_080.3039","Station_Nam":"LAKE CITY  SNOW SPOTTER (CLE0157)","Latitude":"42.04520","Longitude":"-80.30390","Snowdepth":"8.000","Units":"in","Rept_Date":"2021-01-24 22"},"coordinates":[3974,3992]},