{"type":"Topology","objects":{"snowdepth_geo":{"type":"GeometryCollection","name":"snowdepth","crs":{"type":"name","properties":{"name":"urn:ogc:def:crs:OGC:1.3:CRS84"}},"geometries":[{"type":"Point","properties":{"Station_ID":"PRKM4","Station_Nam":"MUNISING EAST","Latitude":"46.42580","Longitude":"-86.62000","Snowdepth":"76.500","Units":"in","Rept_Date":"2020-04-18 06"},"coordinates":[2481,5664]},{"type":"Point","properties":{"Station_ID":"OGIQ6","Station_Nam":"OGOKI CAMP","Latitude":"50.76680","Longitude":"-87.85820","Snowdepth":"61.100","Units":"in","Rept_Date":"2020-04-18 06"},"coordinates":[2190,9214]},{"type":"Point","properties":{"Station_ID":"DVLQ6","Station_Nam":"DEVIOUS LAKE","Latitude":"49.19890","Longitude":"-87.76440","Snowdepth":"43.460","Units":"in","Rept_Date":"2020-04-18 06"},"coordinates":[2212,7932]},{"type":"Point","properties":{"Station_ID":"PDLM4","Station_Nam":"PAINESDALE","Latitude":"47.04160","Longitude":"-88.67170","Snowdepth":"31.000","Units":"in","Rept_Date":"2020-04-17 12"},"coordinates":[1999,6168]},{"type":"Point","properties":{"Station_ID":"MNSM4","Station_Nam":"MUNISING","Latitude":"46.41210","Longitude":"-86.66250","Snowdepth":"30.000","Units":"in","Rept_Date":"2020-04-17 10"},"coordinates":[2471,5653]},{"type":"Point","properties":{"Station_ID":"MI-BG-3","Station_Nam":"L'ANSE 17.8 SE, MI","Latitude":"46.55730","Longitude":"-88.20770","Snowdepth":"25.000","Units":"in","Rept_Date":"2020-04-17 12"},"coordinates":[2108,5772]},{"type":"Point","properties":{"Station_ID":"MQT","Station_Nam":"MARQUETTE, MI","Latitude":"46.53140","Longitude":"-87.54920","Snowdepth":"22.000","Units":"in","Rept_Date":"2020-04-18 06"},"coordinates":[2263,5751]},{"type":"Point","properties":{"Station_ID":"HERM4","Station_Nam":"HERMAN,MI","Latitude":"46.65000","Longitude":"-88.33330","Snowdepth":"22.000","Units":"in","Rept_Date":"2020-04-17 13"},"coordinates":[2078,5848]},{"type":"Point","properties":{"Station_ID":"KSGM4","Station_Nam":"KEARSARGE","Latitude":"47.27520","Longitude":"-88.41700","Snowdepth":"20.000","Units":"in","Rept_Date":"2020-04-17 12"},"coordinates":[2059,6359]},{"type":"Point","properties":{"Station_ID":"QNCM4","Station_Nam":"QUINCY HILL","Latitude":"47.13640","Longitude":"-88.57950","Snowdepth":"17.000","Units":"in","Rept_Date":"2020-04-17 11"},"coordinates":[2020,6245]},{"type":"Point","properties":{"Station_ID":"TRIQ6","Station_Nam":"TRIO LAKE","Latitude":"49.22880","Longitude":"-87.22920","Snowdepth":"15.080","Units":"in","Rept_Date":"2020-04-18 06"},"coordinates":[2338,7956]},{"type":"Point","properties":{"Station_ID":"PTLQ6","Station_Nam":"PORTAGE LAKE","Latitude":"49.06950","Longitude":"-86.65940","Snowdepth":"15.000","Units":"in","Rept_Date":"2020-04-18 06"},"coordinates":[2472,7826]},{"type":"Point","properties":{"Station_ID":"CAN-NB-13","Station_Nam":"BATHURST 3.8 NW, CAN","Latitude":"47.64212","Longitude":"-65.68756","Snowdepth":"14.000","Units":"in","Rept_Date":"2020-04-17 08"},"coordinates":[7401,6659]},{"type":"Point","properties":{"Station_ID":"SVBQ6","Station_Nam":"SAVANT BASE","Latitude":"50.28730","Longitude":"-90.65670","Snowdepth":"13.820","Units":"in","Rept_Date":"2020-04-18 06"},"coordinates":[1532,8822]},{"type":"Point","properties":{"Station_ID":"NH-CS-10","Station_Nam":"RANDOLPH 1.4 NE, NH","Latitude":"44.38824","Longitude":"-71.26950","Snowdepth":"13.500","Units":"in","Rept_Date":"2020-04-17 11"},"coordinates":[6089,3998]},{"type":"Point","properties":{"Station_ID":"WLFM5","Station_Nam":"WOLF RIDGE ENVIRON LEARNING CENTER","Latitude":"47.38240","Longitude":"-91.19730","Snowdepth":"13.000","Units":"in","Rept_Date":"2020-04-17 12"},"coordinates":[1405,6446]},{"type":"Point","properties":{"Station_ID":"STEM4","Station_Nam":"STEUBEN","Latitude":"46.18530","Longitude":"-86.46410","Snowdepth":"13.000","Units":"in","Rept_Date":"2020-04-17 13"},"coordinates":[2518,5468]},{"type":"Point","properties":{"Station_ID":"UNVM7","Station_Nam":"UNIONVILLE","Latitude":"40.47500","Longitude":"-93.00310","Snowdepth":"12.000","Units":"in","Rept_Date":"2020-04-17 12"},"coordinates":[981,798]},{"type":"Point","properties":{"Station_ID":"IA-WY-7","Station_Nam":"ALLERTON 5.1 E, IA","Latitude":"40.71603","Longitude":"-93.26943","Snowdepth":"12.000","Units":"in","Rept_Date":"2020-04-17 12"},"coordinates":[918,995]},{"type":"Point","properties":{"Station_ID":"CAN-NL-82","Station_Nam":"GANDER 2.7 NW, CAN","Latitude":"48.97737","Longitude":"-54.63396","Snowdepth":"11.800","Units":"in","Rept_Date":"2020-04-17 09"},"coordinates":[9999,7751]},{"type":"Point","properties":{"Station_ID":"MTAI4","Station_Nam":"MOUNT AYR,IA","Latitude":"40.68280","Longitude":"-94.29440","Snowdepth":"11.000","Units":"in","Rept_Date":"2020-04-17 12"},"coordinates":[677,968]},{"type":"Point","properties":{"Station_ID":"ME-AR-18","Station_Nam":"NEW SWEDEN 4.9 NNW, ME","Latitude":"47.01080","Longitude":"-68.14390","Snowdepth":"11.000","Units":"in","Rept_Date":"2020-04-17 11"},"coordinates":[6824,6143]},{"type":"Point","properties":{"Station_ID":"HRVM4","Station_Nam":"HARVEY","Latitude":"46.49080","Longitude":"-87.35470","Snowdepth":"11.000","Units":"in","Rept_Date":"2020-04-17 12"},"coordinates":[2308,5717]},{"type":"Point","properties":{"Station_ID":"ALRI4","Station_Nam":"ALLERTON,IA","Latitude":"40.70670","Longitude":"-93.36500","Snowdepth":"11.000","Units":"in","Rept_Date":"2020-04-17 12"},"coordinates":[896,988]},{"type":"Point","properties":{"Station_ID":"KISM4","Station_Nam":"K.I. SAWYER WWTP","Latitude":"46.33410","Longitude":"-87.37790","Snowdepth":"10.000","Units":"in","Rept_Date":"2020-04-17 12"},"coordinates":[2303,5589]},{"type":"Point","properties":{"Station_ID":"GGRM4","Station_Nam":"GREEN GARDEN NO.2","Latitude":"46.45330","Longitude":"-87.30380","Snowdepth":"10.000","Units":"in","Rept_Date":"2020-04-17 12"},"coordinates":[2320,5687]},{"type":"Point","properties":{"Station_ID":"CAN-NB-11","Station_Nam":"MIRAMICHI 3.3 S, CAN","Latitude":"46.99343","Longitude":"-65.50690","Snowdepth":"10.000","Units":"in","Rept_Date":"2020-04-17 11"},"coordinates":[7443,6128]},{"type":"Point","properties":{"Station_ID":"3OI","Station_Nam":"LAMONI,IA","Latitude":"40.62330","Longitude":"-93.95000","Snowdepth":"10.000","Units":"in","Rept_Date":"2020-04-17 12"},"coordinates":[758,920]},{"type":"Point","properties":{"Station_ID":"AUDQ6","Station_Nam":"AUDEN","Latitude":"48.52600","Longitude":"-82.57570","Snowdepth":"9.490","Units":"in","Rept_Date":"2020-04-18 06"},"coordinates":[3432,7382]},{"type":"Point","properties":{"Station_ID":"IA-AP-7","Station_Nam":"CENTERVILLE 0.3 NE, IA","Latitude":"40.73448","Longitude":"-92.87015","Snowdepth":"9.100","Units":"in","Rept_Date":"2020-04-17 12"},"coordinates":[1012,1010]},{"type":"Point","properties":{"Station_ID":"WESN1","Station_Nam":"WESTON 3NW","Latitude":"41.22110","Longitude":"-96.77750","Snowdepth":"9.000","Units":"in","Rept_Date":"2020-04-17 13"},"coordinates":[94,1408]},{"type":"Point","properties":{"Station_ID":"MRQM4","Station_Nam":"MARQUETTE WFP","Latitude":"46.54580","Longitude":"-87.37950","Snowdepth":"9.000","Units":"in","Rept_Date":"2020-04-17 12"},"coordinates":[2302,5762]},{"type":"Point","properties":{"Station_ID":"IA-TY-2","Station_Nam":"NEW MARKET 4.7 N, IA","Latitude":"40.80060","Longitude":"-94.91020","Snowdepth":"9.000","Units":"in","Rept_Date":"2020-04-17 12"},"coordinates":[532,1064]},{"type":"Point","properties":{"Station_ID":"DOUG006","Station_Nam":"OMAHA 2.9 W, NE","Latitude":"41.26580","Longitude":"-95.99270","Snowdepth":"9.000","Units":"in","Rept_Date":"2020-04-17 12"},"coordinates":[278,1445]},{"type":"Point","properties":{"Station_ID":"CRNI4","Station_Nam":"CORNING","Latitude":"40.98860","Longitude":"-94.74910","Snowdepth":"9.000","Units":"in","Rept_Date":"2020-04-17 12"},"coordinates":[570,1218]},{"type":"Point","properties":{"Station_ID":"BCNI4","Station_Nam":"BEACONSFIELD,IA","Latitude":"40.82360","Longitude":"-94.04390","Snowdepth":"9.000","Units":"in","Rept_Date":"2020-04-17 12"},"coordinates":[736,1083]},{"type":"Point","properties":{"Station_ID":"AROM4","Station_Nam":"ARNOLD,MI","Latitude":"46.06670","Longitude":"-87.48330","Snowdepth":"9.000","Units":"in","Rept_Date":"2020-04-17 12"},"coordinates":[2278,5371]},{"type":"Point","properties":{"Station_ID":"IA-DV-10","Station_Nam":"BLOOMFIELD 8.4 NNE, IA","Latitude":"40.85602","Longitude":"-92.34318","Snowdepth":"8.500","Units":"in","Rept_Date":"2020-04-17 12"},"coordinates":[1136,1110]},{"type":"Point","properties":{"Station_ID":"CAN-NL-65","Station_Nam":"KIPPENS 0.7 NE, CA","Latitude":"48.55436","Longitude":"-58.61850","Snowdepth":"8.500","Units":"in","Rept_Date":"2020-04-17 11"},"coordinates":[9062,7405]},{"type":"Point","properties":{"Station_ID":"NE-SY-11","Station_Nam":"LA VISTA 2.0 WSW, NE","Latitude":"41.17702","Longitude":"-96.07571","Snowdepth":"8.100","Units":"in","Rept_Date":"2020-04-17 12"},"coordinates":[258,1372]},{"type":"Point","properties":{"Station_ID":"RANI4","Station_Nam":"RANDOLPH,IA","Latitude":"40.86670","Longitude":"-95.56670","Snowdepth":"8.000","Units":"in","Rept_Date":"2020-04-17 13"},"coordinates":[378,1119]},{"type":"Point","properties":{"Station_ID":"NCYN1","Station_Nam":"NEBRASKA CITY 2NW","Latitude":"40.69860","Longitude":"-95.88660","Snowdepth":"8.000","Units":"in","Rept_Date":"2020-04-17 12"},"coordinates":[303,981]},{"type":"Point","properties":{"Station_ID":"IBLM5","Station_Nam":"ISABELLA 14W","Latitude":"47.59360","Longitude":"-91.65140","Snowdepth":"8.000","Units":"in","Rept_Date":"2020-04-17 14"},"coordinates":[1298,6619]},{"type":"Point","properties":{"Station_ID":"FISM1","Station_Nam":"FORT KENT COOP","Latitude":"47.23850","Longitude":"-68.61240","Snowdepth":"8.000","Units":"in","Rept_Date":"2020-04-17 11"},"coordinates":[6713,6329]},{"type":"Point","properties":{"Station_ID":"BLMI4","Station_Nam":"BLOOMFIELD,IA","Latitude":"40.75920","Longitude":"-92.43970","Snowdepth":"8.000","Units":"in","Rept_Date":"2020-04-17 13"},"coordinates":[1113,1031]},{"type":"Point","properties":{"Station_ID":"ALBI4","Station_Nam":"ALBIA,IA","Latitude":"41.06670","Longitude":"-92.78330","Snowdepth":"8.000","Units":"in","Rept_Date":"2020-04-17 12"},"coordinates":[1032,1282]},{"type":"Point","properties":{"Station_ID":"NE-SY-9","Station_Nam":"GRETNA 0.1 SSE, NE","Latitude":"41.12710","Longitude":"-96.24740","Snowdepth":"7.700","Units":"in","Rept_Date":"2020-04-17 12"},"coordinates":[218,1331]},{"type":"Point","properties":{"Station_ID":"NE-SN-3","Station_Nam":"WESTON 0.2 ENE, NE","Latitude":"41.19322","Longitude":"-96.73740","Snowdepth":"7.500","Units":"in","Rept_Date":"2020-04-17 12"},"coordinates":[103,1386]},{"type":"Point","properties":{"Station_ID":"MI-HG-1","Station_Nam":"HOUGHTON 1.6 ESE, MI","Latitude":"47.10774","Longitude":"-88.52940","Snowdepth":"7.500","Units":"in","Rept_Date":"2020-04-17 12"},"coordinates":[2032,6222]},{"type":"Point","properties":{"Station_ID":"IA-DV-7","Station_Nam":"BLOOMFIELD 4.2 WNW, IA","Latitude":"40.77675","Longitude":"-92.48850","Snowdepth":"7.500","Units":"in","Rept_Date":"2020-04-17 12"},"coordinates":[1102,1045]},{"type":"Point","properties":{"Station_ID":"IA-CL-3","Station_Nam":"MURRAY 0.5 N, IA","Latitude":"41.04831","Longitude":"-93.94960","Snowdepth":"7.200","Units":"in","Rept_Date":"2020-04-17 12"},"coordinates":[758,1267]},{"type":"Point","properties":{"Station_ID":"WI-VL-9","Station_Nam":"LAND O' LAKES 11.7 W, WI","Latitude":"46.19023","Longitude":"-89.45790","Snowdepth":"7.000","Units":"in","Rept_Date":"2020-04-17 12"},"coordinates":[1814,5472]},{"type":"Point","properties":{"Station_ID":"WI-IR-3","Station_Nam":"PENCE 0.1 E, WI","Latitude":"46.41555","Longitude":"-90.27013","Snowdepth":"7.000","Units":"in","Rept_Date":"2020-04-17 12"},"coordinates":[1623,5656]},{"type":"Point","properties":{"Station_ID":"SLHI4","Station_Nam":"SALEM 1 S","Latitude":"40.83550","Longitude":"-91.62210","Snowdepth":"7.000","Units":"in","Rept_Date":"2020-04-17 12"},"coordinates":[1305,1093]},{"type":"Point","properties":{"Station_ID":"PRDM4","Station_Nam":"PARADISE","Latitude":"46.60380","Longitude":"-85.03960","Snowdepth":"7.000","Units":"in","Rept_Date":"2020-04-17 10"},"coordinates":[2852,5810]},{"type":"Point","properties":{"Station_ID":"PPLN1","Station_Nam":"WEST PAPILLION CREEK NEAR PAPILLION","Latitude":"41.17580","Longitude":"-96.08390","Snowdepth":"7.000","Units":"in","Rept_Date":"2020-04-17 12"},"coordinates":[257,1371]},{"type":"Point","properties":{"Station_ID":"NE-LA-52","Station_Nam":"LINCOLN 1.2 ENE, NE","Latitude":"40.82411","Longitude":"-96.66780","Snowdepth":"7.000","Units":"in","Rept_Date":"2020-04-17 12"},"coordinates":[119,1084]},{"type":"Point","properties":{"Station_ID":"NE-DG-6","Station_Nam":"CHALCO 4.2 WNW, NE","Latitude":"41.21079","Longitude":"-96.20670","Snowdepth":"7.000","Units":"in","Rept_Date":"2020-04-17 13"},"coordinates":[228,1400]},{"type":"Point","properties":{"Station_ID":"NE-DD-3","Station_Nam":"FREMONT 0.6 S, NE","Latitude":"41.43141","Longitude":"-96.49210","Snowdepth":"7.000","Units":"in","Rept_Date":"2020-04-17 12"},"coordinates":[161,1580]},{"type":"Point","properties":{"Station_ID":"MWN","Station_Nam":"MOUNT WASHINGTON","Latitude":"44.26670","Longitude":"-71.30000","Snowdepth":"7.000","Units":"in","Rept_Date":"2020-04-17 12"},"coordinates":[6082,3899]},{"type":"Point","properties":{"Station_ID":"MMTI2","Station_Nam":"MONMOUTH 4 NW","Latitude":"40.93620","Longitude":"-90.71970","Snowdepth":"7.000","Units":"in","Rept_Date":"2020-04-17 13"},"coordinates":[1517,1175]},{"type":"Point","properties":{"Station_ID":"LNOW3","Station_Nam":"LAND O LAKES","Latitude":"46.19000","Longitude":"-89.45700","Snowdepth":"7.000","Units":"in","Rept_Date":"2020-04-17 12"},"coordinates":[1814,5471]},{"type":"Point","properties":{"Station_ID":"KMWN","Station_Nam":"MOUNT WASHINGTON","Latitude":"44.26666","Longitude":"-71.30000","Snowdepth":"7.000","Units":"in","Rept_Date":"2020-04-18 06"},"coordinates":[6082,3899]},{"type":"Point","properties":{"Station_ID":"KEWI2","Station_Nam":"KEWANEE 1 E","Latitude":"41.24290","Longitude":"-89.89970","Snowdepth":"7.000","Units":"in","Rept_Date":"2020-04-17 12"},"coordinates":[1710,1426]},{"type":"Point","properties":{"Station_ID":"KEQI4","Station_Nam":"KEOSAUQUA,IA","Latitude":"40.73330","Longitude":"-91.96670","Snowdepth":"7.000","Units":"in","Rept_Date":"2020-04-17 12"},"coordinates":[1224,1009]},{"type":"Point","properties":{"Station_ID":"IA-VB-11","Station_Nam":"CANTRIL 0.9 SSE, IA","Latitude":"40.63144","Longitude":"-92.06039","Snowdepth":"7.000","Units":"in","Rept_Date":"2020-04-17 12"},"coordinates":[1202,926]},{"type":"Point","properties":{"Station_ID":"IA-CL-4","Station_Nam":"MURRAY 1.7 W, IA","Latitude":"41.04128","Longitude":"-93.98046","Snowdepth":"7.000","Units":"in","Rept_Date":"2020-04-17 12"},"coordinates":[751,1261]},{"type":"Point","properties":{"Station_ID":"FMTN1","Station_Nam":"FREMONT,NE","Latitude":"41.43330","Longitude":"-96.48330","Snowdepth":"7.000","Units":"in","Rept_Date":"2020-04-17 12"},"coordinates":[163,1582]},{"type":"Point","properties":{"Station_ID":"BLGI4","Station_Nam":"BURLINGTON 2S","Latitude":"40.77480","Longitude":"-91.11650","Snowdepth":"7.000","Units":"in","Rept_Date":"2020-04-17 10"},"coordinates":[1424,1043]},{"type":"Point","properties":{"Station_ID":"ABGW3","Station_Nam":"AMBERG 9 E","Latitude":"45.48250","Longitude":"-87.81190","Snowdepth":"7.000","Units":"in","Rept_Date":"2020-04-17 11"},"coordinates":[2201,4893]},{"type":"Point","properties":{"Station_ID":"WASH001","Station_Nam":"FORT CALHOUN 2.9 SSW, NE","Latitude":"41.41390","Longitude":"-96.03500","Snowdepth":"6.500","Units":"in","Rept_Date":"2020-04-17 12"},"coordinates":[268,1566]},{"type":"Point","properties":{"Station_ID":"NE-DG-35","Station_Nam":"BENNINGTON 2.9 SSW, NE","Latitude":"41.32763","Longitude":"-96.17473","Snowdepth":"6.500","Units":"in","Rept_Date":"2020-04-17 12"},"coordinates":[235,1495]},{"type":"Point","properties":{"Station_ID":"LANC007","Station_Nam":"DAVEY 1.2 NNW, NE","Latitude":"41.00320","Longitude":"-96.67630","Snowdepth":"6.500","Units":"in","Rept_Date":"2020-04-17 12"},"coordinates":[117,1230]},{"type":"Point","properties":{"Station_ID":"IA-PT-13","Station_Nam":"COUNCIL BLUFFS 2.1 SSE, IA","Latitude":"41.21159","Longitude":"-95.84800","Snowdepth":"6.500","Units":"in","Rept_Date":"2020-04-17 12"},"coordinates":[312,1401]},{"type":"Point","properties":{"Station_ID":"IL-KX-9","Station_Nam":"KNOXVILLE 0.7 NW, IL","Latitude":"40.91356","Longitude":"-90.29350","Snowdepth":"6.400","Units":"in","Rept_Date":"2020-04-17 12"},"coordinates":[1618,1157]},{"type":"Point","properties":{"Station_ID":"ZNOM4","Station_Nam":"NORWAY","Latitude":"45.77810","Longitude":"-87.89560","Snowdepth":"6.000","Units":"in","Rept_Date":"2020-04-17 12"},"coordinates":[2181,5135]},{"type":"Point","properties":{"Station_ID":"WI-VL-10","Station_Nam":"LAND O LAKES 4.3 WNW, WI","Latitude":"46.17440","Longitude":"-89.30380","Snowdepth":"6.000","Units":"in","Rept_Date":"2020-04-17 12"},"coordinates":[1850,5459]},{"type":"Point","properties":{"Station_ID":"TAKW3","Station_Nam":"RICE RESERVOIR NO. 2","Latitude":"45.53770","Longitude":"-89.73220","Snowdepth":"6.000","Units":"in","Rept_Date":"2020-04-17 12"},"coordinates":[1749,4938]},{"type":"Point","properties":{"Station_ID":"SDHI4","Station_Nam":"SHENANDOAH,IA","Latitude":"40.78330","Longitude":"-95.35000","Snowdepth":"6.000","Units":"in","Rept_Date":"2020-04-17 13"},"coordinates":[429,1050]},{"type":"Point","properties":{"Station_ID":"RADI4","Station_Nam":"TAILWATER","Latitude":"40.82280","Longitude":"-92.88940","Snowdepth":"6.000","Units":"in","Rept_Date":"2020-04-17 13"},"coordinates":[1007,1083]},{"type":"Point","properties":{"Station_ID":"OSEI4","Station_Nam":"OSCEOLA,IA","Latitude":"41.01670","Longitude":"-93.81670","Snowdepth":"6.000","Units":"in","Rept_Date":"2020-04-17 12"},"coordinates":[789,1241]},{"type":"Point","properties":{"Station_ID":"NE-SY-16","Station_Nam":"PAPILLION 1.9 SSW, NE","Latitude":"41.13341","Longitude":"-96.05772","Snowdepth":"6.000","Units":"in","Rept_Date":"2020-04-17 12"},"coordinates":[263,1337]},{"type":"Point","properties":{"Station_ID":"NE-SW-7","Station_Nam":"SEWARD 0.5 NE, NE","Latitude":"40.91689","Longitude":"-97.08981","Snowdepth":"6.000","Units":"in","Rept_Date":"2020-04-17 12"},"coordinates":[20,1160]},{"type":"Point","properties":{"Station_ID":"NE-LA-56","Station_Nam":"LINCOLN 8.1 SSE, NE","Latitude":"40.71326","Longitude":"-96.61527","Snowdepth":"6.000","Units":"in","Rept_Date":"2020-04-17 13"},"coordinates":[132,993]},{"type":"Point","properties":{"Station_ID":"NE-LA-19","Station_Nam":"LINCOLN 6.8 SE, NE","Latitude":"40.74944","Longitude":"-96.59280","Snowdepth":"6.000","Units":"in","Rept_Date":"2020-04-17 12"},"coordinates":[137,1023]},{"type":"Point","properties":{"Station_ID":"NE-DG-8","Station_Nam":"OMAHA 7.0 W, NE","Latitude":"41.27451","Longitude":"-96.14630","Snowdepth":"6.000","Units":"in","Rept_Date":"2020-04-17 12"},"coordinates":[242,1452]},{"type":"Point","properties":{"Station_ID":"NE-DG-19","Station_Nam":"ELKHORN 0.7 ENE, NE","Latitude":"41.28780","Longitude":"-96.22450","Snowdepth":"6.000","Units":"in","Rept_Date":"2020-04-17 12"},"coordinates":[223,1463]},{"type":"Point","properties":{"Station_ID":"NE-DG-18","Station_Nam":"ELKHORN 0.8 NNW, NE","Latitude":"41.29391","Longitude":"-96.24100","Snowdepth":"6.000","Units":"in","Rept_Date":"2020-04-17 13"},"coordinates":[220,1468]},{"type":"Point","properties":{"Station_ID":"MO-WH-8","Station_Nam":"PARNELL 1.0 SE, MO","Latitude":"40.43099","Longitude":"-94.60768","Snowdepth":"6.000","Units":"in","Rept_Date":"2020-04-17 13"},"coordinates":[603,762]},{"type":"Point","properties":{"Station_ID":"MO-WH-1","Station_Nam":"GRANT CITY 4.4 WSW, MO","Latitude":"40.46410","Longitude":"-94.49260","Snowdepth":"6.000","Units":"in","Rept_Date":"2020-04-17 13"},"coordinates":[631,789]},{"type":"Point","properties":{"Station_ID":"MO-ND-6","Station_Nam":"HOPKINS 3.9 WSW, MO","Latitude":"40.53581","Longitude":"-94.88790","Snowdepth":"6.000","Units":"in","Rept_Date":"2020-04-17 12"},"coordinates":[538,848]},{"type":"Point","properties":{"Station_ID":"MO-ND-2","Station_Nam":"CONCEPTION JUNCTION 0.3 SE, MO","Latitude":"40.26575","Longitude":"-94.68720","Snowdepth":"6.000","Units":"in","Rept_Date":"2020-04-17 13"},"coordinates":[585,627]},{"type":"Point","properties":{"Station_ID":"MEDN1","Station_Nam":"AGRONOMY LABRATORY","Latitude":"41.16670","Longitude":"-96.41670","Snowdepth":"6.000","Units":"in","Rept_Date":"2020-04-17 11"},"coordinates":[178,1364]},{"type":"Point","properties":{"Station_ID":"IWOM4","Station_Nam":"IRONWOOD#2","Latitude":"46.46520","Longitude":"-90.13820","Snowdepth":"6.000","Units":"in","Rept_Date":"2020-04-17 12"},"coordinates":[1654,5696]},{"type":"Point","properties":{"Station_ID":"IA-HY-5","Station_Nam":"SALEM 3.1 ESE, IA","Latitude":"40.85893","Longitude":"-91.56468","Snowdepth":"6.000","Units":"in","Rept_Date":"2020-04-17 13"},"coordinates":[1319,1112]},{"type":"Point","properties":{"Station_ID":"IA-HY-1","Station_Nam":"NEW LONDON 1.5 SW, IA","Latitude":"40.91415","Longitude":"-91.42930","Snowdepth":"6.000","Units":"in","Rept_Date":"2020-04-17 12"},"coordinates":[1351,1157]},{"type":"Point","properties":{"Station_ID":"GRTM7","Station_Nam":"GRANT CITY 5WSW","Latitude":"40.46400","Longitude":"-94.49770","Snowdepth":"6.000","Units":"in","Rept_Date":"2020-04-17 13"},"coordinates":[629,789]},{"type":"Point","properties":{"Station_ID":"FLNW3","Station_Nam":"FLORENCE","Latitude":"45.93360","Longitude":"-88.25830","Snowdepth":"6.000","Units":"in","Rept_Date":"2020-04-17 12"},"coordinates":[2096,5262]},{"type":"Point","properties":{"Station_ID":"CRTI4","Station_Nam":"CRESTON,IA","Latitude":"41.03690","Longitude":"-94.39440","Snowdepth":"6.000","Units":"in","Rept_Date":"2020-04-17 12"},"coordinates":[654,1258]},{"type":"Point","properties":{"Station_ID":"COVM4","Station_Nam":"COVINGTON","Latitude":"46.55880","Longitude":"-88.54190","Snowdepth":"6.000","Units":"in","Rept_Date":"2020-04-17 12"},"coordinates":[2029,5773]},{"type":"Point","properties":{"Station_ID":"CLDI4","Station_Nam":"CLARINDA,IA","Latitude":"40.73330","Longitude":"-95.03330","Snowdepth":"6.000","Units":"in","Rept_Date":"2020-04-17 11"},"coordinates":[503,1009]},{"type":"Point","properties":{"Station_ID":"IA-DV-1","Station_Nam":"BLOOMFIELD 9.4 NNE, IA","Latitude":"40.87464","Longitude":"-92.35238","Snowdepth":"5.500","Units":"in","Rept_Date":"2020-04-17 12"},"coordinates":[1134,1125]},{"type":"Point","properties":{"Station_ID":"KABQ6","Station_Nam":"CAB LAKE","Latitude":"49.59950","Longitude":"-89.17990","Snowdepth":"5.390","Units":"in","Rept_Date":"2020-04-18 06"},"coordinates":[1879,8259]},{"type":"Point","properties":{"Station_ID":"WTRM4","Station_Nam":"WATERSMEET 12WSW","Latitude":"46.22310","Longitude":"-89.40850","Snowdepth":"5.000","Units":"in","Rept_Date":"2020-04-17 11"},"coordinates":[1826,5499]},{"type":"Point","properties":{"Station_ID":"WI-ON-6","Station_Nam":"RHINELANDER 5.2 N, WI","Latitude":"45.71388","Longitude":"-89.42150","Snowdepth":"5.000","Units":"in","Rept_Date":"2020-04-17 13"},"coordinates":[1822,5082]},{"type":"Point","properties":{"Station_ID":"WI-LN-2","Station_Nam":"MERRILL 7.0 W, WI","Latitude":"45.17746","Longitude":"-89.84820","Snowdepth":"5.000","Units":"in","Rept_Date":"2020-04-17 11"},"coordinates":[1722,4643]},{"type":"Point","properties":{"Station_ID":"UNDI4","Station_Nam":"UNDERWOOD","Latitude":"41.38940","Longitude":"-95.68110","Snowdepth":"5.000","Units":"in","Rept_Date":"2020-04-17 12"},"coordinates":[351,1546]},{"type":"Point","properties":{"Station_ID":"SYCN1","Station_Nam":"SYRACUSE,NE","Latitude":"40.65000","Longitude":"-96.18330","Snowdepth":"5.000","Units":"in","Rept_Date":"2020-04-17 11"},"coordinates":[233,941]},{"type":"Point","properties":{"Station_ID":"STGW3","Station_Nam":"ST GERMAIN","Latitude":"45.91550","Longitude":"-89.48940","Snowdepth":"5.000","Units":"in","Rept_Date":"2020-04-17 16"},"coordinates":[1807,5247]},{"type":"Point","properties":{"Station_ID":"SPNN1","Station_Nam":"MAHA SCOUT CAMP","Latitude":"41.06390","Longitude":"-96.00690","Snowdepth":"5.000","Units":"in","Rept_Date":"2020-04-17 13"},"coordinates":[275,1280]},{"type":"Point","properties":{"Station_ID":"ROKI4","Station_Nam":"RED OAK,IA","Latitude":"41.00000","Longitude":"-95.23330","Snowdepth":"5.000","Units":"in","Rept_Date":"2020-04-17 12"},"coordinates":[456,1228]},{"type":"Point","properties":{"Station_ID":"RLKW3","Station_Nam":"REST LAKE","Latitude":"46.12220","Longitude":"-89.87720","Snowdepth":"5.000","Units":"in","Rept_Date":"2020-04-17 13"},"coordinates":[1715,5416]},{"type":"Point","properties":{"Station_ID":"RGNM1","Station_Nam":"RANGELEY 2NW","Latitude":"44.98940","Longitude":"-70.67220","Snowdepth":"5.000","Units":"in","Rept_Date":"2020-04-17 14"},"coordinates":[6229,4490]},{"type":"Point","properties":{"Station_ID":"PRTM7","Station_Nam":"PRINCETON","Latitude":"40.39860","Longitude":"-93.58390","Snowdepth":"5.000","Units":"in","Rept_Date":"2020-04-17 12"},"coordinates":[844,736]},{"type":"Point","properties":{"Station_ID":"OAKI4","Station_Nam":"OAKLAND,IA","Latitude":"41.31330","Longitude":"-95.39060","Snowdepth":"5.000","Units":"in","Rept_Date":"2020-04-17 12"},"coordinates":[419,1484]},{"type":"Point","properties":{"Station_ID":"NE-WS-4","Station_Nam":"BLAIR 0.9 NNW, NE","Latitude":"41.55589","Longitude":"-96.14612","Snowdepth":"5.000","Units":"in","Rept_Date":"2020-04-17 13"},"coordinates":[242,1682]},{"type":"Point","properties":{"Station_ID":"NE-LA-41","Station_Nam":"MALCOLM 0.3 SSE, NE","Latitude":"40.90461","Longitude":"-96.86279","Snowdepth":"5.000","Units":"in","Rept_Date":"2020-04-17 14"},"coordinates":[73,1150]},{"type":"Point","properties":{"Station_ID":"NE-LA-1","Station_Nam":"LINCOLN 4.5 SE, NE","Latitude":"40.77076","Longitude":"-96.62792","Snowdepth":"5.000","Units":"in","Rept_Date":"2020-04-17 12"},"coordinates":[129,1040]},{"type":"Point","properties":{"Station_ID":"NE-CA-4","Station_Nam":"ELMWOOD 3.4 WSW, NE","Latitude":"40.81849","Longitude":"-96.35093","Snowdepth":"5.000","Units":"in","Rept_Date":"2020-04-17 13"},"coordinates":[194,1079]},{"type":"Point","properties":{"Station_ID":"MMPM7","Station_Nam":"MEMPHIS","Latitude":"40.45750","Longitude":"-92.18220","Snowdepth":"5.000","Units":"in","Rept_Date":"2020-04-17 11"},"coordinates":[1174,784]},{"type":"Point","properties":{"Station_ID":"MLLW3","Station_Nam":"MERRILL 8W","Latitude":"45.17810","Longitude":"-89.84810","Snowdepth":"5.000","Units":"in","Rept_Date":"2020-04-17 16"},"coordinates":[1722,4644]},{"type":"Point","properties":{"Station_ID":"MEDW3","Station_Nam":"MEDFORD","Latitude":"45.13080","Longitude":"-90.34390","Snowdepth":"5.000","Units":"in","Rept_Date":"2020-04-17 13"},"coordinates":[1606,4605]},{"type":"Point","properties":{"Station_ID":"LVDW3","Station_Nam":"LAC VIEUX DESERT","Latitude":"46.12110","Longitude":"-89.07580","Snowdepth":"5.000","Units":"in","Rept_Date":"2020-04-17 14"},"coordinates":[1904,5415]},{"type":"Point","properties":{"Station_ID":"LACM7","Station_Nam":"LANCASTER 2SE","Latitude":"40.50280","Longitude":"-92.50770","Snowdepth":"5.000","Units":"in","Rept_Date":"2020-04-17 13"},"coordinates":[1097,821]},{"type":"Point","properties":{"Station_ID":"KNXI2","Station_Nam":"KNOXVILLE","Latitude":"40.90340","Longitude":"-90.28930","Snowdepth":"5.000","Units":"in","Rept_Date":"2020-04-17 13"},"coordinates":[1619,1149]},{"type":"Point","properties":{"Station_ID":"IL-HD-4","Station_Nam":"OQUAWKA 0.5 N, IL","Latitude":"40.94470","Longitude":"-90.94860","Snowdepth":"5.000","Units":"in","Rept_Date":"2020-04-17 14"},"coordinates":[1464,1182]},{"type":"Point","properties":{"Station_ID":"IA-PT-2","Station_Nam":"COUNCIL BLUFFS 3.4 NNE, IA","Latitude":"41.28530","Longitude":"-95.83360","Snowdepth":"5.000","Units":"in","Rept_Date":"2020-04-17 12"},"coordinates":[315,1461]},{"type":"Point","properties":{"Station_ID":"IA-JH-20","Station_Nam":"CORALVILLE 1.4 S, IA","Latitude":"41.67016","Longitude":"-91.60296","Snowdepth":"5.000","Units":"in","Rept_Date":"2020-04-17 13"},"coordinates":[1310,1776]},{"type":"Point","properties":{"Station_ID":"GRCM7","Station_Nam":"GREEN CITY","Latitude":"40.35030","Longitude":"-92.94920","Snowdepth":"5.000","Units":"in","Rept_Date":"2020-04-17 12"},"coordinates":[993,696]},{"type":"Point","properties":{"Station_ID":"GBGI2","Station_Nam":"GALESBURG","Latitude":"40.94640","Longitude":"-90.38560","Snowdepth":"5.000","Units":"in","Rept_Date":"2020-04-17 13"},"coordinates":[1596,1184]},{"type":"Point","properties":{"Station_ID":"DNNI4","Station_Nam":"DONNELLSON","Latitude":"40.64580","Longitude":"-91.56400","Snowdepth":"5.000","Units":"in","Rept_Date":"2020-04-17 12"},"coordinates":[1319,938]},{"type":"Point","properties":{"Station_ID":"CRVW3","Station_Nam":"CRIVITZ HIGH FALLS","Latitude":"45.35750","Longitude":"-88.19190","Snowdepth":"5.000","Units":"in","Rept_Date":"2020-04-17 12"},"coordinates":[2111,4791]},{"type":"Point","properties":{"Station_ID":"AOAI2","Station_Nam":"ALTONA","Latitude":"41.12040","Longitude":"-90.16410","Snowdepth":"5.000","Units":"in","Rept_Date":"2020-04-17 11"},"coordinates":[1648,1326]},{"type":"Point","properties":{"Station_ID":"41.7396_080.5416","Station_Nam":"PIERPONT 2SE (CLE1412)","Latitude":"41.73960","Longitude":"-80.54160","Snowdepth":"5.000","Units":"in","Rept_Date":"2020-04-17 23"},"coordinates":[3910,1832]},{"type":"Point","properties":{"Station_ID":"41.6333_080.1432","Station_Nam":"1 S Meadville  Trained Spotter (CLE0350)","Latitude":"41.63328","Longitude":"-80.14322","Snowdepth":"5.000","Units":"in","Rept_Date":"2020-04-17 22"},"coordinates":[4003,1745]},{"type":"Point","properties":{"Station_ID":"SOCQ6","Station_Nam":"SOCKET LAKE","Latitude":"50.77870","Longitude":"-91.79300","Snowdepth":"4.960","Units":"in","Rept_Date":"2020-04-18 06"},"coordinates":[1265,9224]},{"type":"Point","properties":{"Station_ID":"IL-HY-22","Station_Nam":"GALVA 0.3 S, IL","Latitude":"41.16275","Longitude":"-90.03896","Snowdepth":"4.500","Units":"in","Rept_Date":"2020-04-17 12"},"coordinates":[1677,1361]},{"type":"Point","properties":{"Station_ID":"IA-ST-1","Station_Nam":"LE CLAIRE 1.8 NNE, IA","Latitude":"41.62355","Longitude":"-90.35140","Snowdepth":"4.500","Units":"in","Rept_Date":"2020-04-17 15"},"coordinates":[1604,1737]},{"type":"Point","properties":{"Station_ID":"IA-LE-11","Station_Nam":"WEST POINT 7.5 NW, IA","Latitude":"40.78449","Longitude":"-91.56227","Snowdepth":"4.500","Units":"in","Rept_Date":"2020-04-17 13"},"coordinates":[1319,1051]},{"type":"Point","properties":{"Station_ID":"CASS001","Station_Nam":"PLATTSMOUTH 1.4 SW, NE","Latitude":"40.99460","Longitude":"-95.89760","Snowdepth":"4.500","Units":"in","Rept_Date":"2020-04-17 12"},"coordinates":[300,1223]},{"type":"Point","properties":{"Station_ID":"IA-PK-14","Station_Nam":"ANKENY 2.3 WNW, IA","Latitude":"41.73209","Longitude":"-93.64980","Snowdepth":"4.400","Units":"in","Rept_Date":"2020-04-17 12"},"coordinates":[829,1826]},{"type":"Point","properties":{"Station_ID":"IL-KN-118","Station_Nam":"SLEEPY HOLLOW 0.7 W, IL","Latitude":"42.09500","Longitude":"-88.32790","Snowdepth":"4.100","Units":"in","Rept_Date":"2020-04-17 12"},"coordinates":[2080,2123]},{"type":"Point","properties":{"Station_ID":"IL-DK-37","Station_Nam":"SYCAMORE 0.7 ESE, IL","Latitude":"41.97618","Longitude":"-88.68418","Snowdepth":"4.100","Units":"in","Rept_Date":"2020-04-17 12"},"coordinates":[1996,2026]},{"type":"Point","properties":{"Station_ID":"HPN04_MADIS","Station_Nam":"HANOVER","Latitude":"45.16770","Longitude":"-93.63430","Snowdepth":"4.010","Units":"in","Rept_Date":"2020-04-18 06"},"coordinates":[832,4636]},{"type":"Point","properties":{"Station_ID":"WSHI4","Station_Nam":"WASHINGTON","Latitude":"41.28240","Longitude":"-91.70780","Snowdepth":"4.000","Units":"in","Rept_Date":"2020-04-17 12"},"coordinates":[1285,1458]},{"type":"Point","properties":{"Station_ID":"WRPW3","Station_Nam":"WATER PURIFICATION PLANT","Latitude":"44.38800","Longitude":"-89.80550","Snowdepth":"4.000","Units":"in","Rept_Date":"2020-04-17 16"},"coordinates":[1732,3998]},{"type":"Point","properties":{"Station_ID":"TRVM4","Station_Nam":"THREE RIVERS,MI","Latitude":"41.93330","Longitude":"-85.63330","Snowdepth":"4.000","Units":"in","Rept_Date":"2020-04-17 11"},"coordinates":[2713,1991]},{"type":"Point","properties":{"Station_ID":"TAKM7","Station_Nam":"TARKIO #2","Latitude":"40.43730","Longitude":"-95.38660","Snowdepth":"4.000","Units":"in","Rept_Date":"2020-04-17 12"},"coordinates":[420,767]},{"type":"Point","properties":{"Station_ID":"SWHI4","Station_Nam":"SWISHER #2","Latitude":"41.84970","Longitude":"-91.67650","Snowdepth":"4.000","Units":"in","Rept_Date":"2020-04-17 14"},"coordinates":[1292,1922]},{"type":"Point","properties":{"Station_ID":"STWI2","Station_Nam":"STEWARD","Latitude":"41.81110","Longitude":"-89.02330","Snowdepth":"4.000","Units":"in","Rept_Date":"2020-04-17 12"},"coordinates":[1916,1891]},{"type":"Point","properties":{"Station_ID":"SPCW3","Station_Nam":"SPENCER-WWTP","Latitude":"44.75390","Longitude":"-90.28920","Snowdepth":"4.000","Units":"in","Rept_Date":"2020-04-17 12"},"coordinates":[1619,4297]},{"type":"Point","properties":{"Station_ID":"RHIW3","Station_Nam":"RHINELANDER","Latitude":"45.59860","Longitude":"-89.45080","Snowdepth":"4.000","Units":"in","Rept_Date":"2020-04-17 12"},"coordinates":[1816,4988]},{"type":"Point","properties":{"Station_ID":"RCFI2","Station_Nam":"ROCK FALLS 3 NE","Latitude":"41.79810","Longitude":"-89.64140","Snowdepth":"4.000","Units":"in","Rept_Date":"2020-04-17 12"},"coordinates":[1771,1880]},{"type":"Point","properties":{"Station_ID":"PTTM7","Station_Nam":"PATTONSBURG 2S","Latitude":"40.01470","Longitude":"-94.12940","Snowdepth":"4.000","Units":"in","Rept_Date":"2020-04-17 12"},"coordinates":[716,422]},{"type":"Point","properties":{"Station_ID":"PTNI2","Station_Nam":"PRINCETON","Latitude":"41.37610","Longitude":"-89.46420","Snowdepth":"4.000","Units":"in","Rept_Date":"2020-04-17 12"},"coordinates":[1812,1535]},{"type":"Point","properties":{"Station_ID":"PDGM4","Station_Nam":"PAULDING","Latitude":"46.39760","Longitude":"-89.17940","Snowdepth":"4.000","Units":"in","Rept_Date":"2020-04-17 12"},"coordinates":[1879,5641]},{"type":"Point","properties":{"Station_ID":"NE-LA-40","Station_Nam":"LINCOLN 3.9 S, NE","Latitude":"40.76142","Longitude":"-96.70244","Snowdepth":"4.000","Units":"in","Rept_Date":"2020-04-17 12"},"coordinates":[111,1032]},{"type":"Point","properties":{"Station_ID":"NE-CA-2","Station_Nam":"ALVO 2.1 W, NE","Latitude":"40.86903","Longitude":"-96.42660","Snowdepth":"4.000","Units":"in","Rept_Date":"2020-04-17 13"},"coordinates":[176,1120]},{"type":"Point","properties":{"Station_ID":"MYVM7","Station_Nam":"MARYVILLE","Latitude":"40.34580","Longitude":"-94.83410","Snowdepth":"4.000","Units":"in","Rept_Date":"2020-04-17 12"},"coordinates":[550,693]},{"type":"Point","properties":{"Station_ID":"MUNI2","Station_Nam":"MUNDELEIN,IL","Latitude":"42.25530","Longitude":"-88.07690","Snowdepth":"4.000","Units":"in","Rept_Date":"2020-04-17 12"},"coordinates":[2139,2254]},{"type":"Point","properties":{"Station_ID":"MROI4","Station_Nam":"IOWA RIVER","Latitude":"41.79670","Longitude":"-92.07060","Snowdepth":"4.000","Units":"in","Rept_Date":"2020-04-17 12"},"coordinates":[1200,1879]},{"type":"Point","properties":{"Station_ID":"MN-CK-6","Station_Nam":"GRAND MARAIS 4.4 W, MN","Latitude":"47.74865","Longitude":"-90.43760","Snowdepth":"4.000","Units":"in","Rept_Date":"2020-04-17 12"},"coordinates":[1584,6746]},{"type":"Point","properties":{"Station_ID":"LKZI2","Station_Nam":"LAKE ZURICH","Latitude":"42.19250","Longitude":"-88.06530","Snowdepth":"4.000","Units":"in","Rept_Date":"2020-04-17 12"},"coordinates":[2141,2203]},{"type":"Point","properties":{"Station_ID":"KRKM7","Station_Nam":"KIRKSVILLE","Latitude":"40.20570","Longitude":"-92.57480","Snowdepth":"4.000","Units":"in","Rept_Date":"2020-04-17 12"},"coordinates":[1081,578]},{"type":"Point","properties":{"Station_ID":"KOMA","Station_Nam":"OMAHA EPPLEY AIRFIELD","Latitude":"41.30000","Longitude":"-95.90000","Snowdepth":"4.000","Units":"in","Rept_Date":"2020-04-17 12"},"coordinates":[300,1473]},{"type":"Point","properties":{"Station_ID":"IN-PT-3","Station_Nam":"VALPARAISO 2.0 WSW, IN","Latitude":"41.46741","Longitude":"-87.08750","Snowdepth":"4.000","Units":"in","Rept_Date":"2020-04-17 16"},"coordinates":[2371,1610]},{"type":"Point","properties":{"Station_ID":"IL-WN-32","Station_Nam":"ROCKFORD 5.5 S, IL","Latitude":"42.19058","Longitude":"-89.06040","Snowdepth":"4.000","Units":"in","Rept_Date":"2020-04-17 13"},"coordinates":[1907,2201]},{"type":"Point","properties":{"Station_ID":"IL-WN-26","Station_Nam":"ROCKFORD 1.5 ENE, IL","Latitude":"42.27775","Longitude":"-89.03590","Snowdepth":"4.000","Units":"in","Rept_Date":"2020-04-17 14"},"coordinates":[1913,2272]},{"type":"Point","properties":{"Station_ID":"IL-KN-67","Station_Nam":"ST. CHARLES 6.0 NW, IL","Latitude":"41.98401","Longitude":"-88.38030","Snowdepth":"4.000","Units":"in","Rept_Date":"2020-04-17 12"},"coordinates":[2067,2032]},{"type":"Point","properties":{"Station_ID":"IL-KN-64","Station_Nam":"ST. CHARLES 0.1 E, IL","Latitude":"41.92010","Longitude":"-88.29900","Snowdepth":"4.000","Units":"in","Rept_Date":"2020-04-17 13"},"coordinates":[2086,1980]},{"type":"Point","properties":{"Station_ID":"IL-DK-28","Station_Nam":"DE KALB 0.7 SW, IL","Latitude":"41.92269","Longitude":"-88.76072","Snowdepth":"4.000","Units":"in","Rept_Date":"2020-04-17 12"},"coordinates":[1978,1982]},{"type":"Point","properties":{"Station_ID":"IL-BU-5","Station_Nam":"PRINCETON 1.1 SE, IL","Latitude":"41.36713","Longitude":"-89.45190","Snowdepth":"4.000","Units":"in","Rept_Date":"2020-04-17 12"},"coordinates":[1815,1528]},{"type":"Point","properties":{"Station_ID":"IA-WR-7","Station_Nam":"INDIANOLA 0.8 SSW, IA","Latitude":"41.35047","Longitude":"-93.57290","Snowdepth":"4.000","Units":"in","Rept_Date":"2020-04-17 12"},"coordinates":[847,1514]},{"type":"Point","properties":{"Station_ID":"IA-PK-97","Station_Nam":"ANKENY 1.5 NNE, IA","Latitude":"41.74376","Longitude":"-93.59088","Snowdepth":"4.000","Units":"in","Rept_Date":"2020-04-17 12"},"coordinates":[842,1836]},{"type":"Point","properties":{"Station_ID":"IA-PK-89","Station_Nam":"ANKENY 3.7 NNE, IA","Latitude":"41.77305","Longitude":"-93.57635","Snowdepth":"4.000","Units":"in","Rept_Date":"2020-04-17 12"},"coordinates":[846,1860]},{"type":"Point","properties":{"Station_ID":"IA-PK-21","Station_Nam":"JOHNSTON 3.7 NNW, IA","Latitude":"41.73660","Longitude":"-93.72360","Snowdepth":"4.000","Units":"in","Rept_Date":"2020-04-17 12"},"coordinates":[811,1830]},{"type":"Point","properties":{"Station_ID":"IA-LN-36","Station_Nam":"SHELLSBURG 2.9 S, IA","Latitude":"42.05091","Longitude":"-91.87008","Snowdepth":"4.000","Units":"in","Rept_Date":"2020-04-17 11"},"coordinates":[1247,2087]},{"type":"Point","properties":{"Station_ID":"IA-JH-14","Station_Nam":"SWISHER 0.4 NNE, IA","Latitude":"41.84830","Longitude":"-91.69210","Snowdepth":"4.000","Units":"in","Rept_Date":"2020-04-17 14"},"coordinates":[1289,1921]},{"type":"Point","properties":{"Station_ID":"IA-IA-13","Station_Nam":"PARNELL 0.1 SSW, IA","Latitude":"41.58238","Longitude":"-92.00541","Snowdepth":"4.000","Units":"in","Rept_Date":"2020-04-17 16"},"coordinates":[1215,1704]},{"type":"Point","properties":{"Station_ID":"IA-DL-31","Station_Nam":"DALLAS CENTER 1.5 E, IA","Latitude":"41.68151","Longitude":"-93.95534","Snowdepth":"4.000","Units":"in","Rept_Date":"2020-04-17 12"},"coordinates":[757,1785]},{"type":"Point","properties":{"Station_ID":"IA-CS-7","Station_Nam":"ANITA 0.6 S, IA","Latitude":"41.43552","Longitude":"-94.76717","Snowdepth":"4.000","Units":"in","Rept_Date":"2020-04-17 12"},"coordinates":[566,1584]},{"type":"Point","properties":{"Station_ID":"HUDI3","Station_Nam":"HUDSON 3SW","Latitude":"41.51150","Longitude":"-85.13190","Snowdepth":"4.000","Units":"in","Rept_Date":"2020-04-17 17"},"coordinates":[2831,1646]},{"type":"Point","properties":{"Station_ID":"GLDI2","Station_Nam":"MISSISSIPPI RIVER","Latitude":"40.88330","Longitude":"-91.03330","Snowdepth":"4.000","Units":"in","Rept_Date":"2020-04-17 11"},"coordinates":[1444,1132]},{"type":"Point","properties":{"Station_ID":"GHMN3","Station_Nam":"PINKHAM NOTCH","Latitude":"44.25800","Longitude":"-71.25250","Snowdepth":"4.000","Units":"in","Rept_Date":"2020-04-17 10"},"coordinates":[6093,3892]},{"type":"Point","properties":{"Station_ID":"FRFI4","Station_Nam":"FAIRFIELD","Latitude":"41.02100","Longitude":"-91.95530","Snowdepth":"4.000","Units":"in","Rept_Date":"2020-04-17 13"},"coordinates":[1227,1245]},{"type":"Point","properties":{"Station_ID":"FCLN1","Station_Nam":"FT CALHOUN 4W","Latitude":"41.44670","Longitude":"-96.09190","Snowdepth":"4.000","Units":"in","Rept_Date":"2020-04-17 12"},"coordinates":[255,1593]},{"type":"Point","properties":{"Station_ID":"EGRW3","Station_Nam":"EAGLE RIVER-SOUTH","Latitude":"45.91360","Longitude":"-89.24360","Snowdepth":"4.000","Units":"in","Rept_Date":"2020-04-17 12"},"coordinates":[1864,5245]},{"type":"Point","properties":{"Station_ID":"DMX","Station_Nam":"DES MOINES, IA","Latitude":"41.73610","Longitude":"-93.72330","Snowdepth":"4.000","Units":"in","Rept_Date":"2020-04-18 05"},"coordinates":[811,1829]},{"type":"Point","properties":{"Station_ID":"DEKI2","Station_Nam":"SOUTH BRANCH KISHWAUKEE RIVER AT DEKALB","Latitude":"41.93110","Longitude":"-88.75970","Snowdepth":"4.000","Units":"in","Rept_Date":"2020-04-17 12"},"coordinates":[1978,1989]},{"type":"Point","properties":{"Station_ID":"CTEN1","Station_Nam":"DOANE COLLEGE","Latitude":"40.61670","Longitude":"-96.95000","Snowdepth":"4.000","Units":"in","Rept_Date":"2020-04-17 12"},"coordinates":[53,914]},{"type":"Point","properties":{"Station_ID":"CLKM4","Station_Nam":"CLARKSBURG","Latitude":"46.49910","Longitude":"-87.84500","Snowdepth":"4.000","Units":"in","Rept_Date":"2020-04-17 11"},"coordinates":[2193,5724]},{"type":"Point","properties":{"Station_ID":"CHRI4","Station_Nam":"CHARITON,IA","Latitude":"41.00000","Longitude":"-93.31670","Snowdepth":"4.000","Units":"in","Rept_Date":"2020-04-17 14"},"coordinates":[907,1228]},{"type":"Point","properties":{"Station_ID":"CCPM7","Station_Nam":"CONCEPTION","Latitude":"40.23940","Longitude":"-94.68330","Snowdepth":"4.000","Units":"in","Rept_Date":"2020-04-17 13"},"coordinates":[586,606]},{"type":"Point","properties":{"Station_ID":"BRJM7","Station_Nam":"BURLINGTON JUNCTION 1NW","Latitude":"40.45250","Longitude":"-95.07300","Snowdepth":"4.000","Units":"in","Rept_Date":"2020-04-17 12"},"coordinates":[494,780]},{"type":"Point","properties":{"Station_ID":"BNTN1","Station_Nam":"BENNINGTON,NE","Latitude":"41.36670","Longitude":"-96.13330","Snowdepth":"4.000","Units":"in","Rept_Date":"2020-04-17 12"},"coordinates":[245,1527]},{"type":"Point","properties":{"Station_ID":"BARI2","Station_Nam":"CRABTREE NATURE CENTER","Latitude":"42.11530","Longitude":"-88.16390","Snowdepth":"4.000","Units":"in","Rept_Date":"2020-04-17 13"},"coordinates":[2118,2140]},{"type":"Point","properties":{"Station_ID":"AVTW3","Station_Nam":"ARBOR VITAE-JOHNSON LAKE","Latitude":"45.89940","Longitude":"-89.72670","Snowdepth":"4.000","Units":"in","Rept_Date":"2020-04-17 11"},"coordinates":[1751,5234]},{"type":"Point","properties":{"Station_ID":"AURW3","Station_Nam":"AURORA","Latitude":"45.77000","Longitude":"-88.11810","Snowdepth":"4.000","Units":"in","Rept_Date":"2020-04-17 13"},"coordinates":[2129,5128]},{"type":"Point","properties":{"Station_ID":"AMBI2","Station_Nam":"AMBOY,IL","Latitude":"41.72720","Longitude":"-89.33940","Snowdepth":"4.000","Units":"in","Rept_Date":"2020-04-17 13"},"coordinates":[1842,1822]},{"type":"Point","properties":{"Station_ID":"ALEI2","Station_Nam":"ALEDO","Latitude":"41.19620","Longitude":"-90.74770","Snowdepth":"4.000","Units":"in","Rept_Date":"2020-04-17 12"},"coordinates":[1511,1388]},{"type":"Point","properties":{"Station_ID":"AKYI4","Station_Nam":"ANKENY,IA","Latitude":"41.68330","Longitude":"-93.60000","Snowdepth":"4.000","Units":"in","Rept_Date":"2020-04-17 12"},"coordinates":[840,1786]},{"type":"Point","properties":{"Station_ID":"AGSI4","Station_Nam":"AUGUSTA","Latitude":"40.74720","Longitude":"-91.27500","Snowdepth":"4.000","Units":"in","Rept_Date":"2020-04-17 23"},"coordinates":[1387,1021]},{"type":"Point","properties":{"Station_ID":"AGNW3","Station_Nam":"ARGONNE-1.5 NW","Latitude":"45.67360","Longitude":"-88.90380","Snowdepth":"4.000","Units":"in","Rept_Date":"2020-04-17 12"},"coordinates":[1944,5049]},{"type":"Point","properties":{"Station_ID":"41.9492_079.7821","Station_Nam":"AMITY TWP (CLE0216)","Latitude":"41.94920","Longitude":"-79.78210","Snowdepth":"4.000","Units":"in","Rept_Date":"2020-04-17 23"},"coordinates":[4088,2004]},{"type":"Point","properties":{"Station_ID":"41.8222_080.1028","Station_Nam":"CAMBRIDGE SPRINGS  SNOW SPOTTER (CLE0344)","Latitude":"41.82220","Longitude":"-80.10280","Snowdepth":"4.000","Units":"in","Rept_Date":"2020-04-18 00"},"coordinates":[4013,1900]},{"type":"Point","properties":{"Station_ID":"IA-ST-42","Station_Nam":"RIVERDALE 0.5 N, IA","Latitude":"41.54319","Longitude":"-90.46752","Snowdepth":"3.800","Units":"in","Rept_Date":"2020-04-17 12"},"coordinates":[1577,1672]},{"type":"Point","properties":{"Station_ID":"IL-KN-78","Station_Nam":"GENEVA 1.3 SSW, IL","Latitude":"41.86442","Longitude":"-88.32320","Snowdepth":"3.700","Units":"in","Rept_Date":"2020-04-17 12"},"coordinates":[2081,1934]},{"type":"Point","properties":{"Station_ID":"IL-LK-16","Station_Nam":"BUFFALO GROVE 1.5 N, IL","Latitude":"42.18800","Longitude":"-87.95900","Snowdepth":"3.600","Units":"in","Rept_Date":"2020-04-17 12"},"coordinates":[2166,2199]},{"type":"Point","properties":{"Station_ID":"IL-HN-1","Station_Nam":"DALLAS CITY 3.0 SSE, IL","Latitude":"40.59383","Longitude":"-91.14670","Snowdepth":"3.600","Units":"in","Rept_Date":"2020-04-17 12"},"coordinates":[1417,895]},{"type":"Point","properties":{"Station_ID":"VT-CL-3","Station_Nam":"GROTON 4.4 WSW, VT","Latitude":"44.19440","Longitude":"-72.28240","Snowdepth":"3.500","Units":"in","Rept_Date":"2020-04-17 10"},"coordinates":[5851,3840]},{"type":"Point","properties":{"Station_ID":"MO-DK-3","Station_Nam":"PATTONSBURG 6.9 SW, MO","Latitude":"39.98964","Longitude":"-94.24250","Snowdepth":"3.500","Units":"in","Rept_Date":"2020-04-17 12"},"coordinates":[689,401]},{"type":"Point","properties":{"Station_ID":"IL-WN-40","Station_Nam":"ROCKFORD 4.5 WSW, IL","Latitude":"42.24878","Longitude":"-89.14556","Snowdepth":"3.500","Units":"in","Rept_Date":"2020-04-17 12"},"coordinates":[1887,2249]},{"type":"Point","properties":{"Station_ID":"IL-KN-96","Station_Nam":"ELBURN 0.3 NW, IL","Latitude":"41.89390","Longitude":"-88.47610","Snowdepth":"3.500","Units":"in","Rept_Date":"2020-04-17 12"},"coordinates":[2045,1958]},{"type":"Point","properties":{"Station_ID":"IL-KN-9","Station_Nam":"ELGIN 1.0 S, IL","Latitude":"42.02560","Longitude":"-88.28850","Snowdepth":"3.500","Units":"in","Rept_Date":"2020-04-17 13"},"coordinates":[2089,2066]},{"type":"Point","properties":{"Station_ID":"IL-KN-23","Station_Nam":"BATAVIA 1.5 WNW, IL","Latitude":"41.85937","Longitude":"-88.32750","Snowdepth":"3.500","Units":"in","Rept_Date":"2020-04-17 12"},"coordinates":[2080,1930]},{"type":"Point","properties":{"Station_ID":"IL-KD-24","Station_Nam":"OSWEGO 5.0 SSE, IL","Latitude":"41.62933","Longitude":"-88.29910","Snowdepth":"3.500","Units":"in","Rept_Date":"2020-04-17 12"},"coordinates":[2086,1742]},{"type":"Point","properties":{"Station_ID":"IL-DP-78","Station_Nam":"NAPERVILLE 2.4 SE, IL","Latitude":"41.74184","Longitude":"-88.11620","Snowdepth":"3.500","Units":"in","Rept_Date":"2020-04-17 12"},"coordinates":[2129,1834]},{"type":"Point","properties":{"Station_ID":"IL-DP-155","Station_Nam":"MEDINAH 1.0 SSW, IL","Latitude":"41.96360","Longitude":"-88.06590","Snowdepth":"3.500","Units":"in","Rept_Date":"2020-04-17 13"},"coordinates":[2141,2015]},{"type":"Point","properties":{"Station_ID":"IL-DK-6","Station_Nam":"DE KALB 0.3 ENE, IL","Latitude":"41.93238","Longitude":"-88.74700","Snowdepth":"3.500","Units":"in","Rept_Date":"2020-04-17 12"},"coordinates":[1981,1990]},{"type":"Point","properties":{"Station_ID":"IA-LN-39","Station_Nam":"CEDAR RAPIDS 2.5 WSW, IA","Latitude":"41.95474","Longitude":"-91.71049","Snowdepth":"3.500","Units":"in","Rept_Date":"2020-04-17 12"},"coordinates":[1284,2008]},{"type":"Point","properties":{"Station_ID":"IA-BT-12","Station_Nam":"FAIRFAX 4.0 NW, IA","Latitude":"41.96223","Longitude":"-91.83675","Snowdepth":"3.500","Units":"in","Rept_Date":"2020-04-17 12"},"coordinates":[1255,2014]},{"type":"Point","properties":{"Station_ID":"IL-MCH-43","Station_Nam":"ALGONQUIN 0.7 N, IL","Latitude":"42.17392","Longitude":"-88.29930","Snowdepth":"3.200","Units":"in","Rept_Date":"2020-04-17 11"},"coordinates":[2086,2187]},{"type":"Point","properties":{"Station_ID":"IL-KN-95","Station_Nam":"ELGIN 2.5 W, IL","Latitude":"42.04041","Longitude":"-88.33660","Snowdepth":"3.100","Units":"in","Rept_Date":"2020-04-17 12"},"coordinates":[2077,2078]},{"type":"Point","properties":{"Station_ID":"IL-BN-19","Station_Nam":"BELVIDERE 5.0 NNW, IL","Latitude":"42.32071","Longitude":"-88.88282","Snowdepth":"3.100","Units":"in","Rept_Date":"2020-04-17 12"},"coordinates":[1949,2307]},{"type":"Point","properties":{"Station_ID":"YNG","Station_Nam":"YOUNGSTOWN-WARREN REG AIRPRT","Latitude":"41.25890","Longitude":"-80.67610","Snowdepth":"3.000","Units":"in","Rept_Date":"2020-04-18 00"},"coordinates":[3878,1439]},{"type":"Point","properties":{"Station_ID":"WTNM4","Station_Nam":"WATTON 2WSW","Latitude":"46.52660","Longitude":"-88.64240","Snowdepth":"3.000","Units":"in","Rept_Date":"2020-04-17 12"},"coordinates":[2006,5747]},{"type":"Point","properties":{"Station_ID":"WSKW3","Station_Nam":"WAUSAUKEE","Latitude":"45.38020","Longitude":"-87.95660","Snowdepth":"3.000","Units":"in","Rept_Date":"2020-04-17 13"},"coordinates":[2167,4809]},{"type":"Point","properties":{"Station_ID":"WILW3","Station_Nam":"RESERVOIR","Latitude":"45.70000","Longitude":"-89.83330","Snowdepth":"3.000","Units":"in","Rept_Date":"2020-04-17 16"},"coordinates":[1726,5071]},{"type":"Point","properties":{"Station_ID":"WI-VL-14","Station_Nam":"BOULDER JUNCTION 1.4 NE, WI","Latitude":"46.12840","Longitude":"-89.62470","Snowdepth":"3.000","Units":"in","Rept_Date":"2020-04-17 12"},"coordinates":[1775,5421]},{"type":"Point","properties":{"Station_ID":"WGCI4","Station_Nam":"WAVELAND","Latitude":"41.58330","Longitude":"-93.66670","Snowdepth":"3.000","Units":"in","Rept_Date":"2020-04-17 12"},"coordinates":[825,1705]},{"type":"Point","properties":{"Station_ID":"VT-OL-12","Station_Nam":"GREENSBORO 3.9 NNE, VT","Latitude":"44.63100","Longitude":"-72.28000","Snowdepth":"3.000","Units":"in","Rept_Date":"2020-04-17 09"},"coordinates":[5851,4197]},{"type":"Point","properties":{"Station_ID":"TLDI4","Station_Nam":"TOLEDO,IA","Latitude":"41.98330","Longitude":"-92.58330","Snowdepth":"3.000","Units":"in","Rept_Date":"2020-04-17 12"},"coordinates":[1079,2032]},{"type":"Point","properties":{"Station_ID":"TBLN1","Station_Nam":"TABLE ROCK,NE","Latitude":"40.23610","Longitude":"-96.08890","Snowdepth":"3.000","Units":"in","Rept_Date":"2020-04-17 12"},"coordinates":[255,603]},{"type":"Point","properties":{"Station_ID":"SUAW3","Station_Nam":"SUAMICO","Latitude":"44.60190","Longitude":"-88.09780","Snowdepth":"3.000","Units":"in","Rept_Date":"2020-04-17 16"},"coordinates":[2134,4173]},{"type":"Point","properties":{"Station_ID":"STAI2","Station_Nam":"STREATOR,IL","Latitude":"41.10000","Longitude":"-88.81670","Snowdepth":"3.000","Units":"in","Rept_Date":"2020-04-17 12"},"coordinates":[1965,1309]},{"type":"Point","properties":{"Station_ID":"SBTN1","Station_Nam":"SHUBERT 2SW","Latitude":"40.20330","Longitude":"-95.70860","Snowdepth":"3.000","Units":"in","Rept_Date":"2020-04-17 12"},"coordinates":[345,576]},{"type":"Point","properties":{"Station_ID":"RKPM7","Station_Nam":"ROCKPORT 1NNW","Latitude":"40.42640","Longitude":"-95.52000","Snowdepth":"3.000","Units":"in","Rept_Date":"2020-04-17 12"},"coordinates":[389,759]},{"type":"Point","properties":{"Station_ID":"RHLW3","Station_Nam":"RHINELANDER 4NE","Latitude":"45.65270","Longitude":"-89.30740","Snowdepth":"3.000","Units":"in","Rept_Date":"2020-04-17 16"},"coordinates":[1849,5032]},{"type":"Point","properties":{"Station_ID":"RHI","Station_Nam":"RHINELANDER-ONEIDA COUNTY AIRPORT","Latitude":"45.63080","Longitude":"-89.46530","Snowdepth":"3.000","Units":"in","Rept_Date":"2020-04-17 12"},"coordinates":[1812,5014]},{"type":"Point","properties":{"Station_ID":"PEKN6","Station_Nam":"PECK LAKE","Latitude":"43.11500","Longitude":"-74.42360","Snowdepth":"3.000","Units":"in","Rept_Date":"2020-04-17 11"},"coordinates":[5348,2957]},{"type":"Point","properties":{"Station_ID":"PAWI2","Station_Nam":"PAW PAW,IL","Latitude":"41.70000","Longitude":"-88.96670","Snowdepth":"3.000","Units":"in","Rept_Date":"2020-04-17 12"},"coordinates":[1929,1800]},{"type":"Point","properties":{"Station_ID":"OSKI4","Station_Nam":"OSKALOOSA,IA","Latitude":"41.31670","Longitude":"-92.65000","Snowdepth":"3.000","Units":"in","Rept_Date":"2020-04-17 12"},"coordinates":[1064,1487]},{"type":"Point","properties":{"Station_ID":"NY-HR-18","Station_Nam":"SALISBURY CENTER 1.8 NW, NY","Latitude":"43.16260","Longitude":"-74.80880","Snowdepth":"3.000","Units":"in","Rept_Date":"2020-04-17 10"},"coordinates":[5257,2996]},{"type":"Point","properties":{"Station_ID":"NEMA002","Station_Nam":"BROWNVILLE 0.2 SW, NE","Latitude":"40.39560","Longitude":"-95.66010","Snowdepth":"3.000","Units":"in","Rept_Date":"2020-04-17 12"},"coordinates":[356,733]},{"type":"Point","properties":{"Station_ID":"MSTI4","Station_Nam":"MUSCATINE 2N","Latitude":"41.47130","Longitude":"-91.04630","Snowdepth":"3.000","Units":"in","Rept_Date":"2020-04-17 12"},"coordinates":[1441,1613]},{"type":"Point","properties":{"Station_ID":"MSHI4","Station_Nam":"MARSHALLTOWN,IA","Latitude":"42.06670","Longitude":"-92.93330","Snowdepth":"3.000","Units":"in","Rept_Date":"2020-04-17 12"},"coordinates":[997,2100]},{"type":"Point","properties":{"Station_ID":"MO-AW-7","Station_Nam":"REA 5.5 E, MO","Latitude":"40.05900","Longitude":"-94.66000","Snowdepth":"3.000","Units":"in","Rept_Date":"2020-04-17 13"},"coordinates":[591,458]},{"type":"Point","properties":{"Station_ID":"MNCKG6BM","Station_Nam":"VISTA 4.6 SE","Latitude":"43.91333","Longitude":"-93.39663","Snowdepth":"3.000","Units":"in","Rept_Date":"2020-04-17 12"},"coordinates":[888,3610]},{"type":"Point","properties":{"Station_ID":"MN-CK-18","Station_Nam":"GRAND MARAIS 4.4 WSW, MN","Latitude":"47.74462","Longitude":"-90.43796","Snowdepth":"3.000","Units":"in","Rept_Date":"2020-04-17 12"},"coordinates":[1584,6743]},{"type":"Point","properties":{"Station_ID":"MKTI4","Station_Nam":"MAQUOKETA","Latitude":"42.07710","Longitude":"-90.66470","Snowdepth":"3.000","Units":"in","Rept_Date":"2020-04-17 12"},"coordinates":[1530,2108]},{"type":"Point","properties":{"Station_ID":"MIEM4","Station_Nam":"MICHIGAMME 3WNW","Latitude":"46.54530","Longitude":"-88.18000","Snowdepth":"3.000","Units":"in","Rept_Date":"2020-04-17 12"},"coordinates":[2114,5762]},{"type":"Point","properties":{"Station_ID":"LOGI4","Station_Nam":"LOGAN,IA","Latitude":"41.63330","Longitude":"-95.81670","Snowdepth":"3.000","Units":"in","Rept_Date":"2020-04-17 12"},"coordinates":[319,1745]},{"type":"Point","properties":{"Station_ID":"KRFD","Station_Nam":"GREATER ROCKFORD AIRPORT","Latitude":"42.20000","Longitude":"-89.10000","Snowdepth":"3.000","Units":"in","Rept_Date":"2020-04-17 12"},"coordinates":[1898,2209]},{"type":"Point","properties":{"Station_ID":"KOFF","Station_Nam":"OMAHA / OFFUTT AIR FORCE BASE","Latitude":"41.11666","Longitude":"-95.90000","Snowdepth":"3.000","Units":"in","Rept_Date":"2020-04-17 18"},"coordinates":[300,1323]},{"type":"Point","properties":{"Station_ID":"KDSM","Station_Nam":"DES MOINES INTERNATIONAL","Latitude":"41.53333","Longitude":"-93.66666","Snowdepth":"3.000","Units":"in","Rept_Date":"2020-04-17 12"},"coordinates":[825,1664]},{"type":"Point","properties":{"Station_ID":"IN-PT-133","Station_Nam":"VALPARAISO 2.2 WNW, IN","Latitude":"41.49345","Longitude":"-87.08720","Snowdepth":"3.000","Units":"in","Rept_Date":"2020-04-17 12"},"coordinates":[2371,1631]},{"type":"Point","properties":{"Station_ID":"IN-KS-55","Station_Nam":"WARSAW 4.0 NNE, IN","Latitude":"41.29447","Longitude":"-85.82166","Snowdepth":"3.000","Units":"in","Rept_Date":"2020-04-17 21"},"coordinates":[2669,1468]},{"type":"Point","properties":{"Station_ID":"IL-WL-63","Station_Nam":"NEW LENOX 1.8 SE, IL","Latitude":"41.49964","Longitude":"-87.96030","Snowdepth":"3.000","Units":"in","Rept_Date":"2020-04-17 12"},"coordinates":[2166,1636]},{"type":"Point","properties":{"Station_ID":"IL-WL-16","Station_Nam":"HOMER GLEN 0.8 ENE, IL","Latitude":"41.62737","Longitude":"-87.92810","Snowdepth":"3.000","Units":"in","Rept_Date":"2020-04-17 12"},"coordinates":[2173,1741]},{"type":"Point","properties":{"Station_ID":"IL-SP-14","Station_Nam":"FREEPORT 1.7 ESE, IL","Latitude":"42.28257","Longitude":"-89.60360","Snowdepth":"3.000","Units":"in","Rept_Date":"2020-04-17 12"},"coordinates":[1780,2276]},{"type":"Point","properties":{"Station_ID":"IL-MCH-33","Station_Nam":"WOODSTOCK 3.8 SW, IL","Latitude":"42.27554","Longitude":"-88.49500","Snowdepth":"3.000","Units":"in","Rept_Date":"2020-04-17 15"},"coordinates":[2040,2271]},{"type":"Point","properties":{"Station_ID":"IL-KN-5","Station_Nam":"BATAVIA 0.7 WSW, IL","Latitude":"41.84815","Longitude":"-88.31440","Snowdepth":"3.000","Units":"in","Rept_Date":"2020-04-17 11"},"coordinates":[2083,1921]},{"type":"Point","properties":{"Station_ID":"IL-KN-4","Station_Nam":"SUGAR GROVE 0.7 NE, IL","Latitude":"41.77622","Longitude":"-88.44780","Snowdepth":"3.000","Units":"in","Rept_Date":"2020-04-17 12"},"coordinates":[2051,1862]},{"type":"Point","properties":{"Station_ID":"IL-KN-33","Station_Nam":"NORTH AURORA 1.5 NE, IL","Latitude":"41.81629","Longitude":"-88.30680","Snowdepth":"3.000","Units":"in","Rept_Date":"2020-04-17 12"},"coordinates":[2084,1895]},{"type":"Point","properties":{"Station_ID":"IL-KN-121","Station_Nam":"GENEVA 1.3 NW, IL","Latitude":"41.89380","Longitude":"-88.33500","Snowdepth":"3.000","Units":"in","Rept_Date":"2020-04-17 12"},"coordinates":[2078,1958]},{"type":"Point","properties":{"Station_ID":"IL-KD-34","Station_Nam":"PLAINFIELD 4.8 SW, IL","Latitude":"41.56779","Longitude":"-88.27010","Snowdepth":"3.000","Units":"in","Rept_Date":"2020-04-17 12"},"coordinates":[2093,1692]},{"type":"Point","properties":{"Station_ID":"IL-DP-32","Station_Nam":"LISLE 1.3 SE, IL","Latitude":"41.78143","Longitude":"-88.06740","Snowdepth":"3.000","Units":"in","Rept_Date":"2020-04-17 12"},"coordinates":[2141,1867]},{"type":"Point","properties":{"Station_ID":"IL-DP-16","Station_Nam":"AURORA 3.6 SE, IL","Latitude":"41.73455","Longitude":"-88.23910","Snowdepth":"3.000","Units":"in","Rept_Date":"2020-04-17 12"},"coordinates":[2100,1828]},{"type":"Point","properties":{"Station_ID":"IL-DP-127","Station_Nam":"DOWNERS GROVE 0.4 NNE, IL","Latitude":"41.80331","Longitude":"-88.01542","Snowdepth":"3.000","Units":"in","Rept_Date":"2020-04-17 12"},"coordinates":[2153,1884]},{"type":"Point","properties":{"Station_ID":"IL-CK-296","Station_Nam":"CHICAGO HEIGHTS 2.4 NNW, IL","Latitude":"41.54277","Longitude":"-87.65407","Snowdepth":"3.000","Units":"in","Rept_Date":"2020-04-17 13"},"coordinates":[2238,1671]},{"type":"Point","properties":{"Station_ID":"IL-BU-9","Station_Nam":"LA MOILLE 0.2 NNE, IL","Latitude":"41.53266","Longitude":"-89.27880","Snowdepth":"3.000","Units":"in","Rept_Date":"2020-04-17 13"},"coordinates":[1856,1663]},{"type":"Point","properties":{"Station_ID":"IA-WR-5","Station_Nam":"HARTFORD 1.0 ENE, IA","Latitude":"41.46110","Longitude":"-93.38590","Snowdepth":"3.000","Units":"in","Rept_Date":"2020-04-17 13"},"coordinates":[891,1605]},{"type":"Point","properties":{"Station_ID":"IA-ST-48","Station_Nam":"BETTENDORF 1.6 W, IA","Latitude":"41.56502","Longitude":"-90.50767","Snowdepth":"3.000","Units":"in","Rept_Date":"2020-04-17 12"},"coordinates":[1567,1690]},{"type":"Point","properties":{"Station_ID":"IA-ST-3","Station_Nam":"PARK VIEW 0.2 WSW, IA","Latitude":"41.68855","Longitude":"-90.54380","Snowdepth":"3.000","Units":"in","Rept_Date":"2020-04-17 12"},"coordinates":[1559,1791]},{"type":"Point","properties":{"Station_ID":"IA-PK-83","Station_Nam":"ALTOONA 1.5 SSE, IA","Latitude":"41.63125","Longitude":"-93.46584","Snowdepth":"3.000","Units":"in","Rept_Date":"2020-04-17 12"},"coordinates":[872,1744]},{"type":"Point","properties":{"Station_ID":"IA-PK-108","Station_Nam":"DES MOINES 5.0 NNW, IA","Latitude":"41.63964","Longitude":"-93.66346","Snowdepth":"3.000","Units":"in","Rept_Date":"2020-04-17 12"},"coordinates":[825,1751]},{"type":"Point","properties":{"Station_ID":"IA-LN-7","Station_Nam":"CENTRAL CITY 6.7 W, IA","Latitude":"42.19830","Longitude":"-91.65430","Snowdepth":"3.000","Units":"in","Rept_Date":"2020-04-17 12"},"coordinates":[1298,2207]},{"type":"Point","properties":{"Station_ID":"IA-HR-16","Station_Nam":"LOGAN 0.8 WNW, IA","Latitude":"41.65000","Longitude":"-95.80577","Snowdepth":"3.000","Units":"in","Rept_Date":"2020-04-17 12"},"coordinates":[322,1759]},{"type":"Point","properties":{"Station_ID":"IA-DM-7","Station_Nam":"BURLINGTON 6.5 SSW, IA","Latitude":"40.72962","Longitude":"-91.18970","Snowdepth":"3.000","Units":"in","Rept_Date":"2020-04-17 12"},"coordinates":[1407,1006]},{"type":"Point","properties":{"Station_ID":"HRFI4","Station_Nam":"HARTFORD,IA","Latitude":"41.46670","Longitude":"-93.41670","Snowdepth":"3.000","Units":"in","Rept_Date":"2020-04-17 13"},"coordinates":[883,1609]},{"type":"Point","properties":{"Station_ID":"GRWI4","Station_Nam":"GARWIN,IA","Latitude":"42.10000","Longitude":"-92.66670","Snowdepth":"3.000","Units":"in","Rept_Date":"2020-04-17 11"},"coordinates":[1060,2127]},{"type":"Point","properties":{"Station_ID":"EVRW3","Station_Nam":"EAGLE RIVER-4 E","Latitude":"45.91890","Longitude":"-89.15280","Snowdepth":"3.000","Units":"in","Rept_Date":"2020-04-17 11"},"coordinates":[1886,5250]},{"type":"Point","properties":{"Station_ID":"ERRW3","Station_Nam":"MERRILL-4 W","Latitude":"45.17360","Longitude":"-89.77580","Snowdepth":"3.000","Units":"in","Rept_Date":"2020-04-17 21"},"coordinates":[1739,4640]},{"type":"Point","properties":{"Station_ID":"EGNI2","Station_Nam":"ELGIN","Latitude":"42.02590","Longitude":"-88.28860","Snowdepth":"3.000","Units":"in","Rept_Date":"2020-04-17 13"},"coordinates":[2089,2066]},{"type":"Point","properties":{"Station_ID":"EDNO1","Station_Nam":"EDON 4S","Latitude":"41.49810","Longitude":"-84.77440","Snowdepth":"3.000","Units":"in","Rept_Date":"2020-04-17 20"},"coordinates":[2915,1635]},{"type":"Point","properties":{"Station_ID":"DXNI2","Station_Nam":"DIXON,IL","Latitude":"41.83330","Longitude":"-89.51670","Snowdepth":"3.000","Units":"in","Rept_Date":"2020-04-17 13"},"coordinates":[1800,1909]},{"type":"Point","properties":{"Station_ID":"DSXI4","Station_Nam":"DES MOINES SNOW","Latitude":"41.54130","Longitude":"-93.65570","Snowdepth":"3.000","Units":"in","Rept_Date":"2020-04-18 05"},"coordinates":[827,1670]},{"type":"Point","properties":{"Station_ID":"BREW3","Station_Nam":"SURING","Latitude":"44.99580","Longitude":"-88.37860","Snowdepth":"3.000","Units":"in","Rept_Date":"2020-04-17 12"},"coordinates":[2068,4495]},{"type":"Point","properties":{"Station_ID":"BLLI4","Station_Nam":"BELLE PLAINE","Latitude":"41.88140","Longitude":"-92.27640","Snowdepth":"3.000","Units":"in","Rept_Date":"2020-04-17 12"},"coordinates":[1151,1948]},{"type":"Point","properties":{"Station_ID":"BEYM7","Station_Nam":"BETHANY","Latitude":"40.25750","Longitude":"-94.02690","Snowdepth":"3.000","Units":"in","Rept_Date":"2020-04-17 10"},"coordinates":[740,620]},{"type":"Point","properties":{"Station_ID":"ARBM4","Station_Nam":"UNIV OF MICH","Latitude":"42.30000","Longitude":"-83.71670","Snowdepth":"3.000","Units":"in","Rept_Date":"2020-04-17 22"},"coordinates":[3163,2291]},{"type":"Point","properties":{"Station_ID":"AMOI4","Station_Nam":"ANAMOSA 3 SSW","Latitude":"42.07630","Longitude":"-91.30190","Snowdepth":"3.000","Units":"in","Rept_Date":"2020-04-17 11"},"coordinates":[1380,2108]},{"type":"Point","properties":{"Station_ID":"AMAM4","Station_Nam":"AMASA 1W","Latitude":"46.23470","Longitude":"-88.45440","Snowdepth":"3.000","Units":"in","Rept_Date":"2020-04-17 13"},"coordinates":[2050,5508]},{"type":"Point","properties":{"Station_ID":"ALAM7","Station_Nam":"ALBANY","Latitude":"40.24860","Longitude":"-94.33080","Snowdepth":"3.000","Units":"in","Rept_Date":"2020-04-17 12"},"coordinates":[669,613]},{"type":"Point","properties":{"Station_ID":"AGSW3","Station_Nam":"AUGUSTA RANGER STATION","Latitude":"44.68250","Longitude":"-91.13570","Snowdepth":"3.000","Units":"in","Rept_Date":"2020-04-17 13"},"coordinates":[1420,4239]},{"type":"Point","properties":{"Station_ID":"41.8966_080.1567","Station_Nam":"2 NW EDINBORO  SNOW SPOTTER (CLE0251)","Latitude":"41.89660","Longitude":"-80.15670","Snowdepth":"3.000","Units":"in","Rept_Date":"2020-04-17 21"},"coordinates":[4000,1961]},{"type":"Point","properties":{"Station_ID":"41.8478_080.6111","Station_Nam":"4 SSW CONNEAUT I-90  TRAINED SPOTTER (CLE1457)","Latitude":"41.84780","Longitude":"-80.61110","Snowdepth":"3.000","Units":"in","Rept_Date":"2020-04-17 23"},"coordinates":[3893,1921]},{"type":"Point","properties":{"Station_ID":"41.7260_080.9910","Station_Nam":"3 E South Madison  Trained Spotter (CLE1474)","Latitude":"41.72602","Longitude":"-80.99102","Snowdepth":"3.000","Units":"in","Rept_Date":"2020-04-18 01"},"coordinates":[3804,1821]},{"type":"Point","properties":{"Station_ID":"41.6972_080.9056","Station_Nam":"3 ENE Trumbull  Trained Spotter (CLE1480)","Latitude":"41.69720","Longitude":"-80.90557","Snowdepth":"3.000","Units":"in","Rept_Date":"2020-04-17 21"},"coordinates":[3824,1798]},{"type":"Point","properties":{"Station_ID":"41.6544_080.1373","Station_Nam":"MEADVILLE  SNOW SPOTTER (CLE0342)","Latitude":"41.65440","Longitude":"-80.13730","Snowdepth":"3.000","Units":"in","Rept_Date":"2020-04-18 00"},"coordinates":[4005,1763]},{"type":"Point","properties":{"Station_ID":"41.5909_081.0473","Station_Nam":"MONTVILLE (CLE1322)","Latitude":"41.59090","Longitude":"-81.04730","Snowdepth":"3.000","Units":"in","Rept_Date":"2020-04-17 23"},"coordinates":[3791,1711]},{"type":"Point","properties":{"Station_ID":"41.5363_080.8353","Station_Nam":"ORWELL 1E  SNOW SPOTTER (CLE1445)","Latitude":"41.53630","Longitude":"-80.83530","Snowdepth":"3.000","Units":"in","Rept_Date":"2020-04-18 00"},"coordinates":[3841,1666]},{"type":"Point","properties":{"Station_ID":"41.5183_081.4792","Station_Nam":"1 ENE Lyndhurst  Trained Spotter (CLE1177)","Latitude":"41.51834","Longitude":"-81.47919","Snowdepth":"3.000","Units":"in","Rept_Date":"2020-04-18 01"},"coordinates":[3689,1651]},{"type":"Point","properties":{"Station_ID":"41.4727_081.1835","Station_Nam":"2 W Burton  Trained Spotter (CLE1337)","Latitude":"41.47271","Longitude":"-81.18346","Snowdepth":"3.000","Units":"in","Rept_Date":"2020-04-17 21"},"coordinates":[3759,1614]},{"type":"Point","properties":{"Station_ID":"41.4716_081.1803","Station_Nam":"BURTON (CLE1314)","Latitude":"41.47160","Longitude":"-81.18030","Snowdepth":"3.000","Units":"in","Rept_Date":"2020-04-18 00"},"coordinates":[3759,1613]},{"type":"Point","properties":{"Station_ID":"41.4659_081.0677","Station_Nam":"1 NE Middlefield  Trained Spotter (X4150811)","Latitude":"41.46585","Longitude":"-81.06772","Snowdepth":"3.000","Units":"in","Rept_Date":"2020-04-17 23"},"coordinates":[3786,1608]},{"type":"Point","properties":{"Station_ID":"41.4330_081.4097","Station_Nam":"CHAGRIN FALLS  SNOW SPOTTER (CLE1172)","Latitude":"41.43300","Longitude":"-81.40970","Snowdepth":"3.000","Units":"in","Rept_Date":"2020-04-18 00"},"coordinates":[3706,1582]},{"type":"Point","properties":{"Station_ID":"41.4329_081.3593","Station_Nam":"1 W South Russell  Trained Spotter (CLE1338)","Latitude":"41.43292","Longitude":"-81.35927","Snowdepth":"3.000","Units":"in","Rept_Date":"2020-04-17 22"},"coordinates":[3717,1582]},{"type":"Point","properties":{"Station_ID":"41.3151_081.1434","Station_Nam":"HIRAM (CLE2220)","Latitude":"41.31510","Longitude":"-81.14340","Snowdepth":"3.000","Units":"in","Rept_Date":"2020-04-18 00"},"coordinates":[3768,1485]},{"type":"Point","properties":{"Station_ID":"41.2574_080.6670","Station_Nam":"Youngstown Regional Airport  Trained Spotter (CLE2302)","Latitude":"41.25735","Longitude":"-80.66700","Snowdepth":"3.000","Units":"in","Rept_Date":"2020-04-18 00"},"coordinates":[3880,1438]},{"type":"Point","properties":{"Station_ID":"41.1970_080.9871","Station_Nam":"NEWTON FALLS (CLE2322)","Latitude":"41.19700","Longitude":"-80.98710","Snowdepth":"3.000","Units":"in","Rept_Date":"2020-04-17 23"},"coordinates":[3805,1389]},{"type":"Point","properties":{"Station_ID":"IA-PK-37","Station_Nam":"WINDSOR HEIGHTS 0.8 SE, IA","Latitude":"41.59810","Longitude":"-93.69950","Snowdepth":"2.900","Units":"in","Rept_Date":"2020-04-17 12"},"coordinates":[817,1717]},{"type":"Point","properties":{"Station_ID":"IL-WL-131","Station_Nam":"HOMER GLEN 0.7 NNE, IL","Latitude":"41.60842","Longitude":"-87.93270","Snowdepth":"2.800","Units":"in","Rept_Date":"2020-04-17 12"},"coordinates":[2172,1725]},{"type":"Point","properties":{"Station_ID":"IL-LS-1","Station_Nam":"OTTAWA 1.3 NW, IL","Latitude":"41.36330","Longitude":"-88.85660","Snowdepth":"2.800","Units":"in","Rept_Date":"2020-04-17 13"},"coordinates":[1955,1525]},{"type":"Point","properties":{"Station_ID":"IL-HY-5","Station_Nam":"COAL VALLEY 1.9 SE, IL","Latitude":"41.43339","Longitude":"-90.41750","Snowdepth":"2.800","Units":"in","Rept_Date":"2020-04-17 12"},"coordinates":[1588,1582]},{"type":"Point","properties":{"Station_ID":"IL-CR-12","Station_Nam":"MOUNT CARROLL 6.8 NNW, IL","Latitude":"42.18735","Longitude":"-90.02185","Snowdepth":"2.800","Units":"in","Rept_Date":"2020-04-17 12"},"coordinates":[1681,2198]},{"type":"Point","properties":{"Station_ID":"IA-PK-88","Station_Nam":"DES MOINES 5.4 WNW, IA","Latitude":"41.61721","Longitude":"-93.70573","Snowdepth":"2.800","Units":"in","Rept_Date":"2020-04-17 12"},"coordinates":[815,1732]},{"type":"Point","properties":{"Station_ID":"IN-LP-2","Station_Nam":"WANATAH 4.4 ESE, IN","Latitude":"41.40870","Longitude":"-86.80960","Snowdepth":"2.750","Units":"in","Rept_Date":"2020-04-17 13"},"coordinates":[2436,1562]},{"type":"Point","properties":{"Station_ID":"IA-MC-13","Station_Nam":"MUSCATINE 2.1 N, IA","Latitude":"41.44808","Longitude":"-91.07428","Snowdepth":"2.700","Units":"in","Rept_Date":"2020-04-17 12"},"coordinates":[1434,1594]},{"type":"Point","properties":{"Station_ID":"IL-CK-64","Station_Nam":"HOMEWOOD 0.1 ESE, IL","Latitude":"41.55769","Longitude":"-87.65940","Snowdepth":"2.600","Units":"in","Rept_Date":"2020-04-17 12"},"coordinates":[2237,1684]},{"type":"Point","properties":{"Station_ID":"WI-TY-2","Station_Nam":"SHELDON 8.1 ENE, WI","Latitude":"45.35598","Longitude":"-90.80296","Snowdepth":"2.500","Units":"in","Rept_Date":"2020-04-17 12"},"coordinates":[1498,4789]},{"type":"Point","properties":{"Station_ID":"NY-ER-77","Station_Nam":"COLDEN 2.4 ENE, NY","Latitude":"42.65088","Longitude":"-78.61060","Snowdepth":"2.500","Units":"in","Rept_Date":"2020-04-17 12"},"coordinates":[4363,2577]},{"type":"Point","properties":{"Station_ID":"IN-LK-109","Station_Nam":"CEDAR LAKE 1.4 NW, IN","Latitude":"41.38649","Longitude":"-87.45626","Snowdepth":"2.500","Units":"in","Rept_Date":"2020-04-17 11"},"coordinates":[2284,1544]},{"type":"Point","properties":{"Station_ID":"IN-EL-57","Station_Nam":"GOSHEN 2.8 NW, IN","Latitude":"41.60298","Longitude":"-85.87781","Snowdepth":"2.500","Units":"in","Rept_Date":"2020-04-17 14"},"coordinates":[2655,1721]},{"type":"Point","properties":{"Station_ID":"IL-WL-80","Station_Nam":"LOCKPORT 1.3 SE, IL","Latitude":"41.57454","Longitude":"-88.03300","Snowdepth":"2.500","Units":"in","Rept_Date":"2020-04-17 12"},"coordinates":[2149,1697]},{"type":"Point","properties":{"Station_ID":"IL-WL-20","Station_Nam":"MANHATTAN 4.7 ENE, IL","Latitude":"41.45845","Longitude":"-87.90980","Snowdepth":"2.500","Units":"in","Rept_Date":"2020-04-17 13"},"coordinates":[2178,1602]},{"type":"Point","properties":{"Station_ID":"IL-WL-149","Station_Nam":"BULT FIELD-MONEE 4.9 SE, IL","Latitude":"41.37740","Longitude":"-87.67975","Snowdepth":"2.500","Units":"in","Rept_Date":"2020-04-17 13"},"coordinates":[2232,1536]},{"type":"Point","properties":{"Station_ID":"IL-WF-14","Station_Nam":"EL PASO 5.2 NNW, IL","Latitude":"40.80923","Longitude":"-89.05460","Snowdepth":"2.500","Units":"in","Rept_Date":"2020-04-17 12"},"coordinates":[1909,1072]},{"type":"Point","properties":{"Station_ID":"IL-LS-60","Station_Nam":"PERU 0.7 ENE, IL","Latitude":"41.34699","Longitude":"-89.11766","Snowdepth":"2.500","Units":"in","Rept_Date":"2020-04-17 12"},"coordinates":[1894,1511]},{"type":"Point","properties":{"Station_ID":"IL-LS-34","Station_Nam":"LA SALLE 0.1 W, IL","Latitude":"41.34015","Longitude":"-89.09590","Snowdepth":"2.500","Units":"in","Rept_Date":"2020-04-17 12"},"coordinates":[1899,1506]},{"type":"Point","properties":{"Station_ID":"IL-KN-62","Station_Nam":"BATAVIA 1.3 WNW, IL","Latitude":"41.85917","Longitude":"-88.32210","Snowdepth":"2.500","Units":"in","Rept_Date":"2020-04-17 12"},"coordinates":[2081,1930]},{"type":"Point","properties":{"Station_ID":"IL-KN-124","Station_Nam":"AURORA 3.1 WSW, IL","Latitude":"41.75647","Longitude":"-88.35182","Snowdepth":"2.500","Units":"in","Rept_Date":"2020-04-17 12"},"coordinates":[2074,1846]},{"type":"Point","properties":{"Station_ID":"IL-JD-6","Station_Nam":"HANOVER 0.2 NW, IL","Latitude":"42.25640","Longitude":"-90.28109","Snowdepth":"2.500","Units":"in","Rept_Date":"2020-04-17 12"},"coordinates":[1620,2255]},{"type":"Point","properties":{"Station_ID":"IL-GY-10","Station_Nam":"MINOOKA 0.3 NE, IL","Latitude":"41.45182","Longitude":"-88.25430","Snowdepth":"2.500","Units":"in","Rept_Date":"2020-04-17 13"},"coordinates":[2097,1597]},{"type":"Point","properties":{"Station_ID":"IL-DP-79","Station_Nam":"BURR RIDGE 1.9 SW, IL","Latitude":"41.73194","Longitude":"-87.94860","Snowdepth":"2.500","Units":"in","Rept_Date":"2020-04-17 13"},"coordinates":[2169,1826]},{"type":"Point","properties":{"Station_ID":"IL-DP-75","Station_Nam":"NAPERVILLE 1.1 NW, IL","Latitude":"41.77288","Longitude":"-88.17130","Snowdepth":"2.500","Units":"in","Rept_Date":"2020-04-17 13"},"coordinates":[2116,1860]},{"type":"Point","properties":{"Station_ID":"IL-DP-102","Station_Nam":"BOLINGBROOK 2.7 NE, IL","Latitude":"41.73019","Longitude":"-88.04479","Snowdepth":"2.500","Units":"in","Rept_Date":"2020-04-17 12"},"coordinates":[2146,1825]},{"type":"Point","properties":{"Station_ID":"IL-DP-101","Station_Nam":"AURORA 3.8 SE, IL","Latitude":"41.73035","Longitude":"-88.23760","Snowdepth":"2.500","Units":"in","Rept_Date":"2020-04-17 15"},"coordinates":[2101,1825]},{"type":"Point","properties":{"Station_ID":"IL-CK-131","Station_Nam":"SCHAUMBURG 2.0 E, IL","Latitude":"42.03028","Longitude":"-88.04400","Snowdepth":"2.500","Units":"in","Rept_Date":"2020-04-17 12"},"coordinates":[2146,2070]},{"type":"Point","properties":{"Station_ID":"IA-ST-8","Station_Nam":"BETTENDORF 2.2 SE, IA","Latitude":"41.54013","Longitude":"-90.44920","Snowdepth":"2.500","Units":"in","Rept_Date":"2020-04-17 12"},"coordinates":[1581,1669]},{"type":"Point","properties":{"Station_ID":"IA-ST-4","Station_Nam":"DAVENPORT 0.9 SSW, IA","Latitude":"41.52643","Longitude":"-90.58580","Snowdepth":"2.500","Units":"in","Rept_Date":"2020-04-17 12"},"coordinates":[1549,1658]},{"type":"Point","properties":{"Station_ID":"IA-ST-37","Station_Nam":"DAVENPORT 0.9 WNW, IA","Latitude":"41.54450","Longitude":"-90.59100","Snowdepth":"2.500","Units":"in","Rept_Date":"2020-04-17 12"},"coordinates":[1548,1673]},{"type":"Point","properties":{"Station_ID":"IA-LS-5","Station_Nam":"WAPELLO 5.4 SE, IA","Latitude":"41.11441","Longitude":"-91.13017","Snowdepth":"2.500","Units":"in","Rept_Date":"2020-04-17 12"},"coordinates":[1421,1321]},{"type":"Point","properties":{"Station_ID":"IN-LK-107","Station_Nam":"LOWELL 3.1 NNW, IN","Latitude":"41.33596","Longitude":"-87.43737","Snowdepth":"2.400","Units":"in","Rept_Date":"2020-04-17 13"},"coordinates":[2289,1502]},{"type":"Point","properties":{"Station_ID":"IL-SP-25","Station_Nam":"FREEPORT 1.7 NW, IL","Latitude":"42.30427","Longitude":"-89.66285","Snowdepth":"2.400","Units":"in","Rept_Date":"2020-04-17 12"},"coordinates":[1766,2294]},{"type":"Point","properties":{"Station_ID":"IL-LK-69","Station_Nam":"HIGHWOOD 0.9 S, IL","Latitude":"42.19841","Longitude":"-87.81400","Snowdepth":"2.400","Units":"in","Rept_Date":"2020-04-17 12"},"coordinates":[2200,2207]},{"type":"Point","properties":{"Station_ID":"CAN-QC-47","Station_Nam":"SAINTE-FOY 1.8 ENE, CAN","Latitude":"46.76934","Longitude":"-71.27124","Snowdepth":"2.400","Units":"in","Rept_Date":"2020-04-17 11"},"coordinates":[6089,5945]},{"type":"Point","properties":{"Station_ID":"MI-BN-2","Station_Nam":"STEVENSVILLE 1.7 SSE, MI","Latitude":"41.99114","Longitude":"-86.50860","Snowdepth":"2.300","Units":"in","Rept_Date":"2020-04-17 11"},"coordinates":[2507,2038]},{"type":"Point","properties":{"Station_ID":"IN-KS-61","Station_Nam":"WINONA LAKE 0.9 SW, IN","Latitude":"41.21009","Longitude":"-85.82770","Snowdepth":"2.200","Units":"in","Rept_Date":"2020-04-17 17"},"coordinates":[2667,1399]},{"type":"Point","properties":{"Station_ID":"IL-HN-2","Station_Nam":"WARSAW 5.8 SE, IL","Latitude":"40.28743","Longitude":"-91.35880","Snowdepth":"2.200","Units":"in","Rept_Date":"2020-04-17 12"},"coordinates":[1367,645]},{"type":"Point","properties":{"Station_ID":"WSWN6","Station_Nam":"WARSAW","Latitude":"42.74220","Longitude":"-78.20850","Snowdepth":"2.000","Units":"in","Rept_Date":"2020-04-17 11"},"coordinates":[4458,2652]},{"type":"Point","properties":{"Station_ID":"WRSN6","Station_Nam":"WARSAW 6SW","Latitude":"42.68550","Longitude":"-78.22020","Snowdepth":"2.000","Units":"in","Rept_Date":"2020-04-17 11"},"coordinates":[4455,2606]},{"type":"Point","properties":{"Station_ID":"WODI2","Station_Nam":"WOODSTOCK","Latitude":"42.36280","Longitude":"-88.53140","Snowdepth":"2.000","Units":"in","Rept_Date":"2020-04-17 12"},"coordinates":[2032,2342]},{"type":"Point","properties":{"Station_ID":"WJWI2","Station_Nam":"WESTMONT,IL","Latitude":"41.80000","Longitude":"-87.95000","Snowdepth":"2.000","Units":"in","Rept_Date":"2020-04-17 12"},"coordinates":[2168,1882]},{"type":"Point","properties":{"Station_ID":"WI-PR-6","Station_Nam":"PHILLIPS 1.3 S, WI","Latitude":"45.67677","Longitude":"-90.39543","Snowdepth":"2.000","Units":"in","Rept_Date":"2020-04-17 11"},"coordinates":[1594,5052]},{"type":"Point","properties":{"Station_ID":"WI-MT-19","Station_Nam":"EVERGREEN 1.5 WSW, WI","Latitude":"44.83512","Longitude":"-89.66528","Snowdepth":"2.000","Units":"in","Rept_Date":"2020-04-17 12"},"coordinates":[1765,4364]},{"type":"Point","properties":{"Station_ID":"WHTI2","Station_Nam":"WHEATON,IL","Latitude":"41.81330","Longitude":"-88.07360","Snowdepth":"2.000","Units":"in","Rept_Date":"2020-04-17 12"},"coordinates":[2139,1893]},{"type":"Point","properties":{"Station_ID":"VNTI4","Station_Nam":"VINTON","Latitude":"42.17020","Longitude":"-92.00770","Snowdepth":"2.000","Units":"in","Rept_Date":"2020-04-17 12"},"coordinates":[1215,2184]},{"type":"Point","properties":{"Station_ID":"TCMN1","Station_Nam":"TECUMSEH,NE","Latitude":"40.36670","Longitude":"-96.18330","Snowdepth":"2.000","Units":"in","Rept_Date":"2020-04-17 13"},"coordinates":[233,710]},{"type":"Point","properties":{"Station_ID":"SVSN6","Station_Nam":"SILVER SPRINGS 3N","Latitude":"42.70580","Longitude":"-78.09370","Snowdepth":"2.000","Units":"in","Rept_Date":"2020-04-17 11"},"coordinates":[4485,2622]},{"type":"Point","properties":{"Station_ID":"SULW3","Station_Nam":"SUMMIT LAKE","Latitude":"45.37880","Longitude":"-89.19410","Snowdepth":"2.000","Units":"in","Rept_Date":"2020-04-17 15"},"coordinates":[1876,4808]},{"type":"Point","properties":{"Station_ID":"SSMM4","Station_Nam":"SAULT STE MARIE","Latitude":"46.48660","Longitude":"-84.40250","Snowdepth":"2.000","Units":"in","Rept_Date":"2020-04-17 12"},"coordinates":[3002,5714]},{"type":"Point","properties":{"Station_ID":"SPKM7","Station_Nam":"SPICKARD 7W","Latitude":"40.24720","Longitude":"-93.71580","Snowdepth":"2.000","Units":"in","Rept_Date":"2020-04-17 12"},"coordinates":[813,612]},{"type":"Point","properties":{"Station_ID":"SLMN1","Station_Nam":"SALEM 5SW","Latitude":"40.02250","Longitude":"-95.78830","Snowdepth":"2.000","Units":"in","Rept_Date":"2020-04-17 12"},"coordinates":[326,428]},{"type":"Point","properties":{"Station_ID":"RSCI2","Station_Nam":"ROSCOE","Latitude":"42.40500","Longitude":"-88.97940","Snowdepth":"2.000","Units":"in","Rept_Date":"2020-04-17 11"},"coordinates":[1926,2376]},{"type":"Point","properties":{"Station_ID":"RRLW3","Station_Nam":"MERRILL,WI","Latitude":"45.17860","Longitude":"-89.66170","Snowdepth":"2.000","Units":"in","Rept_Date":"2020-04-17 13"},"coordinates":[1766,4644]},{"type":"Point","properties":{"Station_ID":"ROAI2","Station_Nam":"ROANOKE","Latitude":"40.79830","Longitude":"-89.19470","Snowdepth":"2.000","Units":"in","Rept_Date":"2020-04-17 12"},"coordinates":[1876,1063]},{"type":"Point","properties":{"Station_ID":"PRCI2","Station_Nam":"PRAIRIE CITY","Latitude":"40.59140","Longitude":"-90.46390","Snowdepth":"2.000","Units":"in","Rept_Date":"2020-04-17 11"},"coordinates":[1577,893]},{"type":"Point","properties":{"Station_ID":"PEOI2","Station_Nam":"PEOTONE,IL","Latitude":"41.33330","Longitude":"-87.80000","Snowdepth":"2.000","Units":"in","Rept_Date":"2020-04-17 12"},"coordinates":[2204,1500]},{"type":"Point","properties":{"Station_ID":"PEAI4","Station_Nam":"PELLA,IA","Latitude":"41.46670","Longitude":"-92.91670","Snowdepth":"2.000","Units":"in","Rept_Date":"2020-04-17 12"},"coordinates":[1001,1609]},{"type":"Point","properties":{"Station_ID":"OTTI2","Station_Nam":"OTTAWA,IL","Latitude":"41.32830","Longitude":"-88.91060","Snowdepth":"2.000","Units":"in","Rept_Date":"2020-04-17 13"},"coordinates":[1943,1496]},{"type":"Point","properties":{"Station_ID":"NY-WY-11","Station_Nam":"SILVER SPRINGS COOP, NY","Latitude":"42.70580","Longitude":"-78.09370","Snowdepth":"2.000","Units":"in","Rept_Date":"2020-04-17 11"},"coordinates":[4485,2622]},{"type":"Point","properties":{"Station_ID":"NY-ER-63","Station_Nam":"GLENWOOD 1.5 SE, NY","Latitude":"42.60195","Longitude":"-78.63910","Snowdepth":"2.000","Units":"in","Rept_Date":"2020-04-17 11"},"coordinates":[4357,2537]},{"type":"Point","properties":{"Station_ID":"NWTI4","Station_Nam":"NEWTON,IA","Latitude":"41.70000","Longitude":"-93.05000","Snowdepth":"2.000","Units":"in","Rept_Date":"2020-04-17 12"},"coordinates":[970,1800]},{"type":"Point","properties":{"Station_ID":"NILM4","Station_Nam":"NILES","Latitude":"41.84050","Longitude":"-86.26580","Snowdepth":"2.000","Units":"in","Rept_Date":"2020-04-17 19"},"coordinates":[2564,1915]},{"type":"Point","properties":{"Station_ID":"NH-CR-15","Station_Nam":"JACKSON 3.7 NW, NH","Latitude":"44.19069","Longitude":"-71.22598","Snowdepth":"2.000","Units":"in","Rept_Date":"2020-04-17 11"},"coordinates":[6099,3837]},{"type":"Point","properties":{"Station_ID":"MZUI4","Station_Nam":"MONTEZUMA,IA","Latitude":"41.58330","Longitude":"-92.53330","Snowdepth":"2.000","Units":"in","Rept_Date":"2020-04-17 12"},"coordinates":[1091,1705]},{"type":"Point","properties":{"Station_ID":"MQRW3","Station_Nam":"MINOCQUA","Latitude":"45.88630","Longitude":"-89.73220","Snowdepth":"2.000","Units":"in","Rept_Date":"2020-04-17 11"},"coordinates":[1749,5223]},{"type":"Point","properties":{"Station_ID":"MOSI2","Station_Nam":"MORRIS,IL","Latitude":"41.37390","Longitude":"-88.43360","Snowdepth":"2.000","Units":"in","Rept_Date":"2020-04-17 13"},"coordinates":[2055,1533]},{"type":"Point","properties":{"Station_ID":"MN-OL-18","Station_Nam":"ROCHESTER 2.6 NE, MN","Latitude":"44.03975","Longitude":"-92.43750","Snowdepth":"2.000","Units":"in","Rept_Date":"2020-04-17 11"},"coordinates":[1114,3713]},{"type":"Point","properties":{"Station_ID":"MIWI4","Station_Nam":"HWY 14 IOWA RVR","Latitude":"42.06580","Longitude":"-92.90750","Snowdepth":"2.000","Units":"in","Rept_Date":"2020-04-17 11"},"coordinates":[1003,2099]},{"type":"Point","properties":{"Station_ID":"MINI2","Station_Nam":"MINONK","Latitude":"40.91250","Longitude":"-89.03390","Snowdepth":"2.000","Units":"in","Rept_Date":"2020-04-17 11"},"coordinates":[1914,1156]},{"type":"Point","properties":{"Station_ID":"MI-BN-4","Station_Nam":"NILES 2.7 W, MI","Latitude":"41.83705","Longitude":"-86.30050","Snowdepth":"2.000","Units":"in","Rept_Date":"2020-04-17 12"},"coordinates":[2556,1912]},{"type":"Point","properties":{"Station_ID":"MFWI2","Station_Nam":"MIDWAY COOP","Latitude":"41.73730","Longitude":"-87.77760","Snowdepth":"2.000","Units":"in","Rept_Date":"2020-04-17 12"},"coordinates":[2209,1830]},{"type":"Point","properties":{"Station_ID":"MDTI2","Station_Nam":"MENDOTA 2SE","Latitude":"41.52940","Longitude":"-89.12670","Snowdepth":"2.000","Units":"in","Rept_Date":"2020-04-17 11"},"coordinates":[1892,1660]},{"type":"Point","properties":{"Station_ID":"MCTI4","Station_Nam":"MUSCATINE","Latitude":"41.40760","Longitude":"-91.07270","Snowdepth":"2.000","Units":"in","Rept_Date":"2020-04-17 12"},"coordinates":[1434,1561]},{"type":"Point","properties":{"Station_ID":"MATI2","Station_Nam":"MANHATTAN","Latitude":"41.45840","Longitude":"-87.90980","Snowdepth":"2.000","Units":"in","Rept_Date":"2020-04-17 13"},"coordinates":[2178,1602]},{"type":"Point","properties":{"Station_ID":"LTVN6","Station_Nam":"LITTLE VALLEY","Latitude":"42.24730","Longitude":"-78.81250","Snowdepth":"2.000","Units":"in","Rept_Date":"2020-04-17 11"},"coordinates":[4316,2247]},{"type":"Point","properties":{"Station_ID":"LPLN6","Station_Nam":"LAKE PLACID 2 S","Latitude":"44.30420","Longitude":"-73.98390","Snowdepth":"2.000","Units":"in","Rept_Date":"2020-04-17 12"},"coordinates":[5451,3929]},{"type":"Point","properties":{"Station_ID":"LNSI2","Station_Nam":"LANSING","Latitude":"41.54220","Longitude":"-87.54170","Snowdepth":"2.000","Units":"in","Rept_Date":"2020-04-17 12"},"coordinates":[2264,1671]},{"type":"Point","properties":{"Station_ID":"LAHI2","Station_Nam":"LA HARPE","Latitude":"40.58380","Longitude":"-90.96860","Snowdepth":"2.000","Units":"in","Rept_Date":"2020-04-17 13"},"coordinates":[1459,887]},{"type":"Point","properties":{"Station_ID":"KS-NM-6","Station_Nam":"BAILEYVILLE 1.0 S, KS","Latitude":"39.83122","Longitude":"-96.18330","Snowdepth":"2.000","Units":"in","Rept_Date":"2020-04-17 12"},"coordinates":[233,272]},{"type":"Point","properties":{"Station_ID":"KORD","Station_Nam":"CHICAGO OHARE INTERNATIONAL","Latitude":"41.98333","Longitude":"-87.91666","Snowdepth":"2.000","Units":"in","Rept_Date":"2020-04-17 12"},"coordinates":[2176,2032]},{"type":"Point","properties":{"Station_ID":"KFWA","Station_Nam":"FORT WAYNE INTERNATIONAL","Latitude":"41.00000","Longitude":"-85.20000","Snowdepth":"2.000","Units":"in","Rept_Date":"2020-04-17 18"},"coordinates":[2815,1228]},{"type":"Point","properties":{"Station_ID":"JKJI2","Station_Nam":"JOLIET","Latitude":"41.55030","Longitude":"-88.12670","Snowdepth":"2.000","Units":"in","Rept_Date":"2020-04-17 12"},"coordinates":[2127,1678]},{"type":"Point","properties":{"Station_ID":"JCBM4","Station_Nam":"JACOBSVILLE","Latitude":"47.00830","Longitude":"-88.43180","Snowdepth":"2.000","Units":"in","Rept_Date":"2020-04-17 11"},"coordinates":[2055,6141]},{"type":"Point","properties":{"Station_ID":"IWX","Station_Nam":"NORTHERN INDIANA, IN","Latitude":"41.35890","Longitude":"-85.70000","Snowdepth":"2.000","Units":"in","Rept_Date":"2020-04-18 00"},"coordinates":[2697,1521]},{"type":"Point","properties":{"Station_ID":"IRMM4","Station_Nam":"WWTP","Latitude":"46.46670","Longitude":"-90.18330","Snowdepth":"2.000","Units":"in","Rept_Date":"2020-04-17 12"},"coordinates":[1643,5698]},{"type":"Point","properties":{"Station_ID":"IN-LK-99","Station_Nam":"ST. JOHN 2.8 SE, IN","Latitude":"41.41524","Longitude":"-87.44359","Snowdepth":"2.000","Units":"in","Rept_Date":"2020-04-17 12"},"coordinates":[2287,1567]},{"type":"Point","properties":{"Station_ID":"IL-WN-2","Station_Nam":"ROSCOE 1.6 ESE, IL","Latitude":"42.40500","Longitude":"-88.97950","Snowdepth":"2.000","Units":"in","Rept_Date":"2020-04-17 11"},"coordinates":[1926,2376]},{"type":"Point","properties":{"Station_ID":"IL-WN-10","Station_Nam":"NEW MILLFORD 3.3 W, IL","Latitude":"42.16623","Longitude":"-89.12870","Snowdepth":"2.000","Units":"in","Rept_Date":"2020-04-17 13"},"coordinates":[1891,2181]},{"type":"Point","properties":{"Station_ID":"IL-WL-46","Station_Nam":"PEOTONE 0.4 ENE, IL","Latitude":"41.33361","Longitude":"-87.78910","Snowdepth":"2.000","Units":"in","Rept_Date":"2020-04-17 12"},"coordinates":[2206,1500]},{"type":"Point","properties":{"Station_ID":"IL-WL-42","Station_Nam":"MOKENA 1.3 W, IL","Latitude":"41.53134","Longitude":"-87.90120","Snowdepth":"2.000","Units":"in","Rept_Date":"2020-04-17 12"},"coordinates":[2180,1662]},{"type":"Point","properties":{"Station_ID":"IL-WL-25","Station_Nam":"CRETE 2.6 E, IL","Latitude":"41.44681","Longitude":"-87.56570","Snowdepth":"2.000","Units":"in","Rept_Date":"2020-04-17 12"},"coordinates":[2259,1593]},{"type":"Point","properties":{"Station_ID":"IL-WL-153","Station_Nam":"BOLINGBROOK 3.0 WSW, IL","Latitude":"41.67888","Longitude":"-88.12666","Snowdepth":"2.000","Units":"in","Rept_Date":"2020-04-17 13"},"coordinates":[2127,1783]},{"type":"Point","properties":{"Station_ID":"IL-SP-7","Station_Nam":"DAVIS 0.5 N, IL","Latitude":"42.42919","Longitude":"-89.41730","Snowdepth":"2.000","Units":"in","Rept_Date":"2020-04-17 12"},"coordinates":[1823,2396]},{"type":"Point","properties":{"Station_ID":"IL-SP-6","Station_Nam":"FREEPORT 2.0 NW, IL","Latitude":"42.30955","Longitude":"-89.66370","Snowdepth":"2.000","Units":"in","Rept_Date":"2020-04-17 12"},"coordinates":[1766,2298]},{"type":"Point","properties":{"Station_ID":"IL-PR-15","Station_Nam":"PEORIA 2.5 N, IL","Latitude":"40.78097","Longitude":"-89.61738","Snowdepth":"2.000","Units":"in","Rept_Date":"2020-04-17 12"},"coordinates":[1776,1048]},{"type":"Point","properties":{"Station_ID":"IL-MCH-95","Station_Nam":"CARY 0.5 SSW, IL","Latitude":"42.20235","Longitude":"-88.25224","Snowdepth":"2.000","Units":"in","Rept_Date":"2020-04-17 12"},"coordinates":[2097,2211]},{"type":"Point","properties":{"Station_ID":"IL-MCH-49","Station_Nam":"CARY 0.3 NE, IL","Latitude":"42.21215","Longitude":"-88.24440","Snowdepth":"2.000","Units":"in","Rept_Date":"2020-04-17 12"},"coordinates":[2099,2219]},{"type":"Point","properties":{"Station_ID":"IL-MCH-30","Station_Nam":"WONDER LAKE 0.8 WNW, IL","Latitude":"42.38354","Longitude":"-88.37090","Snowdepth":"2.000","Units":"in","Rept_Date":"2020-04-17 12"},"coordinates":[2069,2359]},{"type":"Point","properties":{"Station_ID":"IL-LS-57","Station_Nam":"MENDOTA 0.4 ENE, IL","Latitude":"41.55336","Longitude":"-89.11380","Snowdepth":"2.000","Units":"in","Rept_Date":"2020-04-17 12"},"coordinates":[1895,1680]},{"type":"Point","properties":{"Station_ID":"IL-LS-45","Station_Nam":"STREATOR 1.3 WSW, IL","Latitude":"41.11570","Longitude":"-88.85290","Snowdepth":"2.000","Units":"in","Rept_Date":"2020-04-17 12"},"coordinates":[1956,1322]},{"type":"Point","properties":{"Station_ID":"IL-LK-74","Station_Nam":"MUNDELEIN 1.6 WNW, IL","Latitude":"42.27412","Longitude":"-88.03260","Snowdepth":"2.000","Units":"in","Rept_Date":"2020-04-17 12"},"coordinates":[2149,2269]},{"type":"Point","properties":{"Station_ID":"IL-KD-102","Station_Nam":"OSWEGO 2.4 SSW, IL","Latitude":"41.66450","Longitude":"-88.34430","Snowdepth":"2.000","Units":"in","Rept_Date":"2020-04-17 12"},"coordinates":[2076,1771]},{"type":"Point","properties":{"Station_ID":"IL-HY-8","Station_Nam":"GENESEO 2.0 NW, IL","Latitude":"41.46726","Longitude":"-90.18180","Snowdepth":"2.000","Units":"in","Rept_Date":"2020-04-17 12"},"coordinates":[1644,1610]},{"type":"Point","properties":{"Station_ID":"IL-HN-7","Station_Nam":"LA HARPE 0.7 E, IL","Latitude":"40.58490","Longitude":"-90.95710","Snowdepth":"2.000","Units":"in","Rept_Date":"2020-04-17 15"},"coordinates":[1462,888]},{"type":"Point","properties":{"Station_ID":"IL-CK-98","Station_Nam":"LA GRANGE PARK 0.7 SSW, IL","Latitude":"41.82257","Longitude":"-87.87580","Snowdepth":"2.000","Units":"in","Rept_Date":"2020-04-17 12"},"coordinates":[2186,1900]},{"type":"Point","properties":{"Station_ID":"IL-CK-50","Station_Nam":"PALOS PARK 1.3 SW, IL","Latitude":"41.65281","Longitude":"-87.86310","Snowdepth":"2.000","Units":"in","Rept_Date":"2020-04-17 12"},"coordinates":[2189,1761]},{"type":"Point","properties":{"Station_ID":"IL-CK-316","Station_Nam":"OAK LAWN 0.8 WSW, IL","Latitude":"41.71069","Longitude":"-87.76631","Snowdepth":"2.000","Units":"in","Rept_Date":"2020-04-17 12"},"coordinates":[2212,1809]},{"type":"Point","properties":{"Station_ID":"IL-CK-306","Station_Nam":"OAK FOREST 0.6 N, IL","Latitude":"41.61550","Longitude":"-87.75070","Snowdepth":"2.000","Units":"in","Rept_Date":"2020-04-17 12"},"coordinates":[2215,1731]},{"type":"Point","properties":{"Station_ID":"IL-CK-192","Station_Nam":"PARK RIDGE 0.7 WNW, IL","Latitude":"42.01676","Longitude":"-87.85570","Snowdepth":"2.000","Units":"in","Rept_Date":"2020-04-17 12"},"coordinates":[2190,2059]},{"type":"Point","properties":{"Station_ID":"IL-CK-180","Station_Nam":"PARK RIDGE 0.5 SSW, IL","Latitude":"42.00443","Longitude":"-87.84600","Snowdepth":"2.000","Units":"in","Rept_Date":"2020-04-17 12"},"coordinates":[2193,2049]},{"type":"Point","properties":{"Station_ID":"IL-CK-163","Station_Nam":"ARLINGTON HEIGHTS 1.2 SW, IL","Latitude":"42.08194","Longitude":"-87.99710","Snowdepth":"2.000","Units":"in","Rept_Date":"2020-04-17 12"},"coordinates":[2157,2112]},{"type":"Point","properties":{"Station_ID":"IL-CK-149","Station_Nam":"OAK LAWN 0.5 SSW, IL","Latitude":"41.70845","Longitude":"-87.75390","Snowdepth":"2.000","Units":"in","Rept_Date":"2020-04-17 13"},"coordinates":[2214,1807]},{"type":"Point","properties":{"Station_ID":"IL-CK-145","Station_Nam":"OAK PARK 1.5 S, IL","Latitude":"41.86592","Longitude":"-87.79280","Snowdepth":"2.000","Units":"in","Rept_Date":"2020-04-17 12"},"coordinates":[2205,1936]},{"type":"Point","properties":{"Station_ID":"IL-CK-12","Station_Nam":"BRIDGEVIEW 1.3 NNW, IL","Latitude":"41.75502","Longitude":"-87.81730","Snowdepth":"2.000","Units":"in","Rept_Date":"2020-04-17 12"},"coordinates":[2200,1845]},{"type":"Point","properties":{"Station_ID":"IDNI3","Station_Nam":"INDIANA DUNES NATL LAKE SHORE","Latitude":"41.63330","Longitude":"-87.08330","Snowdepth":"2.000","Units":"in","Rept_Date":"2020-04-17 13"},"coordinates":[2372,1745]},{"type":"Point","properties":{"Station_ID":"ICYI4","Station_Nam":"IOWA CITY","Latitude":"41.60930","Longitude":"-91.50510","Snowdepth":"2.000","Units":"in","Rept_Date":"2020-04-17 12"},"coordinates":[1333,1726]},{"type":"Point","properties":{"Station_ID":"IA-WS-7","Station_Nam":"WELLMAN 4.0 E, IA","Latitude":"41.45810","Longitude":"-91.76073","Snowdepth":"2.000","Units":"in","Rept_Date":"2020-04-17 12"},"coordinates":[1273,1602]},{"type":"Point","properties":{"Station_ID":"IA-ST-30","Station_Nam":"ELDRIDGE 0.7 SSW, IA","Latitude":"41.64465","Longitude":"-90.58706","Snowdepth":"2.000","Units":"in","Rept_Date":"2020-04-17 13"},"coordinates":[1549,1755]},{"type":"Point","properties":{"Station_ID":"IA-PK-95","Station_Nam":"DES MOINES 3.7 NW, IA","Latitude":"41.61270","Longitude":"-93.66973","Snowdepth":"2.000","Units":"in","Rept_Date":"2020-04-17 12"},"coordinates":[824,1729]},{"type":"Point","properties":{"Station_ID":"IA-LN-30","Station_Nam":"CENTER POINT 0.6 NNW, IA","Latitude":"42.19324","Longitude":"-91.78255","Snowdepth":"2.000","Units":"in","Rept_Date":"2020-04-17 11"},"coordinates":[1268,2203]},{"type":"Point","properties":{"Station_ID":"IA-JH-22","Station_Nam":"CORALVILLE 1.3 SE, IA","Latitude":"41.68066","Longitude":"-91.58000","Snowdepth":"2.000","Units":"in","Rept_Date":"2020-04-17 13"},"coordinates":[1315,1784]},{"type":"Point","properties":{"Station_ID":"HURW3","Station_Nam":"HURLEY","Latitude":"46.46250","Longitude":"-90.19550","Snowdepth":"2.000","Units":"in","Rept_Date":"2020-04-17 13"},"coordinates":[1641,5694]},{"type":"Point","properties":{"Station_ID":"GTHI4","Station_Nam":"GUTHRIE CENTER,IA","Latitude":"41.68330","Longitude":"-94.50000","Snowdepth":"2.000","Units":"in","Rept_Date":"2020-04-17 13"},"coordinates":[629,1786]},{"type":"Point","properties":{"Station_ID":"GSNI3","Station_Nam":"GOSHEN 3SW","Latitude":"41.55750","Longitude":"-85.88250","Snowdepth":"2.000","Units":"in","Rept_Date":"2020-04-17 23"},"coordinates":[2654,1683]},{"type":"Point","properties":{"Station_ID":"GLEI2","Station_Nam":"GLEN ELLYN 4S","Latitude":"41.82670","Longitude":"-88.05810","Snowdepth":"2.000","Units":"in","Rept_Date":"2020-04-17 16"},"coordinates":[2143,1904]},{"type":"Point","properties":{"Station_ID":"GEOI2","Station_Nam":"GENOA,IL","Latitude":"42.08000","Longitude":"-88.70750","Snowdepth":"2.000","Units":"in","Rept_Date":"2020-04-17 12"},"coordinates":[1990,2111]},{"type":"Point","properties":{"Station_ID":"FEEI2","Station_Nam":"PECATONICA RIVER","Latitude":"42.30000","Longitude":"-89.61670","Snowdepth":"2.000","Units":"in","Rept_Date":"2020-04-17 12"},"coordinates":[1777,2291]},{"type":"Point","properties":{"Station_ID":"EZBI2","Station_Nam":"ELIZABETH","Latitude":"42.31620","Longitude":"-90.22690","Snowdepth":"2.000","Units":"in","Rept_Date":"2020-04-17 11"},"coordinates":[1633,2304]},{"type":"Point","properties":{"Station_ID":"ERVI2","Station_Nam":"EARLVILLE","Latitude":"41.55140","Longitude":"-88.91470","Snowdepth":"2.000","Units":"in","Rept_Date":"2020-04-17 11"},"coordinates":[1942,1678]},{"type":"Point","properties":{"Station_ID":"ELGI2","Station_Nam":"ELGIN","Latitude":"42.06280","Longitude":"-88.28610","Snowdepth":"2.000","Units":"in","Rept_Date":"2020-04-17 12"},"coordinates":[2089,2097]},{"type":"Point","properties":{"Station_ID":"CRPI3","Station_Nam":"WASTE WATER FACILITY","Latitude":"41.43330","Longitude":"-87.35000","Snowdepth":"2.000","Units":"in","Rept_Date":"2020-04-17 12"},"coordinates":[2309,1582]},{"type":"Point","properties":{"Station_ID":"COPN6","Station_Nam":"COOPERSTOWN","Latitude":"42.71660","Longitude":"-74.92660","Snowdepth":"2.000","Units":"in","Rept_Date":"2020-04-18 04"},"coordinates":[5229,2631]},{"type":"Point","properties":{"Station_ID":"COJI4","Station_Nam":"COLUMBUS JUNCT 1 N","Latitude":"41.28640","Longitude":"-91.36100","Snowdepth":"2.000","Units":"in","Rept_Date":"2020-04-17 12"},"coordinates":[1367,1462]},{"type":"Point","properties":{"Station_ID":"CLUI4","Station_Nam":"CLUTIER,IA","Latitude":"42.08330","Longitude":"-92.40000","Snowdepth":"2.000","Units":"in","Rept_Date":"2020-04-17 12"},"coordinates":[1122,2113]},{"type":"Point","properties":{"Station_ID":"CAN-NB-96","Station_Nam":"SAINT-IGNACE 2.6 NE, CAN","Latitude":"46.71424","Longitude":"-65.05609","Snowdepth":"2.000","Units":"in","Rept_Date":"2020-04-17 10"},"coordinates":[7549,5900]},{"type":"Point","properties":{"Station_ID":"BRVN6","Station_Nam":"TRENTON FALLS","Latitude":"43.27610","Longitude":"-75.15660","Snowdepth":"2.000","Units":"in","Rept_Date":"2020-04-17 12"},"coordinates":[5175,3089]},{"type":"Point","properties":{"Station_ID":"BRCN1","Station_Nam":"BEATRICE,NE","Latitude":"40.30000","Longitude":"-96.74940","Snowdepth":"2.000","Units":"in","Rept_Date":"2020-04-17 12"},"coordinates":[100,655]},{"type":"Point","properties":{"Station_ID":"BOUI2","Station_Nam":"BOURBONNAIS,IL","Latitude":"41.16670","Longitude":"-87.91670","Snowdepth":"2.000","Units":"in","Rept_Date":"2020-04-17 12"},"coordinates":[2176,1364]},