{"type":"Topology","objects":{"snowdepth_geo":{"type":"GeometryCollection","name":"snowdepth","crs":{"type":"name","properties":{"name":"urn:ogc:def:crs:OGC:1.3:CRS84"}},"geometries":[{"type":"Point","properties":{"Station_ID":"PRKM4","Station_Nam":"MUNISING EAST","Latitude":"46.42580","Longitude":"-86.62000","Snowdepth":"76.500","Units":"in","Rept_Date":"2020-02-15 06"},"coordinates":[2492,6247]},{"type":"Point","properties":{"Station_ID":"OGIQ6","Station_Nam":"OGOKI CAMP","Latitude":"50.76680","Longitude":"-87.85820","Snowdepth":"61.100","Units":"in","Rept_Date":"2020-02-15 06"},"coordinates":[2202,9320]},{"type":"Point","properties":{"Station_ID":"MMNV1","Station_Nam":"MT. MANSFIELD","Latitude":"44.52480","Longitude":"-72.81540","Snowdepth":"59.000","Units":"in","Rept_Date":"2020-02-14 21"},"coordinates":[5732,4902]},{"type":"Point","properties":{"Station_ID":"HTLN3","Station_Nam":"HERMIT LAKE SNOWPLOT","Latitude":"44.26130","Longitude":"-71.28330","Snowdepth":"57.000","Units":"in","Rept_Date":"2020-02-14 10"},"coordinates":[6092,4715]},{"type":"Point","properties":{"Station_ID":"PDLM4","Station_Nam":"PAINESDALE","Latitude":"47.04160","Longitude":"-88.67170","Snowdepth":"54.000","Units":"in","Rept_Date":"2020-02-14 13"},"coordinates":[2011,6683]},{"type":"Point","properties":{"Station_ID":"AUDQ6","Station_Nam":"AUDEN","Latitude":"48.52600","Longitude":"-82.57570","Snowdepth":"47.640","Units":"in","Rept_Date":"2020-02-15 06"},"coordinates":[3441,7734]},{"type":"Point","properties":{"Station_ID":"GMSM4","Station_Nam":"GRAND MARAIS 10S","Latitude":"46.50940","Longitude":"-85.96310","Snowdepth":"44.000","Units":"in","Rept_Date":"2020-02-14 12"},"coordinates":[2646,6306]},{"type":"Point","properties":{"Station_ID":"DVLQ6","Station_Nam":"DEVIOUS LAKE","Latitude":"49.19890","Longitude":"-87.76440","Snowdepth":"43.460","Units":"in","Rept_Date":"2020-02-15 06"},"coordinates":[2224,8210]},{"type":"Point","properties":{"Station_ID":"CAN-NL-82","Station_Nam":"GANDER 2.7 NW, CAN","Latitude":"48.97737","Longitude":"-54.63396","Snowdepth":"41.300","Units":"in","Rept_Date":"2020-02-14 10"},"coordinates":[9999,8053]},{"type":"Point","properties":{"Station_ID":"WLFM5","Station_Nam":"WOLF RIDGE ENVIRON LEARNING CENTER","Latitude":"47.38240","Longitude":"-91.19730","Snowdepth":"39.000","Units":"in","Rept_Date":"2020-02-14 13"},"coordinates":[1418,6924]},{"type":"Point","properties":{"Station_ID":"CAN-NS-39","Station_Nam":"ST. ANNS 2.8 NW, CA","Latitude":"46.25082","Longitude":"-60.64340","Snowdepth":"37.000","Units":"in","Rept_Date":"2020-02-14 12"},"coordinates":[8589,6123]},{"type":"Point","properties":{"Station_ID":"QNCM4","Station_Nam":"QUINCY HILL","Latitude":"47.13640","Longitude":"-88.57950","Snowdepth":"36.000","Units":"in","Rept_Date":"2020-02-14 13"},"coordinates":[2032,6750]},{"type":"Point","properties":{"Station_ID":"MQT","Station_Nam":"MARQUETTE, MI","Latitude":"46.53140","Longitude":"-87.54920","Snowdepth":"36.000","Units":"in","Rept_Date":"2020-02-15 06"},"coordinates":[2274,6322]},{"type":"Point","properties":{"Station_ID":"QGO","Station_Nam":"QGO","Latitude":"48.85500","Longitude":"-74.20640","Snowdepth":"35.984","Units":"in","Rept_Date":"2020-02-14 12"},"coordinates":[5405,7967]},{"type":"Point","properties":{"Station_ID":"IBLM5","Station_Nam":"ISABELLA 14W","Latitude":"47.59360","Longitude":"-91.65140","Snowdepth":"35.000","Units":"in","Rept_Date":"2020-02-14 15"},"coordinates":[1311,7074]},{"type":"Point","properties":{"Station_ID":"CAN-NL-65","Station_Nam":"KIPPENS 0.7 NE, CA","Latitude":"48.55436","Longitude":"-58.61850","Snowdepth":"34.000","Units":"in","Rept_Date":"2020-02-14 12"},"coordinates":[9064,7754]},{"type":"Point","properties":{"Station_ID":"VT-CL-18","Station_Nam":"WHEELOCK 1.6 S, VT","Latitude":"44.56491","Longitude":"-72.08830","Snowdepth":"33.000","Units":"in","Rept_Date":"2020-02-14 12"},"coordinates":[5903,4930]},{"type":"Point","properties":{"Station_ID":"QOU","Station_Nam":"QOU","Latitude":"50.79250","Longitude":"-69.67470","Snowdepth":"32.638","Units":"in","Rept_Date":"2020-02-14 12"},"coordinates":[6469,9338]},{"type":"Point","properties":{"Station_ID":"MI-BG-3","Station_Nam":"L'ANSE 17.8 SE, MI","Latitude":"46.55730","Longitude":"-88.20770","Snowdepth":"32.500","Units":"in","Rept_Date":"2020-02-14 13"},"coordinates":[2119,6340]},{"type":"Point","properties":{"Station_ID":"CAN-NB-11","Station_Nam":"MIRAMICHI 3.3 S, CAN","Latitude":"46.99343","Longitude":"-65.50690","Snowdepth":"32.000","Units":"in","Rept_Date":"2020-02-14 12"},"coordinates":[7447,6649]},{"type":"Point","properties":{"Station_ID":"CAN-QC-47","Station_Nam":"SAINTE-FOY 1.8 ENE, CAN","Latitude":"46.76934","Longitude":"-71.27124","Snowdepth":"31.300","Units":"in","Rept_Date":"2020-02-14 12"},"coordinates":[6094,6490]},{"type":"Point","properties":{"Station_ID":"QCU","Station_Nam":"QCU","Latitude":"47.82750","Longitude":"-76.59830","Snowdepth":"31.181","Units":"in","Rept_Date":"2020-02-14 12"},"coordinates":[4844,7239]},{"type":"Point","properties":{"Station_ID":"STEM4","Station_Nam":"STEUBEN","Latitude":"46.18530","Longitude":"-86.46410","Snowdepth":"31.000","Units":"in","Rept_Date":"2020-02-14 14"},"coordinates":[2529,6077]},{"type":"Point","properties":{"Station_ID":"MLZ","Station_Nam":"MLZ","Latitude":"50.66170","Longitude":"-68.82360","Snowdepth":"30.945","Units":"in","Rept_Date":"2020-02-14 12"},"coordinates":[6669,9245]},{"type":"Point","properties":{"Station_ID":"QWE","Station_Nam":"QWE","Latitude":"47.84610","Longitude":"-73.80670","Snowdepth":"30.787","Units":"in","Rept_Date":"2020-02-14 12"},"coordinates":[5499,7252]},{"type":"Point","properties":{"Station_ID":"MNSM4","Station_Nam":"MUNISING","Latitude":"46.41210","Longitude":"-86.66250","Snowdepth":"30.000","Units":"in","Rept_Date":"2020-02-14 11"},"coordinates":[2482,6238]},{"type":"Point","properties":{"Station_ID":"LVDW3","Station_Nam":"LAC VIEUX DESERT","Latitude":"46.12110","Longitude":"-89.07580","Snowdepth":"30.000","Units":"in","Rept_Date":"2020-02-14 13"},"coordinates":[1916,6032]},{"type":"Point","properties":{"Station_ID":"KISM4","Station_Nam":"K.I. SAWYER WWTP","Latitude":"46.33410","Longitude":"-87.37790","Snowdepth":"30.000","Units":"in","Rept_Date":"2020-02-14 13"},"coordinates":[2314,6182]},{"type":"Point","properties":{"Station_ID":"IWOM4","Station_Nam":"IRONWOOD#2","Latitude":"46.46520","Longitude":"-90.13820","Snowdepth":"30.000","Units":"in","Rept_Date":"2020-02-14 13"},"coordinates":[1666,6275]},{"type":"Point","properties":{"Station_ID":"HURW3","Station_Nam":"HURLEY","Latitude":"46.46250","Longitude":"-90.19550","Snowdepth":"30.000","Units":"in","Rept_Date":"2020-02-14 14"},"coordinates":[1653,6273]},{"type":"Point","properties":{"Station_ID":"QGD","Station_Nam":"QGD","Latitude":"51.11140","Longitude":"-67.13940","Snowdepth":"29.685","Units":"in","Rept_Date":"2020-02-14 12"},"coordinates":[7064,9563]},{"type":"Point","properties":{"Station_ID":"QFT","Station_Nam":"QFT","Latitude":"50.83280","Longitude":"-74.40390","Snowdepth":"29.252","Units":"in","Rept_Date":"2020-02-14 12"},"coordinates":[5359,9366]},{"type":"Point","properties":{"Station_ID":"QLB","Station_Nam":"QLB","Latitude":"50.72360","Longitude":"-75.10000","Snowdepth":"29.173","Units":"in","Rept_Date":"2020-02-14 12"},"coordinates":[5196,9289]},{"type":"Point","properties":{"Station_ID":"VT-OL-1","Station_Nam":"WESTFIELD 0.7 WNW, VT","Latitude":"44.89160","Longitude":"-72.44350","Snowdepth":"29.000","Units":"in","Rept_Date":"2020-02-14 12"},"coordinates":[5819,5162]},{"type":"Point","properties":{"Station_ID":"MI-MQ-19","Station_Nam":"ISHPEMING 7.2 SW, MI","Latitude":"46.40550","Longitude":"-87.75670","Snowdepth":"29.000","Units":"in","Rept_Date":"2020-02-14 11"},"coordinates":[2225,6233]},{"type":"Point","properties":{"Station_ID":"MI-HG-6","Station_Nam":"CALUMET 5.8 ENE, MI","Latitude":"47.27200","Longitude":"-88.33400","Snowdepth":"29.000","Units":"in","Rept_Date":"2020-02-14 11"},"coordinates":[2090,6846]},{"type":"Point","properties":{"Station_ID":"IRMM4","Station_Nam":"WWTP","Latitude":"46.46670","Longitude":"-90.18330","Snowdepth":"29.000","Units":"in","Rept_Date":"2020-02-14 13"},"coordinates":[1656,6276]},{"type":"Point","properties":{"Station_ID":"HERM4","Station_Nam":"HERMAN,MI","Latitude":"46.65000","Longitude":"-88.33330","Snowdepth":"29.000","Units":"in","Rept_Date":"2020-02-14 13"},"coordinates":[2090,6406]},{"type":"Point","properties":{"Station_ID":"WI-VL-10","Station_Nam":"LAND O LAKES 4.3 WNW, WI","Latitude":"46.17440","Longitude":"-89.30380","Snowdepth":"28.500","Units":"in","Rept_Date":"2020-02-14 13"},"coordinates":[1862,6069]},{"type":"Point","properties":{"Station_ID":"CAN-NS-163","Station_Nam":"SYDNEY MINES 2.2 WNW, CAN","Latitude":"46.24851","Longitude":"-60.25161","Snowdepth":"28.300","Units":"in","Rept_Date":"2020-02-14 12"},"coordinates":[8681,6122]},{"type":"Point","properties":{"Station_ID":"WRPW3","Station_Nam":"WATER PURIFICATION PLANT","Latitude":"44.38800","Longitude":"-89.80550","Snowdepth":"28.000","Units":"in","Rept_Date":"2020-02-14 12"},"coordinates":[1744,4805]},{"type":"Point","properties":{"Station_ID":"SUTV1","Station_Nam":"SUTTON","Latitude":"44.61220","Longitude":"-72.04810","Snowdepth":"28.000","Units":"in","Rept_Date":"2020-02-14 13"},"coordinates":[5912,4964]},{"type":"Point","properties":{"Station_ID":"PRDM4","Station_Nam":"PARADISE","Latitude":"46.60380","Longitude":"-85.03960","Snowdepth":"28.000","Units":"in","Rept_Date":"2020-02-14 11"},"coordinates":[2863,6373]},{"type":"Point","properties":{"Station_ID":"LPLN6","Station_Nam":"LAKE PLACID 2 S","Latitude":"44.30420","Longitude":"-73.98390","Snowdepth":"28.000","Units":"in","Rept_Date":"2020-02-14 12"},"coordinates":[5458,4746]},{"type":"Point","properties":{"Station_ID":"GNLM4","Station_Nam":"GREENLAND 6N","Latitude":"46.87360","Longitude":"-89.10060","Snowdepth":"28.000","Units":"in","Rept_Date":"2020-02-14 13"},"coordinates":[1910,6564]},{"type":"Point","properties":{"Station_ID":"CARM1","Station_Nam":"CARIBOU WFO","Latitude":"46.86810","Longitude":"-68.01250","Snowdepth":"28.000","Units":"in","Rept_Date":"2020-02-15 04"},"coordinates":[6859,6560]},{"type":"Point","properties":{"Station_ID":"CAN-NS-60","Station_Nam":"SYDNEY FORKS, CAN","Latitude":"46.05645","Longitude":"-60.31510","Snowdepth":"28.000","Units":"in","Rept_Date":"2020-02-14 14"},"coordinates":[8666,5986]},{"type":"Point","properties":{"Station_ID":"BERM4","Station_Nam":"BERGLAND DAM","Latitude":"46.58690","Longitude":"-89.54750","Snowdepth":"28.000","Units":"in","Rept_Date":"2020-02-14 13"},"coordinates":[1805,6361]},{"type":"Point","properties":{"Station_ID":"BABM5","Station_Nam":"BABBITT","Latitude":"47.71210","Longitude":"-91.95330","Snowdepth":"28.000","Units":"in","Rept_Date":"2020-02-14 13"},"coordinates":[1240,7158]},{"type":"Point","properties":{"Station_ID":"PTLQ6","Station_Nam":"PORTAGE LAKE","Latitude":"49.06950","Longitude":"-86.65940","Snowdepth":"27.830","Units":"in","Rept_Date":"2020-02-15 06"},"coordinates":[2483,8118]},{"type":"Point","properties":{"Station_ID":"WI-VL-9","Station_Nam":"LAND O' LAKES 11.7 W, WI","Latitude":"46.19023","Longitude":"-89.45790","Snowdepth":"27.000","Units":"in","Rept_Date":"2020-02-14 13"},"coordinates":[1826,6081]},{"type":"Point","properties":{"Station_ID":"VT-CL-40","Station_Nam":"LYNDONVILLE 4.2 NNW, VT","Latitude":"44.59440","Longitude":"-72.02389","Snowdepth":"27.000","Units":"in","Rept_Date":"2020-02-14 11"},"coordinates":[5918,4951]},{"type":"Point","properties":{"Station_ID":"VANM1","Station_Nam":"VAN BUREN","Latitude":"47.16600","Longitude":"-67.93900","Snowdepth":"27.000","Units":"in","Rept_Date":"2020-02-14 13"},"coordinates":[6876,6771]},{"type":"Point","properties":{"Station_ID":"STGW3","Station_Nam":"ST GERMAIN","Latitude":"45.91550","Longitude":"-89.48940","Snowdepth":"27.000","Units":"in","Rept_Date":"2020-02-14 12"},"coordinates":[1819,5886]},{"type":"Point","properties":{"Station_ID":"PDGM4","Station_Nam":"PAULDING","Latitude":"46.39760","Longitude":"-89.17940","Snowdepth":"27.000","Units":"in","Rept_Date":"2020-02-14 13"},"coordinates":[1891,6227]},{"type":"Point","properties":{"Station_ID":"NH-CS-4","Station_Nam":"PITTSBURG 6.1 NE, NH","Latitude":"45.11060","Longitude":"-71.29760","Snowdepth":"27.000","Units":"in","Rept_Date":"2020-02-14 12"},"coordinates":[6088,5317]},{"type":"Point","properties":{"Station_ID":"NH-CS-10","Station_Nam":"RANDOLPH 1.4 NE, NH","Latitude":"44.38824","Longitude":"-71.26950","Snowdepth":"27.000","Units":"in","Rept_Date":"2020-02-14 12"},"coordinates":[6095,4805]},{"type":"Point","properties":{"Station_ID":"LNOW3","Station_Nam":"LAND O LAKES","Latitude":"46.19000","Longitude":"-89.45700","Snowdepth":"27.000","Units":"in","Rept_Date":"2020-02-14 14"},"coordinates":[1826,6080]},{"type":"Point","properties":{"Station_ID":"CRVW3","Station_Nam":"CRIVITZ HIGH FALLS","Latitude":"45.35750","Longitude":"-88.19190","Snowdepth":"27.000","Units":"in","Rept_Date":"2020-02-14 13"},"coordinates":[2123,5491]},{"type":"Point","properties":{"Station_ID":"AVLV1","Station_Nam":"AVERILL","Latitude":"45.00570","Longitude":"-71.69030","Snowdepth":"27.000","Units":"in","Rept_Date":"2020-02-14 13"},"coordinates":[5996,5242]},{"type":"Point","properties":{"Station_ID":"VT-OL-12","Station_Nam":"GREENSBORO 3.9 NNE, VT","Latitude":"44.63100","Longitude":"-72.28000","Snowdepth":"26.500","Units":"in","Rept_Date":"2020-02-14 14"},"coordinates":[5858,4977]},{"type":"Point","properties":{"Station_ID":"MI-HG-1","Station_Nam":"HOUGHTON 1.6 ESE, MI","Latitude":"47.10774","Longitude":"-88.52940","Snowdepth":"26.000","Units":"in","Rept_Date":"2020-02-14 14"},"coordinates":[2044,6730]},{"type":"Point","properties":{"Station_ID":"ME-AR-15","Station_Nam":"PRESQUE ISLE 1.3 WSW, ME","Latitude":"46.67960","Longitude":"-68.01270","Snowdepth":"26.000","Units":"in","Rept_Date":"2020-02-14 12"},"coordinates":[6859,6427]},{"type":"Point","properties":{"Station_ID":"MAIW3","Station_Nam":"MADELINE ISLAND","Latitude":"46.78330","Longitude":"-90.76670","Snowdepth":"26.000","Units":"in","Rept_Date":"2020-02-14 13"},"coordinates":[1519,6500]},{"type":"Point","properties":{"Station_ID":"GLDM4","Station_Nam":"GLADSTONE NO. 2","Latitude":"45.84330","Longitude":"-87.03910","Snowdepth":"26.000","Units":"in","Rept_Date":"2020-02-14 12"},"coordinates":[2394,5835]},{"type":"Point","properties":{"Station_ID":"CLQM5","Station_Nam":"CLOQUET","Latitude":"46.70470","Longitude":"-92.52530","Snowdepth":"26.000","Units":"in","Rept_Date":"2020-02-14 14"},"coordinates":[1106,6445]},{"type":"Point","properties":{"Station_ID":"QTV","Station_Nam":"QTV","Latitude":"49.66000","Longitude":"-69.35690","Snowdepth":"25.669","Units":"in","Rept_Date":"2020-02-14 12"},"coordinates":[6544,8536]},{"type":"Point","properties":{"Station_ID":"QGA","Station_Nam":"QGA","Latitude":"47.25640","Longitude":"-73.73810","Snowdepth":"25.512","Units":"in","Rept_Date":"2020-02-14 12"},"coordinates":[5515,6835]},{"type":"Point","properties":{"Station_ID":"CAN-NB-13","Station_Nam":"BATHURST 3.8 NW, CAN","Latitude":"47.64212","Longitude":"-65.68756","Snowdepth":"25.500","Units":"in","Rept_Date":"2020-02-14 09"},"coordinates":[7405,7108]},{"type":"Point","properties":{"Station_ID":"SVBQ6","Station_Nam":"SAVANT BASE","Latitude":"50.28730","Longitude":"-90.65670","Snowdepth":"25.280","Units":"in","Rept_Date":"2020-02-15 06"},"coordinates":[1545,8980]},{"type":"Point","properties":{"Station_ID":"WRSM5","Station_Nam":"WRENSHALL","Latitude":"46.61550","Longitude":"-92.38380","Snowdepth":"25.000","Units":"in","Rept_Date":"2020-02-14 14"},"coordinates":[1139,6382]},{"type":"Point","properties":{"Station_ID":"WI-IR-3","Station_Nam":"PENCE 0.1 E, WI","Latitude":"46.41555","Longitude":"-90.27013","Snowdepth":"25.000","Units":"in","Rept_Date":"2020-02-14 13"},"coordinates":[1635,6240]},{"type":"Point","properties":{"Station_ID":"SUAW3","Station_Nam":"SUAMICO","Latitude":"44.60190","Longitude":"-88.09780","Snowdepth":"25.000","Units":"in","Rept_Date":"2020-02-14 12"},"coordinates":[2145,4957]},{"type":"Point","properties":{"Station_ID":"NY-FK-7","Station_Nam":"SARANAC LAKE 6.2 N, NY","Latitude":"44.41359","Longitude":"-74.15211","Snowdepth":"25.000","Units":"in","Rept_Date":"2020-02-14 12"},"coordinates":[5418,4823]},{"type":"Point","properties":{"Station_ID":"NOHM5","Station_Nam":"NORTHOME","Latitude":"47.83590","Longitude":"-94.25550","Snowdepth":"25.000","Units":"in","Rept_Date":"2020-02-14 13"},"coordinates":[700,7245]},{"type":"Point","properties":{"Station_ID":"MN-CK-6","Station_Nam":"GRAND MARAIS 4.4 W, MN","Latitude":"47.74865","Longitude":"-90.43760","Snowdepth":"25.000","Units":"in","Rept_Date":"2020-02-14 13"},"coordinates":[1596,7184]},{"type":"Point","properties":{"Station_ID":"LBKV1","Station_Nam":"LYE BROOK","Latitude":"43.05000","Longitude":"-73.03330","Snowdepth":"25.000","Units":"in","Rept_Date":"2020-02-15 06"},"coordinates":[5681,3858]},{"type":"Point","properties":{"Station_ID":"HOKN6","Station_Nam":"HOOKER 12 NNW","Latitude":"43.85240","Longitude":"-75.71580","Snowdepth":"25.000","Units":"in","Rept_Date":"2020-02-14 11"},"coordinates":[5051,4426]},{"type":"Point","properties":{"Station_ID":"GDPM5","Station_Nam":"PIGEON RIVER AT MIDDLE FALLS","Latitude":"48.01220","Longitude":"-89.61610","Snowdepth":"25.000","Units":"in","Rept_Date":"2020-02-14 13"},"coordinates":[1789,7370]},{"type":"Point","properties":{"Station_ID":"FISM1","Station_Nam":"FORT KENT COOP","Latitude":"47.23850","Longitude":"-68.61240","Snowdepth":"25.000","Units":"in","Rept_Date":"2020-02-14 12"},"coordinates":[6718,6822]},{"type":"Point","properties":{"Station_ID":"DLHM5","Station_Nam":"DULUTH NWS","Latitude":"46.83680","Longitude":"-92.21080","Snowdepth":"25.000","Units":"in","Rept_Date":"2020-02-15 06"},"coordinates":[1180,6538]},{"type":"Point","properties":{"Station_ID":"DLH","Station_Nam":"DULUTH, MN","Latitude":"46.83690","Longitude":"-92.21030","Snowdepth":"25.000","Units":"in","Rept_Date":"2020-02-15 00"},"coordinates":[1180,6538]},{"type":"Point","properties":{"Station_ID":"COKM5","Station_Nam":"COOK","Latitude":"47.85060","Longitude":"-92.69250","Snowdepth":"25.000","Units":"in","Rept_Date":"2020-02-14 12"},"coordinates":[1067,7256]},{"type":"Point","properties":{"Station_ID":"CAN-PE-19","Station_Nam":"CHARLOTTETOWN 6.5 NNW, CAN","Latitude":"46.29235","Longitude":"-63.17271","Snowdepth":"25.000","Units":"in","Rept_Date":"2020-02-14 12"},"coordinates":[7995,6153]},{"type":"Point","properties":{"Station_ID":"BRAM1","Station_Nam":"BRASSUA DAM","Latitude":"45.66020","Longitude":"-69.81190","Snowdepth":"25.000","Units":"in","Rept_Date":"2020-02-14 12"},"coordinates":[6437,5705]},{"type":"Point","properties":{"Station_ID":"BNDM5","Station_Nam":"ELY 25E","Latitude":"47.97190","Longitude":"-91.44860","Snowdepth":"25.000","Units":"in","Rept_Date":"2020-02-14 13"},"coordinates":[1359,7342]},{"type":"Point","properties":{"Station_ID":"BMON6","Station_Nam":"BIG MOOSE 3SE","Latitude":"43.80000","Longitude":"-74.86670","Snowdepth":"25.000","Units":"in","Rept_Date":"2020-02-14 13"},"coordinates":[5251,4389]},{"type":"Point","properties":{"Station_ID":"VT-OL-9","Station_Nam":"GREENSBORO 2.1 NNW, VT","Latitude":"44.60528","Longitude":"-72.30940","Snowdepth":"24.500","Units":"in","Rept_Date":"2020-02-14 12"},"coordinates":[5851,4959]},{"type":"Point","properties":{"Station_ID":"QMA","Station_Nam":"QMA","Latitude":"50.10330","Longitude":"-70.47190","Snowdepth":"24.173","Units":"in","Rept_Date":"2020-02-14 12"},"coordinates":[6282,8850]},{"type":"Point","properties":{"Station_ID":"WI-VL-14","Station_Nam":"BOULDER JUNCTION 1.4 NE, WI","Latitude":"46.12840","Longitude":"-89.62470","Snowdepth":"24.000","Units":"in","Rept_Date":"2020-02-14 13"},"coordinates":[1787,6037]},{"type":"Point","properties":{"Station_ID":"TOGM5","Station_Nam":"CELINA 2E","Latitude":"47.86630","Longitude":"-93.02660","Snowdepth":"24.000","Units":"in","Rept_Date":"2020-02-14 14"},"coordinates":[989,7267]},{"type":"Point","properties":{"Station_ID":"RKWM1","Station_Nam":"MOOSEHEAD LAKE","Latitude":"45.58330","Longitude":"-69.71670","Snowdepth":"24.000","Units":"in","Rept_Date":"2020-02-14 12"},"coordinates":[6459,5651]},{"type":"Point","properties":{"Station_ID":"NY-HR-18","Station_Nam":"SALISBURY CENTER 1.8 NW, NY","Latitude":"43.16260","Longitude":"-74.80880","Snowdepth":"24.000","Units":"in","Rept_Date":"2020-02-14 11"},"coordinates":[5264,3938]},{"type":"Point","properties":{"Station_ID":"GGRM4","Station_Nam":"GREEN GARDEN NO.2","Latitude":"46.45330","Longitude":"-87.30380","Snowdepth":"24.000","Units":"in","Rept_Date":"2020-02-14 11"},"coordinates":[2332,6267]},{"type":"Point","properties":{"Station_ID":"FLNW3","Station_Nam":"FLORENCE","Latitude":"45.93360","Longitude":"-88.25830","Snowdepth":"24.000","Units":"in","Rept_Date":"2020-02-14 13"},"coordinates":[2108,5899]},{"type":"Point","properties":{"Station_ID":"CAN-NS-103","Station_Nam":"TRAFALGAR 4.9 WSW, CAN","Latitude":"45.26217","Longitude":"-62.72285","Snowdepth":"24.000","Units":"in","Rept_Date":"2020-02-14 12"},"coordinates":[8101,5424]},{"type":"Point","properties":{"Station_ID":"CAN-NB-18","Station_Nam":"MCLEOD HILL 1.1 ENE, CA","Latitude":"46.02725","Longitude":"-66.67460","Snowdepth":"24.000","Units":"in","Rept_Date":"2020-02-14 12"},"coordinates":[7173,5965]},{"type":"Point","properties":{"Station_ID":"BRDM1","Station_Nam":"BRIDGEWATER","Latitude":"46.42870","Longitude":"-67.84370","Snowdepth":"24.000","Units":"in","Rept_Date":"2020-02-14 23"},"coordinates":[6899,6249]},{"type":"Point","properties":{"Station_ID":"WI-BY-14","Station_Nam":"ASHLAND 9.8 W, WI","Latitude":"46.59742","Longitude":"-91.07856","Snowdepth":"23.500","Units":"in","Rept_Date":"2020-02-14 12"},"coordinates":[1446,6369]},{"type":"Point","properties":{"Station_ID":"VT-BN-12","Station_Nam":"STAMFORD 5.0 NNE, VT","Latitude":"42.82000","Longitude":"-73.02000","Snowdepth":"23.500","Units":"in","Rept_Date":"2020-02-14 21"},"coordinates":[5684,3695]},{"type":"Point","properties":{"Station_ID":"MN-IT-23","Station_Nam":"BOVEY 13.4 N, MN","Latitude":"47.48855","Longitude":"-93.43497","Snowdepth":"23.500","Units":"in","Rept_Date":"2020-02-14 13"},"coordinates":[893,6999]},{"type":"Point","properties":{"Station_ID":"MN-CK-18","Station_Nam":"GRAND MARAIS 4.4 WSW, MN","Latitude":"47.74462","Longitude":"-90.43796","Snowdepth":"23.500","Units":"in","Rept_Date":"2020-02-14 13"},"coordinates":[1596,7181]},{"type":"Point","properties":{"Station_ID":"TRIQ6","Station_Nam":"TRIO LAKE","Latitude":"49.22880","Longitude":"-87.22920","Snowdepth":"23.230","Units":"in","Rept_Date":"2020-02-15 06"},"coordinates":[2349,8231]},{"type":"Point","properties":{"Station_ID":"QTM","Station_Nam":"QTM","Latitude":"51.05780","Longitude":"-72.57190","Snowdepth":"23.071","Units":"in","Rept_Date":"2020-02-14 12"},"coordinates":[5789,9525]},{"type":"Point","properties":{"Station_ID":"WTRM4","Station_Nam":"WATERSMEET 12WSW","Latitude":"46.22310","Longitude":"-89.40850","Snowdepth":"23.000","Units":"in","Rept_Date":"2020-02-14 12"},"coordinates":[1838,6104]},{"type":"Point","properties":{"Station_ID":"WI-WB-2","Station_Nam":"STONE LAKE 2.0 NW, WI","Latitude":"45.85960","Longitude":"-91.57710","Snowdepth":"23.000","Units":"in","Rept_Date":"2020-02-14 13"},"coordinates":[1329,5847]},{"type":"Point","properties":{"Station_ID":"RHIW3","Station_Nam":"RHINELANDER","Latitude":"45.59860","Longitude":"-89.45080","Snowdepth":"23.000","Units":"in","Rept_Date":"2020-02-14 13"},"coordinates":[1828,5662]},{"type":"Point","properties":{"Station_ID":"PRGN6","Station_Nam":"PERRYSBURG","Latitude":"42.46470","Longitude":"-79.00310","Snowdepth":"23.000","Units":"in","Rept_Date":"2020-02-14 12"},"coordinates":[4280,3444]},{"type":"Point","properties":{"Station_ID":"NY-FK-9","Station_Nam":"GABRIELS 1.3 SE, NY","Latitude":"44.41934","Longitude":"-74.16194","Snowdepth":"23.000","Units":"in","Rept_Date":"2020-02-14 12"},"coordinates":[5416,4827]},{"type":"Point","properties":{"Station_ID":"NCBN6","Station_Nam":"NEWCOMB","Latitude":"43.97070","Longitude":"-74.22200","Snowdepth":"23.000","Units":"in","Rept_Date":"2020-02-14 13"},"coordinates":[5402,4510]},{"type":"Point","properties":{"Station_ID":"ME-PN-45","Station_Nam":"MILLINOCKET 2.7 ESE, ME","Latitude":"45.65002","Longitude":"-68.64472","Snowdepth":"23.000","Units":"in","Rept_Date":"2020-02-14 12"},"coordinates":[6711,5698]},{"type":"Point","properties":{"Station_ID":"ISLV1","Station_Nam":"ISLAND POND","Latitude":"44.81280","Longitude":"-71.89020","Snowdepth":"23.000","Units":"in","Rept_Date":"2020-02-14 15"},"coordinates":[5949,5106]},{"type":"Point","properties":{"Station_ID":"HRVM4","Station_Nam":"HARVEY","Latitude":"46.49080","Longitude":"-87.35470","Snowdepth":"23.000","Units":"in","Rept_Date":"2020-02-14 12"},"coordinates":[2320,6293]},{"type":"Point","properties":{"Station_ID":"EGRW3","Station_Nam":"EAGLE RIVER-SOUTH","Latitude":"45.91360","Longitude":"-89.24360","Snowdepth":"23.000","Units":"in","Rept_Date":"2020-02-14 13"},"coordinates":[1876,5885]},{"type":"Point","properties":{"Station_ID":"MN-SL-15","Station_Nam":"CHISHOLM 0.4 WSW, MN","Latitude":"47.48557","Longitude":"-92.88690","Snowdepth":"22.500","Units":"in","Rept_Date":"2020-02-14 13"},"coordinates":[1021,6997]},{"type":"Point","properties":{"Station_ID":"QCX","Station_Nam":"QCX","Latitude":"51.32830","Longitude":"-70.08060","Snowdepth":"22.126","Units":"in","Rept_Date":"2020-02-14 12"},"coordinates":[6374,9717]},{"type":"Point","properties":{"Station_ID":"CAN-NB-96","Station_Nam":"SAINT-IGNACE 2.6 NE, CAN","Latitude":"46.71424","Longitude":"-65.05609","Snowdepth":"22.100","Units":"in","Rept_Date":"2020-02-14 11"},"coordinates":[7553,6451]},{"type":"Point","properties":{"Station_ID":"KABQ6","Station_Nam":"CAB LAKE","Latitude":"49.59950","Longitude":"-89.17990","Snowdepth":"22.050","Units":"in","Rept_Date":"2020-02-15 06"},"coordinates":[1891,8493]},{"type":"Point","properties":{"Station_ID":"WTRW3","Station_Nam":"WINTER","Latitude":"45.79920","Longitude":"-90.99470","Snowdepth":"22.000","Units":"in","Rept_Date":"2020-02-14 15"},"coordinates":[1465,5804]},{"type":"Point","properties":{"Station_ID":"WI-BY-2","Station_Nam":"MELLEN 18.6 SW, WI","Latitude":"46.16937","Longitude":"-90.98090","Snowdepth":"22.000","Units":"in","Rept_Date":"2020-02-14 13"},"coordinates":[1469,6066]},{"type":"Point","properties":{"Station_ID":"WHFN6","Station_Nam":"WILMINGTON 2W","Latitude":"44.39310","Longitude":"-73.85890","Snowdepth":"22.000","Units":"in","Rept_Date":"2020-02-14 13"},"coordinates":[5487,4809]},{"type":"Point","properties":{"Station_ID":"VT-OL-2","Station_Nam":"BARTON 3.0 ENE, VT","Latitude":"44.75863","Longitude":"-72.11680","Snowdepth":"22.000","Units":"in","Rept_Date":"2020-02-14 12"},"coordinates":[5896,5067]},{"type":"Point","properties":{"Station_ID":"TOHM5","Station_Nam":"TWO HARBORS WWTP","Latitude":"47.01760","Longitude":"-91.66480","Snowdepth":"22.000","Units":"in","Rept_Date":"2020-02-14 13"},"coordinates":[1308,6666]},{"type":"Point","properties":{"Station_ID":"SULW3","Station_Nam":"SUMMIT LAKE","Latitude":"45.37880","Longitude":"-89.19410","Snowdepth":"22.000","Units":"in","Rept_Date":"2020-02-14 11"},"coordinates":[1888,5506]},{"type":"Point","properties":{"Station_ID":"MALN6","Station_Nam":"MALONE","Latitude":"44.84180","Longitude":"-74.30600","Snowdepth":"22.000","Units":"in","Rept_Date":"2020-02-14 12"},"coordinates":[5382,5126]},{"type":"Point","properties":{"Station_ID":"KABM5","Station_Nam":"KABETOGAMA LAKE VISITOR CTR","Latitude":"48.40880","Longitude":"-93.04840","Snowdepth":"22.000","Units":"in","Rept_Date":"2020-02-14 13"},"coordinates":[983,7651]},{"type":"Point","properties":{"Station_ID":"INDN6","Station_Nam":"INDIAN LAKE","Latitude":"43.75500","Longitude":"-74.27560","Snowdepth":"22.000","Units":"in","Rept_Date":"2020-02-14 13"},"coordinates":[5389,4357]},{"type":"Point","properties":{"Station_ID":"DFXM1","Station_Nam":"DOVER-FOXCROFT","Latitude":"45.18720","Longitude":"-69.18350","Snowdepth":"22.000","Units":"in","Rept_Date":"2020-02-14 12"},"coordinates":[6584,5371]},{"type":"Point","properties":{"Station_ID":"CMKW3","Station_Nam":"CLAM LAKE 4W","Latitude":"46.16940","Longitude":"-90.98080","Snowdepth":"22.000","Units":"in","Rept_Date":"2020-02-14 13"},"coordinates":[1469,6066]},{"type":"Point","properties":{"Station_ID":"CEFM4","Station_Nam":"EXPERIMENT FARM #2","Latitude":"46.33330","Longitude":"-86.91670","Snowdepth":"22.000","Units":"in","Rept_Date":"2020-02-14 13"},"coordinates":[2422,6182]},{"type":"Point","properties":{"Station_ID":"CAN-NB-64","Station_Nam":"KESWICK RIDGE 4.0 SE, CAN","Latitude":"45.97014","Longitude":"-66.85538","Snowdepth":"22.000","Units":"in","Rept_Date":"2020-02-14 12"},"coordinates":[7131,5925]},{"type":"Point","properties":{"Station_ID":"BJIM5","Station_Nam":"BEMIDJI DNR","Latitude":"47.53550","Longitude":"-94.82640","Snowdepth":"22.000","Units":"in","Rept_Date":"2020-02-14 13"},"coordinates":[566,7033]},{"type":"Point","properties":{"Station_ID":"AURW3","Station_Nam":"AURORA","Latitude":"45.77000","Longitude":"-88.11810","Snowdepth":"22.000","Units":"in","Rept_Date":"2020-02-14 13"},"coordinates":[2141,5783]},{"type":"Point","properties":{"Station_ID":"AMAM4","Station_Nam":"AMASA 1W","Latitude":"46.23470","Longitude":"-88.45440","Snowdepth":"22.000","Units":"in","Rept_Date":"2020-02-14 14"},"coordinates":[2062,6112]},{"type":"Point","properties":{"Station_ID":"QYR","Station_Nam":"QYR","Latitude":"48.87220","Longitude":"-75.61470","Snowdepth":"21.850","Units":"in","Rept_Date":"2020-02-14 12"},"coordinates":[5075,7979]},{"type":"Point","properties":{"Station_ID":"WI-ON-8","Station_Nam":"HAZELHURST 2.1 SSE, WI","Latitude":"45.78186","Longitude":"-89.70330","Snowdepth":"21.500","Units":"in","Rept_Date":"2020-02-14 13"},"coordinates":[1768,5792]},{"type":"Point","properties":{"Station_ID":"MN-SL-108","Station_Nam":"IRON JUNCTION 3.4 NNW, MN","Latitude":"47.46150","Longitude":"-92.63130","Snowdepth":"21.500","Units":"in","Rept_Date":"2020-02-14 13"},"coordinates":[1081,6980]},{"type":"Point","properties":{"Station_ID":"QIQ","Station_Nam":"QIQ","Latitude":"49.82390","Longitude":"-68.54310","Snowdepth":"21.417","Units":"in","Rept_Date":"2020-02-14 12"},"coordinates":[6735,8652]},{"type":"Point","properties":{"Station_ID":"QLP","Station_Nam":"QLP","Latitude":"48.13920","Longitude":"-72.63830","Snowdepth":"21.378","Units":"in","Rept_Date":"2020-02-14 12"},"coordinates":[5774,7460]},{"type":"Point","properties":{"Station_ID":"QLM","Station_Nam":"QLM","Latitude":"48.92030","Longitude":"-70.25280","Snowdepth":"21.142","Units":"in","Rept_Date":"2020-02-14 12"},"coordinates":[6333,8013]},{"type":"Point","properties":{"Station_ID":"STRN6","Station_Nam":"STILLWATER RESERVOIR","Latitude":"43.89140","Longitude":"-75.03610","Snowdepth":"21.000","Units":"in","Rept_Date":"2020-02-14 13"},"coordinates":[5211,4454]},{"type":"Point","properties":{"Station_ID":"RSTW3","Station_Nam":"ROSHOLT","Latitude":"44.62710","Longitude":"-89.30600","Snowdepth":"21.000","Units":"in","Rept_Date":"2020-02-14 13"},"coordinates":[1862,4974]},{"type":"Point","properties":{"Station_ID":"OLMN6","Station_Nam":"OLD FORGE - MOOSE","Latitude":"43.71270","Longitude":"-74.96930","Snowdepth":"21.000","Units":"in","Rept_Date":"2020-02-14 13"},"coordinates":[5226,4327]},{"type":"Point","properties":{"Station_ID":"LILM1","Station_Nam":"LILLE","Latitude":"47.27770","Longitude":"-68.10520","Snowdepth":"21.000","Units":"in","Rept_Date":"2020-02-14 12"},"coordinates":[6837,6850]},{"type":"Point","properties":{"Station_ID":"LEIM5","Station_Nam":"ORR 3E","Latitude":"48.05810","Longitude":"-92.75220","Snowdepth":"21.000","Units":"in","Rept_Date":"2020-02-14 13"},"coordinates":[1053,7403]},{"type":"Point","properties":{"Station_ID":"IFSM5","Station_Nam":"INTERNATIONAL FALLS SNOW","Latitude":"48.57780","Longitude":"-93.39640","Snowdepth":"21.000","Units":"in","Rept_Date":"2020-02-15 06"},"coordinates":[902,7770]},{"type":"Point","properties":{"Station_ID":"CSLM5","Station_Nam":"CASS LAKE,MN","Latitude":"47.38470","Longitude":"-94.61470","Snowdepth":"21.000","Units":"in","Rept_Date":"2020-02-14 14"},"coordinates":[616,6926]},{"type":"Point","properties":{"Station_ID":"CORV1","Station_Nam":"CORINTH","Latitude":"44.00690","Longitude":"-72.31940","Snowdepth":"21.000","Units":"in","Rept_Date":"2020-02-14 12"},"coordinates":[5848,4535]},{"type":"Point","properties":{"Station_ID":"AVTW3","Station_Nam":"ARBOR VITAE-JOHNSON LAKE","Latitude":"45.89940","Longitude":"-89.72670","Snowdepth":"21.000","Units":"in","Rept_Date":"2020-02-14 12"},"coordinates":[1763,5875]},{"type":"Point","properties":{"Station_ID":"AGNW3","Station_Nam":"ARGONNE-1.5 NW","Latitude":"45.67360","Longitude":"-88.90380","Snowdepth":"21.000","Units":"in","Rept_Date":"2020-02-14 13"},"coordinates":[1956,5715]},{"type":"Point","properties":{"Station_ID":"SOCQ6","Station_Nam":"SOCKET LAKE","Latitude":"50.77870","Longitude":"-91.79300","Snowdepth":"20.980","Units":"in","Rept_Date":"2020-02-15 06"},"coordinates":[1278,9328]},{"type":"Point","properties":{"Station_ID":"QMD","Station_Nam":"QMD","Latitude":"49.29060","Longitude":"-75.84500","Snowdepth":"20.866","Units":"in","Rept_Date":"2020-02-14 12"},"coordinates":[5021,8275]},{"type":"Point","properties":{"Station_ID":"NY-ER-166","Station_Nam":"BOSTON 2.5 NE, NY","Latitude":"42.65480","Longitude":"-78.70300","Snowdepth":"20.500","Units":"in","Rept_Date":"2020-02-14 12"},"coordinates":[4350,3579]},{"type":"Point","properties":{"Station_ID":"MN-IT-17","Station_Nam":"GRAND RAPIDS 6.1 N, MN","Latitude":"47.31165","Longitude":"-93.55036","Snowdepth":"20.500","Units":"in","Rept_Date":"2020-02-14 13"},"coordinates":[866,6874]},{"type":"Point","properties":{"Station_ID":"CAN-QC-51","Station_Nam":"BELOEIL 0.7 NW, CAN","Latitude":"45.58049","Longitude":"-73.21218","Snowdepth":"20.500","Units":"in","Rept_Date":"2020-02-14 12"},"coordinates":[5639,5649]},{"type":"Point","properties":{"Station_ID":"WRTS2","Station_Nam":"WATERTOWN,SD","Latitude":"44.90280","Longitude":"-97.11360","Snowdepth":"20.000","Units":"in","Rept_Date":"2020-02-14 15"},"coordinates":[29,5169]},{"type":"Point","properties":{"Station_ID":"WLKW3","Station_Nam":"WHITE LAKE 1 SE","Latitude":"45.14520","Longitude":"-88.74160","Snowdepth":"20.000","Units":"in","Rept_Date":"2020-02-14 14"},"coordinates":[1994,5341]},{"type":"Point","properties":{"Station_ID":"WI-AS-4","Station_Nam":"ASHLAND 0.5 WNW, WI","Latitude":"46.58240","Longitude":"-90.88390","Snowdepth":"20.000","Units":"in","Rept_Date":"2020-02-14 13"},"coordinates":[1491,6358]},{"type":"Point","properties":{"Station_ID":"RHLW3","Station_Nam":"RHINELANDER 4NE","Latitude":"45.65270","Longitude":"-89.30740","Snowdepth":"20.000","Units":"in","Rept_Date":"2020-02-14 12"},"coordinates":[1861,5700]},{"type":"Point","properties":{"Station_ID":"RGNM1","Station_Nam":"RANGELEY 2NW","Latitude":"44.98940","Longitude":"-70.67220","Snowdepth":"20.000","Units":"in","Rept_Date":"2020-02-14 11"},"coordinates":[6235,5231]},{"type":"Point","properties":{"Station_ID":"NY-ES-6","Station_Nam":"OLMSTEDVILLE 4.6 NNE, NY","Latitude":"43.83350","Longitude":"-73.89780","Snowdepth":"20.000","Units":"in","Rept_Date":"2020-02-14 13"},"coordinates":[5478,4413]},{"type":"Point","properties":{"Station_ID":"MN-BK-6","Station_Nam":"LAKE PARK 6.0 S, MN","Latitude":"46.79850","Longitude":"-96.12180","Snowdepth":"20.000","Units":"in","Rept_Date":"2020-02-14 12"},"coordinates":[262,6511]},{"type":"Point","properties":{"Station_ID":"JKMM1","Station_Nam":"JACKMAN","Latitude":"45.62600","Longitude":"-70.24600","Snowdepth":"20.000","Units":"in","Rept_Date":"2020-02-14 12"},"coordinates":[6335,5681]},{"type":"Point","properties":{"Station_ID":"INL","Station_Nam":"FALLS INTERNATIONAL ARPT","Latitude":"48.56640","Longitude":"-93.40310","Snowdepth":"20.000","Units":"in","Rept_Date":"2020-02-15 00"},"coordinates":[900,7762]},{"type":"Point","properties":{"Station_ID":"HUBN3","Station_Nam":"HUBBARD BROOK","Latitude":"43.93330","Longitude":"-71.71670","Snowdepth":"20.000","Units":"in","Rept_Date":"2020-02-15 06"},"coordinates":[5990,4483]},{"type":"Point","properties":{"Station_ID":"GMRM5","Station_Nam":"GRAND MARIAS WATER TREATMENT PLANT","Latitude":"47.75180","Longitude":"-90.32820","Snowdepth":"20.000","Units":"in","Rept_Date":"2020-02-14 14"},"coordinates":[1622,7186]},{"type":"Point","properties":{"Station_ID":"ESGM1","Station_Nam":"EAST SANGERVILLE","Latitude":"45.13690","Longitude":"-69.28060","Snowdepth":"20.000","Units":"in","Rept_Date":"2020-02-14 12"},"coordinates":[6562,5335]},{"type":"Point","properties":{"Station_ID":"EMBM5","Station_Nam":"EMBARASS,MN","Latitude":"47.65810","Longitude":"-92.19580","Snowdepth":"20.000","Units":"in","Rept_Date":"2020-02-14 12"},"coordinates":[1184,7119]},{"type":"Point","properties":{"Station_ID":"ELYM5","Station_Nam":"ELY","Latitude":"47.90560","Longitude":"-91.82830","Snowdepth":"20.000","Units":"in","Rept_Date":"2020-02-14 14"},"coordinates":[1270,7295]},{"type":"Point","properties":{"Station_ID":"CLKM4","Station_Nam":"CLARKSBURG","Latitude":"46.49910","Longitude":"-87.84500","Snowdepth":"20.000","Units":"in","Rept_Date":"2020-02-14 12"},"coordinates":[2205,6299]},{"type":"Point","properties":{"Station_ID":"AWXW3","Station_Nam":"ASHLAND","Latitude":"46.58240","Longitude":"-90.88390","Snowdepth":"20.000","Units":"in","Rept_Date":"2020-02-14 13"},"coordinates":[1491,6358]},{"type":"Point","properties":{"Station_ID":"ATY","Station_Nam":"WATERTOWN MUNICIPAL AIRPORT","Latitude":"44.91420","Longitude":"-97.15440","Snowdepth":"20.000","Units":"in","Rept_Date":"2020-02-14 12"},"coordinates":[20,5178]},{"type":"Point","properties":{"Station_ID":"ASTW3","Station_Nam":"ATHELSTANE","Latitude":"45.42500","Longitude":"-88.05750","Snowdepth":"20.000","Units":"in","Rept_Date":"2020-02-14 12"},"coordinates":[2155,5539]},{"type":"Point","properties":{"Station_ID":"AROM4","Station_Nam":"ARNOLD,MI","Latitude":"46.06670","Longitude":"-87.48330","Snowdepth":"20.000","Units":"in","Rept_Date":"2020-02-14 13"},"coordinates":[2290,5993]},{"type":"Point","properties":{"Station_ID":"CAN-NB-97","Station_Nam":"NEW MARYLAND 0.6 NW, CAN","Latitude":"45.90112","Longitude":"-66.68739","Snowdepth":"19.700","Units":"in","Rept_Date":"2020-02-14 10"},"coordinates":[7170,5876]},{"type":"Point","properties":{"Station_ID":"VT-WS-30","Station_Nam":"WOODBURY 3.4 NNW, VT","Latitude":"44.48825","Longitude":"-72.43258","Snowdepth":"19.500","Units":"in","Rept_Date":"2020-02-14 12"},"coordinates":[5822,4876]},{"type":"Point","properties":{"Station_ID":"NY-OD-2","Station_Nam":"POINT ROCK 0.6 SE, NY","Latitude":"43.37335","Longitude":"-75.53840","Snowdepth":"19.500","Units":"in","Rept_Date":"2020-02-14 13"},"coordinates":[5093,4087]},{"type":"Point","properties":{"Station_ID":"MI-OT-17","Station_Nam":"GAYLORD 4.1 S, MI","Latitude":"44.96388","Longitude":"-84.68467","Snowdepth":"19.500","Units":"in","Rept_Date":"2020-02-14 12"},"coordinates":[2946,5213]},{"type":"Point","properties":{"Station_ID":"CAN-PE-7","Station_Nam":"MORELL 1.4 NNW, CA","Latitude":"46.42741","Longitude":"-62.70870","Snowdepth":"19.400","Units":"in","Rept_Date":"2020-02-14 12"},"coordinates":[8104,6248]},{"type":"Point","properties":{"Station_ID":"QCO","Station_Nam":"QCO","Latitude":"51.45280","Longitude":"-72.20110","Snowdepth":"19.370","Units":"in","Rept_Date":"2020-02-14 12"},"coordinates":[5876,9805]},{"type":"Point","properties":{"Station_ID":"WTNM4","Station_Nam":"WATTON 2WSW","Latitude":"46.52660","Longitude":"-88.64240","Snowdepth":"19.000","Units":"in","Rept_Date":"2020-02-14 13"},"coordinates":[2017,6319]},{"type":"Point","properties":{"Station_ID":"WORV1","Station_Nam":"WORCESTER 2 W","Latitude":"44.37470","Longitude":"-72.58220","Snowdepth":"19.000","Units":"in","Rept_Date":"2020-02-14 12"},"coordinates":[5787,4796]},{"type":"Point","properties":{"Station_ID":"WI-BY-1","Station_Nam":"BAYFIELD 8.8 N, WI","Latitude":"46.93855","Longitude":"-90.83490","Snowdepth":"19.000","Units":"in","Rept_Date":"2020-02-14 13"},"coordinates":[1503,6610]},{"type":"Point","properties":{"Station_ID":"VT-WS-33","Station_Nam":"WAITSFIELD 3.5 WNW, VT","Latitude":"44.20052","Longitude":"-72.89421","Snowdepth":"19.000","Units":"in","Rept_Date":"2020-02-14 13"},"coordinates":[5713,4672]},{"type":"Point","properties":{"Station_ID":"TAKW3","Station_Nam":"RICE RESERVOIR NO. 2","Latitude":"45.53770","Longitude":"-89.73220","Snowdepth":"19.000","Units":"in","Rept_Date":"2020-02-14 13"},"coordinates":[1762,5619]},{"type":"Point","properties":{"Station_ID":"SAUW3","Station_Nam":"WAUSAU WSAW TV","Latitude":"44.94630","Longitude":"-89.62220","Snowdepth":"19.000","Units":"in","Rept_Date":"2020-02-15 05"},"coordinates":[1788,5200]},{"type":"Point","properties":{"Station_ID":"NYMM5","Station_Nam":"NEW YORK MILLS","Latitude":"46.50920","Longitude":"-95.37990","Snowdepth":"19.000","Units":"in","Rept_Date":"2020-02-14 13"},"coordinates":[436,6306]},{"type":"Point","properties":{"Station_ID":"NUMN3","Station_Nam":"NORTHUMBERLAND","Latitude":"44.52830","Longitude":"-71.50440","Snowdepth":"19.000","Units":"in","Rept_Date":"2020-02-14 13"},"coordinates":[6040,4904]},{"type":"Point","properties":{"Station_ID":"NH-CR-11","Station_Nam":"NORTH CONWAY 1.4 SSW, NH","Latitude":"44.03556","Longitude":"-71.14010","Snowdepth":"19.000","Units":"in","Rept_Date":"2020-02-14 12"},"coordinates":[6125,4556]},{"type":"Point","properties":{"Station_ID":"MN-IT-1","Station_Nam":"GRAND RAPIDS 2.0 E, MN","Latitude":"47.22266","Longitude":"-93.49600","Snowdepth":"19.000","Units":"in","Rept_Date":"2020-02-14 12"},"coordinates":[878,6811]},{"type":"Point","properties":{"Station_ID":"MIEM4","Station_Nam":"MICHIGAMME 3WNW","Latitude":"46.54530","Longitude":"-88.18000","Snowdepth":"19.000","Units":"in","Rept_Date":"2020-02-14 13"},"coordinates":[2126,6332]},{"type":"Point","properties":{"Station_ID":"INDM5","Station_Nam":"INDUS,MN","Latitude":"48.61670","Longitude":"-93.90000","Snowdepth":"19.000","Units":"in","Rept_Date":"2020-02-14 14"},"coordinates":[784,7798]},{"type":"Point","properties":{"Station_ID":"HGHN6","Station_Nam":"HIGHMARKET","Latitude":"43.57520","Longitude":"-75.52070","Snowdepth":"19.000","Units":"in","Rept_Date":"2020-02-14 11"},"coordinates":[5097,4230]},{"type":"Point","properties":{"Station_ID":"CAN-ON-42","Station_Nam":"VANKLEEK HILL 3.4 S, CA","Latitude":"45.48987","Longitude":"-74.64570","Snowdepth":"19.000","Units":"in","Rept_Date":"2020-02-14 12"},"coordinates":[5302,5585]},{"type":"Point","properties":{"Station_ID":"AUW","Station_Nam":"WAUSAU MUNICIPAL AIRPORT","Latitude":"44.92580","Longitude":"-89.62560","Snowdepth":"19.000","Units":"in","Rept_Date":"2020-02-15 00"},"coordinates":[1787,5186]},{"type":"Point","properties":{"Station_ID":"WI-ON-6","Station_Nam":"RHINELANDER 5.2 N, WI","Latitude":"45.71388","Longitude":"-89.42150","Snowdepth":"18.500","Units":"in","Rept_Date":"2020-02-14 13"},"coordinates":[1835,5743]},{"type":"Point","properties":{"Station_ID":"VT-ES-3","Station_Nam":"LUNENBURG 2.3 NNW, VT","Latitude":"44.49324","Longitude":"-71.70446","Snowdepth":"18.500","Units":"in","Rept_Date":"2020-02-14 12"},"coordinates":[5993,4880]},{"type":"Point","properties":{"Station_ID":"NH-CS-7","Station_Nam":"LANCASTER 0.5 N, NH","Latitude":"44.49611","Longitude":"-71.57640","Snowdepth":"18.500","Units":"in","Rept_Date":"2020-02-14 12"},"coordinates":[6023,4882]},{"type":"Point","properties":{"Station_ID":"CAN-NB-16","Station_Nam":"DORCHESTER 1.0 SSE, CAN","Latitude":"45.89160","Longitude":"-64.51269","Snowdepth":"18.100","Units":"in","Rept_Date":"2020-02-14 12"},"coordinates":[7681,5869]},{"type":"Point","properties":{"Station_ID":"ZNOM4","Station_Nam":"NORWAY","Latitude":"45.77810","Longitude":"-87.89560","Snowdepth":"18.000","Units":"in","Rept_Date":"2020-02-15 01"},"coordinates":[2193,5789]},{"type":"Point","properties":{"Station_ID":"WI-SR-1","Station_Nam":"HAYWARD 9.2 NNE, WI","Latitude":"46.13255","Longitude":"-91.40500","Snowdepth":"18.000","Units":"in","Rept_Date":"2020-02-14 12"},"coordinates":[1369,6040]},{"type":"Point","properties":{"Station_ID":"WI-RS-1","Station_Nam":"LADYSMITH 2.8 WNW, WI","Latitude":"45.48180","Longitude":"-91.14680","Snowdepth":"18.000","Units":"in","Rept_Date":"2020-02-14 13"},"coordinates":[1430,5579]},{"type":"Point","properties":{"Station_ID":"WI-PR-2","Station_Nam":"BUTTERNUT 5.9 SW, WI","Latitude":"45.96501","Longitude":"-90.59750","Snowdepth":"18.000","Units":"in","Rept_Date":"2020-02-14 12"},"coordinates":[1559,5921]},{"type":"Point","properties":{"Station_ID":"WI-MT-14","Station_Nam":"MOSINEE 2.7 WSW, WI","Latitude":"44.77240","Longitude":"-89.73441","Snowdepth":"18.000","Units":"in","Rept_Date":"2020-02-14 13"},"coordinates":[1761,5077]},{"type":"Point","properties":{"Station_ID":"VT-CH-11","Station_Nam":"UNDERHILL 5.1 NNE, VT","Latitude":"44.59811","Longitude":"-72.91880","Snowdepth":"18.000","Units":"in","Rept_Date":"2020-02-14 12"},"coordinates":[5708,4954]},{"type":"Point","properties":{"Station_ID":"VT-BN-3","Station_Nam":"LANDGROVE 1.1 NNE, VT","Latitude":"43.29092","Longitude":"-72.83260","Snowdepth":"18.000","Units":"in","Rept_Date":"2020-02-14 11"},"coordinates":[5728,4029]},{"type":"Point","properties":{"Station_ID":"STMM4","Station_Nam":"STAMBAUGH 2SSE","Latitude":"46.05550","Longitude":"-88.62780","Snowdepth":"18.000","Units":"in","Rept_Date":"2020-02-14 13"},"coordinates":[2021,5985]},{"type":"Point","properties":{"Station_ID":"NY-ER-65","Station_Nam":"BOSTON 1.5 NE, NY","Latitude":"42.65470","Longitude":"-78.72010","Snowdepth":"18.000","Units":"in","Rept_Date":"2020-02-14 12"},"coordinates":[4346,3578]},{"type":"Point","properties":{"Station_ID":"NPTV1","Station_Nam":"NEWPORT","Latitude":"44.94900","Longitude":"-72.19120","Snowdepth":"18.000","Units":"in","Rept_Date":"2020-02-14 12"},"coordinates":[5878,5202]},{"type":"Point","properties":{"Station_ID":"NH-CR-26","Station_Nam":"CENTER SANDWICH 4.9 E, NH","Latitude":"43.80976","Longitude":"-71.34150","Snowdepth":"18.000","Units":"in","Rept_Date":"2020-02-14 12"},"coordinates":[6078,4396]},{"type":"Point","properties":{"Station_ID":"MTQM4","Station_Nam":"MANISTIQUE WWTP","Latitude":"45.95120","Longitude":"-86.25130","Snowdepth":"18.000","Units":"in","Rept_Date":"2020-02-14 12"},"coordinates":[2579,5911]},{"type":"Point","properties":{"Station_ID":"MN-CW-22","Station_Nam":"FORT RIPLEY 0.8 N, MN","Latitude":"46.18089","Longitude":"-94.36510","Snowdepth":"18.000","Units":"in","Rept_Date":"2020-02-14 13"},"coordinates":[674,6074]},{"type":"Point","properties":{"Station_ID":"MI-OT-4","Station_Nam":"GAYLORD 1.7 WNW, MI","Latitude":"45.03280","Longitude":"-84.71090","Snowdepth":"18.000","Units":"in","Rept_Date":"2020-02-14 13"},"coordinates":[2940,5261]},{"type":"Point","properties":{"Station_ID":"MI-OT-16","Station_Nam":"GAYLORD 2.2 SSE, MI","Latitude":"44.99441","Longitude":"-84.65820","Snowdepth":"18.000","Units":"in","Rept_Date":"2020-02-14 13"},"coordinates":[2953,5234]},{"type":"Point","properties":{"Station_ID":"LNKM1","Station_Nam":"LINCOLN SANITARY DISTRICT/WTP","Latitude":"45.37520","Longitude":"-68.50820","Snowdepth":"18.000","Units":"in","Rept_Date":"2020-02-14 12"},"coordinates":[6743,5504]},{"type":"Point","properties":{"Station_ID":"JOHV1","Station_Nam":"JOHNSON 2 N","Latitude":"44.65790","Longitude":"-72.67850","Snowdepth":"18.000","Units":"in","Rept_Date":"2020-02-14 12"},"coordinates":[5764,4996]},{"type":"Point","properties":{"Station_ID":"GAYM4","Station_Nam":"GAYLORD","Latitude":"45.03320","Longitude":"-84.71130","Snowdepth":"18.000","Units":"in","Rept_Date":"2020-02-14 13"},"coordinates":[2940,5262]},{"type":"Point","properties":{"Station_ID":"ESDN3","Station_Nam":"EAST SANDWICH","Latitude":"43.80990","Longitude":"-71.34250","Snowdepth":"18.000","Units":"in","Rept_Date":"2020-02-14 11"},"coordinates":[6078,4396]},{"type":"Point","properties":{"Station_ID":"CODN6","Station_Nam":"COLDEN","Latitude":"42.64720","Longitude":"-78.71110","Snowdepth":"18.000","Units":"in","Rept_Date":"2020-02-14 12"},"coordinates":[4348,3573]},{"type":"Point","properties":{"Station_ID":"BREW3","Station_Nam":"SURING","Latitude":"44.99580","Longitude":"-88.37860","Snowdepth":"18.000","Units":"in","Rept_Date":"2020-02-14 13"},"coordinates":[2079,5235]},{"type":"Point","properties":{"Station_ID":"QWG","Station_Nam":"QWG","Latitude":"48.48890","Longitude":"-73.45940","Snowdepth":"17.677","Units":"in","Rept_Date":"2020-02-14 12"},"coordinates":[5581,7707]},{"type":"Point","properties":{"Station_ID":"VT-WS-10","Station_Nam":"NORTHFIELD 1.5 N, VT","Latitude":"44.16986","Longitude":"-72.65200","Snowdepth":"17.500","Units":"in","Rept_Date":"2020-02-14 12"},"coordinates":[5770,4651]},{"type":"Point","properties":{"Station_ID":"NH-CR-15","Station_Nam":"JACKSON 3.7 NW, NH","Latitude":"44.19069","Longitude":"-71.22598","Snowdepth":"17.500","Units":"in","Rept_Date":"2020-02-14 12"},"coordinates":[6105,4665]},{"type":"Point","properties":{"Station_ID":"QLI","Station_Nam":"QLI","Latitude":"50.27080","Longitude":"-73.92280","Snowdepth":"17.283","Units":"in","Rept_Date":"2020-02-14 12"},"coordinates":[5472,8968]},{"type":"Point","properties":{"Station_ID":"CATQ6","Station_Nam":"CAT LAKE","Latitude":"51.72690","Longitude":"-91.82210","Snowdepth":"17.090","Units":"in","Rept_Date":"2020-02-15 06"},"coordinates":[1271,9999]},{"type":"Point","properties":{"Station_ID":"WI-PR-8","Station_Nam":"PHILLIPS 0.4 SSW, WI","Latitude":"45.69086","Longitude":"-90.40200","Snowdepth":"17.000","Units":"in","Rept_Date":"2020-02-14 13"},"coordinates":[1605,5727]},{"type":"Point","properties":{"Station_ID":"WI-PR-6","Station_Nam":"PHILLIPS 1.3 S, WI","Latitude":"45.67677","Longitude":"-90.39543","Snowdepth":"17.000","Units":"in","Rept_Date":"2020-02-14 12"},"coordinates":[1606,5717]},{"type":"Point","properties":{"Station_ID":"WI-LN-2","Station_Nam":"MERRILL 7.0 W, WI","Latitude":"45.17746","Longitude":"-89.84820","Snowdepth":"17.000","Units":"in","Rept_Date":"2020-02-14 12"},"coordinates":[1734,5364]},{"type":"Point","properties":{"Station_ID":"VT-OG-11","Station_Nam":"VERSHIRE 1.5 ESE, VT","Latitude":"43.96138","Longitude":"-72.29777","Snowdepth":"17.000","Units":"in","Rept_Date":"2020-02-14 13"},"coordinates":[5853,4503]},{"type":"Point","properties":{"Station_ID":"VT-CL-14","Station_Nam":"LYNDONVILLE 1.1 W, VT","Latitude":"44.53582","Longitude":"-72.02867","Snowdepth":"17.000","Units":"in","Rept_Date":"2020-02-14 13"},"coordinates":[5917,4910]},{"type":"Point","properties":{"Station_ID":"TOPN6","Station_Nam":"TUPPER LAKE SUNMOUNT","Latitude":"44.23070","Longitude":"-74.43820","Snowdepth":"17.000","Units":"in","Rept_Date":"2020-02-14 12"},"coordinates":[5351,4694]},{"type":"Point","properties":{"Station_ID":"SSMM4","Station_Nam":"SAULT STE MARIE","Latitude":"46.48660","Longitude":"-84.40250","Snowdepth":"17.000","Units":"in","Rept_Date":"2020-02-14 13"},"coordinates":[3013,6290]},{"type":"Point","properties":{"Station_ID":"RHRW3","Station_Nam":"RHINELANDER WJFW TV-12","Latitude":"45.62220","Longitude":"-89.41000","Snowdepth":"17.000","Units":"in","Rept_Date":"2020-02-15 04"},"coordinates":[1837,5679]},{"type":"Point","properties":{"Station_ID":"RHI","Station_Nam":"RHINELANDER-ONEIDA COUNTY AIRPORT","Latitude":"45.63080","Longitude":"-89.46530","Snowdepth":"17.000","Units":"in","Rept_Date":"2020-02-15 00"},"coordinates":[1824,5685]},{"type":"Point","properties":{"Station_ID":"RANM1","Station_Nam":"RANGELEY","Latitude":"44.98910","Longitude":"-70.67190","Snowdepth":"17.000","Units":"in","Rept_Date":"2020-02-14 11"},"coordinates":[6235,5231]},{"type":"Point","properties":{"Station_ID":"PELW3","Station_Nam":"PELLA 3SE","Latitude":"44.73580","Longitude":"-88.73780","Snowdepth":"17.000","Units":"in","Rept_Date":"2020-02-14 11"},"coordinates":[1995,5051]},{"type":"Point","properties":{"Station_ID":"PEKN6","Station_Nam":"PECK LAKE","Latitude":"43.11500","Longitude":"-74.42360","Snowdepth":"17.000","Units":"in","Rept_Date":"2020-02-14 13"},"coordinates":[5355,3904]},{"type":"Point","properties":{"Station_ID":"OCNW3","Station_Nam":"OCONTO 4 W","Latitude":"44.89190","Longitude":"-87.95500","Snowdepth":"17.000","Units":"in","Rept_Date":"2020-02-14 13"},"coordinates":[2179,5162]},{"type":"Point","properties":{"Station_ID":"NY-ER-63","Station_Nam":"GLENWOOD 1.5 SE, NY","Latitude":"42.60195","Longitude":"-78.63910","Snowdepth":"17.000","Units":"in","Rept_Date":"2020-02-14 13"},"coordinates":[4365,3541]},{"type":"Point","properties":{"Station_ID":"NH-GR-49","Station_Nam":"PLYMOUTH 3.7 N, NH","Latitude":"43.79048","Longitude":"-71.68413","Snowdepth":"17.000","Units":"in","Rept_Date":"2020-02-14 12"},"coordinates":[5997,4382]},{"type":"Point","properties":{"Station_ID":"NCKN6","Station_Nam":"NORTH CREEK 5 SE","Latitude":"43.66110","Longitude":"-73.89690","Snowdepth":"17.000","Units":"in","Rept_Date":"2020-02-14 12"},"coordinates":[5478,4291]},{"type":"Point","properties":{"Station_ID":"MRAM4","Station_Nam":"MORAN","Latitude":"45.99030","Longitude":"-84.83610","Snowdepth":"17.000","Units":"in","Rept_Date":"2020-02-14 13"},"coordinates":[2911,5939]},{"type":"Point","properties":{"Station_ID":"MLLW3","Station_Nam":"MERRILL 8W","Latitude":"45.17810","Longitude":"-89.84810","Snowdepth":"17.000","Units":"in","Rept_Date":"2020-02-14 12"},"coordinates":[1735,5364]},{"type":"Point","properties":{"Station_ID":"MI-AT-6","Station_Nam":"MANCELONA 0.5 ESE, MI","Latitude":"44.89981","Longitude":"-85.05100","Snowdepth":"17.000","Units":"in","Rept_Date":"2020-02-14 13"},"coordinates":[2860,5167]},{"type":"Point","properties":{"Station_ID":"KINM1","Station_Nam":"KINGFIELD","Latitude":"44.95950","Longitude":"-70.17530","Snowdepth":"17.000","Units":"in","Rept_Date":"2020-02-14 12"},"coordinates":[6352,5210]},{"type":"Point","properties":{"Station_ID":"JEFV1","Station_Nam":"JEFFERSONVILLE","Latitude":"44.58430","Longitude":"-72.78700","Snowdepth":"17.000","Units":"in","Rept_Date":"2020-02-14 12"},"coordinates":[5739,4944]},{"type":"Point","properties":{"Station_ID":"JCBM4","Station_Nam":"JACOBSVILLE","Latitude":"47.00830","Longitude":"-88.43180","Snowdepth":"17.000","Units":"in","Rept_Date":"2020-02-14 12"},"coordinates":[2067,6660]},{"type":"Point","properties":{"Station_ID":"COUW3","Station_Nam":"COUDERAY,WI","Latitude":"45.86670","Longitude":"-91.45000","Snowdepth":"17.000","Units":"in","Rept_Date":"2020-02-14 22"},"coordinates":[1359,5852]},{"type":"Point","properties":{"Station_ID":"COTM5","Station_Nam":"COTTON","Latitude":"47.16870","Longitude":"-92.46290","Snowdepth":"17.000","Units":"in","Rept_Date":"2020-02-14 12"},"coordinates":[1121,6773]},{"type":"Point","properties":{"Station_ID":"CAN-ON-208","Station_Nam":"PAKENHAM 7.8 NNW, CAN","Latitude":"45.39166","Longitude":"-76.34111","Snowdepth":"17.000","Units":"in","Rept_Date":"2020-02-14 12"},"coordinates":[4904,5515]},{"type":"Point","properties":{"Station_ID":"BTLN3","Station_Nam":"BARTLETT","Latitude":"44.08380","Longitude":"-71.29340","Snowdepth":"17.000","Units":"in","Rept_Date":"2020-02-14 12"},"coordinates":[6089,4590]},{"type":"Point","properties":{"Station_ID":"BRAM5","Station_Nam":"BRAINERD","Latitude":"46.34320","Longitude":"-94.20900","Snowdepth":"17.000","Units":"in","Rept_Date":"2020-02-14 13"},"coordinates":[711,6189]},{"type":"Point","properties":{"Station_ID":"APXM4","Station_Nam":"GAYLORD 9SSW","Latitude":"44.90720","Longitude":"-84.71880","Snowdepth":"17.000","Units":"in","Rept_Date":"2020-02-15 06"},"coordinates":[2938,5173]},{"type":"Point","properties":{"Station_ID":"ANJM4","Station_Nam":"SNOW PAID OBSERVER FOR KANJ","Latitude":"46.48670","Longitude":"-84.40260","Snowdepth":"17.000","Units":"in","Rept_Date":"2020-02-15 06"},"coordinates":[3013,6290]},{"type":"Point","properties":{"Station_ID":"ANJ","Station_Nam":"SAULT STE MARIE","Latitude":"46.46670","Longitude":"-84.36670","Snowdepth":"17.000","Units":"in","Rept_Date":"2020-02-15 00"},"coordinates":[3021,6276]},{"type":"Point","properties":{"Station_ID":"CAN-NB-1","Station_Nam":"FREDERICTON 4.0 SSE, CA","Latitude":"45.92897","Longitude":"-66.62830","Snowdepth":"16.900","Units":"in","Rept_Date":"2020-02-14 11"},"coordinates":[7184,5896]},{"type":"Point","properties":{"Station_ID":"WI-SR-5","Station_Nam":"HAYWARD 9.7 NE, WI","Latitude":"46.12030","Longitude":"-91.35370","Snowdepth":"16.500","Units":"in","Rept_Date":"2020-02-14 14"},"coordinates":[1381,6031]},{"type":"Point","properties":{"Station_ID":"MN-MW-8","Station_Nam":"AUSTIN 2.4 W, MN","Latitude":"43.67190","Longitude":"-93.02280","Snowdepth":"16.500","Units":"in","Rept_Date":"2020-02-14 13"},"coordinates":[989,4298]},{"type":"Point","properties":{"Station_ID":"CAN-ON-92","Station_Nam":"DUNROBIN 1.9 W - MVCA, CAN","Latitude":"45.42318","Longitude":"-76.04525","Snowdepth":"16.100","Units":"in","Rept_Date":"2020-02-14 12"},"coordinates":[4974,5538]},{"type":"Point","properties":{"Station_ID":"WSKW3","Station_Nam":"WAUSAUKEE","Latitude":"45.38020","Longitude":"-87.95660","Snowdepth":"16.000","Units":"in","Rept_Date":"2020-02-14 14"},"coordinates":[2178,5507]},{"type":"Point","properties":{"Station_ID":"WSFW3","Station_Nam":"TOWN OF WESTFORD","Latitude":"43.47190","Longitude":"-88.88250","Snowdepth":"16.000","Units":"in","Rept_Date":"2020-02-14 13"},"coordinates":[1961,4157]},{"type":"Point","properties":{"Station_ID":"WI-TR-8","Station_Nam":"ETTRICK 4.0 WNW, WI","Latitude":"44.19004","Longitude":"-91.34249","Snowdepth":"16.000","Units":"in","Rept_Date":"2020-02-14 13"},"coordinates":[1384,4665]},{"type":"Point","properties":{"Station_ID":"WI-PT-8","Station_Nam":"RUDOLPH 2.1 NNE, WI","Latitude":"44.52553","Longitude":"-89.78677","Snowdepth":"16.000","Units":"in","Rept_Date":"2020-02-14 11"},"coordinates":[1749,4902]},{"type":"Point","properties":{"Station_ID":"WI-DN-1","Station_Nam":"BOYCEVILLE 3.3 N, WI","Latitude":"45.08913","Longitude":"-92.02760","Snowdepth":"16.000","Units":"in","Rept_Date":"2020-02-14 13"},"coordinates":[1223,5301]},{"type":"Point","properties":{"Station_ID":"WI-DD-16","Station_Nam":"BEAVER DAM 2.4 WNW, WI","Latitude":"43.47210","Longitude":"-88.88280","Snowdepth":"16.000","Units":"in","Rept_Date":"2020-02-14 13"},"coordinates":[1961,4157]},{"type":"Point","properties":{"Station_ID":"TCYM5","Station_Nam":"TRACY,MN","Latitude":"44.23330","Longitude":"-95.61670","Snowdepth":"16.000","Units":"in","Rept_Date":"2020-02-14 14"},"coordinates":[381,4696]},{"type":"Point","properties":{"Station_ID":"SLNV1","Station_Nam":"SOUTH LINCOLN","Latitude":"44.07460","Longitude":"-72.97180","Snowdepth":"16.000","Units":"in","Rept_Date":"2020-02-14 12"},"coordinates":[5695,4583]},{"type":"Point","properties":{"Station_ID":"SD-CD-30","Station_Nam":"WATERTOWN 2.3 E, SD","Latitude":"44.91604","Longitude":"-97.11925","Snowdepth":"16.000","Units":"in","Rept_Date":"2020-02-14 13"},"coordinates":[28,5179]},{"type":"Point","properties":{"Station_ID":"RRLW3","Station_Nam":"MERRILL,WI","Latitude":"45.17860","Longitude":"-89.66170","Snowdepth":"16.000","Units":"in","Rept_Date":"2020-02-14 14"},"coordinates":[1778,5365]},{"type":"Point","properties":{"Station_ID":"RARM4","Station_Nam":"RAPID RIVER 1 SW","Latitude":"45.91500","Longitude":"-86.98800","Snowdepth":"16.000","Units":"in","Rept_Date":"2020-02-14 12"},"coordinates":[2406,5886]},{"type":"Point","properties":{"Station_ID":"PRNW3","Station_Nam":"PRENTICE,WI","Latitude":"45.54780","Longitude":"-90.30000","Snowdepth":"16.000","Units":"in","Rept_Date":"2020-02-14 14"},"coordinates":[1628,5626]},{"type":"Point","properties":{"Station_ID":"OCON6","Station_Nam":"OSCEOLA","Latitude":"43.49910","Longitude":"-75.71210","Snowdepth":"16.000","Units":"in","Rept_Date":"2020-02-14 12"},"coordinates":[5052,4176]},{"type":"Point","properties":{"Station_ID":"NH-MR-6","Station_Nam":"DANBURY 2.2 ESE, NH","Latitude":"43.52000","Longitude":"-71.81900","Snowdepth":"16.000","Units":"in","Rept_Date":"2020-02-14 13"},"coordinates":[5966,4191]},{"type":"Point","properties":{"Station_ID":"NCON3","Station_Nam":"NORTH CONWAY","Latitude":"44.05620","Longitude":"-71.12970","Snowdepth":"16.000","Units":"in","Rept_Date":"2020-02-14 13"},"coordinates":[6128,4570]},{"type":"Point","properties":{"Station_ID":"MQRW3","Station_Nam":"MINOCQUA","Latitude":"45.88630","Longitude":"-89.73220","Snowdepth":"16.000","Units":"in","Rept_Date":"2020-02-14 12"},"coordinates":[1762,5866]},{"type":"Point","properties":{"Station_ID":"MNEY8CTB","Station_Nam":"MIDLAND JUNCTION 2.2 ENE","Latitude":"44.33041","Longitude":"-91.95891","Snowdepth":"16.000","Units":"in","Rept_Date":"2020-02-14 14"},"coordinates":[1239,4764]},{"type":"Point","properties":{"Station_ID":"MN-SE-2","Station_Nam":"OWATONNA 0.8 E, MN","Latitude":"44.09170","Longitude":"-93.21380","Snowdepth":"16.000","Units":"in","Rept_Date":"2020-02-14 12"},"coordinates":[945,4595]},{"type":"Point","properties":{"Station_ID":"MN-BM-15","Station_Nam":"BEMIDJI 7.8 ENE, MN","Latitude":"47.52043","Longitude":"-94.72121","Snowdepth":"16.000","Units":"in","Rept_Date":"2020-02-14 13"},"coordinates":[591,7022]},{"type":"Point","properties":{"Station_ID":"MI-DL-4","Station_Nam":"GLADSTONE 2.1 SW, MI","Latitude":"45.83218","Longitude":"-87.05727","Snowdepth":"16.000","Units":"in","Rept_Date":"2020-02-14 12"},"coordinates":[2389,5827]},{"type":"Point","properties":{"Station_ID":"MI-CP-14","Station_Nam":"SAULT STE. MARIE 2.2 E, MI","Latitude":"46.48933","Longitude":"-84.31971","Snowdepth":"16.000","Units":"in","Rept_Date":"2020-02-14 12"},"coordinates":[3032,6292]},{"type":"Point","properties":{"Station_ID":"ME-FR-4","Station_Nam":"NEW SHARON 2.0 NW, ME","Latitude":"44.66582","Longitude":"-70.02720","Snowdepth":"16.000","Units":"in","Rept_Date":"2020-02-14 12"},"coordinates":[6386,5002]},{"type":"Point","properties":{"Station_ID":"ME-CM-98","Station_Nam":"SEBAGO 2.4 ESE, ME","Latitude":"43.88000","Longitude":"-70.63000","Snowdepth":"16.000","Units":"in","Rept_Date":"2020-02-14 14"},"coordinates":[6245,4446]},{"type":"Point","properties":{"Station_ID":"JEFN3","Station_Nam":"JEFFERSON","Latitude":"44.41690","Longitude":"-71.50080","Snowdepth":"16.000","Units":"in","Rept_Date":"2020-02-14 12"},"coordinates":[6040,4826]},{"type":"Point","properties":{"Station_ID":"HYTS2","Station_Nam":"HAYTI 1W","Latitude":"44.66330","Longitude":"-97.22670","Snowdepth":"16.000","Units":"in","Rept_Date":"2020-02-14 14"},"coordinates":[3,5000]},{"type":"Point","properties":{"Station_ID":"HOLW3","Station_Nam":"HOLCOMBE","Latitude":"45.22370","Longitude":"-91.12700","Snowdepth":"16.000","Units":"in","Rept_Date":"2020-02-14 13"},"coordinates":[1434,5397]},{"type":"Point","properties":{"Station_ID":"GFDN6","Station_Nam":"CHASES LAKE","Latitude":"43.75920","Longitude":"-75.29980","Snowdepth":"16.000","Units":"in","Rept_Date":"2020-02-14 11"},"coordinates":[5149,4360]},{"type":"Point","properties":{"Station_ID":"FLDM5","Station_Nam":"FLOODWOOD,MN","Latitude":"47.00000","Longitude":"-92.91670","Snowdepth":"16.000","Units":"in","Rept_Date":"2020-02-14 14"},"coordinates":[1014,6654]},{"type":"Point","properties":{"Station_ID":"ETTW3","Station_Nam":"ETTRICK 4WNW","Latitude":"44.19000","Longitude":"-91.34240","Snowdepth":"16.000","Units":"in","Rept_Date":"2020-02-14 13"},"coordinates":[1384,4665]},{"type":"Point","properties":{"Station_ID":"CLGM5","Station_Nam":"COLLEGEVILLE ST JOHN","Latitude":"45.57940","Longitude":"-94.39200","Snowdepth":"16.000","Units":"in","Rept_Date":"2020-02-15 00"},"coordinates":[668,5648]},{"type":"Point","properties":{"Station_ID":"BFSW3","Station_Nam":"BIG FALLS-5 NW","Latitude":"44.63980","Longitude":"-89.11330","Snowdepth":"16.000","Units":"in","Rept_Date":"2020-02-14 13"},"coordinates":[1907,4983]},{"type":"Point","properties":{"Station_ID":"AMDW3","Station_Nam":"ALMOND-5 NE","Latitude":"44.30830","Longitude":"-89.34640","Snowdepth":"16.000","Units":"in","Rept_Date":"2020-02-14 14"},"coordinates":[1852,4749]},{"type":"Point","properties":{"Station_ID":"VT-WS-19","Station_Nam":"WATERBURY 3.0 NW, VT","Latitude":"44.36060","Longitude":"-72.80770","Snowdepth":"15.500","Units":"in","Rept_Date":"2020-02-14 11"},"coordinates":[5734,4786]},{"type":"Point","properties":{"Station_ID":"VT-WR-17","Station_Nam":"ROCHESTER 2.3 NE, VT","Latitude":"43.89418","Longitude":"-72.76992","Snowdepth":"15.500","Units":"in","Rept_Date":"2020-02-14 12"},"coordinates":[5743,4456]},{"type":"Point","properties":{"Station_ID":"NH-CR-27","Station_Nam":"TAMWORTH 0.4 NNW, NH","Latitude":"43.86449","Longitude":"-71.26610","Snowdepth":"15.500","Units":"in","Rept_Date":"2020-02-14 12"},"coordinates":[6096,4435]},{"type":"Point","properties":{"Station_ID":"MN-BK-10","Station_Nam":"DETROIT LAKES 5.7 N, MN","Latitude":"46.88666","Longitude":"-95.84444","Snowdepth":"15.500","Units":"in","Rept_Date":"2020-02-14 10"},"coordinates":[327,6573]},{"type":"Point","properties":{"Station_ID":"MI-CX-7","Station_Nam":"EAST JORDAN 2.1 NNW, MI","Latitude":"45.18639","Longitude":"-85.14750","Snowdepth":"15.500","Units":"in","Rept_Date":"2020-02-14 13"},"coordinates":[2838,5370]},{"type":"Point","properties":{"Station_ID":"MFU","Station_Nam":"MFU","Latitude":"51.52170","Longitude":"-66.91110","Snowdepth":"15.472","Units":"in","Rept_Date":"2020-02-14 12"},"coordinates":[7118,9854]},{"type":"Point","properties":{"Station_ID":"CAN-QC-16","Station_Nam":"SAINT-ARMAND 3.6 W, CAN","Latitude":"45.02631","Longitude":"-73.08795","Snowdepth":"15.400","Units":"in","Rept_Date":"2020-02-14 12"},"coordinates":[5668,5257]},{"type":"Point","properties":{"Station_ID":"CAN-NB-98","Station_Nam":"HOYT 4.2 S, CAN","Latitude":"45.54763","Longitude":"-66.55440","Snowdepth":"15.200","Units":"in","Rept_Date":"2020-02-14 11"},"coordinates":[7201,5626]},{"type":"Point","properties":{"Station_ID":"WYON6","Station_Nam":"WYOMING 3W","Latitude":"42.82060","Longitude":"-78.14810","Snowdepth":"15.000","Units":"in","Rept_Date":"2020-02-14 12"},"coordinates":[4480,3696]},{"type":"Point","properties":{"Station_ID":"WNNM5","Station_Nam":"WINNEBAGO","Latitude":"43.76920","Longitude":"-94.18730","Snowdepth":"15.000","Units":"in","Rept_Date":"2020-02-14 14"},"coordinates":[716,4367]},{"type":"Point","properties":{"Station_ID":"WERW3","Station_Nam":"CHIPPEWA R BISHOP'S BRIDGE","Latitude":"45.84920","Longitude":"-91.07890","Snowdepth":"15.000","Units":"in","Rept_Date":"2020-02-14 13"},"coordinates":[1446,5839]},{"type":"Point","properties":{"Station_ID":"TMWN3","Station_Nam":"TAMWORTH 4","Latitude":"43.86390","Longitude":"-71.26610","Snowdepth":"15.000","Units":"in","Rept_Date":"2020-02-14 12"},"coordinates":[6096,4434]},{"type":"Point","properties":{"Station_ID":"SBNM5","Station_Nam":"SABIN","Latitude":"46.77690","Longitude":"-96.65610","Snowdepth":"15.000","Units":"in","Rept_Date":"2020-02-14 14"},"coordinates":[137,6496]},{"type":"Point","properties":{"Station_ID":"PULW3","Station_Nam":"PULASKI WWTP","Latitude":"44.67830","Longitude":"-88.22750","Snowdepth":"15.000","Units":"in","Rept_Date":"2020-02-14 12"},"coordinates":[2115,5011]},{"type":"Point","properties":{"Station_ID":"PERV1","Station_Nam":"PERU","Latitude":"43.26670","Longitude":"-72.90000","Snowdepth":"15.000","Units":"in","Rept_Date":"2020-02-14 12"},"coordinates":[5712,4012]},{"type":"Point","properties":{"Station_ID":"OTTM5","Station_Nam":"OTTERTAIL,MN","Latitude":"46.41670","Longitude":"-95.56670","Snowdepth":"15.000","Units":"in","Rept_Date":"2020-02-14 13"},"coordinates":[392,6241]},{"type":"Point","properties":{"Station_ID":"NY-WY-10","Station_Nam":"WYOMING COOP, NY","Latitude":"42.82060","Longitude":"-78.14810","Snowdepth":"15.000","Units":"in","Rept_Date":"2020-02-14 12"},"coordinates":[4480,3696]},{"type":"Point","properties":{"Station_ID":"NELW3","Station_Nam":"NEILLSVILLE 3ESE","Latitude":"44.53780","Longitude":"-90.53500","Snowdepth":"15.000","Units":"in","Rept_Date":"2020-02-14 13"},"coordinates":[1573,4911]},{"type":"Point","properties":{"Station_ID":"MNLGGILP","Station_Nam":"LONG PRAIRIE 1.1 WSW","Latitude":"45.96913","Longitude":"-94.88686","Snowdepth":"15.000","Units":"in","Rept_Date":"2020-02-14 12"},"coordinates":[552,5924]},{"type":"Point","properties":{"Station_ID":"MNBDUIOM","Station_Nam":"GRAND MEADOW 0.7 ENE","Latitude":"43.70981","Longitude":"-92.55148","Snowdepth":"15.000","Units":"in","Rept_Date":"2020-02-14 12"},"coordinates":[1100,4325]},{"type":"Point","properties":{"Station_ID":"MI-DL-1","Station_Nam":"GARDEN CORNERS 0.8 NW, MI","Latitude":"45.89815","Longitude":"-86.54850","Snowdepth":"15.000","Units":"in","Rept_Date":"2020-02-14 13"},"coordinates":[2509,5874]},{"type":"Point","properties":{"Station_ID":"LNGM5","Station_Nam":"LONG PRAIRIE","Latitude":"45.96460","Longitude":"-94.88920","Snowdepth":"15.000","Units":"in","Rept_Date":"2020-02-14 12"},"coordinates":[551,5921]},{"type":"Point","properties":{"Station_ID":"GMDM5","Station_Nam":"GRAND MEADOW","Latitude":"43.70740","Longitude":"-92.56440","Snowdepth":"15.000","Units":"in","Rept_Date":"2020-02-14 12"},"coordinates":[1097,4323]},{"type":"Point","properties":{"Station_ID":"GDCM4","Station_Nam":"GARDEN CORNERS","Latitude":"45.89830","Longitude":"-86.54850","Snowdepth":"15.000","Units":"in","Rept_Date":"2020-02-14 13"},"coordinates":[2509,5874]},{"type":"Point","properties":{"Station_ID":"FARM1","Station_Nam":"FARMINGTON","Latitude":"44.68930","Longitude":"-70.15640","Snowdepth":"15.000","Units":"in","Rept_Date":"2020-02-15 05"},"coordinates":[6356,5018]},{"type":"Point","properties":{"Station_ID":"EPTW3","Station_Nam":"EAU PLEINE TENDER","Latitude":"44.77220","Longitude":"-89.76720","Snowdepth":"15.000","Units":"in","Rept_Date":"2020-02-14 13"},"coordinates":[1753,5077]},{"type":"Point","properties":{"Station_ID":"ENGM4","Station_Nam":"ENGADINE MDOT","Latitude":"46.12800","Longitude":"-85.56960","Snowdepth":"15.000","Units":"in","Rept_Date":"2020-02-14 12"},"coordinates":[2739,6037]},{"type":"Point","properties":{"Station_ID":"ENFV1","Station_Nam":"ENOSBURG FALLS 2","Latitude":"44.90960","Longitude":"-72.81370","Snowdepth":"15.000","Units":"in","Rept_Date":"2020-02-14 10"},"coordinates":[5732,5174]},{"type":"Point","properties":{"Station_ID":"EJNM4","Station_Nam":"EAST JORDAN 2NW","Latitude":"45.18630","Longitude":"-85.14770","Snowdepth":"15.000","Units":"in","Rept_Date":"2020-02-14 13"},"coordinates":[2838,5370]},{"type":"Point","properties":{"Station_ID":"CANM5","Station_Nam":"CANBY","Latitude":"44.71840","Longitude":"-96.26960","Snowdepth":"15.000","Units":"in","Rept_Date":"2020-02-14 14"},"coordinates":[227,5039]},{"type":"Point","properties":{"Station_ID":"CAN-ON-491","Station_Nam":"MILVERTON 1.1 ESE- CANWARN, CAN","Latitude":"43.56074","Longitude":"-80.90887","Snowdepth":"15.000","Units":"in","Rept_Date":"2020-02-14 11"},"coordinates":[3832,4220]},{"type":"Point","properties":{"Station_ID":"CAN-ON-245","Station_Nam":"PHELPSTON 3.1 ESE, CAN","Latitude":"44.50564","Longitude":"-79.81035","Snowdepth":"15.000","Units":"in","Rept_Date":"2020-02-14 13"},"coordinates":[4090,4888]},{"type":"Point","properties":{"Station_ID":"BRLN3","Station_Nam":"BERLIN","Latitude":"44.45350","Longitude":"-71.18540","Snowdepth":"15.000","Units":"in","Rept_Date":"2020-02-14 12"},"coordinates":[6115,4851]},{"type":"Point","properties":{"Station_ID":"BALW3","Station_Nam":"BALDWIN","Latitude":"44.96330","Longitude":"-92.39050","Snowdepth":"15.000","Units":"in","Rept_Date":"2020-02-14 13"},"coordinates":[1138,5212]},{"type":"Point","properties":{"Station_ID":"ASTM5","Station_Nam":"AUSTIN WASTE WATER TREATMENT FACILITY","Latitude":"43.65420","Longitude":"-92.97390","Snowdepth":"15.000","Units":"in","Rept_Date":"2020-02-14 13"},"coordinates":[1001,4286]},{"type":"Point","properties":{"Station_ID":"ARTM5","Station_Nam":"ARTICHOKE LAKE 1 E","Latitude":"45.38560","Longitude":"-96.12570","Snowdepth":"15.000","Units":"in","Rept_Date":"2020-02-15 00"},"coordinates":[261,5511]},{"type":"Point","properties":{"Station_ID":"ALTM5","Station_Nam":"ALTURA 5W","Latitude":"44.06330","Longitude":"-92.03970","Snowdepth":"15.000","Units":"in","Rept_Date":"2020-02-14 13"},"coordinates":[1220,4575]},{"type":"Point","properties":{"Station_ID":"ABGW3","Station_Nam":"AMBERG 9 E","Latitude":"45.48250","Longitude":"-87.81190","Snowdepth":"15.000","Units":"in","Rept_Date":"2020-02-14 12"},"coordinates":[2212,5580]},{"type":"Point","properties":{"Station_ID":"41.9208_080.5841","Station_Nam":"CONNEAUT  SNOW SPOTTER (CLE1454)","Latitude":"41.92080","Longitude":"-80.58410","Snowdepth":"15.000","Units":"in","Rept_Date":"2020-02-15 00"},"coordinates":[3909,3059]},{"type":"Point","properties":{"Station_ID":"CAN-NS-86","Station_Nam":"NAPPAN 1.7 E, CA","Latitude":"45.76986","Longitude":"-64.21800","Snowdepth":"14.700","Units":"in","Rept_Date":"2020-02-14 13"},"coordinates":[7750,5783]},{"type":"Point","properties":{"Station_ID":"WI-WD-2","Station_Nam":"WISCONSIN RAPIDS 4.6 SSE, WI","Latitude":"44.33823","Longitude":"-89.78200","Snowdepth":"14.500","Units":"in","Rept_Date":"2020-02-14 13"},"coordinates":[1750,4770]},{"type":"Point","properties":{"Station_ID":"NY-MD-10","Station_Nam":"CAZENOVIA 2.9 SE, NY","Latitude":"42.90003","Longitude":"-75.81140","Snowdepth":"14.500","Units":"in","Rept_Date":"2020-02-14 12"},"coordinates":[5029,3752]},{"type":"Point","properties":{"Station_ID":"MN-AT-5","Station_Nam":"TAMARACK 1.4 SW, MN","Latitude":"46.63760","Longitude":"-93.14554","Snowdepth":"14.500","Units":"in","Rept_Date":"2020-02-14 13"},"coordinates":[961,6397]},{"type":"Point","properties":{"Station_ID":"ME-FR-22","Station_Nam":"FARMINGTON 4.8 NNW, ME","Latitude":"44.73396","Longitude":"-70.18007","Snowdepth":"14.500","Units":"in","Rept_Date":"2020-02-14 14"},"coordinates":[6350,5050]},{"type":"Point","properties":{"Station_ID":"CAN-ON-757","Station_Nam":"SAULT STE. MARIE 2.8 ESE - GLFC, CAN","Latitude":"46.50300","Longitude":"-84.30300","Snowdepth":"14.100","Units":"in","Rept_Date":"2020-02-14 13"},"coordinates":[3036,6302]},{"type":"Point","properties":{"Station_ID":"WWWW3","Station_Nam":"WAUPACA","Latitude":"44.35470","Longitude":"-89.05920","Snowdepth":"14.000","Units":"in","Rept_Date":"2020-02-14 14"},"coordinates":[1920,4782]},{"type":"Point","properties":{"Station_ID":"WRSN6","Station_Nam":"WARSAW 6SW","Latitude":"42.68550","Longitude":"-78.22020","Snowdepth":"14.000","Units":"in","Rept_Date":"2020-02-14 12"},"coordinates":[4463,3600]},{"type":"Point","properties":{"Station_ID":"WI-TY-2","Station_Nam":"SHELDON 8.1 ENE, WI","Latitude":"45.35598","Longitude":"-90.80296","Snowdepth":"14.000","Units":"in","Rept_Date":"2020-02-14 13"},"coordinates":[1510,5490]},{"type":"Point","properties":{"Station_ID":"WI-CB-5","Station_Nam":"PORTAGE 7.2 SW, WI","Latitude":"43.47933","Longitude":"-89.57370","Snowdepth":"14.000","Units":"in","Rept_Date":"2020-02-14 13"},"coordinates":[1799,4162]},{"type":"Point","properties":{"Station_ID":"WELM5","Station_Nam":"WELLS","Latitude":"43.74680","Longitude":"-93.73680","Snowdepth":"14.000","Units":"in","Rept_Date":"2020-02-14 14"},"coordinates":[822,4351]},{"type":"Point","properties":{"Station_ID":"TOPM1","Station_Nam":"TOPSFIELD","Latitude":"45.43470","Longitude":"-67.72020","Snowdepth":"14.000","Units":"in","Rept_Date":"2020-02-14 12"},"coordinates":[6928,5546]},{"type":"Point","properties":{"Station_ID":"STPW3","Station_Nam":"STEVENS POINT","Latitude":"44.51130","Longitude":"-89.58550","Snowdepth":"14.000","Units":"in","Rept_Date":"2020-02-14 13"},"coordinates":[1796,4892]},{"type":"Point","properties":{"Station_ID":"SGVN6","Station_Nam":"SPRINGVILLE","Latitude":"42.54970","Longitude":"-78.57670","Snowdepth":"14.000","Units":"in","Rept_Date":"2020-02-14 22"},"coordinates":[4380,3504]},{"type":"Point","properties":{"Station_ID":"SD-BK-7","Station_Nam":"BROOKINGS 0.2 SSW, SD","Latitude":"44.30389","Longitude":"-96.78780","Snowdepth":"14.000","Units":"in","Rept_Date":"2020-02-14 13"},"coordinates":[106,4746]},{"type":"Point","properties":{"Station_ID":"RST","Station_Nam":"ROCHESTER INTERNATIONAL ARPT","Latitude":"43.90890","Longitude":"-92.49780","Snowdepth":"14.000","Units":"in","Rept_Date":"2020-02-15 00"},"coordinates":[1113,4466]},{"type":"Point","properties":{"Station_ID":"REWM5","Station_Nam":"REDWOOD FALLS","Latitude":"44.54850","Longitude":"-95.09980","Snowdepth":"14.000","Units":"in","Rept_Date":"2020-02-14 13"},"coordinates":[502,4919]},{"type":"Point","properties":{"Station_ID":"NY-SR-22","Station_Nam":"GREENFIELD CENTER 1.6 W, NY","Latitude":"43.12684","Longitude":"-73.87860","Snowdepth":"14.000","Units":"in","Rept_Date":"2020-02-14 12"},"coordinates":[5482,3913]},{"type":"Point","properties":{"Station_ID":"NY-ES-7","Station_Nam":"KEESEVILLE 0.8 SE, NY","Latitude":"44.49504","Longitude":"-73.47109","Snowdepth":"14.000","Units":"in","Rept_Date":"2020-02-14 12"},"coordinates":[5578,4881]},{"type":"Point","properties":{"Station_ID":"NVLV1","Station_Nam":"NASHVILLE","Latitude":"44.44970","Longitude":"-72.92640","Snowdepth":"14.000","Units":"in","Rept_Date":"2020-02-14 12"},"coordinates":[5706,4849]},{"type":"Point","properties":{"Station_ID":"NUMM5","Station_Nam":"NEW ULM 3SE","Latitude":"44.29450","Longitude":"-94.40840","Snowdepth":"14.000","Units":"in","Rept_Date":"2020-02-14 11"},"coordinates":[664,4739]},{"type":"Point","properties":{"Station_ID":"NONW3","Station_Nam":"NEW LONDON","Latitude":"44.35890","Longitude":"-88.71890","Snowdepth":"14.000","Units":"in","Rept_Date":"2020-02-14 12"},"coordinates":[2000,4785]},{"type":"Point","properties":{"Station_ID":"NH-MR-41","Station_Nam":"NEWBURY 1.6 NW, NH","Latitude":"43.33667","Longitude":"-72.06060","Snowdepth":"14.000","Units":"in","Rept_Date":"2020-02-14 12"},"coordinates":[5909,4061]},{"type":"Point","properties":{"Station_ID":"MXON6","Station_Nam":"MEXICO","Latitude":"43.43830","Longitude":"-76.26560","Snowdepth":"14.000","Units":"in","Rept_Date":"2020-02-14 12"},"coordinates":[4922,4133]},{"type":"Point","properties":{"Station_ID":"MNF74YNU","Station_Nam":"NEW ULM 3.3 ESE","Latitude":"44.29029","Longitude":"-94.40196","Snowdepth":"14.000","Units":"in","Rept_Date":"2020-02-14 11"},"coordinates":[666,4736]},{"type":"Point","properties":{"Station_ID":"MN7M8EBJ","Station_Nam":"LUTSEN 15.7 NNW","Latitude":"47.85324","Longitude":"-89.92908","Snowdepth":"14.000","Units":"in","Rept_Date":"2020-02-14 14"},"coordinates":[1715,7258]},{"type":"Point","properties":{"Station_ID":"MI-BZ-1","Station_Nam":"BENZONIA 5.3 S, MI","Latitude":"44.53976","Longitude":"-86.10650","Snowdepth":"14.000","Units":"in","Rept_Date":"2020-02-14 14"},"coordinates":[2613,4913]},{"type":"Point","properties":{"Station_ID":"ME-YK-3","Station_Nam":"HOLLIS CENTER 5.4 NW, ME","Latitude":"43.64750","Longitude":"-70.67510","Snowdepth":"14.000","Units":"in","Rept_Date":"2020-02-14 12"},"coordinates":[6234,4281]},{"type":"Point","properties":{"Station_ID":"ME-CM-86","Station_Nam":"POWNAL 4.1 S, ME","Latitude":"43.85370","Longitude":"-70.17210","Snowdepth":"14.000","Units":"in","Rept_Date":"2020-02-14 12"},"coordinates":[6352,4427]},{"type":"Point","properties":{"Station_ID":"LBRM5","Station_Nam":"LAKE BRONSON DAM","Latitude":"48.72410","Longitude":"-96.62180","Snowdepth":"14.000","Units":"in","Rept_Date":"2020-02-14 14"},"coordinates":[145,7874]},{"type":"Point","properties":{"Station_ID":"KGFK","Station_Nam":"GRAND FORKS INTERNATIONAL","Latitude":"47.95000","Longitude":"-97.18333","Snowdepth":"14.000","Units":"in","Rept_Date":"2020-02-15 06"},"coordinates":[13,7326]},{"type":"Point","properties":{"Station_ID":"HOLM1","Station_Nam":"HOLLIS","Latitude":"43.64750","Longitude":"-70.67490","Snowdepth":"14.000","Units":"in","Rept_Date":"2020-02-14 12"},"coordinates":[6234,4281]},{"type":"Point","properties":{"Station_ID":"GRFN8","Station_Nam":"UNIVERSITY","Latitude":"47.93330","Longitude":"-97.08330","Snowdepth":"14.000","Units":"in","Rept_Date":"2020-02-15 06"},"coordinates":[36,7314]},{"type":"Point","properties":{"Station_ID":"FEDM5","Station_Nam":"LEECH LAKE DAM","Latitude":"47.24670","Longitude":"-94.22280","Snowdepth":"14.000","Units":"in","Rept_Date":"2020-02-14 14"},"coordinates":[708,6828]},{"type":"Point","properties":{"Station_ID":"CHRM4","Station_Nam":"CHARLEVOIX","Latitude":"45.31720","Longitude":"-85.26720","Snowdepth":"14.000","Units":"in","Rept_Date":"2020-02-14 13"},"coordinates":[2810,5463]},{"type":"Point","properties":{"Station_ID":"CAN-PE-3","Station_Nam":"WELLINGTON 1.6 NE, CA","Latitude":"46.46672","Longitude":"-63.98920","Snowdepth":"14.000","Units":"in","Rept_Date":"2020-02-14 11"},"coordinates":[7803,6276]},{"type":"Point","properties":{"Station_ID":"BETM1","Station_Nam":"BETHEL 6 SSE","Latitude":"44.32000","Longitude":"-70.75680","Snowdepth":"14.000","Units":"in","Rept_Date":"2020-02-14 12"},"coordinates":[6215,4757]},{"type":"Point","properties":{"Station_ID":"ATAN6","Station_Nam":"ATTICA 7 SW","Latitude":"42.81070","Longitude":"-78.39790","Snowdepth":"14.000","Units":"in","Rept_Date":"2020-02-14 11"},"coordinates":[4422,3689]},{"type":"Point","properties":{"Station_ID":"ME-AN-32","Station_Nam":"WINTHROP 9.4 W, ME","Latitude":"44.30476","Longitude":"-70.15835","Snowdepth":"13.800","Units":"in","Rept_Date":"2020-02-14 12"},"coordinates":[6356,4746]},{"type":"Point","properties":{"Station_ID":"WI-WN-9","Station_Nam":"NEENAH 1.1 ENE, WI","Latitude":"44.17370","Longitude":"-88.45130","Snowdepth":"13.500","Units":"in","Rept_Date":"2020-02-14 13"},"coordinates":[2062,4653]},{"type":"Point","properties":{"Station_ID":"NY-OG-61","Station_Nam":"SKANEATELES 0.8 NNW, NY","Latitude":"42.95538","Longitude":"-76.43362","Snowdepth":"13.500","Units":"in","Rept_Date":"2020-02-14 12"},"coordinates":[4883,3791]},{"type":"Point","properties":{"Station_ID":"NH-GR-47","Station_Nam":"LITTLETON 7.3 W, NH","Latitude":"44.31847","Longitude":"-71.91086","Snowdepth":"13.500","Units":"in","Rept_Date":"2020-02-14 13"},"coordinates":[5944,4756]},{"type":"Point","properties":{"Station_ID":"NH-CR-9","Station_Nam":"MADISON 1.7 SE, NH","Latitude":"43.87928","Longitude":"-71.12660","Snowdepth":"13.500","Units":"in","Rept_Date":"2020-02-14 12"},"coordinates":[6128,4445]},{"type":"Point","properties":{"Station_ID":"ND-CS-25","Station_Nam":"FARGO 2.1 N, ND","Latitude":"46.90816","Longitude":"-96.77937","Snowdepth":"13.500","Units":"in","Rept_Date":"2020-02-14 14"},"coordinates":[108,6589]},{"type":"Point","properties":{"Station_ID":"ME-CM-3","Station_Nam":"NEW GLOUCESTER 3.0 SE, ME","Latitude":"43.92372","Longitude":"-70.25790","Snowdepth":"13.500","Units":"in","Rept_Date":"2020-02-14 12"},"coordinates":[6332,4477]},{"type":"Point","properties":{"Station_ID":"FTHQ6","Station_Nam":"FORT HOPE","Latitude":"51.55820","Longitude":"-87.90510","Snowdepth":"13.500","Units":"in","Rept_Date":"2020-02-15 06"},"coordinates":[2191,9880]},{"type":"Point","properties":{"Station_ID":"VT-CL-23","Station_Nam":"RYEGATE 1.5 N, VT","Latitude":"44.23024","Longitude":"-72.10523","Snowdepth":"13.200","Units":"in","Rept_Date":"2020-02-14 12"},"coordinates":[5899,4693]},{"type":"Point","properties":{"Station_ID":"WLSN6","Station_Nam":"WALES","Latitude":"42.73920","Longitude":"-78.58780","Snowdepth":"13.000","Units":"in","Rept_Date":"2020-02-14 12"},"coordinates":[4377,3638]},{"type":"Point","properties":{"Station_ID":"WIPW3","Station_Nam":"WISCONSIN RAPIDS-SOUTHEAST","Latitude":"44.38190","Longitude":"-89.80470","Snowdepth":"13.000","Units":"in","Rept_Date":"2020-02-14 12"},"coordinates":[1745,4801]},{"type":"Point","properties":{"Station_ID":"WI-BT-14","Station_Nam":"OAKLAND 9.0 ENE, WI","Latitude":"45.95184","Longitude":"-92.21653","Snowdepth":"13.000","Units":"in","Rept_Date":"2020-02-14 13"},"coordinates":[1179,5912]},{"type":"Point","properties":{"Station_ID":"WDOM5","Station_Nam":"WINDOM","Latitude":"43.87700","Longitude":"-95.11590","Snowdepth":"13.000","Units":"in","Rept_Date":"2020-02-14 14"},"coordinates":[498,4443]},{"type":"Point","properties":{"Station_ID":"WASW3","Station_Nam":"WASHINGTON IS","Latitude":"45.35800","Longitude":"-86.89110","Snowdepth":"13.000","Units":"in","Rept_Date":"2020-02-14 13"},"coordinates":[2428,5492]},{"type":"Point","properties":{"Station_ID":"VT-WR-6","Station_Nam":"LUDLOW 3.4 S, VT","Latitude":"43.34720","Longitude":"-72.69680","Snowdepth":"13.000","Units":"in","Rept_Date":"2020-02-14 13"},"coordinates":[5760,4069]},{"type":"Point","properties":{"Station_ID":"VT-WR-2","Station_Nam":"POMFRET 2.6 N, VT","Latitude":"43.74230","Longitude":"-72.52550","Snowdepth":"13.000","Units":"in","Rept_Date":"2020-02-14 12"},"coordinates":[5800,4348]},{"type":"Point","properties":{"Station_ID":"VT-LM-1","Station_Nam":"STOWE 0.2 SW, VT","Latitude":"44.46399","Longitude":"-72.69070","Snowdepth":"13.000","Units":"in","Rept_Date":"2020-02-14 12"},"coordinates":[5761,4859]},{"type":"Point","properties":{"Station_ID":"UVDV1","Station_Nam":"NERON SITE AT UNION VILLAGE DAM","Latitude":"43.79140","Longitude":"-72.25720","Snowdepth":"13.000","Units":"in","Rept_Date":"2020-02-14 13"},"coordinates":[5863,4383]},{"type":"Point","properties":{"Station_ID":"TETM5","Station_Nam":"TETTEGOUCHE STATE PARK","Latitude":"47.33900","Longitude":"-91.19590","Snowdepth":"13.000","Units":"in","Rept_Date":"2020-02-14 14"},"coordinates":[1418,6894]},{"type":"Point","properties":{"Station_ID":"TCEM4","Station_Nam":"TRAVERSE CITY 5ESE","Latitude":"44.73370","Longitude":"-85.51180","Snowdepth":"13.000","Units":"in","Rept_Date":"2020-02-14 12"},"coordinates":[2752,5050]},{"type":"Point","properties":{"Station_ID":"SIBI4","Station_Nam":"SIBLEY","Latitude":"43.40470","Longitude":"-95.74830","Snowdepth":"13.000","Units":"in","Rept_Date":"2020-02-14 13"},"coordinates":[350,4109]},{"type":"Point","properties":{"Station_ID":"SHHW3","Station_Nam":"SHAWANO 2SSW","Latitude":"44.76310","Longitude":"-88.61830","Snowdepth":"13.000","Units":"in","Rept_Date":"2020-02-14 14"},"coordinates":[2023,5071]},{"type":"Point","properties":{"Station_ID":"RSRM5","Station_Nam":"ROCHESTER AP 2NE","Latitude":"43.92810","Longitude":"-92.47580","Snowdepth":"13.000","Units":"in","Rept_Date":"2020-02-14 18"},"coordinates":[1118,4480]},{"type":"Point","properties":{"Station_ID":"ROWM3","Station_Nam":"ROWE 3NE","Latitude":"42.73500","Longitude":"-72.86920","Snowdepth":"13.000","Units":"in","Rept_Date":"2020-02-14 12"},"coordinates":[5719,3635]},{"type":"Point","properties":{"Station_ID":"PORW3","Station_Nam":"PORTAGE,WI","Latitude":"43.53190","Longitude":"-89.43780","Snowdepth":"13.000","Units":"in","Rept_Date":"2020-02-14 14"},"coordinates":[1831,4199]},{"type":"Point","properties":{"Station_ID":"PLOW3","Station_Nam":"PLOVER","Latitude":"44.44280","Longitude":"-89.54530","Snowdepth":"13.000","Units":"in","Rept_Date":"2020-02-14 13"},"coordinates":[1806,4844]},{"type":"Point","properties":{"Station_ID":"ORAN3","Station_Nam":"ORANGE","Latitude":"43.66880","Longitude":"-71.94830","Snowdepth":"13.000","Units":"in","Rept_Date":"2020-02-14 12"},"coordinates":[5935,4296]},{"type":"Point","properties":{"Station_ID":"NY-TM-4","Station_Nam":"GROTON 0.5 NW, NY","Latitude":"42.59127","Longitude":"-76.37200","Snowdepth":"13.000","Units":"in","Rept_Date":"2020-02-14 12"},"coordinates":[4897,3534]},{"type":"Point","properties":{"Station_ID":"NY-SL-6","Station_Nam":"HANNAWA FALLS 0.1 SW, NY","Latitude":"44.61154","Longitude":"-74.97190","Snowdepth":"13.000","Units":"in","Rept_Date":"2020-02-14 12"},"coordinates":[5226,4963]},{"type":"Point","properties":{"Station_ID":"NY-ER-158","Station_Nam":"EAST AURORA 2.7 SSE, NY","Latitude":"42.72936","Longitude":"-78.60561","Snowdepth":"13.000","Units":"in","Rept_Date":"2020-02-14 12"},"coordinates":[4373,3631]},{"type":"Point","properties":{"Station_ID":"NH-CR-46","Station_Nam":"NORTH CONWAY 1.8 SSE, NH","Latitude":"44.02955","Longitude":"-71.11664","Snowdepth":"13.000","Units":"in","Rept_Date":"2020-02-14 15"},"coordinates":[6131,4551]},{"type":"Point","properties":{"Station_ID":"MWTM1","Station_Nam":"MILLINOCKET WWTP","Latitude":"45.64030","Longitude":"-68.67480","Snowdepth":"13.000","Units":"in","Rept_Date":"2020-02-14 11"},"coordinates":[6704,5691]},{"type":"Point","properties":{"Station_ID":"MNG0GYSN","Station_Nam":"LONSDALE 1.1 SSW","Latitude":"44.46445","Longitude":"-93.43293","Snowdepth":"13.000","Units":"in","Rept_Date":"2020-02-14 12"},"coordinates":[893,4859]},{"type":"Point","properties":{"Station_ID":"MN-RC-1","Station_Nam":"MONTGOMERY 3.2 ENE, MN","Latitude":"44.46400","Longitude":"-93.51980","Snowdepth":"13.000","Units":"in","Rept_Date":"2020-02-14 12"},"coordinates":[873,4859]},{"type":"Point","properties":{"Station_ID":"MIAM5","Station_Nam":"MILAN 1NW","Latitude":"45.12190","Longitude":"-95.92690","Snowdepth":"13.000","Units":"in","Rept_Date":"2020-02-15 00"},"coordinates":[308,5325]},{"type":"Point","properties":{"Station_ID":"MI-GT-25","Station_Nam":"TRAVERSE CITY 4.7 ESE, MI","Latitude":"44.73370","Longitude":"-85.51189","Snowdepth":"13.000","Units":"in","Rept_Date":"2020-02-14 12"},"coordinates":[2752,5050]},{"type":"Point","properties":{"Station_ID":"MI-GT-21","Station_Nam":"KINGSLEY 2.7 ENE, MI","Latitude":"44.59871","Longitude":"-85.48426","Snowdepth":"13.000","Units":"in","Rept_Date":"2020-02-14 13"},"coordinates":[2759,4954]},{"type":"Point","properties":{"Station_ID":"MFDW3","Station_Nam":"MARSHFIELD EXP FARM","Latitude":"44.64110","Longitude":"-90.13330","Snowdepth":"13.000","Units":"in","Rept_Date":"2020-02-14 13"},"coordinates":[1668,4984]},{"type":"Point","properties":{"Station_ID":"MEDW3","Station_Nam":"MEDFORD","Latitude":"45.13080","Longitude":"-90.34390","Snowdepth":"13.000","Units":"in","Rept_Date":"2020-02-14 14"},"coordinates":[1618,5331]},{"type":"Point","properties":{"Station_ID":"MAPM4","Station_Nam":"MAPLE CITY 1E","Latitude":"44.85500","Longitude":"-85.83520","Snowdepth":"13.000","Units":"in","Rept_Date":"2020-02-14 23"},"coordinates":[2676,5136]},{"type":"Point","properties":{"Station_ID":"LAMM5","Station_Nam":"LAMBERTON SW RESEARCH AND OUTREACH CENTER","Latitude":"44.23950","Longitude":"-95.31520","Snowdepth":"13.000","Units":"in","Rept_Date":"2020-02-14 14"},"coordinates":[451,4700]},{"type":"Point","properties":{"Station_ID":"KSEM4","Station_Nam":"KALKASKA 11SE","Latitude":"44.58970","Longitude":"-85.04860","Snowdepth":"13.000","Units":"in","Rept_Date":"2020-02-14 13"},"coordinates":[2861,4948]},{"type":"Point","properties":{"Station_ID":"HRTM1","Station_Nam":"HARTFORD","Latitude":"44.37440","Longitude":"-70.31620","Snowdepth":"13.000","Units":"in","Rept_Date":"2020-02-14 12"},"coordinates":[6318,4796]},{"type":"Point","properties":{"Station_ID":"GRBM5","Station_Nam":"GRAND RAPIDS 12N","Latitude":"47.39800","Longitude":"-93.51330","Snowdepth":"13.000","Units":"in","Rept_Date":"2020-02-14 13"},"coordinates":[874,6935]},{"type":"Point","properties":{"Station_ID":"GLRM5","Station_Nam":"GLACIAL RIDGE","Latitude":"47.71670","Longitude":"-96.26670","Snowdepth":"13.000","Units":"in","Rept_Date":"2020-02-15 06"},"coordinates":[228,7161]},{"type":"Point","properties":{"Station_ID":"GFK","Station_Nam":"GRAND FORKS INTERNATIONAL AIRPORT","Latitude":"47.94920","Longitude":"-97.17610","Snowdepth":"13.000","Units":"in","Rept_Date":"2020-02-15 00"},"coordinates":[15,7325]},{"type":"Point","properties":{"Station_ID":"CVZW3","Station_Nam":"WISCONSIN PUBLIC SERVICE","Latitude":"45.23530","Longitude":"-88.01360","Snowdepth":"13.000","Units":"in","Rept_Date":"2020-02-14 12"},"coordinates":[2165,5405]},{"type":"Point","properties":{"Station_ID":"CTNW3","Station_Nam":"CASHTON 3NNW","Latitude":"43.78600","Longitude":"-90.79520","Snowdepth":"13.000","Units":"in","Rept_Date":"2020-02-14 13"},"coordinates":[1512,4379]},{"type":"Point","properties":{"Station_ID":"CDLM4","Station_Nam":"CADILLAC 9&10 NEWS","Latitude":"44.21130","Longitude":"-85.40860","Snowdepth":"13.000","Units":"in","Rept_Date":"2020-02-14 12"},"coordinates":[2776,4680]},{"type":"Point","properties":{"Station_ID":"BEAW3","Station_Nam":"BEAVER DAM,WI","Latitude":"43.45000","Longitude":"-88.85000","Snowdepth":"13.000","Units":"in","Rept_Date":"2020-02-14 13"},"coordinates":[1969,4141]},{"type":"Point","properties":{"Station_ID":"ATW","Station_Nam":"OUTAGAMIE COUNTY AIRPORT","Latitude":"44.25750","Longitude":"-88.51940","Snowdepth":"13.000","Units":"in","Rept_Date":"2020-02-15 00"},"coordinates":[2046,4713]},{"type":"Point","properties":{"Station_ID":"APPW3","Station_Nam":"APPLETON","Latitude":"44.27690","Longitude":"-88.43770","Snowdepth":"13.000","Units":"in","Rept_Date":"2020-02-14 12"},"coordinates":[2066,4727]},{"type":"Point","properties":{"Station_ID":"ALBM5","Station_Nam":"ALBERT LEA 3 SE","Latitude":"43.60640","Longitude":"-93.30190","Snowdepth":"13.000","Units":"in","Rept_Date":"2020-02-14 14"},"coordinates":[924,4252]},{"type":"Point","properties":{"Station_ID":"CAN-MB-298","Station_Nam":"GARDENTON 4.2 W - SRRCD, CAN","Latitude":"49.09480","Longitude":"-96.75446","Snowdepth":"12.600","Units":"in","Rept_Date":"2020-02-14 14"},"coordinates":[114,8136]},{"type":"Point","properties":{"Station_ID":"VT-CH-13","Station_Nam":"RICHMOND 3.4 SSE, VT","Latitude":"44.36084","Longitude":"-72.96400","Snowdepth":"12.500","Units":"in","Rept_Date":"2020-02-14 12"},"coordinates":[5697,4786]},{"type":"Point","properties":{"Station_ID":"NY-ER-75","Station_Nam":"ELMA CENTER 0.7 SE, NY","Latitude":"42.81936","Longitude":"-78.62140","Snowdepth":"12.500","Units":"in","Rept_Date":"2020-02-14 14"},"coordinates":[4369,3695]},{"type":"Point","properties":{"Station_ID":"NH-MR-60","Station_Nam":"SOUTH SUTTON 1.3 SE, NH","Latitude":"43.29531","Longitude":"-71.90238","Snowdepth":"12.500","Units":"in","Rept_Date":"2020-02-14 13"},"coordinates":[5946,4032]},{"type":"Point","properties":{"Station_ID":"ME-CM-54","Station_Nam":"WINDHAM 3.9 NW, ME","Latitude":"43.85787","Longitude":"-70.46200","Snowdepth":"12.400","Units":"in","Rept_Date":"2020-02-14 12"},"coordinates":[6284,4430]},{"type":"Point","properties":{"Station_ID":"WNDM1","Station_Nam":"WINDHAM 2NW","Latitude":"43.85670","Longitude":"-70.46630","Snowdepth":"12.000","Units":"in","Rept_Date":"2020-02-14 12"},"coordinates":[6283,4429]},{"type":"Point","properties":{"Station_ID":"WLKM5","Station_Nam":"AH-GWAH-CHING","Latitude":"47.15000","Longitude":"-94.65000","Snowdepth":"12.000","Units":"in","Rept_Date":"2020-02-14 11"},"coordinates":[608,6760]},{"type":"Point","properties":{"Station_ID":"WIRW3","Station_Nam":"WIS RAPIDS GRAND AV B","Latitude":"44.39940","Longitude":"-89.83050","Snowdepth":"12.000","Units":"in","Rept_Date":"2020-02-14 13"},"coordinates":[1739,4813]},{"type":"Point","properties":{"Station_ID":"WI-WK-73","Station_Nam":"MENOMONEE FALLS 3.2 NNW, WI","Latitude":"43.18817","Longitude":"-88.15555","Snowdepth":"12.000","Units":"in","Rept_Date":"2020-02-14 13"},"coordinates":[2132,3956]},{"type":"Point","properties":{"Station_ID":"WI-WH-7","Station_Nam":"WILD ROSE 0.5 E, WI","Latitude":"44.17764","Longitude":"-89.23812","Snowdepth":"12.000","Units":"in","Rept_Date":"2020-02-14 13"},"coordinates":[1878,4656]},{"type":"Point","properties":{"Station_ID":"VT-CH-38","Station_Nam":"WILLISTON 0.2 WSW, VT","Latitude":"44.43669","Longitude":"-73.07154","Snowdepth":"12.000","Units":"in","Rept_Date":"2020-02-14 12"},"coordinates":[5672,4840]},{"type":"Point","properties":{"Station_ID":"VT-BN-7","Station_Nam":"MANCHESTER 2.8 ENE, VT","Latitude":"43.17274","Longitude":"-73.01811","Snowdepth":"12.000","Units":"in","Rept_Date":"2020-02-14 12"},"coordinates":[5684,3945]},{"type":"Point","properties":{"Station_ID":"THLM5","Station_Nam":"THEILMAN 1SSW","Latitude":"44.28130","Longitude":"-92.19430","Snowdepth":"12.000","Units":"in","Rept_Date":"2020-02-14 13"},"coordinates":[1184,4730]},{"type":"Point","properties":{"Station_ID":"TAHW3","Station_Nam":"TAYCHEEDAH","Latitude":"43.83390","Longitude":"-88.34690","Snowdepth":"12.000","Units":"in","Rept_Date":"2020-02-14 12"},"coordinates":[2087,4413]},{"type":"Point","properties":{"Station_ID":"STRW3","Station_Nam":"STRATFORD 1NW","Latitude":"44.81750","Longitude":"-90.08990","Snowdepth":"12.000","Units":"in","Rept_Date":"2020-02-14 13"},"coordinates":[1678,5109]},{"type":"Point","properties":{"Station_ID":"SANI4","Station_Nam":"ST ANSGAR","Latitude":"43.38170","Longitude":"-92.92320","Snowdepth":"12.000","Units":"in","Rept_Date":"2020-02-14 12"},"coordinates":[1013,4093]},{"type":"Point","properties":{"Station_ID":"RCEM5","Station_Nam":"RICE","Latitude":"45.75760","Longitude":"-94.20720","Snowdepth":"12.000","Units":"in","Rept_Date":"2020-02-14 13"},"coordinates":[711,5774]},{"type":"Point","properties":{"Station_ID":"PBAN8","Station_Nam":"SITE 1-3MI.N","Latitude":"48.97420","Longitude":"-97.23860","Snowdepth":"12.000","Units":"in","Rept_Date":"2020-02-14 13"},"coordinates":[0,8051]},{"type":"Point","properties":{"Station_ID":"ONAM4","Station_Nam":"ONAWAY 4N","Latitude":"45.41080","Longitude":"-84.22330","Snowdepth":"12.000","Units":"in","Rept_Date":"2020-02-14 23"},"coordinates":[3055,5529]},{"type":"Point","properties":{"Station_ID":"NY-WR-10","Station_Nam":"WARRENSBURG 2.1 WNW, NY","Latitude":"43.51784","Longitude":"-73.81069","Snowdepth":"12.000","Units":"in","Rept_Date":"2020-02-14 13"},"coordinates":[5498,4189]},{"type":"Point","properties":{"Station_ID":"NY-OS-15","Station_Nam":"MINETTO 0.1 SE, NY","Latitude":"43.39771","Longitude":"-76.47960","Snowdepth":"12.000","Units":"in","Rept_Date":"2020-02-14 13"},"coordinates":[4872,4104]},{"type":"Point","properties":{"Station_ID":"NY-FL-7","Station_Nam":"BROADALBIN 4.7 ESE, NY","Latitude":"43.03940","Longitude":"-74.10845","Snowdepth":"12.000","Units":"in","Rept_Date":"2020-02-14 14"},"coordinates":[5428,3851]},{"type":"Point","properties":{"Station_ID":"NY-CR-5","Station_Nam":"MARATHON 1.0 NW, NY","Latitude":"42.45161","Longitude":"-76.04370","Snowdepth":"12.000","Units":"in","Rept_Date":"2020-02-14 12"},"coordinates":[4974,3435]},{"type":"Point","properties":{"Station_ID":"NVLN6","Station_Nam":"NORTHVILLE","Latitude":"43.23330","Longitude":"-74.16670","Snowdepth":"12.000","Units":"in","Rept_Date":"2020-02-14 13"},"coordinates":[5415,3988]},{"type":"Point","properties":{"Station_ID":"NH-GR-1","Station_Nam":"BRISTOL 0.4 SSE, NH","Latitude":"43.59490","Longitude":"-71.74140","Snowdepth":"12.000","Units":"in","Rept_Date":"2020-02-14 12"},"coordinates":[5984,4244]},{"type":"Point","properties":{"Station_ID":"MYOM4","Station_Nam":"MIO WWTP","Latitude":"44.64660","Longitude":"-84.11580","Snowdepth":"12.000","Units":"in","Rept_Date":"2020-02-14 13"},"coordinates":[3080,4988]},{"type":"Point","properties":{"Station_ID":"MWN","Station_Nam":"MOUNT WASHINGTON","Latitude":"44.26670","Longitude":"-71.30000","Snowdepth":"12.000","Units":"in","Rept_Date":"2020-02-15 05"},"coordinates":[6088,4719]},{"type":"Point","properties":{"Station_ID":"MSCM5","Station_Nam":"MINNESOTA CITY","Latitude":"44.16000","Longitude":"-91.81220","Snowdepth":"12.000","Units":"in","Rept_Date":"2020-02-14 14"},"coordinates":[1274,4644]},{"type":"Point","properties":{"Station_ID":"MRQM4","Station_Nam":"MARQUETTE WFP","Latitude":"46.54580","Longitude":"-87.37950","Snowdepth":"12.000","Units":"in","Rept_Date":"2020-02-14 13"},"coordinates":[2314,6332]},{"type":"Point","properties":{"Station_ID":"MNPV1","Station_Nam":"MONTPELIER 2","Latitude":"44.25530","Longitude":"-72.60060","Snowdepth":"12.000","Units":"in","Rept_Date":"2020-02-14 12"},"coordinates":[5782,4711]},{"type":"Point","properties":{"Station_ID":"MNP0GYWA","Station_Nam":"WALKER 2.0 SSE","Latitude":"47.07505","Longitude":"-94.56757","Snowdepth":"12.000","Units":"in","Rept_Date":"2020-02-14 11"},"coordinates":[627,6707]},{"type":"Point","properties":{"Station_ID":"MNOW3","Station_Nam":"CEDAR FALLS HYDRO PLANT","Latitude":"44.93550","Longitude":"-91.88850","Snowdepth":"12.000","Units":"in","Rept_Date":"2020-02-14 13"},"coordinates":[1256,5193]},